{"last_updated":1744171973,"ttl":60,"version":"2.2","data":{"bikes":[{"bike_id":"8b4a5c52-3413-49f2-b7f4-7f3508a08342","system_id":"levelo_inurba_marseille","lat":43.30235,"lon":5.40064,"is_reserved":false,"is_disabled":false,"rental_uris":{"android":"levelo://app?vid=8b4a5c52-3413-49f2-b7f4-7f3508a08342","ios":"levelo://app?vid=8b4a5c52-3413-49f2-b7f4-7f3508a08342"},"vehicle_type_id":"4","last_reported":1744171973,"current_range_meters":2800,"station_id":"ce4bgvh2rcd13ifvqcs0","pricing_plan_id":"cebpf4jnsgd1na2vs0mg"},{"bike_id":"cc057f14-b1e1-4dee-b107-8741c01c5964","system_id":"levelo_inurba_marseille","lat":43.32133,"lon":5.36759,"is_reserved":false,"is_disabled":true,"rental_uris":{"android":"levelo://app?vid=cc057f14-b1e1-4dee-b107-8741c01c5964","ios":"levelo://app?vid=cc057f14-b1e1-4dee-b107-8741c01c5964"},"vehicle_type_id":"4","last_reported":1744171973,"current_range_meters":2800,"station_id":"ce4bhrh2rcd13ifvqhug","pricing_plan_id":"cebpf4jnsgd1na2vs0mg"},{"bike_id":"3944b4a0-54fb-4d6c-af80-4ca20b89931c","system_id":"levelo_inurba_marseille","lat":43.279995,"lon":5.41648,"is_reserved":false,"is_disabled":false,"rental_uris":{"android":"levelo://app?vid=3944b4a0-54fb-4d6c-af80-4ca20b89931c","ios":"levelo://app?vid=3944b4a0-54fb-4d6c-af80-4ca20b89931c"},"vehicle_type_id":"4","last_reported":1744171973,"current_range_meters":3200,"station_id":"ce4bho12rcd13ifvqh1g","pricing_plan_id":"cebpf4jnsgd1na2vs0mg"},{"bike_id":"87bda883-ac94-49fc-94c2-3a86e52b4f97","system_id":"levelo_inurba_marseille","lat":43.30711,"lon":5.38349,"is_reserved":false,"is_disabled":false,"rental_uris":{"android":"levelo://app?vid=87bda883-ac94-49fc-94c2-3a86e52b4f97","ios":"levelo://app?vid=87bda883-ac94-49fc-94c2-3a86e52b4f97"},"vehicle_type_id":"4","last_reported":1744171973,"current_range_meters":3200,"station_id":"","pricing_plan_id":"cebpf4jnsgd1na2vs0mg"},{"bike_id":"83048e5e-4a32-4a69-87af-ee93450509d9","system_id":"levelo_inurba_marseille","lat":43.297177,"lon":5.366122,"is_reserved":false,"is_disabled":false,"rental_uris":{"android":"levelo://app?vid=83048e5e-4a32-4a69-87af-ee93450509d9","ios":"levelo://app?vid=83048e5e-4a32-4a69-87af-ee93450509d9"},"vehicle_type_id":"4","last_reported":1744171973,"current_range_meters":3600,"station_id":"ce4bgn12rcd13ifvqbt0","pricing_plan_id":"cebpf4jnsgd1na2vs0mg"},{"bike_id":"97d81599-6c9d-4509-a79c-73a8d98c3d8b","system_id":"levelo_inurba_marseille","lat":43.30373,"lon":5.42473,"is_reserved":false,"is_disabled":true,"rental_uris":{"android":"levelo://app?vid=97d81599-6c9d-4509-a79c-73a8d98c3d8b","ios":"levelo://app?vid=97d81599-6c9d-4509-a79c-73a8d98c3d8b"},"vehicle_type_id":"4","last_reported":1744171973,"current_range_meters":3600,"station_id":"ce4bhoh2rcd13ifvqh6g","pricing_plan_id":"cebpf4jnsgd1na2vs0mg"},{"bike_id":"5c28de0a-fbcc-46c1-82b0-7bba6dee6dff","system_id":"levelo_inurba_marseille","lat":43.306057,"lon":5.372279,"is_reserved":false,"is_disabled":false,"rental_uris":{"android":"levelo://app?vid=5c28de0a-fbcc-46c1-82b0-7bba6dee6dff","ios":"levelo://app?vid=5c28de0a-fbcc-46c1-82b0-7bba6dee6dff"},"vehicle_type_id":"4","last_reported":1744171973,"current_range_meters":4000,"station_id":"ce4bgqh2rcd13ifvqc4g","pricing_plan_id":"cebpf4jnsgd1na2vs0mg"},{"bike_id":"b7c975f1-28d1-4655-a721-f9efee62b9d5","system_id":"levelo_inurba_marseille","lat":43.297989,"lon":5.404048,"is_reserved":false,"is_disabled":false,"rental_uris":{"android":"levelo://app?vid=b7c975f1-28d1-4655-a721-f9efee62b9d5","ios":"levelo://app?vid=b7c975f1-28d1-4655-a721-f9efee62b9d5"},"vehicle_type_id":"4","last_reported":1744171973,"current_range_meters":4000,"station_id":"ce4bh112rcd13ifvqd90","pricing_plan_id":"cebpf4jnsgd1na2vs0mg"},{"bike_id":"e29713b8-8720-4cc4-af39-aec8c5d44bb1","system_id":"levelo_inurba_marseille","lat":43.30155,"lon":5.38097,"is_reserved":false,"is_disabled":false,"rental_uris":{"android":"levelo://app?vid=e29713b8-8720-4cc4-af39-aec8c5d44bb1","ios":"levelo://app?vid=e29713b8-8720-4cc4-af39-aec8c5d44bb1"},"vehicle_type_id":"4","last_reported":1744171973,"current_range_meters":4400,"station_id":"ce4bgjp2rcd13ifvqbh0","pricing_plan_id":"cebpf4jnsgd1na2vs0mg"},{"bike_id":"b30babdb-4682-4a47-ac66-3ae98de5026a","system_id":"levelo_inurba_marseille","lat":43.316894,"lon":5.404519,"is_reserved":false,"is_disabled":false,"rental_uris":{"android":"levelo://app?vid=b30babdb-4682-4a47-ac66-3ae98de5026a","ios":"levelo://app?vid=b30babdb-4682-4a47-ac66-3ae98de5026a"},"vehicle_type_id":"4","last_reported":1744171973,"current_range_meters":4400,"station_id":"ce4bh012rcd13ifvqd00","pricing_plan_id":"cebpf4jnsgd1na2vs0mg"},{"bike_id":"0fbdf58d-4917-4d24-8b4b-9c66b7b96e08","system_id":"levelo_inurba_marseille","lat":43.31742,"lon":5.39864,"is_reserved":false,"is_disabled":false,"rental_uris":{"android":"levelo://app?vid=0fbdf58d-4917-4d24-8b4b-9c66b7b96e08","ios":"levelo://app?vid=0fbdf58d-4917-4d24-8b4b-9c66b7b96e08"},"vehicle_type_id":"4","last_reported":1744171973,"current_range_meters":4400,"station_id":"","pricing_plan_id":"cebpf4jnsgd1na2vs0mg"},{"bike_id":"512c3935-cb43-4190-8f8b-8c2874341e39","system_id":"levelo_inurba_marseille","lat":43.30914,"lon":5.37883,"is_reserved":false,"is_disabled":false,"rental_uris":{"android":"levelo://app?vid=512c3935-cb43-4190-8f8b-8c2874341e39","ios":"levelo://app?vid=512c3935-cb43-4190-8f8b-8c2874341e39"},"vehicle_type_id":"4","last_reported":1744171973,"current_range_meters":4800,"station_id":"","pricing_plan_id":"cebpf4jnsgd1na2vs0mg"},{"bike_id":"4b8dddbd-4a73-4c7c-a615-40a931cd78e8","system_id":"levelo_inurba_marseille","lat":43.25083,"lon":5.39538,"is_reserved":false,"is_disabled":false,"rental_uris":{"android":"levelo://app?vid=4b8dddbd-4a73-4c7c-a615-40a931cd78e8","ios":"levelo://app?vid=4b8dddbd-4a73-4c7c-a615-40a931cd78e8"},"vehicle_type_id":"4","last_reported":1744171973,"current_range_meters":4800,"station_id":"ce4bhm12rcd13ifvqgkg","pricing_plan_id":"cebpf4jnsgd1na2vs0mg"},{"bike_id":"d3f35d20-0527-45ae-94a7-5416fa0141b3","system_id":"levelo_inurba_marseille","lat":43.28718,"lon":5.36098,"is_reserved":false,"is_disabled":false,"rental_uris":{"android":"levelo://app?vid=d3f35d20-0527-45ae-94a7-5416fa0141b3","ios":"levelo://app?vid=d3f35d20-0527-45ae-94a7-5416fa0141b3"},"vehicle_type_id":"4","last_reported":1744171973,"current_range_meters":4800,"station_id":"cki0cbj6b192h4jlfktg","pricing_plan_id":"cebpf4jnsgd1na2vs0mg"},{"bike_id":"01c10d9c-6749-4cb0-95a9-9e7a13065362","system_id":"levelo_inurba_marseille","lat":43.2592,"lon":5.4089,"is_reserved":false,"is_disabled":false,"rental_uris":{"android":"levelo://app?vid=01c10d9c-6749-4cb0-95a9-9e7a13065362","ios":"levelo://app?vid=01c10d9c-6749-4cb0-95a9-9e7a13065362"},"vehicle_type_id":"4","last_reported":1744171973,"current_range_meters":4800,"station_id":"ce4bhm92rcd13ifvqglg","pricing_plan_id":"cebpf4jnsgd1na2vs0mg"},{"bike_id":"a2bc1534-fa4c-44c0-9bf1-e145e671d810","system_id":"levelo_inurba_marseille","lat":43.30319,"lon":5.401,"is_reserved":false,"is_disabled":false,"rental_uris":{"android":"levelo://app?vid=a2bc1534-fa4c-44c0-9bf1-e145e671d810","ios":"levelo://app?vid=a2bc1534-fa4c-44c0-9bf1-e145e671d810"},"vehicle_type_id":"4","last_reported":1744171973,"current_range_meters":4800,"station_id":"ce4bgvh2rcd13ifvqcs0","pricing_plan_id":"cebpf4jnsgd1na2vs0mg"},{"bike_id":"52a3a737-d744-44aa-901d-daf29012d3d4","system_id":"levelo_inurba_marseille","lat":43.30901,"lon":5.37087,"is_reserved":false,"is_disabled":false,"rental_uris":{"android":"levelo://app?vid=52a3a737-d744-44aa-901d-daf29012d3d4","ios":"levelo://app?vid=52a3a737-d744-44aa-901d-daf29012d3d4"},"vehicle_type_id":"4","last_reported":1744171973,"current_range_meters":4800,"station_id":"","pricing_plan_id":"cebpf4jnsgd1na2vs0mg"},{"bike_id":"ed9f6678-f127-423a-af4f-2412f3e7b9ad","system_id":"levelo_inurba_marseille","lat":43.30545,"lon":5.38416,"is_reserved":false,"is_disabled":false,"rental_uris":{"android":"levelo://app?vid=ed9f6678-f127-423a-af4f-2412f3e7b9ad","ios":"levelo://app?vid=ed9f6678-f127-423a-af4f-2412f3e7b9ad"},"vehicle_type_id":"4","last_reported":1744171973,"current_range_meters":4800,"station_id":"ce4bgg92rcd13ifvqb30","pricing_plan_id":"cebpf4jnsgd1na2vs0mg"},{"bike_id":"a2d46cb9-9eeb-44f6-ab18-0e5c210fd7b5","system_id":"levelo_inurba_marseille","lat":43.289376,"lon":5.366421,"is_reserved":false,"is_disabled":true,"rental_uris":{"android":"levelo://app?vid=a2d46cb9-9eeb-44f6-ab18-0e5c210fd7b5","ios":"levelo://app?vid=a2d46cb9-9eeb-44f6-ab18-0e5c210fd7b5"},"vehicle_type_id":"4","last_reported":1744171973,"current_range_meters":4800,"station_id":"ce4bhap2rcd13ifvqek0","pricing_plan_id":"cebpf4jnsgd1na2vs0mg"},{"bike_id":"49a7ec0f-b2f6-4743-b0f8-a332720609da","system_id":"levelo_inurba_marseille","lat":43.303,"lon":5.39209,"is_reserved":false,"is_disabled":false,"rental_uris":{"android":"levelo://app?vid=49a7ec0f-b2f6-4743-b0f8-a332720609da","ios":"levelo://app?vid=49a7ec0f-b2f6-4743-b0f8-a332720609da"},"vehicle_type_id":"4","last_reported":1744171973,"current_range_meters":5600,"station_id":"ce4bgkh2rcd13ifvqbk0","pricing_plan_id":"cebpf4jnsgd1na2vs0mg"},{"bike_id":"995e03b4-eefd-46d7-9d4d-abb00a296bb5","system_id":"levelo_inurba_marseille","lat":43.23184,"lon":5.399865,"is_reserved":false,"is_disabled":false,"rental_uris":{"android":"levelo://app?vid=995e03b4-eefd-46d7-9d4d-abb00a296bb5","ios":"levelo://app?vid=995e03b4-eefd-46d7-9d4d-abb00a296bb5"},"vehicle_type_id":"4","last_reported":1744171973,"current_range_meters":5600,"station_id":"ce4bhn12rcd13ifvqgqg","pricing_plan_id":"cebpf4jnsgd1na2vs0mg"},{"bike_id":"3ea3a003-2b79-4394-9296-9c53c80fdbe9","system_id":"levelo_inurba_marseille","lat":43.27915,"lon":5.39604,"is_reserved":false,"is_disabled":false,"rental_uris":{"android":"levelo://app?vid=3ea3a003-2b79-4394-9296-9c53c80fdbe9","ios":"levelo://app?vid=3ea3a003-2b79-4394-9296-9c53c80fdbe9"},"vehicle_type_id":"4","last_reported":1744171973,"current_range_meters":5600,"station_id":"ce4bhf92rcd13ifvqf40","pricing_plan_id":"cebpf4jnsgd1na2vs0mg"},{"bike_id":"94cc02d0-1cba-4ce3-a6ee-2b2a43266460","system_id":"levelo_inurba_marseille","lat":43.25075,"lon":5.39534,"is_reserved":false,"is_disabled":false,"rental_uris":{"android":"levelo://app?vid=94cc02d0-1cba-4ce3-a6ee-2b2a43266460","ios":"levelo://app?vid=94cc02d0-1cba-4ce3-a6ee-2b2a43266460"},"vehicle_type_id":"4","last_reported":1744171973,"current_range_meters":5600,"station_id":"ce4bhm12rcd13ifvqgkg","pricing_plan_id":"cebpf4jnsgd1na2vs0mg"},{"bike_id":"e7e1ab45-7d32-4b6d-ad17-3b30963cb3b2","system_id":"levelo_inurba_marseille","lat":43.25093,"lon":5.39549,"is_reserved":false,"is_disabled":false,"rental_uris":{"android":"levelo://app?vid=e7e1ab45-7d32-4b6d-ad17-3b30963cb3b2","ios":"levelo://app?vid=e7e1ab45-7d32-4b6d-ad17-3b30963cb3b2"},"vehicle_type_id":"4","last_reported":1744171973,"current_range_meters":5600,"station_id":"ce4bhm12rcd13ifvqgkg","pricing_plan_id":"cebpf4jnsgd1na2vs0mg"},{"bike_id":"6ab4d61d-93c3-47be-b0ad-8677e7354ce9","system_id":"levelo_inurba_marseille","lat":43.28722,"lon":5.36074,"is_reserved":false,"is_disabled":false,"rental_uris":{"android":"levelo://app?vid=6ab4d61d-93c3-47be-b0ad-8677e7354ce9","ios":"levelo://app?vid=6ab4d61d-93c3-47be-b0ad-8677e7354ce9"},"vehicle_type_id":"4","last_reported":1744171973,"current_range_meters":5600,"station_id":"cki0cbj6b192h4jlfktg","pricing_plan_id":"cebpf4jnsgd1na2vs0mg"},{"bike_id":"95e4d341-aa1d-45d3-97d4-58ce3861535b","system_id":"levelo_inurba_marseille","lat":43.21194,"lon":5.35079,"is_reserved":false,"is_disabled":true,"rental_uris":{"android":"levelo://app?vid=95e4d341-aa1d-45d3-97d4-58ce3861535b","ios":"levelo://app?vid=95e4d341-aa1d-45d3-97d4-58ce3861535b"},"vehicle_type_id":"4","last_reported":1744171973,"current_range_meters":5600,"station_id":"","pricing_plan_id":"cebpf4jnsgd1na2vs0mg"},{"bike_id":"fe15bbb3-41d5-44a5-be9a-d99b3ed36373","system_id":"levelo_inurba_marseille","lat":43.284482,"lon":5.391866,"is_reserved":false,"is_disabled":true,"rental_uris":{"android":"levelo://app?vid=fe15bbb3-41d5-44a5-be9a-d99b3ed36373","ios":"levelo://app?vid=fe15bbb3-41d5-44a5-be9a-d99b3ed36373"},"vehicle_type_id":"4","last_reported":1744171973,"current_range_meters":6000,"station_id":"ce4bhoh2rcd13ifvqh5g","pricing_plan_id":"cebpf4jnsgd1na2vs0mg"},{"bike_id":"c5fb24e6-da81-4c8b-a57b-0bdcae5727b6","system_id":"levelo_inurba_marseille","lat":43.250871,"lon":5.395155,"is_reserved":false,"is_disabled":false,"rental_uris":{"android":"levelo://app?vid=c5fb24e6-da81-4c8b-a57b-0bdcae5727b6","ios":"levelo://app?vid=c5fb24e6-da81-4c8b-a57b-0bdcae5727b6"},"vehicle_type_id":"4","last_reported":1744171973,"current_range_meters":6000,"station_id":"ce4bhm12rcd13ifvqgkg","pricing_plan_id":"cebpf4jnsgd1na2vs0mg"},{"bike_id":"ecef8e9e-03dc-4612-b74e-b978f92e2873","system_id":"levelo_inurba_marseille","lat":43.30098,"lon":5.39088,"is_reserved":false,"is_disabled":true,"rental_uris":{"android":"levelo://app?vid=ecef8e9e-03dc-4612-b74e-b978f92e2873","ios":"levelo://app?vid=ecef8e9e-03dc-4612-b74e-b978f92e2873"},"vehicle_type_id":"4","last_reported":1744171973,"current_range_meters":6000,"station_id":"ce4bh192rcd13ifvqdb0","pricing_plan_id":"cebpf4jnsgd1na2vs0mg"},{"bike_id":"35a9b3bf-fcf8-4f5d-9807-70a22f3ce6b3","system_id":"levelo_inurba_marseille","lat":43.29569,"lon":5.39954,"is_reserved":false,"is_disabled":false,"rental_uris":{"android":"levelo://app?vid=35a9b3bf-fcf8-4f5d-9807-70a22f3ce6b3","ios":"levelo://app?vid=35a9b3bf-fcf8-4f5d-9807-70a22f3ce6b3"},"vehicle_type_id":"4","last_reported":1744171973,"current_range_meters":6000,"station_id":"ce4bh312rcd13ifvqdj0","pricing_plan_id":"cebpf4jnsgd1na2vs0mg"},{"bike_id":"f39be6f5-2f69-4c37-b021-559d20b299a4","system_id":"levelo_inurba_marseille","lat":43.30014,"lon":5.37664,"is_reserved":false,"is_disabled":false,"rental_uris":{"android":"levelo://app?vid=f39be6f5-2f69-4c37-b021-559d20b299a4","ios":"levelo://app?vid=f39be6f5-2f69-4c37-b021-559d20b299a4"},"vehicle_type_id":"4","last_reported":1744171973,"current_range_meters":6000,"station_id":"","pricing_plan_id":"cebpf4jnsgd1na2vs0mg"},{"bike_id":"caa842d6-9249-4d70-a77b-fca8b6526707","system_id":"levelo_inurba_marseille","lat":43.26567,"lon":5.39029,"is_reserved":false,"is_disabled":false,"rental_uris":{"android":"levelo://app?vid=caa842d6-9249-4d70-a77b-fca8b6526707","ios":"levelo://app?vid=caa842d6-9249-4d70-a77b-fca8b6526707"},"vehicle_type_id":"4","last_reported":1744171973,"current_range_meters":6000,"station_id":"ce4bhe12rcd13ifvqf30","pricing_plan_id":"cebpf4jnsgd1na2vs0mg"},{"bike_id":"f4822b87-2284-4a37-8410-69cf3e5cbb74","system_id":"levelo_inurba_marseille","lat":43.286634,"lon":5.3635,"is_reserved":false,"is_disabled":false,"rental_uris":{"android":"levelo://app?vid=f4822b87-2284-4a37-8410-69cf3e5cbb74","ios":"levelo://app?vid=f4822b87-2284-4a37-8410-69cf3e5cbb74"},"vehicle_type_id":"4","last_reported":1744171973,"current_range_meters":6400,"station_id":"ce4bhah2rcd13ifvqej0","pricing_plan_id":"cebpf4jnsgd1na2vs0mg"},{"bike_id":"3576b946-70b3-456f-a60a-d98e227f015c","system_id":"levelo_inurba_marseille","lat":43.30106,"lon":5.3823,"is_reserved":false,"is_disabled":false,"rental_uris":{"android":"levelo://app?vid=3576b946-70b3-456f-a60a-d98e227f015c","ios":"levelo://app?vid=3576b946-70b3-456f-a60a-d98e227f015c"},"vehicle_type_id":"4","last_reported":1744171973,"current_range_meters":6400,"station_id":"ce4bgup2rcd13ifvqcn0","pricing_plan_id":"cebpf4jnsgd1na2vs0mg"},{"bike_id":"02f5f556-9aca-41a9-928c-e217b6392b4b","system_id":"levelo_inurba_marseille","lat":43.31827,"lon":5.43511,"is_reserved":false,"is_disabled":false,"rental_uris":{"android":"levelo://app?vid=02f5f556-9aca-41a9-928c-e217b6392b4b","ios":"levelo://app?vid=02f5f556-9aca-41a9-928c-e217b6392b4b"},"vehicle_type_id":"4","last_reported":1744171973,"current_range_meters":6400,"station_id":"","pricing_plan_id":"cebpf4jnsgd1na2vs0mg"},{"bike_id":"61faeab7-d3b1-42ea-8185-a6bb834269b2","system_id":"levelo_inurba_marseille","lat":43.271209,"lon":5.414384,"is_reserved":false,"is_disabled":false,"rental_uris":{"android":"levelo://app?vid=61faeab7-d3b1-42ea-8185-a6bb834269b2","ios":"levelo://app?vid=61faeab7-d3b1-42ea-8185-a6bb834269b2"},"vehicle_type_id":"4","last_reported":1744171973,"current_range_meters":6400,"station_id":"","pricing_plan_id":"cebpf4jnsgd1na2vs0mg"},{"bike_id":"2e9000dc-6400-4918-a994-dd60039ca96d","system_id":"levelo_inurba_marseille","lat":43.319949,"lon":5.381426,"is_reserved":false,"is_disabled":true,"rental_uris":{"android":"levelo://app?vid=2e9000dc-6400-4918-a994-dd60039ca96d","ios":"levelo://app?vid=2e9000dc-6400-4918-a994-dd60039ca96d"},"vehicle_type_id":"4","last_reported":1744171973,"current_range_meters":6400,"station_id":"ce4bhr12rcd13ifvqhpg","pricing_plan_id":"cebpf4jnsgd1na2vs0mg"},{"bike_id":"af02a3e1-9b40-4bd4-8597-818030bdac25","system_id":"levelo_inurba_marseille","lat":43.296898,"lon":5.438167,"is_reserved":false,"is_disabled":false,"rental_uris":{"android":"levelo://app?vid=af02a3e1-9b40-4bd4-8597-818030bdac25","ios":"levelo://app?vid=af02a3e1-9b40-4bd4-8597-818030bdac25"},"vehicle_type_id":"4","last_reported":1744171973,"current_range_meters":6800,"station_id":"","pricing_plan_id":"cebpf4jnsgd1na2vs0mg"},{"bike_id":"0136aac7-4b11-408a-8016-8954df1c7c11","system_id":"levelo_inurba_marseille","lat":43.29569,"lon":5.39972,"is_reserved":false,"is_disabled":false,"rental_uris":{"android":"levelo://app?vid=0136aac7-4b11-408a-8016-8954df1c7c11","ios":"levelo://app?vid=0136aac7-4b11-408a-8016-8954df1c7c11"},"vehicle_type_id":"4","last_reported":1744171973,"current_range_meters":6800,"station_id":"ce4bh312rcd13ifvqdj0","pricing_plan_id":"cebpf4jnsgd1na2vs0mg"},{"bike_id":"b9d1d5af-bea1-4034-b95f-410563597dbc","system_id":"levelo_inurba_marseille","lat":43.30787,"lon":5.38177,"is_reserved":false,"is_disabled":false,"rental_uris":{"android":"levelo://app?vid=b9d1d5af-bea1-4034-b95f-410563597dbc","ios":"levelo://app?vid=b9d1d5af-bea1-4034-b95f-410563597dbc"},"vehicle_type_id":"4","last_reported":1744171973,"current_range_meters":6800,"station_id":"ce4bgt12rcd13ifvqce0","pricing_plan_id":"cebpf4jnsgd1na2vs0mg"},{"bike_id":"456b79bb-81b6-42d9-a52b-1ca6c839f098","system_id":"levelo_inurba_marseille","lat":43.304132,"lon":5.412838,"is_reserved":false,"is_disabled":true,"rental_uris":{"android":"levelo://app?vid=456b79bb-81b6-42d9-a52b-1ca6c839f098","ios":"levelo://app?vid=456b79bb-81b6-42d9-a52b-1ca6c839f098"},"vehicle_type_id":"4","last_reported":1744171973,"current_range_meters":6800,"station_id":"ce4bhop2rcd13ifvqh8g","pricing_plan_id":"cebpf4jnsgd1na2vs0mg"},{"bike_id":"f17ce36f-e80a-4732-89e2-7a7dfab19d87","system_id":"levelo_inurba_marseille","lat":43.299,"lon":5.43672,"is_reserved":false,"is_disabled":false,"rental_uris":{"android":"levelo://app?vid=f17ce36f-e80a-4732-89e2-7a7dfab19d87","ios":"levelo://app?vid=f17ce36f-e80a-4732-89e2-7a7dfab19d87"},"vehicle_type_id":"4","last_reported":1744171973,"current_range_meters":7200,"station_id":"ce4bhpp2rcd13ifvqhfg","pricing_plan_id":"cebpf4jnsgd1na2vs0mg"},{"bike_id":"82f28cf6-556c-431d-a12b-bd3ce5fc2f28","system_id":"levelo_inurba_marseille","lat":43.27522,"lon":5.3776,"is_reserved":false,"is_disabled":false,"rental_uris":{"android":"levelo://app?vid=82f28cf6-556c-431d-a12b-bd3ce5fc2f28","ios":"levelo://app?vid=82f28cf6-556c-431d-a12b-bd3ce5fc2f28"},"vehicle_type_id":"4","last_reported":1744171973,"current_range_meters":7200,"station_id":"","pricing_plan_id":"cebpf4jnsgd1na2vs0mg"},{"bike_id":"e4a24fb8-6cfd-4e67-9f86-b5717b140f9c","system_id":"levelo_inurba_marseille","lat":43.29626,"lon":5.40608,"is_reserved":false,"is_disabled":false,"rental_uris":{"android":"levelo://app?vid=e4a24fb8-6cfd-4e67-9f86-b5717b140f9c","ios":"levelo://app?vid=e4a24fb8-6cfd-4e67-9f86-b5717b140f9c"},"vehicle_type_id":"4","last_reported":1744171973,"current_range_meters":7200,"station_id":"ce4bh0h2rcd13ifvqd60","pricing_plan_id":"cebpf4jnsgd1na2vs0mg"},{"bike_id":"49bd6e77-d561-4866-886e-a2b311584d16","system_id":"levelo_inurba_marseille","lat":43.28665,"lon":5.36381,"is_reserved":false,"is_disabled":false,"rental_uris":{"android":"levelo://app?vid=49bd6e77-d561-4866-886e-a2b311584d16","ios":"levelo://app?vid=49bd6e77-d561-4866-886e-a2b311584d16"},"vehicle_type_id":"4","last_reported":1744171973,"current_range_meters":7200,"station_id":"ce4bhah2rcd13ifvqej0","pricing_plan_id":"cebpf4jnsgd1na2vs0mg"},{"bike_id":"81b4eeec-d26b-4050-a92d-04743fb93072","system_id":"levelo_inurba_marseille","lat":43.231863,"lon":5.399885,"is_reserved":false,"is_disabled":true,"rental_uris":{"android":"levelo://app?vid=81b4eeec-d26b-4050-a92d-04743fb93072","ios":"levelo://app?vid=81b4eeec-d26b-4050-a92d-04743fb93072"},"vehicle_type_id":"4","last_reported":1744171973,"current_range_meters":7200,"station_id":"ce4bhn12rcd13ifvqgqg","pricing_plan_id":"cebpf4jnsgd1na2vs0mg"},{"bike_id":"90468961-ea62-48b3-8f76-e769f3c1c672","system_id":"levelo_inurba_marseille","lat":43.31719,"lon":5.42393,"is_reserved":false,"is_disabled":false,"rental_uris":{"android":"levelo://app?vid=90468961-ea62-48b3-8f76-e769f3c1c672","ios":"levelo://app?vid=90468961-ea62-48b3-8f76-e769f3c1c672"},"vehicle_type_id":"4","last_reported":1744171973,"current_range_meters":7200,"station_id":"ce4bhp92rcd13ifvqhbg","pricing_plan_id":"cebpf4jnsgd1na2vs0mg"},{"bike_id":"1eb71a30-329b-41c6-b726-06e434ae7680","system_id":"levelo_inurba_marseille","lat":43.24152,"lon":5.39719,"is_reserved":false,"is_disabled":false,"rental_uris":{"android":"levelo://app?vid=1eb71a30-329b-41c6-b726-06e434ae7680","ios":"levelo://app?vid=1eb71a30-329b-41c6-b726-06e434ae7680"},"vehicle_type_id":"4","last_reported":1744171973,"current_range_meters":7200,"station_id":"ce4bhn12rcd13ifvqgpg","pricing_plan_id":"cebpf4jnsgd1na2vs0mg"},{"bike_id":"74b78a6e-275c-47e0-b1ed-2ccf34bd59b9","system_id":"levelo_inurba_marseille","lat":43.30184,"lon":5.36631,"is_reserved":false,"is_disabled":false,"rental_uris":{"android":"levelo://app?vid=74b78a6e-275c-47e0-b1ed-2ccf34bd59b9","ios":"levelo://app?vid=74b78a6e-275c-47e0-b1ed-2ccf34bd59b9"},"vehicle_type_id":"4","last_reported":1744171973,"current_range_meters":8000,"station_id":"ce4bgrh2rcd13ifvqc8g","pricing_plan_id":"cebpf4jnsgd1na2vs0mg"},{"bike_id":"5cd1fd40-06f1-4a7e-84bc-4417ad88331e","system_id":"levelo_inurba_marseille","lat":43.28095,"lon":5.3786,"is_reserved":false,"is_disabled":false,"rental_uris":{"android":"levelo://app?vid=5cd1fd40-06f1-4a7e-84bc-4417ad88331e","ios":"levelo://app?vid=5cd1fd40-06f1-4a7e-84bc-4417ad88331e"},"vehicle_type_id":"4","last_reported":1744171973,"current_range_meters":8000,"station_id":"ce4bha12rcd13ifvqee0","pricing_plan_id":"cebpf4jnsgd1na2vs0mg"},{"bike_id":"be757470-b529-482c-8aa3-d5e9918b54f1","system_id":"levelo_inurba_marseille","lat":43.28405,"lon":5.37537,"is_reserved":false,"is_disabled":false,"rental_uris":{"android":"levelo://app?vid=be757470-b529-482c-8aa3-d5e9918b54f1","ios":"levelo://app?vid=be757470-b529-482c-8aa3-d5e9918b54f1"},"vehicle_type_id":"4","last_reported":1744171973,"current_range_meters":8000,"station_id":"ce4bh412rcd13ifvqds0","pricing_plan_id":"cebpf4jnsgd1na2vs0mg"},{"bike_id":"70810d3e-9936-4863-b211-84f880613e88","system_id":"levelo_inurba_marseille","lat":43.31291,"lon":5.37334,"is_reserved":false,"is_disabled":false,"rental_uris":{"android":"levelo://app?vid=70810d3e-9936-4863-b211-84f880613e88","ios":"levelo://app?vid=70810d3e-9936-4863-b211-84f880613e88"},"vehicle_type_id":"4","last_reported":1744171973,"current_range_meters":8000,"station_id":"","pricing_plan_id":"cebpf4jnsgd1na2vs0mg"},{"bike_id":"ec41b842-c84f-4ab1-894c-fc6101e00efb","system_id":"levelo_inurba_marseille","lat":43.31695,"lon":5.40296,"is_reserved":false,"is_disabled":false,"rental_uris":{"android":"levelo://app?vid=ec41b842-c84f-4ab1-894c-fc6101e00efb","ios":"levelo://app?vid=ec41b842-c84f-4ab1-894c-fc6101e00efb"},"vehicle_type_id":"4","last_reported":1744171973,"current_range_meters":8000,"station_id":"","pricing_plan_id":"cebpf4jnsgd1na2vs0mg"},{"bike_id":"57f9a9bd-fccb-4c5d-b4ed-627b7859a580","system_id":"levelo_inurba_marseille","lat":43.30864,"lon":5.39653,"is_reserved":false,"is_disabled":false,"rental_uris":{"android":"levelo://app?vid=57f9a9bd-fccb-4c5d-b4ed-627b7859a580","ios":"levelo://app?vid=57f9a9bd-fccb-4c5d-b4ed-627b7859a580"},"vehicle_type_id":"4","last_reported":1744171973,"current_range_meters":8000,"station_id":"ce4bh012rcd13ifvqcv0","pricing_plan_id":"cebpf4jnsgd1na2vs0mg"},{"bike_id":"90e1ffb5-531f-4bdf-aeac-9533e15166d0","system_id":"levelo_inurba_marseille","lat":43.299323,"lon":5.365438,"is_reserved":false,"is_disabled":false,"rental_uris":{"android":"levelo://app?vid=90e1ffb5-531f-4bdf-aeac-9533e15166d0","ios":"levelo://app?vid=90e1ffb5-531f-4bdf-aeac-9533e15166d0"},"vehicle_type_id":"4","last_reported":1744171973,"current_range_meters":8400,"station_id":"ce4bgm92rcd13ifvqbr0","pricing_plan_id":"cebpf4jnsgd1na2vs0mg"},{"bike_id":"40effb84-61ea-47dd-adb9-cf78a700dc94","system_id":"levelo_inurba_marseille","lat":43.28719,"lon":5.39949,"is_reserved":false,"is_disabled":false,"rental_uris":{"android":"levelo://app?vid=40effb84-61ea-47dd-adb9-cf78a700dc94","ios":"levelo://app?vid=40effb84-61ea-47dd-adb9-cf78a700dc94"},"vehicle_type_id":"4","last_reported":1744171973,"current_range_meters":8000,"station_id":"ce4bho92rcd13ifvqh3g","pricing_plan_id":"cebpf4jnsgd1na2vs0mg"},{"bike_id":"37b2591d-7265-4820-a87b-554301495f71","system_id":"levelo_inurba_marseille","lat":43.289435,"lon":5.366266,"is_reserved":false,"is_disabled":true,"rental_uris":{"android":"levelo://app?vid=37b2591d-7265-4820-a87b-554301495f71","ios":"levelo://app?vid=37b2591d-7265-4820-a87b-554301495f71"},"vehicle_type_id":"4","last_reported":1744171973,"current_range_meters":8400,"station_id":"ce4bhap2rcd13ifvqek0","pricing_plan_id":"cebpf4jnsgd1na2vs0mg"},{"bike_id":"ff85d859-6e25-4ab6-9dd4-461048d94450","system_id":"levelo_inurba_marseille","lat":43.31169,"lon":5.38717,"is_reserved":false,"is_disabled":false,"rental_uris":{"android":"levelo://app?vid=ff85d859-6e25-4ab6-9dd4-461048d94450","ios":"levelo://app?vid=ff85d859-6e25-4ab6-9dd4-461048d94450"},"vehicle_type_id":"4","last_reported":1744171973,"current_range_meters":8400,"station_id":"ce4bgv12rcd13ifvqcp0","pricing_plan_id":"cebpf4jnsgd1na2vs0mg"},{"bike_id":"0bc951e7-9df1-4035-a17c-7207093a2123","system_id":"levelo_inurba_marseille","lat":43.270527,"lon":5.402705,"is_reserved":false,"is_disabled":false,"rental_uris":{"android":"levelo://app?vid=0bc951e7-9df1-4035-a17c-7207093a2123","ios":"levelo://app?vid=0bc951e7-9df1-4035-a17c-7207093a2123"},"vehicle_type_id":"4","last_reported":1744171973,"current_range_meters":8400,"station_id":"ce4bhk92rcd13ifvqgc0","pricing_plan_id":"cebpf4jnsgd1na2vs0mg"},{"bike_id":"9b757910-c3ed-4a06-a368-8bfd9d50c7d2","system_id":"levelo_inurba_marseille","lat":43.28409,"lon":5.37519,"is_reserved":false,"is_disabled":false,"rental_uris":{"android":"levelo://app?vid=9b757910-c3ed-4a06-a368-8bfd9d50c7d2","ios":"levelo://app?vid=9b757910-c3ed-4a06-a368-8bfd9d50c7d2"},"vehicle_type_id":"4","last_reported":1744171973,"current_range_meters":8400,"station_id":"ce4bh412rcd13ifvqds0","pricing_plan_id":"cebpf4jnsgd1na2vs0mg"},{"bike_id":"333bf4b5-be21-4a48-8804-3c950d845e91","system_id":"levelo_inurba_marseille","lat":43.292649,"lon":5.376223,"is_reserved":false,"is_disabled":false,"rental_uris":{"android":"levelo://app?vid=333bf4b5-be21-4a48-8804-3c950d845e91","ios":"levelo://app?vid=333bf4b5-be21-4a48-8804-3c950d845e91"},"vehicle_type_id":"4","last_reported":1744171973,"current_range_meters":8400,"station_id":"ce4bgi12rcd13ifvqb80","pricing_plan_id":"cebpf4jnsgd1na2vs0mg"},{"bike_id":"ffe06810-5584-4421-889d-508aad74984f","system_id":"levelo_inurba_marseille","lat":43.261945,"lon":5.374538,"is_reserved":false,"is_disabled":false,"rental_uris":{"android":"levelo://app?vid=ffe06810-5584-4421-889d-508aad74984f","ios":"levelo://app?vid=ffe06810-5584-4421-889d-508aad74984f"},"vehicle_type_id":"4","last_reported":1744171973,"current_range_meters":8400,"station_id":"ce4bhgp2rcd13ifvqfc0","pricing_plan_id":"cebpf4jnsgd1na2vs0mg"},{"bike_id":"3d0cae43-5b75-4aac-b7cb-471ce1151dd5","system_id":"levelo_inurba_marseille","lat":43.330214,"lon":5.395263,"is_reserved":false,"is_disabled":false,"rental_uris":{"android":"levelo://app?vid=3d0cae43-5b75-4aac-b7cb-471ce1151dd5","ios":"levelo://app?vid=3d0cae43-5b75-4aac-b7cb-471ce1151dd5"},"vehicle_type_id":"4","last_reported":1744171973,"current_range_meters":8400,"station_id":"","pricing_plan_id":"cebpf4jnsgd1na2vs0mg"},{"bike_id":"9ae6852b-6b22-43ab-9ed3-b9ba4d298e4b","system_id":"levelo_inurba_marseille","lat":43.26225,"lon":5.40461,"is_reserved":false,"is_disabled":false,"rental_uris":{"android":"levelo://app?vid=9ae6852b-6b22-43ab-9ed3-b9ba4d298e4b","ios":"levelo://app?vid=9ae6852b-6b22-43ab-9ed3-b9ba4d298e4b"},"vehicle_type_id":"4","last_reported":1744171973,"current_range_meters":8400,"station_id":"ce4bhmh2rcd13ifvqgmg","pricing_plan_id":"cebpf4jnsgd1na2vs0mg"},{"bike_id":"5e6ad826-38da-4531-b4ba-2eda8622ede3","system_id":"levelo_inurba_marseille","lat":43.31078,"lon":5.40474,"is_reserved":false,"is_disabled":false,"rental_uris":{"android":"levelo://app?vid=5e6ad826-38da-4531-b4ba-2eda8622ede3","ios":"levelo://app?vid=5e6ad826-38da-4531-b4ba-2eda8622ede3"},"vehicle_type_id":"4","last_reported":1744171973,"current_range_meters":8400,"station_id":"","pricing_plan_id":"cebpf4jnsgd1na2vs0mg"},{"bike_id":"001d030a-fc69-452b-9ccd-8ef8e3c0f0ec","system_id":"levelo_inurba_marseille","lat":43.31696,"lon":5.40488,"is_reserved":false,"is_disabled":false,"rental_uris":{"android":"levelo://app?vid=001d030a-fc69-452b-9ccd-8ef8e3c0f0ec","ios":"levelo://app?vid=001d030a-fc69-452b-9ccd-8ef8e3c0f0ec"},"vehicle_type_id":"4","last_reported":1744171973,"current_range_meters":8400,"station_id":"ce4bh012rcd13ifvqd00","pricing_plan_id":"cebpf4jnsgd1na2vs0mg"},{"bike_id":"111c76dd-f0f7-46e3-85a8-314ab6ead02d","system_id":"levelo_inurba_marseille","lat":43.24684,"lon":5.38138,"is_reserved":false,"is_disabled":false,"rental_uris":{"android":"levelo://app?vid=111c76dd-f0f7-46e3-85a8-314ab6ead02d","ios":"levelo://app?vid=111c76dd-f0f7-46e3-85a8-314ab6ead02d"},"vehicle_type_id":"4","last_reported":1744171973,"current_range_meters":8800,"station_id":"ce4bhih2rcd13ifvqfr0","pricing_plan_id":"cebpf4jnsgd1na2vs0mg"},{"bike_id":"87babd59-e462-416b-b47f-71c50fccbaf1","system_id":"levelo_inurba_marseille","lat":43.28695,"lon":5.39993,"is_reserved":false,"is_disabled":false,"rental_uris":{"android":"levelo://app?vid=87babd59-e462-416b-b47f-71c50fccbaf1","ios":"levelo://app?vid=87babd59-e462-416b-b47f-71c50fccbaf1"},"vehicle_type_id":"4","last_reported":1744171973,"current_range_meters":8800,"station_id":"ce4bho92rcd13ifvqh3g","pricing_plan_id":"cebpf4jnsgd1na2vs0mg"},{"bike_id":"ca1cb9af-e981-4da8-ae84-4ca0779eecf9","system_id":"levelo_inurba_marseille","lat":43.31492,"lon":5.3728,"is_reserved":false,"is_disabled":false,"rental_uris":{"android":"levelo://app?vid=ca1cb9af-e981-4da8-ae84-4ca0779eecf9","ios":"levelo://app?vid=ca1cb9af-e981-4da8-ae84-4ca0779eecf9"},"vehicle_type_id":"4","last_reported":1744171973,"current_range_meters":8800,"station_id":"ce4bgt12rcd13ifvqcd0","pricing_plan_id":"cebpf4jnsgd1na2vs0mg"},{"bike_id":"df136d95-e79c-413e-88c1-df03fad44875","system_id":"levelo_inurba_marseille","lat":43.31071,"lon":5.3835,"is_reserved":false,"is_disabled":false,"rental_uris":{"android":"levelo://app?vid=df136d95-e79c-413e-88c1-df03fad44875","ios":"levelo://app?vid=df136d95-e79c-413e-88c1-df03fad44875"},"vehicle_type_id":"4","last_reported":1744171973,"current_range_meters":8800,"station_id":"ce4bgv92rcd13ifvqcr0","pricing_plan_id":"cebpf4jnsgd1na2vs0mg"},{"bike_id":"68d1cc33-0218-451e-8e10-d32225c21263","system_id":"levelo_inurba_marseille","lat":43.23165,"lon":5.43712,"is_reserved":false,"is_disabled":true,"rental_uris":{"android":"levelo://app?vid=68d1cc33-0218-451e-8e10-d32225c21263","ios":"levelo://app?vid=68d1cc33-0218-451e-8e10-d32225c21263"},"vehicle_type_id":"4","last_reported":1744171973,"current_range_meters":8800,"station_id":"ce4bhmp2rcd13ifvqgog","pricing_plan_id":"cebpf4jnsgd1na2vs0mg"},{"bike_id":"af2f1370-6ca4-41f1-acda-09dc04497331","system_id":"levelo_inurba_marseille","lat":43.309547,"lon":5.390767,"is_reserved":false,"is_disabled":false,"rental_uris":{"android":"levelo://app?vid=af2f1370-6ca4-41f1-acda-09dc04497331","ios":"levelo://app?vid=af2f1370-6ca4-41f1-acda-09dc04497331"},"vehicle_type_id":"4","last_reported":1744171973,"current_range_meters":8800,"station_id":"ce4bgup2rcd13ifvqco0","pricing_plan_id":"cebpf4jnsgd1na2vs0mg"},{"bike_id":"1b96eb49-ce49-4647-a6d7-d55db9a48315","system_id":"levelo_inurba_marseille","lat":43.32326,"lon":5.40574,"is_reserved":false,"is_disabled":false,"rental_uris":{"android":"levelo://app?vid=1b96eb49-ce49-4647-a6d7-d55db9a48315","ios":"levelo://app?vid=1b96eb49-ce49-4647-a6d7-d55db9a48315"},"vehicle_type_id":"4","last_reported":1744171973,"current_range_meters":8800,"station_id":"ce4bhq92rcd13ifvqhjg","pricing_plan_id":"cebpf4jnsgd1na2vs0mg"},{"bike_id":"d9918c2f-ab7f-450c-9279-5b605a9738a3","system_id":"levelo_inurba_marseille","lat":43.31161,"lon":5.38737,"is_reserved":false,"is_disabled":false,"rental_uris":{"android":"levelo://app?vid=d9918c2f-ab7f-450c-9279-5b605a9738a3","ios":"levelo://app?vid=d9918c2f-ab7f-450c-9279-5b605a9738a3"},"vehicle_type_id":"4","last_reported":1744171973,"current_range_meters":9200,"station_id":"ce4bgv12rcd13ifvqcp0","pricing_plan_id":"cebpf4jnsgd1na2vs0mg"},{"bike_id":"3bd7ee4a-3d47-49fc-893d-5a7bb966f54e","system_id":"levelo_inurba_marseille","lat":43.268052,"lon":5.40263,"is_reserved":false,"is_disabled":false,"rental_uris":{"android":"levelo://app?vid=3bd7ee4a-3d47-49fc-893d-5a7bb966f54e","ios":"levelo://app?vid=3bd7ee4a-3d47-49fc-893d-5a7bb966f54e"},"vehicle_type_id":"4","last_reported":1744171973,"current_range_meters":9200,"station_id":"ce501612rcd8frsf0b60","pricing_plan_id":"cebpf4jnsgd1na2vs0mg"},{"bike_id":"7cbc3abb-d96e-46ad-87a3-e0fdd1126f87","system_id":"levelo_inurba_marseille","lat":43.31358,"lon":5.38519,"is_reserved":false,"is_disabled":false,"rental_uris":{"android":"levelo://app?vid=7cbc3abb-d96e-46ad-87a3-e0fdd1126f87","ios":"levelo://app?vid=7cbc3abb-d96e-46ad-87a3-e0fdd1126f87"},"vehicle_type_id":"4","last_reported":1744171973,"current_range_meters":9200,"station_id":"ce4bgt92rcd13ifvqcf0","pricing_plan_id":"cebpf4jnsgd1na2vs0mg"},{"bike_id":"e249359c-2aa1-419e-9353-7d468424c604","system_id":"levelo_inurba_marseille","lat":43.296413,"lon":5.4059,"is_reserved":false,"is_disabled":false,"rental_uris":{"android":"levelo://app?vid=e249359c-2aa1-419e-9353-7d468424c604","ios":"levelo://app?vid=e249359c-2aa1-419e-9353-7d468424c604"},"vehicle_type_id":"4","last_reported":1744171973,"current_range_meters":9200,"station_id":"ce4bh0h2rcd13ifvqd60","pricing_plan_id":"cebpf4jnsgd1na2vs0mg"},{"bike_id":"4b2937b2-181e-4485-9356-c12fb210030a","system_id":"levelo_inurba_marseille","lat":43.28397,"lon":5.37531,"is_reserved":false,"is_disabled":false,"rental_uris":{"android":"levelo://app?vid=4b2937b2-181e-4485-9356-c12fb210030a","ios":"levelo://app?vid=4b2937b2-181e-4485-9356-c12fb210030a"},"vehicle_type_id":"4","last_reported":1744171973,"current_range_meters":9200,"station_id":"ce4bh412rcd13ifvqds0","pricing_plan_id":"cebpf4jnsgd1na2vs0mg"},{"bike_id":"0aa02c49-cbb3-4907-a588-f754056f3ba8","system_id":"levelo_inurba_marseille","lat":43.30806,"lon":5.38176,"is_reserved":false,"is_disabled":true,"rental_uris":{"android":"levelo://app?vid=0aa02c49-cbb3-4907-a588-f754056f3ba8","ios":"levelo://app?vid=0aa02c49-cbb3-4907-a588-f754056f3ba8"},"vehicle_type_id":"4","last_reported":1744171973,"current_range_meters":9200,"station_id":"ce4bgt12rcd13ifvqce0","pricing_plan_id":"cebpf4jnsgd1na2vs0mg"},{"bike_id":"557e216a-f1fd-448c-87dc-bf453f47c735","system_id":"levelo_inurba_marseille","lat":43.29251,"lon":5.40911,"is_reserved":false,"is_disabled":false,"rental_uris":{"android":"levelo://app?vid=557e216a-f1fd-448c-87dc-bf453f47c735","ios":"levelo://app?vid=557e216a-f1fd-448c-87dc-bf453f47c735"},"vehicle_type_id":"4","last_reported":1744171973,"current_range_meters":9200,"station_id":"ce4bh192rcd13ifvqdc0","pricing_plan_id":"cebpf4jnsgd1na2vs0mg"},{"bike_id":"e3cc047d-f933-413e-80b9-8141c7879c04","system_id":"levelo_inurba_marseille","lat":43.303014,"lon":5.368987,"is_reserved":false,"is_disabled":false,"rental_uris":{"android":"levelo://app?vid=e3cc047d-f933-413e-80b9-8141c7879c04","ios":"levelo://app?vid=e3cc047d-f933-413e-80b9-8141c7879c04"},"vehicle_type_id":"4","last_reported":1744171973,"current_range_meters":9200,"station_id":"ce4bgqh2rcd13ifvqc5g","pricing_plan_id":"cebpf4jnsgd1na2vs0mg"},{"bike_id":"1ca7d0c4-b7aa-4350-ad9f-4e24c2ba029a","system_id":"levelo_inurba_marseille","lat":43.30379,"lon":5.42493,"is_reserved":false,"is_disabled":true,"rental_uris":{"android":"levelo://app?vid=1ca7d0c4-b7aa-4350-ad9f-4e24c2ba029a","ios":"levelo://app?vid=1ca7d0c4-b7aa-4350-ad9f-4e24c2ba029a"},"vehicle_type_id":"4","last_reported":1744171973,"current_range_meters":9600,"station_id":"ce4bhoh2rcd13ifvqh6g","pricing_plan_id":"cebpf4jnsgd1na2vs0mg"},{"bike_id":"2219d906-d8eb-4861-9914-1da6aead283d","system_id":"levelo_inurba_marseille","lat":43.31067,"lon":5.383511,"is_reserved":false,"is_disabled":false,"rental_uris":{"android":"levelo://app?vid=2219d906-d8eb-4861-9914-1da6aead283d","ios":"levelo://app?vid=2219d906-d8eb-4861-9914-1da6aead283d"},"vehicle_type_id":"4","last_reported":1744171973,"current_range_meters":9600,"station_id":"ce4bgv92rcd13ifvqcr0","pricing_plan_id":"cebpf4jnsgd1na2vs0mg"},{"bike_id":"a566336b-6133-47a6-ad7f-74f32862e29a","system_id":"levelo_inurba_marseille","lat":43.30355,"lon":5.42494,"is_reserved":false,"is_disabled":false,"rental_uris":{"android":"levelo://app?vid=a566336b-6133-47a6-ad7f-74f32862e29a","ios":"levelo://app?vid=a566336b-6133-47a6-ad7f-74f32862e29a"},"vehicle_type_id":"4","last_reported":1744171973,"current_range_meters":9600,"station_id":"ce4bhoh2rcd13ifvqh6g","pricing_plan_id":"cebpf4jnsgd1na2vs0mg"},{"bike_id":"08f9c0c8-8b33-4578-8a03-20f44d582241","system_id":"levelo_inurba_marseille","lat":43.30589,"lon":5.37165,"is_reserved":false,"is_disabled":false,"rental_uris":{"android":"levelo://app?vid=08f9c0c8-8b33-4578-8a03-20f44d582241","ios":"levelo://app?vid=08f9c0c8-8b33-4578-8a03-20f44d582241"},"vehicle_type_id":"4","last_reported":1744171973,"current_range_meters":9600,"station_id":"","pricing_plan_id":"cebpf4jnsgd1na2vs0mg"},{"bike_id":"5114018d-021a-49e9-8fa0-8e15e3cc19a5","system_id":"levelo_inurba_marseille","lat":43.28151,"lon":5.42662,"is_reserved":false,"is_disabled":false,"rental_uris":{"android":"levelo://app?vid=5114018d-021a-49e9-8fa0-8e15e3cc19a5","ios":"levelo://app?vid=5114018d-021a-49e9-8fa0-8e15e3cc19a5"},"vehicle_type_id":"4","last_reported":1744171973,"current_range_meters":9600,"station_id":"ce4bhnh2rcd13ifvqgug","pricing_plan_id":"cebpf4jnsgd1na2vs0mg"},{"bike_id":"5b357059-7eca-42e9-8605-0c5941fa186e","system_id":"levelo_inurba_marseille","lat":43.3015,"lon":5.3809,"is_reserved":false,"is_disabled":false,"rental_uris":{"android":"levelo://app?vid=5b357059-7eca-42e9-8605-0c5941fa186e","ios":"levelo://app?vid=5b357059-7eca-42e9-8605-0c5941fa186e"},"vehicle_type_id":"4","last_reported":1744171973,"current_range_meters":9600,"station_id":"ce4bgjp2rcd13ifvqbh0","pricing_plan_id":"cebpf4jnsgd1na2vs0mg"},{"bike_id":"a0e523e0-f1a1-401d-814d-c198756d058c","system_id":"levelo_inurba_marseille","lat":43.28332,"lon":5.3811,"is_reserved":false,"is_disabled":false,"rental_uris":{"android":"levelo://app?vid=a0e523e0-f1a1-401d-814d-c198756d058c","ios":"levelo://app?vid=a0e523e0-f1a1-401d-814d-c198756d058c"},"vehicle_type_id":"4","last_reported":1744171973,"current_range_meters":9600,"station_id":"ce4bh412rcd13ifvqdr0","pricing_plan_id":"cebpf4jnsgd1na2vs0mg"},{"bike_id":"098b34c4-10a2-481f-b2a3-61f7a3b8f4ed","system_id":"levelo_inurba_marseille","lat":43.3093,"lon":5.4017,"is_reserved":false,"is_disabled":false,"rental_uris":{"android":"levelo://app?vid=098b34c4-10a2-481f-b2a3-61f7a3b8f4ed","ios":"levelo://app?vid=098b34c4-10a2-481f-b2a3-61f7a3b8f4ed"},"vehicle_type_id":"4","last_reported":1744171973,"current_range_meters":9600,"station_id":"ce4bgvp2rcd13ifvqct0","pricing_plan_id":"cebpf4jnsgd1na2vs0mg"},{"bike_id":"15333754-2477-49f0-b991-208ec3611ec9","system_id":"levelo_inurba_marseille","lat":43.28704,"lon":5.39986,"is_reserved":false,"is_disabled":false,"rental_uris":{"android":"levelo://app?vid=15333754-2477-49f0-b991-208ec3611ec9","ios":"levelo://app?vid=15333754-2477-49f0-b991-208ec3611ec9"},"vehicle_type_id":"4","last_reported":1744171973,"current_range_meters":9600,"station_id":"ce4bho92rcd13ifvqh3g","pricing_plan_id":"cebpf4jnsgd1na2vs0mg"},{"bike_id":"f1b3c0ee-1239-478a-87cc-7b3899e208aa","system_id":"levelo_inurba_marseille","lat":43.28347,"lon":5.38101,"is_reserved":false,"is_disabled":false,"rental_uris":{"android":"levelo://app?vid=f1b3c0ee-1239-478a-87cc-7b3899e208aa","ios":"levelo://app?vid=f1b3c0ee-1239-478a-87cc-7b3899e208aa"},"vehicle_type_id":"4","last_reported":1744171973,"current_range_meters":9600,"station_id":"ce4bh412rcd13ifvqdr0","pricing_plan_id":"cebpf4jnsgd1na2vs0mg"},{"bike_id":"e34f7c01-c5fa-4cd6-8388-b5cd12b4b9c7","system_id":"levelo_inurba_marseille","lat":43.286257,"lon":5.350925,"is_reserved":false,"is_disabled":true,"rental_uris":{"android":"levelo://app?vid=e34f7c01-c5fa-4cd6-8388-b5cd12b4b9c7","ios":"levelo://app?vid=e34f7c01-c5fa-4cd6-8388-b5cd12b4b9c7"},"vehicle_type_id":"4","last_reported":1744171973,"current_range_meters":9600,"station_id":"ce4bhch2rcd13ifvqeug","pricing_plan_id":"cebpf4jnsgd1na2vs0mg"},{"bike_id":"1e708515-a5a6-41f1-adbd-dfcbc6c7cde7","system_id":"levelo_inurba_marseille","lat":43.30777,"lon":5.37666,"is_reserved":false,"is_disabled":false,"rental_uris":{"android":"levelo://app?vid=1e708515-a5a6-41f1-adbd-dfcbc6c7cde7","ios":"levelo://app?vid=1e708515-a5a6-41f1-adbd-dfcbc6c7cde7"},"vehicle_type_id":"4","last_reported":1744171973,"current_range_meters":9600,"station_id":"ce4bgv92rcd13ifvqcq0","pricing_plan_id":"cebpf4jnsgd1na2vs0mg"},{"bike_id":"9fce7fb9-26b6-4832-9f96-ea1b75c489f0","system_id":"levelo_inurba_marseille","lat":43.2319,"lon":5.35586,"is_reserved":false,"is_disabled":false,"rental_uris":{"android":"levelo://app?vid=9fce7fb9-26b6-4832-9f96-ea1b75c489f0","ios":"levelo://app?vid=9fce7fb9-26b6-4832-9f96-ea1b75c489f0"},"vehicle_type_id":"4","last_reported":1744171973,"current_range_meters":10000,"station_id":"ce4bhu92rcd13ifvqi70","pricing_plan_id":"cebpf4jnsgd1na2vs0mg"},{"bike_id":"80663e12-6b64-446d-88c9-20255bde1a8a","system_id":"levelo_inurba_marseille","lat":43.308885,"lon":5.39633,"is_reserved":false,"is_disabled":true,"rental_uris":{"android":"levelo://app?vid=80663e12-6b64-446d-88c9-20255bde1a8a","ios":"levelo://app?vid=80663e12-6b64-446d-88c9-20255bde1a8a"},"vehicle_type_id":"4","last_reported":1744171973,"current_range_meters":10000,"station_id":"ce4bh012rcd13ifvqcv0","pricing_plan_id":"cebpf4jnsgd1na2vs0mg"},{"bike_id":"ae8acc12-d36d-43ae-9b5c-d788c29ead74","system_id":"levelo_inurba_marseille","lat":43.24799,"lon":5.37468,"is_reserved":false,"is_disabled":false,"rental_uris":{"android":"levelo://app?vid=ae8acc12-d36d-43ae-9b5c-d788c29ead74","ios":"levelo://app?vid=ae8acc12-d36d-43ae-9b5c-d788c29ead74"},"vehicle_type_id":"4","last_reported":1744171973,"current_range_meters":10000,"station_id":"ce4bhgh2rcd13ifvqfb0","pricing_plan_id":"cebpf4jnsgd1na2vs0mg"},{"bike_id":"a396175d-4372-4172-bc6f-f5acf9ab3e7b","system_id":"levelo_inurba_marseille","lat":43.29571,"lon":5.39982,"is_reserved":false,"is_disabled":false,"rental_uris":{"android":"levelo://app?vid=a396175d-4372-4172-bc6f-f5acf9ab3e7b","ios":"levelo://app?vid=a396175d-4372-4172-bc6f-f5acf9ab3e7b"},"vehicle_type_id":"4","last_reported":1744171973,"current_range_meters":10000,"station_id":"ce4bh312rcd13ifvqdj0","pricing_plan_id":"cebpf4jnsgd1na2vs0mg"},{"bike_id":"d19d78ea-f6ff-463e-a01b-f44ad9ceb51c","system_id":"levelo_inurba_marseille","lat":43.255696,"lon":5.38233,"is_reserved":false,"is_disabled":false,"rental_uris":{"android":"levelo://app?vid=d19d78ea-f6ff-463e-a01b-f44ad9ceb51c","ios":"levelo://app?vid=d19d78ea-f6ff-463e-a01b-f44ad9ceb51c"},"vehicle_type_id":"4","last_reported":1744171973,"current_range_meters":10000,"station_id":"ce4bhih2rcd13ifvqfs0","pricing_plan_id":"cebpf4jnsgd1na2vs0mg"},{"bike_id":"06c5b5d3-7968-4dbb-a8ad-851439447cd9","system_id":"levelo_inurba_marseille","lat":43.26945,"lon":5.4025,"is_reserved":false,"is_disabled":false,"rental_uris":{"android":"levelo://app?vid=06c5b5d3-7968-4dbb-a8ad-851439447cd9","ios":"levelo://app?vid=06c5b5d3-7968-4dbb-a8ad-851439447cd9"},"vehicle_type_id":"4","last_reported":1744171973,"current_range_meters":10000,"station_id":"cjm6bp8fraef2m0cb0m0","pricing_plan_id":"cebpf4jnsgd1na2vs0mg"},{"bike_id":"05ebd012-a397-44d6-8d3a-b4fd8a759a09","system_id":"levelo_inurba_marseille","lat":43.30798,"lon":5.43527,"is_reserved":false,"is_disabled":false,"rental_uris":{"android":"levelo://app?vid=05ebd012-a397-44d6-8d3a-b4fd8a759a09","ios":"levelo://app?vid=05ebd012-a397-44d6-8d3a-b4fd8a759a09"},"vehicle_type_id":"4","last_reported":1744171973,"current_range_meters":10000,"station_id":"ce4bhph2rcd13ifvqheg","pricing_plan_id":"cebpf4jnsgd1na2vs0mg"},{"bike_id":"e2c56090-e658-4d6b-8227-ff1b30247ef9","system_id":"levelo_inurba_marseille","lat":43.24663,"lon":5.38153,"is_reserved":false,"is_disabled":false,"rental_uris":{"android":"levelo://app?vid=e2c56090-e658-4d6b-8227-ff1b30247ef9","ios":"levelo://app?vid=e2c56090-e658-4d6b-8227-ff1b30247ef9"},"vehicle_type_id":"4","last_reported":1744171973,"current_range_meters":10000,"station_id":"ce4bhih2rcd13ifvqfr0","pricing_plan_id":"cebpf4jnsgd1na2vs0mg"},{"bike_id":"b2cee8e0-4c9e-4848-bd0c-91de02906d6a","system_id":"levelo_inurba_marseille","lat":43.279455,"lon":5.410427,"is_reserved":false,"is_disabled":false,"rental_uris":{"android":"levelo://app?vid=b2cee8e0-4c9e-4848-bd0c-91de02906d6a","ios":"levelo://app?vid=b2cee8e0-4c9e-4848-bd0c-91de02906d6a"},"vehicle_type_id":"4","last_reported":1744171973,"current_range_meters":10000,"station_id":"ce4bhnp2rcd13ifvqh0g","pricing_plan_id":"cebpf4jnsgd1na2vs0mg"},{"bike_id":"a68610a5-4c1d-49a5-950f-fcceab83b96e","system_id":"levelo_inurba_marseille","lat":43.30858,"lon":5.39672,"is_reserved":false,"is_disabled":false,"rental_uris":{"android":"levelo://app?vid=a68610a5-4c1d-49a5-950f-fcceab83b96e","ios":"levelo://app?vid=a68610a5-4c1d-49a5-950f-fcceab83b96e"},"vehicle_type_id":"4","last_reported":1744171973,"current_range_meters":10000,"station_id":"","pricing_plan_id":"cebpf4jnsgd1na2vs0mg"},{"bike_id":"b397701f-0d3d-44bf-ab3e-3ccc7e74fb2e","system_id":"levelo_inurba_marseille","lat":43.264433,"lon":5.42271,"is_reserved":false,"is_disabled":false,"rental_uris":{"android":"levelo://app?vid=b397701f-0d3d-44bf-ab3e-3ccc7e74fb2e","ios":"levelo://app?vid=b397701f-0d3d-44bf-ab3e-3ccc7e74fb2e"},"vehicle_type_id":"4","last_reported":1744171973,"current_range_meters":10000,"station_id":"","pricing_plan_id":"cebpf4jnsgd1na2vs0mg"},{"bike_id":"e0316080-b3d7-46b6-b30d-1ed2a214f6dc","system_id":"levelo_inurba_marseille","lat":43.30462,"lon":5.37947,"is_reserved":false,"is_disabled":false,"rental_uris":{"android":"levelo://app?vid=e0316080-b3d7-46b6-b30d-1ed2a214f6dc","ios":"levelo://app?vid=e0316080-b3d7-46b6-b30d-1ed2a214f6dc"},"vehicle_type_id":"4","last_reported":1744171973,"current_range_meters":10000,"station_id":"ce4bgup2rcd13ifvqcn0","pricing_plan_id":"cebpf4jnsgd1na2vs0mg"},{"bike_id":"894923f7-24a8-4f05-8d0c-1af4b4d3211a","system_id":"levelo_inurba_marseille","lat":43.303076,"lon":5.392068,"is_reserved":false,"is_disabled":true,"rental_uris":{"android":"levelo://app?vid=894923f7-24a8-4f05-8d0c-1af4b4d3211a","ios":"levelo://app?vid=894923f7-24a8-4f05-8d0c-1af4b4d3211a"},"vehicle_type_id":"4","last_reported":1744171973,"current_range_meters":10800,"station_id":"ce4bgkh2rcd13ifvqbk0","pricing_plan_id":"cebpf4jnsgd1na2vs0mg"},{"bike_id":"97c885a5-3656-4131-b3ea-06fe5342a972","system_id":"levelo_inurba_marseille","lat":43.30907,"lon":5.37206,"is_reserved":false,"is_disabled":false,"rental_uris":{"android":"levelo://app?vid=97c885a5-3656-4131-b3ea-06fe5342a972","ios":"levelo://app?vid=97c885a5-3656-4131-b3ea-06fe5342a972"},"vehicle_type_id":"4","last_reported":1744171973,"current_range_meters":10800,"station_id":"ce4bguh2rcd13ifvqckg","pricing_plan_id":"cebpf4jnsgd1na2vs0mg"},{"bike_id":"8379372e-c06d-426f-85f9-acdc4eafa151","system_id":"levelo_inurba_marseille","lat":43.21743,"lon":5.3461,"is_reserved":false,"is_disabled":true,"rental_uris":{"android":"levelo://app?vid=8379372e-c06d-426f-85f9-acdc4eafa151","ios":"levelo://app?vid=8379372e-c06d-426f-85f9-acdc4eafa151"},"vehicle_type_id":"4","last_reported":1744171973,"current_range_meters":10800,"station_id":"st_cvj6r9ubvosntc0bgbag","pricing_plan_id":"cebpf4jnsgd1na2vs0mg"},{"bike_id":"fe554949-79fc-40fb-9308-e13fc7147f59","system_id":"levelo_inurba_marseille","lat":43.31045,"lon":5.42472,"is_reserved":false,"is_disabled":false,"rental_uris":{"android":"levelo://app?vid=fe554949-79fc-40fb-9308-e13fc7147f59","ios":"levelo://app?vid=fe554949-79fc-40fb-9308-e13fc7147f59"},"vehicle_type_id":"4","last_reported":1744171973,"current_range_meters":10800,"station_id":"ce4bhp92rcd13ifvqhag","pricing_plan_id":"cebpf4jnsgd1na2vs0mg"},{"bike_id":"4612345c-75a3-4189-8a6d-651578d0ecd4","system_id":"levelo_inurba_marseille","lat":43.248198,"lon":5.374464,"is_reserved":false,"is_disabled":true,"rental_uris":{"android":"levelo://app?vid=4612345c-75a3-4189-8a6d-651578d0ecd4","ios":"levelo://app?vid=4612345c-75a3-4189-8a6d-651578d0ecd4"},"vehicle_type_id":"4","last_reported":1744171973,"current_range_meters":11200,"station_id":"ce4bhgh2rcd13ifvqfb0","pricing_plan_id":"cebpf4jnsgd1na2vs0mg"},{"bike_id":"ba7c5990-65c8-4d17-bd7d-615ed4e9b2d3","system_id":"levelo_inurba_marseille","lat":43.28441,"lon":5.39189,"is_reserved":false,"is_disabled":false,"rental_uris":{"android":"levelo://app?vid=ba7c5990-65c8-4d17-bd7d-615ed4e9b2d3","ios":"levelo://app?vid=ba7c5990-65c8-4d17-bd7d-615ed4e9b2d3"},"vehicle_type_id":"4","last_reported":1744171973,"current_range_meters":11200,"station_id":"ce4bhoh2rcd13ifvqh5g","pricing_plan_id":"cebpf4jnsgd1na2vs0mg"},{"bike_id":"76055e52-9550-430a-942e-266679872c8d","system_id":"levelo_inurba_marseille","lat":43.28655,"lon":5.36397,"is_reserved":false,"is_disabled":false,"rental_uris":{"android":"levelo://app?vid=76055e52-9550-430a-942e-266679872c8d","ios":"levelo://app?vid=76055e52-9550-430a-942e-266679872c8d"},"vehicle_type_id":"4","last_reported":1744171973,"current_range_meters":11200,"station_id":"","pricing_plan_id":"cebpf4jnsgd1na2vs0mg"},{"bike_id":"612731d2-d819-48e3-b425-db5915ef53ee","system_id":"levelo_inurba_marseille","lat":43.28104,"lon":5.37849,"is_reserved":false,"is_disabled":false,"rental_uris":{"android":"levelo://app?vid=612731d2-d819-48e3-b425-db5915ef53ee","ios":"levelo://app?vid=612731d2-d819-48e3-b425-db5915ef53ee"},"vehicle_type_id":"4","last_reported":1744171973,"current_range_meters":11200,"station_id":"ce4bha12rcd13ifvqee0","pricing_plan_id":"cebpf4jnsgd1na2vs0mg"},{"bike_id":"602e51f2-da81-4272-85cf-31c8731c65e8","system_id":"levelo_inurba_marseille","lat":43.29892,"lon":5.43656,"is_reserved":false,"is_disabled":false,"rental_uris":{"android":"levelo://app?vid=602e51f2-da81-4272-85cf-31c8731c65e8","ios":"levelo://app?vid=602e51f2-da81-4272-85cf-31c8731c65e8"},"vehicle_type_id":"4","last_reported":1744171973,"current_range_meters":11200,"station_id":"ce4bhpp2rcd13ifvqhfg","pricing_plan_id":"cebpf4jnsgd1na2vs0mg"},{"bike_id":"2b539354-2334-4f2e-883c-1328a00d046f","system_id":"levelo_inurba_marseille","lat":43.27838,"lon":5.39219,"is_reserved":false,"is_disabled":false,"rental_uris":{"android":"levelo://app?vid=2b539354-2334-4f2e-883c-1328a00d046f","ios":"levelo://app?vid=2b539354-2334-4f2e-883c-1328a00d046f"},"vehicle_type_id":"4","last_reported":1744171973,"current_range_meters":11600,"station_id":"ce4bhjp2rcd13ifvqga0","pricing_plan_id":"cebpf4jnsgd1na2vs0mg"},{"bike_id":"9dedf862-2431-49cc-a9c6-aaf09e8ed3d1","system_id":"levelo_inurba_marseille","lat":43.29872,"lon":5.39735,"is_reserved":false,"is_disabled":false,"rental_uris":{"android":"levelo://app?vid=9dedf862-2431-49cc-a9c6-aaf09e8ed3d1","ios":"levelo://app?vid=9dedf862-2431-49cc-a9c6-aaf09e8ed3d1"},"vehicle_type_id":"4","last_reported":1744171973,"current_range_meters":11600,"station_id":"ce4bh0h2rcd13ifvqd50","pricing_plan_id":"cebpf4jnsgd1na2vs0mg"},{"bike_id":"e24c6fd3-f9cb-40c7-9e57-dd2c20540e9b","system_id":"levelo_inurba_marseille","lat":43.31723,"lon":5.42399,"is_reserved":false,"is_disabled":false,"rental_uris":{"android":"levelo://app?vid=e24c6fd3-f9cb-40c7-9e57-dd2c20540e9b","ios":"levelo://app?vid=e24c6fd3-f9cb-40c7-9e57-dd2c20540e9b"},"vehicle_type_id":"4","last_reported":1744171973,"current_range_meters":11600,"station_id":"ce4bhp92rcd13ifvqhbg","pricing_plan_id":"cebpf4jnsgd1na2vs0mg"},{"bike_id":"957a6b57-7fc4-4edd-9bc7-7ea5272edce0","system_id":"levelo_inurba_marseille","lat":43.29275,"lon":5.40131,"is_reserved":false,"is_disabled":false,"rental_uris":{"android":"levelo://app?vid=957a6b57-7fc4-4edd-9bc7-7ea5272edce0","ios":"levelo://app?vid=957a6b57-7fc4-4edd-9bc7-7ea5272edce0"},"vehicle_type_id":"4","last_reported":1744171973,"current_range_meters":11600,"station_id":"ce4bh312rcd13ifvqdk0","pricing_plan_id":"cebpf4jnsgd1na2vs0mg"},{"bike_id":"25f3c748-fa73-4af0-99ce-766d7733ec18","system_id":"levelo_inurba_marseille","lat":43.31722,"lon":5.42391,"is_reserved":false,"is_disabled":false,"rental_uris":{"android":"levelo://app?vid=25f3c748-fa73-4af0-99ce-766d7733ec18","ios":"levelo://app?vid=25f3c748-fa73-4af0-99ce-766d7733ec18"},"vehicle_type_id":"4","last_reported":1744171973,"current_range_meters":11600,"station_id":"ce4bhp92rcd13ifvqhbg","pricing_plan_id":"cebpf4jnsgd1na2vs0mg"},{"bike_id":"03a190ca-23e8-400f-908f-3b8f9979803b","system_id":"levelo_inurba_marseille","lat":43.28707,"lon":5.39982,"is_reserved":false,"is_disabled":false,"rental_uris":{"android":"levelo://app?vid=03a190ca-23e8-400f-908f-3b8f9979803b","ios":"levelo://app?vid=03a190ca-23e8-400f-908f-3b8f9979803b"},"vehicle_type_id":"4","last_reported":1744171973,"current_range_meters":11600,"station_id":"ce4bho92rcd13ifvqh3g","pricing_plan_id":"cebpf4jnsgd1na2vs0mg"},{"bike_id":"ebae96c6-135d-4301-9591-5fd7bb8e5397","system_id":"levelo_inurba_marseille","lat":43.29284,"lon":5.40144,"is_reserved":false,"is_disabled":false,"rental_uris":{"android":"levelo://app?vid=ebae96c6-135d-4301-9591-5fd7bb8e5397","ios":"levelo://app?vid=ebae96c6-135d-4301-9591-5fd7bb8e5397"},"vehicle_type_id":"4","last_reported":1744171973,"current_range_meters":12000,"station_id":"ce4bh312rcd13ifvqdk0","pricing_plan_id":"cebpf4jnsgd1na2vs0mg"},{"bike_id":"21819b42-8514-4262-aaad-c8a20b5679d4","system_id":"levelo_inurba_marseille","lat":43.299321,"lon":5.396944,"is_reserved":false,"is_disabled":false,"rental_uris":{"android":"levelo://app?vid=21819b42-8514-4262-aaad-c8a20b5679d4","ios":"levelo://app?vid=21819b42-8514-4262-aaad-c8a20b5679d4"},"vehicle_type_id":"4","last_reported":1744171973,"current_range_meters":12000,"station_id":"ce4bh0h2rcd13ifvqd50","pricing_plan_id":"cebpf4jnsgd1na2vs0mg"},{"bike_id":"77bf1b8c-314e-4df8-8865-c0b5cdb8fbee","system_id":"levelo_inurba_marseille","lat":43.250798,"lon":5.395238,"is_reserved":false,"is_disabled":false,"rental_uris":{"android":"levelo://app?vid=77bf1b8c-314e-4df8-8865-c0b5cdb8fbee","ios":"levelo://app?vid=77bf1b8c-314e-4df8-8865-c0b5cdb8fbee"},"vehicle_type_id":"4","last_reported":1744171973,"current_range_meters":12000,"station_id":"ce4bhm12rcd13ifvqgkg","pricing_plan_id":"cebpf4jnsgd1na2vs0mg"},{"bike_id":"fc6adbd9-2933-4ce3-9706-d59df17b53d6","system_id":"levelo_inurba_marseille","lat":43.308987,"lon":5.370827,"is_reserved":false,"is_disabled":false,"rental_uris":{"android":"levelo://app?vid=fc6adbd9-2933-4ce3-9706-d59df17b53d6","ios":"levelo://app?vid=fc6adbd9-2933-4ce3-9706-d59df17b53d6"},"vehicle_type_id":"4","last_reported":1744171973,"current_range_meters":12400,"station_id":"","pricing_plan_id":"cebpf4jnsgd1na2vs0mg"},{"bike_id":"d8d2057f-ff9e-448c-82d6-09e220bb874d","system_id":"levelo_inurba_marseille","lat":43.273778,"lon":5.362604,"is_reserved":false,"is_disabled":false,"rental_uris":{"android":"levelo://app?vid=d8d2057f-ff9e-448c-82d6-09e220bb874d","ios":"levelo://app?vid=d8d2057f-ff9e-448c-82d6-09e220bb874d"},"vehicle_type_id":"4","last_reported":1744171973,"current_range_meters":12400,"station_id":"ce4bhbh2rcd13ifvqeo0","pricing_plan_id":"cebpf4jnsgd1na2vs0mg"},{"bike_id":"18b15fa9-67be-42a6-a2b6-94a0793b9604","system_id":"levelo_inurba_marseille","lat":43.31166,"lon":5.3871,"is_reserved":false,"is_disabled":false,"rental_uris":{"android":"levelo://app?vid=18b15fa9-67be-42a6-a2b6-94a0793b9604","ios":"levelo://app?vid=18b15fa9-67be-42a6-a2b6-94a0793b9604"},"vehicle_type_id":"4","last_reported":1744171973,"current_range_meters":12400,"station_id":"ce4bgv12rcd13ifvqcp0","pricing_plan_id":"cebpf4jnsgd1na2vs0mg"},{"bike_id":"cd8480fd-0260-4751-be49-d71de6c347f5","system_id":"levelo_inurba_marseille","lat":43.258251,"lon":5.394329,"is_reserved":false,"is_disabled":false,"rental_uris":{"android":"levelo://app?vid=cd8480fd-0260-4751-be49-d71de6c347f5","ios":"levelo://app?vid=cd8480fd-0260-4751-be49-d71de6c347f5"},"vehicle_type_id":"4","last_reported":1744171973,"current_range_meters":12800,"station_id":"ce4bhip2rcd13ifvqft0","pricing_plan_id":"cebpf4jnsgd1na2vs0mg"},{"bike_id":"1e099cf5-9456-4ac3-8d36-9153ce8a87f2","system_id":"levelo_inurba_marseille","lat":43.295781,"lon":5.399625,"is_reserved":false,"is_disabled":true,"rental_uris":{"android":"levelo://app?vid=1e099cf5-9456-4ac3-8d36-9153ce8a87f2","ios":"levelo://app?vid=1e099cf5-9456-4ac3-8d36-9153ce8a87f2"},"vehicle_type_id":"4","last_reported":1744171973,"current_range_meters":13600,"station_id":"ce4bh312rcd13ifvqdj0","pricing_plan_id":"cebpf4jnsgd1na2vs0mg"},{"bike_id":"b2ab7a9b-ab6f-40c3-9641-ca257733fa28","system_id":"levelo_inurba_marseille","lat":43.30797,"lon":5.3816,"is_reserved":false,"is_disabled":false,"rental_uris":{"android":"levelo://app?vid=b2ab7a9b-ab6f-40c3-9641-ca257733fa28","ios":"levelo://app?vid=b2ab7a9b-ab6f-40c3-9641-ca257733fa28"},"vehicle_type_id":"4","last_reported":1744171973,"current_range_meters":13600,"station_id":"ce4bgt12rcd13ifvqce0","pricing_plan_id":"cebpf4jnsgd1na2vs0mg"},{"bike_id":"5273534c-3473-4abd-9c4b-e677a5c1499a","system_id":"levelo_inurba_marseille","lat":43.29025,"lon":5.36978,"is_reserved":false,"is_disabled":false,"rental_uris":{"android":"levelo://app?vid=5273534c-3473-4abd-9c4b-e677a5c1499a","ios":"levelo://app?vid=5273534c-3473-4abd-9c4b-e677a5c1499a"},"vehicle_type_id":"4","last_reported":1744171973,"current_range_meters":13600,"station_id":"","pricing_plan_id":"cebpf4jnsgd1na2vs0mg"},{"bike_id":"be4e10ec-15e4-4807-99c5-755430b13f99","system_id":"levelo_inurba_marseille","lat":43.27918,"lon":5.41068,"is_reserved":false,"is_disabled":false,"rental_uris":{"android":"levelo://app?vid=be4e10ec-15e4-4807-99c5-755430b13f99","ios":"levelo://app?vid=be4e10ec-15e4-4807-99c5-755430b13f99"},"vehicle_type_id":"4","last_reported":1744171973,"current_range_meters":14000,"station_id":"ce4bhnp2rcd13ifvqh0g","pricing_plan_id":"cebpf4jnsgd1na2vs0mg"},{"bike_id":"8608fed8-5511-445a-b382-7039018c22a6","system_id":"levelo_inurba_marseille","lat":43.27051,"lon":5.42277,"is_reserved":false,"is_disabled":false,"rental_uris":{"android":"levelo://app?vid=8608fed8-5511-445a-b382-7039018c22a6","ios":"levelo://app?vid=8608fed8-5511-445a-b382-7039018c22a6"},"vehicle_type_id":"4","last_reported":1744171973,"current_range_meters":14000,"station_id":"ce4bhk92rcd13ifvqgb0","pricing_plan_id":"cebpf4jnsgd1na2vs0mg"},{"bike_id":"7d704dfc-1eb6-49d7-a9df-919a3b5b6c0a","system_id":"levelo_inurba_marseille","lat":43.27832,"lon":5.39208,"is_reserved":false,"is_disabled":false,"rental_uris":{"android":"levelo://app?vid=7d704dfc-1eb6-49d7-a9df-919a3b5b6c0a","ios":"levelo://app?vid=7d704dfc-1eb6-49d7-a9df-919a3b5b6c0a"},"vehicle_type_id":"4","last_reported":1744171973,"current_range_meters":14000,"station_id":"ce4bhjp2rcd13ifvqga0","pricing_plan_id":"cebpf4jnsgd1na2vs0mg"},{"bike_id":"e82d3cbf-6990-4eca-9743-6a7db542c284","system_id":"levelo_inurba_marseille","lat":43.323391,"lon":5.406189,"is_reserved":false,"is_disabled":false,"rental_uris":{"android":"levelo://app?vid=e82d3cbf-6990-4eca-9743-6a7db542c284","ios":"levelo://app?vid=e82d3cbf-6990-4eca-9743-6a7db542c284"},"vehicle_type_id":"4","last_reported":1744171973,"current_range_meters":14000,"station_id":"ce4bhq92rcd13ifvqhjg","pricing_plan_id":"cebpf4jnsgd1na2vs0mg"},{"bike_id":"489d5027-266f-4f78-a468-8cd5294f935a","system_id":"levelo_inurba_marseille","lat":43.24557,"lon":5.39531,"is_reserved":false,"is_disabled":false,"rental_uris":{"android":"levelo://app?vid=489d5027-266f-4f78-a468-8cd5294f935a","ios":"levelo://app?vid=489d5027-266f-4f78-a468-8cd5294f935a"},"vehicle_type_id":"4","last_reported":1744171973,"current_range_meters":14400,"station_id":"ce4bhlp2rcd13ifvqgjg","pricing_plan_id":"cebpf4jnsgd1na2vs0mg"},{"bike_id":"6530ca4f-a646-4648-8000-b12c2c22a131","system_id":"levelo_inurba_marseille","lat":43.248114,"lon":5.374571,"is_reserved":false,"is_disabled":true,"rental_uris":{"android":"levelo://app?vid=6530ca4f-a646-4648-8000-b12c2c22a131","ios":"levelo://app?vid=6530ca4f-a646-4648-8000-b12c2c22a131"},"vehicle_type_id":"4","last_reported":1744171973,"current_range_meters":14400,"station_id":"ce4bhgh2rcd13ifvqfb0","pricing_plan_id":"cebpf4jnsgd1na2vs0mg"},{"bike_id":"f668e04c-8e8e-4eb8-8efc-d475f5cd543a","system_id":"levelo_inurba_marseille","lat":43.28101,"lon":5.37837,"is_reserved":false,"is_disabled":false,"rental_uris":{"android":"levelo://app?vid=f668e04c-8e8e-4eb8-8efc-d475f5cd543a","ios":"levelo://app?vid=f668e04c-8e8e-4eb8-8efc-d475f5cd543a"},"vehicle_type_id":"4","last_reported":1744171973,"current_range_meters":14400,"station_id":"ce4bha12rcd13ifvqee0","pricing_plan_id":"cebpf4jnsgd1na2vs0mg"},{"bike_id":"7847c22d-422e-4a1b-963b-b43500f3a5a5","system_id":"levelo_inurba_marseille","lat":43.30886,"lon":5.39653,"is_reserved":false,"is_disabled":false,"rental_uris":{"android":"levelo://app?vid=7847c22d-422e-4a1b-963b-b43500f3a5a5","ios":"levelo://app?vid=7847c22d-422e-4a1b-963b-b43500f3a5a5"},"vehicle_type_id":"4","last_reported":1744171973,"current_range_meters":14400,"station_id":"ce4bh012rcd13ifvqcv0","pricing_plan_id":"cebpf4jnsgd1na2vs0mg"},{"bike_id":"75f59def-7d4a-4852-b419-ba3121fedb54","system_id":"levelo_inurba_marseille","lat":43.296274,"lon":5.405964,"is_reserved":false,"is_disabled":false,"rental_uris":{"android":"levelo://app?vid=75f59def-7d4a-4852-b419-ba3121fedb54","ios":"levelo://app?vid=75f59def-7d4a-4852-b419-ba3121fedb54"},"vehicle_type_id":"4","last_reported":1744171973,"current_range_meters":14400,"station_id":"ce4bh0h2rcd13ifvqd60","pricing_plan_id":"cebpf4jnsgd1na2vs0mg"},{"bike_id":"cfa10923-000d-4d6c-a18c-69dd84627bc9","system_id":"levelo_inurba_marseille","lat":43.31058,"lon":5.38367,"is_reserved":false,"is_disabled":false,"rental_uris":{"android":"levelo://app?vid=cfa10923-000d-4d6c-a18c-69dd84627bc9","ios":"levelo://app?vid=cfa10923-000d-4d6c-a18c-69dd84627bc9"},"vehicle_type_id":"4","last_reported":1744171973,"current_range_meters":14400,"station_id":"ce4bgv92rcd13ifvqcr0","pricing_plan_id":"cebpf4jnsgd1na2vs0mg"},{"bike_id":"7e488337-315e-40a4-a3f1-0d4cba19e8a8","system_id":"levelo_inurba_marseille","lat":43.24686,"lon":5.38126,"is_reserved":false,"is_disabled":false,"rental_uris":{"android":"levelo://app?vid=7e488337-315e-40a4-a3f1-0d4cba19e8a8","ios":"levelo://app?vid=7e488337-315e-40a4-a3f1-0d4cba19e8a8"},"vehicle_type_id":"4","last_reported":1744171973,"current_range_meters":14400,"station_id":"ce4bhih2rcd13ifvqfr0","pricing_plan_id":"cebpf4jnsgd1na2vs0mg"},{"bike_id":"11300ddc-1a84-4f09-8dd3-92ddec87333b","system_id":"levelo_inurba_marseille","lat":43.299316,"lon":5.365587,"is_reserved":false,"is_disabled":false,"rental_uris":{"android":"levelo://app?vid=11300ddc-1a84-4f09-8dd3-92ddec87333b","ios":"levelo://app?vid=11300ddc-1a84-4f09-8dd3-92ddec87333b"},"vehicle_type_id":"4","last_reported":1744171973,"current_range_meters":14800,"station_id":"ce4bgm92rcd13ifvqbr0","pricing_plan_id":"cebpf4jnsgd1na2vs0mg"},{"bike_id":"8eccc3d9-19cb-4c1d-b27f-e3b5feee92ea","system_id":"levelo_inurba_marseille","lat":43.229308,"lon":5.353768,"is_reserved":false,"is_disabled":false,"rental_uris":{"android":"levelo://app?vid=8eccc3d9-19cb-4c1d-b27f-e3b5feee92ea","ios":"levelo://app?vid=8eccc3d9-19cb-4c1d-b27f-e3b5feee92ea"},"vehicle_type_id":"4","last_reported":1744171973,"current_range_meters":14800,"station_id":"cpo3532slgdg3j2ikp40","pricing_plan_id":"cebpf4jnsgd1na2vs0mg"},{"bike_id":"f59c962d-e3aa-411f-b6eb-24802869fd2c","system_id":"levelo_inurba_marseille","lat":43.21748,"lon":5.3462,"is_reserved":false,"is_disabled":false,"rental_uris":{"android":"levelo://app?vid=f59c962d-e3aa-411f-b6eb-24802869fd2c","ios":"levelo://app?vid=f59c962d-e3aa-411f-b6eb-24802869fd2c"},"vehicle_type_id":"4","last_reported":1744171973,"current_range_meters":14800,"station_id":"st_cvj6r9ubvosntc0bgbag","pricing_plan_id":"cebpf4jnsgd1na2vs0mg"},{"bike_id":"8210bde5-0c92-4330-a3db-76e29792d685","system_id":"levelo_inurba_marseille","lat":43.27209,"lon":5.39193,"is_reserved":false,"is_disabled":false,"rental_uris":{"android":"levelo://app?vid=8210bde5-0c92-4330-a3db-76e29792d685","ios":"levelo://app?vid=8210bde5-0c92-4330-a3db-76e29792d685"},"vehicle_type_id":"4","last_reported":1744171973,"current_range_meters":14400,"station_id":"ce4bhhp2rcd13ifvqfm0","pricing_plan_id":"cebpf4jnsgd1na2vs0mg"},{"bike_id":"b37944fb-f9c1-4c8e-ac3a-9da227afb433","system_id":"levelo_inurba_marseille","lat":43.308,"lon":5.3816,"is_reserved":false,"is_disabled":true,"rental_uris":{"android":"levelo://app?vid=b37944fb-f9c1-4c8e-ac3a-9da227afb433","ios":"levelo://app?vid=b37944fb-f9c1-4c8e-ac3a-9da227afb433"},"vehicle_type_id":"4","last_reported":1744171973,"current_range_meters":15200,"station_id":"ce4bgt12rcd13ifvqce0","pricing_plan_id":"cebpf4jnsgd1na2vs0mg"},{"bike_id":"edf92683-0c32-4b77-9509-d6f3456c71e1","system_id":"levelo_inurba_marseille","lat":43.30602,"lon":5.393556,"is_reserved":false,"is_disabled":true,"rental_uris":{"android":"levelo://app?vid=edf92683-0c32-4b77-9509-d6f3456c71e1","ios":"levelo://app?vid=edf92683-0c32-4b77-9509-d6f3456c71e1"},"vehicle_type_id":"4","last_reported":1744171973,"current_range_meters":16000,"station_id":"ce4bh0p2rcd13ifvqd80","pricing_plan_id":"cebpf4jnsgd1na2vs0mg"},{"bike_id":"87070a76-8d9a-4bee-8346-3ec803fc4d2d","system_id":"levelo_inurba_marseille","lat":43.314887,"lon":5.372977,"is_reserved":false,"is_disabled":false,"rental_uris":{"android":"levelo://app?vid=87070a76-8d9a-4bee-8346-3ec803fc4d2d","ios":"levelo://app?vid=87070a76-8d9a-4bee-8346-3ec803fc4d2d"},"vehicle_type_id":"4","last_reported":1744171973,"current_range_meters":16000,"station_id":"ce4bgt12rcd13ifvqcd0","pricing_plan_id":"cebpf4jnsgd1na2vs0mg"},{"bike_id":"677bb2e4-e0e9-4384-b985-1575591f715d","system_id":"levelo_inurba_marseille","lat":43.28712,"lon":5.39979,"is_reserved":false,"is_disabled":false,"rental_uris":{"android":"levelo://app?vid=677bb2e4-e0e9-4384-b985-1575591f715d","ios":"levelo://app?vid=677bb2e4-e0e9-4384-b985-1575591f715d"},"vehicle_type_id":"4","last_reported":1744171973,"current_range_meters":16000,"station_id":"ce4bho92rcd13ifvqh3g","pricing_plan_id":"cebpf4jnsgd1na2vs0mg"},{"bike_id":"52dfef30-eef0-4dd6-a138-a48c8dcc2c3a","system_id":"levelo_inurba_marseille","lat":43.30382,"lon":5.42768,"is_reserved":false,"is_disabled":true,"rental_uris":{"android":"levelo://app?vid=52dfef30-eef0-4dd6-a138-a48c8dcc2c3a","ios":"levelo://app?vid=52dfef30-eef0-4dd6-a138-a48c8dcc2c3a"},"vehicle_type_id":"4","last_reported":1744171973,"current_range_meters":16000,"station_id":"","pricing_plan_id":"cebpf4jnsgd1na2vs0mg"},{"bike_id":"5e78497d-ea4f-4b60-a44a-7d25ec3aae38","system_id":"levelo_inurba_marseille","lat":43.28428,"lon":5.39194,"is_reserved":false,"is_disabled":false,"rental_uris":{"android":"levelo://app?vid=5e78497d-ea4f-4b60-a44a-7d25ec3aae38","ios":"levelo://app?vid=5e78497d-ea4f-4b60-a44a-7d25ec3aae38"},"vehicle_type_id":"4","last_reported":1744171973,"current_range_meters":16000,"station_id":"ce4bhoh2rcd13ifvqh5g","pricing_plan_id":"cebpf4jnsgd1na2vs0mg"},{"bike_id":"b3014d67-1beb-4a0f-a0f5-829e0d2a4492","system_id":"levelo_inurba_marseille","lat":43.21742,"lon":5.34622,"is_reserved":false,"is_disabled":false,"rental_uris":{"android":"levelo://app?vid=b3014d67-1beb-4a0f-a0f5-829e0d2a4492","ios":"levelo://app?vid=b3014d67-1beb-4a0f-a0f5-829e0d2a4492"},"vehicle_type_id":"4","last_reported":1744171973,"current_range_meters":16000,"station_id":"ce4bhu92rcd13ifvqi70","pricing_plan_id":"cebpf4jnsgd1na2vs0mg"},{"bike_id":"53fb0077-3a65-43ca-a501-d7c36dc0627d","system_id":"levelo_inurba_marseille","lat":43.31765,"lon":5.38814,"is_reserved":false,"is_disabled":false,"rental_uris":{"android":"levelo://app?vid=53fb0077-3a65-43ca-a501-d7c36dc0627d","ios":"levelo://app?vid=53fb0077-3a65-43ca-a501-d7c36dc0627d"},"vehicle_type_id":"4","last_reported":1744171973,"current_range_meters":16400,"station_id":"","pricing_plan_id":"cebpf4jnsgd1na2vs0mg"},{"bike_id":"3a9977f3-3b36-469b-8d49-77830ebfc10f","system_id":"levelo_inurba_marseille","lat":43.26035,"lon":5.39424,"is_reserved":false,"is_disabled":false,"rental_uris":{"android":"levelo://app?vid=3a9977f3-3b36-469b-8d49-77830ebfc10f","ios":"levelo://app?vid=3a9977f3-3b36-469b-8d49-77830ebfc10f"},"vehicle_type_id":"4","last_reported":1744171973,"current_range_meters":16400,"station_id":"ce4bhh92rcd13ifvqfj0","pricing_plan_id":"cebpf4jnsgd1na2vs0mg"},{"bike_id":"f8fd05f6-b019-4162-a9df-dc82b614e530","system_id":"levelo_inurba_marseille","lat":43.284591,"lon":5.391932,"is_reserved":false,"is_disabled":false,"rental_uris":{"android":"levelo://app?vid=f8fd05f6-b019-4162-a9df-dc82b614e530","ios":"levelo://app?vid=f8fd05f6-b019-4162-a9df-dc82b614e530"},"vehicle_type_id":"4","last_reported":1744171973,"current_range_meters":16400,"station_id":"ce4bhoh2rcd13ifvqh5g","pricing_plan_id":"cebpf4jnsgd1na2vs0mg"},{"bike_id":"b4b93a64-d083-4ab2-bbd0-53609c602fb5","system_id":"levelo_inurba_marseille","lat":43.309279,"lon":5.401409,"is_reserved":false,"is_disabled":true,"rental_uris":{"android":"levelo://app?vid=b4b93a64-d083-4ab2-bbd0-53609c602fb5","ios":"levelo://app?vid=b4b93a64-d083-4ab2-bbd0-53609c602fb5"},"vehicle_type_id":"4","last_reported":1744171973,"current_range_meters":16400,"station_id":"ce4bgvp2rcd13ifvqct0","pricing_plan_id":"cebpf4jnsgd1na2vs0mg"},{"bike_id":"62a01926-6933-46cf-a545-45ef8eedb22d","system_id":"levelo_inurba_marseille","lat":43.29255,"lon":5.40932,"is_reserved":false,"is_disabled":false,"rental_uris":{"android":"levelo://app?vid=62a01926-6933-46cf-a545-45ef8eedb22d","ios":"levelo://app?vid=62a01926-6933-46cf-a545-45ef8eedb22d"},"vehicle_type_id":"4","last_reported":1744171973,"current_range_meters":16400,"station_id":"ce4bh192rcd13ifvqdc0","pricing_plan_id":"cebpf4jnsgd1na2vs0mg"},{"bike_id":"8d29c6f3-97bf-4577-8844-066d6065b7aa","system_id":"levelo_inurba_marseille","lat":43.30365,"lon":5.42515,"is_reserved":false,"is_disabled":false,"rental_uris":{"android":"levelo://app?vid=8d29c6f3-97bf-4577-8844-066d6065b7aa","ios":"levelo://app?vid=8d29c6f3-97bf-4577-8844-066d6065b7aa"},"vehicle_type_id":"4","last_reported":1744171973,"current_range_meters":16400,"station_id":"","pricing_plan_id":"cebpf4jnsgd1na2vs0mg"},{"bike_id":"a1cc8300-5dbf-49a3-968c-f51789699de9","system_id":"levelo_inurba_marseille","lat":43.27956,"lon":5.3871,"is_reserved":false,"is_disabled":false,"rental_uris":{"android":"levelo://app?vid=a1cc8300-5dbf-49a3-968c-f51789699de9","ios":"levelo://app?vid=a1cc8300-5dbf-49a3-968c-f51789699de9"},"vehicle_type_id":"4","last_reported":1744171973,"current_range_meters":16000,"station_id":"ce4bhg12rcd13ifvqf80","pricing_plan_id":"cebpf4jnsgd1na2vs0mg"},{"bike_id":"6278194a-3064-41bd-8565-b8ff44b1552d","system_id":"levelo_inurba_marseille","lat":43.29528,"lon":5.38542,"is_reserved":false,"is_disabled":true,"rental_uris":{"android":"levelo://app?vid=6278194a-3064-41bd-8565-b8ff44b1552d","ios":"levelo://app?vid=6278194a-3064-41bd-8565-b8ff44b1552d"},"vehicle_type_id":"4","last_reported":1744171973,"current_range_meters":16400,"station_id":"ce4bgih2rcd13ifvqba0","pricing_plan_id":"cebpf4jnsgd1na2vs0mg"},{"bike_id":"d7b2134e-575c-40f1-9b3b-0ad40ab4b220","system_id":"levelo_inurba_marseille","lat":43.29838,"lon":5.43696,"is_reserved":false,"is_disabled":false,"rental_uris":{"android":"levelo://app?vid=d7b2134e-575c-40f1-9b3b-0ad40ab4b220","ios":"levelo://app?vid=d7b2134e-575c-40f1-9b3b-0ad40ab4b220"},"vehicle_type_id":"4","last_reported":1744171973,"current_range_meters":16400,"station_id":"","pricing_plan_id":"cebpf4jnsgd1na2vs0mg"},{"bike_id":"d44ff2b9-417e-4368-bebb-1fc974db3122","system_id":"levelo_inurba_marseille","lat":43.33567,"lon":5.39751,"is_reserved":false,"is_disabled":false,"rental_uris":{"android":"levelo://app?vid=d44ff2b9-417e-4368-bebb-1fc974db3122","ios":"levelo://app?vid=d44ff2b9-417e-4368-bebb-1fc974db3122"},"vehicle_type_id":"4","last_reported":1744171973,"current_range_meters":16400,"station_id":"","pricing_plan_id":"cebpf4jnsgd1na2vs0mg"},{"bike_id":"68b2b97c-dfa2-455e-98c0-2b19e9ad3657","system_id":"levelo_inurba_marseille","lat":43.29252,"lon":5.40936,"is_reserved":false,"is_disabled":false,"rental_uris":{"android":"levelo://app?vid=68b2b97c-dfa2-455e-98c0-2b19e9ad3657","ios":"levelo://app?vid=68b2b97c-dfa2-455e-98c0-2b19e9ad3657"},"vehicle_type_id":"4","last_reported":1744171973,"current_range_meters":16400,"station_id":"ce4bh192rcd13ifvqdc0","pricing_plan_id":"cebpf4jnsgd1na2vs0mg"},{"bike_id":"0ad9ee3e-0832-46df-b474-10ed8a5a0c97","system_id":"levelo_inurba_marseille","lat":43.21178,"lon":5.35086,"is_reserved":false,"is_disabled":false,"rental_uris":{"android":"levelo://app?vid=0ad9ee3e-0832-46df-b474-10ed8a5a0c97","ios":"levelo://app?vid=0ad9ee3e-0832-46df-b474-10ed8a5a0c97"},"vehicle_type_id":"4","last_reported":1744171973,"current_range_meters":16800,"station_id":"st_cvj6sg6p6f1abm77japg","pricing_plan_id":"cebpf4jnsgd1na2vs0mg"},{"bike_id":"995acf13-7f6f-4351-b2d4-eccf8b4e39a5","system_id":"levelo_inurba_marseille","lat":43.30798,"lon":5.3817,"is_reserved":false,"is_disabled":false,"rental_uris":{"android":"levelo://app?vid=995acf13-7f6f-4351-b2d4-eccf8b4e39a5","ios":"levelo://app?vid=995acf13-7f6f-4351-b2d4-eccf8b4e39a5"},"vehicle_type_id":"4","last_reported":1744171973,"current_range_meters":16800,"station_id":"ce4bgt12rcd13ifvqce0","pricing_plan_id":"cebpf4jnsgd1na2vs0mg"},{"bike_id":"7bd3f7de-3a74-4fff-b4c6-181d8b119e52","system_id":"levelo_inurba_marseille","lat":43.298006,"lon":5.404154,"is_reserved":false,"is_disabled":true,"rental_uris":{"android":"levelo://app?vid=7bd3f7de-3a74-4fff-b4c6-181d8b119e52","ios":"levelo://app?vid=7bd3f7de-3a74-4fff-b4c6-181d8b119e52"},"vehicle_type_id":"4","last_reported":1744171973,"current_range_meters":16800,"station_id":"ce4bh112rcd13ifvqd90","pricing_plan_id":"cebpf4jnsgd1na2vs0mg"},{"bike_id":"c1c63035-c83b-4419-8cbf-133778d95125","system_id":"levelo_inurba_marseille","lat":43.29789,"lon":5.39363,"is_reserved":false,"is_disabled":true,"rental_uris":{"android":"levelo://app?vid=c1c63035-c83b-4419-8cbf-133778d95125","ios":"levelo://app?vid=c1c63035-c83b-4419-8cbf-133778d95125"},"vehicle_type_id":"4","last_reported":1744171973,"current_range_meters":16800,"station_id":"chh1huq6cuj3fo74tm60","pricing_plan_id":"cebpf4jnsgd1na2vs0mg"},{"bike_id":"a173c7c5-8df8-4946-9b1a-2b9f81805751","system_id":"levelo_inurba_marseille","lat":43.289411,"lon":5.396218,"is_reserved":false,"is_disabled":false,"rental_uris":{"android":"levelo://app?vid=a173c7c5-8df8-4946-9b1a-2b9f81805751","ios":"levelo://app?vid=a173c7c5-8df8-4946-9b1a-2b9f81805751"},"vehicle_type_id":"4","last_reported":1744171973,"current_range_meters":16800,"station_id":"ce4bh3h2rcd13ifvqdn0","pricing_plan_id":"cebpf4jnsgd1na2vs0mg"},{"bike_id":"6a58c4b9-5908-4c3e-ba1c-31602d5dfcef","system_id":"levelo_inurba_marseille","lat":43.30927,"lon":5.40156,"is_reserved":false,"is_disabled":false,"rental_uris":{"android":"levelo://app?vid=6a58c4b9-5908-4c3e-ba1c-31602d5dfcef","ios":"levelo://app?vid=6a58c4b9-5908-4c3e-ba1c-31602d5dfcef"},"vehicle_type_id":"4","last_reported":1744171973,"current_range_meters":17200,"station_id":"ce4bgvp2rcd13ifvqct0","pricing_plan_id":"cebpf4jnsgd1na2vs0mg"},{"bike_id":"e7b11cda-49cc-43fb-8fed-3aa95163c2cd","system_id":"levelo_inurba_marseille","lat":43.25818,"lon":5.39443,"is_reserved":false,"is_disabled":false,"rental_uris":{"android":"levelo://app?vid=e7b11cda-49cc-43fb-8fed-3aa95163c2cd","ios":"levelo://app?vid=e7b11cda-49cc-43fb-8fed-3aa95163c2cd"},"vehicle_type_id":"4","last_reported":1744171973,"current_range_meters":17200,"station_id":"ce4bhip2rcd13ifvqft0","pricing_plan_id":"cebpf4jnsgd1na2vs0mg"},{"bike_id":"2988ff31-0f63-477f-93ec-35a2a0677715","system_id":"levelo_inurba_marseille","lat":43.27213,"lon":5.39182,"is_reserved":false,"is_disabled":false,"rental_uris":{"android":"levelo://app?vid=2988ff31-0f63-477f-93ec-35a2a0677715","ios":"levelo://app?vid=2988ff31-0f63-477f-93ec-35a2a0677715"},"vehicle_type_id":"4","last_reported":1744171973,"current_range_meters":17200,"station_id":"ce4bhhp2rcd13ifvqfm0","pricing_plan_id":"cebpf4jnsgd1na2vs0mg"},{"bike_id":"2c3a2b3a-da6d-4e7a-b514-9be1bc0e24a0","system_id":"levelo_inurba_marseille","lat":43.310836,"lon":5.424315,"is_reserved":false,"is_disabled":false,"rental_uris":{"android":"levelo://app?vid=2c3a2b3a-da6d-4e7a-b514-9be1bc0e24a0","ios":"levelo://app?vid=2c3a2b3a-da6d-4e7a-b514-9be1bc0e24a0"},"vehicle_type_id":"4","last_reported":1744171973,"current_range_meters":17200,"station_id":"ce4bhp92rcd13ifvqhag","pricing_plan_id":"cebpf4jnsgd1na2vs0mg"},{"bike_id":"50e3a432-fd98-4720-aa15-8561d1ec2e95","system_id":"levelo_inurba_marseille","lat":43.24685,"lon":5.38137,"is_reserved":false,"is_disabled":false,"rental_uris":{"android":"levelo://app?vid=50e3a432-fd98-4720-aa15-8561d1ec2e95","ios":"levelo://app?vid=50e3a432-fd98-4720-aa15-8561d1ec2e95"},"vehicle_type_id":"4","last_reported":1744171973,"current_range_meters":17200,"station_id":"ce4bhih2rcd13ifvqfr0","pricing_plan_id":"cebpf4jnsgd1na2vs0mg"},{"bike_id":"b84b1d45-729e-47db-8c7e-e88abe2948fb","system_id":"levelo_inurba_marseille","lat":43.31709,"lon":5.42423,"is_reserved":false,"is_disabled":false,"rental_uris":{"android":"levelo://app?vid=b84b1d45-729e-47db-8c7e-e88abe2948fb","ios":"levelo://app?vid=b84b1d45-729e-47db-8c7e-e88abe2948fb"},"vehicle_type_id":"4","last_reported":1744171973,"current_range_meters":17200,"station_id":"ce4bhp92rcd13ifvqhbg","pricing_plan_id":"cebpf4jnsgd1na2vs0mg"},{"bike_id":"24a119ef-6e80-49b9-80af-273e42ef54b7","system_id":"levelo_inurba_marseille","lat":43.28775,"lon":5.37581,"is_reserved":false,"is_disabled":false,"rental_uris":{"android":"levelo://app?vid=24a119ef-6e80-49b9-80af-273e42ef54b7","ios":"levelo://app?vid=24a119ef-6e80-49b9-80af-273e42ef54b7"},"vehicle_type_id":"4","last_reported":1744171973,"current_range_meters":17200,"station_id":"","pricing_plan_id":"cebpf4jnsgd1na2vs0mg"},{"bike_id":"6f1ee88b-b170-4686-b470-e364be32c40a","system_id":"levelo_inurba_marseille","lat":43.35282,"lon":5.36439,"is_reserved":false,"is_disabled":false,"rental_uris":{"android":"levelo://app?vid=6f1ee88b-b170-4686-b470-e364be32c40a","ios":"levelo://app?vid=6f1ee88b-b170-4686-b470-e364be32c40a"},"vehicle_type_id":"4","last_reported":1744171973,"current_range_meters":17600,"station_id":"","pricing_plan_id":"cebpf4jnsgd1na2vs0mg"},{"bike_id":"b2b4ba49-ba6a-4884-aa3d-6dc8d50038fa","system_id":"levelo_inurba_marseille","lat":43.31355,"lon":5.38494,"is_reserved":false,"is_disabled":false,"rental_uris":{"android":"levelo://app?vid=b2b4ba49-ba6a-4884-aa3d-6dc8d50038fa","ios":"levelo://app?vid=b2b4ba49-ba6a-4884-aa3d-6dc8d50038fa"},"vehicle_type_id":"4","last_reported":1744171973,"current_range_meters":17600,"station_id":"ce4bgt92rcd13ifvqcf0","pricing_plan_id":"cebpf4jnsgd1na2vs0mg"},{"bike_id":"262814d8-70e8-4e84-b322-6064a998c97a","system_id":"levelo_inurba_marseille","lat":43.30645,"lon":5.40084,"is_reserved":false,"is_disabled":false,"rental_uris":{"android":"levelo://app?vid=262814d8-70e8-4e84-b322-6064a998c97a","ios":"levelo://app?vid=262814d8-70e8-4e84-b322-6064a998c97a"},"vehicle_type_id":"4","last_reported":1744171973,"current_range_meters":17600,"station_id":"ce4bh112rcd13ifvqda0","pricing_plan_id":"cebpf4jnsgd1na2vs0mg"},{"bike_id":"3b1079d3-c917-4a40-b549-3a7961d4f537","system_id":"levelo_inurba_marseille","lat":43.299406,"lon":5.365397,"is_reserved":false,"is_disabled":false,"rental_uris":{"android":"levelo://app?vid=3b1079d3-c917-4a40-b549-3a7961d4f537","ios":"levelo://app?vid=3b1079d3-c917-4a40-b549-3a7961d4f537"},"vehicle_type_id":"4","last_reported":1744171973,"current_range_meters":17600,"station_id":"ce4bgm92rcd13ifvqbr0","pricing_plan_id":"cebpf4jnsgd1na2vs0mg"},{"bike_id":"f732e6ee-b929-4d52-b9e6-b13da1311992","system_id":"levelo_inurba_marseille","lat":43.29273,"lon":5.40162,"is_reserved":false,"is_disabled":false,"rental_uris":{"android":"levelo://app?vid=f732e6ee-b929-4d52-b9e6-b13da1311992","ios":"levelo://app?vid=f732e6ee-b929-4d52-b9e6-b13da1311992"},"vehicle_type_id":"4","last_reported":1744171973,"current_range_meters":17600,"station_id":"ce4bh312rcd13ifvqdk0","pricing_plan_id":"cebpf4jnsgd1na2vs0mg"},{"bike_id":"800e3e3c-6ab6-48d8-8a69-3938eb1aed86","system_id":"levelo_inurba_marseille","lat":43.31281,"lon":5.37399,"is_reserved":false,"is_disabled":false,"rental_uris":{"android":"levelo://app?vid=800e3e3c-6ab6-48d8-8a69-3938eb1aed86","ios":"levelo://app?vid=800e3e3c-6ab6-48d8-8a69-3938eb1aed86"},"vehicle_type_id":"4","last_reported":1744171973,"current_range_meters":17600,"station_id":"","pricing_plan_id":"cebpf4jnsgd1na2vs0mg"},{"bike_id":"09bddc24-4c9d-460f-8967-e90ee5c88b43","system_id":"levelo_inurba_marseille","lat":43.31328,"lon":5.39714,"is_reserved":false,"is_disabled":true,"rental_uris":{"android":"levelo://app?vid=09bddc24-4c9d-460f-8967-e90ee5c88b43","ios":"levelo://app?vid=09bddc24-4c9d-460f-8967-e90ee5c88b43"},"vehicle_type_id":"4","last_reported":1744171973,"current_range_meters":17600,"station_id":"ce4bgvp2rcd13ifvqcu0","pricing_plan_id":"cebpf4jnsgd1na2vs0mg"},{"bike_id":"9129d2d3-a536-4e9e-9888-6e1c5c4c2c25","system_id":"levelo_inurba_marseille","lat":43.306056,"lon":5.372269,"is_reserved":false,"is_disabled":false,"rental_uris":{"android":"levelo://app?vid=9129d2d3-a536-4e9e-9888-6e1c5c4c2c25","ios":"levelo://app?vid=9129d2d3-a536-4e9e-9888-6e1c5c4c2c25"},"vehicle_type_id":"4","last_reported":1744171973,"current_range_meters":17600,"station_id":"ce4bgqh2rcd13ifvqc4g","pricing_plan_id":"cebpf4jnsgd1na2vs0mg"},{"bike_id":"06ddb5d6-9dd6-4450-9d2d-fdbd5980086c","system_id":"levelo_inurba_marseille","lat":43.27912,"lon":5.39562,"is_reserved":false,"is_disabled":false,"rental_uris":{"android":"levelo://app?vid=06ddb5d6-9dd6-4450-9d2d-fdbd5980086c","ios":"levelo://app?vid=06ddb5d6-9dd6-4450-9d2d-fdbd5980086c"},"vehicle_type_id":"4","last_reported":1744171973,"current_range_meters":18000,"station_id":"ce4bhf92rcd13ifvqf40","pricing_plan_id":"cebpf4jnsgd1na2vs0mg"},{"bike_id":"54525f9c-6729-406c-8f5a-fce95e931823","system_id":"levelo_inurba_marseille","lat":43.304373,"lon":5.378333,"is_reserved":false,"is_disabled":false,"rental_uris":{"android":"levelo://app?vid=54525f9c-6729-406c-8f5a-fce95e931823","ios":"levelo://app?vid=54525f9c-6729-406c-8f5a-fce95e931823"},"vehicle_type_id":"4","last_reported":1744171973,"current_range_meters":18000,"station_id":"","pricing_plan_id":"cebpf4jnsgd1na2vs0mg"},{"bike_id":"42c1fdc6-38af-4ea1-a910-702e15d5a9b4","system_id":"levelo_inurba_marseille","lat":43.309345,"lon":5.401528,"is_reserved":false,"is_disabled":true,"rental_uris":{"android":"levelo://app?vid=42c1fdc6-38af-4ea1-a910-702e15d5a9b4","ios":"levelo://app?vid=42c1fdc6-38af-4ea1-a910-702e15d5a9b4"},"vehicle_type_id":"4","last_reported":1744171973,"current_range_meters":18000,"station_id":"ce4bgvp2rcd13ifvqct0","pricing_plan_id":"cebpf4jnsgd1na2vs0mg"},{"bike_id":"97250f01-5de7-4f3c-8e0e-369ba51c5612","system_id":"levelo_inurba_marseille","lat":43.30796,"lon":5.38193,"is_reserved":false,"is_disabled":false,"rental_uris":{"android":"levelo://app?vid=97250f01-5de7-4f3c-8e0e-369ba51c5612","ios":"levelo://app?vid=97250f01-5de7-4f3c-8e0e-369ba51c5612"},"vehicle_type_id":"4","last_reported":1744171973,"current_range_meters":18000,"station_id":"ce4bgt12rcd13ifvqce0","pricing_plan_id":"cebpf4jnsgd1na2vs0mg"},{"bike_id":"7c01e71c-5596-411f-89dd-0c8e58123bce","system_id":"levelo_inurba_marseille","lat":43.31176,"lon":5.38722,"is_reserved":false,"is_disabled":false,"rental_uris":{"android":"levelo://app?vid=7c01e71c-5596-411f-89dd-0c8e58123bce","ios":"levelo://app?vid=7c01e71c-5596-411f-89dd-0c8e58123bce"},"vehicle_type_id":"4","last_reported":1744171973,"current_range_meters":18000,"station_id":"ce4bgv12rcd13ifvqcp0","pricing_plan_id":"cebpf4jnsgd1na2vs0mg"},{"bike_id":"8f299a7e-ac08-4b43-bd5f-446d6a3f683e","system_id":"levelo_inurba_marseille","lat":43.301006,"lon":5.390768,"is_reserved":false,"is_disabled":false,"rental_uris":{"android":"levelo://app?vid=8f299a7e-ac08-4b43-bd5f-446d6a3f683e","ios":"levelo://app?vid=8f299a7e-ac08-4b43-bd5f-446d6a3f683e"},"vehicle_type_id":"4","last_reported":1744171973,"current_range_meters":18000,"station_id":"ce4bh192rcd13ifvqdb0","pricing_plan_id":"cebpf4jnsgd1na2vs0mg"},{"bike_id":"33c6f353-0166-4c8c-af82-a2e0d1d8c75d","system_id":"levelo_inurba_marseille","lat":43.330029,"lon":5.438479,"is_reserved":false,"is_disabled":false,"rental_uris":{"android":"levelo://app?vid=33c6f353-0166-4c8c-af82-a2e0d1d8c75d","ios":"levelo://app?vid=33c6f353-0166-4c8c-af82-a2e0d1d8c75d"},"vehicle_type_id":"4","last_reported":1744171973,"current_range_meters":18000,"station_id":"","pricing_plan_id":"cebpf4jnsgd1na2vs0mg"},{"bike_id":"24556cf8-8ed7-4e53-b2fc-c9ac2e719ee8","system_id":"levelo_inurba_marseille","lat":43.24168,"lon":5.39734,"is_reserved":false,"is_disabled":false,"rental_uris":{"android":"levelo://app?vid=24556cf8-8ed7-4e53-b2fc-c9ac2e719ee8","ios":"levelo://app?vid=24556cf8-8ed7-4e53-b2fc-c9ac2e719ee8"},"vehicle_type_id":"4","last_reported":1744171973,"current_range_meters":18800,"station_id":"ce4bhn12rcd13ifvqgpg","pricing_plan_id":"cebpf4jnsgd1na2vs0mg"},{"bike_id":"6af5c8a6-6e6f-47d5-8681-346a73801d42","system_id":"levelo_inurba_marseille","lat":43.307999,"lon":5.381651,"is_reserved":false,"is_disabled":false,"rental_uris":{"android":"levelo://app?vid=6af5c8a6-6e6f-47d5-8681-346a73801d42","ios":"levelo://app?vid=6af5c8a6-6e6f-47d5-8681-346a73801d42"},"vehicle_type_id":"4","last_reported":1744171973,"current_range_meters":18800,"station_id":"ce4bgt12rcd13ifvqce0","pricing_plan_id":"cebpf4jnsgd1na2vs0mg"},{"bike_id":"e6c9fae8-0b62-43cf-b987-48e265b86f6a","system_id":"levelo_inurba_marseille","lat":43.29281,"lon":5.40128,"is_reserved":false,"is_disabled":false,"rental_uris":{"android":"levelo://app?vid=e6c9fae8-0b62-43cf-b987-48e265b86f6a","ios":"levelo://app?vid=e6c9fae8-0b62-43cf-b987-48e265b86f6a"},"vehicle_type_id":"4","last_reported":1744171973,"current_range_meters":18800,"station_id":"ce4bh312rcd13ifvqdk0","pricing_plan_id":"cebpf4jnsgd1na2vs0mg"},{"bike_id":"8071246a-da1d-4c62-856c-b52db7913885","system_id":"levelo_inurba_marseille","lat":43.31725,"lon":5.42432,"is_reserved":false,"is_disabled":false,"rental_uris":{"android":"levelo://app?vid=8071246a-da1d-4c62-856c-b52db7913885","ios":"levelo://app?vid=8071246a-da1d-4c62-856c-b52db7913885"},"vehicle_type_id":"4","last_reported":1744171973,"current_range_meters":18800,"station_id":"ce4bhp92rcd13ifvqhbg","pricing_plan_id":"cebpf4jnsgd1na2vs0mg"},{"bike_id":"8d0eb52f-a191-4371-a836-f30fe90a14c8","system_id":"levelo_inurba_marseille","lat":43.28343,"lon":5.38115,"is_reserved":false,"is_disabled":false,"rental_uris":{"android":"levelo://app?vid=8d0eb52f-a191-4371-a836-f30fe90a14c8","ios":"levelo://app?vid=8d0eb52f-a191-4371-a836-f30fe90a14c8"},"vehicle_type_id":"4","last_reported":1744171973,"current_range_meters":19200,"station_id":"ce4bh412rcd13ifvqdr0","pricing_plan_id":"cebpf4jnsgd1na2vs0mg"},{"bike_id":"29fa4859-90f2-49bc-b9c2-fc4f3f694348","system_id":"levelo_inurba_marseille","lat":43.281575,"lon":5.426425,"is_reserved":false,"is_disabled":false,"rental_uris":{"android":"levelo://app?vid=29fa4859-90f2-49bc-b9c2-fc4f3f694348","ios":"levelo://app?vid=29fa4859-90f2-49bc-b9c2-fc4f3f694348"},"vehicle_type_id":"4","last_reported":1744171973,"current_range_meters":19200,"station_id":"ce4bhnh2rcd13ifvqgug","pricing_plan_id":"cebpf4jnsgd1na2vs0mg"},{"bike_id":"fc7351d1-c511-4235-af03-bbf58aab542a","system_id":"levelo_inurba_marseille","lat":43.307971,"lon":5.381566,"is_reserved":false,"is_disabled":false,"rental_uris":{"android":"levelo://app?vid=fc7351d1-c511-4235-af03-bbf58aab542a","ios":"levelo://app?vid=fc7351d1-c511-4235-af03-bbf58aab542a"},"vehicle_type_id":"4","last_reported":1744171973,"current_range_meters":19200,"station_id":"ce4bgt12rcd13ifvqce0","pricing_plan_id":"cebpf4jnsgd1na2vs0mg"},{"bike_id":"e5b198f9-c644-42e9-a1d9-be90f896d789","system_id":"levelo_inurba_marseille","lat":43.33766,"lon":5.37488,"is_reserved":false,"is_disabled":false,"rental_uris":{"android":"levelo://app?vid=e5b198f9-c644-42e9-a1d9-be90f896d789","ios":"levelo://app?vid=e5b198f9-c644-42e9-a1d9-be90f896d789"},"vehicle_type_id":"4","last_reported":1744171973,"current_range_meters":19200,"station_id":"","pricing_plan_id":"cebpf4jnsgd1na2vs0mg"},{"bike_id":"b13d264b-fb05-4056-bafd-f0f05f6480b8","system_id":"levelo_inurba_marseille","lat":43.290275,"lon":5.38124,"is_reserved":false,"is_disabled":false,"rental_uris":{"android":"levelo://app?vid=b13d264b-fb05-4056-bafd-f0f05f6480b8","ios":"levelo://app?vid=b13d264b-fb05-4056-bafd-f0f05f6480b8"},"vehicle_type_id":"4","last_reported":1744171973,"current_range_meters":19200,"station_id":"ce4bh4p2rcd13ifvqe1g","pricing_plan_id":"cebpf4jnsgd1na2vs0mg"},{"bike_id":"d00e04e4-9493-4570-82e0-59f251ed0a8a","system_id":"levelo_inurba_marseille","lat":43.27915,"lon":5.38023,"is_reserved":false,"is_disabled":false,"rental_uris":{"android":"levelo://app?vid=d00e04e4-9493-4570-82e0-59f251ed0a8a","ios":"levelo://app?vid=d00e04e4-9493-4570-82e0-59f251ed0a8a"},"vehicle_type_id":"4","last_reported":1744171973,"current_range_meters":19200,"station_id":"ce4bhf92rcd13ifvqf50","pricing_plan_id":"cebpf4jnsgd1na2vs0mg"},{"bike_id":"1a3cd0ab-ec77-41b3-982c-74e5093499a8","system_id":"levelo_inurba_marseille","lat":43.30438,"lon":5.38935,"is_reserved":false,"is_disabled":true,"rental_uris":{"android":"levelo://app?vid=1a3cd0ab-ec77-41b3-982c-74e5093499a8","ios":"levelo://app?vid=1a3cd0ab-ec77-41b3-982c-74e5093499a8"},"vehicle_type_id":"4","last_reported":1744171973,"current_range_meters":19200,"station_id":"ce4bgk12rcd13ifvqbi0","pricing_plan_id":"cebpf4jnsgd1na2vs0mg"},{"bike_id":"6aeb8745-1add-4320-94be-47d7cc83c606","system_id":"levelo_inurba_marseille","lat":43.28617,"lon":5.35093,"is_reserved":false,"is_disabled":true,"rental_uris":{"android":"levelo://app?vid=6aeb8745-1add-4320-94be-47d7cc83c606","ios":"levelo://app?vid=6aeb8745-1add-4320-94be-47d7cc83c606"},"vehicle_type_id":"4","last_reported":1744171973,"current_range_meters":19200,"station_id":"ce4bhch2rcd13ifvqeug","pricing_plan_id":"cebpf4jnsgd1na2vs0mg"},{"bike_id":"a3a49e65-c75e-4463-a221-3e81b1a1fa78","system_id":"levelo_inurba_marseille","lat":43.31756,"lon":5.3903,"is_reserved":false,"is_disabled":false,"rental_uris":{"android":"levelo://app?vid=a3a49e65-c75e-4463-a221-3e81b1a1fa78","ios":"levelo://app?vid=a3a49e65-c75e-4463-a221-3e81b1a1fa78"},"vehicle_type_id":"4","last_reported":1744171973,"current_range_meters":19200,"station_id":"ce4bhqp2rcd13ifvqhng","pricing_plan_id":"cebpf4jnsgd1na2vs0mg"},{"bike_id":"aa2c077b-94a8-4ca8-a1bd-72df56270d30","system_id":"levelo_inurba_marseille","lat":43.25579,"lon":5.38242,"is_reserved":false,"is_disabled":false,"rental_uris":{"android":"levelo://app?vid=aa2c077b-94a8-4ca8-a1bd-72df56270d30","ios":"levelo://app?vid=aa2c077b-94a8-4ca8-a1bd-72df56270d30"},"vehicle_type_id":"4","last_reported":1744171973,"current_range_meters":19600,"station_id":"ce4bhih2rcd13ifvqfs0","pricing_plan_id":"cebpf4jnsgd1na2vs0mg"},{"bike_id":"8651e8ad-e76f-45d4-a332-92a388feeed1","system_id":"levelo_inurba_marseille","lat":43.29277,"lon":5.40121,"is_reserved":false,"is_disabled":false,"rental_uris":{"android":"levelo://app?vid=8651e8ad-e76f-45d4-a332-92a388feeed1","ios":"levelo://app?vid=8651e8ad-e76f-45d4-a332-92a388feeed1"},"vehicle_type_id":"4","last_reported":1744171973,"current_range_meters":19600,"station_id":"ce4bh312rcd13ifvqdk0","pricing_plan_id":"cebpf4jnsgd1na2vs0mg"},{"bike_id":"9274b6ea-59ea-4acf-b776-8a868c75fde7","system_id":"levelo_inurba_marseille","lat":43.29253,"lon":5.40932,"is_reserved":false,"is_disabled":false,"rental_uris":{"android":"levelo://app?vid=9274b6ea-59ea-4acf-b776-8a868c75fde7","ios":"levelo://app?vid=9274b6ea-59ea-4acf-b776-8a868c75fde7"},"vehicle_type_id":"4","last_reported":1744171973,"current_range_meters":19600,"station_id":"ce4bh192rcd13ifvqdc0","pricing_plan_id":"cebpf4jnsgd1na2vs0mg"},{"bike_id":"4c21d86a-40b5-4941-9f8b-9ed03f38cc3e","system_id":"levelo_inurba_marseille","lat":43.31993,"lon":5.38165,"is_reserved":false,"is_disabled":false,"rental_uris":{"android":"levelo://app?vid=4c21d86a-40b5-4941-9f8b-9ed03f38cc3e","ios":"levelo://app?vid=4c21d86a-40b5-4941-9f8b-9ed03f38cc3e"},"vehicle_type_id":"4","last_reported":1744171973,"current_range_meters":19600,"station_id":"ce4bhr12rcd13ifvqhpg","pricing_plan_id":"cebpf4jnsgd1na2vs0mg"},{"bike_id":"e91ed5b5-fb81-49ee-a357-a2e637eb3fc7","system_id":"levelo_inurba_marseille","lat":43.28406,"lon":5.37545,"is_reserved":false,"is_disabled":false,"rental_uris":{"android":"levelo://app?vid=e91ed5b5-fb81-49ee-a357-a2e637eb3fc7","ios":"levelo://app?vid=e91ed5b5-fb81-49ee-a357-a2e637eb3fc7"},"vehicle_type_id":"4","last_reported":1744171973,"current_range_meters":19600,"station_id":"ce4bh412rcd13ifvqds0","pricing_plan_id":"cebpf4jnsgd1na2vs0mg"},{"bike_id":"4991589d-bcb1-4bfb-8d3e-5c59c6458a3d","system_id":"levelo_inurba_marseille","lat":43.34416,"lon":5.38072,"is_reserved":false,"is_disabled":false,"rental_uris":{"android":"levelo://app?vid=4991589d-bcb1-4bfb-8d3e-5c59c6458a3d","ios":"levelo://app?vid=4991589d-bcb1-4bfb-8d3e-5c59c6458a3d"},"vehicle_type_id":"4","last_reported":1744171973,"current_range_meters":19600,"station_id":"","pricing_plan_id":"cebpf4jnsgd1na2vs0mg"},{"bike_id":"ee3c03b2-9a4c-4654-a28e-7388f571d9cb","system_id":"levelo_inurba_marseille","lat":43.3199,"lon":5.38168,"is_reserved":false,"is_disabled":true,"rental_uris":{"android":"levelo://app?vid=ee3c03b2-9a4c-4654-a28e-7388f571d9cb","ios":"levelo://app?vid=ee3c03b2-9a4c-4654-a28e-7388f571d9cb"},"vehicle_type_id":"4","last_reported":1744171973,"current_range_meters":20000,"station_id":"ce4bhr12rcd13ifvqhpg","pricing_plan_id":"cebpf4jnsgd1na2vs0mg"},{"bike_id":"fa60a937-6c91-4585-a028-8394b67693ff","system_id":"levelo_inurba_marseille","lat":43.28157,"lon":5.4266,"is_reserved":false,"is_disabled":false,"rental_uris":{"android":"levelo://app?vid=fa60a937-6c91-4585-a028-8394b67693ff","ios":"levelo://app?vid=fa60a937-6c91-4585-a028-8394b67693ff"},"vehicle_type_id":"4","last_reported":1744171973,"current_range_meters":20000,"station_id":"ce4bhnh2rcd13ifvqgug","pricing_plan_id":"cebpf4jnsgd1na2vs0mg"},{"bike_id":"600aff3c-d6d9-47d1-a6ea-813390aae2ad","system_id":"levelo_inurba_marseille","lat":43.30879,"lon":5.372001,"is_reserved":false,"is_disabled":true,"rental_uris":{"android":"levelo://app?vid=600aff3c-d6d9-47d1-a6ea-813390aae2ad","ios":"levelo://app?vid=600aff3c-d6d9-47d1-a6ea-813390aae2ad"},"vehicle_type_id":"4","last_reported":1744171973,"current_range_meters":20000,"station_id":"ce4bguh2rcd13ifvqckg","pricing_plan_id":"cebpf4jnsgd1na2vs0mg"},{"bike_id":"c2ef1496-d7dc-4652-beb3-61dbbef2655f","system_id":"levelo_inurba_marseille","lat":43.323409,"lon":5.406139,"is_reserved":false,"is_disabled":false,"rental_uris":{"android":"levelo://app?vid=c2ef1496-d7dc-4652-beb3-61dbbef2655f","ios":"levelo://app?vid=c2ef1496-d7dc-4652-beb3-61dbbef2655f"},"vehicle_type_id":"4","last_reported":1744171973,"current_range_meters":20400,"station_id":"ce4bhq92rcd13ifvqhjg","pricing_plan_id":"cebpf4jnsgd1na2vs0mg"},{"bike_id":"a03a5dee-b7ae-4ae0-9aa7-ddd390b3fc4e","system_id":"levelo_inurba_marseille","lat":43.292752,"lon":5.401299,"is_reserved":false,"is_disabled":false,"rental_uris":{"android":"levelo://app?vid=a03a5dee-b7ae-4ae0-9aa7-ddd390b3fc4e","ios":"levelo://app?vid=a03a5dee-b7ae-4ae0-9aa7-ddd390b3fc4e"},"vehicle_type_id":"4","last_reported":1744171973,"current_range_meters":20400,"station_id":"ce4bh312rcd13ifvqdk0","pricing_plan_id":"cebpf4jnsgd1na2vs0mg"},{"bike_id":"9fa009d1-cbae-431a-acf5-87fb031013cd","system_id":"levelo_inurba_marseille","lat":43.292752,"lon":5.401382,"is_reserved":false,"is_disabled":false,"rental_uris":{"android":"levelo://app?vid=9fa009d1-cbae-431a-acf5-87fb031013cd","ios":"levelo://app?vid=9fa009d1-cbae-431a-acf5-87fb031013cd"},"vehicle_type_id":"4","last_reported":1744171973,"current_range_meters":20400,"station_id":"ce4bh312rcd13ifvqdk0","pricing_plan_id":"cebpf4jnsgd1na2vs0mg"},{"bike_id":"ed32de37-66e8-4fe8-b613-74f9e5810cd6","system_id":"levelo_inurba_marseille","lat":43.31206,"lon":5.37344,"is_reserved":false,"is_disabled":false,"rental_uris":{"android":"levelo://app?vid=ed32de37-66e8-4fe8-b613-74f9e5810cd6","ios":"levelo://app?vid=ed32de37-66e8-4fe8-b613-74f9e5810cd6"},"vehicle_type_id":"4","last_reported":1744171973,"current_range_meters":20400,"station_id":"","pricing_plan_id":"cebpf4jnsgd1na2vs0mg"},{"bike_id":"d7b06510-badc-4c7e-918b-bf53789b7818","system_id":"levelo_inurba_marseille","lat":43.281539,"lon":5.426419,"is_reserved":false,"is_disabled":false,"rental_uris":{"android":"levelo://app?vid=d7b06510-badc-4c7e-918b-bf53789b7818","ios":"levelo://app?vid=d7b06510-badc-4c7e-918b-bf53789b7818"},"vehicle_type_id":"4","last_reported":1744171973,"current_range_meters":20400,"station_id":"ce4bhnh2rcd13ifvqgug","pricing_plan_id":"cebpf4jnsgd1na2vs0mg"},{"bike_id":"ef291804-1477-432e-b153-82ea15725418","system_id":"levelo_inurba_marseille","lat":43.33781,"lon":5.37454,"is_reserved":false,"is_disabled":false,"rental_uris":{"android":"levelo://app?vid=ef291804-1477-432e-b153-82ea15725418","ios":"levelo://app?vid=ef291804-1477-432e-b153-82ea15725418"},"vehicle_type_id":"4","last_reported":1744171973,"current_range_meters":20400,"station_id":"","pricing_plan_id":"cebpf4jnsgd1na2vs0mg"},{"bike_id":"95bd8f0d-164f-4a09-80a6-91b05ab1b61b","system_id":"levelo_inurba_marseille","lat":43.321046,"lon":5.367675,"is_reserved":false,"is_disabled":false,"rental_uris":{"android":"levelo://app?vid=95bd8f0d-164f-4a09-80a6-91b05ab1b61b","ios":"levelo://app?vid=95bd8f0d-164f-4a09-80a6-91b05ab1b61b"},"vehicle_type_id":"4","last_reported":1744171973,"current_range_meters":20400,"station_id":"ce4bhrh2rcd13ifvqhug","pricing_plan_id":"cebpf4jnsgd1na2vs0mg"},{"bike_id":"f8c0a32b-770a-4f53-940a-15756c648b6a","system_id":"levelo_inurba_marseille","lat":43.25822,"lon":5.3945,"is_reserved":false,"is_disabled":false,"rental_uris":{"android":"levelo://app?vid=f8c0a32b-770a-4f53-940a-15756c648b6a","ios":"levelo://app?vid=f8c0a32b-770a-4f53-940a-15756c648b6a"},"vehicle_type_id":"4","last_reported":1744171973,"current_range_meters":20800,"station_id":"ce4bhip2rcd13ifvqft0","pricing_plan_id":"cebpf4jnsgd1na2vs0mg"},