{"last_updated":1731607990,"ttl":60,"version":"2.2","data":{"bikes":[{"bike_id":"33aebbcd-bafb-4b6d-bbf2-f4e44cc6ef3b","system_id":"levelo_inurba_marseille","lat":43.31115,"lon":5.3777,"is_reserved":false,"is_disabled":false,"rental_uris":{"android":"levelo://app?vid=33aebbcd-bafb-4b6d-bbf2-f4e44cc6ef3b","ios":"levelo://app?vid=33aebbcd-bafb-4b6d-bbf2-f4e44cc6ef3b"},"vehicle_type_id":"4","last_reported":1731607990,"current_range_meters":18800,"station_id":"ce4bgt92rcd13ifvqcg0","pricing_plan_id":"cebpf4jnsgd1na2vs0mg"},{"bike_id":"920a82e2-adc8-4233-a91e-3cc788628f04","system_id":"levelo_inurba_marseille","lat":43.27988,"lon":5.41663,"is_reserved":false,"is_disabled":false,"rental_uris":{"android":"levelo://app?vid=920a82e2-adc8-4233-a91e-3cc788628f04","ios":"levelo://app?vid=920a82e2-adc8-4233-a91e-3cc788628f04"},"vehicle_type_id":"4","last_reported":1731607990,"current_range_meters":32400,"station_id":"ce4bho12rcd13ifvqh1g","pricing_plan_id":"cebpf4jnsgd1na2vs0mg"},{"bike_id":"1d936b62-1bb8-40f6-afdf-7dac3ed8caa9","system_id":"levelo_inurba_marseille","lat":43.28458,"lon":5.35897,"is_reserved":false,"is_disabled":false,"rental_uris":{"android":"levelo://app?vid=1d936b62-1bb8-40f6-afdf-7dac3ed8caa9","ios":"levelo://app?vid=1d936b62-1bb8-40f6-afdf-7dac3ed8caa9"},"vehicle_type_id":"4","last_reported":1731607990,"current_range_meters":18800,"station_id":"ce4bhah2rcd13ifvqei0","pricing_plan_id":"cebpf4jnsgd1na2vs0mg"},{"bike_id":"3f81065c-c30f-49ec-9ead-b178cc077ddc","system_id":"levelo_inurba_marseille","lat":43.30898,"lon":5.39629,"is_reserved":false,"is_disabled":false,"rental_uris":{"android":"levelo://app?vid=3f81065c-c30f-49ec-9ead-b178cc077ddc","ios":"levelo://app?vid=3f81065c-c30f-49ec-9ead-b178cc077ddc"},"vehicle_type_id":"4","last_reported":1731607990,"current_range_meters":4800,"station_id":"ce4bh012rcd13ifvqcv0","pricing_plan_id":"cebpf4jnsgd1na2vs0mg"},{"bike_id":"27dfd56c-a0dd-4836-a141-163a04b58bab","system_id":"levelo_inurba_marseille","lat":43.28,"lon":5.4166,"is_reserved":false,"is_disabled":false,"rental_uris":{"android":"levelo://app?vid=27dfd56c-a0dd-4836-a141-163a04b58bab","ios":"levelo://app?vid=27dfd56c-a0dd-4836-a141-163a04b58bab"},"vehicle_type_id":"4","last_reported":1731607990,"current_range_meters":24800,"station_id":"ce4bho12rcd13ifvqh1g","pricing_plan_id":"cebpf4jnsgd1na2vs0mg"},{"bike_id":"e558d9e7-43f3-446d-8aed-7759be11483b","system_id":"levelo_inurba_marseille","lat":43.29527,"lon":5.38547,"is_reserved":false,"is_disabled":false,"rental_uris":{"android":"levelo://app?vid=e558d9e7-43f3-446d-8aed-7759be11483b","ios":"levelo://app?vid=e558d9e7-43f3-446d-8aed-7759be11483b"},"vehicle_type_id":"4","last_reported":1731607990,"current_range_meters":20800,"station_id":"ce4bgih2rcd13ifvqba0","pricing_plan_id":"cebpf4jnsgd1na2vs0mg"},{"bike_id":"538ac6d5-9c50-45ab-abe9-f2d2f52b5236","system_id":"levelo_inurba_marseille","lat":43.31324,"lon":5.39696,"is_reserved":false,"is_disabled":false,"rental_uris":{"android":"levelo://app?vid=538ac6d5-9c50-45ab-abe9-f2d2f52b5236","ios":"levelo://app?vid=538ac6d5-9c50-45ab-abe9-f2d2f52b5236"},"vehicle_type_id":"4","last_reported":1731607990,"current_range_meters":32400,"station_id":"ce4bgvp2rcd13ifvqcu0","pricing_plan_id":"cebpf4jnsgd1na2vs0mg"},{"bike_id":"5993bac6-5c24-49b7-a326-e88b8c1f8cc7","system_id":"levelo_inurba_marseille","lat":43.3136,"lon":5.38494,"is_reserved":false,"is_disabled":false,"rental_uris":{"android":"levelo://app?vid=5993bac6-5c24-49b7-a326-e88b8c1f8cc7","ios":"levelo://app?vid=5993bac6-5c24-49b7-a326-e88b8c1f8cc7"},"vehicle_type_id":"4","last_reported":1731607990,"current_range_meters":38400,"station_id":"ce4bgt92rcd13ifvqcf0","pricing_plan_id":"cebpf4jnsgd1na2vs0mg"},{"bike_id":"9549ef18-298b-4943-a601-710776606d31","system_id":"levelo_inurba_marseille","lat":43.29261,"lon":5.3844,"is_reserved":false,"is_disabled":false,"rental_uris":{"android":"levelo://app?vid=9549ef18-298b-4943-a601-710776606d31","ios":"levelo://app?vid=9549ef18-298b-4943-a601-710776606d31"},"vehicle_type_id":"4","last_reported":1731607990,"current_range_meters":8400,"station_id":"ce4bh692rcd13ifvqea0","pricing_plan_id":"cebpf4jnsgd1na2vs0mg"},{"bike_id":"cee15d30-a03d-40ce-8537-7a94fd21fd2a","system_id":"levelo_inurba_marseille","lat":43.2694,"lon":5.40249,"is_reserved":false,"is_disabled":false,"rental_uris":{"android":"levelo://app?vid=cee15d30-a03d-40ce-8537-7a94fd21fd2a","ios":"levelo://app?vid=cee15d30-a03d-40ce-8537-7a94fd21fd2a"},"vehicle_type_id":"4","last_reported":1731607990,"current_range_meters":8000,"station_id":"cjm6bp8fraef2m0cb0m0","pricing_plan_id":"cebpf4jnsgd1na2vs0mg"},{"bike_id":"6fca15b5-6541-42ee-9401-f793ce2f44a5","system_id":"levelo_inurba_marseille","lat":43.33024,"lon":5.39046,"is_reserved":false,"is_disabled":false,"rental_uris":{"android":"levelo://app?vid=6fca15b5-6541-42ee-9401-f793ce2f44a5","ios":"levelo://app?vid=6fca15b5-6541-42ee-9401-f793ce2f44a5"},"vehicle_type_id":"4","last_reported":1731607990,"current_range_meters":36000,"station_id":"ce4bhr92rcd13ifvqhrg","pricing_plan_id":"cebpf4jnsgd1na2vs0mg"},{"bike_id":"6d6fd758-bec3-406e-85d3-7175f1799852","system_id":"levelo_inurba_marseille","lat":43.29804,"lon":5.38089,"is_reserved":false,"is_disabled":false,"rental_uris":{"android":"levelo://app?vid=6d6fd758-bec3-406e-85d3-7175f1799852","ios":"levelo://app?vid=6d6fd758-bec3-406e-85d3-7175f1799852"},"vehicle_type_id":"4","last_reported":1731607990,"current_range_meters":22800,"station_id":"ce4bgip2rcd13ifvqbb0","pricing_plan_id":"cebpf4jnsgd1na2vs0mg"},{"bike_id":"17e88161-072b-4ce5-a0d7-52dcb387d9dc","system_id":"levelo_inurba_marseille","lat":43.26806,"lon":5.40273,"is_reserved":false,"is_disabled":false,"rental_uris":{"android":"levelo://app?vid=17e88161-072b-4ce5-a0d7-52dcb387d9dc","ios":"levelo://app?vid=17e88161-072b-4ce5-a0d7-52dcb387d9dc"},"vehicle_type_id":"4","last_reported":1731607990,"current_range_meters":18000,"station_id":"ce501612rcd8frsf0b60","pricing_plan_id":"cebpf4jnsgd1na2vs0mg"},{"bike_id":"1131f3e0-e6c7-4fdc-bfdc-3f0e12577410","system_id":"levelo_inurba_marseille","lat":43.27681,"lon":5.38871,"is_reserved":false,"is_disabled":false,"rental_uris":{"android":"levelo://app?vid=1131f3e0-e6c7-4fdc-bfdc-3f0e12577410","ios":"levelo://app?vid=1131f3e0-e6c7-4fdc-bfdc-3f0e12577410"},"vehicle_type_id":"4","last_reported":1731607990,"current_range_meters":4000,"station_id":"ce4bhi12rcd13ifvqfo0","pricing_plan_id":"cebpf4jnsgd1na2vs0mg"},{"bike_id":"9ef76943-592f-4d3b-a0f1-da70d440e9b4","system_id":"levelo_inurba_marseille","lat":43.29898,"lon":5.43668,"is_reserved":false,"is_disabled":false,"rental_uris":{"android":"levelo://app?vid=9ef76943-592f-4d3b-a0f1-da70d440e9b4","ios":"levelo://app?vid=9ef76943-592f-4d3b-a0f1-da70d440e9b4"},"vehicle_type_id":"4","last_reported":1731607990,"current_range_meters":27200,"station_id":"ce4bhpp2rcd13ifvqhfg","pricing_plan_id":"cebpf4jnsgd1na2vs0mg"},{"bike_id":"1e7dd471-6cb4-4f1f-b67a-5c5cd9386e8d","system_id":"levelo_inurba_marseille","lat":43.25728,"lon":5.41109,"is_reserved":false,"is_disabled":false,"rental_uris":{"android":"levelo://app?vid=1e7dd471-6cb4-4f1f-b67a-5c5cd9386e8d","ios":"levelo://app?vid=1e7dd471-6cb4-4f1f-b67a-5c5cd9386e8d"},"vehicle_type_id":"4","last_reported":1731607990,"current_range_meters":5600,"station_id":"ce4bhkp2rcd13ifvqgd0","pricing_plan_id":"cebpf4jnsgd1na2vs0mg"},{"bike_id":"73546d7f-67a6-4998-8ffa-7ce120b73c56","system_id":"levelo_inurba_marseille","lat":43.29271,"lon":5.36845,"is_reserved":false,"is_disabled":false,"rental_uris":{"android":"levelo://app?vid=73546d7f-67a6-4998-8ffa-7ce120b73c56","ios":"levelo://app?vid=73546d7f-67a6-4998-8ffa-7ce120b73c56"},"vehicle_type_id":"4","last_reported":1731607990,"current_range_meters":22000,"station_id":"ce4bhbp2rcd13ifvqesg","pricing_plan_id":"cebpf4jnsgd1na2vs0mg"},{"bike_id":"af436c05-e539-4a37-b60a-7110a35e066f","system_id":"levelo_inurba_marseille","lat":43.28702,"lon":5.39982,"is_reserved":false,"is_disabled":false,"rental_uris":{"android":"levelo://app?vid=af436c05-e539-4a37-b60a-7110a35e066f","ios":"levelo://app?vid=af436c05-e539-4a37-b60a-7110a35e066f"},"vehicle_type_id":"4","last_reported":1731607990,"current_range_meters":4400,"station_id":"ce4bho92rcd13ifvqh3g","pricing_plan_id":"cebpf4jnsgd1na2vs0mg"},{"bike_id":"354f040a-9ab6-488a-9d26-4c39ec3baaa7","system_id":"levelo_inurba_marseille","lat":43.23201,"lon":5.35547,"is_reserved":false,"is_disabled":false,"rental_uris":{"android":"levelo://app?vid=354f040a-9ab6-488a-9d26-4c39ec3baaa7","ios":"levelo://app?vid=354f040a-9ab6-488a-9d26-4c39ec3baaa7"},"vehicle_type_id":"4","last_reported":1731607990,"current_range_meters":39200,"station_id":"ce4bhu92rcd13ifvqi70","pricing_plan_id":"cebpf4jnsgd1na2vs0mg"},{"bike_id":"4252d149-d4e4-428d-b07e-f53c26253b41","system_id":"levelo_inurba_marseille","lat":43.28983,"lon":5.37832,"is_reserved":false,"is_disabled":false,"rental_uris":{"android":"levelo://app?vid=4252d149-d4e4-428d-b07e-f53c26253b41","ios":"levelo://app?vid=4252d149-d4e4-428d-b07e-f53c26253b41"},"vehicle_type_id":"4","last_reported":1731607990,"current_range_meters":16000,"station_id":"ce4bh9p2rcd13ifvqed0","pricing_plan_id":"cebpf4jnsgd1na2vs0mg"},{"bike_id":"01376f7d-e46e-4651-9b58-98c4e0a82853","system_id":"levelo_inurba_marseille","lat":43.295751,"lon":5.399791,"is_reserved":false,"is_disabled":false,"rental_uris":{"android":"levelo://app?vid=01376f7d-e46e-4651-9b58-98c4e0a82853","ios":"levelo://app?vid=01376f7d-e46e-4651-9b58-98c4e0a82853"},"vehicle_type_id":"4","last_reported":1731607990,"current_range_meters":22000,"station_id":"","pricing_plan_id":"cebpf4jnsgd1na2vs0mg"},{"bike_id":"bbea2c35-ac2e-4275-8fc1-24a10892bc02","system_id":"levelo_inurba_marseille","lat":43.28092,"lon":5.39666,"is_reserved":false,"is_disabled":false,"rental_uris":{"android":"levelo://app?vid=bbea2c35-ac2e-4275-8fc1-24a10892bc02","ios":"levelo://app?vid=bbea2c35-ac2e-4275-8fc1-24a10892bc02"},"vehicle_type_id":"4","last_reported":1731607990,"current_range_meters":37600,"station_id":"ce4bho12rcd13ifvqh2g","pricing_plan_id":"cebpf4jnsgd1na2vs0mg"},{"bike_id":"75cd3c5d-40d3-4416-a266-d534055ae7f1","system_id":"levelo_inurba_marseille","lat":43.29533,"lon":5.38538,"is_reserved":false,"is_disabled":false,"rental_uris":{"android":"levelo://app?vid=75cd3c5d-40d3-4416-a266-d534055ae7f1","ios":"levelo://app?vid=75cd3c5d-40d3-4416-a266-d534055ae7f1"},"vehicle_type_id":"4","last_reported":1731607990,"current_range_meters":27200,"station_id":"ce4bgih2rcd13ifvqba0","pricing_plan_id":"cebpf4jnsgd1na2vs0mg"},{"bike_id":"b592f12a-a978-48db-9035-9f557a0740a3","system_id":"levelo_inurba_marseille","lat":43.28452,"lon":5.35892,"is_reserved":false,"is_disabled":false,"rental_uris":{"android":"levelo://app?vid=b592f12a-a978-48db-9035-9f557a0740a3","ios":"levelo://app?vid=b592f12a-a978-48db-9035-9f557a0740a3"},"vehicle_type_id":"4","last_reported":1731607990,"current_range_meters":8000,"station_id":"ce4bhah2rcd13ifvqei0","pricing_plan_id":"cebpf4jnsgd1na2vs0mg"},{"bike_id":"4a74f469-1d99-48ee-a8ca-9199898c00a4","system_id":"levelo_inurba_marseille","lat":43.23199,"lon":5.35547,"is_reserved":false,"is_disabled":false,"rental_uris":{"android":"levelo://app?vid=4a74f469-1d99-48ee-a8ca-9199898c00a4","ios":"levelo://app?vid=4a74f469-1d99-48ee-a8ca-9199898c00a4"},"vehicle_type_id":"4","last_reported":1731607990,"current_range_meters":19600,"station_id":"ce4bhu92rcd13ifvqi70","pricing_plan_id":"cebpf4jnsgd1na2vs0mg"},{"bike_id":"f25de2e0-ddd0-40be-9f0c-84c164293594","system_id":"levelo_inurba_marseille","lat":43.30137,"lon":5.38772,"is_reserved":false,"is_disabled":false,"rental_uris":{"android":"levelo://app?vid=f25de2e0-ddd0-40be-9f0c-84c164293594","ios":"levelo://app?vid=f25de2e0-ddd0-40be-9f0c-84c164293594"},"vehicle_type_id":"4","last_reported":1731607990,"current_range_meters":37600,"station_id":"ce4bghh2rcd13ifvqb60","pricing_plan_id":"cebpf4jnsgd1na2vs0mg"},{"bike_id":"5a9487f5-1f4a-4526-91df-278697abb58b","system_id":"levelo_inurba_marseille","lat":43.28153,"lon":5.42641,"is_reserved":false,"is_disabled":false,"rental_uris":{"android":"levelo://app?vid=5a9487f5-1f4a-4526-91df-278697abb58b","ios":"levelo://app?vid=5a9487f5-1f4a-4526-91df-278697abb58b"},"vehicle_type_id":"4","last_reported":1731607990,"current_range_meters":24000,"station_id":"ce4bhnh2rcd13ifvqgug","pricing_plan_id":"cebpf4jnsgd1na2vs0mg"},{"bike_id":"a3f06ab1-693e-4d00-86c3-c9284d04931f","system_id":"levelo_inurba_marseille","lat":43.283504,"lon":5.380964,"is_reserved":false,"is_disabled":false,"rental_uris":{"android":"levelo://app?vid=a3f06ab1-693e-4d00-86c3-c9284d04931f","ios":"levelo://app?vid=a3f06ab1-693e-4d00-86c3-c9284d04931f"},"vehicle_type_id":"4","last_reported":1731607990,"current_range_meters":3600,"station_id":"ce4bhbh2rcd13ifvqepg","pricing_plan_id":"cebpf4jnsgd1na2vs0mg"},{"bike_id":"90949ec7-ae12-40b6-9db6-72b2445ca89d","system_id":"levelo_inurba_marseille","lat":43.29033,"lon":5.3757,"is_reserved":false,"is_disabled":false,"rental_uris":{"android":"levelo://app?vid=90949ec7-ae12-40b6-9db6-72b2445ca89d","ios":"levelo://app?vid=90949ec7-ae12-40b6-9db6-72b2445ca89d"},"vehicle_type_id":"4","last_reported":1731607990,"current_range_meters":38800,"station_id":"ce4bh692rcd13ifvqe90","pricing_plan_id":"cebpf4jnsgd1na2vs0mg"},{"bike_id":"47c967a5-3c8a-4d73-a522-90111361a0a0","system_id":"levelo_inurba_marseille","lat":43.32486,"lon":5.3657,"is_reserved":false,"is_disabled":false,"rental_uris":{"android":"levelo://app?vid=47c967a5-3c8a-4d73-a522-90111361a0a0","ios":"levelo://app?vid=47c967a5-3c8a-4d73-a522-90111361a0a0"},"vehicle_type_id":"4","last_reported":1731607990,"current_range_meters":39200,"station_id":"ce4bhs12rcd13ifvqhvg","pricing_plan_id":"cebpf4jnsgd1na2vs0mg"},{"bike_id":"b401526e-9797-412b-a024-2aeff2654ce6","system_id":"levelo_inurba_marseille","lat":43.27943,"lon":5.35507,"is_reserved":false,"is_disabled":false,"rental_uris":{"android":"levelo://app?vid=b401526e-9797-412b-a024-2aeff2654ce6","ios":"levelo://app?vid=b401526e-9797-412b-a024-2aeff2654ce6"},"vehicle_type_id":"4","last_reported":1731607990,"current_range_meters":3600,"station_id":"","pricing_plan_id":"cebpf4jnsgd1na2vs0mg"},{"bike_id":"b18b4040-c51e-4924-bbf5-969a655f9243","system_id":"levelo_inurba_marseille","lat":43.30418,"lon":5.41281,"is_reserved":false,"is_disabled":false,"rental_uris":{"android":"levelo://app?vid=b18b4040-c51e-4924-bbf5-969a655f9243","ios":"levelo://app?vid=b18b4040-c51e-4924-bbf5-969a655f9243"},"vehicle_type_id":"4","last_reported":1731607990,"current_range_meters":20800,"station_id":"ce4bhop2rcd13ifvqh8g","pricing_plan_id":"cebpf4jnsgd1na2vs0mg"},{"bike_id":"5800bd69-d5fb-42b9-8d7c-e812094208a8","system_id":"levelo_inurba_marseille","lat":43.26798,"lon":5.39426,"is_reserved":false,"is_disabled":false,"rental_uris":{"android":"levelo://app?vid=5800bd69-d5fb-42b9-8d7c-e812094208a8","ios":"levelo://app?vid=5800bd69-d5fb-42b9-8d7c-e812094208a8"},"vehicle_type_id":"4","last_reported":1731607990,"current_range_meters":6400,"station_id":"ce4bhh12rcd13ifvqfg0","pricing_plan_id":"cebpf4jnsgd1na2vs0mg"},{"bike_id":"81117fe0-1e47-4966-a7e0-0145c8ef9c98","system_id":"levelo_inurba_marseille","lat":43.25858,"lon":5.39912,"is_reserved":false,"is_disabled":false,"rental_uris":{"android":"levelo://app?vid=81117fe0-1e47-4966-a7e0-0145c8ef9c98","ios":"levelo://app?vid=81117fe0-1e47-4966-a7e0-0145c8ef9c98"},"vehicle_type_id":"4","last_reported":1731607990,"current_range_meters":6800,"station_id":"ce4bhl92rcd13ifvqghg","pricing_plan_id":"cebpf4jnsgd1na2vs0mg"},{"bike_id":"7725c0e5-1eaf-4ef6-82b0-3d602909deec","system_id":"levelo_inurba_marseille","lat":43.29539,"lon":5.38542,"is_reserved":false,"is_disabled":false,"rental_uris":{"android":"levelo://app?vid=7725c0e5-1eaf-4ef6-82b0-3d602909deec","ios":"levelo://app?vid=7725c0e5-1eaf-4ef6-82b0-3d602909deec"},"vehicle_type_id":"4","last_reported":1731607990,"current_range_meters":24400,"station_id":"ce4bgih2rcd13ifvqba0","pricing_plan_id":"cebpf4jnsgd1na2vs0mg"},{"bike_id":"1cd6853f-ffdd-4358-bc58-45b6b9d8d7be","system_id":"levelo_inurba_marseille","lat":43.2885,"lon":5.35839,"is_reserved":false,"is_disabled":false,"rental_uris":{"android":"levelo://app?vid=1cd6853f-ffdd-4358-bc58-45b6b9d8d7be","ios":"levelo://app?vid=1cd6853f-ffdd-4358-bc58-45b6b9d8d7be"},"vehicle_type_id":"4","last_reported":1731607990,"current_range_meters":38400,"station_id":"ce4bhb12rcd13ifvqem0","pricing_plan_id":"cebpf4jnsgd1na2vs0mg"},{"bike_id":"785a4434-c998-4c07-9e49-6240ac8eab46","system_id":"levelo_inurba_marseille","lat":43.3303,"lon":5.39045,"is_reserved":false,"is_disabled":false,"rental_uris":{"android":"levelo://app?vid=785a4434-c998-4c07-9e49-6240ac8eab46","ios":"levelo://app?vid=785a4434-c998-4c07-9e49-6240ac8eab46"},"vehicle_type_id":"4","last_reported":1731607990,"current_range_meters":39200,"station_id":"ce4bhr92rcd13ifvqhrg","pricing_plan_id":"cebpf4jnsgd1na2vs0mg"},{"bike_id":"bb340110-01a4-47df-bf45-aec56b5d8564","system_id":"levelo_inurba_marseille","lat":43.28934,"lon":5.36394,"is_reserved":false,"is_disabled":false,"rental_uris":{"android":"levelo://app?vid=bb340110-01a4-47df-bf45-aec56b5d8564","ios":"levelo://app?vid=bb340110-01a4-47df-bf45-aec56b5d8564"},"vehicle_type_id":"4","last_reported":1731607990,"current_range_meters":27600,"station_id":"ce4bhc92rcd13ifvqetg","pricing_plan_id":"cebpf4jnsgd1na2vs0mg"},{"bike_id":"9d97c975-33c5-4724-80ae-b1876cbaac7f","system_id":"levelo_inurba_marseille","lat":43.27944,"lon":5.41048,"is_reserved":false,"is_disabled":false,"rental_uris":{"android":"levelo://app?vid=9d97c975-33c5-4724-80ae-b1876cbaac7f","ios":"levelo://app?vid=9d97c975-33c5-4724-80ae-b1876cbaac7f"},"vehicle_type_id":"4","last_reported":1731607990,"current_range_meters":2800,"station_id":"ce4bhnp2rcd13ifvqh0g","pricing_plan_id":"cebpf4jnsgd1na2vs0mg"},{"bike_id":"e9eacfda-a66c-41ab-910b-7079ea5b2f4f","system_id":"levelo_inurba_marseille","lat":43.28159,"lon":5.42641,"is_reserved":false,"is_disabled":false,"rental_uris":{"android":"levelo://app?vid=e9eacfda-a66c-41ab-910b-7079ea5b2f4f","ios":"levelo://app?vid=e9eacfda-a66c-41ab-910b-7079ea5b2f4f"},"vehicle_type_id":"4","last_reported":1731607990,"current_range_meters":4000,"station_id":"ce4bhnh2rcd13ifvqgug","pricing_plan_id":"cebpf4jnsgd1na2vs0mg"},{"bike_id":"254d4aa2-6c91-4550-9eb1-3aecb40c2461","system_id":"levelo_inurba_marseille","lat":43.28853,"lon":5.3587,"is_reserved":false,"is_disabled":false,"rental_uris":{"android":"levelo://app?vid=254d4aa2-6c91-4550-9eb1-3aecb40c2461","ios":"levelo://app?vid=254d4aa2-6c91-4550-9eb1-3aecb40c2461"},"vehicle_type_id":"4","last_reported":1731607990,"current_range_meters":17200,"station_id":"ce4bhb12rcd13ifvqem0","pricing_plan_id":"cebpf4jnsgd1na2vs0mg"},{"bike_id":"167e501f-4cdd-48cd-8ef5-684c0a5dd309","system_id":"levelo_inurba_marseille","lat":43.28454,"lon":5.35892,"is_reserved":false,"is_disabled":false,"rental_uris":{"android":"levelo://app?vid=167e501f-4cdd-48cd-8ef5-684c0a5dd309","ios":"levelo://app?vid=167e501f-4cdd-48cd-8ef5-684c0a5dd309"},"vehicle_type_id":"4","last_reported":1731607990,"current_range_meters":11200,"station_id":"ce4bhah2rcd13ifvqei0","pricing_plan_id":"cebpf4jnsgd1na2vs0mg"},{"bike_id":"ead28b71-c21b-4dbe-9b46-3fee92d8ee2c","system_id":"levelo_inurba_marseille","lat":43.28159,"lon":5.42654,"is_reserved":false,"is_disabled":false,"rental_uris":{"android":"levelo://app?vid=ead28b71-c21b-4dbe-9b46-3fee92d8ee2c","ios":"levelo://app?vid=ead28b71-c21b-4dbe-9b46-3fee92d8ee2c"},"vehicle_type_id":"4","last_reported":1731607990,"current_range_meters":2000,"station_id":"ce4bhnh2rcd13ifvqgug","pricing_plan_id":"cebpf4jnsgd1na2vs0mg"},{"bike_id":"675fe710-f9e5-46cf-95f1-88cbcbaf9606","system_id":"levelo_inurba_marseille","lat":43.28158,"lon":5.4265,"is_reserved":false,"is_disabled":false,"rental_uris":{"android":"levelo://app?vid=675fe710-f9e5-46cf-95f1-88cbcbaf9606","ios":"levelo://app?vid=675fe710-f9e5-46cf-95f1-88cbcbaf9606"},"vehicle_type_id":"4","last_reported":1731607990,"current_range_meters":28800,"station_id":"ce4bhnh2rcd13ifvqgug","pricing_plan_id":"cebpf4jnsgd1na2vs0mg"},{"bike_id":"088d69f7-5693-4fe2-8a2e-40f6fde52d50","system_id":"levelo_inurba_marseille","lat":43.27918,"lon":5.38005,"is_reserved":false,"is_disabled":false,"rental_uris":{"android":"levelo://app?vid=088d69f7-5693-4fe2-8a2e-40f6fde52d50","ios":"levelo://app?vid=088d69f7-5693-4fe2-8a2e-40f6fde52d50"},"vehicle_type_id":"4","last_reported":1731607990,"current_range_meters":10000,"station_id":"ce4bhf92rcd13ifvqf50","pricing_plan_id":"cebpf4jnsgd1na2vs0mg"},{"bike_id":"bb65540a-63bf-482e-ae28-4c05953402e5","system_id":"levelo_inurba_marseille","lat":43.23184,"lon":5.39986,"is_reserved":false,"is_disabled":false,"rental_uris":{"android":"levelo://app?vid=bb65540a-63bf-482e-ae28-4c05953402e5","ios":"levelo://app?vid=bb65540a-63bf-482e-ae28-4c05953402e5"},"vehicle_type_id":"4","last_reported":1731607990,"current_range_meters":8000,"station_id":"ce4bhn12rcd13ifvqgqg","pricing_plan_id":"cebpf4jnsgd1na2vs0mg"},{"bike_id":"4a737da6-fb54-4811-927c-a72ac382d494","system_id":"levelo_inurba_marseille","lat":43.29262,"lon":5.38438,"is_reserved":false,"is_disabled":false,"rental_uris":{"android":"levelo://app?vid=4a737da6-fb54-4811-927c-a72ac382d494","ios":"levelo://app?vid=4a737da6-fb54-4811-927c-a72ac382d494"},"vehicle_type_id":"4","last_reported":1731607990,"current_range_meters":33600,"station_id":"ce4bh692rcd13ifvqea0","pricing_plan_id":"cebpf4jnsgd1na2vs0mg"},{"bike_id":"19403e5b-9388-47f8-803d-8d1235a538c6","system_id":"levelo_inurba_marseille","lat":43.23193,"lon":5.35559,"is_reserved":false,"is_disabled":false,"rental_uris":{"android":"levelo://app?vid=19403e5b-9388-47f8-803d-8d1235a538c6","ios":"levelo://app?vid=19403e5b-9388-47f8-803d-8d1235a538c6"},"vehicle_type_id":"4","last_reported":1731607990,"current_range_meters":38800,"station_id":"ce4bhu92rcd13ifvqi70","pricing_plan_id":"cebpf4jnsgd1na2vs0mg"},{"bike_id":"bc5c3147-9c8a-4f83-93b0-3c6e89c527a3","system_id":"levelo_inurba_marseille","lat":43.27935,"lon":5.41046,"is_reserved":false,"is_disabled":false,"rental_uris":{"android":"levelo://app?vid=bc5c3147-9c8a-4f83-93b0-3c6e89c527a3","ios":"levelo://app?vid=bc5c3147-9c8a-4f83-93b0-3c6e89c527a3"},"vehicle_type_id":"4","last_reported":1731607990,"current_range_meters":28000,"station_id":"ce4bhnp2rcd13ifvqh0g","pricing_plan_id":"cebpf4jnsgd1na2vs0mg"},{"bike_id":"95c15c5b-9de6-4cf1-a95f-49ebb4420a4e","system_id":"levelo_inurba_marseille","lat":43.25586,"lon":5.38233,"is_reserved":false,"is_disabled":false,"rental_uris":{"android":"levelo://app?vid=95c15c5b-9de6-4cf1-a95f-49ebb4420a4e","ios":"levelo://app?vid=95c15c5b-9de6-4cf1-a95f-49ebb4420a4e"},"vehicle_type_id":"4","last_reported":1731607990,"current_range_meters":8000,"station_id":"ce4bhih2rcd13ifvqfs0","pricing_plan_id":"cebpf4jnsgd1na2vs0mg"},{"bike_id":"48c4657f-64ea-4e71-bf2d-6d559e436fcf","system_id":"levelo_inurba_marseille","lat":43.25728,"lon":5.41106,"is_reserved":false,"is_disabled":false,"rental_uris":{"android":"levelo://app?vid=48c4657f-64ea-4e71-bf2d-6d559e436fcf","ios":"levelo://app?vid=48c4657f-64ea-4e71-bf2d-6d559e436fcf"},"vehicle_type_id":"4","last_reported":1731607990,"current_range_meters":3600,"station_id":"ce4bhkp2rcd13ifvqgd0","pricing_plan_id":"cebpf4jnsgd1na2vs0mg"},{"bike_id":"2c17f9a3-1f05-429b-9d98-c7068c0d6ca7","system_id":"levelo_inurba_marseille","lat":43.27946,"lon":5.41049,"is_reserved":false,"is_disabled":false,"rental_uris":{"android":"levelo://app?vid=2c17f9a3-1f05-429b-9d98-c7068c0d6ca7","ios":"levelo://app?vid=2c17f9a3-1f05-429b-9d98-c7068c0d6ca7"},"vehicle_type_id":"4","last_reported":1731607990,"current_range_meters":11200,"station_id":"ce4bhnp2rcd13ifvqh0g","pricing_plan_id":"cebpf4jnsgd1na2vs0mg"},{"bike_id":"d99bff46-e3e0-4c25-9719-3fa3dd9a1a6e","system_id":"levelo_inurba_marseille","lat":43.31855,"lon":5.37397,"is_reserved":false,"is_disabled":false,"rental_uris":{"android":"levelo://app?vid=d99bff46-e3e0-4c25-9719-3fa3dd9a1a6e","ios":"levelo://app?vid=d99bff46-e3e0-4c25-9719-3fa3dd9a1a6e"},"vehicle_type_id":"4","last_reported":1731607990,"current_range_meters":22800,"station_id":"","pricing_plan_id":"cebpf4jnsgd1na2vs0mg"},{"bike_id":"c11c589c-3534-4047-9c79-36c076d04e1f","system_id":"levelo_inurba_marseille","lat":43.29612,"lon":5.38105,"is_reserved":false,"is_disabled":false,"rental_uris":{"android":"levelo://app?vid=c11c589c-3534-4047-9c79-36c076d04e1f","ios":"levelo://app?vid=c11c589c-3534-4047-9c79-36c076d04e1f"},"vehicle_type_id":"4","last_reported":1731607990,"current_range_meters":28400,"station_id":"ce4bgl12rcd13ifvqbo0","pricing_plan_id":"cebpf4jnsgd1na2vs0mg"},{"bike_id":"1d74bc52-c8fd-442b-946b-e61aa82e32f3","system_id":"levelo_inurba_marseille","lat":43.28413,"lon":5.37525,"is_reserved":false,"is_disabled":false,"rental_uris":{"android":"levelo://app?vid=1d74bc52-c8fd-442b-946b-e61aa82e32f3","ios":"levelo://app?vid=1d74bc52-c8fd-442b-946b-e61aa82e32f3"},"vehicle_type_id":"4","last_reported":1731607990,"current_range_meters":38800,"station_id":"ce4bh412rcd13ifvqds0","pricing_plan_id":"cebpf4jnsgd1na2vs0mg"},{"bike_id":"b39dfde9-d221-457a-a635-21fd1ce06aab","system_id":"levelo_inurba_marseille","lat":43.29259,"lon":5.38446,"is_reserved":false,"is_disabled":false,"rental_uris":{"android":"levelo://app?vid=b39dfde9-d221-457a-a635-21fd1ce06aab","ios":"levelo://app?vid=b39dfde9-d221-457a-a635-21fd1ce06aab"},"vehicle_type_id":"4","last_reported":1731607990,"current_range_meters":5600,"station_id":"ce4bh692rcd13ifvqea0","pricing_plan_id":"cebpf4jnsgd1na2vs0mg"},{"bike_id":"4f3e4f15-eeb6-4d68-beb4-2ada588fa485","system_id":"levelo_inurba_marseille","lat":43.28153,"lon":5.42645,"is_reserved":false,"is_disabled":false,"rental_uris":{"android":"levelo://app?vid=4f3e4f15-eeb6-4d68-beb4-2ada588fa485","ios":"levelo://app?vid=4f3e4f15-eeb6-4d68-beb4-2ada588fa485"},"vehicle_type_id":"4","last_reported":1731607990,"current_range_meters":27600,"station_id":"ce4bhnh2rcd13ifvqgug","pricing_plan_id":"cebpf4jnsgd1na2vs0mg"},{"bike_id":"fdb9bf02-4408-4f3f-aad8-b04941bb83b6","system_id":"levelo_inurba_marseille","lat":43.28162,"lon":5.42637,"is_reserved":false,"is_disabled":false,"rental_uris":{"android":"levelo://app?vid=fdb9bf02-4408-4f3f-aad8-b04941bb83b6","ios":"levelo://app?vid=fdb9bf02-4408-4f3f-aad8-b04941bb83b6"},"vehicle_type_id":"4","last_reported":1731607990,"current_range_meters":22000,"station_id":"ce4bhnh2rcd13ifvqgug","pricing_plan_id":"cebpf4jnsgd1na2vs0mg"},{"bike_id":"4161ba23-06e5-41ef-8b80-a4e4676f8faf","system_id":"levelo_inurba_marseille","lat":43.2958,"lon":5.36739,"is_reserved":false,"is_disabled":false,"rental_uris":{"android":"levelo://app?vid=4161ba23-06e5-41ef-8b80-a4e4676f8faf","ios":"levelo://app?vid=4161ba23-06e5-41ef-8b80-a4e4676f8faf"},"vehicle_type_id":"4","last_reported":1731607990,"current_range_meters":10800,"station_id":"ce4bgph2rcd13ifvqc2g","pricing_plan_id":"cebpf4jnsgd1na2vs0mg"},{"bike_id":"24df0c52-e9b4-498f-84c9-8b3de1614262","system_id":"levelo_inurba_marseille","lat":43.28405,"lon":5.37525,"is_reserved":false,"is_disabled":false,"rental_uris":{"android":"levelo://app?vid=24df0c52-e9b4-498f-84c9-8b3de1614262","ios":"levelo://app?vid=24df0c52-e9b4-498f-84c9-8b3de1614262"},"vehicle_type_id":"4","last_reported":1731607990,"current_range_meters":38800,"station_id":"ce4bh412rcd13ifvqds0","pricing_plan_id":"cebpf4jnsgd1na2vs0mg"},{"bike_id":"3f1eab25-bbd0-4519-b2ce-b4566d191542","system_id":"levelo_inurba_marseille","lat":43.25094,"lon":5.39521,"is_reserved":false,"is_disabled":false,"rental_uris":{"android":"levelo://app?vid=3f1eab25-bbd0-4519-b2ce-b4566d191542","ios":"levelo://app?vid=3f1eab25-bbd0-4519-b2ce-b4566d191542"},"vehicle_type_id":"4","last_reported":1731607990,"current_range_meters":38800,"station_id":"ce4bhm12rcd13ifvqgkg","pricing_plan_id":"cebpf4jnsgd1na2vs0mg"},{"bike_id":"32e039da-7a84-4da3-b2f2-14c595b81987","system_id":"levelo_inurba_marseille","lat":43.2846,"lon":5.35887,"is_reserved":false,"is_disabled":false,"rental_uris":{"android":"levelo://app?vid=32e039da-7a84-4da3-b2f2-14c595b81987","ios":"levelo://app?vid=32e039da-7a84-4da3-b2f2-14c595b81987"},"vehicle_type_id":"4","last_reported":1731607990,"current_range_meters":8400,"station_id":"ce4bhah2rcd13ifvqei0","pricing_plan_id":"cebpf4jnsgd1na2vs0mg"},{"bike_id":"d434a8d9-0859-4c34-b367-6ced6e3e2aa1","system_id":"levelo_inurba_marseille","lat":43.29802,"lon":5.40404,"is_reserved":false,"is_disabled":false,"rental_uris":{"android":"levelo://app?vid=d434a8d9-0859-4c34-b367-6ced6e3e2aa1","ios":"levelo://app?vid=d434a8d9-0859-4c34-b367-6ced6e3e2aa1"},"vehicle_type_id":"4","last_reported":1731607990,"current_range_meters":37600,"station_id":"ce4bh112rcd13ifvqd90","pricing_plan_id":"cebpf4jnsgd1na2vs0mg"},{"bike_id":"42292b6e-b540-4786-bb66-19f48d4fac29","system_id":"levelo_inurba_marseille","lat":43.29293,"lon":5.37454,"is_reserved":false,"is_disabled":false,"rental_uris":{"android":"levelo://app?vid=42292b6e-b540-4786-bb66-19f48d4fac29","ios":"levelo://app?vid=42292b6e-b540-4786-bb66-19f48d4fac29"},"vehicle_type_id":"4","last_reported":1731607990,"current_range_meters":38000,"station_id":"ce4bgi12rcd13ifvqb70","pricing_plan_id":"cebpf4jnsgd1na2vs0mg"},{"bike_id":"60556046-909a-4412-85b0-373693d1a31c","system_id":"levelo_inurba_marseille","lat":43.29437,"lon":5.39748,"is_reserved":false,"is_disabled":false,"rental_uris":{"android":"levelo://app?vid=60556046-909a-4412-85b0-373693d1a31c","ios":"levelo://app?vid=60556046-909a-4412-85b0-373693d1a31c"},"vehicle_type_id":"4","last_reported":1731607990,"current_range_meters":28000,"station_id":"ce4bh3h2rcd13ifvqdo0","pricing_plan_id":"cebpf4jnsgd1na2vs0mg"},{"bike_id":"ce58128e-b4b8-43b7-87bc-be254b9a90e7","system_id":"levelo_inurba_marseille","lat":43.317015,"lon":5.377505,"is_reserved":false,"is_disabled":false,"rental_uris":{"android":"levelo://app?vid=ce58128e-b4b8-43b7-87bc-be254b9a90e7","ios":"levelo://app?vid=ce58128e-b4b8-43b7-87bc-be254b9a90e7"},"vehicle_type_id":"4","last_reported":1731607990,"current_range_meters":15200,"station_id":"ce4bgth2rcd13ifvqch0","pricing_plan_id":"cebpf4jnsgd1na2vs0mg"},{"bike_id":"dcb0c9d0-3c52-4364-87e7-a5ce6ed44790","system_id":"levelo_inurba_marseille","lat":43.30147,"lon":5.39867,"is_reserved":false,"is_disabled":false,"rental_uris":{"android":"levelo://app?vid=dcb0c9d0-3c52-4364-87e7-a5ce6ed44790","ios":"levelo://app?vid=dcb0c9d0-3c52-4364-87e7-a5ce6ed44790"},"vehicle_type_id":"4","last_reported":1731607990,"current_range_meters":4400,"station_id":"ce4bh0h2rcd13ifvqd40","pricing_plan_id":"cebpf4jnsgd1na2vs0mg"},{"bike_id":"eaf554c3-904b-48bf-bb41-7f3872963e27","system_id":"levelo_inurba_marseille","lat":43.29786,"lon":5.37091,"is_reserved":false,"is_disabled":false,"rental_uris":{"android":"levelo://app?vid=eaf554c3-904b-48bf-bb41-7f3872963e27","ios":"levelo://app?vid=eaf554c3-904b-48bf-bb41-7f3872963e27"},"vehicle_type_id":"4","last_reported":1731607990,"current_range_meters":7200,"station_id":"ce4bgop2rcd13ifvqc1g","pricing_plan_id":"cebpf4jnsgd1na2vs0mg"},{"bike_id":"398b47b3-a042-4cec-b1dd-254773a78263","system_id":"levelo_inurba_marseille","lat":43.27408,"lon":5.38958,"is_reserved":false,"is_disabled":false,"rental_uris":{"android":"levelo://app?vid=398b47b3-a042-4cec-b1dd-254773a78263","ios":"levelo://app?vid=398b47b3-a042-4cec-b1dd-254773a78263"},"vehicle_type_id":"4","last_reported":1731607990,"current_range_meters":3200,"station_id":"","pricing_plan_id":"cebpf4jnsgd1na2vs0mg"},{"bike_id":"8917990b-e521-4dd2-be3a-39fb95bd43be","system_id":"levelo_inurba_marseille","lat":43.30417,"lon":5.41289,"is_reserved":false,"is_disabled":false,"rental_uris":{"android":"levelo://app?vid=8917990b-e521-4dd2-be3a-39fb95bd43be","ios":"levelo://app?vid=8917990b-e521-4dd2-be3a-39fb95bd43be"},"vehicle_type_id":"4","last_reported":1731607990,"current_range_meters":26800,"station_id":"ce4bhop2rcd13ifvqh8g","pricing_plan_id":"cebpf4jnsgd1na2vs0mg"},{"bike_id":"42202cfc-f0c1-4301-a67c-34a766c30fa6","system_id":"levelo_inurba_marseille","lat":43.27813,"lon":5.40712,"is_reserved":false,"is_disabled":false,"rental_uris":{"android":"levelo://app?vid=42202cfc-f0c1-4301-a67c-34a766c30fa6","ios":"levelo://app?vid=42202cfc-f0c1-4301-a67c-34a766c30fa6"},"vehicle_type_id":"4","last_reported":1731607990,"current_range_meters":11600,"station_id":"ce4bhnh2rcd13ifvqgtg","pricing_plan_id":"cebpf4jnsgd1na2vs0mg"},{"bike_id":"92e3ad17-17c9-4714-a148-ef9436ad6113","system_id":"levelo_inurba_marseille","lat":43.22935,"lon":5.3538,"is_reserved":false,"is_disabled":false,"rental_uris":{"android":"levelo://app?vid=92e3ad17-17c9-4714-a148-ef9436ad6113","ios":"levelo://app?vid=92e3ad17-17c9-4714-a148-ef9436ad6113"},"vehicle_type_id":"4","last_reported":1731607990,"current_range_meters":39200,"station_id":"cpo3532slgdg3j2ikp40","pricing_plan_id":"cebpf4jnsgd1na2vs0mg"},{"bike_id":"3959eab5-15c5-4ed6-a889-9acfe67f1614","system_id":"levelo_inurba_marseille","lat":43.31328,"lon":5.39699,"is_reserved":false,"is_disabled":false,"rental_uris":{"android":"levelo://app?vid=3959eab5-15c5-4ed6-a889-9acfe67f1614","ios":"levelo://app?vid=3959eab5-15c5-4ed6-a889-9acfe67f1614"},"vehicle_type_id":"4","last_reported":1731607990,"current_range_meters":36800,"station_id":"ce4bgvp2rcd13ifvqcu0","pricing_plan_id":"cebpf4jnsgd1na2vs0mg"},{"bike_id":"5326c5f8-bba7-40e6-bfc7-8e986a3bddf3","system_id":"levelo_inurba_marseille","lat":43.3228,"lon":5.38285,"is_reserved":false,"is_disabled":false,"rental_uris":{"android":"levelo://app?vid=5326c5f8-bba7-40e6-bfc7-8e986a3bddf3","ios":"levelo://app?vid=5326c5f8-bba7-40e6-bfc7-8e986a3bddf3"},"vehicle_type_id":"4","last_reported":1731607990,"current_range_meters":22800,"station_id":"ce4bhr12rcd13ifvqhqg","pricing_plan_id":"cebpf4jnsgd1na2vs0mg"},{"bike_id":"82f309e6-c4ae-421f-89cb-1d64a8e0ef10","system_id":"levelo_inurba_marseille","lat":43.337444,"lon":5.374475,"is_reserved":false,"is_disabled":false,"rental_uris":{"android":"levelo://app?vid=82f309e6-c4ae-421f-89cb-1d64a8e0ef10","ios":"levelo://app?vid=82f309e6-c4ae-421f-89cb-1d64a8e0ef10"},"vehicle_type_id":"4","last_reported":1731607990,"current_range_meters":32000,"station_id":"","pricing_plan_id":"cebpf4jnsgd1na2vs0mg"},{"bike_id":"1b8dfb99-b488-44b9-ae90-e6b88c527f84","system_id":"levelo_inurba_marseille","lat":43.26782,"lon":5.39421,"is_reserved":false,"is_disabled":false,"rental_uris":{"android":"levelo://app?vid=1b8dfb99-b488-44b9-ae90-e6b88c527f84","ios":"levelo://app?vid=1b8dfb99-b488-44b9-ae90-e6b88c527f84"},"vehicle_type_id":"4","last_reported":1731607990,"current_range_meters":38800,"station_id":"ce4bhh12rcd13ifvqfg0","pricing_plan_id":"cebpf4jnsgd1na2vs0mg"},{"bike_id":"808ebce4-1098-4bb7-a501-82650de2df0a","system_id":"levelo_inurba_marseille","lat":43.2942,"lon":5.38627,"is_reserved":false,"is_disabled":false,"rental_uris":{"android":"levelo://app?vid=808ebce4-1098-4bb7-a501-82650de2df0a","ios":"levelo://app?vid=808ebce4-1098-4bb7-a501-82650de2df0a"},"vehicle_type_id":"4","last_reported":1731607990,"current_range_meters":6400,"station_id":"ce4bh2h2rcd13ifvqdh0","pricing_plan_id":"cebpf4jnsgd1na2vs0mg"},{"bike_id":"3b448024-3572-4f0d-b3a7-bf84b0870996","system_id":"levelo_inurba_marseille","lat":43.29973,"lon":5.37177,"is_reserved":false,"is_disabled":false,"rental_uris":{"android":"levelo://app?vid=3b448024-3572-4f0d-b3a7-bf84b0870996","ios":"levelo://app?vid=3b448024-3572-4f0d-b3a7-bf84b0870996"},"vehicle_type_id":"4","last_reported":1731607990,"current_range_meters":3600,"station_id":"ce4bgr92rcd13ifvqc7g","pricing_plan_id":"cebpf4jnsgd1na2vs0mg"},{"bike_id":"e6b3f328-9fcb-4625-a542-2e0f2815f284","system_id":"levelo_inurba_marseille","lat":43.31177,"lon":5.38733,"is_reserved":false,"is_disabled":false,"rental_uris":{"android":"levelo://app?vid=e6b3f328-9fcb-4625-a542-2e0f2815f284","ios":"levelo://app?vid=e6b3f328-9fcb-4625-a542-2e0f2815f284"},"vehicle_type_id":"4","last_reported":1731607990,"current_range_meters":39200,"station_id":"ce4bgv12rcd13ifvqcp0","pricing_plan_id":"cebpf4jnsgd1na2vs0mg"},{"bike_id":"c476e7e2-cf56-4ab4-92e5-e16831afb62d","system_id":"levelo_inurba_marseille","lat":43.28856,"lon":5.35846,"is_reserved":false,"is_disabled":false,"rental_uris":{"android":"levelo://app?vid=c476e7e2-cf56-4ab4-92e5-e16831afb62d","ios":"levelo://app?vid=c476e7e2-cf56-4ab4-92e5-e16831afb62d"},"vehicle_type_id":"4","last_reported":1731607990,"current_range_meters":5600,"station_id":"ce4bhb12rcd13ifvqem0","pricing_plan_id":"cebpf4jnsgd1na2vs0mg"},{"bike_id":"7b30f1d5-5971-45e6-a128-ce8d8c077cf6","system_id":"levelo_inurba_marseille","lat":43.29165,"lon":5.37163,"is_reserved":false,"is_disabled":false,"rental_uris":{"android":"levelo://app?vid=7b30f1d5-5971-45e6-a128-ce8d8c077cf6","ios":"levelo://app?vid=7b30f1d5-5971-45e6-a128-ce8d8c077cf6"},"vehicle_type_id":"4","last_reported":1731607990,"current_range_meters":8000,"station_id":"ce4bha92rcd13ifvqeh0","pricing_plan_id":"cebpf4jnsgd1na2vs0mg"},{"bike_id":"e9831758-7fbb-4bb8-92fd-5b32e1ae3ab6","system_id":"levelo_inurba_marseille","lat":43.33026,"lon":5.39051,"is_reserved":false,"is_disabled":false,"rental_uris":{"android":"levelo://app?vid=e9831758-7fbb-4bb8-92fd-5b32e1ae3ab6","ios":"levelo://app?vid=e9831758-7fbb-4bb8-92fd-5b32e1ae3ab6"},"vehicle_type_id":"4","last_reported":1731607990,"current_range_meters":30000,"station_id":"ce4bhr92rcd13ifvqhrg","pricing_plan_id":"cebpf4jnsgd1na2vs0mg"},{"bike_id":"f9b5c1be-99a9-4f5c-868c-54240ac44c27","system_id":"levelo_inurba_marseille","lat":43.28405,"lon":5.37509,"is_reserved":false,"is_disabled":false,"rental_uris":{"android":"levelo://app?vid=f9b5c1be-99a9-4f5c-868c-54240ac44c27","ios":"levelo://app?vid=f9b5c1be-99a9-4f5c-868c-54240ac44c27"},"vehicle_type_id":"4","last_reported":1731607990,"current_range_meters":4800,"station_id":"ce4bh412rcd13ifvqds0","pricing_plan_id":"cebpf4jnsgd1na2vs0mg"},{"bike_id":"d1badb2f-ae8e-4081-9eb6-03a47653d796","system_id":"levelo_inurba_marseille","lat":43.29277,"lon":5.38445,"is_reserved":false,"is_disabled":false,"rental_uris":{"android":"levelo://app?vid=d1badb2f-ae8e-4081-9eb6-03a47653d796","ios":"levelo://app?vid=d1badb2f-ae8e-4081-9eb6-03a47653d796"},"vehicle_type_id":"4","last_reported":1731607990,"current_range_meters":38800,"station_id":"ce4bh692rcd13ifvqea0","pricing_plan_id":"cebpf4jnsgd1na2vs0mg"},{"bike_id":"add6469e-6694-4a2e-bfcd-ec1f32bc46a7","system_id":"levelo_inurba_marseille","lat":43.24653,"lon":5.38895,"is_reserved":false,"is_disabled":false,"rental_uris":{"android":"levelo://app?vid=add6469e-6694-4a2e-bfcd-ec1f32bc46a7","ios":"levelo://app?vid=add6469e-6694-4a2e-bfcd-ec1f32bc46a7"},"vehicle_type_id":"4","last_reported":1731607990,"current_range_meters":38800,"station_id":"ce4bhg12rcd13ifvqf60","pricing_plan_id":"cebpf4jnsgd1na2vs0mg"},{"bike_id":"ec64ea83-251b-4180-9233-04fd967db184","system_id":"levelo_inurba_marseille","lat":43.29635,"lon":5.40597,"is_reserved":false,"is_disabled":false,"rental_uris":{"android":"levelo://app?vid=ec64ea83-251b-4180-9233-04fd967db184","ios":"levelo://app?vid=ec64ea83-251b-4180-9233-04fd967db184"},"vehicle_type_id":"4","last_reported":1731607990,"current_range_meters":24400,"station_id":"ce4bh0h2rcd13ifvqd60","pricing_plan_id":"cebpf4jnsgd1na2vs0mg"},{"bike_id":"8aca531c-c8e0-431e-b291-4c00c5d0eaf0","system_id":"levelo_inurba_marseille","lat":43.2961,"lon":5.38102,"is_reserved":false,"is_disabled":false,"rental_uris":{"android":"levelo://app?vid=8aca531c-c8e0-431e-b291-4c00c5d0eaf0","ios":"levelo://app?vid=8aca531c-c8e0-431e-b291-4c00c5d0eaf0"},"vehicle_type_id":"4","last_reported":1731607990,"current_range_meters":6400,"station_id":"ce4bgl12rcd13ifvqbo0","pricing_plan_id":"cebpf4jnsgd1na2vs0mg"},{"bike_id":"4ea98527-2cfd-4734-8f17-3bc2ee85f2d8","system_id":"levelo_inurba_marseille","lat":43.26807,"lon":5.40277,"is_reserved":false,"is_disabled":false,"rental_uris":{"android":"levelo://app?vid=4ea98527-2cfd-4734-8f17-3bc2ee85f2d8","ios":"levelo://app?vid=4ea98527-2cfd-4734-8f17-3bc2ee85f2d8"},"vehicle_type_id":"4","last_reported":1731607990,"current_range_meters":9200,"station_id":"ce501612rcd8frsf0b60","pricing_plan_id":"cebpf4jnsgd1na2vs0mg"},{"bike_id":"aa370759-db1e-43ba-9370-8c825d6907e2","system_id":"levelo_inurba_marseille","lat":43.28444,"lon":5.39189,"is_reserved":false,"is_disabled":false,"rental_uris":{"android":"levelo://app?vid=aa370759-db1e-43ba-9370-8c825d6907e2","ios":"levelo://app?vid=aa370759-db1e-43ba-9370-8c825d6907e2"},"vehicle_type_id":"4","last_reported":1731607990,"current_range_meters":30000,"station_id":"ce4bhoh2rcd13ifvqh5g","pricing_plan_id":"cebpf4jnsgd1na2vs0mg"},{"bike_id":"434aee81-eeca-442d-acc6-89283cd4f301","system_id":"levelo_inurba_marseille","lat":43.280273,"lon":5.399514,"is_reserved":false,"is_disabled":false,"rental_uris":{"android":"levelo://app?vid=434aee81-eeca-442d-acc6-89283cd4f301","ios":"levelo://app?vid=434aee81-eeca-442d-acc6-89283cd4f301"},"vehicle_type_id":"4","last_reported":1731607990,"current_range_meters":2800,"station_id":"ce4bh3p2rcd13ifvqdp0","pricing_plan_id":"cebpf4jnsgd1na2vs0mg"},{"bike_id":"806e0ae5-f319-434a-b5d4-3076d3209372","system_id":"levelo_inurba_marseille","lat":43.29417,"lon":5.38616,"is_reserved":false,"is_disabled":false,"rental_uris":{"android":"levelo://app?vid=806e0ae5-f319-434a-b5d4-3076d3209372","ios":"levelo://app?vid=806e0ae5-f319-434a-b5d4-3076d3209372"},"vehicle_type_id":"4","last_reported":1731607990,"current_range_meters":24000,"station_id":"ce4bh2h2rcd13ifvqdh0","pricing_plan_id":"cebpf4jnsgd1na2vs0mg"},{"bike_id":"5d373d56-d47f-40f7-ba5c-4397f827f090","system_id":"levelo_inurba_marseille","lat":43.311911,"lon":5.387511,"is_reserved":false,"is_disabled":false,"rental_uris":{"android":"levelo://app?vid=5d373d56-d47f-40f7-ba5c-4397f827f090","ios":"levelo://app?vid=5d373d56-d47f-40f7-ba5c-4397f827f090"},"vehicle_type_id":"4","last_reported":1731607990,"current_range_meters":38800,"station_id":"ce4bgv12rcd13ifvqcp0","pricing_plan_id":"cebpf4jnsgd1na2vs0mg"},{"bike_id":"51704817-2877-45ea-ad31-d3fdee0f0146","system_id":"levelo_inurba_marseille","lat":43.27944,"lon":5.41053,"is_reserved":false,"is_disabled":false,"rental_uris":{"android":"levelo://app?vid=51704817-2877-45ea-ad31-d3fdee0f0146","ios":"levelo://app?vid=51704817-2877-45ea-ad31-d3fdee0f0146"},"vehicle_type_id":"4","last_reported":1731607990,"current_range_meters":19200,"station_id":"ce4bhnp2rcd13ifvqh0g","pricing_plan_id":"cebpf4jnsgd1na2vs0mg"},{"bike_id":"83feb63e-d37e-4889-809e-5399f25ee1f8","system_id":"levelo_inurba_marseille","lat":43.28428,"lon":5.37518,"is_reserved":false,"is_disabled":false,"rental_uris":{"android":"levelo://app?vid=83feb63e-d37e-4889-809e-5399f25ee1f8","ios":"levelo://app?vid=83feb63e-d37e-4889-809e-5399f25ee1f8"},"vehicle_type_id":"4","last_reported":1731607990,"current_range_meters":14000,"station_id":"","pricing_plan_id":"cebpf4jnsgd1na2vs0mg"},{"bike_id":"a1df99f0-d509-4bc0-bf21-bfa3ffaea986","system_id":"levelo_inurba_marseille","lat":43.29419,"lon":5.38629,"is_reserved":false,"is_disabled":false,"rental_uris":{"android":"levelo://app?vid=a1df99f0-d509-4bc0-bf21-bfa3ffaea986","ios":"levelo://app?vid=a1df99f0-d509-4bc0-bf21-bfa3ffaea986"},"vehicle_type_id":"4","last_reported":1731607990,"current_range_meters":27200,"station_id":"ce4bh2h2rcd13ifvqdh0","pricing_plan_id":"cebpf4jnsgd1na2vs0mg"},{"bike_id":"6a9396b5-68aa-4c1b-a0f9-ceccbbd8bc4b","system_id":"levelo_inurba_marseille","lat":43.29438,"lon":5.39752,"is_reserved":false,"is_disabled":false,"rental_uris":{"android":"levelo://app?vid=6a9396b5-68aa-4c1b-a0f9-ceccbbd8bc4b","ios":"levelo://app?vid=6a9396b5-68aa-4c1b-a0f9-ceccbbd8bc4b"},"vehicle_type_id":"4","last_reported":1731607990,"current_range_meters":2800,"station_id":"ce4bh3h2rcd13ifvqdo0","pricing_plan_id":"cebpf4jnsgd1na2vs0mg"},{"bike_id":"36388bb0-ca91-4a5a-b65c-df33d72d6c98","system_id":"levelo_inurba_marseille","lat":43.28936,"lon":5.3664,"is_reserved":false,"is_disabled":false,"rental_uris":{"android":"levelo://app?vid=36388bb0-ca91-4a5a-b65c-df33d72d6c98","ios":"levelo://app?vid=36388bb0-ca91-4a5a-b65c-df33d72d6c98"},"vehicle_type_id":"4","last_reported":1731607990,"current_range_meters":27200,"station_id":"ce4bhap2rcd13ifvqek0","pricing_plan_id":"cebpf4jnsgd1na2vs0mg"},{"bike_id":"1d36ec1c-d89d-4bb1-8e0d-ff1c762508b7","system_id":"levelo_inurba_marseille","lat":43.22938,"lon":5.35383,"is_reserved":false,"is_disabled":false,"rental_uris":{"android":"levelo://app?vid=1d36ec1c-d89d-4bb1-8e0d-ff1c762508b7","ios":"levelo://app?vid=1d36ec1c-d89d-4bb1-8e0d-ff1c762508b7"},"vehicle_type_id":"4","last_reported":1731607990,"current_range_meters":14400,"station_id":"cpo3532slgdg3j2ikp40","pricing_plan_id":"cebpf4jnsgd1na2vs0mg"},{"bike_id":"96982182-a7c7-450e-8433-0ac9d985aed2","system_id":"levelo_inurba_marseille","lat":43.33725,"lon":5.39184,"is_reserved":false,"is_disabled":false,"rental_uris":{"android":"levelo://app?vid=96982182-a7c7-450e-8433-0ac9d985aed2","ios":"levelo://app?vid=96982182-a7c7-450e-8433-0ac9d985aed2"},"vehicle_type_id":"4","last_reported":1731607990,"current_range_meters":39200,"station_id":"ce4bhr92rcd13ifvqhsg","pricing_plan_id":"cebpf4jnsgd1na2vs0mg"},{"bike_id":"37212eb8-cfa6-47ba-9ed7-bfed51287466","system_id":"levelo_inurba_marseille","lat":43.31433,"lon":5.37364,"is_reserved":false,"is_disabled":false,"rental_uris":{"android":"levelo://app?vid=37212eb8-cfa6-47ba-9ed7-bfed51287466","ios":"levelo://app?vid=37212eb8-cfa6-47ba-9ed7-bfed51287466"},"vehicle_type_id":"4","last_reported":1731607990,"current_range_meters":37600,"station_id":"","pricing_plan_id":"cebpf4jnsgd1na2vs0mg"},{"bike_id":"0a7a7ac5-f54c-44af-a6b9-bff324764339","system_id":"levelo_inurba_marseille","lat":43.23056,"lon":5.35494,"is_reserved":false,"is_disabled":false,"rental_uris":{"android":"levelo://app?vid=0a7a7ac5-f54c-44af-a6b9-bff324764339","ios":"levelo://app?vid=0a7a7ac5-f54c-44af-a6b9-bff324764339"},"vehicle_type_id":"4","last_reported":1731607990,"current_range_meters":19200,"station_id":"cpo3342slgdg3j2ifvpg","pricing_plan_id":"cebpf4jnsgd1na2vs0mg"},{"bike_id":"3b1d231b-3987-41d9-9108-5ee12adbc183","system_id":"levelo_inurba_marseille","lat":43.29534,"lon":5.38548,"is_reserved":false,"is_disabled":false,"rental_uris":{"android":"levelo://app?vid=3b1d231b-3987-41d9-9108-5ee12adbc183","ios":"levelo://app?vid=3b1d231b-3987-41d9-9108-5ee12adbc183"},"vehicle_type_id":"4","last_reported":1731607990,"current_range_meters":38800,"station_id":"ce4bgih2rcd13ifvqba0","pricing_plan_id":"cebpf4jnsgd1na2vs0mg"},{"bike_id":"bef7ca68-0ccd-456c-a245-4471193ed987","system_id":"levelo_inurba_marseille","lat":43.2606,"lon":5.39408,"is_reserved":false,"is_disabled":false,"rental_uris":{"android":"levelo://app?vid=bef7ca68-0ccd-456c-a245-4471193ed987","ios":"levelo://app?vid=bef7ca68-0ccd-456c-a245-4471193ed987"},"vehicle_type_id":"4","last_reported":1731607990,"current_range_meters":38400,"station_id":"ce4bhh92rcd13ifvqfj0","pricing_plan_id":"cebpf4jnsgd1na2vs0mg"},{"bike_id":"a576c790-23f5-42b8-a777-6cec35803793","system_id":"levelo_inurba_marseille","lat":43.29162,"lon":5.37157,"is_reserved":false,"is_disabled":false,"rental_uris":{"android":"levelo://app?vid=a576c790-23f5-42b8-a777-6cec35803793","ios":"levelo://app?vid=a576c790-23f5-42b8-a777-6cec35803793"},"vehicle_type_id":"4","last_reported":1731607990,"current_range_meters":8800,"station_id":"ce4bha92rcd13ifvqeh0","pricing_plan_id":"cebpf4jnsgd1na2vs0mg"},{"bike_id":"6b006423-e743-41a4-9256-7e91f80c0f20","system_id":"levelo_inurba_marseille","lat":43.292303,"lon":5.361025,"is_reserved":false,"is_disabled":false,"rental_uris":{"android":"levelo://app?vid=6b006423-e743-41a4-9256-7e91f80c0f20","ios":"levelo://app?vid=6b006423-e743-41a4-9256-7e91f80c0f20"},"vehicle_type_id":"4","last_reported":1731607990,"current_range_meters":37600,"station_id":"ce4bhbh2rcd13ifvqeqg","pricing_plan_id":"cebpf4jnsgd1na2vs0mg"},{"bike_id":"d48c1b59-61a9-4790-b49b-a921de05115b","system_id":"levelo_inurba_marseille","lat":43.28857,"lon":5.35857,"is_reserved":false,"is_disabled":false,"rental_uris":{"android":"levelo://app?vid=d48c1b59-61a9-4790-b49b-a921de05115b","ios":"levelo://app?vid=d48c1b59-61a9-4790-b49b-a921de05115b"},"vehicle_type_id":"4","last_reported":1731607990,"current_range_meters":8400,"station_id":"ce4bhb12rcd13ifvqem0","pricing_plan_id":"cebpf4jnsgd1na2vs0mg"},{"bike_id":"8da9bc03-1d7a-4ded-8725-d31384fb0343","system_id":"levelo_inurba_marseille","lat":43.295197,"lon":5.388369,"is_reserved":false,"is_disabled":false,"rental_uris":{"android":"levelo://app?vid=8da9bc03-1d7a-4ded-8725-d31384fb0343","ios":"levelo://app?vid=8da9bc03-1d7a-4ded-8725-d31384fb0343"},"vehicle_type_id":"4","last_reported":1731607990,"current_range_meters":12400,"station_id":"ce4bh512rcd13ifvqe2g","pricing_plan_id":"cebpf4jnsgd1na2vs0mg"},{"bike_id":"5a2acb69-f891-49c4-bac0-58743bd3450c","system_id":"levelo_inurba_marseille","lat":43.33726,"lon":5.39191,"is_reserved":false,"is_disabled":false,"rental_uris":{"android":"levelo://app?vid=5a2acb69-f891-49c4-bac0-58743bd3450c","ios":"levelo://app?vid=5a2acb69-f891-49c4-bac0-58743bd3450c"},"vehicle_type_id":"4","last_reported":1731607990,"current_range_meters":8800,"station_id":"ce4bhr92rcd13ifvqhsg","pricing_plan_id":"cebpf4jnsgd1na2vs0mg"},{"bike_id":"aaec841f-2a7c-4d64-8722-c25c02ca7092","system_id":"levelo_inurba_marseille","lat":43.23784,"lon":5.43055,"is_reserved":false,"is_disabled":false,"rental_uris":{"android":"levelo://app?vid=aaec841f-2a7c-4d64-8722-c25c02ca7092","ios":"levelo://app?vid=aaec841f-2a7c-4d64-8722-c25c02ca7092"},"vehicle_type_id":"4","last_reported":1731607990,"current_range_meters":36800,"station_id":"","pricing_plan_id":"cebpf4jnsgd1na2vs0mg"},{"bike_id":"6d757fef-4f26-43f9-ac2c-ffab39bf7dae","system_id":"levelo_inurba_marseille","lat":43.32249,"lon":5.36901,"is_reserved":false,"is_disabled":false,"rental_uris":{"android":"levelo://app?vid=6d757fef-4f26-43f9-ac2c-ffab39bf7dae","ios":"levelo://app?vid=6d757fef-4f26-43f9-ac2c-ffab39bf7dae"},"vehicle_type_id":"4","last_reported":1731607990,"current_range_meters":27600,"station_id":"","pricing_plan_id":"cebpf4jnsgd1na2vs0mg"},{"bike_id":"5472ae20-beb3-4230-a71f-39ee5e6f6d72","system_id":"levelo_inurba_marseille","lat":43.29529,"lon":5.3854,"is_reserved":false,"is_disabled":false,"rental_uris":{"android":"levelo://app?vid=5472ae20-beb3-4230-a71f-39ee5e6f6d72","ios":"levelo://app?vid=5472ae20-beb3-4230-a71f-39ee5e6f6d72"},"vehicle_type_id":"4","last_reported":1731607990,"current_range_meters":33600,"station_id":"ce4bgih2rcd13ifvqba0","pricing_plan_id":"cebpf4jnsgd1na2vs0mg"},{"bike_id":"8c07a7e9-e558-4809-b4b8-faa040c34081","system_id":"levelo_inurba_marseille","lat":43.33032,"lon":5.39034,"is_reserved":false,"is_disabled":false,"rental_uris":{"android":"levelo://app?vid=8c07a7e9-e558-4809-b4b8-faa040c34081","ios":"levelo://app?vid=8c07a7e9-e558-4809-b4b8-faa040c34081"},"vehicle_type_id":"4","last_reported":1731607990,"current_range_meters":6800,"station_id":"ce4bhr92rcd13ifvqhrg","pricing_plan_id":"cebpf4jnsgd1na2vs0mg"},{"bike_id":"2cf7830c-54e2-45bc-84e4-a8fc10c0ec9d","system_id":"levelo_inurba_marseille","lat":43.29719,"lon":5.36609,"is_reserved":false,"is_disabled":false,"rental_uris":{"android":"levelo://app?vid=2cf7830c-54e2-45bc-84e4-a8fc10c0ec9d","ios":"levelo://app?vid=2cf7830c-54e2-45bc-84e4-a8fc10c0ec9d"},"vehicle_type_id":"4","last_reported":1731607990,"current_range_meters":25200,"station_id":"ce4bgn12rcd13ifvqbt0","pricing_plan_id":"cebpf4jnsgd1na2vs0mg"},{"bike_id":"abd0f8e3-a0f6-4a30-a6ca-6d6ac04d5be7","system_id":"levelo_inurba_marseille","lat":43.301453,"lon":5.374355,"is_reserved":false,"is_disabled":false,"rental_uris":{"android":"levelo://app?vid=abd0f8e3-a0f6-4a30-a6ca-6d6ac04d5be7","ios":"levelo://app?vid=abd0f8e3-a0f6-4a30-a6ca-6d6ac04d5be7"},"vehicle_type_id":"4","last_reported":1731607990,"current_range_meters":24000,"station_id":"ce4bgs92rcd13ifvqcc0","pricing_plan_id":"cebpf4jnsgd1na2vs0mg"},{"bike_id":"631bcad6-f903-4994-a419-a8fa14bd3452","system_id":"levelo_inurba_marseille","lat":43.28943,"lon":5.36631,"is_reserved":false,"is_disabled":false,"rental_uris":{"android":"levelo://app?vid=631bcad6-f903-4994-a419-a8fa14bd3452","ios":"levelo://app?vid=631bcad6-f903-4994-a419-a8fa14bd3452"},"vehicle_type_id":"4","last_reported":1731607990,"current_range_meters":8400,"station_id":"ce4bhap2rcd13ifvqek0","pricing_plan_id":"cebpf4jnsgd1na2vs0mg"},{"bike_id":"070aae14-a984-4613-8ade-edb7cfd29691","system_id":"levelo_inurba_marseille","lat":43.30419,"lon":5.41291,"is_reserved":false,"is_disabled":false,"rental_uris":{"android":"levelo://app?vid=070aae14-a984-4613-8ade-edb7cfd29691","ios":"levelo://app?vid=070aae14-a984-4613-8ade-edb7cfd29691"},"vehicle_type_id":"4","last_reported":1731607990,"current_range_meters":38800,"station_id":"ce4bhop2rcd13ifvqh8g","pricing_plan_id":"cebpf4jnsgd1na2vs0mg"},{"bike_id":"fc992a78-96c0-4575-bb3d-4b9fd49c9617","system_id":"levelo_inurba_marseille","lat":43.29717,"lon":5.36616,"is_reserved":false,"is_disabled":false,"rental_uris":{"android":"levelo://app?vid=fc992a78-96c0-4575-bb3d-4b9fd49c9617","ios":"levelo://app?vid=fc992a78-96c0-4575-bb3d-4b9fd49c9617"},"vehicle_type_id":"4","last_reported":1731607990,"current_range_meters":38800,"station_id":"ce4bgn12rcd13ifvqbt0","pricing_plan_id":"cebpf4jnsgd1na2vs0mg"},{"bike_id":"f43901c7-401c-43e3-867e-79f7e43304bf","system_id":"levelo_inurba_marseille","lat":43.31334,"lon":5.39694,"is_reserved":false,"is_disabled":false,"rental_uris":{"android":"levelo://app?vid=f43901c7-401c-43e3-867e-79f7e43304bf","ios":"levelo://app?vid=f43901c7-401c-43e3-867e-79f7e43304bf"},"vehicle_type_id":"4","last_reported":1731607990,"current_range_meters":22400,"station_id":"ce4bgvp2rcd13ifvqcu0","pricing_plan_id":"cebpf4jnsgd1na2vs0mg"},{"bike_id":"ce1cf125-f644-4482-a4d9-39be38f0f83d","system_id":"levelo_inurba_marseille","lat":43.29015,"lon":5.38148,"is_reserved":false,"is_disabled":false,"rental_uris":{"android":"levelo://app?vid=ce1cf125-f644-4482-a4d9-39be38f0f83d","ios":"levelo://app?vid=ce1cf125-f644-4482-a4d9-39be38f0f83d"},"vehicle_type_id":"4","last_reported":1731607990,"current_range_meters":38400,"station_id":"ce4bh4p2rcd13ifvqe1g","pricing_plan_id":"cebpf4jnsgd1na2vs0mg"},{"bike_id":"fc70ef82-9b6f-4d6f-8f8e-1346e73f2d14","system_id":"levelo_inurba_marseille","lat":43.30129,"lon":5.3719,"is_reserved":false,"is_disabled":false,"rental_uris":{"android":"levelo://app?vid=fc70ef82-9b6f-4d6f-8f8e-1346e73f2d14","ios":"levelo://app?vid=fc70ef82-9b6f-4d6f-8f8e-1346e73f2d14"},"vehicle_type_id":"4","last_reported":1731607990,"current_range_meters":38000,"station_id":"","pricing_plan_id":"cebpf4jnsgd1na2vs0mg"},{"bike_id":"25166272-a2e4-426f-8bd1-827ffbe55e39","system_id":"levelo_inurba_marseille","lat":43.31331,"lon":5.39697,"is_reserved":false,"is_disabled":false,"rental_uris":{"android":"levelo://app?vid=25166272-a2e4-426f-8bd1-827ffbe55e39","ios":"levelo://app?vid=25166272-a2e4-426f-8bd1-827ffbe55e39"},"vehicle_type_id":"4","last_reported":1731607990,"current_range_meters":22000,"station_id":"ce4bgvp2rcd13ifvqcu0","pricing_plan_id":"cebpf4jnsgd1na2vs0mg"},{"bike_id":"2ba01715-3170-4a7e-ae00-4a8868ac1042","system_id":"levelo_inurba_marseille","lat":43.25088,"lon":5.39512,"is_reserved":false,"is_disabled":false,"rental_uris":{"android":"levelo://app?vid=2ba01715-3170-4a7e-ae00-4a8868ac1042","ios":"levelo://app?vid=2ba01715-3170-4a7e-ae00-4a8868ac1042"},"vehicle_type_id":"4","last_reported":1731607990,"current_range_meters":28000,"station_id":"ce4bhm12rcd13ifvqgkg","pricing_plan_id":"cebpf4jnsgd1na2vs0mg"},{"bike_id":"37fe5141-a423-41c0-9d9a-31a5f07cfcab","system_id":"levelo_inurba_marseille","lat":43.25579,"lon":5.38244,"is_reserved":false,"is_disabled":false,"rental_uris":{"android":"levelo://app?vid=37fe5141-a423-41c0-9d9a-31a5f07cfcab","ios":"levelo://app?vid=37fe5141-a423-41c0-9d9a-31a5f07cfcab"},"vehicle_type_id":"4","last_reported":1731607990,"current_range_meters":8400,"station_id":"ce4bhih2rcd13ifvqfs0","pricing_plan_id":"cebpf4jnsgd1na2vs0mg"},{"bike_id":"c3302fcd-9759-4187-88a1-a691b3c49637","system_id":"levelo_inurba_marseille","lat":43.32649,"lon":5.41,"is_reserved":false,"is_disabled":false,"rental_uris":{"android":"levelo://app?vid=c3302fcd-9759-4187-88a1-a691b3c49637","ios":"levelo://app?vid=c3302fcd-9759-4187-88a1-a691b3c49637"},"vehicle_type_id":"4","last_reported":1731607990,"current_range_meters":11600,"station_id":"ce4bhpp2rcd13ifvqhgg","pricing_plan_id":"cebpf4jnsgd1na2vs0mg"},{"bike_id":"a94ddfbf-d798-406a-99fa-255b9f1a8ab6","system_id":"levelo_inurba_marseille","lat":43.28457,"lon":5.35888,"is_reserved":false,"is_disabled":false,"rental_uris":{"android":"levelo://app?vid=a94ddfbf-d798-406a-99fa-255b9f1a8ab6","ios":"levelo://app?vid=a94ddfbf-d798-406a-99fa-255b9f1a8ab6"},"vehicle_type_id":"4","last_reported":1731607990,"current_range_meters":8000,"station_id":"ce4bhah2rcd13ifvqei0","pricing_plan_id":"cebpf4jnsgd1na2vs0mg"},{"bike_id":"ad4adb41-9857-427d-8450-c734cc85b634","system_id":"levelo_inurba_marseille","lat":43.31714,"lon":5.43709,"is_reserved":false,"is_disabled":false,"rental_uris":{"android":"levelo://app?vid=ad4adb41-9857-427d-8450-c734cc85b634","ios":"levelo://app?vid=ad4adb41-9857-427d-8450-c734cc85b634"},"vehicle_type_id":"4","last_reported":1731607990,"current_range_meters":22000,"station_id":"ce4bhp92rcd13ifvqhcg","pricing_plan_id":"cebpf4jnsgd1na2vs0mg"},{"bike_id":"c053094f-9551-4ffa-8316-ca818a5b3bcf","system_id":"levelo_inurba_marseille","lat":43.26487,"lon":5.39551,"is_reserved":false,"is_disabled":false,"rental_uris":{"android":"levelo://app?vid=c053094f-9551-4ffa-8316-ca818a5b3bcf","ios":"levelo://app?vid=c053094f-9551-4ffa-8316-ca818a5b3bcf"},"vehicle_type_id":"4","last_reported":1731607990,"current_range_meters":14400,"station_id":"ce4bhi12rcd13ifvqfq0","pricing_plan_id":"cebpf4jnsgd1na2vs0mg"},{"bike_id":"3176ecb9-b497-4569-8c18-d0db738a9aac","system_id":"levelo_inurba_marseille","lat":43.29045,"lon":5.37571,"is_reserved":false,"is_disabled":false,"rental_uris":{"android":"levelo://app?vid=3176ecb9-b497-4569-8c18-d0db738a9aac","ios":"levelo://app?vid=3176ecb9-b497-4569-8c18-d0db738a9aac"},"vehicle_type_id":"4","last_reported":1731607990,"current_range_meters":17600,"station_id":"ce4bh692rcd13ifvqe90","pricing_plan_id":"cebpf4jnsgd1na2vs0mg"},{"bike_id":"6b6441c8-178c-473d-a1dd-29b186a952c7","system_id":"levelo_inurba_marseille","lat":43.25833,"lon":5.3944,"is_reserved":false,"is_disabled":false,"rental_uris":{"android":"levelo://app?vid=6b6441c8-178c-473d-a1dd-29b186a952c7","ios":"levelo://app?vid=6b6441c8-178c-473d-a1dd-29b186a952c7"},"vehicle_type_id":"4","last_reported":1731607990,"current_range_meters":14400,"station_id":"ce4bhip2rcd13ifvqft0","pricing_plan_id":"cebpf4jnsgd1na2vs0mg"},{"bike_id":"584eb853-a4e7-485d-a696-1610e3f6776a","system_id":"levelo_inurba_marseille","lat":43.28979,"lon":5.3783,"is_reserved":false,"is_disabled":false,"rental_uris":{"android":"levelo://app?vid=584eb853-a4e7-485d-a696-1610e3f6776a","ios":"levelo://app?vid=584eb853-a4e7-485d-a696-1610e3f6776a"},"vehicle_type_id":"4","last_reported":1731607990,"current_range_meters":30800,"station_id":"ce4bh9p2rcd13ifvqed0","pricing_plan_id":"cebpf4jnsgd1na2vs0mg"},{"bike_id":"8e12737c-b68e-4dc9-a8c9-536f660541a7","system_id":"levelo_inurba_marseille","lat":43.28457,"lon":5.35888,"is_reserved":false,"is_disabled":false,"rental_uris":{"android":"levelo://app?vid=8e12737c-b68e-4dc9-a8c9-536f660541a7","ios":"levelo://app?vid=8e12737c-b68e-4dc9-a8c9-536f660541a7"},"vehicle_type_id":"4","last_reported":1731607990,"current_range_meters":20000,"station_id":"ce4bhah2rcd13ifvqei0","pricing_plan_id":"cebpf4jnsgd1na2vs0mg"},{"bike_id":"37f52798-cde3-4570-a5d2-b0908bfd3884","system_id":"levelo_inurba_marseille","lat":43.25089,"lon":5.39523,"is_reserved":false,"is_disabled":false,"rental_uris":{"android":"levelo://app?vid=37f52798-cde3-4570-a5d2-b0908bfd3884","ios":"levelo://app?vid=37f52798-cde3-4570-a5d2-b0908bfd3884"},"vehicle_type_id":"4","last_reported":1731607990,"current_range_meters":24400,"station_id":"ce4bhm12rcd13ifvqgkg","pricing_plan_id":"cebpf4jnsgd1na2vs0mg"},{"bike_id":"aa809f1a-690d-4147-907b-ff9c0e9a497e","system_id":"levelo_inurba_marseille","lat":43.30143,"lon":5.38079,"is_reserved":false,"is_disabled":false,"rental_uris":{"android":"levelo://app?vid=aa809f1a-690d-4147-907b-ff9c0e9a497e","ios":"levelo://app?vid=aa809f1a-690d-4147-907b-ff9c0e9a497e"},"vehicle_type_id":"4","last_reported":1731607990,"current_range_meters":4400,"station_id":"ce4bgjp2rcd13ifvqbh0","pricing_plan_id":"cebpf4jnsgd1na2vs0mg"},{"bike_id":"c74e879d-b04b-4235-ab0d-b74f7e11f2c4","system_id":"levelo_inurba_marseille","lat":43.29634,"lon":5.40594,"is_reserved":false,"is_disabled":false,"rental_uris":{"android":"levelo://app?vid=c74e879d-b04b-4235-ab0d-b74f7e11f2c4","ios":"levelo://app?vid=c74e879d-b04b-4235-ab0d-b74f7e11f2c4"},"vehicle_type_id":"4","last_reported":1731607990,"current_range_meters":26000,"station_id":"ce4bh0h2rcd13ifvqd60","pricing_plan_id":"cebpf4jnsgd1na2vs0mg"},{"bike_id":"67acd962-61fe-4c41-93b6-69cf808e27bd","system_id":"levelo_inurba_marseille","lat":43.32001,"lon":5.38164,"is_reserved":false,"is_disabled":false,"rental_uris":{"android":"levelo://app?vid=67acd962-61fe-4c41-93b6-69cf808e27bd","ios":"levelo://app?vid=67acd962-61fe-4c41-93b6-69cf808e27bd"},"vehicle_type_id":"4","last_reported":1731607990,"current_range_meters":24400,"station_id":"ce4bhr12rcd13ifvqhpg","pricing_plan_id":"cebpf4jnsgd1na2vs0mg"},{"bike_id":"a2457164-a04c-4deb-8ed0-4f0d805a5d6d","system_id":"levelo_inurba_marseille","lat":43.29535,"lon":5.38542,"is_reserved":false,"is_disabled":false,"rental_uris":{"android":"levelo://app?vid=a2457164-a04c-4deb-8ed0-4f0d805a5d6d","ios":"levelo://app?vid=a2457164-a04c-4deb-8ed0-4f0d805a5d6d"},"vehicle_type_id":"4","last_reported":1731607990,"current_range_meters":38800,"station_id":"ce4bgih2rcd13ifvqba0","pricing_plan_id":"cebpf4jnsgd1na2vs0mg"},{"bike_id":"cb9595c7-7404-4bf2-8e9b-f85d15950fd2","system_id":"levelo_inurba_marseille","lat":43.27849,"lon":5.39736,"is_reserved":false,"is_disabled":false,"rental_uris":{"android":"levelo://app?vid=cb9595c7-7404-4bf2-8e9b-f85d15950fd2","ios":"levelo://app?vid=cb9595c7-7404-4bf2-8e9b-f85d15950fd2"},"vehicle_type_id":"4","last_reported":1731607990,"current_range_meters":27600,"station_id":"ce4bhnh2rcd13ifvqgtg","pricing_plan_id":"cebpf4jnsgd1na2vs0mg"},{"bike_id":"9a7f8a60-a902-4963-ae9e-02414ba2683a","system_id":"levelo_inurba_marseille","lat":43.27947,"lon":5.41054,"is_reserved":false,"is_disabled":false,"rental_uris":{"android":"levelo://app?vid=9a7f8a60-a902-4963-ae9e-02414ba2683a","ios":"levelo://app?vid=9a7f8a60-a902-4963-ae9e-02414ba2683a"},"vehicle_type_id":"4","last_reported":1731607990,"current_range_meters":24800,"station_id":"ce4bhnp2rcd13ifvqh0g","pricing_plan_id":"cebpf4jnsgd1na2vs0mg"},{"bike_id":"1311c692-6e9d-4afb-b7b0-20686564fe7a","system_id":"levelo_inurba_marseille","lat":43.337444,"lon":5.374475,"is_reserved":false,"is_disabled":false,"rental_uris":{"android":"levelo://app?vid=1311c692-6e9d-4afb-b7b0-20686564fe7a","ios":"levelo://app?vid=1311c692-6e9d-4afb-b7b0-20686564fe7a"},"vehicle_type_id":"4","last_reported":1731607990,"current_range_meters":32000,"station_id":"","pricing_plan_id":"cebpf4jnsgd1na2vs0mg"},{"bike_id":"109ccbbe-6074-477d-a984-16b46d28a677","system_id":"levelo_inurba_marseille","lat":43.26787,"lon":5.39414,"is_reserved":false,"is_disabled":false,"rental_uris":{"android":"levelo://app?vid=109ccbbe-6074-477d-a984-16b46d28a677","ios":"levelo://app?vid=109ccbbe-6074-477d-a984-16b46d28a677"},"vehicle_type_id":"4","last_reported":1731607990,"current_range_meters":38000,"station_id":"ce4bhh12rcd13ifvqfg0","pricing_plan_id":"cebpf4jnsgd1na2vs0mg"},{"bike_id":"20b0d77e-da3b-4dd9-962c-bd717cf4acd8","system_id":"levelo_inurba_marseille","lat":43.23965,"lon":5.36626,"is_reserved":false,"is_disabled":false,"rental_uris":{"android":"levelo://app?vid=20b0d77e-da3b-4dd9-962c-bd717cf4acd8","ios":"levelo://app?vid=20b0d77e-da3b-4dd9-962c-bd717cf4acd8"},"vehicle_type_id":"4","last_reported":1731607990,"current_range_meters":36400,"station_id":"ce4bhi12rcd13ifvqfp0","pricing_plan_id":"cebpf4jnsgd1na2vs0mg"},{"bike_id":"b6585629-282e-4d73-b5eb-579666a095d7","system_id":"levelo_inurba_marseille","lat":43.269469,"lon":5.38961,"is_reserved":false,"is_disabled":false,"rental_uris":{"android":"levelo://app?vid=b6585629-282e-4d73-b5eb-579666a095d7","ios":"levelo://app?vid=b6585629-282e-4d73-b5eb-579666a095d7"},"vehicle_type_id":"4","last_reported":1731607990,"current_range_meters":11600,"station_id":"ce4bhh92rcd13ifvqfj0","pricing_plan_id":"cebpf4jnsgd1na2vs0mg"},{"bike_id":"1db7e47b-80a0-46fa-b3dc-cc5c159bde15","system_id":"levelo_inurba_marseille","lat":43.31085,"lon":5.4243,"is_reserved":false,"is_disabled":false,"rental_uris":{"android":"levelo://app?vid=1db7e47b-80a0-46fa-b3dc-cc5c159bde15","ios":"levelo://app?vid=1db7e47b-80a0-46fa-b3dc-cc5c159bde15"},"vehicle_type_id":"4","last_reported":1731607990,"current_range_meters":26000,"station_id":"ce4bhp92rcd13ifvqhag","pricing_plan_id":"cebpf4jnsgd1na2vs0mg"},{"bike_id":"a6b8c285-acc9-4039-9531-1aae39136a33","system_id":"levelo_inurba_marseille","lat":43.312042,"lon":5.367348,"is_reserved":false,"is_disabled":false,"rental_uris":{"android":"levelo://app?vid=a6b8c285-acc9-4039-9531-1aae39136a33","ios":"levelo://app?vid=a6b8c285-acc9-4039-9531-1aae39136a33"},"vehicle_type_id":"4","last_reported":1731607990,"current_range_meters":22800,"station_id":"","pricing_plan_id":"cebpf4jnsgd1na2vs0mg"},{"bike_id":"969fc660-e18c-47b7-beed-36ead3f43ca6","system_id":"levelo_inurba_marseille","lat":43.28456,"lon":5.35894,"is_reserved":false,"is_disabled":false,"rental_uris":{"android":"levelo://app?vid=969fc660-e18c-47b7-beed-36ead3f43ca6","ios":"levelo://app?vid=969fc660-e18c-47b7-beed-36ead3f43ca6"},"vehicle_type_id":"4","last_reported":1731607990,"current_range_meters":2800,"station_id":"ce4bhah2rcd13ifvqei0","pricing_plan_id":"cebpf4jnsgd1na2vs0mg"},{"bike_id":"df6646db-c670-4756-86ca-a9cb85d531a1","system_id":"levelo_inurba_marseille","lat":43.26853,"lon":5.40947,"is_reserved":false,"is_disabled":false,"rental_uris":{"android":"levelo://app?vid=df6646db-c670-4756-86ca-a9cb85d531a1","ios":"levelo://app?vid=df6646db-c670-4756-86ca-a9cb85d531a1"},"vehicle_type_id":"4","last_reported":1731607990,"current_range_meters":11600,"station_id":"ce4bhhp2rcd13ifvqfm0","pricing_plan_id":"cebpf4jnsgd1na2vs0mg"},{"bike_id":"7ec04dc1-d274-4913-b79f-86740fd7fa94","system_id":"levelo_inurba_marseille","lat":43.25089,"lon":5.39529,"is_reserved":false,"is_disabled":false,"rental_uris":{"android":"levelo://app?vid=7ec04dc1-d274-4913-b79f-86740fd7fa94","ios":"levelo://app?vid=7ec04dc1-d274-4913-b79f-86740fd7fa94"},"vehicle_type_id":"4","last_reported":1731607990,"current_range_meters":6000,"station_id":"ce4bhm12rcd13ifvqgkg","pricing_plan_id":"cebpf4jnsgd1na2vs0mg"},{"bike_id":"3c4efd2f-3952-4f43-bc5f-5c06153b1ebb","system_id":"levelo_inurba_marseille","lat":43.3034,"lon":5.40451,"is_reserved":false,"is_disabled":false,"rental_uris":{"android":"levelo://app?vid=3c4efd2f-3952-4f43-bc5f-5c06153b1ebb","ios":"levelo://app?vid=3c4efd2f-3952-4f43-bc5f-5c06153b1ebb"},"vehicle_type_id":"4","last_reported":1731607990,"current_range_meters":20400,"station_id":"ce4bh012rcd13ifvqd10","pricing_plan_id":"cebpf4jnsgd1na2vs0mg"},{"bike_id":"4d314b8f-0cfa-4dee-a533-23b6ccbfc7ce","system_id":"levelo_inurba_marseille","lat":43.29712,"lon":5.36617,"is_reserved":false,"is_disabled":false,"rental_uris":{"android":"levelo://app?vid=4d314b8f-0cfa-4dee-a533-23b6ccbfc7ce","ios":"levelo://app?vid=4d314b8f-0cfa-4dee-a533-23b6ccbfc7ce"},"vehicle_type_id":"4","last_reported":1731607990,"current_range_meters":38800,"station_id":"ce4bgr92rcd13ifvqc7g","pricing_plan_id":"cebpf4jnsgd1na2vs0mg"},{"bike_id":"0f6a76aa-551d-4e96-a311-e4a076a980a0","system_id":"levelo_inurba_marseille","lat":43.29937,"lon":5.3656,"is_reserved":false,"is_disabled":false,"rental_uris":{"android":"levelo://app?vid=0f6a76aa-551d-4e96-a311-e4a076a980a0","ios":"levelo://app?vid=0f6a76aa-551d-4e96-a311-e4a076a980a0"},"vehicle_type_id":"4","last_reported":1731607990,"current_range_meters":6800,"station_id":"ce4bgm92rcd13ifvqbr0","pricing_plan_id":"cebpf4jnsgd1na2vs0mg"},{"bike_id":"1ae8fe75-00ad-479b-a755-74d45d76bfbe","system_id":"levelo_inurba_marseille","lat":43.24171,"lon":5.36405,"is_reserved":false,"is_disabled":false,"rental_uris":{"android":"levelo://app?vid=1ae8fe75-00ad-479b-a755-74d45d76bfbe","ios":"levelo://app?vid=1ae8fe75-00ad-479b-a755-74d45d76bfbe"},"vehicle_type_id":"4","last_reported":1731607990,"current_range_meters":17200,"station_id":"cpo36qri1sfpv3e86is0","pricing_plan_id":"cebpf4jnsgd1na2vs0mg"},{"bike_id":"92ac4858-87d6-4ceb-8f6e-004635a816a8","system_id":"levelo_inurba_marseille","lat":43.27789,"lon":5.40737,"is_reserved":false,"is_disabled":false,"rental_uris":{"android":"levelo://app?vid=92ac4858-87d6-4ceb-8f6e-004635a816a8","ios":"levelo://app?vid=92ac4858-87d6-4ceb-8f6e-004635a816a8"},"vehicle_type_id":"4","last_reported":1731607990,"current_range_meters":38800,"station_id":"ce4bhnh2rcd13ifvqgtg","pricing_plan_id":"cebpf4jnsgd1na2vs0mg"},{"bike_id":"2ced9380-2bb8-42f2-9c61-94ee116cfefc","system_id":"levelo_inurba_marseille","lat":43.29533,"lon":5.38555,"is_reserved":false,"is_disabled":false,"rental_uris":{"android":"levelo://app?vid=2ced9380-2bb8-42f2-9c61-94ee116cfefc","ios":"levelo://app?vid=2ced9380-2bb8-42f2-9c61-94ee116cfefc"},"vehicle_type_id":"4","last_reported":1731607990,"current_range_meters":14800,"station_id":"ce4bgih2rcd13ifvqba0","pricing_plan_id":"cebpf4jnsgd1na2vs0mg"},{"bike_id":"44281496-ebb0-475b-9830-51a1115552ab","system_id":"levelo_inurba_marseille","lat":43.28405,"lon":5.37524,"is_reserved":false,"is_disabled":false,"rental_uris":{"android":"levelo://app?vid=44281496-ebb0-475b-9830-51a1115552ab","ios":"levelo://app?vid=44281496-ebb0-475b-9830-51a1115552ab"},"vehicle_type_id":"4","last_reported":1731607990,"current_range_meters":18800,"station_id":"ce4bh412rcd13ifvqds0","pricing_plan_id":"cebpf4jnsgd1na2vs0mg"},{"bike_id":"bff6229c-a5a1-4af9-9f56-0f5fd76fe360","system_id":"levelo_inurba_marseille","lat":43.282349,"lon":5.386161,"is_reserved":false,"is_disabled":false,"rental_uris":{"android":"levelo://app?vid=bff6229c-a5a1-4af9-9f56-0f5fd76fe360","ios":"levelo://app?vid=bff6229c-a5a1-4af9-9f56-0f5fd76fe360"},"vehicle_type_id":"4","last_reported":1731607990,"current_range_meters":36800,"station_id":"ce4bhi12rcd13ifvqfo0","pricing_plan_id":"cebpf4jnsgd1na2vs0mg"},{"bike_id":"174e9be5-a22d-4315-a1d5-f34dc6c0cd5b","system_id":"levelo_inurba_marseille","lat":43.28103,"lon":5.37834,"is_reserved":false,"is_disabled":false,"rental_uris":{"android":"levelo://app?vid=174e9be5-a22d-4315-a1d5-f34dc6c0cd5b","ios":"levelo://app?vid=174e9be5-a22d-4315-a1d5-f34dc6c0cd5b"},"vehicle_type_id":"4","last_reported":1731607990,"current_range_meters":11600,"station_id":"ce4bha12rcd13ifvqee0","pricing_plan_id":"cebpf4jnsgd1na2vs0mg"},{"bike_id":"92cc7254-e7ee-4f32-b28e-658f9c1836b6","system_id":"levelo_inurba_marseille","lat":43.2978,"lon":5.39348,"is_reserved":false,"is_disabled":false,"rental_uris":{"android":"levelo://app?vid=92cc7254-e7ee-4f32-b28e-658f9c1836b6","ios":"levelo://app?vid=92cc7254-e7ee-4f32-b28e-658f9c1836b6"},"vehicle_type_id":"4","last_reported":1731607990,"current_range_meters":23200,"station_id":"chh1huq6cuj3fo74tm60","pricing_plan_id":"cebpf4jnsgd1na2vs0mg"},{"bike_id":"4367b189-5ba9-437d-8201-bb637e954a99","system_id":"levelo_inurba_marseille","lat":43.29305,"lon":5.37172,"is_reserved":false,"is_disabled":false,"rental_uris":{"android":"levelo://app?vid=4367b189-5ba9-437d-8201-bb637e954a99","ios":"levelo://app?vid=4367b189-5ba9-437d-8201-bb637e954a99"},"vehicle_type_id":"4","last_reported":1731607990,"current_range_meters":14400,"station_id":"ce4bgh92rcd13ifvqb40","pricing_plan_id":"cebpf4jnsgd1na2vs0mg"},{"bike_id":"f3a65e21-e4d1-4a9f-a651-9561f0f9fa47","system_id":"levelo_inurba_marseille","lat":43.290003,"lon":5.356168,"is_reserved":false,"is_disabled":false,"rental_uris":{"android":"levelo://app?vid=f3a65e21-e4d1-4a9f-a651-9561f0f9fa47","ios":"levelo://app?vid=f3a65e21-e4d1-4a9f-a651-9561f0f9fa47"},"vehicle_type_id":"4","last_reported":1731607990,"current_range_meters":38800,"station_id":"ce4bhb92rcd13ifvqen0","pricing_plan_id":"cebpf4jnsgd1na2vs0mg"},{"bike_id":"0f433459-e074-4293-bfa5-3b5b113abeb1","system_id":"levelo_inurba_marseille","lat":43.33718,"lon":5.3919,"is_reserved":false,"is_disabled":false,"rental_uris":{"android":"levelo://app?vid=0f433459-e074-4293-bfa5-3b5b113abeb1","ios":"levelo://app?vid=0f433459-e074-4293-bfa5-3b5b113abeb1"},"vehicle_type_id":"4","last_reported":1731607990,"current_range_meters":39200,"station_id":"ce4bhr92rcd13ifvqhsg","pricing_plan_id":"cebpf4jnsgd1na2vs0mg"},{"bike_id":"16eab57e-1302-4f75-8821-c3e034ea98ff","system_id":"levelo_inurba_marseille","lat":43.30808,"lon":5.43529,"is_reserved":false,"is_disabled":false,"rental_uris":{"android":"levelo://app?vid=16eab57e-1302-4f75-8821-c3e034ea98ff","ios":"levelo://app?vid=16eab57e-1302-4f75-8821-c3e034ea98ff"},"vehicle_type_id":"4","last_reported":1731607990,"current_range_meters":33200,"station_id":"ce4bhph2rcd13ifvqheg","pricing_plan_id":"cebpf4jnsgd1na2vs0mg"},{"bike_id":"2886128d-fbbb-438c-87be-d5561cf18777","system_id":"levelo_inurba_marseille","lat":43.3133,"lon":5.39699,"is_reserved":false,"is_disabled":false,"rental_uris":{"android":"levelo://app?vid=2886128d-fbbb-438c-87be-d5561cf18777","ios":"levelo://app?vid=2886128d-fbbb-438c-87be-d5561cf18777"},"vehicle_type_id":"4","last_reported":1731607990,"current_range_meters":4000,"station_id":"ce4bgvp2rcd13ifvqcu0","pricing_plan_id":"cebpf4jnsgd1na2vs0mg"},{"bike_id":"67407940-618c-4e37-b4db-3db8735b0494","system_id":"levelo_inurba_marseille","lat":43.29018,"lon":5.38136,"is_reserved":false,"is_disabled":false,"rental_uris":{"android":"levelo://app?vid=67407940-618c-4e37-b4db-3db8735b0494","ios":"levelo://app?vid=67407940-618c-4e37-b4db-3db8735b0494"},"vehicle_type_id":"4","last_reported":1731607990,"current_range_meters":31200,"station_id":"ce4bh4p2rcd13ifvqe1g","pricing_plan_id":"cebpf4jnsgd1na2vs0mg"},{"bike_id":"73a7b52d-3a82-4267-b28a-8d75c226c35f","system_id":"levelo_inurba_marseille","lat":43.30145,"lon":5.39856,"is_reserved":false,"is_disabled":false,"rental_uris":{"android":"levelo://app?vid=73a7b52d-3a82-4267-b28a-8d75c226c35f","ios":"levelo://app?vid=73a7b52d-3a82-4267-b28a-8d75c226c35f"},"vehicle_type_id":"4","last_reported":1731607990,"current_range_meters":20400,"station_id":"ce4bh0h2rcd13ifvqd40","pricing_plan_id":"cebpf4jnsgd1na2vs0mg"},{"bike_id":"9874d49b-54dd-4e56-a2c9-2e731eb4eee6","system_id":"levelo_inurba_marseille","lat":43.27374,"lon":5.36259,"is_reserved":false,"is_disabled":false,"rental_uris":{"android":"levelo://app?vid=9874d49b-54dd-4e56-a2c9-2e731eb4eee6","ios":"levelo://app?vid=9874d49b-54dd-4e56-a2c9-2e731eb4eee6"},"vehicle_type_id":"4","last_reported":1731607990,"current_range_meters":38800,"station_id":"ce4bhbh2rcd13ifvqeo0","pricing_plan_id":"cebpf4jnsgd1na2vs0mg"},{"bike_id":"b448c76e-6a85-4e4e-8af8-7d9249501502","system_id":"levelo_inurba_marseille","lat":43.337444,"lon":5.374475,"is_reserved":false,"is_disabled":false,"rental_uris":{"android":"levelo://app?vid=b448c76e-6a85-4e4e-8af8-7d9249501502","ios":"levelo://app?vid=b448c76e-6a85-4e4e-8af8-7d9249501502"},"vehicle_type_id":"4","last_reported":1731607990,"current_range_meters":32000,"station_id":"","pricing_plan_id":"cebpf4jnsgd1na2vs0mg"},{"bike_id":"d672156f-f409-4096-80a0-6d6c55d560f5","system_id":"levelo_inurba_marseille","lat":43.32114,"lon":5.36788,"is_reserved":false,"is_disabled":false,"rental_uris":{"android":"levelo://app?vid=d672156f-f409-4096-80a0-6d6c55d560f5","ios":"levelo://app?vid=d672156f-f409-4096-80a0-6d6c55d560f5"},"vehicle_type_id":"4","last_reported":1731607990,"current_range_meters":38800,"station_id":"ce4bhrh2rcd13ifvqhug","pricing_plan_id":"cebpf4jnsgd1na2vs0mg"},{"bike_id":"27180a1a-1e8e-44cf-be67-76727484dd68","system_id":"levelo_inurba_marseille","lat":43.32363,"lon":5.38887,"is_reserved":false,"is_disabled":false,"rental_uris":{"android":"levelo://app?vid=27180a1a-1e8e-44cf-be67-76727484dd68","ios":"levelo://app?vid=27180a1a-1e8e-44cf-be67-76727484dd68"},"vehicle_type_id":"4","last_reported":1731607990,"current_range_meters":38800,"station_id":"ce4bhqp2rcd13ifvqhog","pricing_plan_id":"cebpf4jnsgd1na2vs0mg"},{"bike_id":"58d6f5bb-20c3-4034-ab28-8ae73d721310","system_id":"levelo_inurba_marseille","lat":43.29414,"lon":5.38622,"is_reserved":false,"is_disabled":false,"rental_uris":{"android":"levelo://app?vid=58d6f5bb-20c3-4034-ab28-8ae73d721310","ios":"levelo://app?vid=58d6f5bb-20c3-4034-ab28-8ae73d721310"},"vehicle_type_id":"4","last_reported":1731607990,"current_range_meters":38400,"station_id":"ce4bh2h2rcd13ifvqdh0","pricing_plan_id":"cebpf4jnsgd1na2vs0mg"},{"bike_id":"711c4ef8-973c-4e53-ba75-ecac46f2ce47","system_id":"levelo_inurba_marseille","lat":43.25726,"lon":5.41111,"is_reserved":false,"is_disabled":false,"rental_uris":{"android":"levelo://app?vid=711c4ef8-973c-4e53-ba75-ecac46f2ce47","ios":"levelo://app?vid=711c4ef8-973c-4e53-ba75-ecac46f2ce47"},"vehicle_type_id":"4","last_reported":1731607990,"current_range_meters":6400,"station_id":"ce4bhkp2rcd13ifvqgd0","pricing_plan_id":"cebpf4jnsgd1na2vs0mg"},{"bike_id":"94cabd10-ff82-416e-a941-cac85d1872d2","system_id":"levelo_inurba_marseille","lat":43.29413,"lon":5.38631,"is_reserved":false,"is_disabled":false,"rental_uris":{"android":"levelo://app?vid=94cabd10-ff82-416e-a941-cac85d1872d2","ios":"levelo://app?vid=94cabd10-ff82-416e-a941-cac85d1872d2"},"vehicle_type_id":"4","last_reported":1731607990,"current_range_meters":35200,"station_id":"ce4bh2h2rcd13ifvqdh0","pricing_plan_id":"cebpf4jnsgd1na2vs0mg"},{"bike_id":"6682b549-7206-4bf1-9192-57bd2e74fe9c","system_id":"levelo_inurba_marseille","lat":43.29546,"lon":5.3854,"is_reserved":false,"is_disabled":false,"rental_uris":{"android":"levelo://app?vid=6682b549-7206-4bf1-9192-57bd2e74fe9c","ios":"levelo://app?vid=6682b549-7206-4bf1-9192-57bd2e74fe9c"},"vehicle_type_id":"4","last_reported":1731607990,"current_range_meters":38800,"station_id":"ce4bgih2rcd13ifvqba0","pricing_plan_id":"cebpf4jnsgd1na2vs0mg"},{"bike_id":"71675479-65a3-432e-900f-c13f815182ff","system_id":"levelo_inurba_marseille","lat":43.29664,"lon":5.40621,"is_reserved":false,"is_disabled":false,"rental_uris":{"android":"levelo://app?vid=71675479-65a3-432e-900f-c13f815182ff","ios":"levelo://app?vid=71675479-65a3-432e-900f-c13f815182ff"},"vehicle_type_id":"4","last_reported":1731607990,"current_range_meters":16000,"station_id":"ce4bh0h2rcd13ifvqd60","pricing_plan_id":"cebpf4jnsgd1na2vs0mg"},{"bike_id":"1707cb1e-404f-449a-8ec1-810d24d3f970","system_id":"levelo_inurba_marseille","lat":43.23171,"lon":5.39987,"is_reserved":false,"is_disabled":false,"rental_uris":{"android":"levelo://app?vid=1707cb1e-404f-449a-8ec1-810d24d3f970","ios":"levelo://app?vid=1707cb1e-404f-449a-8ec1-810d24d3f970"},"vehicle_type_id":"4","last_reported":1731607990,"current_range_meters":34000,"station_id":"ce4bhn12rcd13ifvqgqg","pricing_plan_id":"cebpf4jnsgd1na2vs0mg"},{"bike_id":"0438773d-bf87-4953-af49-f8fe1c13657d","system_id":"levelo_inurba_marseille","lat":43.29277,"lon":5.36854,"is_reserved":false,"is_disabled":false,"rental_uris":{"android":"levelo://app?vid=0438773d-bf87-4953-af49-f8fe1c13657d","ios":"levelo://app?vid=0438773d-bf87-4953-af49-f8fe1c13657d"},"vehicle_type_id":"4","last_reported":1731607990,"current_range_meters":10800,"station_id":"ce4bhbp2rcd13ifvqesg","pricing_plan_id":"cebpf4jnsgd1na2vs0mg"},{"bike_id":"51dfc62a-c40c-4a49-aacb-cdbfb4131a6b","system_id":"levelo_inurba_marseille","lat":43.29649,"lon":5.37648,"is_reserved":false,"is_disabled":false,"rental_uris":{"android":"levelo://app?vid=51dfc62a-c40c-4a49-aacb-cdbfb4131a6b","ios":"levelo://app?vid=51dfc62a-c40c-4a49-aacb-cdbfb4131a6b"},"vehicle_type_id":"4","last_reported":1731607990,"current_range_meters":20400,"station_id":"","pricing_plan_id":"cebpf4jnsgd1na2vs0mg"},{"bike_id":"ad15c698-d417-4749-8816-70d41b7ac25a","system_id":"levelo_inurba_marseille","lat":43.27496,"lon":5.42457,"is_reserved":false,"is_disabled":false,"rental_uris":{"android":"levelo://app?vid=ad15c698-d417-4749-8816-70d41b7ac25a","ios":"levelo://app?vid=ad15c698-d417-4749-8816-70d41b7ac25a"},"vehicle_type_id":"4","last_reported":1731607990,"current_range_meters":26800,"station_id":"ce4bhn92rcd13ifvqgrg","pricing_plan_id":"cebpf4jnsgd1na2vs0mg"},{"bike_id":"bf88a884-7a26-4f8a-9b2a-0c7226852270","system_id":"levelo_inurba_marseille","lat":43.30805,"lon":5.43527,"is_reserved":false,"is_disabled":false,"rental_uris":{"android":"levelo://app?vid=bf88a884-7a26-4f8a-9b2a-0c7226852270","ios":"levelo://app?vid=bf88a884-7a26-4f8a-9b2a-0c7226852270"},"vehicle_type_id":"4","last_reported":1731607990,"current_range_meters":11600,"station_id":"ce4bhph2rcd13ifvqheg","pricing_plan_id":"cebpf4jnsgd1na2vs0mg"},{"bike_id":"f98b4a1a-12af-40dc-bb53-2e710513cc5a","system_id":"levelo_inurba_marseille","lat":43.25825,"lon":5.39428,"is_reserved":false,"is_disabled":false,"rental_uris":{"android":"levelo://app?vid=f98b4a1a-12af-40dc-bb53-2e710513cc5a","ios":"levelo://app?vid=f98b4a1a-12af-40dc-bb53-2e710513cc5a"},"vehicle_type_id":"4","last_reported":1731607990,"current_range_meters":28400,"station_id":"ce4bhip2rcd13ifvqft0","pricing_plan_id":"cebpf4jnsgd1na2vs0mg"},{"bike_id":"74aec172-0912-41e4-9f1e-1b404b12f3e4","system_id":"levelo_inurba_marseille","lat":43.31764,"lon":5.3902,"is_reserved":false,"is_disabled":false,"rental_uris":{"android":"levelo://app?vid=74aec172-0912-41e4-9f1e-1b404b12f3e4","ios":"levelo://app?vid=74aec172-0912-41e4-9f1e-1b404b12f3e4"},"vehicle_type_id":"4","last_reported":1731607990,"current_range_meters":12000,"station_id":"ce4bhqp2rcd13ifvqhng","pricing_plan_id":"cebpf4jnsgd1na2vs0mg"},{"bike_id":"8102b6ea-acef-4187-8f10-fc53bc63422b","system_id":"levelo_inurba_marseille","lat":43.28844,"lon":5.35846,"is_reserved":false,"is_disabled":false,"rental_uris":{"android":"levelo://app?vid=8102b6ea-acef-4187-8f10-fc53bc63422b","ios":"levelo://app?vid=8102b6ea-acef-4187-8f10-fc53bc63422b"},"vehicle_type_id":"4","last_reported":1731607990,"current_range_meters":38800,"station_id":"ce4bhb12rcd13ifvqem0","pricing_plan_id":"cebpf4jnsgd1na2vs0mg"},{"bike_id":"6ce0c528-fc1c-4f5e-9e04-d64ebd9b4957","system_id":"levelo_inurba_marseille","lat":43.32108,"lon":5.36775,"is_reserved":false,"is_disabled":false,"rental_uris":{"android":"levelo://app?vid=6ce0c528-fc1c-4f5e-9e04-d64ebd9b4957","ios":"levelo://app?vid=6ce0c528-fc1c-4f5e-9e04-d64ebd9b4957"},"vehicle_type_id":"4","last_reported":1731607990,"current_range_meters":12800,"station_id":"ce4bhrh2rcd13ifvqhug","pricing_plan_id":"cebpf4jnsgd1na2vs0mg"},{"bike_id":"21ce1c77-838b-4190-a766-99af14898544","system_id":"levelo_inurba_marseille","lat":43.26551,"lon":5.37287,"is_reserved":false,"is_disabled":false,"rental_uris":{"android":"levelo://app?vid=21ce1c77-838b-4190-a766-99af14898544","ios":"levelo://app?vid=21ce1c77-838b-4190-a766-99af14898544"},"vehicle_type_id":"4","last_reported":1731607990,"current_range_meters":34800,"station_id":"ce4bhg12rcd13ifvqf70","pricing_plan_id":"cebpf4jnsgd1na2vs0mg"},{"bike_id":"71e34b7f-e4a6-4af0-8081-3777c807463c","system_id":"levelo_inurba_marseille","lat":43.31158,"lon":5.38723,"is_reserved":false,"is_disabled":false,"rental_uris":{"android":"levelo://app?vid=71e34b7f-e4a6-4af0-8081-3777c807463c","ios":"levelo://app?vid=71e34b7f-e4a6-4af0-8081-3777c807463c"},"vehicle_type_id":"4","last_reported":1731607990,"current_range_meters":30800,"station_id":"ce4bgv12rcd13ifvqcp0","pricing_plan_id":"cebpf4jnsgd1na2vs0mg"},{"bike_id":"b1620d73-062d-46ba-beb0-cce3724d8fbc","system_id":"levelo_inurba_marseille","lat":43.28865,"lon":5.35838,"is_reserved":false,"is_disabled":false,"rental_uris":{"android":"levelo://app?vid=b1620d73-062d-46ba-beb0-cce3724d8fbc","ios":"levelo://app?vid=b1620d73-062d-46ba-beb0-cce3724d8fbc"},"vehicle_type_id":"4","last_reported":1731607990,"current_range_meters":38800,"station_id":"ce4bhb12rcd13ifvqem0","pricing_plan_id":"cebpf4jnsgd1na2vs0mg"},{"bike_id":"71c5d33b-07b4-4d75-bb1c-cc67133ec6db","system_id":"levelo_inurba_marseille","lat":43.28457,"lon":5.35884,"is_reserved":false,"is_disabled":false,"rental_uris":{"android":"levelo://app?vid=71c5d33b-07b4-4d75-bb1c-cc67133ec6db","ios":"levelo://app?vid=71c5d33b-07b4-4d75-bb1c-cc67133ec6db"},"vehicle_type_id":"4","last_reported":1731607990,"current_range_meters":10000,"station_id":"ce4bhah2rcd13ifvqei0","pricing_plan_id":"cebpf4jnsgd1na2vs0mg"},{"bike_id":"73f91252-d26f-428a-8db9-35a4079bdc89","system_id":"levelo_inurba_marseille","lat":43.31704,"lon":5.37736,"is_reserved":false,"is_disabled":false,"rental_uris":{"android":"levelo://app?vid=73f91252-d26f-428a-8db9-35a4079bdc89","ios":"levelo://app?vid=73f91252-d26f-428a-8db9-35a4079bdc89"},"vehicle_type_id":"4","last_reported":1731607990,"current_range_meters":10800,"station_id":"ce4bgth2rcd13ifvqch0","pricing_plan_id":"cebpf4jnsgd1na2vs0mg"},{"bike_id":"3b680de5-1519-4ff1-9a8e-e74903f0c58b","system_id":"levelo_inurba_marseille","lat":43.28547,"lon":5.36004,"is_reserved":false,"is_disabled":false,"rental_uris":{"android":"levelo://app?vid=3b680de5-1519-4ff1-9a8e-e74903f0c58b","ios":"levelo://app?vid=3b680de5-1519-4ff1-9a8e-e74903f0c58b"},"vehicle_type_id":"4","last_reported":1731607990,"current_range_meters":16000,"station_id":"ce4bhah2rcd13ifvqei0","pricing_plan_id":"cebpf4jnsgd1na2vs0mg"},{"bike_id":"e43f30db-eac4-444e-97a3-d723978f1748","system_id":"levelo_inurba_marseille","lat":43.2981,"lon":5.42663,"is_reserved":false,"is_disabled":false,"rental_uris":{"android":"levelo://app?vid=e43f30db-eac4-444e-97a3-d723978f1748","ios":"levelo://app?vid=e43f30db-eac4-444e-97a3-d723978f1748"},"vehicle_type_id":"4","last_reported":1731607990,"current_range_meters":28400,"station_id":"","pricing_plan_id":"cebpf4jnsgd1na2vs0mg"},{"bike_id":"63bc52f1-6b35-40c4-a995-cf9957f9dcce","system_id":"levelo_inurba_marseille","lat":43.27953,"lon":5.41055,"is_reserved":false,"is_disabled":false,"rental_uris":{"android":"levelo://app?vid=63bc52f1-6b35-40c4-a995-cf9957f9dcce","ios":"levelo://app?vid=63bc52f1-6b35-40c4-a995-cf9957f9dcce"},"vehicle_type_id":"4","last_reported":1731607990,"current_range_meters":23200,"station_id":"ce4bhnp2rcd13ifvqh0g","pricing_plan_id":"cebpf4jnsgd1na2vs0mg"},{"bike_id":"49e9ca98-91a6-4610-8b49-15f92d4a95c1","system_id":"levelo_inurba_marseille","lat":43.31112,"lon":5.37765,"is_reserved":false,"is_disabled":false,"rental_uris":{"android":"levelo://app?vid=49e9ca98-91a6-4610-8b49-15f92d4a95c1","ios":"levelo://app?vid=49e9ca98-91a6-4610-8b49-15f92d4a95c1"},"vehicle_type_id":"4","last_reported":1731607990,"current_range_meters":28800,"station_id":"ce4bgt92rcd13ifvqcg0","pricing_plan_id":"cebpf4jnsgd1na2vs0mg"},{"bike_id":"fe7d3ec4-e40f-4e62-9b1b-a6351890300e","system_id":"levelo_inurba_marseille","lat":43.31187,"lon":5.38718,"is_reserved":false,"is_disabled":false,"rental_uris":{"android":"levelo://app?vid=fe7d3ec4-e40f-4e62-9b1b-a6351890300e","ios":"levelo://app?vid=fe7d3ec4-e40f-4e62-9b1b-a6351890300e"},"vehicle_type_id":"4","last_reported":1731607990,"current_range_meters":38800,"station_id":"ce4bgv12rcd13ifvqcp0","pricing_plan_id":"cebpf4jnsgd1na2vs0mg"},{"bike_id":"653ad339-5ed5-4b74-a326-3b5f1bd97bf6","system_id":"levelo_inurba_marseille","lat":43.323264,"lon":5.406278,"is_reserved":false,"is_disabled":false,"rental_uris":{"android":"levelo://app?vid=653ad339-5ed5-4b74-a326-3b5f1bd97bf6","ios":"levelo://app?vid=653ad339-5ed5-4b74-a326-3b5f1bd97bf6"},"vehicle_type_id":"4","last_reported":1731607990,"current_range_meters":38800,"station_id":"ce4bhq92rcd13ifvqhjg","pricing_plan_id":"cebpf4jnsgd1na2vs0mg"},{"bike_id":"bb522734-48ce-4de6-8330-a5f77169e2f2","system_id":"levelo_inurba_marseille","lat":43.29903,"lon":5.43663,"is_reserved":false,"is_disabled":false,"rental_uris":{"android":"levelo://app?vid=bb522734-48ce-4de6-8330-a5f77169e2f2","ios":"levelo://app?vid=bb522734-48ce-4de6-8330-a5f77169e2f2"},"vehicle_type_id":"4","last_reported":1731607990,"current_range_meters":16400,"station_id":"ce4bhpp2rcd13ifvqhfg","pricing_plan_id":"cebpf4jnsgd1na2vs0mg"},{"bike_id":"dd2592e5-9a3f-46d7-ae43-4e7215f505e4","system_id":"levelo_inurba_marseille","lat":43.27074,"lon":5.42281,"is_reserved":false,"is_disabled":false,"rental_uris":{"android":"levelo://app?vid=dd2592e5-9a3f-46d7-ae43-4e7215f505e4","ios":"levelo://app?vid=dd2592e5-9a3f-46d7-ae43-4e7215f505e4"},"vehicle_type_id":"4","last_reported":1731607990,"current_range_meters":34800,"station_id":"ce4bhk92rcd13ifvqgb0","pricing_plan_id":"cebpf4jnsgd1na2vs0mg"},{"bike_id":"0cad5a7d-5aed-4ec1-b410-637b567df6b8","system_id":"levelo_inurba_marseille","lat":43.33726,"lon":5.39192,"is_reserved":false,"is_disabled":false,"rental_uris":{"android":"levelo://app?vid=0cad5a7d-5aed-4ec1-b410-637b567df6b8","ios":"levelo://app?vid=0cad5a7d-5aed-4ec1-b410-637b567df6b8"},"vehicle_type_id":"4","last_reported":1731607990,"current_range_meters":30800,"station_id":"ce4bhr92rcd13ifvqhsg","pricing_plan_id":"cebpf4jnsgd1na2vs0mg"},{"bike_id":"e7ed84fe-9f91-4774-93ad-5603d334167c","system_id":"levelo_inurba_marseille","lat":43.24075,"lon":5.37762,"is_reserved":false,"is_disabled":false,"rental_uris":{"android":"levelo://app?vid=e7ed84fe-9f91-4774-93ad-5603d334167c","ios":"levelo://app?vid=e7ed84fe-9f91-4774-93ad-5603d334167c"},"vehicle_type_id":"4","last_reported":1731607990,"current_range_meters":8800,"station_id":"ce4bhnp2rcd13ifvqgvg","pricing_plan_id":"cebpf4jnsgd1na2vs0mg"},{"bike_id":"b5d34788-62de-4663-a32c-5466ee4f8ae7","system_id":"levelo_inurba_marseille","lat":43.30132,"lon":5.39868,"is_reserved":false,"is_disabled":false,"rental_uris":{"android":"levelo://app?vid=b5d34788-62de-4663-a32c-5466ee4f8ae7","ios":"levelo://app?vid=b5d34788-62de-4663-a32c-5466ee4f8ae7"},"vehicle_type_id":"4","last_reported":1731607990,"current_range_meters":38800,"station_id":"ce4bh0h2rcd13ifvqd40","pricing_plan_id":"cebpf4jnsgd1na2vs0mg"},{"bike_id":"9a2a8f3e-abc5-425f-a3a6-279cf2747c5e","system_id":"levelo_inurba_marseille","lat":43.2962,"lon":5.37158,"is_reserved":false,"is_disabled":false,"rental_uris":{"android":"levelo://app?vid=9a2a8f3e-abc5-425f-a3a6-279cf2747c5e","ios":"levelo://app?vid=9a2a8f3e-abc5-425f-a3a6-279cf2747c5e"},"vehicle_type_id":"4","last_reported":1731607990,"current_range_meters":25600,"station_id":"ce4bgnh2rcd13ifvqc0g","pricing_plan_id":"cebpf4jnsgd1na2vs0mg"},{"bike_id":"8ba240c3-2f06-4ade-99c5-68715f0e0723","system_id":"levelo_inurba_marseille","lat":43.29529,"lon":5.38543,"is_reserved":false,"is_disabled":false,"rental_uris":{"android":"levelo://app?vid=8ba240c3-2f06-4ade-99c5-68715f0e0723","ios":"levelo://app?vid=8ba240c3-2f06-4ade-99c5-68715f0e0723"},"vehicle_type_id":"4","last_reported":1731607990,"current_range_meters":24000,"station_id":"ce4bgih2rcd13ifvqba0","pricing_plan_id":"cebpf4jnsgd1na2vs0mg"},{"bike_id":"52519200-9ffb-4289-a44d-986fbbe19179","system_id":"levelo_inurba_marseille","lat":43.28727,"lon":5.36085,"is_reserved":false,"is_disabled":false,"rental_uris":{"android":"levelo://app?vid=52519200-9ffb-4289-a44d-986fbbe19179","ios":"levelo://app?vid=52519200-9ffb-4289-a44d-986fbbe19179"},"vehicle_type_id":"4","last_reported":1731607990,"current_range_meters":33600,"station_id":"cki0cbj6b192h4jlfktg","pricing_plan_id":"cebpf4jnsgd1na2vs0mg"},{"bike_id":"97b1f877-c476-4a14-a5cd-bd47a071965d","system_id":"levelo_inurba_marseille","lat":43.27217,"lon":5.39183,"is_reserved":false,"is_disabled":false,"rental_uris":{"android":"levelo://app?vid=97b1f877-c476-4a14-a5cd-bd47a071965d","ios":"levelo://app?vid=97b1f877-c476-4a14-a5cd-bd47a071965d"},"vehicle_type_id":"4","last_reported":1731607990,"current_range_meters":2800,"station_id":"ce4bhhp2rcd13ifvqfm0","pricing_plan_id":"cebpf4jnsgd1na2vs0mg"},{"bike_id":"fe34e79d-89a4-4c9d-9e26-e258e0391b41","system_id":"levelo_inurba_marseille","lat":43.23175,"lon":5.39987,"is_reserved":false,"is_disabled":false,"rental_uris":{"android":"levelo://app?vid=fe34e79d-89a4-4c9d-9e26-e258e0391b41","ios":"levelo://app?vid=fe34e79d-89a4-4c9d-9e26-e258e0391b41"},"vehicle_type_id":"4","last_reported":1731607990,"current_range_meters":11200,"station_id":"ce4bhn12rcd13ifvqgqg","pricing_plan_id":"cebpf4jnsgd1na2vs0mg"},{"bike_id":"5fe9408b-88cd-4167-8a70-401fcc52dc53","system_id":"levelo_inurba_marseille","lat":43.27951,"lon":5.41045,"is_reserved":false,"is_disabled":false,"rental_uris":{"android":"levelo://app?vid=5fe9408b-88cd-4167-8a70-401fcc52dc53","ios":"levelo://app?vid=5fe9408b-88cd-4167-8a70-401fcc52dc53"},"vehicle_type_id":"4","last_reported":1731607990,"current_range_meters":18800,"station_id":"ce4bhnp2rcd13ifvqh0g","pricing_plan_id":"cebpf4jnsgd1na2vs0mg"},{"bike_id":"e2c5e9d7-fcb5-47eb-8dd0-0885cd8f4d1c","system_id":"levelo_inurba_marseille","lat":43.32366,"lon":5.38884,"is_reserved":false,"is_disabled":false,"rental_uris":{"android":"levelo://app?vid=e2c5e9d7-fcb5-47eb-8dd0-0885cd8f4d1c","ios":"levelo://app?vid=e2c5e9d7-fcb5-47eb-8dd0-0885cd8f4d1c"},"vehicle_type_id":"4","last_reported":1731607990,"current_range_meters":33200,"station_id":"ce4bhqp2rcd13ifvqhog","pricing_plan_id":"cebpf4jnsgd1na2vs0mg"},{"bike_id":"93103263-cd1f-4c3f-baaa-5f2edf3215e7","system_id":"levelo_inurba_marseille","lat":43.30413,"lon":5.41286,"is_reserved":false,"is_disabled":false,"rental_uris":{"android":"levelo://app?vid=93103263-cd1f-4c3f-baaa-5f2edf3215e7","ios":"levelo://app?vid=93103263-cd1f-4c3f-baaa-5f2edf3215e7"},"vehicle_type_id":"4","last_reported":1731607990,"current_range_meters":27200,"station_id":"ce4bhop2rcd13ifvqh8g","pricing_plan_id":"cebpf4jnsgd1na2vs0mg"},{"bike_id":"6c985a24-ba94-4113-a891-e9835602ca34","system_id":"levelo_inurba_marseille","lat":43.30324,"lon":5.40444,"is_reserved":false,"is_disabled":false,"rental_uris":{"android":"levelo://app?vid=6c985a24-ba94-4113-a891-e9835602ca34","ios":"levelo://app?vid=6c985a24-ba94-4113-a891-e9835602ca34"},"vehicle_type_id":"4","last_reported":1731607990,"current_range_meters":38800,"station_id":"ce4bh012rcd13ifvqd10","pricing_plan_id":"cebpf4jnsgd1na2vs0mg"},{"bike_id":"af3913db-c21e-437d-8c6c-3739f8574cfa","system_id":"levelo_inurba_marseille","lat":43.292799,"lon":5.401146,"is_reserved":false,"is_disabled":false,"rental_uris":{"android":"levelo://app?vid=af3913db-c21e-437d-8c6c-3739f8574cfa","ios":"levelo://app?vid=af3913db-c21e-437d-8c6c-3739f8574cfa"},"vehicle_type_id":"4","last_reported":1731607990,"current_range_meters":24800,"station_id":"","pricing_plan_id":"cebpf4jnsgd1na2vs0mg"},{"bike_id":"51e3cf83-8ac8-4af1-935c-3bd83ab91396","system_id":"levelo_inurba_marseille","lat":43.3042,"lon":5.4129,"is_reserved":false,"is_disabled":false,"rental_uris":{"android":"levelo://app?vid=51e3cf83-8ac8-4af1-935c-3bd83ab91396","ios":"levelo://app?vid=51e3cf83-8ac8-4af1-935c-3bd83ab91396"},"vehicle_type_id":"4","last_reported":1731607990,"current_range_meters":16800,"station_id":"ce4bhop2rcd13ifvqh8g","pricing_plan_id":"cebpf4jnsgd1na2vs0mg"},{"bike_id":"97852196-9c29-4098-b430-688d4bd4e4ef","system_id":"levelo_inurba_marseille","lat":43.28413,"lon":5.37524,"is_reserved":false,"is_disabled":false,"rental_uris":{"android":"levelo://app?vid=97852196-9c29-4098-b430-688d4bd4e4ef","ios":"levelo://app?vid=97852196-9c29-4098-b430-688d4bd4e4ef"},"vehicle_type_id":"4","last_reported":1731607990,"current_range_meters":38800,"station_id":"ce4bh412rcd13ifvqds0","pricing_plan_id":"cebpf4jnsgd1na2vs0mg"},{"bike_id":"d4cde2ca-7e67-44e0-9540-4275241f41e0","system_id":"levelo_inurba_marseille","lat":43.32363,"lon":5.3889,"is_reserved":false,"is_disabled":false,"rental_uris":{"android":"levelo://app?vid=d4cde2ca-7e67-44e0-9540-4275241f41e0","ios":"levelo://app?vid=d4cde2ca-7e67-44e0-9540-4275241f41e0"},"vehicle_type_id":"4","last_reported":1731607990,"current_range_meters":35600,"station_id":"ce4bhqp2rcd13ifvqhog","pricing_plan_id":"cebpf4jnsgd1na2vs0mg"},{"bike_id":"8d32c387-800c-4e8c-bbd5-b4fe89204c18","system_id":"levelo_inurba_marseille","lat":43.28457,"lon":5.35892,"is_reserved":false,"is_disabled":false,"rental_uris":{"android":"levelo://app?vid=8d32c387-800c-4e8c-bbd5-b4fe89204c18","ios":"levelo://app?vid=8d32c387-800c-4e8c-bbd5-b4fe89204c18"},"vehicle_type_id":"4","last_reported":1731607990,"current_range_meters":18800,"station_id":"ce4bhah2rcd13ifvqei0","pricing_plan_id":"cebpf4jnsgd1na2vs0mg"},{"bike_id":"f3a14c34-315a-47c5-bc83-2c38c5465dfb","system_id":"levelo_inurba_marseille","lat":43.30212,"lon":5.39466,"is_reserved":false,"is_disabled":false,"rental_uris":{"android":"levelo://app?vid=f3a14c34-315a-47c5-bc83-2c38c5465dfb","ios":"levelo://app?vid=f3a14c34-315a-47c5-bc83-2c38c5465dfb"},"vehicle_type_id":"4","last_reported":1731607990,"current_range_meters":29600,"station_id":"ce4bh0p2rcd13ifvqd70","pricing_plan_id":"cebpf4jnsgd1na2vs0mg"},{"bike_id":"4fff6634-0435-43e3-8bc4-78e627e5bbf9","system_id":"levelo_inurba_marseille","lat":43.30811,"lon":5.3815,"is_reserved":false,"is_disabled":false,"rental_uris":{"android":"levelo://app?vid=4fff6634-0435-43e3-8bc4-78e627e5bbf9","ios":"levelo://app?vid=4fff6634-0435-43e3-8bc4-78e627e5bbf9"},"vehicle_type_id":"4","last_reported":1731607990,"current_range_meters":30800,"station_id":"ce4bgt12rcd13ifvqce0","pricing_plan_id":"cebpf4jnsgd1na2vs0mg"},{"bike_id":"a093948b-2eef-4803-b913-ff1c8870d801","system_id":"levelo_inurba_marseille","lat":43.23178,"lon":5.39992,"is_reserved":false,"is_disabled":false,"rental_uris":{"android":"levelo://app?vid=a093948b-2eef-4803-b913-ff1c8870d801","ios":"levelo://app?vid=a093948b-2eef-4803-b913-ff1c8870d801"},"vehicle_type_id":"4","last_reported":1731607990,"current_range_meters":20000,"station_id":"ce4bhn12rcd13ifvqgqg","pricing_plan_id":"cebpf4jnsgd1na2vs0mg"},{"bike_id":"99f39eca-a8ff-4e52-925e-74f256039003","system_id":"levelo_inurba_marseille","lat":43.27075,"lon":5.4228,"is_reserved":false,"is_disabled":false,"rental_uris":{"android":"levelo://app?vid=99f39eca-a8ff-4e52-925e-74f256039003","ios":"levelo://app?vid=99f39eca-a8ff-4e52-925e-74f256039003"},"vehicle_type_id":"4","last_reported":1731607990,"current_range_meters":38800,"station_id":"ce4bhk92rcd13ifvqgb0","pricing_plan_id":"cebpf4jnsgd1na2vs0mg"},{"bike_id":"229b4553-6cc2-47c1-b81e-45bf480c8162","system_id":"levelo_inurba_marseille","lat":43.30053,"lon":5.3966,"is_reserved":false,"is_disabled":false,"rental_uris":{"android":"levelo://app?vid=229b4553-6cc2-47c1-b81e-45bf480c8162","ios":"levelo://app?vid=229b4553-6cc2-47c1-b81e-45bf480c8162"},"vehicle_type_id":"4","last_reported":1731607990,"current_range_meters":36400,"station_id":"","pricing_plan_id":"cebpf4jnsgd1na2vs0mg"},{"bike_id":"8a3d9d46-efc1-4f71-8b4b-994c0403246b","system_id":"levelo_inurba_marseille","lat":43.29012,"lon":5.38155,"is_reserved":false,"is_disabled":false,"rental_uris":{"android":"levelo://app?vid=8a3d9d46-efc1-4f71-8b4b-994c0403246b","ios":"levelo://app?vid=8a3d9d46-efc1-4f71-8b4b-994c0403246b"},"vehicle_type_id":"4","last_reported":1731607990,"current_range_meters":38800,"station_id":"ce4bh4p2rcd13ifvqe1g","pricing_plan_id":"cebpf4jnsgd1na2vs0mg"},{"bike_id":"4ba4a4de-85af-48db-ad65-0311078d5928","system_id":"levelo_inurba_marseille","lat":43.30639,"lon":5.40088,"is_reserved":false,"is_disabled":false,"rental_uris":{"android":"levelo://app?vid=4ba4a4de-85af-48db-ad65-0311078d5928","ios":"levelo://app?vid=4ba4a4de-85af-48db-ad65-0311078d5928"},"vehicle_type_id":"4","last_reported":1731607990,"current_range_meters":19200,"station_id":"ce4bh112rcd13ifvqda0","pricing_plan_id":"cebpf4jnsgd1na2vs0mg"},