{"last_updated":1706987063,"ttl":30,"version":"2.2","data":{"bikes":[{"bike_id":"672c449b-3de3-4d49-a544-e4c6d758c0c3","system_id":"levelo_inurba_marseille","lat":43.312239,"lon":5.368562,"is_reserved":false,"is_disabled":false,"rental_uris":{"android":"levelo://app?vid=672c449b-3de3-4d49-a544-e4c6d758c0c3","ios":"levelo://app?vid=672c449b-3de3-4d49-a544-e4c6d758c0c3"},"vehicle_type_id":"4","last_reported":1706987063,"current_range_meters":25200,"station_id":"ce4bgl92rcd13ifvqbq0","pricing_plan_id":"free"},{"bike_id":"cce1a80a-ed28-4048-ac80-53b066423f28","system_id":"levelo_inurba_marseille","lat":43.309135,"lon":5.368505,"is_reserved":false,"is_disabled":false,"rental_uris":{"android":"levelo://app?vid=cce1a80a-ed28-4048-ac80-53b066423f28","ios":"levelo://app?vid=cce1a80a-ed28-4048-ac80-53b066423f28"},"vehicle_type_id":"4","last_reported":1706987063,"current_range_meters":0,"station_id":"ce4bgn92rcd13ifvqbvg","pricing_plan_id":"free"},{"bike_id":"8075556e-9c83-4ece-b92f-e5e90a5fd8a2","system_id":"levelo_inurba_marseille","lat":43.31306,"lon":5.37258,"is_reserved":false,"is_disabled":false,"rental_uris":{"android":"levelo://app?vid=8075556e-9c83-4ece-b92f-e5e90a5fd8a2","ios":"levelo://app?vid=8075556e-9c83-4ece-b92f-e5e90a5fd8a2"},"vehicle_type_id":"4","last_reported":1706987063,"current_range_meters":0,"station_id":"","pricing_plan_id":"free"},{"bike_id":"7340e3be-86b2-404d-a38b-76f45fa758c1","system_id":"levelo_inurba_marseille","lat":43.314811,"lon":5.373103,"is_reserved":false,"is_disabled":false,"rental_uris":{"android":"levelo://app?vid=7340e3be-86b2-404d-a38b-76f45fa758c1","ios":"levelo://app?vid=7340e3be-86b2-404d-a38b-76f45fa758c1"},"vehicle_type_id":"4","last_reported":1706987063,"current_range_meters":3600,"station_id":"ce4bgt12rcd13ifvqcd0","pricing_plan_id":"free"},{"bike_id":"e51f6394-8f5e-40c7-9e8d-d7ccc4bcbdb3","system_id":"levelo_inurba_marseille","lat":43.314811,"lon":5.373103,"is_reserved":false,"is_disabled":false,"rental_uris":{"android":"levelo://app?vid=e51f6394-8f5e-40c7-9e8d-d7ccc4bcbdb3","ios":"levelo://app?vid=e51f6394-8f5e-40c7-9e8d-d7ccc4bcbdb3"},"vehicle_type_id":"4","last_reported":1706987063,"current_range_meters":0,"station_id":"ce4bgt12rcd13ifvqcd0","pricing_plan_id":"free"},{"bike_id":"c2754445-c219-4a90-962c-d1dc3b9f4c5c","system_id":"levelo_inurba_marseille","lat":43.309039,"lon":5.371797,"is_reserved":false,"is_disabled":false,"rental_uris":{"android":"levelo://app?vid=c2754445-c219-4a90-962c-d1dc3b9f4c5c","ios":"levelo://app?vid=c2754445-c219-4a90-962c-d1dc3b9f4c5c"},"vehicle_type_id":"4","last_reported":1706987063,"current_range_meters":0,"station_id":"ce4bguh2rcd13ifvqckg","pricing_plan_id":"free"},{"bike_id":"3f9aa9f8-f77b-4566-ad5a-6a6a82bf1a2f","system_id":"levelo_inurba_marseille","lat":43.309039,"lon":5.371797,"is_reserved":false,"is_disabled":false,"rental_uris":{"android":"levelo://app?vid=3f9aa9f8-f77b-4566-ad5a-6a6a82bf1a2f","ios":"levelo://app?vid=3f9aa9f8-f77b-4566-ad5a-6a6a82bf1a2f"},"vehicle_type_id":"4","last_reported":1706987063,"current_range_meters":3200,"station_id":"ce4bguh2rcd13ifvqckg","pricing_plan_id":"free"},{"bike_id":"2dd49487-8a0d-41e1-b33e-35d223e30916","system_id":"levelo_inurba_marseille","lat":43.311125,"lon":5.377624,"is_reserved":false,"is_disabled":false,"rental_uris":{"android":"levelo://app?vid=2dd49487-8a0d-41e1-b33e-35d223e30916","ios":"levelo://app?vid=2dd49487-8a0d-41e1-b33e-35d223e30916"},"vehicle_type_id":"4","last_reported":1706987063,"current_range_meters":0,"station_id":"ce4bgt92rcd13ifvqcg0","pricing_plan_id":"free"},{"bike_id":"4edcb211-acd9-47b0-873e-a8bc7cb1b27c","system_id":"levelo_inurba_marseille","lat":43.31118,"lon":5.37761,"is_reserved":false,"is_disabled":false,"rental_uris":{"android":"levelo://app?vid=4edcb211-acd9-47b0-873e-a8bc7cb1b27c","ios":"levelo://app?vid=4edcb211-acd9-47b0-873e-a8bc7cb1b27c"},"vehicle_type_id":"4","last_reported":1706987063,"current_range_meters":16400,"station_id":"ce4bgt92rcd13ifvqcg0","pricing_plan_id":"free"},{"bike_id":"aab95363-182c-4648-a7d6-1c6fd7a6fdd7","system_id":"levelo_inurba_marseille","lat":43.31117,"lon":5.37767,"is_reserved":false,"is_disabled":false,"rental_uris":{"android":"levelo://app?vid=aab95363-182c-4648-a7d6-1c6fd7a6fdd7","ios":"levelo://app?vid=aab95363-182c-4648-a7d6-1c6fd7a6fdd7"},"vehicle_type_id":"4","last_reported":1706987063,"current_range_meters":24800,"station_id":"ce4bgt92rcd13ifvqcg0","pricing_plan_id":"free"},{"bike_id":"e790ed83-2876-4aa5-bd84-1d49e8224f37","system_id":"levelo_inurba_marseille","lat":43.311131,"lon":5.377651,"is_reserved":false,"is_disabled":false,"rental_uris":{"android":"levelo://app?vid=e790ed83-2876-4aa5-bd84-1d49e8224f37","ios":"levelo://app?vid=e790ed83-2876-4aa5-bd84-1d49e8224f37"},"vehicle_type_id":"4","last_reported":1706987063,"current_range_meters":11200,"station_id":"ce4bgt92rcd13ifvqcg0","pricing_plan_id":"free"},{"bike_id":"d86be1a2-a751-4170-9a3d-4cdaa5457d09","system_id":"levelo_inurba_marseille","lat":43.311131,"lon":5.377651,"is_reserved":false,"is_disabled":false,"rental_uris":{"android":"levelo://app?vid=d86be1a2-a751-4170-9a3d-4cdaa5457d09","ios":"levelo://app?vid=d86be1a2-a751-4170-9a3d-4cdaa5457d09"},"vehicle_type_id":"4","last_reported":1706987063,"current_range_meters":0,"station_id":"ce4bgt92rcd13ifvqcg0","pricing_plan_id":"free"},{"bike_id":"8e2f942e-d2d5-4be4-b148-787bc3f0c9ae","system_id":"levelo_inurba_marseille","lat":43.311125,"lon":5.377624,"is_reserved":false,"is_disabled":false,"rental_uris":{"android":"levelo://app?vid=8e2f942e-d2d5-4be4-b148-787bc3f0c9ae","ios":"levelo://app?vid=8e2f942e-d2d5-4be4-b148-787bc3f0c9ae"},"vehicle_type_id":"4","last_reported":1706987063,"current_range_meters":2400,"station_id":"ce4bgt92rcd13ifvqcg0","pricing_plan_id":"free"},{"bike_id":"94583837-70d8-48aa-921a-84fc0cc924d7","system_id":"levelo_inurba_marseille","lat":43.30777,"lon":5.37658,"is_reserved":false,"is_disabled":false,"rental_uris":{"android":"levelo://app?vid=94583837-70d8-48aa-921a-84fc0cc924d7","ios":"levelo://app?vid=94583837-70d8-48aa-921a-84fc0cc924d7"},"vehicle_type_id":"4","last_reported":1706987063,"current_range_meters":0,"station_id":"","pricing_plan_id":"free"},{"bike_id":"7990937b-7025-4041-ae07-d0d631c4b855","system_id":"levelo_inurba_marseille","lat":43.317093,"lon":5.377377,"is_reserved":false,"is_disabled":false,"rental_uris":{"android":"levelo://app?vid=7990937b-7025-4041-ae07-d0d631c4b855","ios":"levelo://app?vid=7990937b-7025-4041-ae07-d0d631c4b855"},"vehicle_type_id":"4","last_reported":1706987063,"current_range_meters":0,"station_id":"ce4bgth2rcd13ifvqch0","pricing_plan_id":"free"},{"bike_id":"5350492e-9a31-4cc2-9dd3-24bb9c6e20c8","system_id":"levelo_inurba_marseille","lat":43.316966,"lon":5.377523,"is_reserved":false,"is_disabled":false,"rental_uris":{"android":"levelo://app?vid=5350492e-9a31-4cc2-9dd3-24bb9c6e20c8","ios":"levelo://app?vid=5350492e-9a31-4cc2-9dd3-24bb9c6e20c8"},"vehicle_type_id":"4","last_reported":1706987063,"current_range_meters":0,"station_id":"ce4bgth2rcd13ifvqch0","pricing_plan_id":"free"},{"bike_id":"7daad0af-95da-4450-92a1-335d8bab78e3","system_id":"levelo_inurba_marseille","lat":43.317075,"lon":5.377367,"is_reserved":false,"is_disabled":false,"rental_uris":{"android":"levelo://app?vid=7daad0af-95da-4450-92a1-335d8bab78e3","ios":"levelo://app?vid=7daad0af-95da-4450-92a1-335d8bab78e3"},"vehicle_type_id":"4","last_reported":1706987063,"current_range_meters":13600,"station_id":"ce4bgth2rcd13ifvqch0","pricing_plan_id":"free"},{"bike_id":"b3fdee80-37a0-47bb-b8ca-a3c133c6ab3b","system_id":"levelo_inurba_marseille","lat":43.303046,"lon":5.368981,"is_reserved":false,"is_disabled":false,"rental_uris":{"android":"levelo://app?vid=b3fdee80-37a0-47bb-b8ca-a3c133c6ab3b","ios":"levelo://app?vid=b3fdee80-37a0-47bb-b8ca-a3c133c6ab3b"},"vehicle_type_id":"4","last_reported":1706987063,"current_range_meters":14000,"station_id":"ce4bgqh2rcd13ifvqc5g","pricing_plan_id":"free"},{"bike_id":"260e570c-cd65-4585-bd6a-af1621776c35","system_id":"levelo_inurba_marseille","lat":43.30304,"lon":5.368987,"is_reserved":false,"is_disabled":false,"rental_uris":{"android":"levelo://app?vid=260e570c-cd65-4585-bd6a-af1621776c35","ios":"levelo://app?vid=260e570c-cd65-4585-bd6a-af1621776c35"},"vehicle_type_id":"4","last_reported":1706987063,"current_range_meters":24400,"station_id":"ce4bgqh2rcd13ifvqc5g","pricing_plan_id":"free"},{"bike_id":"d26371b5-2ae4-44cc-9101-a1b52894f775","system_id":"levelo_inurba_marseille","lat":43.30304,"lon":5.368987,"is_reserved":false,"is_disabled":false,"rental_uris":{"android":"levelo://app?vid=d26371b5-2ae4-44cc-9101-a1b52894f775","ios":"levelo://app?vid=d26371b5-2ae4-44cc-9101-a1b52894f775"},"vehicle_type_id":"4","last_reported":1706987063,"current_range_meters":5200,"station_id":"ce4bgqh2rcd13ifvqc5g","pricing_plan_id":"free"},{"bike_id":"7cff3bef-b381-4d0c-a6aa-548ec737dc42","system_id":"levelo_inurba_marseille","lat":43.303046,"lon":5.368981,"is_reserved":false,"is_disabled":false,"rental_uris":{"android":"levelo://app?vid=7cff3bef-b381-4d0c-a6aa-548ec737dc42","ios":"levelo://app?vid=7cff3bef-b381-4d0c-a6aa-548ec737dc42"},"vehicle_type_id":"4","last_reported":1706987063,"current_range_meters":16800,"station_id":"ce4bgqh2rcd13ifvqc5g","pricing_plan_id":"free"},{"bike_id":"a09f1682-c3b2-4cdb-975a-b1d80450b4cb","system_id":"levelo_inurba_marseille","lat":43.303046,"lon":5.368981,"is_reserved":false,"is_disabled":false,"rental_uris":{"android":"levelo://app?vid=a09f1682-c3b2-4cdb-975a-b1d80450b4cb","ios":"levelo://app?vid=a09f1682-c3b2-4cdb-975a-b1d80450b4cb"},"vehicle_type_id":"4","last_reported":1706987063,"current_range_meters":20400,"station_id":"ce4bgqh2rcd13ifvqc5g","pricing_plan_id":"free"},{"bike_id":"adcad12f-a841-49e7-8325-aefff59fe17a","system_id":"levelo_inurba_marseille","lat":43.315293,"lon":5.380349,"is_reserved":false,"is_disabled":false,"rental_uris":{"android":"levelo://app?vid=adcad12f-a841-49e7-8325-aefff59fe17a","ios":"levelo://app?vid=adcad12f-a841-49e7-8325-aefff59fe17a"},"vehicle_type_id":"4","last_reported":1706987063,"current_range_meters":23200,"station_id":"ce4bhsp2rcd13ifvqi50","pricing_plan_id":"free"},{"bike_id":"85b3887b-a606-409c-a4e1-4b7556ee044e","system_id":"levelo_inurba_marseille","lat":43.301939,"lon":5.366286,"is_reserved":false,"is_disabled":false,"rental_uris":{"android":"levelo://app?vid=85b3887b-a606-409c-a4e1-4b7556ee044e","ios":"levelo://app?vid=85b3887b-a606-409c-a4e1-4b7556ee044e"},"vehicle_type_id":"4","last_reported":1706987063,"current_range_meters":24800,"station_id":"ce4bgrh2rcd13ifvqc8g","pricing_plan_id":"free"},{"bike_id":"99a787cb-232b-4fb7-85f2-c3354ae36a10","system_id":"levelo_inurba_marseille","lat":43.301939,"lon":5.366286,"is_reserved":false,"is_disabled":false,"rental_uris":{"android":"levelo://app?vid=99a787cb-232b-4fb7-85f2-c3354ae36a10","ios":"levelo://app?vid=99a787cb-232b-4fb7-85f2-c3354ae36a10"},"vehicle_type_id":"4","last_reported":1706987063,"current_range_meters":30400,"station_id":"ce4bgrh2rcd13ifvqc8g","pricing_plan_id":"free"},{"bike_id":"532654a0-4b95-48cc-b919-8bc35c0e2009","system_id":"levelo_inurba_marseille","lat":43.30178,"lon":5.36633,"is_reserved":false,"is_disabled":false,"rental_uris":{"android":"levelo://app?vid=532654a0-4b95-48cc-b919-8bc35c0e2009","ios":"levelo://app?vid=532654a0-4b95-48cc-b919-8bc35c0e2009"},"vehicle_type_id":"4","last_reported":1706987063,"current_range_meters":31200,"station_id":"ce4bgrh2rcd13ifvqc8g","pricing_plan_id":"free"},{"bike_id":"8d17e082-7776-4b77-9f1b-c16dcf35f26a","system_id":"levelo_inurba_marseille","lat":43.308012,"lon":5.381511,"is_reserved":false,"is_disabled":false,"rental_uris":{"android":"levelo://app?vid=8d17e082-7776-4b77-9f1b-c16dcf35f26a","ios":"levelo://app?vid=8d17e082-7776-4b77-9f1b-c16dcf35f26a"},"vehicle_type_id":"4","last_reported":1706987063,"current_range_meters":2400,"station_id":"ce4bgt12rcd13ifvqce0","pricing_plan_id":"free"},{"bike_id":"e8016b0d-1241-4fa5-9655-fcbb769c2ad4","system_id":"levelo_inurba_marseille","lat":43.308012,"lon":5.381511,"is_reserved":false,"is_disabled":false,"rental_uris":{"android":"levelo://app?vid=e8016b0d-1241-4fa5-9655-fcbb769c2ad4","ios":"levelo://app?vid=e8016b0d-1241-4fa5-9655-fcbb769c2ad4"},"vehicle_type_id":"4","last_reported":1706987063,"current_range_meters":9600,"station_id":"ce4bgt12rcd13ifvqce0","pricing_plan_id":"free"},{"bike_id":"aec728be-c7c8-48cc-aaa2-6084e99fb84e","system_id":"levelo_inurba_marseille","lat":43.304606,"lon":5.379026,"is_reserved":false,"is_disabled":false,"rental_uris":{"android":"levelo://app?vid=aec728be-c7c8-48cc-aaa2-6084e99fb84e","ios":"levelo://app?vid=aec728be-c7c8-48cc-aaa2-6084e99fb84e"},"vehicle_type_id":"4","last_reported":1706987063,"current_range_meters":18000,"station_id":"ce4bgup2rcd13ifvqcn0","pricing_plan_id":"free"},{"bike_id":"4095fcf1-41ad-4257-a2a0-98afa6427640","system_id":"levelo_inurba_marseille","lat":43.304606,"lon":5.379026,"is_reserved":false,"is_disabled":false,"rental_uris":{"android":"levelo://app?vid=4095fcf1-41ad-4257-a2a0-98afa6427640","ios":"levelo://app?vid=4095fcf1-41ad-4257-a2a0-98afa6427640"},"vehicle_type_id":"4","last_reported":1706987063,"current_range_meters":25600,"station_id":"ce4bgup2rcd13ifvqcn0","pricing_plan_id":"free"},{"bike_id":"3b7f744f-fb9f-48c0-a778-77d2010a776d","system_id":"levelo_inurba_marseille","lat":43.304606,"lon":5.379026,"is_reserved":false,"is_disabled":false,"rental_uris":{"android":"levelo://app?vid=3b7f744f-fb9f-48c0-a778-77d2010a776d","ios":"levelo://app?vid=3b7f744f-fb9f-48c0-a778-77d2010a776d"},"vehicle_type_id":"4","last_reported":1706987063,"current_range_meters":15600,"station_id":"ce4bgup2rcd13ifvqcn0","pricing_plan_id":"free"},{"bike_id":"b6a0e118-5896-423b-8a9d-97008b7e31cd","system_id":"levelo_inurba_marseille","lat":43.304606,"lon":5.379026,"is_reserved":false,"is_disabled":false,"rental_uris":{"android":"levelo://app?vid=b6a0e118-5896-423b-8a9d-97008b7e31cd","ios":"levelo://app?vid=b6a0e118-5896-423b-8a9d-97008b7e31cd"},"vehicle_type_id":"4","last_reported":1706987063,"current_range_meters":9200,"station_id":"ce4bgup2rcd13ifvqcn0","pricing_plan_id":"free"},{"bike_id":"16c453ae-fa58-488b-809a-e7cd1c664b94","system_id":"levelo_inurba_marseille","lat":43.304606,"lon":5.379026,"is_reserved":false,"is_disabled":false,"rental_uris":{"android":"levelo://app?vid=16c453ae-fa58-488b-809a-e7cd1c664b94","ios":"levelo://app?vid=16c453ae-fa58-488b-809a-e7cd1c664b94"},"vehicle_type_id":"4","last_reported":1706987063,"current_range_meters":0,"station_id":"ce4bgup2rcd13ifvqcn0","pricing_plan_id":"free"},{"bike_id":"3afd96f5-310f-4873-bc5f-83651d54c8df","system_id":"levelo_inurba_marseille","lat":43.32481,"lon":5.36571,"is_reserved":false,"is_disabled":false,"rental_uris":{"android":"levelo://app?vid=3afd96f5-310f-4873-bc5f-83651d54c8df","ios":"levelo://app?vid=3afd96f5-310f-4873-bc5f-83651d54c8df"},"vehicle_type_id":"4","last_reported":1706987063,"current_range_meters":20800,"station_id":"ce4bhs12rcd13ifvqhvg","pricing_plan_id":"free"},{"bike_id":"133f55d3-25d3-4fdb-8274-06b95a9ac588","system_id":"levelo_inurba_marseille","lat":43.310804,"lon":5.38359,"is_reserved":false,"is_disabled":false,"rental_uris":{"android":"levelo://app?vid=133f55d3-25d3-4fdb-8274-06b95a9ac588","ios":"levelo://app?vid=133f55d3-25d3-4fdb-8274-06b95a9ac588"},"vehicle_type_id":"4","last_reported":1706987063,"current_range_meters":16800,"station_id":"ce4bgv92rcd13ifvqcr0","pricing_plan_id":"free"},{"bike_id":"5f03f1c4-3daf-4132-9b83-4053847d344c","system_id":"levelo_inurba_marseille","lat":43.31077,"lon":5.3837,"is_reserved":false,"is_disabled":false,"rental_uris":{"android":"levelo://app?vid=5f03f1c4-3daf-4132-9b83-4053847d344c","ios":"levelo://app?vid=5f03f1c4-3daf-4132-9b83-4053847d344c"},"vehicle_type_id":"4","last_reported":1706987063,"current_range_meters":0,"station_id":"ce4bgv92rcd13ifvqcr0","pricing_plan_id":"free"},{"bike_id":"c9f3c48b-f2ea-4545-9db2-bfa46abf2fd1","system_id":"levelo_inurba_marseille","lat":43.30143,"lon":5.37413,"is_reserved":false,"is_disabled":false,"rental_uris":{"android":"levelo://app?vid=c9f3c48b-f2ea-4545-9db2-bfa46abf2fd1","ios":"levelo://app?vid=c9f3c48b-f2ea-4545-9db2-bfa46abf2fd1"},"vehicle_type_id":"4","last_reported":1706987063,"current_range_meters":12800,"station_id":"ce4bgs92rcd13ifvqcc0","pricing_plan_id":"free"},{"bike_id":"58f6962a-4afe-4053-b5a4-f736e3070019","system_id":"levelo_inurba_marseille","lat":43.301429,"lon":5.37413,"is_reserved":false,"is_disabled":false,"rental_uris":{"android":"levelo://app?vid=58f6962a-4afe-4053-b5a4-f736e3070019","ios":"levelo://app?vid=58f6962a-4afe-4053-b5a4-f736e3070019"},"vehicle_type_id":"4","last_reported":1706987063,"current_range_meters":11200,"station_id":"ce4bgs92rcd13ifvqcc0","pricing_plan_id":"free"},{"bike_id":"37b7775d-daf2-4353-bb95-ae3413f66df3","system_id":"levelo_inurba_marseille","lat":43.301429,"lon":5.37413,"is_reserved":false,"is_disabled":false,"rental_uris":{"android":"levelo://app?vid=37b7775d-daf2-4353-bb95-ae3413f66df3","ios":"levelo://app?vid=37b7775d-daf2-4353-bb95-ae3413f66df3"},"vehicle_type_id":"4","last_reported":1706987063,"current_range_meters":23200,"station_id":"ce4bgs92rcd13ifvqcc0","pricing_plan_id":"free"},{"bike_id":"a3dffb1c-ad12-4b5e-b1e1-dd4cf41b1ab0","system_id":"levelo_inurba_marseille","lat":43.319935,"lon":5.381699,"is_reserved":false,"is_disabled":false,"rental_uris":{"android":"levelo://app?vid=a3dffb1c-ad12-4b5e-b1e1-dd4cf41b1ab0","ios":"levelo://app?vid=a3dffb1c-ad12-4b5e-b1e1-dd4cf41b1ab0"},"vehicle_type_id":"4","last_reported":1706987063,"current_range_meters":12400,"station_id":"ce4bhr12rcd13ifvqhpg","pricing_plan_id":"free"},{"bike_id":"3c58f41d-9a7a-4d49-8cec-b2ba77af198c","system_id":"levelo_inurba_marseille","lat":43.319935,"lon":5.381699,"is_reserved":false,"is_disabled":false,"rental_uris":{"android":"levelo://app?vid=3c58f41d-9a7a-4d49-8cec-b2ba77af198c","ios":"levelo://app?vid=3c58f41d-9a7a-4d49-8cec-b2ba77af198c"},"vehicle_type_id":"4","last_reported":1706987063,"current_range_meters":0,"station_id":"ce4bhr12rcd13ifvqhpg","pricing_plan_id":"free"},{"bike_id":"245843ad-bfeb-465e-a2d5-e97ffa7d3f53","system_id":"levelo_inurba_marseille","lat":43.31373,"lon":5.38478,"is_reserved":false,"is_disabled":false,"rental_uris":{"android":"levelo://app?vid=245843ad-bfeb-465e-a2d5-e97ffa7d3f53","ios":"levelo://app?vid=245843ad-bfeb-465e-a2d5-e97ffa7d3f53"},"vehicle_type_id":"4","last_reported":1706987063,"current_range_meters":28400,"station_id":"ce4bgt92rcd13ifvqcf0","pricing_plan_id":"free"},{"bike_id":"ca0c5030-70d0-43db-aed9-13e4b8bf6323","system_id":"levelo_inurba_marseille","lat":43.313571,"lon":5.384829,"is_reserved":false,"is_disabled":false,"rental_uris":{"android":"levelo://app?vid=ca0c5030-70d0-43db-aed9-13e4b8bf6323","ios":"levelo://app?vid=ca0c5030-70d0-43db-aed9-13e4b8bf6323"},"vehicle_type_id":"4","last_reported":1706987063,"current_range_meters":0,"station_id":"ce4bgt92rcd13ifvqcf0","pricing_plan_id":"free"},{"bike_id":"75e76b14-f86e-4677-b22a-cdbdc6404b1a","system_id":"levelo_inurba_marseille","lat":43.299724,"lon":5.371829,"is_reserved":false,"is_disabled":false,"rental_uris":{"android":"levelo://app?vid=75e76b14-f86e-4677-b22a-cdbdc6404b1a","ios":"levelo://app?vid=75e76b14-f86e-4677-b22a-cdbdc6404b1a"},"vehicle_type_id":"4","last_reported":1706987063,"current_range_meters":400,"station_id":"ce4bgr92rcd13ifvqc7g","pricing_plan_id":"free"},{"bike_id":"0e39aed6-6d71-4bd3-a000-335bc85bb3da","system_id":"levelo_inurba_marseille","lat":43.305364,"lon":5.384119,"is_reserved":false,"is_disabled":false,"rental_uris":{"android":"levelo://app?vid=0e39aed6-6d71-4bd3-a000-335bc85bb3da","ios":"levelo://app?vid=0e39aed6-6d71-4bd3-a000-335bc85bb3da"},"vehicle_type_id":"4","last_reported":1706987063,"current_range_meters":15600,"station_id":"ce4bgg92rcd13ifvqb30","pricing_plan_id":"free"},{"bike_id":"23f36b18-8d1a-440c-a80f-3e2fbd063538","system_id":"levelo_inurba_marseille","lat":43.305364,"lon":5.384119,"is_reserved":false,"is_disabled":false,"rental_uris":{"android":"levelo://app?vid=23f36b18-8d1a-440c-a80f-3e2fbd063538","ios":"levelo://app?vid=23f36b18-8d1a-440c-a80f-3e2fbd063538"},"vehicle_type_id":"4","last_reported":1706987063,"current_range_meters":22000,"station_id":"ce4bgg92rcd13ifvqb30","pricing_plan_id":"free"},{"bike_id":"a50b4bba-9dbc-48f0-b2d0-805112718182","system_id":"levelo_inurba_marseille","lat":43.305364,"lon":5.384119,"is_reserved":false,"is_disabled":false,"rental_uris":{"android":"levelo://app?vid=a50b4bba-9dbc-48f0-b2d0-805112718182","ios":"levelo://app?vid=a50b4bba-9dbc-48f0-b2d0-805112718182"},"vehicle_type_id":"4","last_reported":1706987063,"current_range_meters":4800,"station_id":"ce4bgg92rcd13ifvqb30","pricing_plan_id":"free"},{"bike_id":"a823bae4-d77a-4f0d-888b-ed0d6b906b83","system_id":"levelo_inurba_marseille","lat":43.298433,"lon":5.362774,"is_reserved":false,"is_disabled":false,"rental_uris":{"android":"levelo://app?vid=a823bae4-d77a-4f0d-888b-ed0d6b906b83","ios":"levelo://app?vid=a823bae4-d77a-4f0d-888b-ed0d6b906b83"},"vehicle_type_id":"4","last_reported":1706987063,"current_range_meters":6800,"station_id":"ce4bgpp2rcd13ifvqc3g","pricing_plan_id":"free"},{"bike_id":"b6caa35e-af12-4fb2-a4be-23d823c21f00","system_id":"levelo_inurba_marseille","lat":43.298433,"lon":5.362774,"is_reserved":false,"is_disabled":false,"rental_uris":{"android":"levelo://app?vid=b6caa35e-af12-4fb2-a4be-23d823c21f00","ios":"levelo://app?vid=b6caa35e-af12-4fb2-a4be-23d823c21f00"},"vehicle_type_id":"4","last_reported":1706987063,"current_range_meters":4800,"station_id":"ce4bgpp2rcd13ifvqc3g","pricing_plan_id":"free"},{"bike_id":"b5328ea9-154c-4016-a636-b0962a42f351","system_id":"levelo_inurba_marseille","lat":43.299243,"lon":5.37481,"is_reserved":false,"is_disabled":false,"rental_uris":{"android":"levelo://app?vid=b5328ea9-154c-4016-a636-b0962a42f351","ios":"levelo://app?vid=b5328ea9-154c-4016-a636-b0962a42f351"},"vehicle_type_id":"4","last_reported":1706987063,"current_range_meters":0,"station_id":"ce4bgjh2rcd13ifvqbg0","pricing_plan_id":"free"},{"bike_id":"8e7ce4ae-b373-4095-b5f3-316785451a75","system_id":"levelo_inurba_marseille","lat":43.298433,"lon":5.362774,"is_reserved":false,"is_disabled":false,"rental_uris":{"android":"levelo://app?vid=8e7ce4ae-b373-4095-b5f3-316785451a75","ios":"levelo://app?vid=8e7ce4ae-b373-4095-b5f3-316785451a75"},"vehicle_type_id":"4","last_reported":1706987063,"current_range_meters":400,"station_id":"ce4bgpp2rcd13ifvqc3g","pricing_plan_id":"free"},{"bike_id":"1c0ee3ec-24c7-4c1c-a687-d92aa435bf2b","system_id":"levelo_inurba_marseille","lat":43.299243,"lon":5.37481,"is_reserved":false,"is_disabled":false,"rental_uris":{"android":"levelo://app?vid=1c0ee3ec-24c7-4c1c-a687-d92aa435bf2b","ios":"levelo://app?vid=1c0ee3ec-24c7-4c1c-a687-d92aa435bf2b"},"vehicle_type_id":"4","last_reported":1706987063,"current_range_meters":5200,"station_id":"ce4bgjh2rcd13ifvqbg0","pricing_plan_id":"free"},{"bike_id":"6a05e727-ebb8-40d3-9e60-d05f48e9ad13","system_id":"levelo_inurba_marseille","lat":43.311722,"lon":5.387247,"is_reserved":false,"is_disabled":false,"rental_uris":{"android":"levelo://app?vid=6a05e727-ebb8-40d3-9e60-d05f48e9ad13","ios":"levelo://app?vid=6a05e727-ebb8-40d3-9e60-d05f48e9ad13"},"vehicle_type_id":"4","last_reported":1706987063,"current_range_meters":6400,"station_id":"ce4bgv12rcd13ifvqcp0","pricing_plan_id":"free"},{"bike_id":"09af8e1b-27da-4a25-8a22-6c45042b486f","system_id":"levelo_inurba_marseille","lat":43.30143,"lon":5.37413,"is_reserved":false,"is_disabled":false,"rental_uris":{"android":"levelo://app?vid=09af8e1b-27da-4a25-8a22-6c45042b486f","ios":"levelo://app?vid=09af8e1b-27da-4a25-8a22-6c45042b486f"},"vehicle_type_id":"4","last_reported":1706987063,"current_range_meters":3600,"station_id":"ce4bgs92rcd13ifvqcc0","pricing_plan_id":"free"},{"bike_id":"b9240fd9-0ea5-43c1-a434-2d539866d173","system_id":"levelo_inurba_marseille","lat":43.311722,"lon":5.387247,"is_reserved":false,"is_disabled":false,"rental_uris":{"android":"levelo://app?vid=b9240fd9-0ea5-43c1-a434-2d539866d173","ios":"levelo://app?vid=b9240fd9-0ea5-43c1-a434-2d539866d173"},"vehicle_type_id":"4","last_reported":1706987063,"current_range_meters":14800,"station_id":"ce4bgv12rcd13ifvqcp0","pricing_plan_id":"free"},{"bike_id":"fb079edc-2b32-4ef6-9153-eda29a50f28f","system_id":"levelo_inurba_marseille","lat":43.297794,"lon":5.370888,"is_reserved":false,"is_disabled":false,"rental_uris":{"android":"levelo://app?vid=fb079edc-2b32-4ef6-9153-eda29a50f28f","ios":"levelo://app?vid=fb079edc-2b32-4ef6-9153-eda29a50f28f"},"vehicle_type_id":"4","last_reported":1706987063,"current_range_meters":3200,"station_id":"ce4bgop2rcd13ifvqc1g","pricing_plan_id":"free"},{"bike_id":"79d2cf9f-4b5e-45d1-825f-a3eb8bc4dabd","system_id":"levelo_inurba_marseille","lat":43.297774,"lon":5.370875,"is_reserved":false,"is_disabled":false,"rental_uris":{"android":"levelo://app?vid=79d2cf9f-4b5e-45d1-825f-a3eb8bc4dabd","ios":"levelo://app?vid=79d2cf9f-4b5e-45d1-825f-a3eb8bc4dabd"},"vehicle_type_id":"4","last_reported":1706987063,"current_range_meters":3600,"station_id":"ce4bgop2rcd13ifvqc1g","pricing_plan_id":"free"},{"bike_id":"d3067c66-e7e2-46f1-8f0d-eabc61ae0d41","system_id":"levelo_inurba_marseille","lat":43.32288,"lon":5.38263,"is_reserved":false,"is_disabled":false,"rental_uris":{"android":"levelo://app?vid=d3067c66-e7e2-46f1-8f0d-eabc61ae0d41","ios":"levelo://app?vid=d3067c66-e7e2-46f1-8f0d-eabc61ae0d41"},"vehicle_type_id":"4","last_reported":1706987063,"current_range_meters":7600,"station_id":"ce4bhr12rcd13ifvqhqg","pricing_plan_id":"free"},{"bike_id":"6d4997e7-19de-4cd6-9e47-46afacda02f5","system_id":"levelo_inurba_marseille","lat":43.32284,"lon":5.382747,"is_reserved":false,"is_disabled":false,"rental_uris":{"android":"levelo://app?vid=6d4997e7-19de-4cd6-9e47-46afacda02f5","ios":"levelo://app?vid=6d4997e7-19de-4cd6-9e47-46afacda02f5"},"vehicle_type_id":"4","last_reported":1706987063,"current_range_meters":27600,"station_id":"ce4bhr12rcd13ifvqhqg","pricing_plan_id":"free"},{"bike_id":"dec8b008-992e-4c64-b540-1c9b2b5e6fc3","system_id":"levelo_inurba_marseille","lat":43.32291,"lon":5.38273,"is_reserved":false,"is_disabled":false,"rental_uris":{"android":"levelo://app?vid=dec8b008-992e-4c64-b540-1c9b2b5e6fc3","ios":"levelo://app?vid=dec8b008-992e-4c64-b540-1c9b2b5e6fc3"},"vehicle_type_id":"4","last_reported":1706987063,"current_range_meters":5200,"station_id":"ce4bhr12rcd13ifvqhqg","pricing_plan_id":"free"},{"bike_id":"8b023912-5267-4e1c-a403-4d70b425cebe","system_id":"levelo_inurba_marseille","lat":43.32294,"lon":5.38274,"is_reserved":false,"is_disabled":false,"rental_uris":{"android":"levelo://app?vid=8b023912-5267-4e1c-a403-4d70b425cebe","ios":"levelo://app?vid=8b023912-5267-4e1c-a403-4d70b425cebe"},"vehicle_type_id":"4","last_reported":1706987063,"current_range_meters":31200,"station_id":"ce4bhr12rcd13ifvqhqg","pricing_plan_id":"free"},{"bike_id":"1900e2ea-9239-49b1-933e-57903fa99707","system_id":"levelo_inurba_marseille","lat":43.32826,"lon":5.36695,"is_reserved":false,"is_disabled":false,"rental_uris":{"android":"levelo://app?vid=1900e2ea-9239-49b1-933e-57903fa99707","ios":"levelo://app?vid=1900e2ea-9239-49b1-933e-57903fa99707"},"vehicle_type_id":"4","last_reported":1706987063,"current_range_meters":14000,"station_id":"ce4bhs92rcd13ifvqi0g","pricing_plan_id":"free"},{"bike_id":"a3cfb0d8-66c6-4b02-980d-6e0838737d96","system_id":"levelo_inurba_marseille","lat":43.328371,"lon":5.366909,"is_reserved":false,"is_disabled":false,"rental_uris":{"android":"levelo://app?vid=a3cfb0d8-66c6-4b02-980d-6e0838737d96","ios":"levelo://app?vid=a3cfb0d8-66c6-4b02-980d-6e0838737d96"},"vehicle_type_id":"4","last_reported":1706987063,"current_range_meters":16000,"station_id":"ce4bhs92rcd13ifvqi0g","pricing_plan_id":"free"},{"bike_id":"757c94ef-0260-4e65-8f42-9a2ff02436ff","system_id":"levelo_inurba_marseille","lat":43.3283,"lon":5.36681,"is_reserved":false,"is_disabled":false,"rental_uris":{"android":"levelo://app?vid=757c94ef-0260-4e65-8f42-9a2ff02436ff","ios":"levelo://app?vid=757c94ef-0260-4e65-8f42-9a2ff02436ff"},"vehicle_type_id":"4","last_reported":1706987063,"current_range_meters":0,"station_id":"ce4bhs92rcd13ifvqi0g","pricing_plan_id":"free"},{"bike_id":"4c60f124-983d-4709-a95c-31ae5c64ae30","system_id":"levelo_inurba_marseille","lat":43.328314,"lon":5.366806,"is_reserved":false,"is_disabled":false,"rental_uris":{"android":"levelo://app?vid=4c60f124-983d-4709-a95c-31ae5c64ae30","ios":"levelo://app?vid=4c60f124-983d-4709-a95c-31ae5c64ae30"},"vehicle_type_id":"4","last_reported":1706987063,"current_range_meters":400,"station_id":"ce4bhs92rcd13ifvqi0g","pricing_plan_id":"free"},{"bike_id":"cd766519-893f-42bc-9d4d-40ec2595fe3b","system_id":"levelo_inurba_marseille","lat":43.328317,"lon":5.366763,"is_reserved":false,"is_disabled":false,"rental_uris":{"android":"levelo://app?vid=cd766519-893f-42bc-9d4d-40ec2595fe3b","ios":"levelo://app?vid=cd766519-893f-42bc-9d4d-40ec2595fe3b"},"vehicle_type_id":"4","last_reported":1706987063,"current_range_meters":8800,"station_id":"ce4bhs92rcd13ifvqi0g","pricing_plan_id":"free"},{"bike_id":"63fdb5e0-d01f-4003-bcb3-b69d8f457f45","system_id":"levelo_inurba_marseille","lat":43.32833,"lon":5.36685,"is_reserved":false,"is_disabled":false,"rental_uris":{"android":"levelo://app?vid=63fdb5e0-d01f-4003-bcb3-b69d8f457f45","ios":"levelo://app?vid=63fdb5e0-d01f-4003-bcb3-b69d8f457f45"},"vehicle_type_id":"4","last_reported":1706987063,"current_range_meters":6400,"station_id":"ce4bhs92rcd13ifvqi0g","pricing_plan_id":"free"},{"bike_id":"eb693acf-24cc-46c6-9dfc-6a5e5c4efea8","system_id":"levelo_inurba_marseille","lat":43.297163,"lon":5.365866,"is_reserved":false,"is_disabled":false,"rental_uris":{"android":"levelo://app?vid=eb693acf-24cc-46c6-9dfc-6a5e5c4efea8","ios":"levelo://app?vid=eb693acf-24cc-46c6-9dfc-6a5e5c4efea8"},"vehicle_type_id":"4","last_reported":1706987063,"current_range_meters":13600,"station_id":"ce4bgn12rcd13ifvqbt0","pricing_plan_id":"free"},{"bike_id":"066cba20-d634-4311-9b61-f2712ca9d4b9","system_id":"levelo_inurba_marseille","lat":43.297163,"lon":5.365866,"is_reserved":false,"is_disabled":false,"rental_uris":{"android":"levelo://app?vid=066cba20-d634-4311-9b61-f2712ca9d4b9","ios":"levelo://app?vid=066cba20-d634-4311-9b61-f2712ca9d4b9"},"vehicle_type_id":"4","last_reported":1706987063,"current_range_meters":8000,"station_id":"ce4bgn12rcd13ifvqbt0","pricing_plan_id":"free"},{"bike_id":"c0f1594a-193c-47ec-a8ae-eb5391b730be","system_id":"levelo_inurba_marseille","lat":43.297163,"lon":5.365866,"is_reserved":false,"is_disabled":false,"rental_uris":{"android":"levelo://app?vid=c0f1594a-193c-47ec-a8ae-eb5391b730be","ios":"levelo://app?vid=c0f1594a-193c-47ec-a8ae-eb5391b730be"},"vehicle_type_id":"4","last_reported":1706987063,"current_range_meters":14000,"station_id":"ce4bgn12rcd13ifvqbt0","pricing_plan_id":"free"},{"bike_id":"4a162a07-9827-4581-b43a-e610ce807deb","system_id":"levelo_inurba_marseille","lat":43.296883,"lon":5.372927,"is_reserved":false,"is_disabled":false,"rental_uris":{"android":"levelo://app?vid=4a162a07-9827-4581-b43a-e610ce807deb","ios":"levelo://app?vid=4a162a07-9827-4581-b43a-e610ce807deb"},"vehicle_type_id":"4","last_reported":1706987063,"current_range_meters":5200,"station_id":"ce4bgk12rcd13ifvqbj0","pricing_plan_id":"free"},{"bike_id":"01453fc7-8ea1-42b2-8a17-28096f6c6c34","system_id":"levelo_inurba_marseille","lat":43.296813,"lon":5.372863,"is_reserved":false,"is_disabled":false,"rental_uris":{"android":"levelo://app?vid=01453fc7-8ea1-42b2-8a17-28096f6c6c34","ios":"levelo://app?vid=01453fc7-8ea1-42b2-8a17-28096f6c6c34"},"vehicle_type_id":"4","last_reported":1706987063,"current_range_meters":6000,"station_id":"ce4bgk12rcd13ifvqbj0","pricing_plan_id":"free"},{"bike_id":"24a77e25-dbb7-4e10-a2e3-ef2a37137b9f","system_id":"levelo_inurba_marseille","lat":43.2968,"lon":5.37291,"is_reserved":false,"is_disabled":false,"rental_uris":{"android":"levelo://app?vid=24a77e25-dbb7-4e10-a2e3-ef2a37137b9f","ios":"levelo://app?vid=24a77e25-dbb7-4e10-a2e3-ef2a37137b9f"},"vehicle_type_id":"4","last_reported":1706987063,"current_range_meters":8000,"station_id":"ce4bgk12rcd13ifvqbj0","pricing_plan_id":"free"},{"bike_id":"05d1e24a-5991-47ae-bc98-2b2d2c7a2dc3","system_id":"levelo_inurba_marseille","lat":43.2968,"lon":5.37291,"is_reserved":false,"is_disabled":false,"rental_uris":{"android":"levelo://app?vid=05d1e24a-5991-47ae-bc98-2b2d2c7a2dc3","ios":"levelo://app?vid=05d1e24a-5991-47ae-bc98-2b2d2c7a2dc3"},"vehicle_type_id":"4","last_reported":1706987063,"current_range_meters":31200,"station_id":"ce4bgk12rcd13ifvqbj0","pricing_plan_id":"free"},{"bike_id":"fbcb2350-ca0a-4840-9ea5-5e5602a52918","system_id":"levelo_inurba_marseille","lat":43.296129,"lon":5.370777,"is_reserved":false,"is_disabled":false,"rental_uris":{"android":"levelo://app?vid=fbcb2350-ca0a-4840-9ea5-5e5602a52918","ios":"levelo://app?vid=fbcb2350-ca0a-4840-9ea5-5e5602a52918"},"vehicle_type_id":"4","last_reported":1706987063,"current_range_meters":800,"station_id":"ce4bgnh2rcd13ifvqc0g","pricing_plan_id":"free"},{"bike_id":"b2fd49a8-7745-467b-be39-a33cc289770d","system_id":"levelo_inurba_marseille","lat":43.29719,"lon":5.37699,"is_reserved":false,"is_disabled":false,"rental_uris":{"android":"levelo://app?vid=b2fd49a8-7745-467b-be39-a33cc289770d","ios":"levelo://app?vid=b2fd49a8-7745-467b-be39-a33cc289770d"},"vehicle_type_id":"4","last_reported":1706987063,"current_range_meters":2800,"station_id":"ce4bgkh2rcd13ifvqbl0","pricing_plan_id":"free"},{"bike_id":"f398af62-58b5-4476-ab0f-90ffaff3dd7c","system_id":"levelo_inurba_marseille","lat":43.299028,"lon":5.381509,"is_reserved":false,"is_disabled":false,"rental_uris":{"android":"levelo://app?vid=f398af62-58b5-4476-ab0f-90ffaff3dd7c","ios":"levelo://app?vid=f398af62-58b5-4476-ab0f-90ffaff3dd7c"},"vehicle_type_id":"4","last_reported":1706987063,"current_range_meters":10000,"station_id":"ce4bgj12rcd13ifvqbc0","pricing_plan_id":"free"},{"bike_id":"e9e3c594-7adc-43f1-9493-aaabb7eee0e6","system_id":"levelo_inurba_marseille","lat":43.299028,"lon":5.381509,"is_reserved":false,"is_disabled":false,"rental_uris":{"android":"levelo://app?vid=e9e3c594-7adc-43f1-9493-aaabb7eee0e6","ios":"levelo://app?vid=e9e3c594-7adc-43f1-9493-aaabb7eee0e6"},"vehicle_type_id":"4","last_reported":1706987063,"current_range_meters":0,"station_id":"ce4bgj12rcd13ifvqbc0","pricing_plan_id":"free"},{"bike_id":"ee354fc7-5bbc-4758-96a6-243ba34b6ea7","system_id":"levelo_inurba_marseille","lat":43.29915,"lon":5.381535,"is_reserved":false,"is_disabled":false,"rental_uris":{"android":"levelo://app?vid=ee354fc7-5bbc-4758-96a6-243ba34b6ea7","ios":"levelo://app?vid=ee354fc7-5bbc-4758-96a6-243ba34b6ea7"},"vehicle_type_id":"4","last_reported":1706987063,"current_range_meters":31200,"station_id":"ce4bgj12rcd13ifvqbc0","pricing_plan_id":"free"},{"bike_id":"b11a3066-32b6-4a93-ba5a-b73d8915d6b4","system_id":"levelo_inurba_marseille","lat":43.299028,"lon":5.381509,"is_reserved":false,"is_disabled":false,"rental_uris":{"android":"levelo://app?vid=b11a3066-32b6-4a93-ba5a-b73d8915d6b4","ios":"levelo://app?vid=b11a3066-32b6-4a93-ba5a-b73d8915d6b4"},"vehicle_type_id":"4","last_reported":1706987063,"current_range_meters":20800,"station_id":"ce4bgj12rcd13ifvqbc0","pricing_plan_id":"free"},{"bike_id":"406c1d18-9171-4b43-bd4d-51d7861cb4e2","system_id":"levelo_inurba_marseille","lat":43.29714,"lon":5.3771,"is_reserved":false,"is_disabled":false,"rental_uris":{"android":"levelo://app?vid=406c1d18-9171-4b43-bd4d-51d7861cb4e2","ios":"levelo://app?vid=406c1d18-9171-4b43-bd4d-51d7861cb4e2"},"vehicle_type_id":"4","last_reported":1706987063,"current_range_meters":23600,"station_id":"ce4bgkh2rcd13ifvqbl0","pricing_plan_id":"free"},{"bike_id":"27422e0e-cbee-49e0-a33a-574765341354","system_id":"levelo_inurba_marseille","lat":43.299028,"lon":5.381509,"is_reserved":false,"is_disabled":false,"rental_uris":{"android":"levelo://app?vid=27422e0e-cbee-49e0-a33a-574765341354","ios":"levelo://app?vid=27422e0e-cbee-49e0-a33a-574765341354"},"vehicle_type_id":"4","last_reported":1706987063,"current_range_meters":1600,"station_id":"ce4bgj12rcd13ifvqbc0","pricing_plan_id":"free"},{"bike_id":"6f5f146e-eb3a-4e1a-bf5f-b4beb900f71a","system_id":"levelo_inurba_marseille","lat":43.296921,"lon":5.376579,"is_reserved":false,"is_disabled":false,"rental_uris":{"android":"levelo://app?vid=6f5f146e-eb3a-4e1a-bf5f-b4beb900f71a","ios":"levelo://app?vid=6f5f146e-eb3a-4e1a-bf5f-b4beb900f71a"},"vehicle_type_id":"4","last_reported":1706987063,"current_range_meters":18400,"station_id":"ce4bgkh2rcd13ifvqbl0","pricing_plan_id":"free"},{"bike_id":"4f1e6c01-1f6d-4cdf-835c-97cd6866d7f2","system_id":"levelo_inurba_marseille","lat":43.299028,"lon":5.381509,"is_reserved":false,"is_disabled":false,"rental_uris":{"android":"levelo://app?vid=4f1e6c01-1f6d-4cdf-835c-97cd6866d7f2","ios":"levelo://app?vid=4f1e6c01-1f6d-4cdf-835c-97cd6866d7f2"},"vehicle_type_id":"4","last_reported":1706987063,"current_range_meters":29200,"station_id":"ce4bgj12rcd13ifvqbc0","pricing_plan_id":"free"},{"bike_id":"c8fcaf83-deca-4697-81a1-4be5d91d9f1d","system_id":"levelo_inurba_marseille","lat":43.29704,"lon":5.37698,"is_reserved":false,"is_disabled":false,"rental_uris":{"android":"levelo://app?vid=c8fcaf83-deca-4697-81a1-4be5d91d9f1d","ios":"levelo://app?vid=c8fcaf83-deca-4697-81a1-4be5d91d9f1d"},"vehicle_type_id":"4","last_reported":1706987063,"current_range_meters":2400,"station_id":"ce4bgkh2rcd13ifvqbl0","pricing_plan_id":"free"},{"bike_id":"a3047327-7b67-45d5-8b1d-36811e5023f6","system_id":"levelo_inurba_marseille","lat":43.29704,"lon":5.37701,"is_reserved":false,"is_disabled":false,"rental_uris":{"android":"levelo://app?vid=a3047327-7b67-45d5-8b1d-36811e5023f6","ios":"levelo://app?vid=a3047327-7b67-45d5-8b1d-36811e5023f6"},"vehicle_type_id":"4","last_reported":1706987063,"current_range_meters":6400,"station_id":"ce4bgkh2rcd13ifvqbl0","pricing_plan_id":"free"},{"bike_id":"86129512-80f8-48ea-9ecf-70d317f75a25","system_id":"levelo_inurba_marseille","lat":43.299028,"lon":5.381509,"is_reserved":false,"is_disabled":false,"rental_uris":{"android":"levelo://app?vid=86129512-80f8-48ea-9ecf-70d317f75a25","ios":"levelo://app?vid=86129512-80f8-48ea-9ecf-70d317f75a25"},"vehicle_type_id":"4","last_reported":1706987063,"current_range_meters":5600,"station_id":"ce4bgj12rcd13ifvqbc0","pricing_plan_id":"free"},{"bike_id":"180372e7-a5c9-4cdc-92fd-c2d8d890dbd7","system_id":"levelo_inurba_marseille","lat":43.29704,"lon":5.37703,"is_reserved":false,"is_disabled":false,"rental_uris":{"android":"levelo://app?vid=180372e7-a5c9-4cdc-92fd-c2d8d890dbd7","ios":"levelo://app?vid=180372e7-a5c9-4cdc-92fd-c2d8d890dbd7"},"vehicle_type_id":"4","last_reported":1706987063,"current_range_meters":18400,"station_id":"ce4bgkh2rcd13ifvqbl0","pricing_plan_id":"free"},{"bike_id":"a714b53e-9806-4833-b171-edd8e87daf6c","system_id":"levelo_inurba_marseille","lat":43.297,"lon":5.37693,"is_reserved":false,"is_disabled":false,"rental_uris":{"android":"levelo://app?vid=a714b53e-9806-4833-b171-edd8e87daf6c","ios":"levelo://app?vid=a714b53e-9806-4833-b171-edd8e87daf6c"},"vehicle_type_id":"4","last_reported":1706987063,"current_range_meters":0,"station_id":"ce4bgkh2rcd13ifvqbl0","pricing_plan_id":"free"},{"bike_id":"597344a9-5395-4a44-a16a-affbc146f906","system_id":"levelo_inurba_marseille","lat":43.299028,"lon":5.381509,"is_reserved":false,"is_disabled":false,"rental_uris":{"android":"levelo://app?vid=597344a9-5395-4a44-a16a-affbc146f906","ios":"levelo://app?vid=597344a9-5395-4a44-a16a-affbc146f906"},"vehicle_type_id":"4","last_reported":1706987063,"current_range_meters":4400,"station_id":"ce4bgj12rcd13ifvqbc0","pricing_plan_id":"free"},{"bike_id":"c411ddef-b19b-4cc0-8920-e195a69a82ff","system_id":"levelo_inurba_marseille","lat":43.30954,"lon":5.39039,"is_reserved":false,"is_disabled":false,"rental_uris":{"android":"levelo://app?vid=c411ddef-b19b-4cc0-8920-e195a69a82ff","ios":"levelo://app?vid=c411ddef-b19b-4cc0-8920-e195a69a82ff"},"vehicle_type_id":"4","last_reported":1706987063,"current_range_meters":23600,"station_id":"ce4bgup2rcd13ifvqco0","pricing_plan_id":"free"},{"bike_id":"c4707585-fa42-435e-ae2b-8d0fd9e245fe","system_id":"levelo_inurba_marseille","lat":43.299028,"lon":5.381509,"is_reserved":false,"is_disabled":false,"rental_uris":{"android":"levelo://app?vid=c4707585-fa42-435e-ae2b-8d0fd9e245fe","ios":"levelo://app?vid=c4707585-fa42-435e-ae2b-8d0fd9e245fe"},"vehicle_type_id":"4","last_reported":1706987063,"current_range_meters":29200,"station_id":"ce4bgj12rcd13ifvqbc0","pricing_plan_id":"free"},{"bike_id":"02e5c3ba-d57f-45cd-83a5-34e8a95ace48","system_id":"levelo_inurba_marseille","lat":43.31738,"lon":5.39,"is_reserved":false,"is_disabled":false,"rental_uris":{"android":"levelo://app?vid=02e5c3ba-d57f-45cd-83a5-34e8a95ace48","ios":"levelo://app?vid=02e5c3ba-d57f-45cd-83a5-34e8a95ace48"},"vehicle_type_id":"4","last_reported":1706987063,"current_range_meters":22800,"station_id":"","pricing_plan_id":"free"},{"bike_id":"6d58f576-85d1-4e6d-9021-988c1d4533a2","system_id":"levelo_inurba_marseille","lat":43.29692,"lon":5.37707,"is_reserved":false,"is_disabled":false,"rental_uris":{"android":"levelo://app?vid=6d58f576-85d1-4e6d-9021-988c1d4533a2","ios":"levelo://app?vid=6d58f576-85d1-4e6d-9021-988c1d4533a2"},"vehicle_type_id":"4","last_reported":1706987063,"current_range_meters":20400,"station_id":"ce4bgkh2rcd13ifvqbl0","pricing_plan_id":"free"},{"bike_id":"0b49491c-81b8-4ed9-9fa4-1ac082e034fe","system_id":"levelo_inurba_marseille","lat":43.317557,"lon":5.390173,"is_reserved":false,"is_disabled":false,"rental_uris":{"android":"levelo://app?vid=0b49491c-81b8-4ed9-9fa4-1ac082e034fe","ios":"levelo://app?vid=0b49491c-81b8-4ed9-9fa4-1ac082e034fe"},"vehicle_type_id":"4","last_reported":1706987063,"current_range_meters":30400,"station_id":"ce4bhqp2rcd13ifvqhng","pricing_plan_id":"free"},{"bike_id":"86eba5ee-3f3e-465e-879d-a26eca611b6f","system_id":"levelo_inurba_marseille","lat":43.31826,"lon":5.39029,"is_reserved":false,"is_disabled":false,"rental_uris":{"android":"levelo://app?vid=86eba5ee-3f3e-465e-879d-a26eca611b6f","ios":"levelo://app?vid=86eba5ee-3f3e-465e-879d-a26eca611b6f"},"vehicle_type_id":"4","last_reported":1706987063,"current_range_meters":20400,"station_id":"","pricing_plan_id":"free"},{"bike_id":"4ab7af74-6693-47d1-98ac-64caf9f2f3e9","system_id":"levelo_inurba_marseille","lat":43.298037,"lon":5.381066,"is_reserved":false,"is_disabled":false,"rental_uris":{"android":"levelo://app?vid=4ab7af74-6693-47d1-98ac-64caf9f2f3e9","ios":"levelo://app?vid=4ab7af74-6693-47d1-98ac-64caf9f2f3e9"},"vehicle_type_id":"4","last_reported":1706987063,"current_range_meters":11600,"station_id":"ce4bgip2rcd13ifvqbb0","pricing_plan_id":"free"},{"bike_id":"de0a6de6-7884-415d-91f7-94f7dea3cf30","system_id":"levelo_inurba_marseille","lat":43.298026,"lon":5.380906,"is_reserved":false,"is_disabled":false,"rental_uris":{"android":"levelo://app?vid=de0a6de6-7884-415d-91f7-94f7dea3cf30","ios":"levelo://app?vid=de0a6de6-7884-415d-91f7-94f7dea3cf30"},"vehicle_type_id":"4","last_reported":1706987063,"current_range_meters":0,"station_id":"ce4bgip2rcd13ifvqbb0","pricing_plan_id":"free"},{"bike_id":"ec0d27fb-884c-4acb-819c-ff308ec1442d","system_id":"levelo_inurba_marseille","lat":43.298,"lon":5.3809,"is_reserved":false,"is_disabled":false,"rental_uris":{"android":"levelo://app?vid=ec0d27fb-884c-4acb-819c-ff308ec1442d","ios":"levelo://app?vid=ec0d27fb-884c-4acb-819c-ff308ec1442d"},"vehicle_type_id":"4","last_reported":1706987063,"current_range_meters":24000,"station_id":"ce4bgip2rcd13ifvqbb0","pricing_plan_id":"free"},{"bike_id":"4408d831-7141-4bec-a118-3d84b9bd4594","system_id":"levelo_inurba_marseille","lat":43.298037,"lon":5.381066,"is_reserved":false,"is_disabled":false,"rental_uris":{"android":"levelo://app?vid=4408d831-7141-4bec-a118-3d84b9bd4594","ios":"levelo://app?vid=4408d831-7141-4bec-a118-3d84b9bd4594"},"vehicle_type_id":"4","last_reported":1706987063,"current_range_meters":3200,"station_id":"ce4bgip2rcd13ifvqbb0","pricing_plan_id":"free"},{"bike_id":"5a823fbf-3ef9-43d4-b3ee-e2e36905b2cf","system_id":"levelo_inurba_marseille","lat":43.298037,"lon":5.381066,"is_reserved":false,"is_disabled":false,"rental_uris":{"android":"levelo://app?vid=5a823fbf-3ef9-43d4-b3ee-e2e36905b2cf","ios":"levelo://app?vid=5a823fbf-3ef9-43d4-b3ee-e2e36905b2cf"},"vehicle_type_id":"4","last_reported":1706987063,"current_range_meters":8400,"station_id":"ce4bgip2rcd13ifvqbb0","pricing_plan_id":"free"},{"bike_id":"cc8dbedf-d086-4be0-86af-3aa80ac6a9eb","system_id":"levelo_inurba_marseille","lat":43.298037,"lon":5.381066,"is_reserved":false,"is_disabled":false,"rental_uris":{"android":"levelo://app?vid=cc8dbedf-d086-4be0-86af-3aa80ac6a9eb","ios":"levelo://app?vid=cc8dbedf-d086-4be0-86af-3aa80ac6a9eb"},"vehicle_type_id":"4","last_reported":1706987063,"current_range_meters":16800,"station_id":"ce4bgip2rcd13ifvqbb0","pricing_plan_id":"free"},{"bike_id":"e412e197-0e7e-44de-b196-74c60f6bb06b","system_id":"levelo_inurba_marseille","lat":43.30442,"lon":5.38884,"is_reserved":false,"is_disabled":false,"rental_uris":{"android":"levelo://app?vid=e412e197-0e7e-44de-b196-74c60f6bb06b","ios":"levelo://app?vid=e412e197-0e7e-44de-b196-74c60f6bb06b"},"vehicle_type_id":"4","last_reported":1706987063,"current_range_meters":9600,"station_id":"ce4bgk12rcd13ifvqbi0","pricing_plan_id":"free"},{"bike_id":"8f7a558d-dfc7-4164-b444-10ec8f28a66a","system_id":"levelo_inurba_marseille","lat":43.29794,"lon":5.381,"is_reserved":false,"is_disabled":false,"rental_uris":{"android":"levelo://app?vid=8f7a558d-dfc7-4164-b444-10ec8f28a66a","ios":"levelo://app?vid=8f7a558d-dfc7-4164-b444-10ec8f28a66a"},"vehicle_type_id":"4","last_reported":1706987063,"current_range_meters":21200,"station_id":"ce4bgip2rcd13ifvqbb0","pricing_plan_id":"free"},{"bike_id":"0e20dbad-f3ab-4402-a19a-857fe67c1d91","system_id":"levelo_inurba_marseille","lat":43.298037,"lon":5.381066,"is_reserved":false,"is_disabled":false,"rental_uris":{"android":"levelo://app?vid=0e20dbad-f3ab-4402-a19a-857fe67c1d91","ios":"levelo://app?vid=0e20dbad-f3ab-4402-a19a-857fe67c1d91"},"vehicle_type_id":"4","last_reported":1706987063,"current_range_meters":0,"station_id":"ce4bgip2rcd13ifvqbb0","pricing_plan_id":"free"},{"bike_id":"97f15396-3b7d-46c9-817a-4b5088e1e2e1","system_id":"levelo_inurba_marseille","lat":43.30435,"lon":5.38883,"is_reserved":false,"is_disabled":false,"rental_uris":{"android":"levelo://app?vid=97f15396-3b7d-46c9-817a-4b5088e1e2e1","ios":"levelo://app?vid=97f15396-3b7d-46c9-817a-4b5088e1e2e1"},"vehicle_type_id":"4","last_reported":1706987063,"current_range_meters":14800,"station_id":"ce4bgk12rcd13ifvqbi0","pricing_plan_id":"free"},{"bike_id":"b54ccfa5-6768-4198-956d-798e2f4ed4f8","system_id":"levelo_inurba_marseille","lat":43.298037,"lon":5.381066,"is_reserved":false,"is_disabled":false,"rental_uris":{"android":"levelo://app?vid=b54ccfa5-6768-4198-956d-798e2f4ed4f8","ios":"levelo://app?vid=b54ccfa5-6768-4198-956d-798e2f4ed4f8"},"vehicle_type_id":"4","last_reported":1706987063,"current_range_meters":6400,"station_id":"ce4bgip2rcd13ifvqbb0","pricing_plan_id":"free"},{"bike_id":"ec317815-3fb8-40a1-abec-cc0abf2ea51e","system_id":"levelo_inurba_marseille","lat":43.30431,"lon":5.38889,"is_reserved":false,"is_disabled":false,"rental_uris":{"android":"levelo://app?vid=ec317815-3fb8-40a1-abec-cc0abf2ea51e","ios":"levelo://app?vid=ec317815-3fb8-40a1-abec-cc0abf2ea51e"},"vehicle_type_id":"4","last_reported":1706987063,"current_range_meters":3600,"station_id":"ce4bgk12rcd13ifvqbi0","pricing_plan_id":"free"},{"bike_id":"fef4f448-289d-4857-a2a1-25dd96b158a5","system_id":"levelo_inurba_marseille","lat":43.30431,"lon":5.388912,"is_reserved":false,"is_disabled":false,"rental_uris":{"android":"levelo://app?vid=fef4f448-289d-4857-a2a1-25dd96b158a5","ios":"levelo://app?vid=fef4f448-289d-4857-a2a1-25dd96b158a5"},"vehicle_type_id":"4","last_reported":1706987063,"current_range_meters":31200,"station_id":"ce4bgk12rcd13ifvqbi0","pricing_plan_id":"free"},{"bike_id":"8ddab245-0e20-4598-a0a8-f2d329f28666","system_id":"levelo_inurba_marseille","lat":43.30434,"lon":5.38895,"is_reserved":false,"is_disabled":false,"rental_uris":{"android":"levelo://app?vid=8ddab245-0e20-4598-a0a8-f2d329f28666","ios":"levelo://app?vid=8ddab245-0e20-4598-a0a8-f2d329f28666"},"vehicle_type_id":"4","last_reported":1706987063,"current_range_meters":5600,"station_id":"ce4bgk12rcd13ifvqbi0","pricing_plan_id":"free"},{"bike_id":"bf6cb17b-c68d-4463-8517-ac0b6075e752","system_id":"levelo_inurba_marseille","lat":43.30426,"lon":5.38894,"is_reserved":false,"is_disabled":false,"rental_uris":{"android":"levelo://app?vid=bf6cb17b-c68d-4463-8517-ac0b6075e752","ios":"levelo://app?vid=bf6cb17b-c68d-4463-8517-ac0b6075e752"},"vehicle_type_id":"4","last_reported":1706987063,"current_range_meters":4000,"station_id":"ce4bgk12rcd13ifvqbi0","pricing_plan_id":"free"},{"bike_id":"a234ecca-4f1d-40fd-a9c9-fbb135769320","system_id":"levelo_inurba_marseille","lat":43.30419,"lon":5.38897,"is_reserved":false,"is_disabled":false,"rental_uris":{"android":"levelo://app?vid=a234ecca-4f1d-40fd-a9c9-fbb135769320","ios":"levelo://app?vid=a234ecca-4f1d-40fd-a9c9-fbb135769320"},"vehicle_type_id":"4","last_reported":1706987063,"current_range_meters":4000,"station_id":"ce4bgk12rcd13ifvqbi0","pricing_plan_id":"free"},{"bike_id":"ea2ccae8-fbff-4e4c-a419-8f4a48acf3c6","system_id":"levelo_inurba_marseille","lat":43.295279,"lon":5.375048,"is_reserved":false,"is_disabled":false,"rental_uris":{"android":"levelo://app?vid=ea2ccae8-fbff-4e4c-a419-8f4a48acf3c6","ios":"levelo://app?vid=ea2ccae8-fbff-4e4c-a419-8f4a48acf3c6"},"vehicle_type_id":"4","last_reported":1706987063,"current_range_meters":18800,"station_id":"ce4bgkp2rcd13ifvqbmg","pricing_plan_id":"free"},{"bike_id":"cd4bc0c5-7145-4861-b221-3421fffff1d1","system_id":"levelo_inurba_marseille","lat":43.295279,"lon":5.375048,"is_reserved":false,"is_disabled":false,"rental_uris":{"android":"levelo://app?vid=cd4bc0c5-7145-4861-b221-3421fffff1d1","ios":"levelo://app?vid=cd4bc0c5-7145-4861-b221-3421fffff1d1"},"vehicle_type_id":"4","last_reported":1706987063,"current_range_meters":3200,"station_id":"ce4bgkp2rcd13ifvqbmg","pricing_plan_id":"free"},{"bike_id":"77975f93-e76e-4d54-9270-3cd90ff8bbef","system_id":"levelo_inurba_marseille","lat":43.295279,"lon":5.375048,"is_reserved":false,"is_disabled":false,"rental_uris":{"android":"levelo://app?vid=77975f93-e76e-4d54-9270-3cd90ff8bbef","ios":"levelo://app?vid=77975f93-e76e-4d54-9270-3cd90ff8bbef"},"vehicle_type_id":"4","last_reported":1706987063,"current_range_meters":3200,"station_id":"ce4bgkp2rcd13ifvqbmg","pricing_plan_id":"free"},{"bike_id":"1e31c188-c4ef-4a4b-95d5-884501236802","system_id":"levelo_inurba_marseille","lat":43.299728,"lon":5.384833,"is_reserved":false,"is_disabled":false,"rental_uris":{"android":"levelo://app?vid=1e31c188-c4ef-4a4b-95d5-884501236802","ios":"levelo://app?vid=1e31c188-c4ef-4a4b-95d5-884501236802"},"vehicle_type_id":"4","last_reported":1706987063,"current_range_meters":800,"station_id":"","pricing_plan_id":"free"},{"bike_id":"7232682b-3d00-4600-9469-f4f348e5738a","system_id":"levelo_inurba_marseille","lat":43.295279,"lon":5.375048,"is_reserved":false,"is_disabled":false,"rental_uris":{"android":"levelo://app?vid=7232682b-3d00-4600-9469-f4f348e5738a","ios":"levelo://app?vid=7232682b-3d00-4600-9469-f4f348e5738a"},"vehicle_type_id":"4","last_reported":1706987063,"current_range_meters":22000,"station_id":"ce4bgkp2rcd13ifvqbmg","pricing_plan_id":"free"},{"bike_id":"7db1a0fc-e1e2-424f-973f-a8351e941eed","system_id":"levelo_inurba_marseille","lat":43.295279,"lon":5.375048,"is_reserved":false,"is_disabled":false,"rental_uris":{"android":"levelo://app?vid=7db1a0fc-e1e2-424f-973f-a8351e941eed","ios":"levelo://app?vid=7db1a0fc-e1e2-424f-973f-a8351e941eed"},"vehicle_type_id":"4","last_reported":1706987063,"current_range_meters":5600,"station_id":"ce4bgkp2rcd13ifvqbmg","pricing_plan_id":"free"},{"bike_id":"f6cc9cc1-a4cf-4b18-af4e-ef0b0113b041","system_id":"levelo_inurba_marseille","lat":43.299707,"lon":5.384859,"is_reserved":false,"is_disabled":false,"rental_uris":{"android":"levelo://app?vid=f6cc9cc1-a4cf-4b18-af4e-ef0b0113b041","ios":"levelo://app?vid=f6cc9cc1-a4cf-4b18-af4e-ef0b0113b041"},"vehicle_type_id":"4","last_reported":1706987063,"current_range_meters":5600,"station_id":"ce4bgj92rcd13ifvqbd0","pricing_plan_id":"free"},{"bike_id":"9ac5e273-8493-47ab-a728-d1ef7a42fe92","system_id":"levelo_inurba_marseille","lat":43.299707,"lon":5.384859,"is_reserved":false,"is_disabled":false,"rental_uris":{"android":"levelo://app?vid=9ac5e273-8493-47ab-a728-d1ef7a42fe92","ios":"levelo://app?vid=9ac5e273-8493-47ab-a728-d1ef7a42fe92"},"vehicle_type_id":"4","last_reported":1706987063,"current_range_meters":19200,"station_id":"ce4bgj92rcd13ifvqbd0","pricing_plan_id":"free"},{"bike_id":"4ae474f5-2672-4478-913b-612b4e68aa52","system_id":"levelo_inurba_marseille","lat":43.299707,"lon":5.384859,"is_reserved":false,"is_disabled":false,"rental_uris":{"android":"levelo://app?vid=4ae474f5-2672-4478-913b-612b4e68aa52","ios":"levelo://app?vid=4ae474f5-2672-4478-913b-612b4e68aa52"},"vehicle_type_id":"4","last_reported":1706987063,"current_range_meters":14800,"station_id":"ce4bgj92rcd13ifvqbd0","pricing_plan_id":"free"},{"bike_id":"b564cad4-c581-46c7-9c50-8440bce08863","system_id":"levelo_inurba_marseille","lat":43.299724,"lon":5.384848,"is_reserved":false,"is_disabled":false,"rental_uris":{"android":"levelo://app?vid=b564cad4-c581-46c7-9c50-8440bce08863","ios":"levelo://app?vid=b564cad4-c581-46c7-9c50-8440bce08863"},"vehicle_type_id":"4","last_reported":1706987063,"current_range_meters":16800,"station_id":"ce4bgj92rcd13ifvqbd0","pricing_plan_id":"free"},{"bike_id":"aa54288f-2afb-41a0-94cc-1be704438bc0","system_id":"levelo_inurba_marseille","lat":43.295279,"lon":5.375048,"is_reserved":false,"is_disabled":false,"rental_uris":{"android":"levelo://app?vid=aa54288f-2afb-41a0-94cc-1be704438bc0","ios":"levelo://app?vid=aa54288f-2afb-41a0-94cc-1be704438bc0"},"vehicle_type_id":"4","last_reported":1706987063,"current_range_meters":19200,"station_id":"ce4bgkp2rcd13ifvqbmg","pricing_plan_id":"free"},{"bike_id":"5e8aea1c-ba9f-46ee-8136-292a0a4f5caa","system_id":"levelo_inurba_marseille","lat":43.299717,"lon":5.384845,"is_reserved":false,"is_disabled":false,"rental_uris":{"android":"levelo://app?vid=5e8aea1c-ba9f-46ee-8136-292a0a4f5caa","ios":"levelo://app?vid=5e8aea1c-ba9f-46ee-8136-292a0a4f5caa"},"vehicle_type_id":"4","last_reported":1706987063,"current_range_meters":23600,"station_id":"ce4bgj92rcd13ifvqbd0","pricing_plan_id":"free"},{"bike_id":"0558f35c-25a3-48fe-b924-e93ac688376d","system_id":"levelo_inurba_marseille","lat":43.295279,"lon":5.375048,"is_reserved":false,"is_disabled":false,"rental_uris":{"android":"levelo://app?vid=0558f35c-25a3-48fe-b924-e93ac688376d","ios":"levelo://app?vid=0558f35c-25a3-48fe-b924-e93ac688376d"},"vehicle_type_id":"4","last_reported":1706987063,"current_range_meters":25200,"station_id":"ce4bgkp2rcd13ifvqbmg","pricing_plan_id":"free"},{"bike_id":"bb0dd7df-fe30-464d-9e7d-7767cff2f182","system_id":"levelo_inurba_marseille","lat":43.299724,"lon":5.384848,"is_reserved":false,"is_disabled":false,"rental_uris":{"android":"levelo://app?vid=bb0dd7df-fe30-464d-9e7d-7767cff2f182","ios":"levelo://app?vid=bb0dd7df-fe30-464d-9e7d-7767cff2f182"},"vehicle_type_id":"4","last_reported":1706987063,"current_range_meters":10800,"station_id":"ce4bgj92rcd13ifvqbd0","pricing_plan_id":"free"},{"bike_id":"c6478534-8a92-48aa-87e2-bf565bc04fb6","system_id":"levelo_inurba_marseille","lat":43.323643,"lon":5.388761,"is_reserved":false,"is_disabled":false,"rental_uris":{"android":"levelo://app?vid=c6478534-8a92-48aa-87e2-bf565bc04fb6","ios":"levelo://app?vid=c6478534-8a92-48aa-87e2-bf565bc04fb6"},"vehicle_type_id":"4","last_reported":1706987063,"current_range_meters":6000,"station_id":"ce4bhqp2rcd13ifvqhog","pricing_plan_id":"free"},{"bike_id":"62a9b393-09b1-4b3b-91a3-6352eceb9b04","system_id":"levelo_inurba_marseille","lat":43.32367,"lon":5.388836,"is_reserved":false,"is_disabled":false,"rental_uris":{"android":"levelo://app?vid=62a9b393-09b1-4b3b-91a3-6352eceb9b04","ios":"levelo://app?vid=62a9b393-09b1-4b3b-91a3-6352eceb9b04"},"vehicle_type_id":"4","last_reported":1706987063,"current_range_meters":8000,"station_id":"ce4bhqp2rcd13ifvqhog","pricing_plan_id":"free"},{"bike_id":"f7f8fbd6-aac4-479c-9229-6747d802c06f","system_id":"levelo_inurba_marseille","lat":43.32366,"lon":5.38882,"is_reserved":false,"is_disabled":false,"rental_uris":{"android":"levelo://app?vid=f7f8fbd6-aac4-479c-9229-6747d802c06f","ios":"levelo://app?vid=f7f8fbd6-aac4-479c-9229-6747d802c06f"},"vehicle_type_id":"4","last_reported":1706987063,"current_range_meters":1600,"station_id":"ce4bhqp2rcd13ifvqhog","pricing_plan_id":"free"},{"bike_id":"5301d215-ac37-4c0b-8c85-e55b2e7ac30e","system_id":"levelo_inurba_marseille","lat":43.32367,"lon":5.38883,"is_reserved":false,"is_disabled":false,"rental_uris":{"android":"levelo://app?vid=5301d215-ac37-4c0b-8c85-e55b2e7ac30e","ios":"levelo://app?vid=5301d215-ac37-4c0b-8c85-e55b2e7ac30e"},"vehicle_type_id":"4","last_reported":1706987063,"current_range_meters":19200,"station_id":"ce4bhqp2rcd13ifvqhog","pricing_plan_id":"free"},{"bike_id":"6ddd6644-0475-4d38-97ea-3c5cc97bcc31","system_id":"levelo_inurba_marseille","lat":43.32367,"lon":5.388836,"is_reserved":false,"is_disabled":false,"rental_uris":{"android":"levelo://app?vid=6ddd6644-0475-4d38-97ea-3c5cc97bcc31","ios":"levelo://app?vid=6ddd6644-0475-4d38-97ea-3c5cc97bcc31"},"vehicle_type_id":"4","last_reported":1706987063,"current_range_meters":12400,"station_id":"ce4bhqp2rcd13ifvqhog","pricing_plan_id":"free"},{"bike_id":"c25fc67a-bf97-4f21-9916-d0fe78b3e657","system_id":"levelo_inurba_marseille","lat":43.32363,"lon":5.38892,"is_reserved":false,"is_disabled":false,"rental_uris":{"android":"levelo://app?vid=c25fc67a-bf97-4f21-9916-d0fe78b3e657","ios":"levelo://app?vid=c25fc67a-bf97-4f21-9916-d0fe78b3e657"},"vehicle_type_id":"4","last_reported":1706987063,"current_range_meters":24000,"station_id":"ce4bhqp2rcd13ifvqhog","pricing_plan_id":"free"},{"bike_id":"6000f0dc-1f4b-4a79-83b1-26d1a94d5811","system_id":"levelo_inurba_marseille","lat":43.32366,"lon":5.3889,"is_reserved":false,"is_disabled":false,"rental_uris":{"android":"levelo://app?vid=6000f0dc-1f4b-4a79-83b1-26d1a94d5811","ios":"levelo://app?vid=6000f0dc-1f4b-4a79-83b1-26d1a94d5811"},"vehicle_type_id":"4","last_reported":1706987063,"current_range_meters":6400,"station_id":"ce4bhqp2rcd13ifvqhog","pricing_plan_id":"free"},{"bike_id":"75ed1df4-b7df-4e88-9e9a-696a19f1762a","system_id":"levelo_inurba_marseille","lat":43.32373,"lon":5.38885,"is_reserved":false,"is_disabled":false,"rental_uris":{"android":"levelo://app?vid=75ed1df4-b7df-4e88-9e9a-696a19f1762a","ios":"levelo://app?vid=75ed1df4-b7df-4e88-9e9a-696a19f1762a"},"vehicle_type_id":"4","last_reported":1706987063,"current_range_meters":9600,"station_id":"ce4bhqp2rcd13ifvqhog","pricing_plan_id":"free"},{"bike_id":"9b081c91-637e-47ff-a6d8-ba13bb5f1be4","system_id":"levelo_inurba_marseille","lat":43.32367,"lon":5.388836,"is_reserved":false,"is_disabled":false,"rental_uris":{"android":"levelo://app?vid=9b081c91-637e-47ff-a6d8-ba13bb5f1be4","ios":"levelo://app?vid=9b081c91-637e-47ff-a6d8-ba13bb5f1be4"},"vehicle_type_id":"4","last_reported":1706987063,"current_range_meters":30000,"station_id":"ce4bhqp2rcd13ifvqhog","pricing_plan_id":"free"},{"bike_id":"86690f2d-bc79-4602-9fc0-888cbe1590d1","system_id":"levelo_inurba_marseille","lat":43.3237,"lon":5.38889,"is_reserved":false,"is_disabled":false,"rental_uris":{"android":"levelo://app?vid=86690f2d-bc79-4602-9fc0-888cbe1590d1","ios":"levelo://app?vid=86690f2d-bc79-4602-9fc0-888cbe1590d1"},"vehicle_type_id":"4","last_reported":1706987063,"current_range_meters":21600,"station_id":"ce4bhqp2rcd13ifvqhog","pricing_plan_id":"free"},{"bike_id":"816f64e3-f285-49a2-be08-54797e0cf38e","system_id":"levelo_inurba_marseille","lat":43.29602,"lon":5.381084,"is_reserved":false,"is_disabled":false,"rental_uris":{"android":"levelo://app?vid=816f64e3-f285-49a2-be08-54797e0cf38e","ios":"levelo://app?vid=816f64e3-f285-49a2-be08-54797e0cf38e"},"vehicle_type_id":"4","last_reported":1706987063,"current_range_meters":2800,"station_id":"ce4bgl12rcd13ifvqbo0","pricing_plan_id":"free"},{"bike_id":"eb4b0f1c-2468-4e49-b385-e79bb7f3f706","system_id":"levelo_inurba_marseille","lat":43.29602,"lon":5.381084,"is_reserved":false,"is_disabled":false,"rental_uris":{"android":"levelo://app?vid=eb4b0f1c-2468-4e49-b385-e79bb7f3f706","ios":"levelo://app?vid=eb4b0f1c-2468-4e49-b385-e79bb7f3f706"},"vehicle_type_id":"4","last_reported":1706987063,"current_range_meters":3600,"station_id":"ce4bgl12rcd13ifvqbo0","pricing_plan_id":"free"},{"bike_id":"b58f6d08-53ca-4365-a518-aa98e59fb592","system_id":"levelo_inurba_marseille","lat":43.29602,"lon":5.381084,"is_reserved":false,"is_disabled":false,"rental_uris":{"android":"levelo://app?vid=b58f6d08-53ca-4365-a518-aa98e59fb592","ios":"levelo://app?vid=b58f6d08-53ca-4365-a518-aa98e59fb592"},"vehicle_type_id":"4","last_reported":1706987063,"current_range_meters":4400,"station_id":"ce4bgl12rcd13ifvqbo0","pricing_plan_id":"free"},{"bike_id":"20071613-30c5-4b0d-b994-0116ed78292f","system_id":"levelo_inurba_marseille","lat":43.296169,"lon":5.381288,"is_reserved":false,"is_disabled":false,"rental_uris":{"android":"levelo://app?vid=20071613-30c5-4b0d-b994-0116ed78292f","ios":"levelo://app?vid=20071613-30c5-4b0d-b994-0116ed78292f"},"vehicle_type_id":"4","last_reported":1706987063,"current_range_meters":0,"station_id":"","pricing_plan_id":"free"},{"bike_id":"32146f22-f5a7-45ff-8a2d-b77d3fb9a5cb","system_id":"levelo_inurba_marseille","lat":43.29602,"lon":5.381084,"is_reserved":false,"is_disabled":false,"rental_uris":{"android":"levelo://app?vid=32146f22-f5a7-45ff-8a2d-b77d3fb9a5cb","ios":"levelo://app?vid=32146f22-f5a7-45ff-8a2d-b77d3fb9a5cb"},"vehicle_type_id":"4","last_reported":1706987063,"current_range_meters":0,"station_id":"ce4bgl12rcd13ifvqbo0","pricing_plan_id":"free"},{"bike_id":"ffe6c0fc-47db-4933-913f-e2fa92cdb517","system_id":"levelo_inurba_marseille","lat":43.29602,"lon":5.381084,"is_reserved":false,"is_disabled":false,"rental_uris":{"android":"levelo://app?vid=ffe6c0fc-47db-4933-913f-e2fa92cdb517","ios":"levelo://app?vid=ffe6c0fc-47db-4933-913f-e2fa92cdb517"},"vehicle_type_id":"4","last_reported":1706987063,"current_range_meters":19600,"station_id":"ce4bgl12rcd13ifvqbo0","pricing_plan_id":"free"},{"bike_id":"5b007e18-ee47-4319-b21a-4f8bdb70eb5b","system_id":"levelo_inurba_marseille","lat":43.29602,"lon":5.381084,"is_reserved":false,"is_disabled":false,"rental_uris":{"android":"levelo://app?vid=5b007e18-ee47-4319-b21a-4f8bdb70eb5b","ios":"levelo://app?vid=5b007e18-ee47-4319-b21a-4f8bdb70eb5b"},"vehicle_type_id":"4","last_reported":1706987063,"current_range_meters":10800,"station_id":"ce4bgl12rcd13ifvqbo0","pricing_plan_id":"free"},{"bike_id":"6eff02de-4419-41de-af2f-7355d06b78e6","system_id":"levelo_inurba_marseille","lat":43.293249,"lon":5.371578,"is_reserved":false,"is_disabled":false,"rental_uris":{"android":"levelo://app?vid=6eff02de-4419-41de-af2f-7355d06b78e6","ios":"levelo://app?vid=6eff02de-4419-41de-af2f-7355d06b78e6"},"vehicle_type_id":"4","last_reported":1706987063,"current_range_meters":30400,"station_id":"ce4bgh92rcd13ifvqb40","pricing_plan_id":"free"},{"bike_id":"435373c4-36cb-4e29-b408-d7abae45d4bd","system_id":"levelo_inurba_marseille","lat":43.29307,"lon":5.37176,"is_reserved":false,"is_disabled":false,"rental_uris":{"android":"levelo://app?vid=435373c4-36cb-4e29-b408-d7abae45d4bd","ios":"levelo://app?vid=435373c4-36cb-4e29-b408-d7abae45d4bd"},"vehicle_type_id":"4","last_reported":1706987063,"current_range_meters":800,"station_id":"ce4bgh92rcd13ifvqb40","pricing_plan_id":"free"},{"bike_id":"665d1a16-279e-4d94-a78c-663de898f9f8","system_id":"levelo_inurba_marseille","lat":43.293259,"lon":5.371586,"is_reserved":false,"is_disabled":false,"rental_uris":{"android":"levelo://app?vid=665d1a16-279e-4d94-a78c-663de898f9f8","ios":"levelo://app?vid=665d1a16-279e-4d94-a78c-663de898f9f8"},"vehicle_type_id":"4","last_reported":1706987063,"current_range_meters":7600,"station_id":"ce4bgh92rcd13ifvqb40","pricing_plan_id":"free"},{"bike_id":"21d84b42-646e-4270-91dc-4fe18949c184","system_id":"levelo_inurba_marseille","lat":43.292749,"lon":5.368402,"is_reserved":false,"is_disabled":false,"rental_uris":{"android":"levelo://app?vid=21d84b42-646e-4270-91dc-4fe18949c184","ios":"levelo://app?vid=21d84b42-646e-4270-91dc-4fe18949c184"},"vehicle_type_id":"4","last_reported":1706987063,"current_range_meters":4800,"station_id":"ce4bhbp2rcd13ifvqesg","pricing_plan_id":"free"},{"bike_id":"30b214e1-a1ec-4d1e-8972-8cbf0b120850","system_id":"levelo_inurba_marseille","lat":43.293067,"lon":5.374653,"is_reserved":false,"is_disabled":false,"rental_uris":{"android":"levelo://app?vid=30b214e1-a1ec-4d1e-8972-8cbf0b120850","ios":"levelo://app?vid=30b214e1-a1ec-4d1e-8972-8cbf0b120850"},"vehicle_type_id":"4","last_reported":1706987063,"current_range_meters":0,"station_id":"ce4bgi12rcd13ifvqb70","pricing_plan_id":"free"},{"bike_id":"b0da8e08-4b4b-4769-8229-27289b23fd38","system_id":"levelo_inurba_marseille","lat":43.305994,"lon":5.393687,"is_reserved":false,"is_disabled":false,"rental_uris":{"android":"levelo://app?vid=b0da8e08-4b4b-4769-8229-27289b23fd38","ios":"levelo://app?vid=b0da8e08-4b4b-4769-8229-27289b23fd38"},"vehicle_type_id":"4","last_reported":1706987063,"current_range_meters":0,"station_id":"ce4bh0p2rcd13ifvqd80","pricing_plan_id":"free"},{"bike_id":"619e760d-610f-418a-95eb-325eb7cdc2f7","system_id":"levelo_inurba_marseille","lat":43.305994,"lon":5.393687,"is_reserved":false,"is_disabled":false,"rental_uris":{"android":"levelo://app?vid=619e760d-610f-418a-95eb-325eb7cdc2f7","ios":"levelo://app?vid=619e760d-610f-418a-95eb-325eb7cdc2f7"},"vehicle_type_id":"4","last_reported":1706987063,"current_range_meters":22000,"station_id":"ce4bh0p2rcd13ifvqd80","pricing_plan_id":"free"},{"bike_id":"b61d9c57-15b8-441a-b93a-71aedf1616b9","system_id":"levelo_inurba_marseille","lat":43.305994,"lon":5.393687,"is_reserved":false,"is_disabled":false,"rental_uris":{"android":"levelo://app?vid=b61d9c57-15b8-441a-b93a-71aedf1616b9","ios":"levelo://app?vid=b61d9c57-15b8-441a-b93a-71aedf1616b9"},"vehicle_type_id":"4","last_reported":1706987063,"current_range_meters":15600,"station_id":"ce4bh0p2rcd13ifvqd80","pricing_plan_id":"free"},{"bike_id":"fa328822-48f6-4f94-943c-09beb1b6b590","system_id":"levelo_inurba_marseille","lat":43.305994,"lon":5.393687,"is_reserved":false,"is_disabled":false,"rental_uris":{"android":"levelo://app?vid=fa328822-48f6-4f94-943c-09beb1b6b590","ios":"levelo://app?vid=fa328822-48f6-4f94-943c-09beb1b6b590"},"vehicle_type_id":"4","last_reported":1706987063,"current_range_meters":3200,"station_id":"ce4bh0p2rcd13ifvqd80","pricing_plan_id":"free"},{"bike_id":"23ef7f18-f2f6-4c9a-99e0-8b5996a1cce3","system_id":"levelo_inurba_marseille","lat":43.305994,"lon":5.393687,"is_reserved":false,"is_disabled":false,"rental_uris":{"android":"levelo://app?vid=23ef7f18-f2f6-4c9a-99e0-8b5996a1cce3","ios":"levelo://app?vid=23ef7f18-f2f6-4c9a-99e0-8b5996a1cce3"},"vehicle_type_id":"4","last_reported":1706987063,"current_range_meters":4400,"station_id":"ce4bh0p2rcd13ifvqd80","pricing_plan_id":"free"},{"bike_id":"a5fe5087-d221-4814-84af-d60a17492723","system_id":"levelo_inurba_marseille","lat":43.305994,"lon":5.393687,"is_reserved":false,"is_disabled":false,"rental_uris":{"android":"levelo://app?vid=a5fe5087-d221-4814-84af-d60a17492723","ios":"levelo://app?vid=a5fe5087-d221-4814-84af-d60a17492723"},"vehicle_type_id":"4","last_reported":1706987063,"current_range_meters":7200,"station_id":"ce4bh0p2rcd13ifvqd80","pricing_plan_id":"free"},{"bike_id":"96cccf2d-f550-44c7-856b-89a6fd93b509","system_id":"levelo_inurba_marseille","lat":43.305994,"lon":5.393687,"is_reserved":false,"is_disabled":false,"rental_uris":{"android":"levelo://app?vid=96cccf2d-f550-44c7-856b-89a6fd93b509","ios":"levelo://app?vid=96cccf2d-f550-44c7-856b-89a6fd93b509"},"vehicle_type_id":"4","last_reported":1706987063,"current_range_meters":15200,"station_id":"ce4bh0p2rcd13ifvqd80","pricing_plan_id":"free"},{"bike_id":"8c0e7f60-2783-4d9e-8a14-997e9f640f66","system_id":"levelo_inurba_marseille","lat":43.305994,"lon":5.393687,"is_reserved":false,"is_disabled":false,"rental_uris":{"android":"levelo://app?vid=8c0e7f60-2783-4d9e-8a14-997e9f640f66","ios":"levelo://app?vid=8c0e7f60-2783-4d9e-8a14-997e9f640f66"},"vehicle_type_id":"4","last_reported":1706987063,"current_range_meters":13600,"station_id":"ce4bh0p2rcd13ifvqd80","pricing_plan_id":"free"},{"bike_id":"d236b600-9bd2-4572-bfb5-d8d2c00e1e01","system_id":"levelo_inurba_marseille","lat":43.303002,"lon":5.392142,"is_reserved":false,"is_disabled":false,"rental_uris":{"android":"levelo://app?vid=d236b600-9bd2-4572-bfb5-d8d2c00e1e01","ios":"levelo://app?vid=d236b600-9bd2-4572-bfb5-d8d2c00e1e01"},"vehicle_type_id":"4","last_reported":1706987063,"current_range_meters":0,"station_id":"ce4bgkh2rcd13ifvqbk0","pricing_plan_id":"free"},{"bike_id":"c128334d-f46c-4159-abab-27bf5dcc281e","system_id":"levelo_inurba_marseille","lat":43.30297,"lon":5.39213,"is_reserved":false,"is_disabled":false,"rental_uris":{"android":"levelo://app?vid=c128334d-f46c-4159-abab-27bf5dcc281e","ios":"levelo://app?vid=c128334d-f46c-4159-abab-27bf5dcc281e"},"vehicle_type_id":"4","last_reported":1706987063,"current_range_meters":5600,"station_id":"ce4bgkh2rcd13ifvqbk0","pricing_plan_id":"free"},{"bike_id":"ab1fcf89-4c49-411c-b188-d8895c0a2567","system_id":"levelo_inurba_marseille","lat":43.30308,"lon":5.39222,"is_reserved":false,"is_disabled":false,"rental_uris":{"android":"levelo://app?vid=ab1fcf89-4c49-411c-b188-d8895c0a2567","ios":"levelo://app?vid=ab1fcf89-4c49-411c-b188-d8895c0a2567"},"vehicle_type_id":"4","last_reported":1706987063,"current_range_meters":0,"station_id":"ce4bgkh2rcd13ifvqbk0","pricing_plan_id":"free"},{"bike_id":"3ca1ccad-b215-4a4c-8cf9-b4e48a44cf0d","system_id":"levelo_inurba_marseille","lat":43.292311,"lon":5.360731,"is_reserved":false,"is_disabled":false,"rental_uris":{"android":"levelo://app?vid=3ca1ccad-b215-4a4c-8cf9-b4e48a44cf0d","ios":"levelo://app?vid=3ca1ccad-b215-4a4c-8cf9-b4e48a44cf0d"},"vehicle_type_id":"4","last_reported":1706987063,"current_range_meters":0,"station_id":"ce4bhbh2rcd13ifvqeqg","pricing_plan_id":"free"},{"bike_id":"95e75154-bb11-4fe7-a421-5a0718287c4b","system_id":"levelo_inurba_marseille","lat":43.293009,"lon":5.374584,"is_reserved":false,"is_disabled":false,"rental_uris":{"android":"levelo://app?vid=95e75154-bb11-4fe7-a421-5a0718287c4b","ios":"levelo://app?vid=95e75154-bb11-4fe7-a421-5a0718287c4b"},"vehicle_type_id":"4","last_reported":1706987063,"current_range_meters":14400,"station_id":"ce4bgi12rcd13ifvqb70","pricing_plan_id":"free"},{"bike_id":"f20ebac8-851c-4e23-93e7-e3113c7f799a","system_id":"levelo_inurba_marseille","lat":43.293009,"lon":5.374584,"is_reserved":false,"is_disabled":false,"rental_uris":{"android":"levelo://app?vid=f20ebac8-851c-4e23-93e7-e3113c7f799a","ios":"levelo://app?vid=f20ebac8-851c-4e23-93e7-e3113c7f799a"},"vehicle_type_id":"4","last_reported":1706987063,"current_range_meters":11600,"station_id":"ce4bgi12rcd13ifvqb70","pricing_plan_id":"free"},{"bike_id":"74f2d920-ccf9-4c3b-9cd7-57a24e774103","system_id":"levelo_inurba_marseille","lat":43.293009,"lon":5.374584,"is_reserved":false,"is_disabled":false,"rental_uris":{"android":"levelo://app?vid=74f2d920-ccf9-4c3b-9cd7-57a24e774103","ios":"levelo://app?vid=74f2d920-ccf9-4c3b-9cd7-57a24e774103"},"vehicle_type_id":"4","last_reported":1706987063,"current_range_meters":16800,"station_id":"ce4bgi12rcd13ifvqb70","pricing_plan_id":"free"},{"bike_id":"0fd3f839-2e6a-4a66-a8cf-b56b88eac023","system_id":"levelo_inurba_marseille","lat":43.291671,"lon":5.371575,"is_reserved":false,"is_disabled":false,"rental_uris":{"android":"levelo://app?vid=0fd3f839-2e6a-4a66-a8cf-b56b88eac023","ios":"levelo://app?vid=0fd3f839-2e6a-4a66-a8cf-b56b88eac023"},"vehicle_type_id":"4","last_reported":1706987063,"current_range_meters":0,"station_id":"ce4bha92rcd13ifvqeh0","pricing_plan_id":"free"},{"bike_id":"90190fbd-f073-40ac-aeec-1c5257224979","system_id":"levelo_inurba_marseille","lat":43.298764,"lon":5.388973,"is_reserved":false,"is_disabled":false,"rental_uris":{"android":"levelo://app?vid=90190fbd-f073-40ac-aeec-1c5257224979","ios":"levelo://app?vid=90190fbd-f073-40ac-aeec-1c5257224979"},"vehicle_type_id":"4","last_reported":1706987063,"current_range_meters":400,"station_id":"ce4bh392rcd13ifvqdl0","pricing_plan_id":"free"},{"bike_id":"0c3a89c8-e0b9-4d72-8129-884d4e77c7f1","system_id":"levelo_inurba_marseille","lat":43.302197,"lon":5.39279,"is_reserved":false,"is_disabled":false,"rental_uris":{"android":"levelo://app?vid=0c3a89c8-e0b9-4d72-8129-884d4e77c7f1","ios":"levelo://app?vid=0c3a89c8-e0b9-4d72-8129-884d4e77c7f1"},"vehicle_type_id":"4","last_reported":1706987063,"current_range_meters":15200,"station_id":"","pricing_plan_id":"free"},{"bike_id":"8fb51ee4-cd48-45ed-914a-94e780c979ac","system_id":"levelo_inurba_marseille","lat":43.29199,"lon":5.35806,"is_reserved":false,"is_disabled":false,"rental_uris":{"android":"levelo://app?vid=8fb51ee4-cd48-45ed-914a-94e780c979ac","ios":"levelo://app?vid=8fb51ee4-cd48-45ed-914a-94e780c979ac"},"vehicle_type_id":"4","last_reported":1706987063,"current_range_meters":0,"station_id":"ce4bhb12rcd13ifvqel0","pricing_plan_id":"free"},{"bike_id":"71d892ca-8afa-4fb8-84fd-1f52ae6d230a","system_id":"levelo_inurba_marseille","lat":43.313291,"lon":5.396838,"is_reserved":false,"is_disabled":false,"rental_uris":{"android":"levelo://app?vid=71d892ca-8afa-4fb8-84fd-1f52ae6d230a","ios":"levelo://app?vid=71d892ca-8afa-4fb8-84fd-1f52ae6d230a"},"vehicle_type_id":"4","last_reported":1706987063,"current_range_meters":24400,"station_id":"ce4bgvp2rcd13ifvqcu0","pricing_plan_id":"free"},{"bike_id":"5046fb4d-d23f-4f1a-81cf-3c2eec2a0961","system_id":"levelo_inurba_marseille","lat":43.291994,"lon":5.357886,"is_reserved":false,"is_disabled":false,"rental_uris":{"android":"levelo://app?vid=5046fb4d-d23f-4f1a-81cf-3c2eec2a0961","ios":"levelo://app?vid=5046fb4d-d23f-4f1a-81cf-3c2eec2a0961"},"vehicle_type_id":"4","last_reported":1706987063,"current_range_meters":0,"station_id":"ce4bhb12rcd13ifvqel0","pricing_plan_id":"free"},{"bike_id":"61386ac0-ab9d-47f6-bacc-e27511b3bdf0","system_id":"levelo_inurba_marseille","lat":43.309038,"lon":5.396546,"is_reserved":false,"is_disabled":false,"rental_uris":{"android":"levelo://app?vid=61386ac0-ab9d-47f6-bacc-e27511b3bdf0","ios":"levelo://app?vid=61386ac0-ab9d-47f6-bacc-e27511b3bdf0"},"vehicle_type_id":"4","last_reported":1706987063,"current_range_meters":2400,"station_id":"ce4bh012rcd13ifvqcv0","pricing_plan_id":"free"},{"bike_id":"385cce40-55a3-43b8-a035-9dc360438cdd","system_id":"levelo_inurba_marseille","lat":43.30894,"lon":5.39641,"is_reserved":false,"is_disabled":false,"rental_uris":{"android":"levelo://app?vid=385cce40-55a3-43b8-a035-9dc360438cdd","ios":"levelo://app?vid=385cce40-55a3-43b8-a035-9dc360438cdd"},"vehicle_type_id":"4","last_reported":1706987063,"current_range_meters":0,"station_id":"ce4bh012rcd13ifvqcv0","pricing_plan_id":"free"},{"bike_id":"fe835c65-d2e4-4380-8488-08bea61ce92f","system_id":"levelo_inurba_marseille","lat":43.313291,"lon":5.396838,"is_reserved":false,"is_disabled":false,"rental_uris":{"android":"levelo://app?vid=fe835c65-d2e4-4380-8488-08bea61ce92f","ios":"levelo://app?vid=fe835c65-d2e4-4380-8488-08bea61ce92f"},"vehicle_type_id":"4","last_reported":1706987063,"current_range_meters":12000,"station_id":"ce4bgvp2rcd13ifvqcu0","pricing_plan_id":"free"},{"bike_id":"1a4ab157-e027-4016-98c9-e3d9a903b38f","system_id":"levelo_inurba_marseille","lat":43.313291,"lon":5.396838,"is_reserved":false,"is_disabled":false,"rental_uris":{"android":"levelo://app?vid=1a4ab157-e027-4016-98c9-e3d9a903b38f","ios":"levelo://app?vid=1a4ab157-e027-4016-98c9-e3d9a903b38f"},"vehicle_type_id":"4","last_reported":1706987063,"current_range_meters":14800,"station_id":"ce4bgvp2rcd13ifvqcu0","pricing_plan_id":"free"},{"bike_id":"f2aa7e67-1455-42bd-b0e3-391b93007cc8","system_id":"levelo_inurba_marseille","lat":43.309038,"lon":5.396546,"is_reserved":false,"is_disabled":false,"rental_uris":{"android":"levelo://app?vid=f2aa7e67-1455-42bd-b0e3-391b93007cc8","ios":"levelo://app?vid=f2aa7e67-1455-42bd-b0e3-391b93007cc8"},"vehicle_type_id":"4","last_reported":1706987063,"current_range_meters":9600,"station_id":"ce4bh012rcd13ifvqcv0","pricing_plan_id":"free"},{"bike_id":"c8a7c4c5-ebac-439d-a15c-5027d9b31059","system_id":"levelo_inurba_marseille","lat":43.309038,"lon":5.396546,"is_reserved":false,"is_disabled":false,"rental_uris":{"android":"levelo://app?vid=c8a7c4c5-ebac-439d-a15c-5027d9b31059","ios":"levelo://app?vid=c8a7c4c5-ebac-439d-a15c-5027d9b31059"},"vehicle_type_id":"4","last_reported":1706987063,"current_range_meters":4800,"station_id":"ce4bh012rcd13ifvqcv0","pricing_plan_id":"free"},{"bike_id":"68b762b9-a01d-499d-978b-ae9efd62da50","system_id":"levelo_inurba_marseille","lat":43.313291,"lon":5.396838,"is_reserved":false,"is_disabled":false,"rental_uris":{"android":"levelo://app?vid=68b762b9-a01d-499d-978b-ae9efd62da50","ios":"levelo://app?vid=68b762b9-a01d-499d-978b-ae9efd62da50"},"vehicle_type_id":"4","last_reported":1706987063,"current_range_meters":18800,"station_id":"ce4bgvp2rcd13ifvqcu0","pricing_plan_id":"free"},{"bike_id":"426677f4-a22e-45dd-aa34-4ce143e9a7ac","system_id":"levelo_inurba_marseille","lat":43.29527,"lon":5.38535,"is_reserved":false,"is_disabled":false,"rental_uris":{"android":"levelo://app?vid=426677f4-a22e-45dd-aa34-4ce143e9a7ac","ios":"levelo://app?vid=426677f4-a22e-45dd-aa34-4ce143e9a7ac"},"vehicle_type_id":"4","last_reported":1706987063,"current_range_meters":14800,"station_id":"ce4bgih2rcd13ifvqba0","pricing_plan_id":"free"},{"bike_id":"b419e424-22b8-44a1-be74-4eea51d4beef","system_id":"levelo_inurba_marseille","lat":43.29529,"lon":5.385581,"is_reserved":false,"is_disabled":false,"rental_uris":{"android":"levelo://app?vid=b419e424-22b8-44a1-be74-4eea51d4beef","ios":"levelo://app?vid=b419e424-22b8-44a1-be74-4eea51d4beef"},"vehicle_type_id":"4","last_reported":1706987063,"current_range_meters":2800,"station_id":"ce4bgih2rcd13ifvqba0","pricing_plan_id":"free"},{"bike_id":"d056f862-7860-40ad-a0ae-644132e6b5da","system_id":"levelo_inurba_marseille","lat":43.29529,"lon":5.385581,"is_reserved":false,"is_disabled":false,"rental_uris":{"android":"levelo://app?vid=d056f862-7860-40ad-a0ae-644132e6b5da","ios":"levelo://app?vid=d056f862-7860-40ad-a0ae-644132e6b5da"},"vehicle_type_id":"4","last_reported":1706987063,"current_range_meters":17200,"station_id":"ce4bgih2rcd13ifvqba0","pricing_plan_id":"free"},{"bike_id":"edd4d964-a13e-46e6-a74a-455b784a8436","system_id":"levelo_inurba_marseille","lat":43.29529,"lon":5.385581,"is_reserved":false,"is_disabled":false,"rental_uris":{"android":"levelo://app?vid=edd4d964-a13e-46e6-a74a-455b784a8436","ios":"levelo://app?vid=edd4d964-a13e-46e6-a74a-455b784a8436"},"vehicle_type_id":"4","last_reported":1706987063,"current_range_meters":7600,"station_id":"ce4bgih2rcd13ifvqba0","pricing_plan_id":"free"},{"bike_id":"f9842680-668f-4a94-adc2-859d62ac5362","system_id":"levelo_inurba_marseille","lat":43.29528,"lon":5.3854,"is_reserved":false,"is_disabled":false,"rental_uris":{"android":"levelo://app?vid=f9842680-668f-4a94-adc2-859d62ac5362","ios":"levelo://app?vid=f9842680-668f-4a94-adc2-859d62ac5362"},"vehicle_type_id":"4","last_reported":1706987063,"current_range_meters":16000,"station_id":"ce4bgih2rcd13ifvqba0","pricing_plan_id":"free"},{"bike_id":"7b556f94-520b-40c9-adb5-ec84686b6e33","system_id":"levelo_inurba_marseille","lat":43.29529,"lon":5.385581,"is_reserved":false,"is_disabled":false,"rental_uris":{"android":"levelo://app?vid=7b556f94-520b-40c9-adb5-ec84686b6e33","ios":"levelo://app?vid=7b556f94-520b-40c9-adb5-ec84686b6e33"},"vehicle_type_id":"4","last_reported":1706987063,"current_range_meters":6400,"station_id":"ce4bgih2rcd13ifvqba0","pricing_plan_id":"free"},{"bike_id":"8744aeff-e54a-4214-af2c-d56990348e65","system_id":"levelo_inurba_marseille","lat":43.29529,"lon":5.385581,"is_reserved":false,"is_disabled":false,"rental_uris":{"android":"levelo://app?vid=8744aeff-e54a-4214-af2c-d56990348e65","ios":"levelo://app?vid=8744aeff-e54a-4214-af2c-d56990348e65"},"vehicle_type_id":"4","last_reported":1706987063,"current_range_meters":11600,"station_id":"ce4bgih2rcd13ifvqba0","pricing_plan_id":"free"},{"bike_id":"07e76bd0-05a4-4ac7-91ce-a5223c00e267","system_id":"levelo_inurba_marseille","lat":43.29529,"lon":5.385581,"is_reserved":false,"is_disabled":false,"rental_uris":{"android":"levelo://app?vid=07e76bd0-05a4-4ac7-91ce-a5223c00e267","ios":"levelo://app?vid=07e76bd0-05a4-4ac7-91ce-a5223c00e267"},"vehicle_type_id":"4","last_reported":1706987063,"current_range_meters":22800,"station_id":"ce4bgih2rcd13ifvqba0","pricing_plan_id":"free"},{"bike_id":"31721019-c595-405f-84a5-8c32dfbedc9f","system_id":"levelo_inurba_marseille","lat":43.29529,"lon":5.38554,"is_reserved":false,"is_disabled":false,"rental_uris":{"android":"levelo://app?vid=31721019-c595-405f-84a5-8c32dfbedc9f","ios":"levelo://app?vid=31721019-c595-405f-84a5-8c32dfbedc9f"},"vehicle_type_id":"4","last_reported":1706987063,"current_range_meters":21200,"station_id":"ce4bgih2rcd13ifvqba0","pricing_plan_id":"free"},{"bike_id":"230bb4e3-fb39-474d-8309-35a452befeda","system_id":"levelo_inurba_marseille","lat":43.290779,"lon":5.371482,"is_reserved":false,"is_disabled":false,"rental_uris":{"android":"levelo://app?vid=230bb4e3-fb39-474d-8309-35a452befeda","ios":"levelo://app?vid=230bb4e3-fb39-474d-8309-35a452befeda"},"vehicle_type_id":"4","last_reported":1706987063,"current_range_meters":2400,"station_id":"ce4bh5p2rcd13ifvqe4g","pricing_plan_id":"free"},{"bike_id":"630604a2-1e3a-4c24-8713-6030b5c93e00","system_id":"levelo_inurba_marseille","lat":43.302008,"lon":5.394694,"is_reserved":false,"is_disabled":false,"rental_uris":{"android":"levelo://app?vid=630604a2-1e3a-4c24-8713-6030b5c93e00","ios":"levelo://app?vid=630604a2-1e3a-4c24-8713-6030b5c93e00"},"vehicle_type_id":"4","last_reported":1706987063,"current_range_meters":0,"station_id":"ce4bh0p2rcd13ifvqd70","pricing_plan_id":"free"},{"bike_id":"bdfae537-769f-48b5-82f3-d2a75014edaa","system_id":"levelo_inurba_marseille","lat":43.302008,"lon":5.394694,"is_reserved":false,"is_disabled":false,"rental_uris":{"android":"levelo://app?vid=bdfae537-769f-48b5-82f3-d2a75014edaa","ios":"levelo://app?vid=bdfae537-769f-48b5-82f3-d2a75014edaa"},"vehicle_type_id":"4","last_reported":1706987063,"current_range_meters":25200,"station_id":"ce4bh0p2rcd13ifvqd70","pricing_plan_id":"free"},{"bike_id":"accef661-0fc8-46f5-8498-194658a1b481","system_id":"levelo_inurba_marseille","lat":43.302008,"lon":5.394694,"is_reserved":false,"is_disabled":false,"rental_uris":{"android":"levelo://app?vid=accef661-0fc8-46f5-8498-194658a1b481","ios":"levelo://app?vid=accef661-0fc8-46f5-8498-194658a1b481"},"vehicle_type_id":"4","last_reported":1706987063,"current_range_meters":7200,"station_id":"ce4bh0p2rcd13ifvqd70","pricing_plan_id":"free"},{"bike_id":"7c755874-04f4-49a7-881c-3dccfea2f0df","system_id":"levelo_inurba_marseille","lat":43.290441,"lon":5.359123,"is_reserved":false,"is_disabled":false,"rental_uris":{"android":"levelo://app?vid=7c755874-04f4-49a7-881c-3dccfea2f0df","ios":"levelo://app?vid=7c755874-04f4-49a7-881c-3dccfea2f0df"},"vehicle_type_id":"4","last_reported":1706987063,"current_range_meters":1600,"station_id":"","pricing_plan_id":"free"},{"bike_id":"c2e52dd0-2c31-4941-a9ad-8b4da2daea66","system_id":"levelo_inurba_marseille","lat":43.29417,"lon":5.38621,"is_reserved":false,"is_disabled":false,"rental_uris":{"android":"levelo://app?vid=c2e52dd0-2c31-4941-a9ad-8b4da2daea66","ios":"levelo://app?vid=c2e52dd0-2c31-4941-a9ad-8b4da2daea66"},"vehicle_type_id":"4","last_reported":1706987063,"current_range_meters":17200,"station_id":"ce4bh2h2rcd13ifvqdh0","pricing_plan_id":"free"},{"bike_id":"1a02061d-9da2-41db-947a-db71348b5675","system_id":"levelo_inurba_marseille","lat":43.294153,"lon":5.386305,"is_reserved":false,"is_disabled":false,"rental_uris":{"android":"levelo://app?vid=1a02061d-9da2-41db-947a-db71348b5675","ios":"levelo://app?vid=1a02061d-9da2-41db-947a-db71348b5675"},"vehicle_type_id":"4","last_reported":1706987063,"current_range_meters":15600,"station_id":"ce4bh2h2rcd13ifvqdh0","pricing_plan_id":"free"},{"bike_id":"1df83f75-787a-4bd5-9532-598b4a173ab6","system_id":"levelo_inurba_marseille","lat":43.29418,"lon":5.38626,"is_reserved":false,"is_disabled":false,"rental_uris":{"android":"levelo://app?vid=1df83f75-787a-4bd5-9532-598b4a173ab6","ios":"levelo://app?vid=1df83f75-787a-4bd5-9532-598b4a173ab6"},"vehicle_type_id":"4","last_reported":1706987063,"current_range_meters":10400,"station_id":"ce4bh2h2rcd13ifvqdh0","pricing_plan_id":"free"},{"bike_id":"a05ed984-489a-47db-82d1-e1760450fef8","system_id":"levelo_inurba_marseille","lat":43.29416,"lon":5.38626,"is_reserved":false,"is_disabled":false,"rental_uris":{"android":"levelo://app?vid=a05ed984-489a-47db-82d1-e1760450fef8","ios":"levelo://app?vid=a05ed984-489a-47db-82d1-e1760450fef8"},"vehicle_type_id":"4","last_reported":1706987063,"current_range_meters":10400,"station_id":"ce4bh2h2rcd13ifvqdh0","pricing_plan_id":"free"},{"bike_id":"de40eb8c-9ad8-44c7-88ed-a36f83e9d2cd","system_id":"levelo_inurba_marseille","lat":43.29416,"lon":5.38626,"is_reserved":false,"is_disabled":false,"rental_uris":{"android":"levelo://app?vid=de40eb8c-9ad8-44c7-88ed-a36f83e9d2cd","ios":"levelo://app?vid=de40eb8c-9ad8-44c7-88ed-a36f83e9d2cd"},"vehicle_type_id":"4","last_reported":1706987063,"current_range_meters":24400,"station_id":"ce4bh2h2rcd13ifvqdh0","pricing_plan_id":"free"},{"bike_id":"8b9628bd-0126-4acb-a1b0-3ccd07e6a94e","system_id":"levelo_inurba_marseille","lat":43.294162,"lon":5.386292,"is_reserved":false,"is_disabled":false,"rental_uris":{"android":"levelo://app?vid=8b9628bd-0126-4acb-a1b0-3ccd07e6a94e","ios":"levelo://app?vid=8b9628bd-0126-4acb-a1b0-3ccd07e6a94e"},"vehicle_type_id":"4","last_reported":1706987063,"current_range_meters":11600,"station_id":"ce4bh2h2rcd13ifvqdh0","pricing_plan_id":"free"},{"bike_id":"f7a565cb-a2d5-43a1-bee7-37efa3e6f4cb","system_id":"levelo_inurba_marseille","lat":43.289184,"lon":5.366408,"is_reserved":false,"is_disabled":false,"rental_uris":{"android":"levelo://app?vid=f7a565cb-a2d5-43a1-bee7-37efa3e6f4cb","ios":"levelo://app?vid=f7a565cb-a2d5-43a1-bee7-37efa3e6f4cb"},"vehicle_type_id":"4","last_reported":1706987063,"current_range_meters":25200,"station_id":"ce4bhap2rcd13ifvqek0","pricing_plan_id":"free"},{"bike_id":"90615a0e-770e-4983-8ffd-cacdd2df2ec2","system_id":"levelo_inurba_marseille","lat":43.289468,"lon":5.363719,"is_reserved":false,"is_disabled":false,"rental_uris":{"android":"levelo://app?vid=90615a0e-770e-4983-8ffd-cacdd2df2ec2","ios":"levelo://app?vid=90615a0e-770e-4983-8ffd-cacdd2df2ec2"},"vehicle_type_id":"4","last_reported":1706987063,"current_range_meters":0,"station_id":"ce4bhc92rcd13ifvqetg","pricing_plan_id":"free"},{"bike_id":"98ed43a7-71ac-4976-a8d9-cdf930a36bc0","system_id":"levelo_inurba_marseille","lat":43.304296,"lon":5.397513,"is_reserved":false,"is_disabled":false,"rental_uris":{"android":"levelo://app?vid=98ed43a7-71ac-4976-a8d9-cdf930a36bc0","ios":"levelo://app?vid=98ed43a7-71ac-4976-a8d9-cdf930a36bc0"},"vehicle_type_id":"4","last_reported":1706987063,"current_range_meters":12400,"station_id":"ce4bh092rcd13ifvqd20","pricing_plan_id":"free"},{"bike_id":"bc502e62-2d7d-4c4b-a3a9-36d44edb3f67","system_id":"levelo_inurba_marseille","lat":43.292644,"lon":5.384257,"is_reserved":false,"is_disabled":false,"rental_uris":{"android":"levelo://app?vid=bc502e62-2d7d-4c4b-a3a9-36d44edb3f67","ios":"levelo://app?vid=bc502e62-2d7d-4c4b-a3a9-36d44edb3f67"},"vehicle_type_id":"4","last_reported":1706987063,"current_range_meters":16400,"station_id":"ce4bh692rcd13ifvqea0","pricing_plan_id":"free"},{"bike_id":"d9bf2a45-4eea-46cb-ba90-89d977e571aa","system_id":"levelo_inurba_marseille","lat":43.292642,"lon":5.384254,"is_reserved":false,"is_disabled":false,"rental_uris":{"android":"levelo://app?vid=d9bf2a45-4eea-46cb-ba90-89d977e571aa","ios":"levelo://app?vid=d9bf2a45-4eea-46cb-ba90-89d977e571aa"},"vehicle_type_id":"4","last_reported":1706987063,"current_range_meters":13600,"station_id":"ce4bh692rcd13ifvqea0","pricing_plan_id":"free"},{"bike_id":"caf5e1da-8b93-4dbd-aba9-1bc9ba4e3526","system_id":"levelo_inurba_marseille","lat":43.292644,"lon":5.384257,"is_reserved":false,"is_disabled":false,"rental_uris":{"android":"levelo://app?vid=caf5e1da-8b93-4dbd-aba9-1bc9ba4e3526","ios":"levelo://app?vid=caf5e1da-8b93-4dbd-aba9-1bc9ba4e3526"},"vehicle_type_id":"4","last_reported":1706987063,"current_range_meters":8400,"station_id":"ce4bh692rcd13ifvqea0","pricing_plan_id":"free"},{"bike_id":"38b2bdf4-0f00-4b21-a792-08b769380665","system_id":"levelo_inurba_marseille","lat":43.2926,"lon":5.3844,"is_reserved":false,"is_disabled":false,"rental_uris":{"android":"levelo://app?vid=38b2bdf4-0f00-4b21-a792-08b769380665","ios":"levelo://app?vid=38b2bdf4-0f00-4b21-a792-08b769380665"},"vehicle_type_id":"4","last_reported":1706987063,"current_range_meters":14000,"station_id":"ce4bh692rcd13ifvqea0","pricing_plan_id":"free"},{"bike_id":"0d7ac06f-87bd-4dc9-92a1-01574d6eeba3","system_id":"levelo_inurba_marseille","lat":43.292644,"lon":5.384257,"is_reserved":false,"is_disabled":false,"rental_uris":{"android":"levelo://app?vid=0d7ac06f-87bd-4dc9-92a1-01574d6eeba3","ios":"levelo://app?vid=0d7ac06f-87bd-4dc9-92a1-01574d6eeba3"},"vehicle_type_id":"4","last_reported":1706987063,"current_range_meters":3600,"station_id":"ce4bh692rcd13ifvqea0","pricing_plan_id":"free"},{"bike_id":"d9217267-b438-4341-ade9-413e6896d64f","system_id":"levelo_inurba_marseille","lat":43.292644,"lon":5.384257,"is_reserved":false,"is_disabled":false,"rental_uris":{"android":"levelo://app?vid=d9217267-b438-4341-ade9-413e6896d64f","ios":"levelo://app?vid=d9217267-b438-4341-ade9-413e6896d64f"},"vehicle_type_id":"4","last_reported":1706987063,"current_range_meters":8800,"station_id":"ce4bh692rcd13ifvqea0","pricing_plan_id":"free"},{"bike_id":"944fb68c-7a66-4d6f-923b-d4dbb5728cbc","system_id":"levelo_inurba_marseille","lat":43.292644,"lon":5.384257,"is_reserved":false,"is_disabled":false,"rental_uris":{"android":"levelo://app?vid=944fb68c-7a66-4d6f-923b-d4dbb5728cbc","ios":"levelo://app?vid=944fb68c-7a66-4d6f-923b-d4dbb5728cbc"},"vehicle_type_id":"4","last_reported":1706987063,"current_range_meters":8000,"station_id":"ce4bh692rcd13ifvqea0","pricing_plan_id":"free"},{"bike_id":"d2a9d9be-9f41-4714-b4eb-03d44fda09ac","system_id":"levelo_inurba_marseille","lat":43.292644,"lon":5.384257,"is_reserved":false,"is_disabled":false,"rental_uris":{"android":"levelo://app?vid=d2a9d9be-9f41-4714-b4eb-03d44fda09ac","ios":"levelo://app?vid=d2a9d9be-9f41-4714-b4eb-03d44fda09ac"},"vehicle_type_id":"4","last_reported":1706987063,"current_range_meters":21200,"station_id":"ce4bh692rcd13ifvqea0","pricing_plan_id":"free"},{"bike_id":"3b5e29d1-8c29-4bfd-9b8c-1442d245d470","system_id":"levelo_inurba_marseille","lat":43.29257,"lon":5.38447,"is_reserved":false,"is_disabled":false,"rental_uris":{"android":"levelo://app?vid=3b5e29d1-8c29-4bfd-9b8c-1442d245d470","ios":"levelo://app?vid=3b5e29d1-8c29-4bfd-9b8c-1442d245d470"},"vehicle_type_id":"4","last_reported":1706987063,"current_range_meters":1600,"station_id":"ce4bh692rcd13ifvqea0","pricing_plan_id":"free"},{"bike_id":"954f85cf-6591-4540-b493-92c1f830e4fe","system_id":"levelo_inurba_marseille","lat":43.29251,"lon":5.3844,"is_reserved":false,"is_disabled":false,"rental_uris":{"android":"levelo://app?vid=954f85cf-6591-4540-b493-92c1f830e4fe","ios":"levelo://app?vid=954f85cf-6591-4540-b493-92c1f830e4fe"},"vehicle_type_id":"4","last_reported":1706987063,"current_range_meters":4400,"station_id":"ce4bh692rcd13ifvqea0","pricing_plan_id":"free"},{"bike_id":"40b4fb63-95b1-439d-b965-b05f612ee7aa","system_id":"levelo_inurba_marseille","lat":43.292642,"lon":5.384254,"is_reserved":false,"is_disabled":false,"rental_uris":{"android":"levelo://app?vid=40b4fb63-95b1-439d-b965-b05f612ee7aa","ios":"levelo://app?vid=40b4fb63-95b1-439d-b965-b05f612ee7aa"},"vehicle_type_id":"4","last_reported":1706987063,"current_range_meters":6000,"station_id":"ce4bh692rcd13ifvqea0","pricing_plan_id":"free"},{"bike_id":"19b5fc13-f758-43e9-8f2a-547b026c10bb","system_id":"levelo_inurba_marseille","lat":43.30154,"lon":5.39609,"is_reserved":false,"is_disabled":false,"rental_uris":{"android":"levelo://app?vid=19b5fc13-f758-43e9-8f2a-547b026c10bb","ios":"levelo://app?vid=19b5fc13-f758-43e9-8f2a-547b026c10bb"},"vehicle_type_id":"4","last_reported":1706987063,"current_range_meters":20800,"station_id":"","pricing_plan_id":"free"},{"bike_id":"a8d1ab61-9fc9-49d7-b152-8e24720478a1","system_id":"levelo_inurba_marseille","lat":43.290978,"lon":5.381363,"is_reserved":false,"is_disabled":false,"rental_uris":{"android":"levelo://app?vid=a8d1ab61-9fc9-49d7-b152-8e24720478a1","ios":"levelo://app?vid=a8d1ab61-9fc9-49d7-b152-8e24720478a1"},"vehicle_type_id":"4","last_reported":1706987063,"current_range_meters":400,"station_id":"ce4bh512rcd13ifvqe2g","pricing_plan_id":"free"},{"bike_id":"36c5fc49-f27a-45aa-91c7-d32814783fac","system_id":"levelo_inurba_marseille","lat":43.29786,"lon":5.39323,"is_reserved":false,"is_disabled":false,"rental_uris":{"android":"levelo://app?vid=36c5fc49-f27a-45aa-91c7-d32814783fac","ios":"levelo://app?vid=36c5fc49-f27a-45aa-91c7-d32814783fac"},"vehicle_type_id":"4","last_reported":1706987063,"current_range_meters":21200,"station_id":"chh1huq6cuj3fo74tm60","pricing_plan_id":"free"},{"bike_id":"4b6caff7-0153-4e68-a4c7-4979428d6a43","system_id":"levelo_inurba_marseille","lat":43.295169,"lon":5.390426,"is_reserved":false,"is_disabled":false,"rental_uris":{"android":"levelo://app?vid=4b6caff7-0153-4e68-a4c7-4979428d6a43","ios":"levelo://app?vid=4b6caff7-0153-4e68-a4c7-4979428d6a43"},"vehicle_type_id":"4","last_reported":1706987063,"current_range_meters":19200,"station_id":"ce4bh3p2rcd13ifvqdp0","pricing_plan_id":"free"},{"bike_id":"b2ad9a2f-b3b9-41e6-a4dc-0b0347eec2c5","system_id":"levelo_inurba_marseille","lat":43.330442,"lon":5.389148,"is_reserved":false,"is_disabled":false,"rental_uris":{"android":"levelo://app?vid=b2ad9a2f-b3b9-41e6-a4dc-0b0347eec2c5","ios":"levelo://app?vid=b2ad9a2f-b3b9-41e6-a4dc-0b0347eec2c5"},"vehicle_type_id":"4","last_reported":1706987063,"current_range_meters":0,"station_id":"ce4bhr92rcd13ifvqhrg","pricing_plan_id":"free"},{"bike_id":"4e634882-0923-4ba8-a8f7-4651dd200ca4","system_id":"levelo_inurba_marseille","lat":43.295169,"lon":5.390426,"is_reserved":false,"is_disabled":false,"rental_uris":{"android":"levelo://app?vid=4e634882-0923-4ba8-a8f7-4651dd200ca4","ios":"levelo://app?vid=4e634882-0923-4ba8-a8f7-4651dd200ca4"},"vehicle_type_id":"4","last_reported":1706987063,"current_range_meters":0,"station_id":"ce4bh3p2rcd13ifvqdp0","pricing_plan_id":"free"},{"bike_id":"7589eaa0-ac88-49a2-a600-a82711acbf3c","system_id":"levelo_inurba_marseille","lat":43.295169,"lon":5.390426,"is_reserved":false,"is_disabled":false,"rental_uris":{"android":"levelo://app?vid=7589eaa0-ac88-49a2-a600-a82711acbf3c","ios":"levelo://app?vid=7589eaa0-ac88-49a2-a600-a82711acbf3c"},"vehicle_type_id":"4","last_reported":1706987063,"current_range_meters":12800,"station_id":"ce4bh3p2rcd13ifvqdp0","pricing_plan_id":"free"},{"bike_id":"399ee505-1485-4101-8f50-0e3ada67359f","system_id":"levelo_inurba_marseille","lat":43.295169,"lon":5.390426,"is_reserved":false,"is_disabled":false,"rental_uris":{"android":"levelo://app?vid=399ee505-1485-4101-8f50-0e3ada67359f","ios":"levelo://app?vid=399ee505-1485-4101-8f50-0e3ada67359f"},"vehicle_type_id":"4","last_reported":1706987063,"current_range_meters":13600,"station_id":"ce4bh3p2rcd13ifvqdp0","pricing_plan_id":"free"},{"bike_id":"df75ce24-7d57-4746-9783-df3828b83470","system_id":"levelo_inurba_marseille","lat":43.297815,"lon":5.393548,"is_reserved":false,"is_disabled":false,"rental_uris":{"android":"levelo://app?vid=df75ce24-7d57-4746-9783-df3828b83470","ios":"levelo://app?vid=df75ce24-7d57-4746-9783-df3828b83470"},"vehicle_type_id":"4","last_reported":1706987063,"current_range_meters":3600,"station_id":"chh1huq6cuj3fo74tm60","pricing_plan_id":"free"},{"bike_id":"716bc777-24c0-49b4-bbdd-34a004e99eb0","system_id":"levelo_inurba_marseille","lat":43.330442,"lon":5.389148,"is_reserved":false,"is_disabled":false,"rental_uris":{"android":"levelo://app?vid=716bc777-24c0-49b4-bbdd-34a004e99eb0","ios":"levelo://app?vid=716bc777-24c0-49b4-bbdd-34a004e99eb0"},"vehicle_type_id":"4","last_reported":1706987063,"current_range_meters":10400,"station_id":"ce4bhr92rcd13ifvqhrg","pricing_plan_id":"free"},{"bike_id":"e3517781-f0ab-4fe7-a3cd-937fcf38462b","system_id":"levelo_inurba_marseille","lat":43.288519,"lon":5.358457,"is_reserved":false,"is_disabled":false,"rental_uris":{"android":"levelo://app?vid=e3517781-f0ab-4fe7-a3cd-937fcf38462b","ios":"levelo://app?vid=e3517781-f0ab-4fe7-a3cd-937fcf38462b"},"vehicle_type_id":"4","last_reported":1706987063,"current_range_meters":0,"station_id":"ce4bhb12rcd13ifvqem0","pricing_plan_id":"free"},{"bike_id":"c6776248-4950-445f-9307-ae6dd6fb03af","system_id":"levelo_inurba_marseille","lat":43.33738,"lon":5.37457,"is_reserved":false,"is_disabled":false,"rental_uris":{"android":"levelo://app?vid=c6776248-4950-445f-9307-ae6dd6fb03af","ios":"levelo://app?vid=c6776248-4950-445f-9307-ae6dd6fb03af"},"vehicle_type_id":"4","last_reported":1706987063,"current_range_meters":28000,"station_id":"","pricing_plan_id":"free"},{"bike_id":"b5c8cd35-34dd-45ee-b3e7-3050ef3cbe6a","system_id":"levelo_inurba_marseille","lat":43.337673,"lon":5.374918,"is_reserved":false,"is_disabled":false,"rental_uris":{"android":"levelo://app?vid=b5c8cd35-34dd-45ee-b3e7-3050ef3cbe6a","ios":"levelo://app?vid=b5c8cd35-34dd-45ee-b3e7-3050ef3cbe6a"},"vehicle_type_id":"4","last_reported":1706987063,"current_range_meters":15200,"station_id":"","pricing_plan_id":"free"},{"bike_id":"c024f849-da6e-4c1e-93c7-707e987bf3e7","system_id":"levelo_inurba_marseille","lat":43.30144,"lon":5.39872,"is_reserved":false,"is_disabled":false,"rental_uris":{"android":"levelo://app?vid=c024f849-da6e-4c1e-93c7-707e987bf3e7","ios":"levelo://app?vid=c024f849-da6e-4c1e-93c7-707e987bf3e7"},"vehicle_type_id":"4","last_reported":1706987063,"current_range_meters":0,"station_id":"ce4bh0h2rcd13ifvqd40","pricing_plan_id":"free"},{"bike_id":"1f1839e2-a41c-4c6e-b5cb-a77a62d4287e","system_id":"levelo_inurba_marseille","lat":43.30137,"lon":5.3987,"is_reserved":false,"is_disabled":false,"rental_uris":{"android":"levelo://app?vid=1f1839e2-a41c-4c6e-b5cb-a77a62d4287e","ios":"levelo://app?vid=1f1839e2-a41c-4c6e-b5cb-a77a62d4287e"},"vehicle_type_id":"4","last_reported":1706987063,"current_range_meters":0,"station_id":"ce4bh0h2rcd13ifvqd40","pricing_plan_id":"free"},{"bike_id":"5016711b-ff2d-4b47-ad3f-da8cb48f52f5","system_id":"levelo_inurba_marseille","lat":43.30138,"lon":5.39878,"is_reserved":false,"is_disabled":false,"rental_uris":{"android":"levelo://app?vid=5016711b-ff2d-4b47-ad3f-da8cb48f52f5","ios":"levelo://app?vid=5016711b-ff2d-4b47-ad3f-da8cb48f52f5"},"vehicle_type_id":"4","last_reported":1706987063,"current_range_meters":0,"station_id":"ce4bh0h2rcd13ifvqd40","pricing_plan_id":"free"},{"bike_id":"26f58544-c5eb-44f1-85eb-db2bd485a6a2","system_id":"levelo_inurba_marseille","lat":43.28727,"lon":5.36078,"is_reserved":false,"is_disabled":false,"rental_uris":{"android":"levelo://app?vid=26f58544-c5eb-44f1-85eb-db2bd485a6a2","ios":"levelo://app?vid=26f58544-c5eb-44f1-85eb-db2bd485a6a2"},"vehicle_type_id":"4","last_reported":1706987063,"current_range_meters":2000,"station_id":"cki0cbj6b192h4jlfktg","pricing_plan_id":"free"},