{"last_updated":1742292611,"ttl":60,"version":"2.2","data":{"bikes":[{"bike_id":"78519fbb-bba8-44fb-a712-c7d5b30237a3","system_id":"levelo_inurba_marseille","lat":43.3095,"lon":5.39031,"is_reserved":false,"is_disabled":false,"rental_uris":{"android":"levelo://app?vid=78519fbb-bba8-44fb-a712-c7d5b30237a3","ios":"levelo://app?vid=78519fbb-bba8-44fb-a712-c7d5b30237a3"},"vehicle_type_id":"4","last_reported":1742292611,"current_range_meters":2000,"station_id":"ce4bgup2rcd13ifvqco0","pricing_plan_id":"cebpf4jnsgd1na2vs0mg"},{"bike_id":"54162424-52fd-4e82-ad49-c4ba56af3dee","system_id":"levelo_inurba_marseille","lat":43.24687,"lon":5.38164,"is_reserved":false,"is_disabled":false,"rental_uris":{"android":"levelo://app?vid=54162424-52fd-4e82-ad49-c4ba56af3dee","ios":"levelo://app?vid=54162424-52fd-4e82-ad49-c4ba56af3dee"},"vehicle_type_id":"4","last_reported":1742292611,"current_range_meters":2000,"station_id":"ce4bhih2rcd13ifvqfr0","pricing_plan_id":"cebpf4jnsgd1na2vs0mg"},{"bike_id":"4e2e162b-e6d1-40f4-b6f1-f1475799d8fb","system_id":"levelo_inurba_marseille","lat":43.31488,"lon":5.37298,"is_reserved":false,"is_disabled":false,"rental_uris":{"android":"levelo://app?vid=4e2e162b-e6d1-40f4-b6f1-f1475799d8fb","ios":"levelo://app?vid=4e2e162b-e6d1-40f4-b6f1-f1475799d8fb"},"vehicle_type_id":"4","last_reported":1742292611,"current_range_meters":2800,"station_id":"ce4bgt12rcd13ifvqcd0","pricing_plan_id":"cebpf4jnsgd1na2vs0mg"},{"bike_id":"71987977-7e46-4845-a5f4-99b18e87151a","system_id":"levelo_inurba_marseille","lat":43.26945,"lon":5.4026,"is_reserved":false,"is_disabled":false,"rental_uris":{"android":"levelo://app?vid=71987977-7e46-4845-a5f4-99b18e87151a","ios":"levelo://app?vid=71987977-7e46-4845-a5f4-99b18e87151a"},"vehicle_type_id":"4","last_reported":1742292611,"current_range_meters":3200,"station_id":"cjm6bp8fraef2m0cb0m0","pricing_plan_id":"cebpf4jnsgd1na2vs0mg"},{"bike_id":"abd48a52-c8cc-4abb-a801-8dce64155a4a","system_id":"levelo_inurba_marseille","lat":43.25008,"lon":5.38947,"is_reserved":false,"is_disabled":false,"rental_uris":{"android":"levelo://app?vid=abd48a52-c8cc-4abb-a801-8dce64155a4a","ios":"levelo://app?vid=abd48a52-c8cc-4abb-a801-8dce64155a4a"},"vehicle_type_id":"4","last_reported":1742292611,"current_range_meters":3200,"station_id":"ce4bhgp2rcd13ifvqfd0","pricing_plan_id":"cebpf4jnsgd1na2vs0mg"},{"bike_id":"e39f083d-4542-4f7b-9173-1e8fe9e09597","system_id":"levelo_inurba_marseille","lat":43.274897,"lon":5.424706,"is_reserved":false,"is_disabled":true,"rental_uris":{"android":"levelo://app?vid=e39f083d-4542-4f7b-9173-1e8fe9e09597","ios":"levelo://app?vid=e39f083d-4542-4f7b-9173-1e8fe9e09597"},"vehicle_type_id":"4","last_reported":1742292611,"current_range_meters":3200,"station_id":"ce4bhn92rcd13ifvqgrg","pricing_plan_id":"cebpf4jnsgd1na2vs0mg"},{"bike_id":"3593a90d-b603-416f-b9d3-d7deec12b6d4","system_id":"levelo_inurba_marseille","lat":43.292284,"lon":5.360531,"is_reserved":false,"is_disabled":true,"rental_uris":{"android":"levelo://app?vid=3593a90d-b603-416f-b9d3-d7deec12b6d4","ios":"levelo://app?vid=3593a90d-b603-416f-b9d3-d7deec12b6d4"},"vehicle_type_id":"4","last_reported":1742292611,"current_range_meters":3200,"station_id":"ce4bha92rcd13ifvqeg0","pricing_plan_id":"cebpf4jnsgd1na2vs0mg"},{"bike_id":"259b2a62-eee3-46d4-9ba2-779b7755c371","system_id":"levelo_inurba_marseille","lat":43.26201,"lon":5.37457,"is_reserved":false,"is_disabled":true,"rental_uris":{"android":"levelo://app?vid=259b2a62-eee3-46d4-9ba2-779b7755c371","ios":"levelo://app?vid=259b2a62-eee3-46d4-9ba2-779b7755c371"},"vehicle_type_id":"4","last_reported":1742292611,"current_range_meters":3600,"station_id":"ce4bhgp2rcd13ifvqfc0","pricing_plan_id":"cebpf4jnsgd1na2vs0mg"},{"bike_id":"6457a333-7dd0-40a6-91ad-6e9b8b134cbe","system_id":"levelo_inurba_marseille","lat":43.24079,"lon":5.37755,"is_reserved":false,"is_disabled":false,"rental_uris":{"android":"levelo://app?vid=6457a333-7dd0-40a6-91ad-6e9b8b134cbe","ios":"levelo://app?vid=6457a333-7dd0-40a6-91ad-6e9b8b134cbe"},"vehicle_type_id":"4","last_reported":1742292611,"current_range_meters":3600,"station_id":"ce4bhnp2rcd13ifvqgvg","pricing_plan_id":"cebpf4jnsgd1na2vs0mg"},{"bike_id":"784d9120-add7-4963-ab75-e1eb7c983ec3","system_id":"levelo_inurba_marseille","lat":43.32503,"lon":5.36563,"is_reserved":false,"is_disabled":false,"rental_uris":{"android":"levelo://app?vid=784d9120-add7-4963-ab75-e1eb7c983ec3","ios":"levelo://app?vid=784d9120-add7-4963-ab75-e1eb7c983ec3"},"vehicle_type_id":"4","last_reported":1742292611,"current_range_meters":3600,"station_id":"ce4bhs12rcd13ifvqhvg","pricing_plan_id":"cebpf4jnsgd1na2vs0mg"},{"bike_id":"1de8a793-a89a-4835-ad2c-2fed81fdcabe","system_id":"levelo_inurba_marseille","lat":43.24086,"lon":5.37749,"is_reserved":false,"is_disabled":false,"rental_uris":{"android":"levelo://app?vid=1de8a793-a89a-4835-ad2c-2fed81fdcabe","ios":"levelo://app?vid=1de8a793-a89a-4835-ad2c-2fed81fdcabe"},"vehicle_type_id":"4","last_reported":1742292611,"current_range_meters":3600,"station_id":"ce4bhnp2rcd13ifvqgvg","pricing_plan_id":"cebpf4jnsgd1na2vs0mg"},{"bike_id":"3bc9a86b-3a60-40be-a84e-d4eb476f1869","system_id":"levelo_inurba_marseille","lat":43.30568,"lon":5.36557,"is_reserved":false,"is_disabled":false,"rental_uris":{"android":"levelo://app?vid=3bc9a86b-3a60-40be-a84e-d4eb476f1869","ios":"levelo://app?vid=3bc9a86b-3a60-40be-a84e-d4eb476f1869"},"vehicle_type_id":"4","last_reported":1742292611,"current_range_meters":3600,"station_id":"ce4bgs12rcd13ifvqcag","pricing_plan_id":"cebpf4jnsgd1na2vs0mg"},{"bike_id":"b831c03c-575e-41aa-8259-fa411e67eb00","system_id":"levelo_inurba_marseille","lat":43.25117,"lon":5.40322,"is_reserved":false,"is_disabled":false,"rental_uris":{"android":"levelo://app?vid=b831c03c-575e-41aa-8259-fa411e67eb00","ios":"levelo://app?vid=b831c03c-575e-41aa-8259-fa411e67eb00"},"vehicle_type_id":"4","last_reported":1742292611,"current_range_meters":3200,"station_id":"ce4bhlh2rcd13ifvqgig","pricing_plan_id":"cebpf4jnsgd1na2vs0mg"},{"bike_id":"55ba7983-7669-435c-9daa-d84960f8c444","system_id":"levelo_inurba_marseille","lat":43.32114,"lon":5.36776,"is_reserved":false,"is_disabled":false,"rental_uris":{"android":"levelo://app?vid=55ba7983-7669-435c-9daa-d84960f8c444","ios":"levelo://app?vid=55ba7983-7669-435c-9daa-d84960f8c444"},"vehicle_type_id":"4","last_reported":1742292611,"current_range_meters":3600,"station_id":"ce4bhrh2rcd13ifvqhug","pricing_plan_id":"cebpf4jnsgd1na2vs0mg"},{"bike_id":"9db33768-0edf-4f21-9edd-ac42a5ac13c9","system_id":"levelo_inurba_marseille","lat":43.27496,"lon":5.4247,"is_reserved":false,"is_disabled":false,"rental_uris":{"android":"levelo://app?vid=9db33768-0edf-4f21-9edd-ac42a5ac13c9","ios":"levelo://app?vid=9db33768-0edf-4f21-9edd-ac42a5ac13c9"},"vehicle_type_id":"4","last_reported":1742292611,"current_range_meters":4000,"station_id":"ce4bhn92rcd13ifvqgrg","pricing_plan_id":"cebpf4jnsgd1na2vs0mg"},{"bike_id":"32cce3f4-284a-4f96-800d-6eae91c87b57","system_id":"levelo_inurba_marseille","lat":43.2958,"lon":5.37513,"is_reserved":false,"is_disabled":false,"rental_uris":{"android":"levelo://app?vid=32cce3f4-284a-4f96-800d-6eae91c87b57","ios":"levelo://app?vid=32cce3f4-284a-4f96-800d-6eae91c87b57"},"vehicle_type_id":"4","last_reported":1742292611,"current_range_meters":4000,"station_id":"ce4bgh92rcd13ifvqb50","pricing_plan_id":"cebpf4jnsgd1na2vs0mg"},{"bike_id":"f400a41d-90ce-412e-a1a3-fdba722936d0","system_id":"levelo_inurba_marseille","lat":43.24106,"lon":5.37753,"is_reserved":false,"is_disabled":false,"rental_uris":{"android":"levelo://app?vid=f400a41d-90ce-412e-a1a3-fdba722936d0","ios":"levelo://app?vid=f400a41d-90ce-412e-a1a3-fdba722936d0"},"vehicle_type_id":"4","last_reported":1742292611,"current_range_meters":4000,"station_id":"ce4bhnp2rcd13ifvqgvg","pricing_plan_id":"cebpf4jnsgd1na2vs0mg"},{"bike_id":"a561f3af-dc1c-4af4-b9a4-ead55b35e495","system_id":"levelo_inurba_marseille","lat":43.23203,"lon":5.35561,"is_reserved":false,"is_disabled":false,"rental_uris":{"android":"levelo://app?vid=a561f3af-dc1c-4af4-b9a4-ead55b35e495","ios":"levelo://app?vid=a561f3af-dc1c-4af4-b9a4-ead55b35e495"},"vehicle_type_id":"4","last_reported":1742292611,"current_range_meters":4000,"station_id":"ce4bhu92rcd13ifvqi70","pricing_plan_id":"cebpf4jnsgd1na2vs0mg"},{"bike_id":"6b8ffa9f-0e09-4bfb-a7c9-f730a8d18a65","system_id":"levelo_inurba_marseille","lat":43.24439,"lon":5.3709,"is_reserved":false,"is_disabled":false,"rental_uris":{"android":"levelo://app?vid=6b8ffa9f-0e09-4bfb-a7c9-f730a8d18a65","ios":"levelo://app?vid=6b8ffa9f-0e09-4bfb-a7c9-f730a8d18a65"},"vehicle_type_id":"4","last_reported":1742292611,"current_range_meters":4000,"station_id":"","pricing_plan_id":"cebpf4jnsgd1na2vs0mg"},{"bike_id":"43c8207c-26dc-456c-a71a-f9eb93c79664","system_id":"levelo_inurba_marseille","lat":43.30222,"lon":5.39487,"is_reserved":false,"is_disabled":false,"rental_uris":{"android":"levelo://app?vid=43c8207c-26dc-456c-a71a-f9eb93c79664","ios":"levelo://app?vid=43c8207c-26dc-456c-a71a-f9eb93c79664"},"vehicle_type_id":"4","last_reported":1742292611,"current_range_meters":4000,"station_id":"ce4bh0p2rcd13ifvqd70","pricing_plan_id":"cebpf4jnsgd1na2vs0mg"},{"bike_id":"0e4fb504-c134-47b8-8127-f0cdca45f86e","system_id":"levelo_inurba_marseille","lat":43.2827,"lon":5.35059,"is_reserved":false,"is_disabled":false,"rental_uris":{"android":"levelo://app?vid=0e4fb504-c134-47b8-8127-f0cdca45f86e","ios":"levelo://app?vid=0e4fb504-c134-47b8-8127-f0cdca45f86e"},"vehicle_type_id":"4","last_reported":1742292611,"current_range_meters":4400,"station_id":"ce4bhbp2rcd13ifvqerg","pricing_plan_id":"cebpf4jnsgd1na2vs0mg"},{"bike_id":"9498b8d1-1a26-4adb-94b7-abf5278caff7","system_id":"levelo_inurba_marseille","lat":43.2587,"lon":5.39915,"is_reserved":false,"is_disabled":false,"rental_uris":{"android":"levelo://app?vid=9498b8d1-1a26-4adb-94b7-abf5278caff7","ios":"levelo://app?vid=9498b8d1-1a26-4adb-94b7-abf5278caff7"},"vehicle_type_id":"4","last_reported":1742292611,"current_range_meters":4400,"station_id":"ce4bhl92rcd13ifvqghg","pricing_plan_id":"cebpf4jnsgd1na2vs0mg"},{"bike_id":"79b789d9-8162-467c-82cf-c9770fd91af1","system_id":"levelo_inurba_marseille","lat":43.30991,"lon":5.39093,"is_reserved":false,"is_disabled":false,"rental_uris":{"android":"levelo://app?vid=79b789d9-8162-467c-82cf-c9770fd91af1","ios":"levelo://app?vid=79b789d9-8162-467c-82cf-c9770fd91af1"},"vehicle_type_id":"4","last_reported":1742292611,"current_range_meters":4400,"station_id":"","pricing_plan_id":"cebpf4jnsgd1na2vs0mg"},{"bike_id":"4f4e8f9d-64bc-4477-af11-38241ec3aac0","system_id":"levelo_inurba_marseille","lat":43.26066,"lon":5.39397,"is_reserved":false,"is_disabled":false,"rental_uris":{"android":"levelo://app?vid=4f4e8f9d-64bc-4477-af11-38241ec3aac0","ios":"levelo://app?vid=4f4e8f9d-64bc-4477-af11-38241ec3aac0"},"vehicle_type_id":"4","last_reported":1742292611,"current_range_meters":4400,"station_id":"ce4bhh92rcd13ifvqfj0","pricing_plan_id":"cebpf4jnsgd1na2vs0mg"},{"bike_id":"5cfc60fd-a0bc-40a4-8145-0002e4a7b29e","system_id":"levelo_inurba_marseille","lat":43.24189,"lon":5.3973,"is_reserved":false,"is_disabled":false,"rental_uris":{"android":"levelo://app?vid=5cfc60fd-a0bc-40a4-8145-0002e4a7b29e","ios":"levelo://app?vid=5cfc60fd-a0bc-40a4-8145-0002e4a7b29e"},"vehicle_type_id":"4","last_reported":1742292611,"current_range_meters":4400,"station_id":"ce4bhn12rcd13ifvqgpg","pricing_plan_id":"cebpf4jnsgd1na2vs0mg"},{"bike_id":"222ce003-3537-4444-a482-738b8de118d3","system_id":"levelo_inurba_marseille","lat":43.26208,"lon":5.37938,"is_reserved":false,"is_disabled":false,"rental_uris":{"android":"levelo://app?vid=222ce003-3537-4444-a482-738b8de118d3","ios":"levelo://app?vid=222ce003-3537-4444-a482-738b8de118d3"},"vehicle_type_id":"4","last_reported":1742292611,"current_range_meters":4800,"station_id":"ce4bhjp2rcd13ifvqg90","pricing_plan_id":"cebpf4jnsgd1na2vs0mg"},{"bike_id":"74620aff-b1f0-4b60-8841-bc8a0a2edc3e","system_id":"levelo_inurba_marseille","lat":43.231952,"lon":5.355533,"is_reserved":false,"is_disabled":false,"rental_uris":{"android":"levelo://app?vid=74620aff-b1f0-4b60-8841-bc8a0a2edc3e","ios":"levelo://app?vid=74620aff-b1f0-4b60-8841-bc8a0a2edc3e"},"vehicle_type_id":"4","last_reported":1742292611,"current_range_meters":4800,"station_id":"ce4bhu92rcd13ifvqi70","pricing_plan_id":"cebpf4jnsgd1na2vs0mg"},{"bike_id":"4d46e037-8954-462a-b34f-64963174e243","system_id":"levelo_inurba_marseille","lat":43.27945,"lon":5.41139,"is_reserved":false,"is_disabled":false,"rental_uris":{"android":"levelo://app?vid=4d46e037-8954-462a-b34f-64963174e243","ios":"levelo://app?vid=4d46e037-8954-462a-b34f-64963174e243"},"vehicle_type_id":"4","last_reported":1742292611,"current_range_meters":5600,"station_id":"","pricing_plan_id":"cebpf4jnsgd1na2vs0mg"},{"bike_id":"40d52e74-1999-437f-acf3-0bd9d37c759c","system_id":"levelo_inurba_marseille","lat":43.31251,"lon":5.36863,"is_reserved":false,"is_disabled":false,"rental_uris":{"android":"levelo://app?vid=40d52e74-1999-437f-acf3-0bd9d37c759c","ios":"levelo://app?vid=40d52e74-1999-437f-acf3-0bd9d37c759c"},"vehicle_type_id":"4","last_reported":1742292611,"current_range_meters":5600,"station_id":"ce4bgl92rcd13ifvqbq0","pricing_plan_id":"cebpf4jnsgd1na2vs0mg"},{"bike_id":"a9c5faff-637b-4ff9-ad9f-7f317df19702","system_id":"levelo_inurba_marseille","lat":43.29034,"lon":5.370536,"is_reserved":false,"is_disabled":false,"rental_uris":{"android":"levelo://app?vid=a9c5faff-637b-4ff9-ad9f-7f317df19702","ios":"levelo://app?vid=a9c5faff-637b-4ff9-ad9f-7f317df19702"},"vehicle_type_id":"4","last_reported":1742292611,"current_range_meters":4800,"station_id":"ce4bhc92rcd13ifvqetg","pricing_plan_id":"cebpf4jnsgd1na2vs0mg"},{"bike_id":"299e1023-94f9-44ff-aa28-69259b9be03b","system_id":"levelo_inurba_marseille","lat":43.31401,"lon":5.36655,"is_reserved":false,"is_disabled":false,"rental_uris":{"android":"levelo://app?vid=299e1023-94f9-44ff-aa28-69259b9be03b","ios":"levelo://app?vid=299e1023-94f9-44ff-aa28-69259b9be03b"},"vehicle_type_id":"4","last_reported":1742292611,"current_range_meters":6000,"station_id":"","pricing_plan_id":"cebpf4jnsgd1na2vs0mg"},{"bike_id":"5933d238-8158-485f-8d5e-616649bc338e","system_id":"levelo_inurba_marseille","lat":43.29035,"lon":5.38133,"is_reserved":false,"is_disabled":false,"rental_uris":{"android":"levelo://app?vid=5933d238-8158-485f-8d5e-616649bc338e","ios":"levelo://app?vid=5933d238-8158-485f-8d5e-616649bc338e"},"vehicle_type_id":"4","last_reported":1742292611,"current_range_meters":6000,"station_id":"ce4bh4p2rcd13ifvqe1g","pricing_plan_id":"cebpf4jnsgd1na2vs0mg"},{"bike_id":"bc8366ae-3c50-4279-bc44-f2d507109285","system_id":"levelo_inurba_marseille","lat":43.28264,"lon":5.35064,"is_reserved":false,"is_disabled":false,"rental_uris":{"android":"levelo://app?vid=bc8366ae-3c50-4279-bc44-f2d507109285","ios":"levelo://app?vid=bc8366ae-3c50-4279-bc44-f2d507109285"},"vehicle_type_id":"4","last_reported":1742292611,"current_range_meters":6000,"station_id":"ce4bhbp2rcd13ifvqerg","pricing_plan_id":"cebpf4jnsgd1na2vs0mg"},{"bike_id":"4d5a98d5-2735-427d-b824-74961549e830","system_id":"levelo_inurba_marseille","lat":43.29312,"lon":5.37156,"is_reserved":false,"is_disabled":false,"rental_uris":{"android":"levelo://app?vid=4d5a98d5-2735-427d-b824-74961549e830","ios":"levelo://app?vid=4d5a98d5-2735-427d-b824-74961549e830"},"vehicle_type_id":"4","last_reported":1742292611,"current_range_meters":5600,"station_id":"ce4bgh92rcd13ifvqb40","pricing_plan_id":"cebpf4jnsgd1na2vs0mg"},{"bike_id":"50df200c-1720-4c3a-9e49-0c04c3c21ce9","system_id":"levelo_inurba_marseille","lat":43.29776,"lon":5.372097,"is_reserved":false,"is_disabled":false,"rental_uris":{"android":"levelo://app?vid=50df200c-1720-4c3a-9e49-0c04c3c21ce9","ios":"levelo://app?vid=50df200c-1720-4c3a-9e49-0c04c3c21ce9"},"vehicle_type_id":"4","last_reported":1742292611,"current_range_meters":6000,"station_id":"ce4bh192rcd13ifvqdd0","pricing_plan_id":"cebpf4jnsgd1na2vs0mg"},{"bike_id":"2e116e74-087e-4a0e-8f61-9da0c1714d44","system_id":"levelo_inurba_marseille","lat":43.26033,"lon":5.4174,"is_reserved":false,"is_disabled":false,"rental_uris":{"android":"levelo://app?vid=2e116e74-087e-4a0e-8f61-9da0c1714d44","ios":"levelo://app?vid=2e116e74-087e-4a0e-8f61-9da0c1714d44"},"vehicle_type_id":"4","last_reported":1742292611,"current_range_meters":6400,"station_id":"","pricing_plan_id":"cebpf4jnsgd1na2vs0mg"},{"bike_id":"60fb48ec-e5f8-46eb-8c8c-115f1db018b1","system_id":"levelo_inurba_marseille","lat":43.3026,"lon":5.40079,"is_reserved":false,"is_disabled":false,"rental_uris":{"android":"levelo://app?vid=60fb48ec-e5f8-46eb-8c8c-115f1db018b1","ios":"levelo://app?vid=60fb48ec-e5f8-46eb-8c8c-115f1db018b1"},"vehicle_type_id":"4","last_reported":1742292611,"current_range_meters":6400,"station_id":"ce4bgvh2rcd13ifvqcs0","pricing_plan_id":"cebpf4jnsgd1na2vs0mg"},{"bike_id":"057c4299-c24d-4a02-8ede-b4bf9523726b","system_id":"levelo_inurba_marseille","lat":43.23198,"lon":5.43687,"is_reserved":false,"is_disabled":true,"rental_uris":{"android":"levelo://app?vid=057c4299-c24d-4a02-8ede-b4bf9523726b","ios":"levelo://app?vid=057c4299-c24d-4a02-8ede-b4bf9523726b"},"vehicle_type_id":"4","last_reported":1742292611,"current_range_meters":6400,"station_id":"ce4bhmp2rcd13ifvqgog","pricing_plan_id":"cebpf4jnsgd1na2vs0mg"},{"bike_id":"1ffc2ce7-fc8d-4088-8af1-7c559d45ff56","system_id":"levelo_inurba_marseille","lat":43.31347,"lon":5.36727,"is_reserved":false,"is_disabled":false,"rental_uris":{"android":"levelo://app?vid=1ffc2ce7-fc8d-4088-8af1-7c559d45ff56","ios":"levelo://app?vid=1ffc2ce7-fc8d-4088-8af1-7c559d45ff56"},"vehicle_type_id":"4","last_reported":1742292611,"current_range_meters":6400,"station_id":"ce4bgr92rcd13ifvqc6g","pricing_plan_id":"cebpf4jnsgd1na2vs0mg"},{"bike_id":"e95151cd-abc4-4dae-8ab5-1de4cba734f5","system_id":"levelo_inurba_marseille","lat":43.2418,"lon":5.39722,"is_reserved":false,"is_disabled":false,"rental_uris":{"android":"levelo://app?vid=e95151cd-abc4-4dae-8ab5-1de4cba734f5","ios":"levelo://app?vid=e95151cd-abc4-4dae-8ab5-1de4cba734f5"},"vehicle_type_id":"4","last_reported":1742292611,"current_range_meters":6400,"station_id":"ce4bhn12rcd13ifvqgpg","pricing_plan_id":"cebpf4jnsgd1na2vs0mg"},{"bike_id":"82c43b3a-c164-45dc-b522-1d76965eff22","system_id":"levelo_inurba_marseille","lat":43.23156,"lon":5.43707,"is_reserved":false,"is_disabled":false,"rental_uris":{"android":"levelo://app?vid=82c43b3a-c164-45dc-b522-1d76965eff22","ios":"levelo://app?vid=82c43b3a-c164-45dc-b522-1d76965eff22"},"vehicle_type_id":"4","last_reported":1742292611,"current_range_meters":6400,"station_id":"ce4bhmp2rcd13ifvqgog","pricing_plan_id":"cebpf4jnsgd1na2vs0mg"},{"bike_id":"7c5db8a1-ef5d-4912-b4f8-07a5745c2c99","system_id":"levelo_inurba_marseille","lat":43.299,"lon":5.43651,"is_reserved":false,"is_disabled":false,"rental_uris":{"android":"levelo://app?vid=7c5db8a1-ef5d-4912-b4f8-07a5745c2c99","ios":"levelo://app?vid=7c5db8a1-ef5d-4912-b4f8-07a5745c2c99"},"vehicle_type_id":"4","last_reported":1742292611,"current_range_meters":6400,"station_id":"ce4bhpp2rcd13ifvqhfg","pricing_plan_id":"cebpf4jnsgd1na2vs0mg"},{"bike_id":"dd117a7c-a536-40a1-91af-43693b0b8fe5","system_id":"levelo_inurba_marseille","lat":43.259331,"lon":5.408966,"is_reserved":false,"is_disabled":false,"rental_uris":{"android":"levelo://app?vid=dd117a7c-a536-40a1-91af-43693b0b8fe5","ios":"levelo://app?vid=dd117a7c-a536-40a1-91af-43693b0b8fe5"},"vehicle_type_id":"4","last_reported":1742292611,"current_range_meters":6400,"station_id":"ce4bhm92rcd13ifvqglg","pricing_plan_id":"cebpf4jnsgd1na2vs0mg"},{"bike_id":"4f408912-60a6-499d-b664-512fb508131b","system_id":"levelo_inurba_marseille","lat":43.3015,"lon":5.38081,"is_reserved":false,"is_disabled":false,"rental_uris":{"android":"levelo://app?vid=4f408912-60a6-499d-b664-512fb508131b","ios":"levelo://app?vid=4f408912-60a6-499d-b664-512fb508131b"},"vehicle_type_id":"4","last_reported":1742292611,"current_range_meters":6400,"station_id":"ce4bgjp2rcd13ifvqbh0","pricing_plan_id":"cebpf4jnsgd1na2vs0mg"},{"bike_id":"40805b97-fadb-44c2-9cd1-665899423e7e","system_id":"levelo_inurba_marseille","lat":43.25754,"lon":5.41103,"is_reserved":false,"is_disabled":false,"rental_uris":{"android":"levelo://app?vid=40805b97-fadb-44c2-9cd1-665899423e7e","ios":"levelo://app?vid=40805b97-fadb-44c2-9cd1-665899423e7e"},"vehicle_type_id":"4","last_reported":1742292611,"current_range_meters":6400,"station_id":"ce4bhkp2rcd13ifvqgd0","pricing_plan_id":"cebpf4jnsgd1na2vs0mg"},{"bike_id":"f7c857bd-4ed8-41c9-8704-9eff12a04d79","system_id":"levelo_inurba_marseille","lat":43.25932,"lon":5.4091,"is_reserved":false,"is_disabled":false,"rental_uris":{"android":"levelo://app?vid=f7c857bd-4ed8-41c9-8704-9eff12a04d79","ios":"levelo://app?vid=f7c857bd-4ed8-41c9-8704-9eff12a04d79"},"vehicle_type_id":"4","last_reported":1742292611,"current_range_meters":6400,"station_id":"ce4bhm92rcd13ifvqglg","pricing_plan_id":"cebpf4jnsgd1na2vs0mg"},{"bike_id":"694e2550-26c1-4e5d-b544-75ec19648790","system_id":"levelo_inurba_marseille","lat":43.32366,"lon":5.36753,"is_reserved":false,"is_disabled":false,"rental_uris":{"android":"levelo://app?vid=694e2550-26c1-4e5d-b544-75ec19648790","ios":"levelo://app?vid=694e2550-26c1-4e5d-b544-75ec19648790"},"vehicle_type_id":"4","last_reported":1742292611,"current_range_meters":6800,"station_id":"ce4bhsh2rcd13ifvqi2g","pricing_plan_id":"cebpf4jnsgd1na2vs0mg"},{"bike_id":"73ba6054-b256-49f9-a881-8617a962027d","system_id":"levelo_inurba_marseille","lat":43.230532,"lon":5.354929,"is_reserved":false,"is_disabled":false,"rental_uris":{"android":"levelo://app?vid=73ba6054-b256-49f9-a881-8617a962027d","ios":"levelo://app?vid=73ba6054-b256-49f9-a881-8617a962027d"},"vehicle_type_id":"4","last_reported":1742292611,"current_range_meters":6800,"station_id":"cpo3342slgdg3j2ifvpg","pricing_plan_id":"cebpf4jnsgd1na2vs0mg"},{"bike_id":"d1676c12-45d0-460a-ab7d-e6bd42a8628c","system_id":"levelo_inurba_marseille","lat":43.25937,"lon":5.40884,"is_reserved":false,"is_disabled":false,"rental_uris":{"android":"levelo://app?vid=d1676c12-45d0-460a-ab7d-e6bd42a8628c","ios":"levelo://app?vid=d1676c12-45d0-460a-ab7d-e6bd42a8628c"},"vehicle_type_id":"4","last_reported":1742292611,"current_range_meters":6800,"station_id":"ce4bhm92rcd13ifvqglg","pricing_plan_id":"cebpf4jnsgd1na2vs0mg"},{"bike_id":"492fc89c-f854-4c56-a406-a9d98b1645f0","system_id":"levelo_inurba_marseille","lat":43.30466,"lon":5.37909,"is_reserved":false,"is_disabled":false,"rental_uris":{"android":"levelo://app?vid=492fc89c-f854-4c56-a406-a9d98b1645f0","ios":"levelo://app?vid=492fc89c-f854-4c56-a406-a9d98b1645f0"},"vehicle_type_id":"4","last_reported":1742292611,"current_range_meters":6800,"station_id":"ce4bgup2rcd13ifvqcn0","pricing_plan_id":"cebpf4jnsgd1na2vs0mg"},{"bike_id":"fa5f15ab-8994-45e1-84de-31aa4c8b3ced","system_id":"levelo_inurba_marseille","lat":43.23192,"lon":5.35547,"is_reserved":false,"is_disabled":false,"rental_uris":{"android":"levelo://app?vid=fa5f15ab-8994-45e1-84de-31aa4c8b3ced","ios":"levelo://app?vid=fa5f15ab-8994-45e1-84de-31aa4c8b3ced"},"vehicle_type_id":"4","last_reported":1742292611,"current_range_meters":6800,"station_id":"ce4bhu92rcd13ifvqi70","pricing_plan_id":"cebpf4jnsgd1na2vs0mg"},{"bike_id":"b54a649d-2707-4569-87ee-d2c230e19409","system_id":"levelo_inurba_marseille","lat":43.27472,"lon":5.40886,"is_reserved":false,"is_disabled":false,"rental_uris":{"android":"levelo://app?vid=b54a649d-2707-4569-87ee-d2c230e19409","ios":"levelo://app?vid=b54a649d-2707-4569-87ee-d2c230e19409"},"vehicle_type_id":"4","last_reported":1742292611,"current_range_meters":6800,"station_id":"","pricing_plan_id":"cebpf4jnsgd1na2vs0mg"},{"bike_id":"b6cdf110-b816-4043-a17c-0c205b85ffed","system_id":"levelo_inurba_marseille","lat":43.2558,"lon":5.38248,"is_reserved":false,"is_disabled":false,"rental_uris":{"android":"levelo://app?vid=b6cdf110-b816-4043-a17c-0c205b85ffed","ios":"levelo://app?vid=b6cdf110-b816-4043-a17c-0c205b85ffed"},"vehicle_type_id":"4","last_reported":1742292611,"current_range_meters":6800,"station_id":"ce4bhih2rcd13ifvqfs0","pricing_plan_id":"cebpf4jnsgd1na2vs0mg"},{"bike_id":"d155b6d7-4f04-4869-a663-a1baa5b8f97e","system_id":"levelo_inurba_marseille","lat":43.23189,"lon":5.35565,"is_reserved":false,"is_disabled":false,"rental_uris":{"android":"levelo://app?vid=d155b6d7-4f04-4869-a663-a1baa5b8f97e","ios":"levelo://app?vid=d155b6d7-4f04-4869-a663-a1baa5b8f97e"},"vehicle_type_id":"4","last_reported":1742292611,"current_range_meters":7200,"station_id":"ce4bhu92rcd13ifvqi70","pricing_plan_id":"cebpf4jnsgd1na2vs0mg"},{"bike_id":"549886c0-485f-4da9-8897-ac55aaf38b66","system_id":"levelo_inurba_marseille","lat":43.267,"lon":5.38265,"is_reserved":false,"is_disabled":false,"rental_uris":{"android":"levelo://app?vid=549886c0-485f-4da9-8897-ac55aaf38b66","ios":"levelo://app?vid=549886c0-485f-4da9-8897-ac55aaf38b66"},"vehicle_type_id":"4","last_reported":1742292611,"current_range_meters":7200,"station_id":"ce4bhg92rcd13ifvqf90","pricing_plan_id":"cebpf4jnsgd1na2vs0mg"},{"bike_id":"a721223e-025d-42c9-b095-5c32c709b862","system_id":"levelo_inurba_marseille","lat":43.27083,"lon":5.42256,"is_reserved":false,"is_disabled":false,"rental_uris":{"android":"levelo://app?vid=a721223e-025d-42c9-b095-5c32c709b862","ios":"levelo://app?vid=a721223e-025d-42c9-b095-5c32c709b862"},"vehicle_type_id":"4","last_reported":1742292611,"current_range_meters":7200,"station_id":"ce4bhk92rcd13ifvqgb0","pricing_plan_id":"cebpf4jnsgd1na2vs0mg"},{"bike_id":"8fe397d1-0f69-4faf-95d9-5ccc5e1a02c4","system_id":"levelo_inurba_marseille","lat":43.25003,"lon":5.38926,"is_reserved":false,"is_disabled":false,"rental_uris":{"android":"levelo://app?vid=8fe397d1-0f69-4faf-95d9-5ccc5e1a02c4","ios":"levelo://app?vid=8fe397d1-0f69-4faf-95d9-5ccc5e1a02c4"},"vehicle_type_id":"4","last_reported":1742292611,"current_range_meters":6400,"station_id":"ce4bhgp2rcd13ifvqfd0","pricing_plan_id":"cebpf4jnsgd1na2vs0mg"},{"bike_id":"804128c7-633e-4c74-b021-ca536452f71f","system_id":"levelo_inurba_marseille","lat":43.31516,"lon":5.37236,"is_reserved":false,"is_disabled":false,"rental_uris":{"android":"levelo://app?vid=804128c7-633e-4c74-b021-ca536452f71f","ios":"levelo://app?vid=804128c7-633e-4c74-b021-ca536452f71f"},"vehicle_type_id":"4","last_reported":1742292611,"current_range_meters":8000,"station_id":"","pricing_plan_id":"cebpf4jnsgd1na2vs0mg"},{"bike_id":"b1b41327-66f3-4983-ac80-93a6af2a034d","system_id":"levelo_inurba_marseille","lat":43.23084,"lon":5.35496,"is_reserved":false,"is_disabled":false,"rental_uris":{"android":"levelo://app?vid=b1b41327-66f3-4983-ac80-93a6af2a034d","ios":"levelo://app?vid=b1b41327-66f3-4983-ac80-93a6af2a034d"},"vehicle_type_id":"4","last_reported":1742292611,"current_range_meters":8000,"station_id":"cpo3342slgdg3j2ifvpg","pricing_plan_id":"cebpf4jnsgd1na2vs0mg"},{"bike_id":"4e98cc9a-2c15-4e32-9793-e01bc10451a4","system_id":"levelo_inurba_marseille","lat":43.26948,"lon":5.38632,"is_reserved":false,"is_disabled":false,"rental_uris":{"android":"levelo://app?vid=4e98cc9a-2c15-4e32-9793-e01bc10451a4","ios":"levelo://app?vid=4e98cc9a-2c15-4e32-9793-e01bc10451a4"},"vehicle_type_id":"4","last_reported":1742292611,"current_range_meters":8000,"station_id":"ce4bhh92rcd13ifvqfh0","pricing_plan_id":"cebpf4jnsgd1na2vs0mg"},{"bike_id":"6d8e8090-a4c7-4966-a3f4-a833922b9e5a","system_id":"levelo_inurba_marseille","lat":43.23188,"lon":5.35558,"is_reserved":false,"is_disabled":false,"rental_uris":{"android":"levelo://app?vid=6d8e8090-a4c7-4966-a3f4-a833922b9e5a","ios":"levelo://app?vid=6d8e8090-a4c7-4966-a3f4-a833922b9e5a"},"vehicle_type_id":"4","last_reported":1742292611,"current_range_meters":8000,"station_id":"ce4bhu92rcd13ifvqi70","pricing_plan_id":"cebpf4jnsgd1na2vs0mg"},{"bike_id":"f62e2d51-623c-4832-9c77-7209bf60f7e5","system_id":"levelo_inurba_marseille","lat":43.28662,"lon":5.38649,"is_reserved":false,"is_disabled":false,"rental_uris":{"android":"levelo://app?vid=f62e2d51-623c-4832-9c77-7209bf60f7e5","ios":"levelo://app?vid=f62e2d51-623c-4832-9c77-7209bf60f7e5"},"vehicle_type_id":"4","last_reported":1742292611,"current_range_meters":7200,"station_id":"ce4bh492rcd13ifvqdug","pricing_plan_id":"cebpf4jnsgd1na2vs0mg"},{"bike_id":"2665cc4b-07ed-4ae6-a66f-2b09983c709d","system_id":"levelo_inurba_marseille","lat":43.33761,"lon":5.37489,"is_reserved":false,"is_disabled":false,"rental_uris":{"android":"levelo://app?vid=2665cc4b-07ed-4ae6-a66f-2b09983c709d","ios":"levelo://app?vid=2665cc4b-07ed-4ae6-a66f-2b09983c709d"},"vehicle_type_id":"4","last_reported":1742292611,"current_range_meters":8000,"station_id":"","pricing_plan_id":"cebpf4jnsgd1na2vs0mg"},{"bike_id":"7e2fd363-1345-4671-93c3-9edc4652ce3c","system_id":"levelo_inurba_marseille","lat":43.24091,"lon":5.37754,"is_reserved":false,"is_disabled":false,"rental_uris":{"android":"levelo://app?vid=7e2fd363-1345-4671-93c3-9edc4652ce3c","ios":"levelo://app?vid=7e2fd363-1345-4671-93c3-9edc4652ce3c"},"vehicle_type_id":"4","last_reported":1742292611,"current_range_meters":8000,"station_id":"","pricing_plan_id":"cebpf4jnsgd1na2vs0mg"},{"bike_id":"0d3accb9-853e-4df0-b9d8-4607b8048f46","system_id":"levelo_inurba_marseille","lat":43.241655,"lon":5.363964,"is_reserved":false,"is_disabled":false,"rental_uris":{"android":"levelo://app?vid=0d3accb9-853e-4df0-b9d8-4607b8048f46","ios":"levelo://app?vid=0d3accb9-853e-4df0-b9d8-4607b8048f46"},"vehicle_type_id":"4","last_reported":1742292611,"current_range_meters":8000,"station_id":"cpo36qri1sfpv3e86is0","pricing_plan_id":"cebpf4jnsgd1na2vs0mg"},{"bike_id":"ad552d4b-dc7e-45d1-ab1a-030768554e99","system_id":"levelo_inurba_marseille","lat":43.27501,"lon":5.42468,"is_reserved":false,"is_disabled":false,"rental_uris":{"android":"levelo://app?vid=ad552d4b-dc7e-45d1-ab1a-030768554e99","ios":"levelo://app?vid=ad552d4b-dc7e-45d1-ab1a-030768554e99"},"vehicle_type_id":"4","last_reported":1742292611,"current_range_meters":8000,"station_id":"ce4bhn92rcd13ifvqgrg","pricing_plan_id":"cebpf4jnsgd1na2vs0mg"},{"bike_id":"737a1d64-a21d-4452-b1f9-a22f87a8d6bd","system_id":"levelo_inurba_marseille","lat":43.23051,"lon":5.35489,"is_reserved":false,"is_disabled":false,"rental_uris":{"android":"levelo://app?vid=737a1d64-a21d-4452-b1f9-a22f87a8d6bd","ios":"levelo://app?vid=737a1d64-a21d-4452-b1f9-a22f87a8d6bd"},"vehicle_type_id":"4","last_reported":1742292611,"current_range_meters":8000,"station_id":"cpo3342slgdg3j2ifvpg","pricing_plan_id":"cebpf4jnsgd1na2vs0mg"},{"bike_id":"0b9ba582-634f-4ac1-9379-76b76e99eca3","system_id":"levelo_inurba_marseille","lat":43.30135,"lon":5.37414,"is_reserved":false,"is_disabled":false,"rental_uris":{"android":"levelo://app?vid=0b9ba582-634f-4ac1-9379-76b76e99eca3","ios":"levelo://app?vid=0b9ba582-634f-4ac1-9379-76b76e99eca3"},"vehicle_type_id":"4","last_reported":1742292611,"current_range_meters":8000,"station_id":"ce4bgs92rcd13ifvqcc0","pricing_plan_id":"cebpf4jnsgd1na2vs0mg"},{"bike_id":"46de76bf-0ade-4e07-8524-95227112593d","system_id":"levelo_inurba_marseille","lat":43.30325,"lon":5.40432,"is_reserved":false,"is_disabled":false,"rental_uris":{"android":"levelo://app?vid=46de76bf-0ade-4e07-8524-95227112593d","ios":"levelo://app?vid=46de76bf-0ade-4e07-8524-95227112593d"},"vehicle_type_id":"4","last_reported":1742292611,"current_range_meters":8000,"station_id":"ce4bh012rcd13ifvqd10","pricing_plan_id":"cebpf4jnsgd1na2vs0mg"},{"bike_id":"70533b04-4f86-4823-8b2b-60cfc8ad8617","system_id":"levelo_inurba_marseille","lat":43.31328,"lon":5.36724,"is_reserved":false,"is_disabled":false,"rental_uris":{"android":"levelo://app?vid=70533b04-4f86-4823-8b2b-60cfc8ad8617","ios":"levelo://app?vid=70533b04-4f86-4823-8b2b-60cfc8ad8617"},"vehicle_type_id":"4","last_reported":1742292611,"current_range_meters":8000,"station_id":"ce4bgr92rcd13ifvqc6g","pricing_plan_id":"cebpf4jnsgd1na2vs0mg"},{"bike_id":"5acfff0d-6883-40b9-90d2-621af333cea4","system_id":"levelo_inurba_marseille","lat":43.25937,"lon":5.40893,"is_reserved":false,"is_disabled":false,"rental_uris":{"android":"levelo://app?vid=5acfff0d-6883-40b9-90d2-621af333cea4","ios":"levelo://app?vid=5acfff0d-6883-40b9-90d2-621af333cea4"},"vehicle_type_id":"4","last_reported":1742292611,"current_range_meters":8400,"station_id":"ce4bhm92rcd13ifvqglg","pricing_plan_id":"cebpf4jnsgd1na2vs0mg"},{"bike_id":"639a7370-813a-4bed-989f-76ebdf6c9cf3","system_id":"levelo_inurba_marseille","lat":43.31691,"lon":5.40472,"is_reserved":false,"is_disabled":false,"rental_uris":{"android":"levelo://app?vid=639a7370-813a-4bed-989f-76ebdf6c9cf3","ios":"levelo://app?vid=639a7370-813a-4bed-989f-76ebdf6c9cf3"},"vehicle_type_id":"4","last_reported":1742292611,"current_range_meters":8400,"station_id":"ce4bh012rcd13ifvqd00","pricing_plan_id":"cebpf4jnsgd1na2vs0mg"},{"bike_id":"97a1e633-c2b3-487e-8569-9036bf18d175","system_id":"levelo_inurba_marseille","lat":43.24172,"lon":5.36403,"is_reserved":false,"is_disabled":false,"rental_uris":{"android":"levelo://app?vid=97a1e633-c2b3-487e-8569-9036bf18d175","ios":"levelo://app?vid=97a1e633-c2b3-487e-8569-9036bf18d175"},"vehicle_type_id":"4","last_reported":1742292611,"current_range_meters":8400,"station_id":"cpo36qri1sfpv3e86is0","pricing_plan_id":"cebpf4jnsgd1na2vs0mg"},{"bike_id":"0414c92c-7144-48ed-abc0-69cdccd9ea5d","system_id":"levelo_inurba_marseille","lat":43.24191,"lon":5.3972,"is_reserved":false,"is_disabled":false,"rental_uris":{"android":"levelo://app?vid=0414c92c-7144-48ed-abc0-69cdccd9ea5d","ios":"levelo://app?vid=0414c92c-7144-48ed-abc0-69cdccd9ea5d"},"vehicle_type_id":"4","last_reported":1742292611,"current_range_meters":8400,"station_id":"ce4bhn12rcd13ifvqgpg","pricing_plan_id":"cebpf4jnsgd1na2vs0mg"},{"bike_id":"eb1c77a5-e872-49f2-aab4-89bb7dbdea8c","system_id":"levelo_inurba_marseille","lat":43.26698,"lon":5.38274,"is_reserved":false,"is_disabled":false,"rental_uris":{"android":"levelo://app?vid=eb1c77a5-e872-49f2-aab4-89bb7dbdea8c","ios":"levelo://app?vid=eb1c77a5-e872-49f2-aab4-89bb7dbdea8c"},"vehicle_type_id":"4","last_reported":1742292611,"current_range_meters":8400,"station_id":"ce4bhg92rcd13ifvqf90","pricing_plan_id":"cebpf4jnsgd1na2vs0mg"},{"bike_id":"9a82933c-4cbf-4e7f-8492-c81d97d1d570","system_id":"levelo_inurba_marseille","lat":43.33612,"lon":5.40994,"is_reserved":false,"is_disabled":false,"rental_uris":{"android":"levelo://app?vid=9a82933c-4cbf-4e7f-8492-c81d97d1d570","ios":"levelo://app?vid=9a82933c-4cbf-4e7f-8492-c81d97d1d570"},"vehicle_type_id":"4","last_reported":1742292611,"current_range_meters":8400,"station_id":"ce4bhqh2rcd13ifvqhmg","pricing_plan_id":"cebpf4jnsgd1na2vs0mg"},{"bike_id":"58a4145b-708d-4924-8cdb-6fe4d69a5aee","system_id":"levelo_inurba_marseille","lat":43.26691,"lon":5.38258,"is_reserved":false,"is_disabled":false,"rental_uris":{"android":"levelo://app?vid=58a4145b-708d-4924-8cdb-6fe4d69a5aee","ios":"levelo://app?vid=58a4145b-708d-4924-8cdb-6fe4d69a5aee"},"vehicle_type_id":"4","last_reported":1742292611,"current_range_meters":8400,"station_id":"ce4bhg92rcd13ifvqf90","pricing_plan_id":"cebpf4jnsgd1na2vs0mg"},{"bike_id":"cc3a9f22-a1e9-4ac4-bb08-52aeb81d6d50","system_id":"levelo_inurba_marseille","lat":43.24671,"lon":5.38163,"is_reserved":false,"is_disabled":false,"rental_uris":{"android":"levelo://app?vid=cc3a9f22-a1e9-4ac4-bb08-52aeb81d6d50","ios":"levelo://app?vid=cc3a9f22-a1e9-4ac4-bb08-52aeb81d6d50"},"vehicle_type_id":"4","last_reported":1742292611,"current_range_meters":8400,"station_id":"ce4bhih2rcd13ifvqfr0","pricing_plan_id":"cebpf4jnsgd1na2vs0mg"},{"bike_id":"8fe7e33b-57fc-439c-ba02-015988635c80","system_id":"levelo_inurba_marseille","lat":43.27037,"lon":5.42285,"is_reserved":false,"is_disabled":true,"rental_uris":{"android":"levelo://app?vid=8fe7e33b-57fc-439c-ba02-015988635c80","ios":"levelo://app?vid=8fe7e33b-57fc-439c-ba02-015988635c80"},"vehicle_type_id":"4","last_reported":1742292611,"current_range_meters":8400,"station_id":"ce4bhk92rcd13ifvqgb0","pricing_plan_id":"cebpf4jnsgd1na2vs0mg"},{"bike_id":"bf53558a-323c-40e3-9c37-ac64ba388e1c","system_id":"levelo_inurba_marseille","lat":43.23972,"lon":5.36649,"is_reserved":false,"is_disabled":false,"rental_uris":{"android":"levelo://app?vid=bf53558a-323c-40e3-9c37-ac64ba388e1c","ios":"levelo://app?vid=bf53558a-323c-40e3-9c37-ac64ba388e1c"},"vehicle_type_id":"4","last_reported":1742292611,"current_range_meters":8400,"station_id":"ce4bhi12rcd13ifvqfp0","pricing_plan_id":"cebpf4jnsgd1na2vs0mg"},{"bike_id":"82d3dad7-63f3-4a7e-8219-54f8cb3f7636","system_id":"levelo_inurba_marseille","lat":43.23155,"lon":5.43726,"is_reserved":false,"is_disabled":false,"rental_uris":{"android":"levelo://app?vid=82d3dad7-63f3-4a7e-8219-54f8cb3f7636","ios":"levelo://app?vid=82d3dad7-63f3-4a7e-8219-54f8cb3f7636"},"vehicle_type_id":"4","last_reported":1742292611,"current_range_meters":8800,"station_id":"ce4bhmp2rcd13ifvqgog","pricing_plan_id":"cebpf4jnsgd1na2vs0mg"},{"bike_id":"fda6c3e1-4286-4570-8959-0d8ebfb64577","system_id":"levelo_inurba_marseille","lat":43.29309,"lon":5.37171,"is_reserved":false,"is_disabled":false,"rental_uris":{"android":"levelo://app?vid=fda6c3e1-4286-4570-8959-0d8ebfb64577","ios":"levelo://app?vid=fda6c3e1-4286-4570-8959-0d8ebfb64577"},"vehicle_type_id":"4","last_reported":1742292611,"current_range_meters":8800,"station_id":"ce4bgh92rcd13ifvqb40","pricing_plan_id":"cebpf4jnsgd1na2vs0mg"},{"bike_id":"08058f9b-5fd7-489c-a6cd-58711359da60","system_id":"levelo_inurba_marseille","lat":43.32563,"lon":5.41478,"is_reserved":false,"is_disabled":false,"rental_uris":{"android":"levelo://app?vid=08058f9b-5fd7-489c-a6cd-58711359da60","ios":"levelo://app?vid=08058f9b-5fd7-489c-a6cd-58711359da60"},"vehicle_type_id":"4","last_reported":1742292611,"current_range_meters":8800,"station_id":"ce4bhq12rcd13ifvqhhg","pricing_plan_id":"cebpf4jnsgd1na2vs0mg"},{"bike_id":"7cad90dd-95a0-4817-86a5-c77f63d87d45","system_id":"levelo_inurba_marseille","lat":43.2849,"lon":5.38542,"is_reserved":false,"is_disabled":false,"rental_uris":{"android":"levelo://app?vid=7cad90dd-95a0-4817-86a5-c77f63d87d45","ios":"levelo://app?vid=7cad90dd-95a0-4817-86a5-c77f63d87d45"},"vehicle_type_id":"4","last_reported":1742292611,"current_range_meters":8400,"station_id":"ce4bh8p2rcd13ifvqeb0","pricing_plan_id":"cebpf4jnsgd1na2vs0mg"},{"bike_id":"5f45fabe-4370-4661-8c5d-1ccb3acdd2c3","system_id":"levelo_inurba_marseille","lat":43.32361,"lon":5.38882,"is_reserved":false,"is_disabled":false,"rental_uris":{"android":"levelo://app?vid=5f45fabe-4370-4661-8c5d-1ccb3acdd2c3","ios":"levelo://app?vid=5f45fabe-4370-4661-8c5d-1ccb3acdd2c3"},"vehicle_type_id":"4","last_reported":1742292611,"current_range_meters":8800,"station_id":"ce4bhqp2rcd13ifvqhog","pricing_plan_id":"cebpf4jnsgd1na2vs0mg"},{"bike_id":"ea7f16e6-de90-4692-b642-b4503d1ac536","system_id":"levelo_inurba_marseille","lat":43.24404,"lon":5.3705,"is_reserved":false,"is_disabled":false,"rental_uris":{"android":"levelo://app?vid=ea7f16e6-de90-4692-b642-b4503d1ac536","ios":"levelo://app?vid=ea7f16e6-de90-4692-b642-b4503d1ac536"},"vehicle_type_id":"4","last_reported":1742292611,"current_range_meters":9200,"station_id":"ce4bhhh2rcd13ifvqfk0","pricing_plan_id":"cebpf4jnsgd1na2vs0mg"},{"bike_id":"0aaa267e-0813-48ea-b413-03f1e4d03235","system_id":"levelo_inurba_marseille","lat":43.30466,"lon":5.37904,"is_reserved":false,"is_disabled":false,"rental_uris":{"android":"levelo://app?vid=0aaa267e-0813-48ea-b413-03f1e4d03235","ios":"levelo://app?vid=0aaa267e-0813-48ea-b413-03f1e4d03235"},"vehicle_type_id":"4","last_reported":1742292611,"current_range_meters":9200,"station_id":"ce4bgup2rcd13ifvqcn0","pricing_plan_id":"cebpf4jnsgd1na2vs0mg"},{"bike_id":"2c682ea6-4469-4f96-8519-814c870062cb","system_id":"levelo_inurba_marseille","lat":43.24385,"lon":5.37056,"is_reserved":false,"is_disabled":false,"rental_uris":{"android":"levelo://app?vid=2c682ea6-4469-4f96-8519-814c870062cb","ios":"levelo://app?vid=2c682ea6-4469-4f96-8519-814c870062cb"},"vehicle_type_id":"4","last_reported":1742292611,"current_range_meters":9200,"station_id":"ce4bhhh2rcd13ifvqfk0","pricing_plan_id":"cebpf4jnsgd1na2vs0mg"},{"bike_id":"86cd9e90-44cb-4b43-9437-e8fdd60d4ad0","system_id":"levelo_inurba_marseille","lat":43.27467,"lon":5.42349,"is_reserved":false,"is_disabled":false,"rental_uris":{"android":"levelo://app?vid=86cd9e90-44cb-4b43-9437-e8fdd60d4ad0","ios":"levelo://app?vid=86cd9e90-44cb-4b43-9437-e8fdd60d4ad0"},"vehicle_type_id":"4","last_reported":1742292611,"current_range_meters":9200,"station_id":"","pricing_plan_id":"cebpf4jnsgd1na2vs0mg"},{"bike_id":"c445c78e-fa7f-4ea8-9bdd-3797de6e755f","system_id":"levelo_inurba_marseille","lat":43.279686,"lon":5.387264,"is_reserved":false,"is_disabled":false,"rental_uris":{"android":"levelo://app?vid=c445c78e-fa7f-4ea8-9bdd-3797de6e755f","ios":"levelo://app?vid=c445c78e-fa7f-4ea8-9bdd-3797de6e755f"},"vehicle_type_id":"4","last_reported":1742292611,"current_range_meters":9200,"station_id":"ce4bhg12rcd13ifvqf70","pricing_plan_id":"cebpf4jnsgd1na2vs0mg"},{"bike_id":"55d47a86-0f32-43aa-90ec-02a4fe0bce14","system_id":"levelo_inurba_marseille","lat":43.2999,"lon":5.37179,"is_reserved":false,"is_disabled":false,"rental_uris":{"android":"levelo://app?vid=55d47a86-0f32-43aa-90ec-02a4fe0bce14","ios":"levelo://app?vid=55d47a86-0f32-43aa-90ec-02a4fe0bce14"},"vehicle_type_id":"4","last_reported":1742292611,"current_range_meters":9200,"station_id":"ce4bgr92rcd13ifvqc7g","pricing_plan_id":"cebpf4jnsgd1na2vs0mg"},{"bike_id":"ac13bb18-fac9-468b-a3ac-62f37833720e","system_id":"levelo_inurba_marseille","lat":43.29265,"lon":5.37618,"is_reserved":false,"is_disabled":false,"rental_uris":{"android":"levelo://app?vid=ac13bb18-fac9-468b-a3ac-62f37833720e","ios":"levelo://app?vid=ac13bb18-fac9-468b-a3ac-62f37833720e"},"vehicle_type_id":"4","last_reported":1742292611,"current_range_meters":9200,"station_id":"ce4bgi12rcd13ifvqb80","pricing_plan_id":"cebpf4jnsgd1na2vs0mg"},{"bike_id":"63a81eb7-9a8b-4f6c-879e-5225ac8ff5c1","system_id":"levelo_inurba_marseille","lat":43.27328,"lon":5.3911,"is_reserved":false,"is_disabled":false,"rental_uris":{"android":"levelo://app?vid=63a81eb7-9a8b-4f6c-879e-5225ac8ff5c1","ios":"levelo://app?vid=63a81eb7-9a8b-4f6c-879e-5225ac8ff5c1"},"vehicle_type_id":"4","last_reported":1742292611,"current_range_meters":8800,"station_id":"ce4bhgp2rcd13ifvqfe0","pricing_plan_id":"cebpf4jnsgd1na2vs0mg"},{"bike_id":"719eefd8-87d0-42a8-93a5-c71fe1e364aa","system_id":"levelo_inurba_marseille","lat":43.31087,"lon":5.42429,"is_reserved":false,"is_disabled":false,"rental_uris":{"android":"levelo://app?vid=719eefd8-87d0-42a8-93a5-c71fe1e364aa","ios":"levelo://app?vid=719eefd8-87d0-42a8-93a5-c71fe1e364aa"},"vehicle_type_id":"4","last_reported":1742292611,"current_range_meters":9200,"station_id":"ce4bhp92rcd13ifvqhag","pricing_plan_id":"cebpf4jnsgd1na2vs0mg"},{"bike_id":"a6afbc5c-0f48-47ca-b482-47cd182694d0","system_id":"levelo_inurba_marseille","lat":43.24408,"lon":5.37038,"is_reserved":false,"is_disabled":false,"rental_uris":{"android":"levelo://app?vid=a6afbc5c-0f48-47ca-b482-47cd182694d0","ios":"levelo://app?vid=a6afbc5c-0f48-47ca-b482-47cd182694d0"},"vehicle_type_id":"4","last_reported":1742292611,"current_range_meters":9600,"station_id":"ce4bhhh2rcd13ifvqfk0","pricing_plan_id":"cebpf4jnsgd1na2vs0mg"},{"bike_id":"d0ecd06f-b344-485c-8550-9fa5bf448f53","system_id":"levelo_inurba_marseille","lat":43.25836,"lon":5.39421,"is_reserved":false,"is_disabled":false,"rental_uris":{"android":"levelo://app?vid=d0ecd06f-b344-485c-8550-9fa5bf448f53","ios":"levelo://app?vid=d0ecd06f-b344-485c-8550-9fa5bf448f53"},"vehicle_type_id":"4","last_reported":1742292611,"current_range_meters":9600,"station_id":"ce4bhip2rcd13ifvqft0","pricing_plan_id":"cebpf4jnsgd1na2vs0mg"},{"bike_id":"b73d4104-b747-4b3f-9858-c508f4b18edd","system_id":"levelo_inurba_marseille","lat":43.32494,"lon":5.36594,"is_reserved":false,"is_disabled":false,"rental_uris":{"android":"levelo://app?vid=b73d4104-b747-4b3f-9858-c508f4b18edd","ios":"levelo://app?vid=b73d4104-b747-4b3f-9858-c508f4b18edd"},"vehicle_type_id":"4","last_reported":1742292611,"current_range_meters":9600,"station_id":"ce4bhs12rcd13ifvqhvg","pricing_plan_id":"cebpf4jnsgd1na2vs0mg"},{"bike_id":"09be20b3-ccfa-43d5-8616-036d82fe33a0","system_id":"levelo_inurba_marseille","lat":43.25,"lon":5.3894,"is_reserved":false,"is_disabled":false,"rental_uris":{"android":"levelo://app?vid=09be20b3-ccfa-43d5-8616-036d82fe33a0","ios":"levelo://app?vid=09be20b3-ccfa-43d5-8616-036d82fe33a0"},"vehicle_type_id":"4","last_reported":1742292611,"current_range_meters":9600,"station_id":"ce4bhgp2rcd13ifvqfd0","pricing_plan_id":"cebpf4jnsgd1na2vs0mg"},{"bike_id":"1ae66cb7-ae8b-4184-aa9c-67b29a9789d0","system_id":"levelo_inurba_marseille","lat":43.29778,"lon":5.39351,"is_reserved":false,"is_disabled":false,"rental_uris":{"android":"levelo://app?vid=1ae66cb7-ae8b-4184-aa9c-67b29a9789d0","ios":"levelo://app?vid=1ae66cb7-ae8b-4184-aa9c-67b29a9789d0"},"vehicle_type_id":"4","last_reported":1742292611,"current_range_meters":9600,"station_id":"chh1huq6cuj3fo74tm60","pricing_plan_id":"cebpf4jnsgd1na2vs0mg"},{"bike_id":"089246ad-6262-4f8f-a1d2-f30f8d0741ab","system_id":"levelo_inurba_marseille","lat":43.29374,"lon":5.37836,"is_reserved":false,"is_disabled":false,"rental_uris":{"android":"levelo://app?vid=089246ad-6262-4f8f-a1d2-f30f8d0741ab","ios":"levelo://app?vid=089246ad-6262-4f8f-a1d2-f30f8d0741ab"},"vehicle_type_id":"4","last_reported":1742292611,"current_range_meters":9600,"station_id":"ce4bgjh2rcd13ifvqbf0","pricing_plan_id":"cebpf4jnsgd1na2vs0mg"},{"bike_id":"cdcfbef3-0a2c-48d1-b5d0-804f53cd6d0f","system_id":"levelo_inurba_marseille","lat":43.31496,"lon":5.3731,"is_reserved":false,"is_disabled":false,"rental_uris":{"android":"levelo://app?vid=cdcfbef3-0a2c-48d1-b5d0-804f53cd6d0f","ios":"levelo://app?vid=cdcfbef3-0a2c-48d1-b5d0-804f53cd6d0f"},"vehicle_type_id":"4","last_reported":1742292611,"current_range_meters":9600,"station_id":"ce4bgt12rcd13ifvqcd0","pricing_plan_id":"cebpf4jnsgd1na2vs0mg"},{"bike_id":"393025a0-1c51-472e-a5fd-83bb9b39b412","system_id":"levelo_inurba_marseille","lat":43.25586,"lon":5.3823,"is_reserved":false,"is_disabled":false,"rental_uris":{"android":"levelo://app?vid=393025a0-1c51-472e-a5fd-83bb9b39b412","ios":"levelo://app?vid=393025a0-1c51-472e-a5fd-83bb9b39b412"},"vehicle_type_id":"4","last_reported":1742292611,"current_range_meters":9600,"station_id":"ce4bhih2rcd13ifvqfs0","pricing_plan_id":"cebpf4jnsgd1na2vs0mg"},{"bike_id":"e45941ba-8592-4b6c-9725-ba05ce72d18a","system_id":"levelo_inurba_marseille","lat":43.26206,"lon":5.37918,"is_reserved":false,"is_disabled":false,"rental_uris":{"android":"levelo://app?vid=e45941ba-8592-4b6c-9725-ba05ce72d18a","ios":"levelo://app?vid=e45941ba-8592-4b6c-9725-ba05ce72d18a"},"vehicle_type_id":"4","last_reported":1742292611,"current_range_meters":9600,"station_id":"ce4bhjp2rcd13ifvqg90","pricing_plan_id":"cebpf4jnsgd1na2vs0mg"},{"bike_id":"51f23f44-adc9-49f8-8563-11e4ac2b1978","system_id":"levelo_inurba_marseille","lat":43.23165,"lon":5.4371,"is_reserved":false,"is_disabled":false,"rental_uris":{"android":"levelo://app?vid=51f23f44-adc9-49f8-8563-11e4ac2b1978","ios":"levelo://app?vid=51f23f44-adc9-49f8-8563-11e4ac2b1978"},"vehicle_type_id":"4","last_reported":1742292611,"current_range_meters":9600,"station_id":"ce4bhmp2rcd13ifvqgog","pricing_plan_id":"cebpf4jnsgd1na2vs0mg"},{"bike_id":"741d391f-90d7-4181-bd12-a5dd4665e554","system_id":"levelo_inurba_marseille","lat":43.25935,"lon":5.40909,"is_reserved":false,"is_disabled":false,"rental_uris":{"android":"levelo://app?vid=741d391f-90d7-4181-bd12-a5dd4665e554","ios":"levelo://app?vid=741d391f-90d7-4181-bd12-a5dd4665e554"},"vehicle_type_id":"4","last_reported":1742292611,"current_range_meters":9600,"station_id":"ce4bhm92rcd13ifvqglg","pricing_plan_id":"cebpf4jnsgd1na2vs0mg"},{"bike_id":"dd4787ac-b247-4204-b3f3-a3164a30a846","system_id":"levelo_inurba_marseille","lat":43.30556,"lon":5.36535,"is_reserved":false,"is_disabled":false,"rental_uris":{"android":"levelo://app?vid=dd4787ac-b247-4204-b3f3-a3164a30a846","ios":"levelo://app?vid=dd4787ac-b247-4204-b3f3-a3164a30a846"},"vehicle_type_id":"4","last_reported":1742292611,"current_range_meters":9600,"station_id":"ce4bgs12rcd13ifvqcag","pricing_plan_id":"cebpf4jnsgd1na2vs0mg"},{"bike_id":"13ee90d6-43f1-4f5d-94d8-e0b0679e9a53","system_id":"levelo_inurba_marseille","lat":43.32136,"lon":5.36775,"is_reserved":false,"is_disabled":false,"rental_uris":{"android":"levelo://app?vid=13ee90d6-43f1-4f5d-94d8-e0b0679e9a53","ios":"levelo://app?vid=13ee90d6-43f1-4f5d-94d8-e0b0679e9a53"},"vehicle_type_id":"4","last_reported":1742292611,"current_range_meters":9600,"station_id":"","pricing_plan_id":"cebpf4jnsgd1na2vs0mg"},{"bike_id":"8ac28d78-5edd-4b74-a78b-469ba0ce1454","system_id":"levelo_inurba_marseille","lat":43.27064,"lon":5.42278,"is_reserved":false,"is_disabled":false,"rental_uris":{"android":"levelo://app?vid=8ac28d78-5edd-4b74-a78b-469ba0ce1454","ios":"levelo://app?vid=8ac28d78-5edd-4b74-a78b-469ba0ce1454"},"vehicle_type_id":"4","last_reported":1742292611,"current_range_meters":9600,"station_id":"ce4bhk92rcd13ifvqgb0","pricing_plan_id":"cebpf4jnsgd1na2vs0mg"},{"bike_id":"4e950670-b096-4049-8c8c-3012830ea5a4","system_id":"levelo_inurba_marseille","lat":43.24382,"lon":5.37032,"is_reserved":false,"is_disabled":false,"rental_uris":{"android":"levelo://app?vid=4e950670-b096-4049-8c8c-3012830ea5a4","ios":"levelo://app?vid=4e950670-b096-4049-8c8c-3012830ea5a4"},"vehicle_type_id":"4","last_reported":1742292611,"current_range_meters":9600,"station_id":"ce4bhhh2rcd13ifvqfk0","pricing_plan_id":"cebpf4jnsgd1na2vs0mg"},{"bike_id":"0b60e72b-d8b1-4266-9b63-b94b87c1ad4b","system_id":"levelo_inurba_marseille","lat":43.232,"lon":5.39981,"is_reserved":false,"is_disabled":false,"rental_uris":{"android":"levelo://app?vid=0b60e72b-d8b1-4266-9b63-b94b87c1ad4b","ios":"levelo://app?vid=0b60e72b-d8b1-4266-9b63-b94b87c1ad4b"},"vehicle_type_id":"4","last_reported":1742292611,"current_range_meters":10000,"station_id":"ce4bhn12rcd13ifvqgqg","pricing_plan_id":"cebpf4jnsgd1na2vs0mg"},{"bike_id":"39d2df96-c36f-4593-8a68-432fe8c8d072","system_id":"levelo_inurba_marseille","lat":43.29898,"lon":5.43645,"is_reserved":false,"is_disabled":false,"rental_uris":{"android":"levelo://app?vid=39d2df96-c36f-4593-8a68-432fe8c8d072","ios":"levelo://app?vid=39d2df96-c36f-4593-8a68-432fe8c8d072"},"vehicle_type_id":"4","last_reported":1742292611,"current_range_meters":10000,"station_id":"ce4bhpp2rcd13ifvqhfg","pricing_plan_id":"cebpf4jnsgd1na2vs0mg"},{"bike_id":"29477c18-ae07-40ca-abca-b6a0b19bf64e","system_id":"levelo_inurba_marseille","lat":43.29246,"lon":5.37616,"is_reserved":false,"is_disabled":false,"rental_uris":{"android":"levelo://app?vid=29477c18-ae07-40ca-abca-b6a0b19bf64e","ios":"levelo://app?vid=29477c18-ae07-40ca-abca-b6a0b19bf64e"},"vehicle_type_id":"4","last_reported":1742292611,"current_range_meters":10000,"station_id":"ce4bgi12rcd13ifvqb80","pricing_plan_id":"cebpf4jnsgd1na2vs0mg"},{"bike_id":"6ae89089-e9a4-4c17-97a1-ce9d0ea01326","system_id":"levelo_inurba_marseille","lat":43.24082,"lon":5.37754,"is_reserved":false,"is_disabled":false,"rental_uris":{"android":"levelo://app?vid=6ae89089-e9a4-4c17-97a1-ce9d0ea01326","ios":"levelo://app?vid=6ae89089-e9a4-4c17-97a1-ce9d0ea01326"},"vehicle_type_id":"4","last_reported":1742292611,"current_range_meters":10000,"station_id":"ce4bhnp2rcd13ifvqgvg","pricing_plan_id":"cebpf4jnsgd1na2vs0mg"},{"bike_id":"96e89a39-929a-49fe-8d6c-e47bf8ca7a6f","system_id":"levelo_inurba_marseille","lat":43.2306,"lon":5.35501,"is_reserved":false,"is_disabled":false,"rental_uris":{"android":"levelo://app?vid=96e89a39-929a-49fe-8d6c-e47bf8ca7a6f","ios":"levelo://app?vid=96e89a39-929a-49fe-8d6c-e47bf8ca7a6f"},"vehicle_type_id":"4","last_reported":1742292611,"current_range_meters":10000,"station_id":"cpo3342slgdg3j2ifvpg","pricing_plan_id":"cebpf4jnsgd1na2vs0mg"},{"bike_id":"02f219f4-ab1e-4f3c-b8f8-0f3f096d2dc6","system_id":"levelo_inurba_marseille","lat":43.29594,"lon":5.38094,"is_reserved":false,"is_disabled":true,"rental_uris":{"android":"levelo://app?vid=02f219f4-ab1e-4f3c-b8f8-0f3f096d2dc6","ios":"levelo://app?vid=02f219f4-ab1e-4f3c-b8f8-0f3f096d2dc6"},"vehicle_type_id":"4","last_reported":1742292611,"current_range_meters":10000,"station_id":"ce4bgl12rcd13ifvqbo0","pricing_plan_id":"cebpf4jnsgd1na2vs0mg"},{"bike_id":"f862e9bc-1834-4aa4-9875-107d013474cd","system_id":"levelo_inurba_marseille","lat":43.30129,"lon":5.39855,"is_reserved":false,"is_disabled":false,"rental_uris":{"android":"levelo://app?vid=f862e9bc-1834-4aa4-9875-107d013474cd","ios":"levelo://app?vid=f862e9bc-1834-4aa4-9875-107d013474cd"},"vehicle_type_id":"4","last_reported":1742292611,"current_range_meters":9600,"station_id":"ce4bh0h2rcd13ifvqd40","pricing_plan_id":"cebpf4jnsgd1na2vs0mg"},{"bike_id":"41bbae0e-2312-464d-8e18-793db6dada4a","system_id":"levelo_inurba_marseille","lat":43.27497,"lon":5.4245,"is_reserved":false,"is_disabled":false,"rental_uris":{"android":"levelo://app?vid=41bbae0e-2312-464d-8e18-793db6dada4a","ios":"levelo://app?vid=41bbae0e-2312-464d-8e18-793db6dada4a"},"vehicle_type_id":"4","last_reported":1742292611,"current_range_meters":10000,"station_id":"ce4bhn92rcd13ifvqgrg","pricing_plan_id":"cebpf4jnsgd1na2vs0mg"},{"bike_id":"60ba5b69-d171-44fe-b70d-d520985a06d5","system_id":"levelo_inurba_marseille","lat":43.32382,"lon":5.38865,"is_reserved":false,"is_disabled":false,"rental_uris":{"android":"levelo://app?vid=60ba5b69-d171-44fe-b70d-d520985a06d5","ios":"levelo://app?vid=60ba5b69-d171-44fe-b70d-d520985a06d5"},"vehicle_type_id":"4","last_reported":1742292611,"current_range_meters":10000,"station_id":"ce4bhqp2rcd13ifvqhog","pricing_plan_id":"cebpf4jnsgd1na2vs0mg"},{"bike_id":"34d1629b-6df8-4406-a813-43ef29045376","system_id":"levelo_inurba_marseille","lat":43.30135,"lon":5.37409,"is_reserved":false,"is_disabled":false,"rental_uris":{"android":"levelo://app?vid=34d1629b-6df8-4406-a813-43ef29045376","ios":"levelo://app?vid=34d1629b-6df8-4406-a813-43ef29045376"},"vehicle_type_id":"4","last_reported":1742292611,"current_range_meters":10000,"station_id":"ce4bgs92rcd13ifvqcc0","pricing_plan_id":"cebpf4jnsgd1na2vs0mg"},{"bike_id":"519efbbc-7577-4063-8eac-658ef30e98a3","system_id":"levelo_inurba_marseille","lat":43.25006,"lon":5.38936,"is_reserved":false,"is_disabled":false,"rental_uris":{"android":"levelo://app?vid=519efbbc-7577-4063-8eac-658ef30e98a3","ios":"levelo://app?vid=519efbbc-7577-4063-8eac-658ef30e98a3"},"vehicle_type_id":"4","last_reported":1742292611,"current_range_meters":10800,"station_id":"ce4bhgp2rcd13ifvqfd0","pricing_plan_id":"cebpf4jnsgd1na2vs0mg"},{"bike_id":"ba5d3480-1a5a-482d-ab61-a5d8efa4abbe","system_id":"levelo_inurba_marseille","lat":43.29273,"lon":5.37614,"is_reserved":false,"is_disabled":false,"rental_uris":{"android":"levelo://app?vid=ba5d3480-1a5a-482d-ab61-a5d8efa4abbe","ios":"levelo://app?vid=ba5d3480-1a5a-482d-ab61-a5d8efa4abbe"},"vehicle_type_id":"4","last_reported":1742292611,"current_range_meters":10800,"station_id":"ce4bgi12rcd13ifvqb80","pricing_plan_id":"cebpf4jnsgd1na2vs0mg"},{"bike_id":"b611c071-f0bb-41a2-aa25-420b921bc079","system_id":"levelo_inurba_marseille","lat":43.230686,"lon":5.354956,"is_reserved":false,"is_disabled":false,"rental_uris":{"android":"levelo://app?vid=b611c071-f0bb-41a2-aa25-420b921bc079","ios":"levelo://app?vid=b611c071-f0bb-41a2-aa25-420b921bc079"},"vehicle_type_id":"4","last_reported":1742292611,"current_range_meters":10800,"station_id":"cpo3342slgdg3j2ifvpg","pricing_plan_id":"cebpf4jnsgd1na2vs0mg"},{"bike_id":"54d3537b-020b-4410-97ea-7bcb303fe31c","system_id":"levelo_inurba_marseille","lat":43.31411,"lon":5.38711,"is_reserved":false,"is_disabled":false,"rental_uris":{"android":"levelo://app?vid=54d3537b-020b-4410-97ea-7bcb303fe31c","ios":"levelo://app?vid=54d3537b-020b-4410-97ea-7bcb303fe31c"},"vehicle_type_id":"4","last_reported":1742292611,"current_range_meters":2800,"station_id":"ce4bhqp2rcd13ifvqhng","pricing_plan_id":"cebpf4jnsgd1na2vs0mg"},{"bike_id":"c43dfde1-dee5-4fc4-920e-8a097ca9ffe4","system_id":"levelo_inurba_marseille","lat":43.2623,"lon":5.40451,"is_reserved":false,"is_disabled":false,"rental_uris":{"android":"levelo://app?vid=c43dfde1-dee5-4fc4-920e-8a097ca9ffe4","ios":"levelo://app?vid=c43dfde1-dee5-4fc4-920e-8a097ca9ffe4"},"vehicle_type_id":"4","last_reported":1742292611,"current_range_meters":10800,"station_id":"ce4bhmh2rcd13ifvqgmg","pricing_plan_id":"cebpf4jnsgd1na2vs0mg"},{"bike_id":"a40d4d47-6be5-4d79-a40d-2b2ae57e199d","system_id":"levelo_inurba_marseille","lat":43.29622,"lon":5.37173,"is_reserved":false,"is_disabled":false,"rental_uris":{"android":"levelo://app?vid=a40d4d47-6be5-4d79-a40d-2b2ae57e199d","ios":"levelo://app?vid=a40d4d47-6be5-4d79-a40d-2b2ae57e199d"},"vehicle_type_id":"4","last_reported":1742292611,"current_range_meters":10000,"station_id":"ce4bgnh2rcd13ifvqc0g","pricing_plan_id":"cebpf4jnsgd1na2vs0mg"},{"bike_id":"5b9abdf1-3bd3-4da9-8cf3-0850e045aa24","system_id":"levelo_inurba_marseille","lat":43.23069,"lon":5.35494,"is_reserved":false,"is_disabled":false,"rental_uris":{"android":"levelo://app?vid=5b9abdf1-3bd3-4da9-8cf3-0850e045aa24","ios":"levelo://app?vid=5b9abdf1-3bd3-4da9-8cf3-0850e045aa24"},"vehicle_type_id":"4","last_reported":1742292611,"current_range_meters":10800,"station_id":"cpo3342slgdg3j2ifvpg","pricing_plan_id":"cebpf4jnsgd1na2vs0mg"},{"bike_id":"ff259c29-896d-4d9f-aa27-af6893f9dff1","system_id":"levelo_inurba_marseille","lat":43.28671,"lon":5.35158,"is_reserved":false,"is_disabled":false,"rental_uris":{"android":"levelo://app?vid=ff259c29-896d-4d9f-aa27-af6893f9dff1","ios":"levelo://app?vid=ff259c29-896d-4d9f-aa27-af6893f9dff1"},"vehicle_type_id":"4","last_reported":1742292611,"current_range_meters":10800,"station_id":"ce4bhch2rcd13ifvqeug","pricing_plan_id":"cebpf4jnsgd1na2vs0mg"},{"bike_id":"89a9a07a-5569-426e-baa6-da72a98a25be","system_id":"levelo_inurba_marseille","lat":43.32365,"lon":5.38871,"is_reserved":false,"is_disabled":false,"rental_uris":{"android":"levelo://app?vid=89a9a07a-5569-426e-baa6-da72a98a25be","ios":"levelo://app?vid=89a9a07a-5569-426e-baa6-da72a98a25be"},"vehicle_type_id":"4","last_reported":1742292611,"current_range_meters":10800,"station_id":"ce4bhqp2rcd13ifvqhog","pricing_plan_id":"cebpf4jnsgd1na2vs0mg"},{"bike_id":"25ced1d0-c7f3-4b5e-b25e-0f66ead06834","system_id":"levelo_inurba_marseille","lat":43.25868,"lon":5.39903,"is_reserved":false,"is_disabled":true,"rental_uris":{"android":"levelo://app?vid=25ced1d0-c7f3-4b5e-b25e-0f66ead06834","ios":"levelo://app?vid=25ced1d0-c7f3-4b5e-b25e-0f66ead06834"},"vehicle_type_id":"4","last_reported":1742292611,"current_range_meters":11200,"station_id":"ce4bhl92rcd13ifvqghg","pricing_plan_id":"cebpf4jnsgd1na2vs0mg"},{"bike_id":"556684a2-dbc0-411e-bc60-3a853e342ff2","system_id":"levelo_inurba_marseille","lat":43.24823,"lon":5.37456,"is_reserved":false,"is_disabled":false,"rental_uris":{"android":"levelo://app?vid=556684a2-dbc0-411e-bc60-3a853e342ff2","ios":"levelo://app?vid=556684a2-dbc0-411e-bc60-3a853e342ff2"},"vehicle_type_id":"4","last_reported":1742292611,"current_range_meters":11200,"station_id":"ce4bhgh2rcd13ifvqfb0","pricing_plan_id":"cebpf4jnsgd1na2vs0mg"},{"bike_id":"181e3e56-f011-4aab-956d-9d49d55e063c","system_id":"levelo_inurba_marseille","lat":43.32363,"lon":5.36761,"is_reserved":false,"is_disabled":false,"rental_uris":{"android":"levelo://app?vid=181e3e56-f011-4aab-956d-9d49d55e063c","ios":"levelo://app?vid=181e3e56-f011-4aab-956d-9d49d55e063c"},"vehicle_type_id":"4","last_reported":1742292611,"current_range_meters":11200,"station_id":"ce4bhsh2rcd13ifvqi2g","pricing_plan_id":"cebpf4jnsgd1na2vs0mg"},{"bike_id":"df22a083-8fbb-40ab-8bc3-4f155e555e5b","system_id":"levelo_inurba_marseille","lat":43.2408,"lon":5.37752,"is_reserved":false,"is_disabled":false,"rental_uris":{"android":"levelo://app?vid=df22a083-8fbb-40ab-8bc3-4f155e555e5b","ios":"levelo://app?vid=df22a083-8fbb-40ab-8bc3-4f155e555e5b"},"vehicle_type_id":"4","last_reported":1742292611,"current_range_meters":11200,"station_id":"ce4bhnp2rcd13ifvqgvg","pricing_plan_id":"cebpf4jnsgd1na2vs0mg"},{"bike_id":"2e5d6cf4-8893-46b8-886b-3950dbb0f29a","system_id":"levelo_inurba_marseille","lat":43.26693,"lon":5.38268,"is_reserved":false,"is_disabled":false,"rental_uris":{"android":"levelo://app?vid=2e5d6cf4-8893-46b8-886b-3950dbb0f29a","ios":"levelo://app?vid=2e5d6cf4-8893-46b8-886b-3950dbb0f29a"},"vehicle_type_id":"4","last_reported":1742292611,"current_range_meters":11200,"station_id":"ce4bhg92rcd13ifvqf90","pricing_plan_id":"cebpf4jnsgd1na2vs0mg"},{"bike_id":"b885f75f-3c96-46ec-8caf-25e821eabbb9","system_id":"levelo_inurba_marseille","lat":43.23142,"lon":5.437,"is_reserved":false,"is_disabled":false,"rental_uris":{"android":"levelo://app?vid=b885f75f-3c96-46ec-8caf-25e821eabbb9","ios":"levelo://app?vid=b885f75f-3c96-46ec-8caf-25e821eabbb9"},"vehicle_type_id":"4","last_reported":1742292611,"current_range_meters":11200,"station_id":"ce4bhmp2rcd13ifvqgog","pricing_plan_id":"cebpf4jnsgd1na2vs0mg"},{"bike_id":"7f2d3a10-fb38-49e6-9c91-ea2286af82e2","system_id":"levelo_inurba_marseille","lat":43.25936,"lon":5.40892,"is_reserved":false,"is_disabled":false,"rental_uris":{"android":"levelo://app?vid=7f2d3a10-fb38-49e6-9c91-ea2286af82e2","ios":"levelo://app?vid=7f2d3a10-fb38-49e6-9c91-ea2286af82e2"},"vehicle_type_id":"4","last_reported":1742292611,"current_range_meters":11200,"station_id":"ce4bhm92rcd13ifvqglg","pricing_plan_id":"cebpf4jnsgd1na2vs0mg"},{"bike_id":"fe78a566-04ec-4269-a62f-23329583c7d4","system_id":"levelo_inurba_marseille","lat":43.32504,"lon":5.36575,"is_reserved":false,"is_disabled":false,"rental_uris":{"android":"levelo://app?vid=fe78a566-04ec-4269-a62f-23329583c7d4","ios":"levelo://app?vid=fe78a566-04ec-4269-a62f-23329583c7d4"},"vehicle_type_id":"4","last_reported":1742292611,"current_range_meters":11200,"station_id":"ce4bhs12rcd13ifvqhvg","pricing_plan_id":"cebpf4jnsgd1na2vs0mg"},{"bike_id":"68cc12d4-dbb0-4edf-b050-67efc670d3a8","system_id":"levelo_inurba_marseille","lat":43.31238,"lon":5.36877,"is_reserved":false,"is_disabled":false,"rental_uris":{"android":"levelo://app?vid=68cc12d4-dbb0-4edf-b050-67efc670d3a8","ios":"levelo://app?vid=68cc12d4-dbb0-4edf-b050-67efc670d3a8"},"vehicle_type_id":"4","last_reported":1742292611,"current_range_meters":11200,"station_id":"ce4bgl92rcd13ifvqbq0","pricing_plan_id":"cebpf4jnsgd1na2vs0mg"},{"bike_id":"522f99cb-f105-4bf1-8b05-dccec75ba908","system_id":"levelo_inurba_marseille","lat":43.302756,"lon":5.37683,"is_reserved":false,"is_disabled":true,"rental_uris":{"android":"levelo://app?vid=522f99cb-f105-4bf1-8b05-dccec75ba908","ios":"levelo://app?vid=522f99cb-f105-4bf1-8b05-dccec75ba908"},"vehicle_type_id":"4","last_reported":1742292611,"current_range_meters":11600,"station_id":"","pricing_plan_id":"cebpf4jnsgd1na2vs0mg"},{"bike_id":"d219273c-516a-433e-8518-27ae4fe8fad4","system_id":"levelo_inurba_marseille","lat":43.27679,"lon":5.38848,"is_reserved":false,"is_disabled":false,"rental_uris":{"android":"levelo://app?vid=d219273c-516a-433e-8518-27ae4fe8fad4","ios":"levelo://app?vid=d219273c-516a-433e-8518-27ae4fe8fad4"},"vehicle_type_id":"4","last_reported":1742292611,"current_range_meters":11600,"station_id":"ce4bhi12rcd13ifvqfo0","pricing_plan_id":"cebpf4jnsgd1na2vs0mg"},{"bike_id":"6d985db4-1dee-417e-a887-82d742f29815","system_id":"levelo_inurba_marseille","lat":43.27061,"lon":5.4026,"is_reserved":false,"is_disabled":true,"rental_uris":{"android":"levelo://app?vid=6d985db4-1dee-417e-a887-82d742f29815","ios":"levelo://app?vid=6d985db4-1dee-417e-a887-82d742f29815"},"vehicle_type_id":"4","last_reported":1742292611,"current_range_meters":12000,"station_id":"ce4bhk92rcd13ifvqgc0","pricing_plan_id":"cebpf4jnsgd1na2vs0mg"},{"bike_id":"d00028dc-9b0d-47df-ad9d-778d21fb21b2","system_id":"levelo_inurba_marseille","lat":43.23204,"lon":5.35557,"is_reserved":false,"is_disabled":false,"rental_uris":{"android":"levelo://app?vid=d00028dc-9b0d-47df-ad9d-778d21fb21b2","ios":"levelo://app?vid=d00028dc-9b0d-47df-ad9d-778d21fb21b2"},"vehicle_type_id":"4","last_reported":1742292611,"current_range_meters":12000,"station_id":"ce4bhu92rcd13ifvqi70","pricing_plan_id":"cebpf4jnsgd1na2vs0mg"},{"bike_id":"1b3cc6c9-4228-43d9-b632-b84cec2340c1","system_id":"levelo_inurba_marseille","lat":43.28172,"lon":5.42627,"is_reserved":false,"is_disabled":false,"rental_uris":{"android":"levelo://app?vid=1b3cc6c9-4228-43d9-b632-b84cec2340c1","ios":"levelo://app?vid=1b3cc6c9-4228-43d9-b632-b84cec2340c1"},"vehicle_type_id":"4","last_reported":1742292611,"current_range_meters":12000,"station_id":"ce4bhnh2rcd13ifvqgug","pricing_plan_id":"cebpf4jnsgd1na2vs0mg"},{"bike_id":"872c5e66-df30-4514-87b5-fb0b582ec854","system_id":"levelo_inurba_marseille","lat":43.2935,"lon":5.41163,"is_reserved":false,"is_disabled":false,"rental_uris":{"android":"levelo://app?vid=872c5e66-df30-4514-87b5-fb0b582ec854","ios":"levelo://app?vid=872c5e66-df30-4514-87b5-fb0b582ec854"},"vehicle_type_id":"4","last_reported":1742292611,"current_range_meters":12000,"station_id":"","pricing_plan_id":"cebpf4jnsgd1na2vs0mg"},{"bike_id":"37962361-eb60-43c8-9b46-342d6fca5b1f","system_id":"levelo_inurba_marseille","lat":43.30165,"lon":5.37391,"is_reserved":false,"is_disabled":false,"rental_uris":{"android":"levelo://app?vid=37962361-eb60-43c8-9b46-342d6fca5b1f","ios":"levelo://app?vid=37962361-eb60-43c8-9b46-342d6fca5b1f"},"vehicle_type_id":"4","last_reported":1742292611,"current_range_meters":12000,"station_id":"ce4bgs92rcd13ifvqcc0","pricing_plan_id":"cebpf4jnsgd1na2vs0mg"},{"bike_id":"ad21d957-c0ea-4c86-82f5-b3682e2201c9","system_id":"levelo_inurba_marseille","lat":43.24186,"lon":5.39704,"is_reserved":false,"is_disabled":false,"rental_uris":{"android":"levelo://app?vid=ad21d957-c0ea-4c86-82f5-b3682e2201c9","ios":"levelo://app?vid=ad21d957-c0ea-4c86-82f5-b3682e2201c9"},"vehicle_type_id":"4","last_reported":1742292611,"current_range_meters":12000,"station_id":"ce4bhn12rcd13ifvqgpg","pricing_plan_id":"cebpf4jnsgd1na2vs0mg"},{"bike_id":"9603036f-f909-4536-879a-5d5942573840","system_id":"levelo_inurba_marseille","lat":43.3047,"lon":5.37909,"is_reserved":false,"is_disabled":false,"rental_uris":{"android":"levelo://app?vid=9603036f-f909-4536-879a-5d5942573840","ios":"levelo://app?vid=9603036f-f909-4536-879a-5d5942573840"},"vehicle_type_id":"4","last_reported":1742292611,"current_range_meters":12000,"station_id":"ce4bgup2rcd13ifvqcn0","pricing_plan_id":"cebpf4jnsgd1na2vs0mg"},{"bike_id":"6d527f34-1ee7-445a-8e78-2ab5c724d4c9","system_id":"levelo_inurba_marseille","lat":43.29595,"lon":5.37732,"is_reserved":false,"is_disabled":false,"rental_uris":{"android":"levelo://app?vid=6d527f34-1ee7-445a-8e78-2ab5c724d4c9","ios":"levelo://app?vid=6d527f34-1ee7-445a-8e78-2ab5c724d4c9"},"vehicle_type_id":"4","last_reported":1742292611,"current_range_meters":12000,"station_id":"ce4bgi92rcd13ifvqb90","pricing_plan_id":"cebpf4jnsgd1na2vs0mg"},{"bike_id":"21ccb767-52a1-45b3-a164-abf872aeb2d6","system_id":"levelo_inurba_marseille","lat":43.33625,"lon":5.41016,"is_reserved":false,"is_disabled":true,"rental_uris":{"android":"levelo://app?vid=21ccb767-52a1-45b3-a164-abf872aeb2d6","ios":"levelo://app?vid=21ccb767-52a1-45b3-a164-abf872aeb2d6"},"vehicle_type_id":"4","last_reported":1742292611,"current_range_meters":12400,"station_id":"ce4bhqh2rcd13ifvqhmg","pricing_plan_id":"cebpf4jnsgd1na2vs0mg"},{"bike_id":"ca1c0a28-8faf-435f-9d8b-370c3a07ff34","system_id":"levelo_inurba_marseille","lat":43.24183,"lon":5.36385,"is_reserved":false,"is_disabled":false,"rental_uris":{"android":"levelo://app?vid=ca1c0a28-8faf-435f-9d8b-370c3a07ff34","ios":"levelo://app?vid=ca1c0a28-8faf-435f-9d8b-370c3a07ff34"},"vehicle_type_id":"4","last_reported":1742292611,"current_range_meters":12400,"station_id":"cpo36qri1sfpv3e86is0","pricing_plan_id":"cebpf4jnsgd1na2vs0mg"},{"bike_id":"ae5607e8-7e53-43b8-bdfb-f4fb95825493","system_id":"levelo_inurba_marseille","lat":43.26876,"lon":5.38519,"is_reserved":false,"is_disabled":false,"rental_uris":{"android":"levelo://app?vid=ae5607e8-7e53-43b8-bdfb-f4fb95825493","ios":"levelo://app?vid=ae5607e8-7e53-43b8-bdfb-f4fb95825493"},"vehicle_type_id":"4","last_reported":1742292611,"current_range_meters":12400,"station_id":"","pricing_plan_id":"cebpf4jnsgd1na2vs0mg"},{"bike_id":"8581e34a-e545-4ecd-94c3-9ab5366e4794","system_id":"levelo_inurba_marseille","lat":43.275,"lon":5.42462,"is_reserved":false,"is_disabled":false,"rental_uris":{"android":"levelo://app?vid=8581e34a-e545-4ecd-94c3-9ab5366e4794","ios":"levelo://app?vid=8581e34a-e545-4ecd-94c3-9ab5366e4794"},"vehicle_type_id":"4","last_reported":1742292611,"current_range_meters":12400,"station_id":"ce4bhn92rcd13ifvqgrg","pricing_plan_id":"cebpf4jnsgd1na2vs0mg"},{"bike_id":"03c61c1a-c7b9-49d5-89cb-954656420981","system_id":"levelo_inurba_marseille","lat":43.25872,"lon":5.3989,"is_reserved":false,"is_disabled":false,"rental_uris":{"android":"levelo://app?vid=03c61c1a-c7b9-49d5-89cb-954656420981","ios":"levelo://app?vid=03c61c1a-c7b9-49d5-89cb-954656420981"},"vehicle_type_id":"4","last_reported":1742292611,"current_range_meters":12000,"station_id":"ce4bhl92rcd13ifvqghg","pricing_plan_id":"cebpf4jnsgd1na2vs0mg"},{"bike_id":"fbd842af-9962-489f-90b7-1ff9f2dc453d","system_id":"levelo_inurba_marseille","lat":43.29901,"lon":5.38148,"is_reserved":false,"is_disabled":false,"rental_uris":{"android":"levelo://app?vid=fbd842af-9962-489f-90b7-1ff9f2dc453d","ios":"levelo://app?vid=fbd842af-9962-489f-90b7-1ff9f2dc453d"},"vehicle_type_id":"4","last_reported":1742292611,"current_range_meters":12400,"station_id":"ce4bgj12rcd13ifvqbc0","pricing_plan_id":"cebpf4jnsgd1na2vs0mg"},{"bike_id":"883b32dd-5060-41c4-aeea-e2267cfa2618","system_id":"levelo_inurba_marseille","lat":43.28001,"lon":5.41667,"is_reserved":false,"is_disabled":false,"rental_uris":{"android":"levelo://app?vid=883b32dd-5060-41c4-aeea-e2267cfa2618","ios":"levelo://app?vid=883b32dd-5060-41c4-aeea-e2267cfa2618"},"vehicle_type_id":"4","last_reported":1742292611,"current_range_meters":12000,"station_id":"ce4bho12rcd13ifvqh1g","pricing_plan_id":"cebpf4jnsgd1na2vs0mg"},{"bike_id":"30afd827-1af8-40de-a576-149b865b7207","system_id":"levelo_inurba_marseille","lat":43.2409,"lon":5.37738,"is_reserved":false,"is_disabled":false,"rental_uris":{"android":"levelo://app?vid=30afd827-1af8-40de-a576-149b865b7207","ios":"levelo://app?vid=30afd827-1af8-40de-a576-149b865b7207"},"vehicle_type_id":"4","last_reported":1742292611,"current_range_meters":12800,"station_id":"ce4bhnp2rcd13ifvqgvg","pricing_plan_id":"cebpf4jnsgd1na2vs0mg"},{"bike_id":"0cb439ba-c73c-4e00-a10d-d81c8bff11ec","system_id":"levelo_inurba_marseille","lat":43.32506,"lon":5.3656,"is_reserved":false,"is_disabled":false,"rental_uris":{"android":"levelo://app?vid=0cb439ba-c73c-4e00-a10d-d81c8bff11ec","ios":"levelo://app?vid=0cb439ba-c73c-4e00-a10d-d81c8bff11ec"},"vehicle_type_id":"4","last_reported":1742292611,"current_range_meters":12800,"station_id":"ce4bhs12rcd13ifvqhvg","pricing_plan_id":"cebpf4jnsgd1na2vs0mg"},{"bike_id":"175919c0-deb0-4e48-9a06-eea90edc3e69","system_id":"levelo_inurba_marseille","lat":43.23191,"lon":5.35548,"is_reserved":false,"is_disabled":false,"rental_uris":{"android":"levelo://app?vid=175919c0-deb0-4e48-9a06-eea90edc3e69","ios":"levelo://app?vid=175919c0-deb0-4e48-9a06-eea90edc3e69"},"vehicle_type_id":"4","last_reported":1742292611,"current_range_meters":12800,"station_id":"ce4bhu92rcd13ifvqi70","pricing_plan_id":"cebpf4jnsgd1na2vs0mg"},{"bike_id":"ab11fa9b-759f-447f-a4f1-b143e2360775","system_id":"levelo_inurba_marseille","lat":43.3135,"lon":5.39158,"is_reserved":false,"is_disabled":false,"rental_uris":{"android":"levelo://app?vid=ab11fa9b-759f-447f-a4f1-b143e2360775","ios":"levelo://app?vid=ab11fa9b-759f-447f-a4f1-b143e2360775"},"vehicle_type_id":"4","last_reported":1742292611,"current_range_meters":12800,"station_id":"","pricing_plan_id":"cebpf4jnsgd1na2vs0mg"},{"bike_id":"858d25c4-ac98-4d98-8cf5-98c8469b7682","system_id":"levelo_inurba_marseille","lat":43.30479,"lon":5.37897,"is_reserved":false,"is_disabled":false,"rental_uris":{"android":"levelo://app?vid=858d25c4-ac98-4d98-8cf5-98c8469b7682","ios":"levelo://app?vid=858d25c4-ac98-4d98-8cf5-98c8469b7682"},"vehicle_type_id":"4","last_reported":1742292611,"current_range_meters":12800,"station_id":"ce4bgup2rcd13ifvqcn0","pricing_plan_id":"cebpf4jnsgd1na2vs0mg"},{"bike_id":"b98e3221-2ae6-41a2-9202-ae163e9517f2","system_id":"levelo_inurba_marseille","lat":43.25599,"lon":5.38239,"is_reserved":false,"is_disabled":false,"rental_uris":{"android":"levelo://app?vid=b98e3221-2ae6-41a2-9202-ae163e9517f2","ios":"levelo://app?vid=b98e3221-2ae6-41a2-9202-ae163e9517f2"},"vehicle_type_id":"4","last_reported":1742292611,"current_range_meters":12800,"station_id":"ce4bhih2rcd13ifvqfs0","pricing_plan_id":"cebpf4jnsgd1na2vs0mg"},{"bike_id":"d36c89e8-07d2-4942-be59-0b2e43ed175d","system_id":"levelo_inurba_marseille","lat":43.25909,"lon":5.40882,"is_reserved":false,"is_disabled":false,"rental_uris":{"android":"levelo://app?vid=d36c89e8-07d2-4942-be59-0b2e43ed175d","ios":"levelo://app?vid=d36c89e8-07d2-4942-be59-0b2e43ed175d"},"vehicle_type_id":"4","last_reported":1742292611,"current_range_meters":12800,"station_id":"ce4bhm92rcd13ifvqglg","pricing_plan_id":"cebpf4jnsgd1na2vs0mg"},{"bike_id":"28d8c9b5-433d-4344-a7fd-4e275c6ecc86","system_id":"levelo_inurba_marseille","lat":43.2738,"lon":5.36253,"is_reserved":false,"is_disabled":false,"rental_uris":{"android":"levelo://app?vid=28d8c9b5-433d-4344-a7fd-4e275c6ecc86","ios":"levelo://app?vid=28d8c9b5-433d-4344-a7fd-4e275c6ecc86"},"vehicle_type_id":"4","last_reported":1742292611,"current_range_meters":12400,"station_id":"ce4bhbh2rcd13ifvqeo0","pricing_plan_id":"cebpf4jnsgd1na2vs0mg"},{"bike_id":"eed027ac-0482-4d92-b718-3d0cbe4abcf8","system_id":"levelo_inurba_marseille","lat":43.30599,"lon":5.39353,"is_reserved":false,"is_disabled":false,"rental_uris":{"android":"levelo://app?vid=eed027ac-0482-4d92-b718-3d0cbe4abcf8","ios":"levelo://app?vid=eed027ac-0482-4d92-b718-3d0cbe4abcf8"},"vehicle_type_id":"4","last_reported":1742292611,"current_range_meters":12800,"station_id":"ce4bh0p2rcd13ifvqd80","pricing_plan_id":"cebpf4jnsgd1na2vs0mg"},{"bike_id":"0d8011d2-740d-4898-8f44-8bbfcee4f52c","system_id":"levelo_inurba_marseille","lat":43.29257,"lon":5.37622,"is_reserved":false,"is_disabled":false,"rental_uris":{"android":"levelo://app?vid=0d8011d2-740d-4898-8f44-8bbfcee4f52c","ios":"levelo://app?vid=0d8011d2-740d-4898-8f44-8bbfcee4f52c"},"vehicle_type_id":"4","last_reported":1742292611,"current_range_meters":12800,"station_id":"ce4bgi12rcd13ifvqb80","pricing_plan_id":"cebpf4jnsgd1na2vs0mg"},{"bike_id":"d90eb5ce-4342-41d6-aaee-7b3fafa392b3","system_id":"levelo_inurba_marseille","lat":43.25803,"lon":5.39925,"is_reserved":false,"is_disabled":false,"rental_uris":{"android":"levelo://app?vid=d90eb5ce-4342-41d6-aaee-7b3fafa392b3","ios":"levelo://app?vid=d90eb5ce-4342-41d6-aaee-7b3fafa392b3"},"vehicle_type_id":"4","last_reported":1742292611,"current_range_meters":13600,"station_id":"ce4bhl92rcd13ifvqghg","pricing_plan_id":"cebpf4jnsgd1na2vs0mg"},{"bike_id":"1787cd3c-5141-4d06-b4be-5f05d85aa4df","system_id":"levelo_inurba_marseille","lat":43.31239,"lon":5.36839,"is_reserved":false,"is_disabled":false,"rental_uris":{"android":"levelo://app?vid=1787cd3c-5141-4d06-b4be-5f05d85aa4df","ios":"levelo://app?vid=1787cd3c-5141-4d06-b4be-5f05d85aa4df"},"vehicle_type_id":"4","last_reported":1742292611,"current_range_meters":13600,"station_id":"ce4bgl92rcd13ifvqbq0","pricing_plan_id":"cebpf4jnsgd1na2vs0mg"},{"bike_id":"6bf208f0-1f91-42ee-abaa-625357b8ef9d","system_id":"levelo_inurba_marseille","lat":43.30544,"lon":5.36535,"is_reserved":false,"is_disabled":false,"rental_uris":{"android":"levelo://app?vid=6bf208f0-1f91-42ee-abaa-625357b8ef9d","ios":"levelo://app?vid=6bf208f0-1f91-42ee-abaa-625357b8ef9d"},"vehicle_type_id":"4","last_reported":1742292611,"current_range_meters":13600,"station_id":"ce4bgs12rcd13ifvqcag","pricing_plan_id":"cebpf4jnsgd1na2vs0mg"},{"bike_id":"89cb3140-d211-4c4d-97ca-7e01c3c4da90","system_id":"levelo_inurba_marseille","lat":43.23202,"lon":5.3555,"is_reserved":false,"is_disabled":false,"rental_uris":{"android":"levelo://app?vid=89cb3140-d211-4c4d-97ca-7e01c3c4da90","ios":"levelo://app?vid=89cb3140-d211-4c4d-97ca-7e01c3c4da90"},"vehicle_type_id":"4","last_reported":1742292611,"current_range_meters":13600,"station_id":"ce4bhu92rcd13ifvqi70","pricing_plan_id":"cebpf4jnsgd1na2vs0mg"},{"bike_id":"2ff0bf88-6fcd-42ec-a3e0-38f5efd75038","system_id":"levelo_inurba_marseille","lat":43.31294,"lon":5.36843,"is_reserved":false,"is_disabled":false,"rental_uris":{"android":"levelo://app?vid=2ff0bf88-6fcd-42ec-a3e0-38f5efd75038","ios":"levelo://app?vid=2ff0bf88-6fcd-42ec-a3e0-38f5efd75038"},"vehicle_type_id":"4","last_reported":1742292611,"current_range_meters":13600,"station_id":"","pricing_plan_id":"cebpf4jnsgd1na2vs0mg"},{"bike_id":"add2a4b5-1f6a-433f-ae34-9075a4d3f8ff","system_id":"levelo_inurba_marseille","lat":43.30549,"lon":5.36547,"is_reserved":false,"is_disabled":false,"rental_uris":{"android":"levelo://app?vid=add2a4b5-1f6a-433f-ae34-9075a4d3f8ff","ios":"levelo://app?vid=add2a4b5-1f6a-433f-ae34-9075a4d3f8ff"},"vehicle_type_id":"4","last_reported":1742292611,"current_range_meters":14000,"station_id":"ce4bgs12rcd13ifvqcag","pricing_plan_id":"cebpf4jnsgd1na2vs0mg"},{"bike_id":"1cd029aa-a311-4fe2-896c-44e7db02ca5f","system_id":"levelo_inurba_marseille","lat":43.29003,"lon":5.356,"is_reserved":false,"is_disabled":false,"rental_uris":{"android":"levelo://app?vid=1cd029aa-a311-4fe2-896c-44e7db02ca5f","ios":"levelo://app?vid=1cd029aa-a311-4fe2-896c-44e7db02ca5f"},"vehicle_type_id":"4","last_reported":1742292611,"current_range_meters":14000,"station_id":"ce4bhb92rcd13ifvqen0","pricing_plan_id":"cebpf4jnsgd1na2vs0mg"},{"bike_id":"b6f9b9ce-289a-4e66-b4d0-984ba11df15f","system_id":"levelo_inurba_marseille","lat":43.31227,"lon":5.3689,"is_reserved":false,"is_disabled":false,"rental_uris":{"android":"levelo://app?vid=b6f9b9ce-289a-4e66-b4d0-984ba11df15f","ios":"levelo://app?vid=b6f9b9ce-289a-4e66-b4d0-984ba11df15f"},"vehicle_type_id":"4","last_reported":1742292611,"current_range_meters":14400,"station_id":"ce4bgl92rcd13ifvqbq0","pricing_plan_id":"cebpf4jnsgd1na2vs0mg"},{"bike_id":"01cd1ae6-bf8d-4270-b368-31e9791618b1","system_id":"levelo_inurba_marseille","lat":43.31404,"lon":5.36707,"is_reserved":false,"is_disabled":false,"rental_uris":{"android":"levelo://app?vid=01cd1ae6-bf8d-4270-b368-31e9791618b1","ios":"levelo://app?vid=01cd1ae6-bf8d-4270-b368-31e9791618b1"},"vehicle_type_id":"4","last_reported":1742292611,"current_range_meters":14400,"station_id":"ce4bgr92rcd13ifvqc6g","pricing_plan_id":"cebpf4jnsgd1na2vs0mg"},{"bike_id":"0452794a-f238-449d-9cbc-919488d00919","system_id":"levelo_inurba_marseille","lat":43.26951,"lon":5.38631,"is_reserved":false,"is_disabled":false,"rental_uris":{"android":"levelo://app?vid=0452794a-f238-449d-9cbc-919488d00919","ios":"levelo://app?vid=0452794a-f238-449d-9cbc-919488d00919"},"vehicle_type_id":"4","last_reported":1742292611,"current_range_meters":14400,"station_id":"ce4bhh92rcd13ifvqfh0","pricing_plan_id":"cebpf4jnsgd1na2vs0mg"},{"bike_id":"c29d667d-00d2-407a-a2d0-354bafe5bd9f","system_id":"levelo_inurba_marseille","lat":43.31356,"lon":5.36717,"is_reserved":false,"is_disabled":false,"rental_uris":{"android":"levelo://app?vid=c29d667d-00d2-407a-a2d0-354bafe5bd9f","ios":"levelo://app?vid=c29d667d-00d2-407a-a2d0-354bafe5bd9f"},"vehicle_type_id":"4","last_reported":1742292611,"current_range_meters":14400,"station_id":"ce4bgr92rcd13ifvqc6g","pricing_plan_id":"cebpf4jnsgd1na2vs0mg"},{"bike_id":"89c71be1-4e0c-4e4c-b380-146488b4338b","system_id":"levelo_inurba_marseille","lat":43.23061,"lon":5.35503,"is_reserved":false,"is_disabled":false,"rental_uris":{"android":"levelo://app?vid=89c71be1-4e0c-4e4c-b380-146488b4338b","ios":"levelo://app?vid=89c71be1-4e0c-4e4c-b380-146488b4338b"},"vehicle_type_id":"4","last_reported":1742292611,"current_range_meters":14400,"station_id":"cpo3342slgdg3j2ifvpg","pricing_plan_id":"cebpf4jnsgd1na2vs0mg"},{"bike_id":"46fb0b1b-1955-4ab4-b766-1924deb90ec6","system_id":"levelo_inurba_marseille","lat":43.24074,"lon":5.37755,"is_reserved":false,"is_disabled":false,"rental_uris":{"android":"levelo://app?vid=46fb0b1b-1955-4ab4-b766-1924deb90ec6","ios":"levelo://app?vid=46fb0b1b-1955-4ab4-b766-1924deb90ec6"},"vehicle_type_id":"4","last_reported":1742292611,"current_range_meters":14400,"station_id":"ce4bhnp2rcd13ifvqgvg","pricing_plan_id":"cebpf4jnsgd1na2vs0mg"},{"bike_id":"51340ab1-538a-4c08-bec1-bdaac5a5d72f","system_id":"levelo_inurba_marseille","lat":43.2315,"lon":5.437,"is_reserved":false,"is_disabled":false,"rental_uris":{"android":"levelo://app?vid=51340ab1-538a-4c08-bec1-bdaac5a5d72f","ios":"levelo://app?vid=51340ab1-538a-4c08-bec1-bdaac5a5d72f"},"vehicle_type_id":"4","last_reported":1742292611,"current_range_meters":14400,"station_id":"ce4bhmp2rcd13ifvqgog","pricing_plan_id":"cebpf4jnsgd1na2vs0mg"},{"bike_id":"1b816da1-b5df-49f9-9180-41dff3e2b872","system_id":"levelo_inurba_marseille","lat":43.24186,"lon":5.39729,"is_reserved":false,"is_disabled":false,"rental_uris":{"android":"levelo://app?vid=1b816da1-b5df-49f9-9180-41dff3e2b872","ios":"levelo://app?vid=1b816da1-b5df-49f9-9180-41dff3e2b872"},"vehicle_type_id":"4","last_reported":1742292611,"current_range_meters":14800,"station_id":"ce4bhn12rcd13ifvqgpg","pricing_plan_id":"cebpf4jnsgd1na2vs0mg"},{"bike_id":"799e3b42-750b-4ac2-b15d-a146857b0572","system_id":"levelo_inurba_marseille","lat":43.2962,"lon":5.37163,"is_reserved":false,"is_disabled":false,"rental_uris":{"android":"levelo://app?vid=799e3b42-750b-4ac2-b15d-a146857b0572","ios":"levelo://app?vid=799e3b42-750b-4ac2-b15d-a146857b0572"},"vehicle_type_id":"4","last_reported":1742292611,"current_range_meters":14800,"station_id":"ce4bgnh2rcd13ifvqc0g","pricing_plan_id":"cebpf4jnsgd1na2vs0mg"},{"bike_id":"623b1d48-fe8c-4a6a-b45e-f5a8ef1ac996","system_id":"levelo_inurba_marseille","lat":43.30541,"lon":5.36528,"is_reserved":false,"is_disabled":false,"rental_uris":{"android":"levelo://app?vid=623b1d48-fe8c-4a6a-b45e-f5a8ef1ac996","ios":"levelo://app?vid=623b1d48-fe8c-4a6a-b45e-f5a8ef1ac996"},"vehicle_type_id":"4","last_reported":1742292611,"current_range_meters":14800,"station_id":"ce4bgs12rcd13ifvqcag","pricing_plan_id":"cebpf4jnsgd1na2vs0mg"},{"bike_id":"ac767398-3a37-4b25-a151-49e4b1e3ef78","system_id":"levelo_inurba_marseille","lat":43.25085,"lon":5.39503,"is_reserved":false,"is_disabled":false,"rental_uris":{"android":"levelo://app?vid=ac767398-3a37-4b25-a151-49e4b1e3ef78","ios":"levelo://app?vid=ac767398-3a37-4b25-a151-49e4b1e3ef78"},"vehicle_type_id":"4","last_reported":1742292611,"current_range_meters":14800,"station_id":"ce4bhm12rcd13ifvqgkg","pricing_plan_id":"cebpf4jnsgd1na2vs0mg"},{"bike_id":"7341297d-d43a-4895-907f-c3efe66c169b","system_id":"levelo_inurba_marseille","lat":43.30279,"lon":5.37706,"is_reserved":false,"is_disabled":false,"rental_uris":{"android":"levelo://app?vid=7341297d-d43a-4895-907f-c3efe66c169b","ios":"levelo://app?vid=7341297d-d43a-4895-907f-c3efe66c169b"},"vehicle_type_id":"4","last_reported":1742292611,"current_range_meters":14800,"station_id":"ce4bguh2rcd13ifvqcj0","pricing_plan_id":"cebpf4jnsgd1na2vs0mg"},{"bike_id":"8bd40856-3aa6-46bc-aa0e-71f3c3051088","system_id":"levelo_inurba_marseille","lat":43.29707,"lon":5.377,"is_reserved":false,"is_disabled":false,"rental_uris":{"android":"levelo://app?vid=8bd40856-3aa6-46bc-aa0e-71f3c3051088","ios":"levelo://app?vid=8bd40856-3aa6-46bc-aa0e-71f3c3051088"},"vehicle_type_id":"4","last_reported":1742292611,"current_range_meters":15200,"station_id":"ce4bgkh2rcd13ifvqbl0","pricing_plan_id":"cebpf4jnsgd1na2vs0mg"},{"bike_id":"e60c1153-ceb4-4f72-92cd-2dc1051b5e4c","system_id":"levelo_inurba_marseille","lat":43.26066,"lon":5.39392,"is_reserved":false,"is_disabled":true,"rental_uris":{"android":"levelo://app?vid=e60c1153-ceb4-4f72-92cd-2dc1051b5e4c","ios":"levelo://app?vid=e60c1153-ceb4-4f72-92cd-2dc1051b5e4c"},"vehicle_type_id":"4","last_reported":1742292611,"current_range_meters":15200,"station_id":"ce4bhh92rcd13ifvqfj0","pricing_plan_id":"cebpf4jnsgd1na2vs0mg"},{"bike_id":"734f0deb-cc81-4c8f-923b-c309d291f763","system_id":"levelo_inurba_marseille","lat":43.29793,"lon":5.37101,"is_reserved":false,"is_disabled":false,"rental_uris":{"android":"levelo://app?vid=734f0deb-cc81-4c8f-923b-c309d291f763","ios":"levelo://app?vid=734f0deb-cc81-4c8f-923b-c309d291f763"},"vehicle_type_id":"4","last_reported":1742292611,"current_range_meters":14800,"station_id":"ce4bgop2rcd13ifvqc1g","pricing_plan_id":"cebpf4jnsgd1na2vs0mg"},{"bike_id":"344a46d3-8b7c-4366-9512-a9c2dd5155a8","system_id":"levelo_inurba_marseille","lat":43.30539,"lon":5.38417,"is_reserved":false,"is_disabled":false,"rental_uris":{"android":"levelo://app?vid=344a46d3-8b7c-4366-9512-a9c2dd5155a8","ios":"levelo://app?vid=344a46d3-8b7c-4366-9512-a9c2dd5155a8"},"vehicle_type_id":"4","last_reported":1742292611,"current_range_meters":14800,"station_id":"ce4bgg92rcd13ifvqb30","pricing_plan_id":"cebpf4jnsgd1na2vs0mg"},{"bike_id":"36039125-2a17-48d0-b828-86cfdcb61646","system_id":"levelo_inurba_marseille","lat":43.30415,"lon":5.41274,"is_reserved":false,"is_disabled":true,"rental_uris":{"android":"levelo://app?vid=36039125-2a17-48d0-b828-86cfdcb61646","ios":"levelo://app?vid=36039125-2a17-48d0-b828-86cfdcb61646"},"vehicle_type_id":"4","last_reported":1742292611,"current_range_meters":15200,"station_id":"ce4bhop2rcd13ifvqh8g","pricing_plan_id":"cebpf4jnsgd1na2vs0mg"},{"bike_id":"401457a4-8e0b-4911-9d49-c38cee4b63f6","system_id":"levelo_inurba_marseille","lat":43.2733,"lon":5.39079,"is_reserved":false,"is_disabled":false,"rental_uris":{"android":"levelo://app?vid=401457a4-8e0b-4911-9d49-c38cee4b63f6","ios":"levelo://app?vid=401457a4-8e0b-4911-9d49-c38cee4b63f6"},"vehicle_type_id":"4","last_reported":1742292611,"current_range_meters":15200,"station_id":"ce4bhgp2rcd13ifvqfe0","pricing_plan_id":"cebpf4jnsgd1na2vs0mg"},{"bike_id":"ff037ac5-a7ea-45e6-93cf-7d394f2f7759","system_id":"levelo_inurba_marseille","lat":43.30547,"lon":5.36541,"is_reserved":false,"is_disabled":false,"rental_uris":{"android":"levelo://app?vid=ff037ac5-a7ea-45e6-93cf-7d394f2f7759","ios":"levelo://app?vid=ff037ac5-a7ea-45e6-93cf-7d394f2f7759"},"vehicle_type_id":"4","last_reported":1742292611,"current_range_meters":15200,"station_id":"ce4bgs12rcd13ifvqcag","pricing_plan_id":"cebpf4jnsgd1na2vs0mg"},{"bike_id":"f5b5b897-b776-4f00-9f85-b4d42ed7205c","system_id":"levelo_inurba_marseille","lat":43.25942,"lon":5.40899,"is_reserved":false,"is_disabled":false,"rental_uris":{"android":"levelo://app?vid=f5b5b897-b776-4f00-9f85-b4d42ed7205c","ios":"levelo://app?vid=f5b5b897-b776-4f00-9f85-b4d42ed7205c"},"vehicle_type_id":"4","last_reported":1742292611,"current_range_meters":15200,"station_id":"ce4bhm92rcd13ifvqglg","pricing_plan_id":"cebpf4jnsgd1na2vs0mg"},{"bike_id":"d8c1ae52-2a9e-4470-a363-aadad54f73dd","system_id":"levelo_inurba_marseille","lat":43.26231,"lon":5.40446,"is_reserved":false,"is_disabled":false,"rental_uris":{"android":"levelo://app?vid=d8c1ae52-2a9e-4470-a363-aadad54f73dd","ios":"levelo://app?vid=d8c1ae52-2a9e-4470-a363-aadad54f73dd"},"vehicle_type_id":"4","last_reported":1742292611,"current_range_meters":15200,"station_id":"ce4bhmh2rcd13ifvqgmg","pricing_plan_id":"cebpf4jnsgd1na2vs0mg"},{"bike_id":"3c054d98-734f-40a9-bc9f-5a6912ba9713","system_id":"levelo_inurba_marseille","lat":43.336,"lon":5.41022,"is_reserved":false,"is_disabled":false,"rental_uris":{"android":"levelo://app?vid=3c054d98-734f-40a9-bc9f-5a6912ba9713","ios":"levelo://app?vid=3c054d98-734f-40a9-bc9f-5a6912ba9713"},"vehicle_type_id":"4","last_reported":1742292611,"current_range_meters":15200,"station_id":"ce4bhqh2rcd13ifvqhmg","pricing_plan_id":"cebpf4jnsgd1na2vs0mg"},{"bike_id":"fc8ed576-f651-40cb-a3c6-7a77940a562f","system_id":"levelo_inurba_marseille","lat":43.28422,"lon":5.34981,"is_reserved":false,"is_disabled":false,"rental_uris":{"android":"levelo://app?vid=fc8ed576-f651-40cb-a3c6-7a77940a562f","ios":"levelo://app?vid=fc8ed576-f651-40cb-a3c6-7a77940a562f"},"vehicle_type_id":"4","last_reported":1742292611,"current_range_meters":16000,"station_id":"ce4bhbh2rcd13ifvqepg","pricing_plan_id":"cebpf4jnsgd1na2vs0mg"},{"bike_id":"3455258b-4135-46b9-9a26-10bf95160e40","system_id":"levelo_inurba_marseille","lat":43.23191,"lon":5.35563,"is_reserved":false,"is_disabled":false,"rental_uris":{"android":"levelo://app?vid=3455258b-4135-46b9-9a26-10bf95160e40","ios":"levelo://app?vid=3455258b-4135-46b9-9a26-10bf95160e40"},"vehicle_type_id":"4","last_reported":1742292611,"current_range_meters":16000,"station_id":"ce4bhu92rcd13ifvqi70","pricing_plan_id":"cebpf4jnsgd1na2vs0mg"},{"bike_id":"cf6265a1-47c3-4f28-82bd-a18b06e57bd4","system_id":"levelo_inurba_marseille","lat":43.23147,"lon":5.43702,"is_reserved":false,"is_disabled":false,"rental_uris":{"android":"levelo://app?vid=cf6265a1-47c3-4f28-82bd-a18b06e57bd4","ios":"levelo://app?vid=cf6265a1-47c3-4f28-82bd-a18b06e57bd4"},"vehicle_type_id":"4","last_reported":1742292611,"current_range_meters":16000,"station_id":"ce4bhmp2rcd13ifvqgog","pricing_plan_id":"cebpf4jnsgd1na2vs0mg"},{"bike_id":"2ebdd665-45bc-41e4-ba36-29ebf27d9e85","system_id":"levelo_inurba_marseille","lat":43.259416,"lon":5.409006,"is_reserved":false,"is_disabled":false,"rental_uris":{"android":"levelo://app?vid=2ebdd665-45bc-41e4-ba36-29ebf27d9e85","ios":"levelo://app?vid=2ebdd665-45bc-41e4-ba36-29ebf27d9e85"},"vehicle_type_id":"4","last_reported":1742292611,"current_range_meters":16000,"station_id":"ce4bhm92rcd13ifvqglg","pricing_plan_id":"cebpf4jnsgd1na2vs0mg"},{"bike_id":"c08cbb70-84d6-4161-9491-997f32dfb1fb","system_id":"levelo_inurba_marseille","lat":43.27526,"lon":5.42431,"is_reserved":false,"is_disabled":false,"rental_uris":{"android":"levelo://app?vid=c08cbb70-84d6-4161-9491-997f32dfb1fb","ios":"levelo://app?vid=c08cbb70-84d6-4161-9491-997f32dfb1fb"},"vehicle_type_id":"4","last_reported":1742292611,"current_range_meters":16000,"station_id":"ce4bhn92rcd13ifvqgrg","pricing_plan_id":"cebpf4jnsgd1na2vs0mg"},{"bike_id":"36e2091e-918c-4e62-b071-f76fb927471b","system_id":"levelo_inurba_marseille","lat":43.29943,"lon":5.3655,"is_reserved":false,"is_disabled":false,"rental_uris":{"android":"levelo://app?vid=36e2091e-918c-4e62-b071-f76fb927471b","ios":"levelo://app?vid=36e2091e-918c-4e62-b071-f76fb927471b"},"vehicle_type_id":"4","last_reported":1742292611,"current_range_meters":16000,"station_id":"ce4bgm92rcd13ifvqbr0","pricing_plan_id":"cebpf4jnsgd1na2vs0mg"},{"bike_id":"0c079786-032e-450e-b8de-7a29fd111afd","system_id":"levelo_inurba_marseille","lat":43.26196,"lon":5.37445,"is_reserved":false,"is_disabled":false,"rental_uris":{"android":"levelo://app?vid=0c079786-032e-450e-b8de-7a29fd111afd","ios":"levelo://app?vid=0c079786-032e-450e-b8de-7a29fd111afd"},"vehicle_type_id":"4","last_reported":1742292611,"current_range_meters":16400,"station_id":"ce4bhgp2rcd13ifvqfc0","pricing_plan_id":"cebpf4jnsgd1na2vs0mg"},{"bike_id":"927f6423-8763-460b-9c79-c355547b436f","system_id":"levelo_inurba_marseille","lat":43.29274,"lon":5.40119,"is_reserved":false,"is_disabled":false,"rental_uris":{"android":"levelo://app?vid=927f6423-8763-460b-9c79-c355547b436f","ios":"levelo://app?vid=927f6423-8763-460b-9c79-c355547b436f"},"vehicle_type_id":"4","last_reported":1742292611,"current_range_meters":16400,"station_id":"ce4bh312rcd13ifvqdk0","pricing_plan_id":"cebpf4jnsgd1na2vs0mg"},{"bike_id":"36f5e068-26e9-485b-84a3-fa1ce5017122","system_id":"levelo_inurba_marseille","lat":43.26925,"lon":5.38917,"is_reserved":false,"is_disabled":false,"rental_uris":{"android":"levelo://app?vid=36f5e068-26e9-485b-84a3-fa1ce5017122","ios":"levelo://app?vid=36f5e068-26e9-485b-84a3-fa1ce5017122"},"vehicle_type_id":"4","last_reported":1742292611,"current_range_meters":16400,"station_id":"ce4bhhh2rcd13ifvqfl0","pricing_plan_id":"cebpf4jnsgd1na2vs0mg"},{"bike_id":"f52a9808-de99-4214-b6d8-d8a401436e34","system_id":"levelo_inurba_marseille","lat":43.31296,"lon":5.39007,"is_reserved":false,"is_disabled":false,"rental_uris":{"android":"levelo://app?vid=f52a9808-de99-4214-b6d8-d8a401436e34","ios":"levelo://app?vid=f52a9808-de99-4214-b6d8-d8a401436e34"},"vehicle_type_id":"4","last_reported":1742292611,"current_range_meters":16400,"station_id":"","pricing_plan_id":"cebpf4jnsgd1na2vs0mg"},{"bike_id":"45d1aa8a-60ca-458e-9b7e-7c1c702b4102","system_id":"levelo_inurba_marseille","lat":43.31228,"lon":5.36862,"is_reserved":false,"is_disabled":false,"rental_uris":{"android":"levelo://app?vid=45d1aa8a-60ca-458e-9b7e-7c1c702b4102","ios":"levelo://app?vid=45d1aa8a-60ca-458e-9b7e-7c1c702b4102"},"vehicle_type_id":"4","last_reported":1742292611,"current_range_meters":16400,"station_id":"ce4bgl92rcd13ifvqbq0","pricing_plan_id":"cebpf4jnsgd1na2vs0mg"},{"bike_id":"d4622cc8-63da-48ca-a619-891bf5197ebe","system_id":"levelo_inurba_marseille","lat":43.302797,"lon":5.37701,"is_reserved":false,"is_disabled":false,"rental_uris":{"android":"levelo://app?vid=d4622cc8-63da-48ca-a619-891bf5197ebe","ios":"levelo://app?vid=d4622cc8-63da-48ca-a619-891bf5197ebe"},"vehicle_type_id":"4","last_reported":1742292611,"current_range_meters":16400,"station_id":"ce4bguh2rcd13ifvqcj0","pricing_plan_id":"cebpf4jnsgd1na2vs0mg"},{"bike_id":"26d3f0a3-4736-4466-9b23-cd440e12c74f","system_id":"levelo_inurba_marseille","lat":43.23966,"lon":5.36634,"is_reserved":false,"is_disabled":false,"rental_uris":{"android":"levelo://app?vid=26d3f0a3-4736-4466-9b23-cd440e12c74f","ios":"levelo://app?vid=26d3f0a3-4736-4466-9b23-cd440e12c74f"},"vehicle_type_id":"4","last_reported":1742292611,"current_range_meters":16400,"station_id":"ce4bhi12rcd13ifvqfp0","pricing_plan_id":"cebpf4jnsgd1na2vs0mg"},{"bike_id":"0d8be51d-5d60-4768-b79c-08d207c22ec7","system_id":"levelo_inurba_marseille","lat":43.25962,"lon":5.40885,"is_reserved":false,"is_disabled":false,"rental_uris":{"android":"levelo://app?vid=0d8be51d-5d60-4768-b79c-08d207c22ec7","ios":"levelo://app?vid=0d8be51d-5d60-4768-b79c-08d207c22ec7"},"vehicle_type_id":"4","last_reported":1742292611,"current_range_meters":16800,"station_id":"ce4bhm92rcd13ifvqglg","pricing_plan_id":"cebpf4jnsgd1na2vs0mg"},{"bike_id":"c0d04bbc-cc6b-49e7-ab65-b2e8bfbd968e","system_id":"levelo_inurba_marseille","lat":43.2658,"lon":5.39022,"is_reserved":false,"is_disabled":false,"rental_uris":{"android":"levelo://app?vid=c0d04bbc-cc6b-49e7-ab65-b2e8bfbd968e","ios":"levelo://app?vid=c0d04bbc-cc6b-49e7-ab65-b2e8bfbd968e"},"vehicle_type_id":"4","last_reported":1742292611,"current_range_meters":16800,"station_id":"ce4bhe12rcd13ifvqf30","pricing_plan_id":"cebpf4jnsgd1na2vs0mg"},{"bike_id":"a3f097d4-10fd-4983-8fad-28cc4603e18d","system_id":"levelo_inurba_marseille","lat":43.24759,"lon":5.37505,"is_reserved":false,"is_disabled":false,"rental_uris":{"android":"levelo://app?vid=a3f097d4-10fd-4983-8fad-28cc4603e18d","ios":"levelo://app?vid=a3f097d4-10fd-4983-8fad-28cc4603e18d"},"vehicle_type_id":"4","last_reported":1742292611,"current_range_meters":16800,"station_id":"ce4bhgh2rcd13ifvqfb0","pricing_plan_id":"cebpf4jnsgd1na2vs0mg"},{"bike_id":"e66f41b1-904e-4878-8599-f6f20e3426c7","system_id":"levelo_inurba_marseille","lat":43.30495,"lon":5.37896,"is_reserved":false,"is_disabled":false,"rental_uris":{"android":"levelo://app?vid=e66f41b1-904e-4878-8599-f6f20e3426c7","ios":"levelo://app?vid=e66f41b1-904e-4878-8599-f6f20e3426c7"},"vehicle_type_id":"4","last_reported":1742292611,"current_range_meters":17200,"station_id":"ce4bgup2rcd13ifvqcn0","pricing_plan_id":"cebpf4jnsgd1na2vs0mg"},{"bike_id":"aa27012c-8a2b-4120-83a6-4c3640491807","system_id":"levelo_inurba_marseille","lat":43.25002,"lon":5.38926,"is_reserved":false,"is_disabled":false,"rental_uris":{"android":"levelo://app?vid=aa27012c-8a2b-4120-83a6-4c3640491807","ios":"levelo://app?vid=aa27012c-8a2b-4120-83a6-4c3640491807"},"vehicle_type_id":"4","last_reported":1742292611,"current_range_meters":17200,"station_id":"ce4bhgp2rcd13ifvqfd0","pricing_plan_id":"cebpf4jnsgd1na2vs0mg"},{"bike_id":"eaa16f1d-1abb-46a5-88a7-4d9cc8058b7a","system_id":"levelo_inurba_marseille","lat":43.25025,"lon":5.38923,"is_reserved":false,"is_disabled":false,"rental_uris":{"android":"levelo://app?vid=eaa16f1d-1abb-46a5-88a7-4d9cc8058b7a","ios":"levelo://app?vid=eaa16f1d-1abb-46a5-88a7-4d9cc8058b7a"},"vehicle_type_id":"4","last_reported":1742292611,"current_range_meters":17200,"station_id":"ce4bhgp2rcd13ifvqfd0","pricing_plan_id":"cebpf4jnsgd1na2vs0mg"},{"bike_id":"868be9a8-f36a-485e-a0ce-22cad0d8453f","system_id":"levelo_inurba_marseille","lat":43.25735,"lon":5.41109,"is_reserved":false,"is_disabled":false,"rental_uris":{"android":"levelo://app?vid=868be9a8-f36a-485e-a0ce-22cad0d8453f","ios":"levelo://app?vid=868be9a8-f36a-485e-a0ce-22cad0d8453f"},"vehicle_type_id":"4","last_reported":1742292611,"current_range_meters":17200,"station_id":"ce4bhkp2rcd13ifvqgd0","pricing_plan_id":"cebpf4jnsgd1na2vs0mg"},{"bike_id":"95f28da3-ba24-4f59-96a4-78e2d7cd063b","system_id":"levelo_inurba_marseille","lat":43.23154,"lon":5.43721,"is_reserved":false,"is_disabled":false,"rental_uris":{"android":"levelo://app?vid=95f28da3-ba24-4f59-96a4-78e2d7cd063b","ios":"levelo://app?vid=95f28da3-ba24-4f59-96a4-78e2d7cd063b"},"vehicle_type_id":"4","last_reported":1742292611,"current_range_meters":17200,"station_id":"ce4bhmp2rcd13ifvqgog","pricing_plan_id":"cebpf4jnsgd1na2vs0mg"},{"bike_id":"2c3d0499-504b-4281-b6eb-0b7932502efc","system_id":"levelo_inurba_marseille","lat":43.34142,"lon":5.40899,"is_reserved":false,"is_disabled":false,"rental_uris":{"android":"levelo://app?vid=2c3d0499-504b-4281-b6eb-0b7932502efc","ios":"levelo://app?vid=2c3d0499-504b-4281-b6eb-0b7932502efc"},"vehicle_type_id":"4","last_reported":1742292611,"current_range_meters":17200,"station_id":"ce4bhqh2rcd13ifvqhlg","pricing_plan_id":"cebpf4jnsgd1na2vs0mg"},{"bike_id":"ead971df-8e8a-4567-a42c-c7a4e80e7fc6","system_id":"levelo_inurba_marseille","lat":43.2679,"lon":5.39423,"is_reserved":false,"is_disabled":false,"rental_uris":{"android":"levelo://app?vid=ead971df-8e8a-4567-a42c-c7a4e80e7fc6","ios":"levelo://app?vid=ead971df-8e8a-4567-a42c-c7a4e80e7fc6"},"vehicle_type_id":"4","last_reported":1742292611,"current_range_meters":17200,"station_id":"ce4bhh12rcd13ifvqfg0","pricing_plan_id":"cebpf4jnsgd1na2vs0mg"},{"bike_id":"4242d6cf-df92-4b6f-900e-5c701b420bbd","system_id":"levelo_inurba_marseille","lat":43.28369,"lon":5.38096,"is_reserved":false,"is_disabled":false,"rental_uris":{"android":"levelo://app?vid=4242d6cf-df92-4b6f-900e-5c701b420bbd","ios":"levelo://app?vid=4242d6cf-df92-4b6f-900e-5c701b420bbd"},"vehicle_type_id":"4","last_reported":1742292611,"current_range_meters":17200,"station_id":"ce4bh412rcd13ifvqdr0","pricing_plan_id":"cebpf4jnsgd1na2vs0mg"},{"bike_id":"4b1f4456-9760-47b5-999a-daec5b8a0537","system_id":"levelo_inurba_marseille","lat":43.27497,"lon":5.42461,"is_reserved":false,"is_disabled":false,"rental_uris":{"android":"levelo://app?vid=4b1f4456-9760-47b5-999a-daec5b8a0537","ios":"levelo://app?vid=4b1f4456-9760-47b5-999a-daec5b8a0537"},"vehicle_type_id":"4","last_reported":1742292611,"current_range_meters":17200,"station_id":"ce4bhn92rcd13ifvqgrg","pricing_plan_id":"cebpf4jnsgd1na2vs0mg"},{"bike_id":"c6604503-70aa-43e1-971e-f940cd00d541","system_id":"levelo_inurba_marseille","lat":43.26694,"lon":5.38265,"is_reserved":false,"is_disabled":true,"rental_uris":{"android":"levelo://app?vid=c6604503-70aa-43e1-971e-f940cd00d541","ios":"levelo://app?vid=c6604503-70aa-43e1-971e-f940cd00d541"},"vehicle_type_id":"4","last_reported":1742292611,"current_range_meters":17200,"station_id":"ce4bhg92rcd13ifvqf90","pricing_plan_id":"cebpf4jnsgd1na2vs0mg"},{"bike_id":"1d80de78-ecea-41e3-b22c-bbfc0a7ce780","system_id":"levelo_inurba_marseille","lat":43.29276,"lon":5.401043,"is_reserved":false,"is_disabled":true,"rental_uris":{"android":"levelo://app?vid=1d80de78-ecea-41e3-b22c-bbfc0a7ce780","ios":"levelo://app?vid=1d80de78-ecea-41e3-b22c-bbfc0a7ce780"},