{"last_updated":1726361367,"ttl":30,"version":"2.2","data":{"bikes":[{"bike_id":"da74842e-8b51-42a6-8c35-5d7d26dd14c1","system_id":"levelo_inurba_marseille","lat":43.31063,"lon":5.38354,"is_reserved":false,"is_disabled":false,"rental_uris":{"android":"levelo://app?vid=da74842e-8b51-42a6-8c35-5d7d26dd14c1","ios":"levelo://app?vid=da74842e-8b51-42a6-8c35-5d7d26dd14c1"},"vehicle_type_id":"4","last_reported":1726361367,"current_range_meters":38800,"station_id":"ce4bgv92rcd13ifvqcr0","pricing_plan_id":"cebpf4jnsgd1na2vs0mg"},{"bike_id":"120f5118-0c17-4b4d-9cb6-f2de60174be1","system_id":"levelo_inurba_marseille","lat":43.30604,"lon":5.37213,"is_reserved":false,"is_disabled":false,"rental_uris":{"android":"levelo://app?vid=120f5118-0c17-4b4d-9cb6-f2de60174be1","ios":"levelo://app?vid=120f5118-0c17-4b4d-9cb6-f2de60174be1"},"vehicle_type_id":"4","last_reported":1726361367,"current_range_meters":38000,"station_id":"ce4bgqh2rcd13ifvqc4g","pricing_plan_id":"cebpf4jnsgd1na2vs0mg"},{"bike_id":"41794888-f987-44d1-a96d-7e23df1159dd","system_id":"levelo_inurba_marseille","lat":43.2587,"lon":5.39893,"is_reserved":false,"is_disabled":false,"rental_uris":{"android":"levelo://app?vid=41794888-f987-44d1-a96d-7e23df1159dd","ios":"levelo://app?vid=41794888-f987-44d1-a96d-7e23df1159dd"},"vehicle_type_id":"4","last_reported":1726361367,"current_range_meters":38800,"station_id":"ce4bhl92rcd13ifvqghg","pricing_plan_id":"cebpf4jnsgd1na2vs0mg"},{"bike_id":"cf218508-2eb5-4647-865a-14c64208161f","system_id":"levelo_inurba_marseille","lat":43.30886,"lon":5.37195,"is_reserved":false,"is_disabled":false,"rental_uris":{"android":"levelo://app?vid=cf218508-2eb5-4647-865a-14c64208161f","ios":"levelo://app?vid=cf218508-2eb5-4647-865a-14c64208161f"},"vehicle_type_id":"4","last_reported":1726361367,"current_range_meters":36000,"station_id":"ce4bguh2rcd13ifvqckg","pricing_plan_id":"cebpf4jnsgd1na2vs0mg"},{"bike_id":"a9a28913-6db6-4db2-8d78-9a3449d23e3e","system_id":"levelo_inurba_marseille","lat":43.23194,"lon":5.35555,"is_reserved":false,"is_disabled":false,"rental_uris":{"android":"levelo://app?vid=a9a28913-6db6-4db2-8d78-9a3449d23e3e","ios":"levelo://app?vid=a9a28913-6db6-4db2-8d78-9a3449d23e3e"},"vehicle_type_id":"4","last_reported":1726361367,"current_range_meters":28400,"station_id":"ce4bhu92rcd13ifvqi70","pricing_plan_id":"cebpf4jnsgd1na2vs0mg"},{"bike_id":"083984dd-1abd-4a7d-84c6-e8ceb7b63abe","system_id":"levelo_inurba_marseille","lat":43.31294,"lon":5.37812,"is_reserved":false,"is_disabled":false,"rental_uris":{"android":"levelo://app?vid=083984dd-1abd-4a7d-84c6-e8ceb7b63abe","ios":"levelo://app?vid=083984dd-1abd-4a7d-84c6-e8ceb7b63abe"},"vehicle_type_id":"4","last_reported":1726361367,"current_range_meters":36000,"station_id":"","pricing_plan_id":"cebpf4jnsgd1na2vs0mg"},{"bike_id":"5ead8fdb-3118-4fd9-ba33-5ac9d171d28e","system_id":"levelo_inurba_marseille","lat":43.32474,"lon":5.36555,"is_reserved":false,"is_disabled":false,"rental_uris":{"android":"levelo://app?vid=5ead8fdb-3118-4fd9-ba33-5ac9d171d28e","ios":"levelo://app?vid=5ead8fdb-3118-4fd9-ba33-5ac9d171d28e"},"vehicle_type_id":"4","last_reported":1726361367,"current_range_meters":8000,"station_id":"ce4bhs12rcd13ifvqhvg","pricing_plan_id":"cebpf4jnsgd1na2vs0mg"},{"bike_id":"a940e58b-1d7d-4dbc-9ddd-8056dc0277a4","system_id":"levelo_inurba_marseille","lat":43.28681,"lon":5.38665,"is_reserved":false,"is_disabled":false,"rental_uris":{"android":"levelo://app?vid=a940e58b-1d7d-4dbc-9ddd-8056dc0277a4","ios":"levelo://app?vid=a940e58b-1d7d-4dbc-9ddd-8056dc0277a4"},"vehicle_type_id":"4","last_reported":1726361367,"current_range_meters":24000,"station_id":"ce4bh492rcd13ifvqdug","pricing_plan_id":"cebpf4jnsgd1na2vs0mg"},{"bike_id":"9e8cca3e-e419-42af-8a2d-0c2ef0c5a80c","system_id":"levelo_inurba_marseille","lat":43.31491,"lon":5.3731,"is_reserved":false,"is_disabled":false,"rental_uris":{"android":"levelo://app?vid=9e8cca3e-e419-42af-8a2d-0c2ef0c5a80c","ios":"levelo://app?vid=9e8cca3e-e419-42af-8a2d-0c2ef0c5a80c"},"vehicle_type_id":"4","last_reported":1726361367,"current_range_meters":38000,"station_id":"ce4bgt12rcd13ifvqcd0","pricing_plan_id":"cebpf4jnsgd1na2vs0mg"},{"bike_id":"be13ad90-bbb4-40da-9e8c-853f0dfe2473","system_id":"levelo_inurba_marseille","lat":43.30932,"lon":5.40142,"is_reserved":false,"is_disabled":false,"rental_uris":{"android":"levelo://app?vid=be13ad90-bbb4-40da-9e8c-853f0dfe2473","ios":"levelo://app?vid=be13ad90-bbb4-40da-9e8c-853f0dfe2473"},"vehicle_type_id":"4","last_reported":1726361367,"current_range_meters":8000,"station_id":"ce4bgvp2rcd13ifvqct0","pricing_plan_id":"cebpf4jnsgd1na2vs0mg"},{"bike_id":"1ab4fe47-af07-415e-ad6d-64df2b3e0479","system_id":"levelo_inurba_marseille","lat":43.29262,"lon":5.40915,"is_reserved":false,"is_disabled":false,"rental_uris":{"android":"levelo://app?vid=1ab4fe47-af07-415e-ad6d-64df2b3e0479","ios":"levelo://app?vid=1ab4fe47-af07-415e-ad6d-64df2b3e0479"},"vehicle_type_id":"4","last_reported":1726361367,"current_range_meters":31200,"station_id":"ce4bh192rcd13ifvqdc0","pricing_plan_id":"cebpf4jnsgd1na2vs0mg"},{"bike_id":"9bec1e45-b00e-4096-b952-6dc362ff5fa3","system_id":"levelo_inurba_marseille","lat":43.30328,"lon":5.40442,"is_reserved":false,"is_disabled":false,"rental_uris":{"android":"levelo://app?vid=9bec1e45-b00e-4096-b952-6dc362ff5fa3","ios":"levelo://app?vid=9bec1e45-b00e-4096-b952-6dc362ff5fa3"},"vehicle_type_id":"4","last_reported":1726361367,"current_range_meters":35200,"station_id":"ce4bh012rcd13ifvqd10","pricing_plan_id":"cebpf4jnsgd1na2vs0mg"},{"bike_id":"441133e4-16b1-4970-aab9-4a8bcd2e080b","system_id":"levelo_inurba_marseille","lat":43.292035,"lon":5.359772,"is_reserved":false,"is_disabled":false,"rental_uris":{"android":"levelo://app?vid=441133e4-16b1-4970-aab9-4a8bcd2e080b","ios":"levelo://app?vid=441133e4-16b1-4970-aab9-4a8bcd2e080b"},"vehicle_type_id":"4","last_reported":1726361367,"current_range_meters":11600,"station_id":"ce4bhb12rcd13ifvqel0","pricing_plan_id":"cebpf4jnsgd1na2vs0mg"},{"bike_id":"13c4bde3-79a1-495d-a0c0-1dbceff892e5","system_id":"levelo_inurba_marseille","lat":43.25932,"lon":5.40911,"is_reserved":false,"is_disabled":false,"rental_uris":{"android":"levelo://app?vid=13c4bde3-79a1-495d-a0c0-1dbceff892e5","ios":"levelo://app?vid=13c4bde3-79a1-495d-a0c0-1dbceff892e5"},"vehicle_type_id":"4","last_reported":1726361367,"current_range_meters":6000,"station_id":"ce4bhm92rcd13ifvqglg","pricing_plan_id":"cebpf4jnsgd1na2vs0mg"},{"bike_id":"1484d332-30fe-4f3d-8e8c-4f90f3830819","system_id":"levelo_inurba_marseille","lat":43.23179,"lon":5.39987,"is_reserved":false,"is_disabled":false,"rental_uris":{"android":"levelo://app?vid=1484d332-30fe-4f3d-8e8c-4f90f3830819","ios":"levelo://app?vid=1484d332-30fe-4f3d-8e8c-4f90f3830819"},"vehicle_type_id":"4","last_reported":1726361367,"current_range_meters":38800,"station_id":"ce4bhn12rcd13ifvqgqg","pricing_plan_id":"cebpf4jnsgd1na2vs0mg"},{"bike_id":"e12b556d-45d5-4f92-9b6c-c229879ce816","system_id":"levelo_inurba_marseille","lat":43.30644,"lon":5.40072,"is_reserved":false,"is_disabled":false,"rental_uris":{"android":"levelo://app?vid=e12b556d-45d5-4f92-9b6c-c229879ce816","ios":"levelo://app?vid=e12b556d-45d5-4f92-9b6c-c229879ce816"},"vehicle_type_id":"4","last_reported":1726361367,"current_range_meters":38800,"station_id":"ce4bh112rcd13ifvqda0","pricing_plan_id":"cebpf4jnsgd1na2vs0mg"},{"bike_id":"13ec4916-f0ea-4897-8afc-596425b42c42","system_id":"levelo_inurba_marseille","lat":43.23201,"lon":5.35558,"is_reserved":false,"is_disabled":false,"rental_uris":{"android":"levelo://app?vid=13ec4916-f0ea-4897-8afc-596425b42c42","ios":"levelo://app?vid=13ec4916-f0ea-4897-8afc-596425b42c42"},"vehicle_type_id":"4","last_reported":1726361367,"current_range_meters":24800,"station_id":"ce4bhu92rcd13ifvqi70","pricing_plan_id":"cebpf4jnsgd1na2vs0mg"},{"bike_id":"057b70ac-43ad-4a9d-b1c8-8c155f62cbde","system_id":"levelo_inurba_marseille","lat":43.2512,"lon":5.40323,"is_reserved":false,"is_disabled":false,"rental_uris":{"android":"levelo://app?vid=057b70ac-43ad-4a9d-b1c8-8c155f62cbde","ios":"levelo://app?vid=057b70ac-43ad-4a9d-b1c8-8c155f62cbde"},"vehicle_type_id":"4","last_reported":1726361367,"current_range_meters":38800,"station_id":"ce4bhlh2rcd13ifvqgig","pricing_plan_id":"cebpf4jnsgd1na2vs0mg"},{"bike_id":"b6eb2043-0c47-44ca-a934-2a61ccc622b8","system_id":"levelo_inurba_marseille","lat":43.3172,"lon":5.37763,"is_reserved":false,"is_disabled":false,"rental_uris":{"android":"levelo://app?vid=b6eb2043-0c47-44ca-a934-2a61ccc622b8","ios":"levelo://app?vid=b6eb2043-0c47-44ca-a934-2a61ccc622b8"},"vehicle_type_id":"4","last_reported":1726361367,"current_range_meters":22800,"station_id":"ce4bgth2rcd13ifvqch0","pricing_plan_id":"cebpf4jnsgd1na2vs0mg"},{"bike_id":"344880e3-ce90-437f-a8da-22ec22dc470a","system_id":"levelo_inurba_marseille","lat":43.29563,"lon":5.42271,"is_reserved":false,"is_disabled":false,"rental_uris":{"android":"levelo://app?vid=344880e3-ce90-437f-a8da-22ec22dc470a","ios":"levelo://app?vid=344880e3-ce90-437f-a8da-22ec22dc470a"},"vehicle_type_id":"4","last_reported":1726361367,"current_range_meters":16800,"station_id":"ce4bhph2rcd13ifvqhdg","pricing_plan_id":"cebpf4jnsgd1na2vs0mg"},{"bike_id":"e89e04cd-925a-43d6-9728-cf5d7c44e1a1","system_id":"levelo_inurba_marseille","lat":43.28674,"lon":5.38664,"is_reserved":false,"is_disabled":false,"rental_uris":{"android":"levelo://app?vid=e89e04cd-925a-43d6-9728-cf5d7c44e1a1","ios":"levelo://app?vid=e89e04cd-925a-43d6-9728-cf5d7c44e1a1"},"vehicle_type_id":"4","last_reported":1726361367,"current_range_meters":38800,"station_id":"ce4bh492rcd13ifvqdug","pricing_plan_id":"cebpf4jnsgd1na2vs0mg"},{"bike_id":"1b69e28d-b657-4802-b5dd-aa17fb5a768b","system_id":"levelo_inurba_marseille","lat":43.27127,"lon":5.42788,"is_reserved":false,"is_disabled":false,"rental_uris":{"android":"levelo://app?vid=1b69e28d-b657-4802-b5dd-aa17fb5a768b","ios":"levelo://app?vid=1b69e28d-b657-4802-b5dd-aa17fb5a768b"},"vehicle_type_id":"4","last_reported":1726361367,"current_range_meters":24400,"station_id":"","pricing_plan_id":"cebpf4jnsgd1na2vs0mg"},{"bike_id":"6829a716-ca2c-417e-b3c4-3d7639065619","system_id":"levelo_inurba_marseille","lat":43.31075,"lon":5.38357,"is_reserved":false,"is_disabled":false,"rental_uris":{"android":"levelo://app?vid=6829a716-ca2c-417e-b3c4-3d7639065619","ios":"levelo://app?vid=6829a716-ca2c-417e-b3c4-3d7639065619"},"vehicle_type_id":"4","last_reported":1726361367,"current_range_meters":7200,"station_id":"ce4bgv92rcd13ifvqcr0","pricing_plan_id":"cebpf4jnsgd1na2vs0mg"},{"bike_id":"e803638f-c791-41b5-83c4-bab3d75b3614","system_id":"levelo_inurba_marseille","lat":43.24811,"lon":5.37457,"is_reserved":false,"is_disabled":false,"rental_uris":{"android":"levelo://app?vid=e803638f-c791-41b5-83c4-bab3d75b3614","ios":"levelo://app?vid=e803638f-c791-41b5-83c4-bab3d75b3614"},"vehicle_type_id":"4","last_reported":1726361367,"current_range_meters":38800,"station_id":"ce4bhgh2rcd13ifvqfb0","pricing_plan_id":"cebpf4jnsgd1na2vs0mg"},{"bike_id":"b2300b49-404f-4db4-8744-43ebcde60dc7","system_id":"levelo_inurba_marseille","lat":43.24186,"lon":5.39729,"is_reserved":false,"is_disabled":false,"rental_uris":{"android":"levelo://app?vid=b2300b49-404f-4db4-8744-43ebcde60dc7","ios":"levelo://app?vid=b2300b49-404f-4db4-8744-43ebcde60dc7"},"vehicle_type_id":"4","last_reported":1726361367,"current_range_meters":8000,"station_id":"ce4bhn12rcd13ifvqgpg","pricing_plan_id":"cebpf4jnsgd1na2vs0mg"},{"bike_id":"995d3a7e-289e-4ebd-b785-9d2da426ad57","system_id":"levelo_inurba_marseille","lat":43.23206,"lon":5.35552,"is_reserved":false,"is_disabled":false,"rental_uris":{"android":"levelo://app?vid=995d3a7e-289e-4ebd-b785-9d2da426ad57","ios":"levelo://app?vid=995d3a7e-289e-4ebd-b785-9d2da426ad57"},"vehicle_type_id":"4","last_reported":1726361367,"current_range_meters":17200,"station_id":"ce4bhu92rcd13ifvqi70","pricing_plan_id":"cebpf4jnsgd1na2vs0mg"},{"bike_id":"74c67d55-8a5f-40c9-8066-d68354718f8c","system_id":"levelo_inurba_marseille","lat":43.23196,"lon":5.35558,"is_reserved":false,"is_disabled":false,"rental_uris":{"android":"levelo://app?vid=74c67d55-8a5f-40c9-8066-d68354718f8c","ios":"levelo://app?vid=74c67d55-8a5f-40c9-8066-d68354718f8c"},"vehicle_type_id":"4","last_reported":1726361367,"current_range_meters":22800,"station_id":"ce4bhu92rcd13ifvqi70","pricing_plan_id":"cebpf4jnsgd1na2vs0mg"},{"bike_id":"8386a455-95b4-4dd9-943d-9d9a546d6c69","system_id":"levelo_inurba_marseille","lat":43.27944,"lon":5.41045,"is_reserved":false,"is_disabled":false,"rental_uris":{"android":"levelo://app?vid=8386a455-95b4-4dd9-943d-9d9a546d6c69","ios":"levelo://app?vid=8386a455-95b4-4dd9-943d-9d9a546d6c69"},"vehicle_type_id":"4","last_reported":1726361367,"current_range_meters":6800,"station_id":"ce4bhnp2rcd13ifvqh0g","pricing_plan_id":"cebpf4jnsgd1na2vs0mg"},{"bike_id":"31a9f4fe-2f31-4ccb-849a-e9ae9d00f093","system_id":"levelo_inurba_marseille","lat":43.31372,"lon":5.38503,"is_reserved":false,"is_disabled":false,"rental_uris":{"android":"levelo://app?vid=31a9f4fe-2f31-4ccb-849a-e9ae9d00f093","ios":"levelo://app?vid=31a9f4fe-2f31-4ccb-849a-e9ae9d00f093"},"vehicle_type_id":"4","last_reported":1726361367,"current_range_meters":38800,"station_id":"ce4bgt92rcd13ifvqcf0","pricing_plan_id":"cebpf4jnsgd1na2vs0mg"},{"bike_id":"44e42094-a624-4246-a524-0a5fb813c105","system_id":"levelo_inurba_marseille","lat":43.3137,"lon":5.38491,"is_reserved":false,"is_disabled":false,"rental_uris":{"android":"levelo://app?vid=44e42094-a624-4246-a524-0a5fb813c105","ios":"levelo://app?vid=44e42094-a624-4246-a524-0a5fb813c105"},"vehicle_type_id":"4","last_reported":1726361367,"current_range_meters":40000,"station_id":"ce4bgt92rcd13ifvqcf0","pricing_plan_id":"cebpf4jnsgd1na2vs0mg"},{"bike_id":"2348432a-2e1b-4480-8221-dc0ae33b40e8","system_id":"levelo_inurba_marseille","lat":43.24391,"lon":5.37062,"is_reserved":false,"is_disabled":false,"rental_uris":{"android":"levelo://app?vid=2348432a-2e1b-4480-8221-dc0ae33b40e8","ios":"levelo://app?vid=2348432a-2e1b-4480-8221-dc0ae33b40e8"},"vehicle_type_id":"4","last_reported":1726361367,"current_range_meters":20000,"station_id":"ce4bhhh2rcd13ifvqfk0","pricing_plan_id":"cebpf4jnsgd1na2vs0mg"},{"bike_id":"d0698402-85d8-4942-960d-db4ee8bd1c46","system_id":"levelo_inurba_marseille","lat":43.32491,"lon":5.36551,"is_reserved":false,"is_disabled":false,"rental_uris":{"android":"levelo://app?vid=d0698402-85d8-4942-960d-db4ee8bd1c46","ios":"levelo://app?vid=d0698402-85d8-4942-960d-db4ee8bd1c46"},"vehicle_type_id":"4","last_reported":1726361367,"current_range_meters":8000,"station_id":"ce4bhs12rcd13ifvqhvg","pricing_plan_id":"cebpf4jnsgd1na2vs0mg"},{"bike_id":"1aeff3de-970e-4440-8b84-9abb74479e56","system_id":"levelo_inurba_marseille","lat":43.29972,"lon":5.41327,"is_reserved":false,"is_disabled":false,"rental_uris":{"android":"levelo://app?vid=1aeff3de-970e-4440-8b84-9abb74479e56","ios":"levelo://app?vid=1aeff3de-970e-4440-8b84-9abb74479e56"},"vehicle_type_id":"4","last_reported":1726361367,"current_range_meters":23200,"station_id":"ce4bhp12rcd13ifvqh9g","pricing_plan_id":"cebpf4jnsgd1na2vs0mg"},{"bike_id":"dfb89513-f211-47bc-95b2-ffac780f14a8","system_id":"levelo_inurba_marseille","lat":43.23199,"lon":5.35559,"is_reserved":false,"is_disabled":false,"rental_uris":{"android":"levelo://app?vid=dfb89513-f211-47bc-95b2-ffac780f14a8","ios":"levelo://app?vid=dfb89513-f211-47bc-95b2-ffac780f14a8"},"vehicle_type_id":"4","last_reported":1726361367,"current_range_meters":10000,"station_id":"ce4bhu92rcd13ifvqi70","pricing_plan_id":"cebpf4jnsgd1na2vs0mg"},{"bike_id":"2d6fb26c-6738-4374-9cc5-e47071b2a78b","system_id":"levelo_inurba_marseille","lat":43.28942,"lon":5.39623,"is_reserved":false,"is_disabled":false,"rental_uris":{"android":"levelo://app?vid=2d6fb26c-6738-4374-9cc5-e47071b2a78b","ios":"levelo://app?vid=2d6fb26c-6738-4374-9cc5-e47071b2a78b"},"vehicle_type_id":"4","last_reported":1726361367,"current_range_meters":28800,"station_id":"ce4bh3h2rcd13ifvqdn0","pricing_plan_id":"cebpf4jnsgd1na2vs0mg"},{"bike_id":"5695be2b-9a5b-4c85-9c3e-237c284c36d2","system_id":"levelo_inurba_marseille","lat":43.32297,"lon":5.38269,"is_reserved":false,"is_disabled":false,"rental_uris":{"android":"levelo://app?vid=5695be2b-9a5b-4c85-9c3e-237c284c36d2","ios":"levelo://app?vid=5695be2b-9a5b-4c85-9c3e-237c284c36d2"},"vehicle_type_id":"4","last_reported":1726361367,"current_range_meters":40000,"station_id":"ce4bhr12rcd13ifvqhqg","pricing_plan_id":"cebpf4jnsgd1na2vs0mg"},{"bike_id":"4abbcc67-f4c8-437a-ba39-41526c05ccb1","system_id":"levelo_inurba_marseille","lat":43.31535,"lon":5.38029,"is_reserved":false,"is_disabled":false,"rental_uris":{"android":"levelo://app?vid=4abbcc67-f4c8-437a-ba39-41526c05ccb1","ios":"levelo://app?vid=4abbcc67-f4c8-437a-ba39-41526c05ccb1"},"vehicle_type_id":"4","last_reported":1726361367,"current_range_meters":32800,"station_id":"ce4bhsp2rcd13ifvqi50","pricing_plan_id":"cebpf4jnsgd1na2vs0mg"},{"bike_id":"282df74a-fc48-4048-98c0-c7e7da0b0e4a","system_id":"levelo_inurba_marseille","lat":43.28438,"lon":5.39183,"is_reserved":false,"is_disabled":false,"rental_uris":{"android":"levelo://app?vid=282df74a-fc48-4048-98c0-c7e7da0b0e4a","ios":"levelo://app?vid=282df74a-fc48-4048-98c0-c7e7da0b0e4a"},"vehicle_type_id":"4","last_reported":1726361367,"current_range_meters":38800,"station_id":"ce4bhoh2rcd13ifvqh5g","pricing_plan_id":"cebpf4jnsgd1na2vs0mg"},{"bike_id":"aac07f6f-d068-41e5-80ed-ad695afca2fa","system_id":"levelo_inurba_marseille","lat":43.25728,"lon":5.41116,"is_reserved":false,"is_disabled":false,"rental_uris":{"android":"levelo://app?vid=aac07f6f-d068-41e5-80ed-ad695afca2fa","ios":"levelo://app?vid=aac07f6f-d068-41e5-80ed-ad695afca2fa"},"vehicle_type_id":"4","last_reported":1726361367,"current_range_meters":34000,"station_id":"ce4bhkp2rcd13ifvqgd0","pricing_plan_id":"cebpf4jnsgd1na2vs0mg"},{"bike_id":"8f7d2222-b8b1-4df4-8f4e-3209ab742980","system_id":"levelo_inurba_marseille","lat":43.30885,"lon":5.39646,"is_reserved":false,"is_disabled":false,"rental_uris":{"android":"levelo://app?vid=8f7d2222-b8b1-4df4-8f4e-3209ab742980","ios":"levelo://app?vid=8f7d2222-b8b1-4df4-8f4e-3209ab742980"},"vehicle_type_id":"4","last_reported":1726361367,"current_range_meters":26800,"station_id":"ce4bh012rcd13ifvqcv0","pricing_plan_id":"cebpf4jnsgd1na2vs0mg"},{"bike_id":"6ab32654-3a6a-4788-91f1-4c0caf8881e3","system_id":"levelo_inurba_marseille","lat":43.31171,"lon":5.38713,"is_reserved":false,"is_disabled":false,"rental_uris":{"android":"levelo://app?vid=6ab32654-3a6a-4788-91f1-4c0caf8881e3","ios":"levelo://app?vid=6ab32654-3a6a-4788-91f1-4c0caf8881e3"},"vehicle_type_id":"4","last_reported":1726361367,"current_range_meters":4400,"station_id":"ce4bgv12rcd13ifvqcp0","pricing_plan_id":"cebpf4jnsgd1na2vs0mg"},{"bike_id":"fd0880df-a304-40e8-8a57-9ac951892822","system_id":"levelo_inurba_marseille","lat":43.31086,"lon":5.38361,"is_reserved":false,"is_disabled":false,"rental_uris":{"android":"levelo://app?vid=fd0880df-a304-40e8-8a57-9ac951892822","ios":"levelo://app?vid=fd0880df-a304-40e8-8a57-9ac951892822"},"vehicle_type_id":"4","last_reported":1726361367,"current_range_meters":23200,"station_id":"ce4bgv92rcd13ifvqcr0","pricing_plan_id":"cebpf4jnsgd1na2vs0mg"},{"bike_id":"9860c891-eef4-404c-a851-5d147d847001","system_id":"levelo_inurba_marseille","lat":43.270691,"lon":5.422871,"is_reserved":false,"is_disabled":false,"rental_uris":{"android":"levelo://app?vid=9860c891-eef4-404c-a851-5d147d847001","ios":"levelo://app?vid=9860c891-eef4-404c-a851-5d147d847001"},"vehicle_type_id":"4","last_reported":1726361367,"current_range_meters":29600,"station_id":"ce4bhk92rcd13ifvqgb0","pricing_plan_id":"cebpf4jnsgd1na2vs0mg"},{"bike_id":"30fc1f51-20b6-4e13-8f56-75175e166910","system_id":"levelo_inurba_marseille","lat":43.2306,"lon":5.35491,"is_reserved":false,"is_disabled":false,"rental_uris":{"android":"levelo://app?vid=30fc1f51-20b6-4e13-8f56-75175e166910","ios":"levelo://app?vid=30fc1f51-20b6-4e13-8f56-75175e166910"},"vehicle_type_id":"4","last_reported":1726361367,"current_range_meters":38000,"station_id":"cpo3342slgdg3j2ifvpg","pricing_plan_id":"cebpf4jnsgd1na2vs0mg"},{"bike_id":"c8d1c8b8-fad0-4cb1-a697-1864c29b953a","system_id":"levelo_inurba_marseille","lat":43.310699,"lon":5.383558,"is_reserved":false,"is_disabled":false,"rental_uris":{"android":"levelo://app?vid=c8d1c8b8-fad0-4cb1-a697-1864c29b953a","ios":"levelo://app?vid=c8d1c8b8-fad0-4cb1-a697-1864c29b953a"},"vehicle_type_id":"4","last_reported":1726361367,"current_range_meters":30400,"station_id":"ce4bgv92rcd13ifvqcr0","pricing_plan_id":"cebpf4jnsgd1na2vs0mg"},{"bike_id":"b99405e5-87fa-46e7-a10f-8d8121ff7672","system_id":"levelo_inurba_marseille","lat":43.333496,"lon":5.410233,"is_reserved":false,"is_disabled":false,"rental_uris":{"android":"levelo://app?vid=b99405e5-87fa-46e7-a10f-8d8121ff7672","ios":"levelo://app?vid=b99405e5-87fa-46e7-a10f-8d8121ff7672"},"vehicle_type_id":"4","last_reported":1726361367,"current_range_meters":36400,"station_id":"ce4bhqh2rcd13ifvqhmg","pricing_plan_id":"cebpf4jnsgd1na2vs0mg"},{"bike_id":"872cd4aa-e34d-48c8-b071-121143f4a33f","system_id":"levelo_inurba_marseille","lat":43.25728,"lon":5.41113,"is_reserved":false,"is_disabled":false,"rental_uris":{"android":"levelo://app?vid=872cd4aa-e34d-48c8-b071-121143f4a33f","ios":"levelo://app?vid=872cd4aa-e34d-48c8-b071-121143f4a33f"},"vehicle_type_id":"4","last_reported":1726361367,"current_range_meters":38800,"station_id":"ce4bhkp2rcd13ifvqgd0","pricing_plan_id":"cebpf4jnsgd1na2vs0mg"},{"bike_id":"41df1c5a-02ec-49ac-b03d-2447abc61174","system_id":"levelo_inurba_marseille","lat":43.31371,"lon":5.38496,"is_reserved":false,"is_disabled":false,"rental_uris":{"android":"levelo://app?vid=41df1c5a-02ec-49ac-b03d-2447abc61174","ios":"levelo://app?vid=41df1c5a-02ec-49ac-b03d-2447abc61174"},"vehicle_type_id":"4","last_reported":1726361367,"current_range_meters":9600,"station_id":"ce4bgt92rcd13ifvqcf0","pricing_plan_id":"cebpf4jnsgd1na2vs0mg"},{"bike_id":"2ca786a4-e722-41fb-83e7-b1828687d7d6","system_id":"levelo_inurba_marseille","lat":43.30793,"lon":5.38157,"is_reserved":false,"is_disabled":false,"rental_uris":{"android":"levelo://app?vid=2ca786a4-e722-41fb-83e7-b1828687d7d6","ios":"levelo://app?vid=2ca786a4-e722-41fb-83e7-b1828687d7d6"},"vehicle_type_id":"4","last_reported":1726361367,"current_range_meters":35200,"station_id":"ce4bgt12rcd13ifvqce0","pricing_plan_id":"cebpf4jnsgd1na2vs0mg"},{"bike_id":"ec9006f1-9246-40db-9584-a79270db200a","system_id":"levelo_inurba_marseille","lat":43.31725,"lon":5.42406,"is_reserved":false,"is_disabled":false,"rental_uris":{"android":"levelo://app?vid=ec9006f1-9246-40db-9584-a79270db200a","ios":"levelo://app?vid=ec9006f1-9246-40db-9584-a79270db200a"},"vehicle_type_id":"4","last_reported":1726361367,"current_range_meters":24400,"station_id":"ce4bhp92rcd13ifvqhbg","pricing_plan_id":"cebpf4jnsgd1na2vs0mg"},{"bike_id":"af390aaa-4ef7-492c-aded-06fda96c9f12","system_id":"levelo_inurba_marseille","lat":43.31722,"lon":5.4371,"is_reserved":false,"is_disabled":false,"rental_uris":{"android":"levelo://app?vid=af390aaa-4ef7-492c-aded-06fda96c9f12","ios":"levelo://app?vid=af390aaa-4ef7-492c-aded-06fda96c9f12"},"vehicle_type_id":"4","last_reported":1726361367,"current_range_meters":34000,"station_id":"ce4bhp92rcd13ifvqhcg","pricing_plan_id":"cebpf4jnsgd1na2vs0mg"},{"bike_id":"c86b0092-7fc7-4b72-93c6-667605627665","system_id":"levelo_inurba_marseille","lat":43.30744,"lon":5.38296,"is_reserved":false,"is_disabled":false,"rental_uris":{"android":"levelo://app?vid=c86b0092-7fc7-4b72-93c6-667605627665","ios":"levelo://app?vid=c86b0092-7fc7-4b72-93c6-667605627665"},"vehicle_type_id":"4","last_reported":1726361367,"current_range_meters":6400,"station_id":"","pricing_plan_id":"cebpf4jnsgd1na2vs0mg"},{"bike_id":"f89ebaff-608b-48c6-99bf-a4efd018954e","system_id":"levelo_inurba_marseille","lat":43.25733,"lon":5.41114,"is_reserved":false,"is_disabled":false,"rental_uris":{"android":"levelo://app?vid=f89ebaff-608b-48c6-99bf-a4efd018954e","ios":"levelo://app?vid=f89ebaff-608b-48c6-99bf-a4efd018954e"},"vehicle_type_id":"4","last_reported":1726361367,"current_range_meters":18000,"station_id":"ce4bhkp2rcd13ifvqgd0","pricing_plan_id":"cebpf4jnsgd1na2vs0mg"},{"bike_id":"17c8de15-3d26-4c44-be2c-8207fea6d362","system_id":"levelo_inurba_marseille","lat":43.26563,"lon":5.39002,"is_reserved":false,"is_disabled":false,"rental_uris":{"android":"levelo://app?vid=17c8de15-3d26-4c44-be2c-8207fea6d362","ios":"levelo://app?vid=17c8de15-3d26-4c44-be2c-8207fea6d362"},"vehicle_type_id":"4","last_reported":1726361367,"current_range_meters":29600,"station_id":"ce4bhe12rcd13ifvqf30","pricing_plan_id":"cebpf4jnsgd1na2vs0mg"},{"bike_id":"f6437437-0271-4253-b265-47225f3ca4d8","system_id":"levelo_inurba_marseille","lat":43.31336,"lon":5.39696,"is_reserved":false,"is_disabled":false,"rental_uris":{"android":"levelo://app?vid=f6437437-0271-4253-b265-47225f3ca4d8","ios":"levelo://app?vid=f6437437-0271-4253-b265-47225f3ca4d8"},"vehicle_type_id":"4","last_reported":1726361367,"current_range_meters":24400,"station_id":"ce4bgvp2rcd13ifvqcu0","pricing_plan_id":"cebpf4jnsgd1na2vs0mg"},{"bike_id":"e4892479-4160-4009-9ce1-980765d3375d","system_id":"levelo_inurba_marseille","lat":43.26806,"lon":5.4027,"is_reserved":false,"is_disabled":false,"rental_uris":{"android":"levelo://app?vid=e4892479-4160-4009-9ce1-980765d3375d","ios":"levelo://app?vid=e4892479-4160-4009-9ce1-980765d3375d"},"vehicle_type_id":"4","last_reported":1726361367,"current_range_meters":3600,"station_id":"ce501612rcd8frsf0b60","pricing_plan_id":"cebpf4jnsgd1na2vs0mg"},{"bike_id":"c5dd4feb-12d2-4aab-b7e0-58b69563947c","system_id":"levelo_inurba_marseille","lat":43.31728,"lon":5.42405,"is_reserved":false,"is_disabled":false,"rental_uris":{"android":"levelo://app?vid=c5dd4feb-12d2-4aab-b7e0-58b69563947c","ios":"levelo://app?vid=c5dd4feb-12d2-4aab-b7e0-58b69563947c"},"vehicle_type_id":"4","last_reported":1726361367,"current_range_meters":38800,"station_id":"ce4bhp92rcd13ifvqhbg","pricing_plan_id":"cebpf4jnsgd1na2vs0mg"},{"bike_id":"236e6f77-deac-4fe1-bbcc-8fb45a986847","system_id":"levelo_inurba_marseille","lat":43.2468,"lon":5.38154,"is_reserved":false,"is_disabled":false,"rental_uris":{"android":"levelo://app?vid=236e6f77-deac-4fe1-bbcc-8fb45a986847","ios":"levelo://app?vid=236e6f77-deac-4fe1-bbcc-8fb45a986847"},"vehicle_type_id":"4","last_reported":1726361367,"current_range_meters":38800,"station_id":"ce4bhih2rcd13ifvqfr0","pricing_plan_id":"cebpf4jnsgd1na2vs0mg"},{"bike_id":"b163cf08-6ce3-4d2f-a3d2-6a4eb4ce7991","system_id":"levelo_inurba_marseille","lat":43.28153,"lon":5.42648,"is_reserved":false,"is_disabled":false,"rental_uris":{"android":"levelo://app?vid=b163cf08-6ce3-4d2f-a3d2-6a4eb4ce7991","ios":"levelo://app?vid=b163cf08-6ce3-4d2f-a3d2-6a4eb4ce7991"},"vehicle_type_id":"4","last_reported":1726361367,"current_range_meters":10000,"station_id":"ce4bhnh2rcd13ifvqgug","pricing_plan_id":"cebpf4jnsgd1na2vs0mg"},{"bike_id":"6df0faed-9658-4ca5-97fa-47d2be0e7cd7","system_id":"levelo_inurba_marseille","lat":43.28856,"lon":5.35855,"is_reserved":false,"is_disabled":false,"rental_uris":{"android":"levelo://app?vid=6df0faed-9658-4ca5-97fa-47d2be0e7cd7","ios":"levelo://app?vid=6df0faed-9658-4ca5-97fa-47d2be0e7cd7"},"vehicle_type_id":"4","last_reported":1726361367,"current_range_meters":38000,"station_id":"ce4bhb12rcd13ifvqem0","pricing_plan_id":"cebpf4jnsgd1na2vs0mg"},{"bike_id":"d4d52a54-0e2d-4ef9-b12d-5717da74e194","system_id":"levelo_inurba_marseille","lat":43.27097,"lon":5.40367,"is_reserved":false,"is_disabled":false,"rental_uris":{"android":"levelo://app?vid=d4d52a54-0e2d-4ef9-b12d-5717da74e194","ios":"levelo://app?vid=d4d52a54-0e2d-4ef9-b12d-5717da74e194"},"vehicle_type_id":"4","last_reported":1726361367,"current_range_meters":24000,"station_id":"","pricing_plan_id":"cebpf4jnsgd1na2vs0mg"},{"bike_id":"ec20cb84-20f0-48a0-950e-21cf06a16dca","system_id":"levelo_inurba_marseille","lat":43.31764,"lon":5.39018,"is_reserved":false,"is_disabled":false,"rental_uris":{"android":"levelo://app?vid=ec20cb84-20f0-48a0-950e-21cf06a16dca","ios":"levelo://app?vid=ec20cb84-20f0-48a0-950e-21cf06a16dca"},"vehicle_type_id":"4","last_reported":1726361367,"current_range_meters":34000,"station_id":"ce4bhqp2rcd13ifvqhng","pricing_plan_id":"cebpf4jnsgd1na2vs0mg"},{"bike_id":"fa520970-b02f-48ef-8a4c-a0b6221dc909","system_id":"levelo_inurba_marseille","lat":43.2816,"lon":5.42641,"is_reserved":false,"is_disabled":false,"rental_uris":{"android":"levelo://app?vid=fa520970-b02f-48ef-8a4c-a0b6221dc909","ios":"levelo://app?vid=fa520970-b02f-48ef-8a4c-a0b6221dc909"},"vehicle_type_id":"4","last_reported":1726361367,"current_range_meters":4800,"station_id":"ce4bhnh2rcd13ifvqgug","pricing_plan_id":"cebpf4jnsgd1na2vs0mg"},{"bike_id":"8b8d4bd8-8588-461d-9808-73dac3f5354d","system_id":"levelo_inurba_marseille","lat":43.28454,"lon":5.35887,"is_reserved":false,"is_disabled":false,"rental_uris":{"android":"levelo://app?vid=8b8d4bd8-8588-461d-9808-73dac3f5354d","ios":"levelo://app?vid=8b8d4bd8-8588-461d-9808-73dac3f5354d"},"vehicle_type_id":"4","last_reported":1726361367,"current_range_meters":33200,"station_id":"ce4bhah2rcd13ifvqei0","pricing_plan_id":"cebpf4jnsgd1na2vs0mg"},{"bike_id":"f79ff168-7c1f-43a6-9a48-819ae1e3b151","system_id":"levelo_inurba_marseille","lat":43.24079,"lon":5.3776,"is_reserved":false,"is_disabled":false,"rental_uris":{"android":"levelo://app?vid=f79ff168-7c1f-43a6-9a48-819ae1e3b151","ios":"levelo://app?vid=f79ff168-7c1f-43a6-9a48-819ae1e3b151"},"vehicle_type_id":"4","last_reported":1726361367,"current_range_meters":16400,"station_id":"ce4bhnp2rcd13ifvqgvg","pricing_plan_id":"cebpf4jnsgd1na2vs0mg"},{"bike_id":"3ecad9f3-1e6f-4f49-af4b-f14b4ca326cc","system_id":"levelo_inurba_marseille","lat":43.28702,"lon":5.39973,"is_reserved":false,"is_disabled":false,"rental_uris":{"android":"levelo://app?vid=3ecad9f3-1e6f-4f49-af4b-f14b4ca326cc","ios":"levelo://app?vid=3ecad9f3-1e6f-4f49-af4b-f14b4ca326cc"},"vehicle_type_id":"4","last_reported":1726361367,"current_range_meters":20000,"station_id":"ce4bho92rcd13ifvqh3g","pricing_plan_id":"cebpf4jnsgd1na2vs0mg"},{"bike_id":"37aa0e75-da6f-4c08-b56e-acbda555996b","system_id":"levelo_inurba_marseille","lat":43.29283,"lon":5.40125,"is_reserved":false,"is_disabled":false,"rental_uris":{"android":"levelo://app?vid=37aa0e75-da6f-4c08-b56e-acbda555996b","ios":"levelo://app?vid=37aa0e75-da6f-4c08-b56e-acbda555996b"},"vehicle_type_id":"4","last_reported":1726361367,"current_range_meters":3200,"station_id":"ce4bh312rcd13ifvqdk0","pricing_plan_id":"cebpf4jnsgd1na2vs0mg"},{"bike_id":"a1ffb9c7-fcdf-4542-8125-5706b42d8d3c","system_id":"levelo_inurba_marseille","lat":43.30644,"lon":5.40076,"is_reserved":false,"is_disabled":false,"rental_uris":{"android":"levelo://app?vid=a1ffb9c7-fcdf-4542-8125-5706b42d8d3c","ios":"levelo://app?vid=a1ffb9c7-fcdf-4542-8125-5706b42d8d3c"},"vehicle_type_id":"4","last_reported":1726361367,"current_range_meters":33200,"station_id":"ce4bh112rcd13ifvqda0","pricing_plan_id":"cebpf4jnsgd1na2vs0mg"},{"bike_id":"9eb1ca50-586a-487b-b163-6727cdddeeb9","system_id":"levelo_inurba_marseille","lat":43.25717,"lon":5.41116,"is_reserved":false,"is_disabled":false,"rental_uris":{"android":"levelo://app?vid=9eb1ca50-586a-487b-b163-6727cdddeeb9","ios":"levelo://app?vid=9eb1ca50-586a-487b-b163-6727cdddeeb9"},"vehicle_type_id":"4","last_reported":1726361367,"current_range_meters":3200,"station_id":"ce4bhkp2rcd13ifvqgd0","pricing_plan_id":"cebpf4jnsgd1na2vs0mg"},{"bike_id":"36adddef-987d-42d8-aa08-a14bfa0d5473","system_id":"levelo_inurba_marseille","lat":43.24083,"lon":5.37764,"is_reserved":false,"is_disabled":false,"rental_uris":{"android":"levelo://app?vid=36adddef-987d-42d8-aa08-a14bfa0d5473","ios":"levelo://app?vid=36adddef-987d-42d8-aa08-a14bfa0d5473"},"vehicle_type_id":"4","last_reported":1726361367,"current_range_meters":30800,"station_id":"ce4bhnp2rcd13ifvqgvg","pricing_plan_id":"cebpf4jnsgd1na2vs0mg"},{"bike_id":"6c6e046a-c880-4d0a-8c4b-6e38b80b7b95","system_id":"levelo_inurba_marseille","lat":43.28707,"lon":5.39977,"is_reserved":false,"is_disabled":false,"rental_uris":{"android":"levelo://app?vid=6c6e046a-c880-4d0a-8c4b-6e38b80b7b95","ios":"levelo://app?vid=6c6e046a-c880-4d0a-8c4b-6e38b80b7b95"},"vehicle_type_id":"4","last_reported":1726361367,"current_range_meters":20400,"station_id":"ce4bho92rcd13ifvqh3g","pricing_plan_id":"cebpf4jnsgd1na2vs0mg"},{"bike_id":"90521811-f8fd-48e1-ade7-4d07ddb065bb","system_id":"levelo_inurba_marseille","lat":43.23197,"lon":5.35555,"is_reserved":false,"is_disabled":false,"rental_uris":{"android":"levelo://app?vid=90521811-f8fd-48e1-ade7-4d07ddb065bb","ios":"levelo://app?vid=90521811-f8fd-48e1-ade7-4d07ddb065bb"},"vehicle_type_id":"4","last_reported":1726361367,"current_range_meters":16000,"station_id":"ce4bhu92rcd13ifvqi70","pricing_plan_id":"cebpf4jnsgd1na2vs0mg"},{"bike_id":"80929e07-48af-4599-8292-4265dda28cd5","system_id":"levelo_inurba_marseille","lat":43.31133,"lon":5.37769,"is_reserved":false,"is_disabled":false,"rental_uris":{"android":"levelo://app?vid=80929e07-48af-4599-8292-4265dda28cd5","ios":"levelo://app?vid=80929e07-48af-4599-8292-4265dda28cd5"},"vehicle_type_id":"4","last_reported":1726361367,"current_range_meters":36800,"station_id":"ce4bgt92rcd13ifvqcg0","pricing_plan_id":"cebpf4jnsgd1na2vs0mg"},{"bike_id":"dafcc4cd-b2f7-4125-9846-74323a3593b1","system_id":"levelo_inurba_marseille","lat":43.23182,"lon":5.39987,"is_reserved":false,"is_disabled":false,"rental_uris":{"android":"levelo://app?vid=dafcc4cd-b2f7-4125-9846-74323a3593b1","ios":"levelo://app?vid=dafcc4cd-b2f7-4125-9846-74323a3593b1"},"vehicle_type_id":"4","last_reported":1726361367,"current_range_meters":9200,"station_id":"ce4bhn12rcd13ifvqgqg","pricing_plan_id":"cebpf4jnsgd1na2vs0mg"},{"bike_id":"1fb5da9e-6df7-4106-a459-3f96f567eb25","system_id":"levelo_inurba_marseille","lat":43.2315,"lon":5.43714,"is_reserved":false,"is_disabled":false,"rental_uris":{"android":"levelo://app?vid=1fb5da9e-6df7-4106-a459-3f96f567eb25","ios":"levelo://app?vid=1fb5da9e-6df7-4106-a459-3f96f567eb25"},"vehicle_type_id":"4","last_reported":1726361367,"current_range_meters":38400,"station_id":"ce4bhmp2rcd13ifvqgog","pricing_plan_id":"cebpf4jnsgd1na2vs0mg"},{"bike_id":"f524e6ce-bd11-4cfb-bffa-8bd27d264bc1","system_id":"levelo_inurba_marseille","lat":43.2511,"lon":5.40323,"is_reserved":false,"is_disabled":false,"rental_uris":{"android":"levelo://app?vid=f524e6ce-bd11-4cfb-bffa-8bd27d264bc1","ios":"levelo://app?vid=f524e6ce-bd11-4cfb-bffa-8bd27d264bc1"},"vehicle_type_id":"4","last_reported":1726361367,"current_range_meters":40000,"station_id":"ce4bhlh2rcd13ifvqgig","pricing_plan_id":"cebpf4jnsgd1na2vs0mg"},{"bike_id":"ac0be630-90c8-4443-9bf9-63c4efa95547","system_id":"levelo_inurba_marseille","lat":43.295733,"lon":5.422671,"is_reserved":false,"is_disabled":false,"rental_uris":{"android":"levelo://app?vid=ac0be630-90c8-4443-9bf9-63c4efa95547","ios":"levelo://app?vid=ac0be630-90c8-4443-9bf9-63c4efa95547"},"vehicle_type_id":"4","last_reported":1726361367,"current_range_meters":38800,"station_id":"ce4bhph2rcd13ifvqhdg","pricing_plan_id":"cebpf4jnsgd1na2vs0mg"},{"bike_id":"b67b3ddd-96f8-44ec-b3a7-52270fcfb2ef","system_id":"levelo_inurba_marseille","lat":43.30798,"lon":5.38163,"is_reserved":false,"is_disabled":false,"rental_uris":{"android":"levelo://app?vid=b67b3ddd-96f8-44ec-b3a7-52270fcfb2ef","ios":"levelo://app?vid=b67b3ddd-96f8-44ec-b3a7-52270fcfb2ef"},"vehicle_type_id":"4","last_reported":1726361367,"current_range_meters":23200,"station_id":"ce4bgt12rcd13ifvqce0","pricing_plan_id":"cebpf4jnsgd1na2vs0mg"},{"bike_id":"19464f98-331b-4d71-9e0e-3d4d3a63f502","system_id":"levelo_inurba_marseille","lat":43.24669,"lon":5.38161,"is_reserved":false,"is_disabled":false,"rental_uris":{"android":"levelo://app?vid=19464f98-331b-4d71-9e0e-3d4d3a63f502","ios":"levelo://app?vid=19464f98-331b-4d71-9e0e-3d4d3a63f502"},"vehicle_type_id":"4","last_reported":1726361367,"current_range_meters":38800,"station_id":"ce4bhih2rcd13ifvqfr0","pricing_plan_id":"cebpf4jnsgd1na2vs0mg"},{"bike_id":"fe7d7640-31b4-4680-bbc0-971c61390d2e","system_id":"levelo_inurba_marseille","lat":43.25094,"lon":5.39504,"is_reserved":false,"is_disabled":false,"rental_uris":{"android":"levelo://app?vid=fe7d7640-31b4-4680-bbc0-971c61390d2e","ios":"levelo://app?vid=fe7d7640-31b4-4680-bbc0-971c61390d2e"},"vehicle_type_id":"4","last_reported":1726361367,"current_range_meters":30800,"station_id":"ce4bhm12rcd13ifvqgkg","pricing_plan_id":"cebpf4jnsgd1na2vs0mg"},{"bike_id":"26db0265-0a91-4c66-8aa8-67a94f7eef0d","system_id":"levelo_inurba_marseille","lat":43.26943,"lon":5.40054,"is_reserved":false,"is_disabled":false,"rental_uris":{"android":"levelo://app?vid=26db0265-0a91-4c66-8aa8-67a94f7eef0d","ios":"levelo://app?vid=26db0265-0a91-4c66-8aa8-67a94f7eef0d"},"vehicle_type_id":"4","last_reported":1726361367,"current_range_meters":13600,"station_id":"","pricing_plan_id":"cebpf4jnsgd1na2vs0mg"},{"bike_id":"9b49fc06-69dc-4375-9bc8-2ab31283d424","system_id":"levelo_inurba_marseille","lat":43.29903,"lon":5.43662,"is_reserved":false,"is_disabled":false,"rental_uris":{"android":"levelo://app?vid=9b49fc06-69dc-4375-9bc8-2ab31283d424","ios":"levelo://app?vid=9b49fc06-69dc-4375-9bc8-2ab31283d424"},"vehicle_type_id":"4","last_reported":1726361367,"current_range_meters":29600,"station_id":"ce4bhpp2rcd13ifvqhfg","pricing_plan_id":"cebpf4jnsgd1na2vs0mg"},{"bike_id":"8b9b65f6-c979-4ea6-b29b-2856eb84bf4f","system_id":"levelo_inurba_marseille","lat":43.30132,"lon":5.39868,"is_reserved":false,"is_disabled":false,"rental_uris":{"android":"levelo://app?vid=8b9b65f6-c979-4ea6-b29b-2856eb84bf4f","ios":"levelo://app?vid=8b9b65f6-c979-4ea6-b29b-2856eb84bf4f"},"vehicle_type_id":"4","last_reported":1726361367,"current_range_meters":28400,"station_id":"ce4bh0h2rcd13ifvqd40","pricing_plan_id":"cebpf4jnsgd1na2vs0mg"},{"bike_id":"381e8b41-33ea-453c-8093-8eb6f6c0f3f7","system_id":"levelo_inurba_marseille","lat":43.33605,"lon":5.41036,"is_reserved":false,"is_disabled":false,"rental_uris":{"android":"levelo://app?vid=381e8b41-33ea-453c-8093-8eb6f6c0f3f7","ios":"levelo://app?vid=381e8b41-33ea-453c-8093-8eb6f6c0f3f7"},"vehicle_type_id":"4","last_reported":1726361367,"current_range_meters":17600,"station_id":"ce4bhqh2rcd13ifvqhmg","pricing_plan_id":"cebpf4jnsgd1na2vs0mg"},{"bike_id":"f032dc2b-b845-4454-8144-9e648c4bba23","system_id":"levelo_inurba_marseille","lat":43.2979,"lon":5.39356,"is_reserved":false,"is_disabled":false,"rental_uris":{"android":"levelo://app?vid=f032dc2b-b845-4454-8144-9e648c4bba23","ios":"levelo://app?vid=f032dc2b-b845-4454-8144-9e648c4bba23"},"vehicle_type_id":"4","last_reported":1726361367,"current_range_meters":38800,"station_id":"chh1huq6cuj3fo74tm60","pricing_plan_id":"cebpf4jnsgd1na2vs0mg"},{"bike_id":"14c7c49e-ac4e-4dba-94e4-3e14fb40b26f","system_id":"levelo_inurba_marseille","lat":43.3081,"lon":5.38161,"is_reserved":false,"is_disabled":false,"rental_uris":{"android":"levelo://app?vid=14c7c49e-ac4e-4dba-94e4-3e14fb40b26f","ios":"levelo://app?vid=14c7c49e-ac4e-4dba-94e4-3e14fb40b26f"},"vehicle_type_id":"4","last_reported":1726361367,"current_range_meters":27200,"station_id":"ce4bgt12rcd13ifvqce0","pricing_plan_id":"cebpf4jnsgd1na2vs0mg"},{"bike_id":"fa0bba81-ae28-438c-aaa0-a2a0c9d69ac5","system_id":"levelo_inurba_marseille","lat":43.29572,"lon":5.42295,"is_reserved":false,"is_disabled":false,"rental_uris":{"android":"levelo://app?vid=fa0bba81-ae28-438c-aaa0-a2a0c9d69ac5","ios":"levelo://app?vid=fa0bba81-ae28-438c-aaa0-a2a0c9d69ac5"},"vehicle_type_id":"4","last_reported":1726361367,"current_range_meters":33200,"station_id":"ce4bhph2rcd13ifvqhdg","pricing_plan_id":"cebpf4jnsgd1na2vs0mg"},{"bike_id":"e00d038a-00c7-4258-ab4b-259bdb081cfd","system_id":"levelo_inurba_marseille","lat":43.23201,"lon":5.35546,"is_reserved":false,"is_disabled":false,"rental_uris":{"android":"levelo://app?vid=e00d038a-00c7-4258-ab4b-259bdb081cfd","ios":"levelo://app?vid=e00d038a-00c7-4258-ab4b-259bdb081cfd"},"vehicle_type_id":"4","last_reported":1726361367,"current_range_meters":31200,"station_id":"ce4bhu92rcd13ifvqi70","pricing_plan_id":"cebpf4jnsgd1na2vs0mg"},{"bike_id":"4f847161-8733-40c0-9d1a-924c211b3057","system_id":"levelo_inurba_marseille","lat":43.23199,"lon":5.35543,"is_reserved":false,"is_disabled":false,"rental_uris":{"android":"levelo://app?vid=4f847161-8733-40c0-9d1a-924c211b3057","ios":"levelo://app?vid=4f847161-8733-40c0-9d1a-924c211b3057"},"vehicle_type_id":"4","last_reported":1726361367,"current_range_meters":36000,"station_id":"ce4bhu92rcd13ifvqi70","pricing_plan_id":"cebpf4jnsgd1na2vs0mg"},{"bike_id":"9aeb22e7-cf64-47a4-b914-863d62e3837d","system_id":"levelo_inurba_marseille","lat":43.30917,"lon":5.40157,"is_reserved":false,"is_disabled":false,"rental_uris":{"android":"levelo://app?vid=9aeb22e7-cf64-47a4-b914-863d62e3837d","ios":"levelo://app?vid=9aeb22e7-cf64-47a4-b914-863d62e3837d"},"vehicle_type_id":"4","last_reported":1726361367,"current_range_meters":30000,"station_id":"ce4bgvp2rcd13ifvqct0","pricing_plan_id":"cebpf4jnsgd1na2vs0mg"},{"bike_id":"87562a71-da36-4d20-a8f8-be04c5975b96","system_id":"levelo_inurba_marseille","lat":43.301819,"lon":5.366289,"is_reserved":false,"is_disabled":false,"rental_uris":{"android":"levelo://app?vid=87562a71-da36-4d20-a8f8-be04c5975b96","ios":"levelo://app?vid=87562a71-da36-4d20-a8f8-be04c5975b96"},"vehicle_type_id":"4","last_reported":1726361367,"current_range_meters":23200,"station_id":"ce4bgrh2rcd13ifvqc8g","pricing_plan_id":"cebpf4jnsgd1na2vs0mg"},{"bike_id":"aced5ab7-b508-4250-8809-353d2c8a330a","system_id":"levelo_inurba_marseille","lat":43.255829,"lon":5.38236,"is_reserved":false,"is_disabled":false,"rental_uris":{"android":"levelo://app?vid=aced5ab7-b508-4250-8809-353d2c8a330a","ios":"levelo://app?vid=aced5ab7-b508-4250-8809-353d2c8a330a"},"vehicle_type_id":"4","last_reported":1726361367,"current_range_meters":16800,"station_id":"ce4bhih2rcd13ifvqfs0","pricing_plan_id":"cebpf4jnsgd1na2vs0mg"},{"bike_id":"10256dff-84cb-440b-8e7d-2facb565bd8b","system_id":"levelo_inurba_marseille","lat":43.30802,"lon":5.43525,"is_reserved":false,"is_disabled":false,"rental_uris":{"android":"levelo://app?vid=10256dff-84cb-440b-8e7d-2facb565bd8b","ios":"levelo://app?vid=10256dff-84cb-440b-8e7d-2facb565bd8b"},"vehicle_type_id":"4","last_reported":1726361367,"current_range_meters":26000,"station_id":"ce4bhph2rcd13ifvqheg","pricing_plan_id":"cebpf4jnsgd1na2vs0mg"},{"bike_id":"8d3ee9a4-51a1-44e0-8b30-166e67777a82","system_id":"levelo_inurba_marseille","lat":43.25861,"lon":5.39905,"is_reserved":false,"is_disabled":false,"rental_uris":{"android":"levelo://app?vid=8d3ee9a4-51a1-44e0-8b30-166e67777a82","ios":"levelo://app?vid=8d3ee9a4-51a1-44e0-8b30-166e67777a82"},"vehicle_type_id":"4","last_reported":1726361367,"current_range_meters":38800,"station_id":"ce4bhl92rcd13ifvqghg","pricing_plan_id":"cebpf4jnsgd1na2vs0mg"},{"bike_id":"c62e4517-269d-4e4c-915f-b20642d0b7d9","system_id":"levelo_inurba_marseille","lat":43.290375,"lon":5.375552,"is_reserved":false,"is_disabled":false,"rental_uris":{"android":"levelo://app?vid=c62e4517-269d-4e4c-915f-b20642d0b7d9","ios":"levelo://app?vid=c62e4517-269d-4e4c-915f-b20642d0b7d9"},"vehicle_type_id":"4","last_reported":1726361367,"current_range_meters":29600,"station_id":"ce4bh692rcd13ifvqe90","pricing_plan_id":"cebpf4jnsgd1na2vs0mg"},{"bike_id":"b8640a1b-d4a2-4e08-b27f-f6878ec4cbf7","system_id":"levelo_inurba_marseille","lat":43.316866,"lon":5.404842,"is_reserved":false,"is_disabled":false,"rental_uris":{"android":"levelo://app?vid=b8640a1b-d4a2-4e08-b27f-f6878ec4cbf7","ios":"levelo://app?vid=b8640a1b-d4a2-4e08-b27f-f6878ec4cbf7"},"vehicle_type_id":"4","last_reported":1726361367,"current_range_meters":33600,"station_id":"ce4bh012rcd13ifvqd00","pricing_plan_id":"cebpf4jnsgd1na2vs0mg"},{"bike_id":"0bd7b192-89f0-459c-b98d-6bf4bca50e7f","system_id":"levelo_inurba_marseille","lat":43.26948,"lon":5.40254,"is_reserved":false,"is_disabled":false,"rental_uris":{"android":"levelo://app?vid=0bd7b192-89f0-459c-b98d-6bf4bca50e7f","ios":"levelo://app?vid=0bd7b192-89f0-459c-b98d-6bf4bca50e7f"},"vehicle_type_id":"4","last_reported":1726361367,"current_range_meters":37600,"station_id":"cjm6bp8fraef2m0cb0m0","pricing_plan_id":"cebpf4jnsgd1na2vs0mg"},{"bike_id":"d72b2ab6-ea3d-4024-88f8-d9b1b25fb544","system_id":"levelo_inurba_marseille","lat":43.30785,"lon":5.37662,"is_reserved":false,"is_disabled":false,"rental_uris":{"android":"levelo://app?vid=d72b2ab6-ea3d-4024-88f8-d9b1b25fb544","ios":"levelo://app?vid=d72b2ab6-ea3d-4024-88f8-d9b1b25fb544"},"vehicle_type_id":"4","last_reported":1726361367,"current_range_meters":26800,"station_id":"ce4bgv92rcd13ifvqcq0","pricing_plan_id":"cebpf4jnsgd1na2vs0mg"},{"bike_id":"3c4c5b85-5b79-4029-86ae-4feb397ccf8c","system_id":"levelo_inurba_marseille","lat":43.24809,"lon":5.37455,"is_reserved":false,"is_disabled":false,"rental_uris":{"android":"levelo://app?vid=3c4c5b85-5b79-4029-86ae-4feb397ccf8c","ios":"levelo://app?vid=3c4c5b85-5b79-4029-86ae-4feb397ccf8c"},"vehicle_type_id":"4","last_reported":1726361367,"current_range_meters":38800,"station_id":"ce4bhgh2rcd13ifvqfb0","pricing_plan_id":"cebpf4jnsgd1na2vs0mg"},{"bike_id":"202d8cbb-462c-4f7e-b909-68c6dd6bce3a","system_id":"levelo_inurba_marseille","lat":43.29043,"lon":5.39963,"is_reserved":false,"is_disabled":false,"rental_uris":{"android":"levelo://app?vid=202d8cbb-462c-4f7e-b909-68c6dd6bce3a","ios":"levelo://app?vid=202d8cbb-462c-4f7e-b909-68c6dd6bce3a"},"vehicle_type_id":"4","last_reported":1726361367,"current_range_meters":37600,"station_id":"ce4bh392rcd13ifvqdm0","pricing_plan_id":"cebpf4jnsgd1na2vs0mg"},{"bike_id":"cf4306ab-ec49-44e9-a678-fc57450de71b","system_id":"levelo_inurba_marseille","lat":43.31533,"lon":5.38026,"is_reserved":false,"is_disabled":false,"rental_uris":{"android":"levelo://app?vid=cf4306ab-ec49-44e9-a678-fc57450de71b","ios":"levelo://app?vid=cf4306ab-ec49-44e9-a678-fc57450de71b"},"vehicle_type_id":"4","last_reported":1726361367,"current_range_meters":40000,"station_id":"ce4bhsp2rcd13ifvqi50","pricing_plan_id":"cebpf4jnsgd1na2vs0mg"},{"bike_id":"df293ba3-6137-4aac-9bcb-adfad5f91d0b","system_id":"levelo_inurba_marseille","lat":43.31331,"lon":5.39697,"is_reserved":false,"is_disabled":false,"rental_uris":{"android":"levelo://app?vid=df293ba3-6137-4aac-9bcb-adfad5f91d0b","ios":"levelo://app?vid=df293ba3-6137-4aac-9bcb-adfad5f91d0b"},"vehicle_type_id":"4","last_reported":1726361367,"current_range_meters":26000,"station_id":"ce4bgvp2rcd13ifvqcu0","pricing_plan_id":"cebpf4jnsgd1na2vs0mg"},{"bike_id":"f755c03b-59f8-4f0b-bdcf-df859e9a82e3","system_id":"levelo_inurba_marseille","lat":43.30806,"lon":5.38144,"is_reserved":false,"is_disabled":false,"rental_uris":{"android":"levelo://app?vid=f755c03b-59f8-4f0b-bdcf-df859e9a82e3","ios":"levelo://app?vid=f755c03b-59f8-4f0b-bdcf-df859e9a82e3"},"vehicle_type_id":"4","last_reported":1726361367,"current_range_meters":40000,"station_id":"ce4bgt12rcd13ifvqce0","pricing_plan_id":"cebpf4jnsgd1na2vs0mg"},{"bike_id":"7b5477b4-ea69-430c-9451-f5bb6834d95c","system_id":"levelo_inurba_marseille","lat":43.28662,"lon":5.36353,"is_reserved":false,"is_disabled":false,"rental_uris":{"android":"levelo://app?vid=7b5477b4-ea69-430c-9451-f5bb6834d95c","ios":"levelo://app?vid=7b5477b4-ea69-430c-9451-f5bb6834d95c"},"vehicle_type_id":"4","last_reported":1726361367,"current_range_meters":37600,"station_id":"ce4bhah2rcd13ifvqej0","pricing_plan_id":"cebpf4jnsgd1na2vs0mg"},{"bike_id":"ebe53a77-6994-49b3-8fcb-41dbc95c6d08","system_id":"levelo_inurba_marseille","lat":43.30937,"lon":5.40155,"is_reserved":false,"is_disabled":false,"rental_uris":{"android":"levelo://app?vid=ebe53a77-6994-49b3-8fcb-41dbc95c6d08","ios":"levelo://app?vid=ebe53a77-6994-49b3-8fcb-41dbc95c6d08"},"vehicle_type_id":"4","last_reported":1726361367,"current_range_meters":27200,"station_id":"ce4bgvp2rcd13ifvqct0","pricing_plan_id":"cebpf4jnsgd1na2vs0mg"},{"bike_id":"b738507c-5c72-4eae-bb95-30c6b39da08b","system_id":"levelo_inurba_marseille","lat":43.30937,"lon":5.40148,"is_reserved":false,"is_disabled":false,"rental_uris":{"android":"levelo://app?vid=b738507c-5c72-4eae-bb95-30c6b39da08b","ios":"levelo://app?vid=b738507c-5c72-4eae-bb95-30c6b39da08b"},"vehicle_type_id":"4","last_reported":1726361367,"current_range_meters":3600,"station_id":"ce4bgvp2rcd13ifvqct0","pricing_plan_id":"cebpf4jnsgd1na2vs0mg"},{"bike_id":"a0ed5178-484f-47cc-bd63-846aeaa97be3","system_id":"levelo_inurba_marseille","lat":43.30782,"lon":5.37646,"is_reserved":false,"is_disabled":false,"rental_uris":{"android":"levelo://app?vid=a0ed5178-484f-47cc-bd63-846aeaa97be3","ios":"levelo://app?vid=a0ed5178-484f-47cc-bd63-846aeaa97be3"},"vehicle_type_id":"4","last_reported":1726361367,"current_range_meters":39200,"station_id":"ce4bgv92rcd13ifvqcq0","pricing_plan_id":"cebpf4jnsgd1na2vs0mg"},{"bike_id":"997a5551-7921-4f59-89a0-0ef85447785b","system_id":"levelo_inurba_marseille","lat":43.30802,"lon":5.38153,"is_reserved":false,"is_disabled":false,"rental_uris":{"android":"levelo://app?vid=997a5551-7921-4f59-89a0-0ef85447785b","ios":"levelo://app?vid=997a5551-7921-4f59-89a0-0ef85447785b"},"vehicle_type_id":"4","last_reported":1726361367,"current_range_meters":38400,"station_id":"ce4bgt12rcd13ifvqce0","pricing_plan_id":"cebpf4jnsgd1na2vs0mg"},{"bike_id":"b1db6496-7d7b-4acc-a88c-e5406d38e100","system_id":"levelo_inurba_marseille","lat":43.23199,"lon":5.35549,"is_reserved":false,"is_disabled":false,"rental_uris":{"android":"levelo://app?vid=b1db6496-7d7b-4acc-a88c-e5406d38e100","ios":"levelo://app?vid=b1db6496-7d7b-4acc-a88c-e5406d38e100"},"vehicle_type_id":"4","last_reported":1726361367,"current_range_meters":38400,"station_id":"ce4bhu92rcd13ifvqi70","pricing_plan_id":"cebpf4jnsgd1na2vs0mg"},{"bike_id":"5d5a38a8-08ef-4ec3-a1b6-273c0e969aa3","system_id":"levelo_inurba_marseille","lat":43.31229,"lon":5.36863,"is_reserved":false,"is_disabled":false,"rental_uris":{"android":"levelo://app?vid=5d5a38a8-08ef-4ec3-a1b6-273c0e969aa3","ios":"levelo://app?vid=5d5a38a8-08ef-4ec3-a1b6-273c0e969aa3"},"vehicle_type_id":"4","last_reported":1726361367,"current_range_meters":28400,"station_id":"ce4bgl92rcd13ifvqbq0","pricing_plan_id":"cebpf4jnsgd1na2vs0mg"},{"bike_id":"ee721f16-71d0-49c8-9da4-858f78b55bcb","system_id":"levelo_inurba_marseille","lat":43.25946,"lon":5.40902,"is_reserved":false,"is_disabled":false,"rental_uris":{"android":"levelo://app?vid=ee721f16-71d0-49c8-9da4-858f78b55bcb","ios":"levelo://app?vid=ee721f16-71d0-49c8-9da4-858f78b55bcb"},"vehicle_type_id":"4","last_reported":1726361367,"current_range_meters":28000,"station_id":"ce4bhm92rcd13ifvqglg","pricing_plan_id":"cebpf4jnsgd1na2vs0mg"},{"bike_id":"4af6fd3a-aef1-43db-816e-c64d386db18f","system_id":"levelo_inurba_marseille","lat":43.3089,"lon":5.37188,"is_reserved":false,"is_disabled":false,"rental_uris":{"android":"levelo://app?vid=4af6fd3a-aef1-43db-816e-c64d386db18f","ios":"levelo://app?vid=4af6fd3a-aef1-43db-816e-c64d386db18f"},"vehicle_type_id":"4","last_reported":1726361367,"current_range_meters":9600,"station_id":"ce4bguh2rcd13ifvqckg","pricing_plan_id":"cebpf4jnsgd1na2vs0mg"},{"bike_id":"03aa104c-fa70-4660-8124-c74da53980cb","system_id":"levelo_inurba_marseille","lat":43.30959,"lon":5.39053,"is_reserved":false,"is_disabled":false,"rental_uris":{"android":"levelo://app?vid=03aa104c-fa70-4660-8124-c74da53980cb","ios":"levelo://app?vid=03aa104c-fa70-4660-8124-c74da53980cb"},"vehicle_type_id":"4","last_reported":1726361367,"current_range_meters":31200,"station_id":"ce4bgup2rcd13ifvqco0","pricing_plan_id":"cebpf4jnsgd1na2vs0mg"},{"bike_id":"bfcc85f9-1922-4a06-a445-7e84d3be9a8b","system_id":"levelo_inurba_marseille","lat":43.29574,"lon":5.39978,"is_reserved":false,"is_disabled":false,"rental_uris":{"android":"levelo://app?vid=bfcc85f9-1922-4a06-a445-7e84d3be9a8b","ios":"levelo://app?vid=bfcc85f9-1922-4a06-a445-7e84d3be9a8b"},"vehicle_type_id":"4","last_reported":1726361367,"current_range_meters":36000,"station_id":"ce4bh312rcd13ifvqdj0","pricing_plan_id":"cebpf4jnsgd1na2vs0mg"},{"bike_id":"4d2d176a-7803-4d4f-821d-cfe0d9130b45","system_id":"levelo_inurba_marseille","lat":43.29294,"lon":5.37463,"is_reserved":false,"is_disabled":false,"rental_uris":{"android":"levelo://app?vid=4d2d176a-7803-4d4f-821d-cfe0d9130b45","ios":"levelo://app?vid=4d2d176a-7803-4d4f-821d-cfe0d9130b45"},"vehicle_type_id":"4","last_reported":1726361367,"current_range_meters":38800,"station_id":"","pricing_plan_id":"cebpf4jnsgd1na2vs0mg"},{"bike_id":"362161cd-dad3-4629-a750-f306b00831c5","system_id":"levelo_inurba_marseille","lat":43.30783,"lon":5.37652,"is_reserved":false,"is_disabled":false,"rental_uris":{"android":"levelo://app?vid=362161cd-dad3-4629-a750-f306b00831c5","ios":"levelo://app?vid=362161cd-dad3-4629-a750-f306b00831c5"},"vehicle_type_id":"4","last_reported":1726361367,"current_range_meters":26800,"station_id":"ce4bgv92rcd13ifvqcq0","pricing_plan_id":"cebpf4jnsgd1na2vs0mg"},{"bike_id":"191aaad7-3947-47de-b3b9-0cc2faf013d9","system_id":"levelo_inurba_marseille","lat":43.28157,"lon":5.42642,"is_reserved":false,"is_disabled":false,"rental_uris":{"android":"levelo://app?vid=191aaad7-3947-47de-b3b9-0cc2faf013d9","ios":"levelo://app?vid=191aaad7-3947-47de-b3b9-0cc2faf013d9"},"vehicle_type_id":"4","last_reported":1726361367,"current_range_meters":18800,"station_id":"ce4bhnh2rcd13ifvqgug","pricing_plan_id":"cebpf4jnsgd1na2vs0mg"},{"bike_id":"dfc7e944-178a-43bd-85e8-0abf1cafc416","system_id":"levelo_inurba_marseille","lat":43.22932,"lon":5.35376,"is_reserved":false,"is_disabled":false,"rental_uris":{"android":"levelo://app?vid=dfc7e944-178a-43bd-85e8-0abf1cafc416","ios":"levelo://app?vid=dfc7e944-178a-43bd-85e8-0abf1cafc416"},"vehicle_type_id":"4","last_reported":1726361367,"current_range_meters":24000,"station_id":"cpo3532slgdg3j2ikp40","pricing_plan_id":"cebpf4jnsgd1na2vs0mg"},{"bike_id":"074a5e33-94f4-45ec-ad07-778b7d83aced","system_id":"levelo_inurba_marseille","lat":43.30603,"lon":5.37227,"is_reserved":false,"is_disabled":false,"rental_uris":{"android":"levelo://app?vid=074a5e33-94f4-45ec-ad07-778b7d83aced","ios":"levelo://app?vid=074a5e33-94f4-45ec-ad07-778b7d83aced"},"vehicle_type_id":"4","last_reported":1726361367,"current_range_meters":6400,"station_id":"ce4bgqh2rcd13ifvqc4g","pricing_plan_id":"cebpf4jnsgd1na2vs0mg"},{"bike_id":"6dddbab5-c16e-4541-846f-31261364d687","system_id":"levelo_inurba_marseille","lat":43.31336,"lon":5.39699,"is_reserved":false,"is_disabled":false,"rental_uris":{"android":"levelo://app?vid=6dddbab5-c16e-4541-846f-31261364d687","ios":"levelo://app?vid=6dddbab5-c16e-4541-846f-31261364d687"},"vehicle_type_id":"4","last_reported":1726361367,"current_range_meters":14000,"station_id":"ce4bgvp2rcd13ifvqcu0","pricing_plan_id":"cebpf4jnsgd1na2vs0mg"},{"bike_id":"d14a89a3-5876-4d42-aaa8-8644b282b1ec","system_id":"levelo_inurba_marseille","lat":43.33607,"lon":5.41026,"is_reserved":false,"is_disabled":false,"rental_uris":{"android":"levelo://app?vid=d14a89a3-5876-4d42-aaa8-8644b282b1ec","ios":"levelo://app?vid=d14a89a3-5876-4d42-aaa8-8644b282b1ec"},"vehicle_type_id":"4","last_reported":1726361367,"current_range_meters":23200,"station_id":"ce4bhqh2rcd13ifvqhmg","pricing_plan_id":"cebpf4jnsgd1na2vs0mg"},{"bike_id":"632087b0-ace9-478e-9938-18794cc724b7","system_id":"levelo_inurba_marseille","lat":43.30955,"lon":5.39042,"is_reserved":false,"is_disabled":false,"rental_uris":{"android":"levelo://app?vid=632087b0-ace9-478e-9938-18794cc724b7","ios":"levelo://app?vid=632087b0-ace9-478e-9938-18794cc724b7"},"vehicle_type_id":"4","last_reported":1726361367,"current_range_meters":38800,"station_id":"ce4bgup2rcd13ifvqco0","pricing_plan_id":"cebpf4jnsgd1na2vs0mg"},{"bike_id":"f1a060cd-b023-45af-b205-f4250fba925a","system_id":"levelo_inurba_marseille","lat":43.24668,"lon":5.38161,"is_reserved":false,"is_disabled":false,"rental_uris":{"android":"levelo://app?vid=f1a060cd-b023-45af-b205-f4250fba925a","ios":"levelo://app?vid=f1a060cd-b023-45af-b205-f4250fba925a"},"vehicle_type_id":"4","last_reported":1726361367,"current_range_meters":38800,"station_id":"ce4bhih2rcd13ifvqfr0","pricing_plan_id":"cebpf4jnsgd1na2vs0mg"},{"bike_id":"b645ac77-0d58-4fa9-8ad3-947af8bdb1d9","system_id":"levelo_inurba_marseille","lat":43.29903,"lon":5.4366,"is_reserved":false,"is_disabled":false,"rental_uris":{"android":"levelo://app?vid=b645ac77-0d58-4fa9-8ad3-947af8bdb1d9","ios":"levelo://app?vid=b645ac77-0d58-4fa9-8ad3-947af8bdb1d9"},"vehicle_type_id":"4","last_reported":1726361367,"current_range_meters":36400,"station_id":"ce4bhpp2rcd13ifvqhfg","pricing_plan_id":"cebpf4jnsgd1na2vs0mg"},{"bike_id":"03515e55-0de8-4f6d-953a-abbf71a9cce4","system_id":"levelo_inurba_marseille","lat":43.24081,"lon":5.37757,"is_reserved":false,"is_disabled":false,"rental_uris":{"android":"levelo://app?vid=03515e55-0de8-4f6d-953a-abbf71a9cce4","ios":"levelo://app?vid=03515e55-0de8-4f6d-953a-abbf71a9cce4"},"vehicle_type_id":"4","last_reported":1726361367,"current_range_meters":20400,"station_id":"ce4bhnp2rcd13ifvqgvg","pricing_plan_id":"cebpf4jnsgd1na2vs0mg"},{"bike_id":"a5678295-0458-4f6d-9ccb-6897bde67101","system_id":"levelo_inurba_marseille","lat":43.24168,"lon":5.36404,"is_reserved":false,"is_disabled":false,"rental_uris":{"android":"levelo://app?vid=a5678295-0458-4f6d-9ccb-6897bde67101","ios":"levelo://app?vid=a5678295-0458-4f6d-9ccb-6897bde67101"},"vehicle_type_id":"4","last_reported":1726361367,"current_range_meters":38000,"station_id":"cpo36qri1sfpv3e86is0","pricing_plan_id":"cebpf4jnsgd1na2vs0mg"},{"bike_id":"91d155a1-0e95-42f4-9cf2-24e586735a13","system_id":"levelo_inurba_marseille","lat":43.3372,"lon":5.39174,"is_reserved":false,"is_disabled":false,"rental_uris":{"android":"levelo://app?vid=91d155a1-0e95-42f4-9cf2-24e586735a13","ios":"levelo://app?vid=91d155a1-0e95-42f4-9cf2-24e586735a13"},"vehicle_type_id":"4","last_reported":1726361367,"current_range_meters":38800,"station_id":"ce4bhr92rcd13ifvqhsg","pricing_plan_id":"cebpf4jnsgd1na2vs0mg"},{"bike_id":"5cbfba17-7966-47bc-bd57-385605875a81","system_id":"levelo_inurba_marseille","lat":43.24818,"lon":5.37447,"is_reserved":false,"is_disabled":false,"rental_uris":{"android":"levelo://app?vid=5cbfba17-7966-47bc-bd57-385605875a81","ios":"levelo://app?vid=5cbfba17-7966-47bc-bd57-385605875a81"},"vehicle_type_id":"4","last_reported":1726361367,"current_range_meters":38000,"station_id":"ce4bhgh2rcd13ifvqfb0","pricing_plan_id":"cebpf4jnsgd1na2vs0mg"},{"bike_id":"c11f97d6-87cf-4460-8a76-9af979a978f6","system_id":"levelo_inurba_marseille","lat":43.3091,"lon":5.36846,"is_reserved":false,"is_disabled":false,"rental_uris":{"android":"levelo://app?vid=c11f97d6-87cf-4460-8a76-9af979a978f6","ios":"levelo://app?vid=c11f97d6-87cf-4460-8a76-9af979a978f6"},"vehicle_type_id":"4","last_reported":1726361367,"current_range_meters":11200,"station_id":"ce4bgn92rcd13ifvqbvg","pricing_plan_id":"cebpf4jnsgd1na2vs0mg"},{"bike_id":"d09e889c-91fc-429c-858f-8477102c0db7","system_id":"levelo_inurba_marseille","lat":43.31073,"lon":5.38357,"is_reserved":false,"is_disabled":false,"rental_uris":{"android":"levelo://app?vid=d09e889c-91fc-429c-858f-8477102c0db7","ios":"levelo://app?vid=d09e889c-91fc-429c-858f-8477102c0db7"},"vehicle_type_id":"4","last_reported":1726361367,"current_range_meters":32400,"station_id":"ce4bgv92rcd13ifvqcr0","pricing_plan_id":"cebpf4jnsgd1na2vs0mg"},{"bike_id":"4123515d-635a-4a62-9f56-c2589ef20496","system_id":"levelo_inurba_marseille","lat":43.29902,"lon":5.43661,"is_reserved":false,"is_disabled":false,"rental_uris":{"android":"levelo://app?vid=4123515d-635a-4a62-9f56-c2589ef20496","ios":"levelo://app?vid=4123515d-635a-4a62-9f56-c2589ef20496"},"vehicle_type_id":"4","last_reported":1726361367,"current_range_meters":39200,"station_id":"ce4bhpp2rcd13ifvqhfg","pricing_plan_id":"cebpf4jnsgd1na2vs0mg"},{"bike_id":"680b296f-8a9e-4ce9-90dd-5edf4faa61c1","system_id":"levelo_inurba_marseille","lat":43.31763,"lon":5.39011,"is_reserved":false,"is_disabled":false,"rental_uris":{"android":"levelo://app?vid=680b296f-8a9e-4ce9-90dd-5edf4faa61c1","ios":"levelo://app?vid=680b296f-8a9e-4ce9-90dd-5edf4faa61c1"},"vehicle_type_id":"4","last_reported":1726361367,"current_range_meters":38800,"station_id":"ce4bhqp2rcd13ifvqhng","pricing_plan_id":"cebpf4jnsgd1na2vs0mg"},{"bike_id":"bbd2450a-84a7-42e1-bc94-af6bf7be8eb5","system_id":"levelo_inurba_marseille","lat":43.33034,"lon":5.39047,"is_reserved":false,"is_disabled":false,"rental_uris":{"android":"levelo://app?vid=bbd2450a-84a7-42e1-bc94-af6bf7be8eb5","ios":"levelo://app?vid=bbd2450a-84a7-42e1-bc94-af6bf7be8eb5"},"vehicle_type_id":"4","last_reported":1726361367,"current_range_meters":36000,"station_id":"ce4bhr92rcd13ifvqhrg","pricing_plan_id":"cebpf4jnsgd1na2vs0mg"},{"bike_id":"e8a9a88f-e3dd-4130-8491-dcbfd4fb4893","system_id":"levelo_inurba_marseille","lat":43.33721,"lon":5.39173,"is_reserved":false,"is_disabled":false,"rental_uris":{"android":"levelo://app?vid=e8a9a88f-e3dd-4130-8491-dcbfd4fb4893","ios":"levelo://app?vid=e8a9a88f-e3dd-4130-8491-dcbfd4fb4893"},"vehicle_type_id":"4","last_reported":1726361367,"current_range_meters":38400,"station_id":"ce4bhr92rcd13ifvqhsg","pricing_plan_id":"cebpf4jnsgd1na2vs0mg"},{"bike_id":"46fa0628-63da-403c-a9e3-76cf9989cf96","system_id":"levelo_inurba_marseille","lat":43.31338,"lon":5.39694,"is_reserved":false,"is_disabled":false,"rental_uris":{"android":"levelo://app?vid=46fa0628-63da-403c-a9e3-76cf9989cf96","ios":"levelo://app?vid=46fa0628-63da-403c-a9e3-76cf9989cf96"},"vehicle_type_id":"4","last_reported":1726361367,"current_range_meters":39200,"station_id":"ce4bgvp2rcd13ifvqcu0","pricing_plan_id":"cebpf4jnsgd1na2vs0mg"},{"bike_id":"d1ff2331-d251-403d-9f39-2bb7a84d72b5","system_id":"levelo_inurba_marseille","lat":43.24669,"lon":5.38153,"is_reserved":false,"is_disabled":false,"rental_uris":{"android":"levelo://app?vid=d1ff2331-d251-403d-9f39-2bb7a84d72b5","ios":"levelo://app?vid=d1ff2331-d251-403d-9f39-2bb7a84d72b5"},"vehicle_type_id":"4","last_reported":1726361367,"current_range_meters":16400,"station_id":"ce4bhih2rcd13ifvqfr0","pricing_plan_id":"cebpf4jnsgd1na2vs0mg"},{"bike_id":"9c725688-b0c1-459c-ac5a-39ed339a416d","system_id":"levelo_inurba_marseille","lat":43.29195,"lon":5.35807,"is_reserved":false,"is_disabled":false,"rental_uris":{"android":"levelo://app?vid=9c725688-b0c1-459c-ac5a-39ed339a416d","ios":"levelo://app?vid=9c725688-b0c1-459c-ac5a-39ed339a416d"},"vehicle_type_id":"4","last_reported":1726361367,"current_range_meters":38800,"station_id":"ce4bhb12rcd13ifvqel0","pricing_plan_id":"cebpf4jnsgd1na2vs0mg"},{"bike_id":"ac2f8b18-c4e8-4836-947b-b533a20a9549","system_id":"levelo_inurba_marseille","lat":43.29031,"lon":5.35922,"is_reserved":false,"is_disabled":false,"rental_uris":{"android":"levelo://app?vid=ac2f8b18-c4e8-4836-947b-b533a20a9549","ios":"levelo://app?vid=ac2f8b18-c4e8-4836-947b-b533a20a9549"},"vehicle_type_id":"4","last_reported":1726361367,"current_range_meters":37600,"station_id":"ce4bha92rcd13ifvqeg0","pricing_plan_id":"cebpf4jnsgd1na2vs0mg"},{"bike_id":"2f2ec0be-eca5-43ef-afb7-d9c9efbb93bd","system_id":"levelo_inurba_marseille","lat":43.32295,"lon":5.38267,"is_reserved":false,"is_disabled":false,"rental_uris":{"android":"levelo://app?vid=2f2ec0be-eca5-43ef-afb7-d9c9efbb93bd","ios":"levelo://app?vid=2f2ec0be-eca5-43ef-afb7-d9c9efbb93bd"},"vehicle_type_id":"4","last_reported":1726361367,"current_range_meters":10000,"station_id":"ce4bhr12rcd13ifvqhqg","pricing_plan_id":"cebpf4jnsgd1na2vs0mg"},{"bike_id":"552ccea4-a0ab-4fa2-9015-1ea8da64cd61","system_id":"levelo_inurba_marseille","lat":43.2558,"lon":5.38229,"is_reserved":false,"is_disabled":false,"rental_uris":{"android":"levelo://app?vid=552ccea4-a0ab-4fa2-9015-1ea8da64cd61","ios":"levelo://app?vid=552ccea4-a0ab-4fa2-9015-1ea8da64cd61"},"vehicle_type_id":"4","last_reported":1726361367,"current_range_meters":5600,"station_id":"ce4bhih2rcd13ifvqfs0","pricing_plan_id":"cebpf4jnsgd1na2vs0mg"},{"bike_id":"9891c37e-0015-4fb5-b721-3755085cd71a","system_id":"levelo_inurba_marseille","lat":43.31334,"lon":5.39692,"is_reserved":false,"is_disabled":false,"rental_uris":{"android":"levelo://app?vid=9891c37e-0015-4fb5-b721-3755085cd71a","ios":"levelo://app?vid=9891c37e-0015-4fb5-b721-3755085cd71a"},"vehicle_type_id":"4","last_reported":1726361367,"current_range_meters":38400,"station_id":"ce4bgvp2rcd13ifvqcu0","pricing_plan_id":"cebpf4jnsgd1na2vs0mg"},{"bike_id":"d5f2361c-9ab5-4b14-8112-2e6a66ec34b0","system_id":"levelo_inurba_marseille","lat":43.30652,"lon":5.40097,"is_reserved":false,"is_disabled":false,"rental_uris":{"android":"levelo://app?vid=d5f2361c-9ab5-4b14-8112-2e6a66ec34b0","ios":"levelo://app?vid=d5f2361c-9ab5-4b14-8112-2e6a66ec34b0"},"vehicle_type_id":"4","last_reported":1726361367,"current_range_meters":11600,"station_id":"ce4bh112rcd13ifvqda0","pricing_plan_id":"cebpf4jnsgd1na2vs0mg"},{"bike_id":"9ddcad32-dd9e-4ae3-85c7-eb5fe7b5a9e4","system_id":"levelo_inurba_marseille","lat":43.31069,"lon":5.38354,"is_reserved":false,"is_disabled":false,"rental_uris":{"android":"levelo://app?vid=9ddcad32-dd9e-4ae3-85c7-eb5fe7b5a9e4","ios":"levelo://app?vid=9ddcad32-dd9e-4ae3-85c7-eb5fe7b5a9e4"},"vehicle_type_id":"4","last_reported":1726361367,"current_range_meters":18000,"station_id":"ce4bgv92rcd13ifvqcr0","pricing_plan_id":"cebpf4jnsgd1na2vs0mg"},{"bike_id":"43cc0dbb-0f89-43e2-8e5e-fa9c0ff4f17d","system_id":"levelo_inurba_marseille","lat":43.29266,"lon":5.40918,"is_reserved":false,"is_disabled":false,"rental_uris":{"android":"levelo://app?vid=43cc0dbb-0f89-43e2-8e5e-fa9c0ff4f17d","ios":"levelo://app?vid=43cc0dbb-0f89-43e2-8e5e-fa9c0ff4f17d"},"vehicle_type_id":"4","last_reported":1726361367,"current_range_meters":8800,"station_id":"ce4bh192rcd13ifvqdc0","pricing_plan_id":"cebpf4jnsgd1na2vs0mg"},{"bike_id":"b8cfd7e7-5313-497a-b136-54748d691d21","system_id":"levelo_inurba_marseille","lat":43.31714,"lon":5.43706,"is_reserved":false,"is_disabled":false,"rental_uris":{"android":"levelo://app?vid=b8cfd7e7-5313-497a-b136-54748d691d21","ios":"levelo://app?vid=b8cfd7e7-5313-497a-b136-54748d691d21"},"vehicle_type_id":"4","last_reported":1726361367,"current_range_meters":40000,"station_id":"ce4bhp92rcd13ifvqhcg","pricing_plan_id":"cebpf4jnsgd1na2vs0mg"},{"bike_id":"06a4474b-9574-4d82-977d-1163f17b7819","system_id":"levelo_inurba_marseille","lat":43.24679,"lon":5.38157,"is_reserved":false,"is_disabled":false,"rental_uris":{"android":"levelo://app?vid=06a4474b-9574-4d82-977d-1163f17b7819","ios":"levelo://app?vid=06a4474b-9574-4d82-977d-1163f17b7819"},"vehicle_type_id":"4","last_reported":1726361367,"current_range_meters":39200,"station_id":"ce4bhih2rcd13ifvqfr0","pricing_plan_id":"cebpf4jnsgd1na2vs0mg"},{"bike_id":"e913674e-3e20-42a5-890a-6007ca92b33d","system_id":"levelo_inurba_marseille","lat":43.31334,"lon":5.39694,"is_reserved":false,"is_disabled":false,"rental_uris":{"android":"levelo://app?vid=e913674e-3e20-42a5-890a-6007ca92b33d","ios":"levelo://app?vid=e913674e-3e20-42a5-890a-6007ca92b33d"},"vehicle_type_id":"4","last_reported":1726361367,"current_range_meters":32800,"station_id":"ce4bgvp2rcd13ifvqcu0","pricing_plan_id":"cebpf4jnsgd1na2vs0mg"},{"bike_id":"c9c7c381-e016-4c51-a76a-8a48c6709198","system_id":"levelo_inurba_marseille","lat":43.28712,"lon":5.39971,"is_reserved":false,"is_disabled":false,"rental_uris":{"android":"levelo://app?vid=c9c7c381-e016-4c51-a76a-8a48c6709198","ios":"levelo://app?vid=c9c7c381-e016-4c51-a76a-8a48c6709198"},"vehicle_type_id":"4","last_reported":1726361367,"current_range_meters":35200,"station_id":"ce4bho92rcd13ifvqh3g","pricing_plan_id":"cebpf4jnsgd1na2vs0mg"},{"bike_id":"7251d55d-befd-400d-90d9-ab0b68ba8caa","system_id":"levelo_inurba_marseille","lat":43.24811,"lon":5.37455,"is_reserved":false,"is_disabled":false,"rental_uris":{"android":"levelo://app?vid=7251d55d-befd-400d-90d9-ab0b68ba8caa","ios":"levelo://app?vid=7251d55d-befd-400d-90d9-ab0b68ba8caa"},"vehicle_type_id":"4","last_reported":1726361367,"current_range_meters":38800,"station_id":"ce4bhgh2rcd13ifvqfb0","pricing_plan_id":"cebpf4jnsgd1na2vs0mg"},{"bike_id":"53a2d874-293d-47cc-bdbd-a03b3468623b","system_id":"levelo_inurba_marseille","lat":43.29902,"lon":5.43677,"is_reserved":false,"is_disabled":false,"rental_uris":{"android":"levelo://app?vid=53a2d874-293d-47cc-bdbd-a03b3468623b","ios":"levelo://app?vid=53a2d874-293d-47cc-bdbd-a03b3468623b"},"vehicle_type_id":"4","last_reported":1726361367,"current_range_meters":7200,"station_id":"ce4bhpp2rcd13ifvqhfg","pricing_plan_id":"cebpf4jnsgd1na2vs0mg"},{"bike_id":"667f841a-38bd-416e-aa2b-3d465ae68086","system_id":"levelo_inurba_marseille","lat":43.31371,"lon":5.3669,"is_reserved":false,"is_disabled":false,"rental_uris":{"android":"levelo://app?vid=667f841a-38bd-416e-aa2b-3d465ae68086","ios":"levelo://app?vid=667f841a-38bd-416e-aa2b-3d465ae68086"},"vehicle_type_id":"4","last_reported":1726361367,"current_range_meters":9200,"station_id":"ce4bgr92rcd13ifvqc6g","pricing_plan_id":"cebpf4jnsgd1na2vs0mg"},{"bike_id":"bb7acf50-b6bc-4b2d-adf4-833abc23b24c","system_id":"levelo_inurba_marseille","lat":43.23195,"lon":5.35548,"is_reserved":false,"is_disabled":false,"rental_uris":{"android":"levelo://app?vid=bb7acf50-b6bc-4b2d-adf4-833abc23b24c","ios":"levelo://app?vid=bb7acf50-b6bc-4b2d-adf4-833abc23b24c"},"vehicle_type_id":"4","last_reported":1726361367,"current_range_meters":39200,"station_id":"ce4bhu92rcd13ifvqi70","pricing_plan_id":"cebpf4jnsgd1na2vs0mg"},{"bike_id":"19628bd1-9172-46c3-bfa1-37d603408e00","system_id":"levelo_inurba_marseille","lat":43.31335,"lon":5.39691,"is_reserved":false,"is_disabled":false,"rental_uris":{"android":"levelo://app?vid=19628bd1-9172-46c3-bfa1-37d603408e00","ios":"levelo://app?vid=19628bd1-9172-46c3-bfa1-37d603408e00"},"vehicle_type_id":"4","last_reported":1726361367,"current_range_meters":39200,"station_id":"ce4bgvp2rcd13ifvqcu0","pricing_plan_id":"cebpf4jnsgd1na2vs0mg"},{"bike_id":"f6de5503-3f64-4c45-a987-7e74ca5c7044","system_id":"levelo_inurba_marseille","lat":43.24169,"lon":5.36393,"is_reserved":false,"is_disabled":false,"rental_uris":{"android":"levelo://app?vid=f6de5503-3f64-4c45-a987-7e74ca5c7044","ios":"levelo://app?vid=f6de5503-3f64-4c45-a987-7e74ca5c7044"},"vehicle_type_id":"4","last_reported":1726361367,"current_range_meters":28400,"station_id":"cpo36qri1sfpv3e86is0","pricing_plan_id":"cebpf4jnsgd1na2vs0mg"},{"bike_id":"7319afac-86dc-439b-ad6c-fa6f60706380","system_id":"levelo_inurba_marseille","lat":43.27985,"lon":5.41651,"is_reserved":false,"is_disabled":false,"rental_uris":{"android":"levelo://app?vid=7319afac-86dc-439b-ad6c-fa6f60706380","ios":"levelo://app?vid=7319afac-86dc-439b-ad6c-fa6f60706380"},"vehicle_type_id":"4","last_reported":1726361367,"current_range_meters":30400,"station_id":"ce4bho12rcd13ifvqh1g","pricing_plan_id":"cebpf4jnsgd1na2vs0mg"},{"bike_id":"67e81cca-6b7c-458e-847c-900b28a76b98","system_id":"levelo_inurba_marseille","lat":43.26493,"lon":5.39539,"is_reserved":false,"is_disabled":false,"rental_uris":{"android":"levelo://app?vid=67e81cca-6b7c-458e-847c-900b28a76b98","ios":"levelo://app?vid=67e81cca-6b7c-458e-847c-900b28a76b98"},"vehicle_type_id":"4","last_reported":1726361367,"current_range_meters":37600,"station_id":"ce4bhi12rcd13ifvqfq0","pricing_plan_id":"cebpf4jnsgd1na2vs0mg"},{"bike_id":"0e45f569-2e44-4e68-8b20-a0944937cde0","system_id":"levelo_inurba_marseille","lat":43.2468,"lon":5.38153,"is_reserved":false,"is_disabled":false,"rental_uris":{"android":"levelo://app?vid=0e45f569-2e44-4e68-8b20-a0944937cde0","ios":"levelo://app?vid=0e45f569-2e44-4e68-8b20-a0944937cde0"},"vehicle_type_id":"4","last_reported":1726361367,"current_range_meters":7200,"station_id":"ce4bhih2rcd13ifvqfr0","pricing_plan_id":"cebpf4jnsgd1na2vs0mg"},{"bike_id":"1a538afb-7212-418a-a0b8-2d921b0b0e66","system_id":"levelo_inurba_marseille","lat":43.32655,"lon":5.40996,"is_reserved":false,"is_disabled":false,"rental_uris":{"android":"levelo://app?vid=1a538afb-7212-418a-a0b8-2d921b0b0e66","ios":"levelo://app?vid=1a538afb-7212-418a-a0b8-2d921b0b0e66"},"vehicle_type_id":"4","last_reported":1726361367,"current_range_meters":38800,"station_id":"ce4bhpp2rcd13ifvqhgg","pricing_plan_id":"cebpf4jnsgd1na2vs0mg"},{"bike_id":"cc0d038e-8a62-435b-9ac6-bfd1505a2d4f","system_id":"levelo_inurba_marseille","lat":43.31728,"lon":5.42405,"is_reserved":false,"is_disabled":false,"rental_uris":{"android":"levelo://app?vid=cc0d038e-8a62-435b-9ac6-bfd1505a2d4f","ios":"levelo://app?vid=cc0d038e-8a62-435b-9ac6-bfd1505a2d4f"},"vehicle_type_id":"4","last_reported":1726361367,"current_range_meters":26800,"station_id":"ce4bhp92rcd13ifvqhbg","pricing_plan_id":"cebpf4jnsgd1na2vs0mg"},{"bike_id":"3724b353-02bf-4b0e-9c4f-8cdf2a4f51bd","system_id":"levelo_inurba_marseille","lat":43.31502,"lon":5.37307,"is_reserved":false,"is_disabled":false,"rental_uris":{"android":"levelo://app?vid=3724b353-02bf-4b0e-9c4f-8cdf2a4f51bd","ios":"levelo://app?vid=3724b353-02bf-4b0e-9c4f-8cdf2a4f51bd"},"vehicle_type_id":"4","last_reported":1726361367,"current_range_meters":24400,"station_id":"ce4bgt12rcd13ifvqcd0","pricing_plan_id":"cebpf4jnsgd1na2vs0mg"},{"bike_id":"7f5df2c6-7e1e-42fe-b508-8ee82456fcff","system_id":"levelo_inurba_marseille","lat":43.31077,"lon":5.38357,"is_reserved":false,"is_disabled":false,"rental_uris":{"android":"levelo://app?vid=7f5df2c6-7e1e-42fe-b508-8ee82456fcff","ios":"levelo://app?vid=7f5df2c6-7e1e-42fe-b508-8ee82456fcff"},"vehicle_type_id":"4","last_reported":1726361367,"current_range_meters":35600,"station_id":"ce4bgv92rcd13ifvqcr0","pricing_plan_id":"cebpf4jnsgd1na2vs0mg"},{"bike_id":"d56cbbe5-b13f-48cb-8b7d-140885a7b197","system_id":"levelo_inurba_marseille","lat":43.31325,"lon":5.3969,"is_reserved":false,"is_disabled":false,"rental_uris":{"android":"levelo://app?vid=d56cbbe5-b13f-48cb-8b7d-140885a7b197","ios":"levelo://app?vid=d56cbbe5-b13f-48cb-8b7d-140885a7b197"},"vehicle_type_id":"4","last_reported":1726361367,"current_range_meters":21600,"station_id":"ce4bgvp2rcd13ifvqcu0","pricing_plan_id":"cebpf4jnsgd1na2vs0mg"},{"bike_id":"bb046787-1b6f-4a52-9f6c-67f38be48f9e","system_id":"levelo_inurba_marseille","lat":43.24551,"lon":5.39524,"is_reserved":false,"is_disabled":false,"rental_uris":{"android":"levelo://app?vid=bb046787-1b6f-4a52-9f6c-67f38be48f9e","ios":"levelo://app?vid=bb046787-1b6f-4a52-9f6c-67f38be48f9e"},"vehicle_type_id":"4","last_reported":1726361367,"current_range_meters":34000,"station_id":"ce4bhlp2rcd13ifvqgjg","pricing_plan_id":"cebpf4jnsgd1na2vs0mg"},{"bike_id":"44d30458-7a32-46f7-8934-a046be5b9eff","system_id":"levelo_inurba_marseille","lat":43.24665,"lon":5.38159,"is_reserved":false,"is_disabled":false,"rental_uris":{"android":"levelo://app?vid=44d30458-7a32-46f7-8934-a046be5b9eff","ios":"levelo://app?vid=44d30458-7a32-46f7-8934-a046be5b9eff"},"vehicle_type_id":"4","last_reported":1726361367,"current_range_meters":34800,"station_id":"ce4bhih2rcd13ifvqfr0","pricing_plan_id":"cebpf4jnsgd1na2vs0mg"},{"bike_id":"8c324614-3b42-4de6-a84b-fab6043da302","system_id":"levelo_inurba_marseille","lat":43.29252,"lon":5.40906,"is_reserved":false,"is_disabled":false,"rental_uris":{"android":"levelo://app?vid=8c324614-3b42-4de6-a84b-fab6043da302","ios":"levelo://app?vid=8c324614-3b42-4de6-a84b-fab6043da302"},"vehicle_type_id":"4","last_reported":1726361367,"current_range_meters":32000,"station_id":"ce4bh192rcd13ifvqdc0","pricing_plan_id":"cebpf4jnsgd1na2vs0mg"},{"bike_id":"58eae6e6-8f23-423e-9b79-ed48d25b8ea7","system_id":"levelo_inurba_marseille","lat":43.269478,"lon":5.402938,"is_reserved":false,"is_disabled":false,"rental_uris":{"android":"levelo://app?vid=58eae6e6-8f23-423e-9b79-ed48d25b8ea7","ios":"levelo://app?vid=58eae6e6-8f23-423e-9b79-ed48d25b8ea7"},"vehicle_type_id":"4","last_reported":1726361367,"current_range_meters":38800,"station_id":"cjm6bp8fraef2m0cb0m0","pricing_plan_id":"cebpf4jnsgd1na2vs0mg"},{"bike_id":"7f7c7a3b-5c3a-49f3-b3f2-119b69922886","system_id":"levelo_inurba_marseille","lat":43.27948,"lon":5.41037,"is_reserved":false,"is_disabled":false,"rental_uris":{"android":"levelo://app?vid=7f7c7a3b-5c3a-49f3-b3f2-119b69922886","ios":"levelo://app?vid=7f7c7a3b-5c3a-49f3-b3f2-119b69922886"},"vehicle_type_id":"4","last_reported":1726361367,"current_range_meters":4800,"station_id":"ce4bhnp2rcd13ifvqh0g","pricing_plan_id":"cebpf4jnsgd1na2vs0mg"},{"bike_id":"ece1c1da-1c56-49d0-9e30-ae29ef104a57","system_id":"levelo_inurba_marseille","lat":43.31893,"lon":5.40724,"is_reserved":false,"is_disabled":false,"rental_uris":{"android":"levelo://app?vid=ece1c1da-1c56-49d0-9e30-ae29ef104a57","ios":"levelo://app?vid=ece1c1da-1c56-49d0-9e30-ae29ef104a57"},"vehicle_type_id":"4","last_reported":1726361367,"current_range_meters":9200,"station_id":"ce4bhq12rcd13ifvqhig","pricing_plan_id":"cebpf4jnsgd1na2vs0mg"},{"bike_id":"1a21ba56-24de-4621-b554-0c4ecad69764","system_id":"levelo_inurba_marseille","lat":43.30879,"lon":5.39654,"is_reserved":false,"is_disabled":false,"rental_uris":{"android":"levelo://app?vid=1a21ba56-24de-4621-b554-0c4ecad69764","ios":"levelo://app?vid=1a21ba56-24de-4621-b554-0c4ecad69764"},"vehicle_type_id":"4","last_reported":1726361367,"current_range_meters":39200,"station_id":"ce4bh012rcd13ifvqcv0","pricing_plan_id":"cebpf4jnsgd1na2vs0mg"},{"bike_id":"d8346437-a8a5-4c60-bf2d-f16983de1f17","system_id":"levelo_inurba_marseille","lat":43.28042,"lon":5.36938,"is_reserved":false,"is_disabled":false,"rental_uris":{"android":"levelo://app?vid=d8346437-a8a5-4c60-bf2d-f16983de1f17","ios":"levelo://app?vid=d8346437-a8a5-4c60-bf2d-f16983de1f17"},"vehicle_type_id":"4","last_reported":1726361367,"current_range_meters":35200,"station_id":"ce4bha12rcd13ifvqef0","pricing_plan_id":"cebpf4jnsgd1na2vs0mg"},{"bike_id":"51bbb424-00b0-4920-b9a4-35a1074f989f","system_id":"levelo_inurba_marseille","lat":43.30133,"lon":5.39874,"is_reserved":false,"is_disabled":false,"rental_uris":{"android":"levelo://app?vid=51bbb424-00b0-4920-b9a4-35a1074f989f","ios":"levelo://app?vid=51bbb424-00b0-4920-b9a4-35a1074f989f"},"vehicle_type_id":"4","last_reported":1726361367,"current_range_meters":25600,"station_id":"ce4bh0h2rcd13ifvqd40","pricing_plan_id":"cebpf4jnsgd1na2vs0mg"},{"bike_id":"d65408a7-49aa-449d-b0e1-71dc49ae4031","system_id":"levelo_inurba_marseille","lat":43.31376,"lon":5.385,"is_reserved":false,"is_disabled":false,"rental_uris":{"android":"levelo://app?vid=d65408a7-49aa-449d-b0e1-71dc49ae4031","ios":"levelo://app?vid=d65408a7-49aa-449d-b0e1-71dc49ae4031"},"vehicle_type_id":"4","last_reported":1726361367,"current_range_meters":38800,"station_id":"ce4bgt92rcd13ifvqcf0","pricing_plan_id":"cebpf4jnsgd1na2vs0mg"},{"bike_id":"b4e37b1f-c814-4281-bb70-788a67c85fa2","system_id":"levelo_inurba_marseille","lat":43.24674,"lon":5.38164,"is_reserved":false,"is_disabled":false,"rental_uris":{"android":"levelo://app?vid=b4e37b1f-c814-4281-bb70-788a67c85fa2","ios":"levelo://app?vid=b4e37b1f-c814-4281-bb70-788a67c85fa2"},"vehicle_type_id":"4","last_reported":1726361367,"current_range_meters":9600,"station_id":"ce4bhih2rcd13ifvqfr0","pricing_plan_id":"cebpf4jnsgd1na2vs0mg"},{"bike_id":"5ed4c437-f954-4956-b0f2-341d49d16199","system_id":"levelo_inurba_marseille","lat":43.30907,"lon":5.3685,"is_reserved":false,"is_disabled":false,"rental_uris":{"android":"levelo://app?vid=5ed4c437-f954-4956-b0f2-341d49d16199","ios":"levelo://app?vid=5ed4c437-f954-4956-b0f2-341d49d16199"},"vehicle_type_id":"4","last_reported":1726361367,"current_range_meters":37600,"station_id":"ce4bgn92rcd13ifvqbvg","pricing_plan_id":"cebpf4jnsgd1na2vs0mg"},{"bike_id":"606b8b34-f67a-4847-ad7c-c4490828fb5c","system_id":"levelo_inurba_marseille","lat":43.31366,"lon":5.38492,"is_reserved":false,"is_disabled":false,"rental_uris":{"android":"levelo://app?vid=606b8b34-f67a-4847-ad7c-c4490828fb5c","ios":"levelo://app?vid=606b8b34-f67a-4847-ad7c-c4490828fb5c"},"vehicle_type_id":"4","last_reported":1726361367,"current_range_meters":9600,"station_id":"ce4bgt92rcd13ifvqcf0","pricing_plan_id":"cebpf4jnsgd1na2vs0mg"},{"bike_id":"ccc81115-c769-40cb-a420-a414e3f0cc3b","system_id":"levelo_inurba_marseille","lat":43.24394,"lon":5.37066,"is_reserved":false,"is_disabled":false,"rental_uris":{"android":"levelo://app?vid=ccc81115-c769-40cb-a420-a414e3f0cc3b","ios":"levelo://app?vid=ccc81115-c769-40cb-a420-a414e3f0cc3b"},"vehicle_type_id":"4","last_reported":1726361367,"current_range_meters":38800,"station_id":"ce4bhhh2rcd13ifvqfk0","pricing_plan_id":"cebpf4jnsgd1na2vs0mg"},{"bike_id":"667ac2a4-1a56-4d73-917d-cc5a61b75e47","system_id":"levelo_inurba_marseille","lat":43.291977,"lon":5.393234,"is_reserved":false,"is_disabled":false,"rental_uris":{"android":"levelo://app?vid=667ac2a4-1a56-4d73-917d-cc5a61b75e47","ios":"levelo://app?vid=667ac2a4-1a56-4d73-917d-cc5a61b75e47"},"vehicle_type_id":"4","last_reported":1726361367,"current_range_meters":36800,"station_id":"ce4bh492rcd13ifvqdvg","pricing_plan_id":"cebpf4jnsgd1na2vs0mg"},{"bike_id":"0d7ff766-7bab-46b2-9f8e-51364134239f","system_id":"levelo_inurba_marseille","lat":43.31177,"lon":5.3871,"is_reserved":false,"is_disabled":false,"rental_uris":{"android":"levelo://app?vid=0d7ff766-7bab-46b2-9f8e-51364134239f","ios":"levelo://app?vid=0d7ff766-7bab-46b2-9f8e-51364134239f"},"vehicle_type_id":"4","last_reported":1726361367,"current_range_meters":25200,"station_id":"ce4bgv12rcd13ifvqcp0","pricing_plan_id":"cebpf4jnsgd1na2vs0mg"},{"bike_id":"364290a4-076b-4d63-adcf-27249cc77e92","system_id":"levelo_inurba_marseille","lat":43.28729,"lon":5.36081,"is_reserved":false,"is_disabled":false,"rental_uris":{"android":"levelo://app?vid=364290a4-076b-4d63-adcf-27249cc77e92","ios":"levelo://app?vid=364290a4-076b-4d63-adcf-27249cc77e92"},"vehicle_type_id":"4","last_reported":1726361367,"current_range_meters":38800,"station_id":"cki0cbj6b192h4jlfktg","pricing_plan_id":"cebpf4jnsgd1na2vs0mg"},{"bike_id":"e2fb27c8-13d5-4471-8eb1-9c4bcc5e03bb","system_id":"levelo_inurba_marseille","lat":43.25008,"lon":5.38927,"is_reserved":false,"is_disabled":false,"rental_uris":{"android":"levelo://app?vid=e2fb27c8-13d5-4471-8eb1-9c4bcc5e03bb","ios":"levelo://app?vid=e2fb27c8-13d5-4471-8eb1-9c4bcc5e03bb"},"vehicle_type_id":"4","last_reported":1726361367,"current_range_meters":30400,"station_id":"ce4bhgp2rcd13ifvqfd0","pricing_plan_id":"cebpf4jnsgd1na2vs0mg"},{"bike_id":"ed4c6a00-f5a5-4c0e-8e34-b6c5a6277526","system_id":"levelo_inurba_marseille","lat":43.2587,"lon":5.399,"is_reserved":false,"is_disabled":false,"rental_uris":{"android":"levelo://app?vid=ed4c6a00-f5a5-4c0e-8e34-b6c5a6277526","ios":"levelo://app?vid=ed4c6a00-f5a5-4c0e-8e34-b6c5a6277526"},"vehicle_type_id":"4","last_reported":1726361367,"current_range_meters":8400,"station_id":"ce4bhl92rcd13ifvqghg","pricing_plan_id":"cebpf4jnsgd1na2vs0mg"},{"bike_id":"0ca03ed3-5511-48ce-886c-521e33133c4a","system_id":"levelo_inurba_marseille","lat":43.2894,"lon":5.36636,"is_reserved":false,"is_disabled":false,"rental_uris":{"android":"levelo://app?vid=0ca03ed3-5511-48ce-886c-521e33133c4a","ios":"levelo://app?vid=0ca03ed3-5511-48ce-886c-521e33133c4a"},"vehicle_type_id":"4","last_reported":1726361367,"current_range_meters":38400,"station_id":"ce4bhap2rcd13ifvqek0","pricing_plan_id":"cebpf4jnsgd1na2vs0mg"},{"bike_id":"d725d647-419f-4111-85f3-247c95251475","system_id":"levelo_inurba_marseille","lat":43.25731,"lon":5.4111,"is_reserved":false,"is_disabled":false,"rental_uris":{"android":"levelo://app?vid=d725d647-419f-4111-85f3-247c95251475","ios":"levelo://app?vid=d725d647-419f-4111-85f3-247c95251475"},"vehicle_type_id":"4","last_reported":1726361367,"current_range_meters":27200,"station_id":"ce4bhkp2rcd13ifvqgd0","pricing_plan_id":"cebpf4jnsgd1na2vs0mg"},{"bike_id":"b7c93f54-8beb-4c5d-9d99-476678910284","system_id":"levelo_inurba_marseille","lat":43.29192,"lon":5.39318,"is_reserved":false,"is_disabled":false,"rental_uris":{"android":"levelo://app?vid=b7c93f54-8beb-4c5d-9d99-476678910284","ios":"levelo://app?vid=b7c93f54-8beb-4c5d-9d99-476678910284"},"vehicle_type_id":"4","last_reported":1726361367,"current_range_meters":38000,"station_id":"ce4bh192rcd13ifvqdd0","pricing_plan_id":"cebpf4jnsgd1na2vs0mg"},{"bike_id":"fd95ebd7-0b0d-43f3-a957-c61d6cbf4ac3","system_id":"levelo_inurba_marseille","lat":43.29011,"lon":5.35613,"is_reserved":false,"is_disabled":false,"rental_uris":{"android":"levelo://app?vid=fd95ebd7-0b0d-43f3-a957-c61d6cbf4ac3","ios":"levelo://app?vid=fd95ebd7-0b0d-43f3-a957-c61d6cbf4ac3"},"vehicle_type_id":"4","last_reported":1726361367,"current_range_meters":6400,"station_id":"ce4bhb92rcd13ifvqen0","pricing_plan_id":"cebpf4jnsgd1na2vs0mg"},{"bike_id":"6d2f1fdf-ef85-4dbc-b421-2602e9d32ca8","system_id":"levelo_inurba_marseille","lat":43.25942,"lon":5.40909,"is_reserved":false,"is_disabled":false,"rental_uris":{"android":"levelo://app?vid=6d2f1fdf-ef85-4dbc-b421-2602e9d32ca8","ios":"levelo://app?vid=6d2f1fdf-ef85-4dbc-b421-2602e9d32ca8"},"vehicle_type_id":"4","last_reported":1726361367,"current_range_meters":24000,"station_id":"ce4bhm92rcd13ifvqglg","pricing_plan_id":"cebpf4jnsgd1na2vs0mg"},{"bike_id":"56ba0204-9df7-4bff-8440-4cdf01396ad7","system_id":"levelo_inurba_marseille","lat":43.30891,"lon":5.39655,"is_reserved":false,"is_disabled":false,"rental_uris":{"android":"levelo://app?vid=56ba0204-9df7-4bff-8440-4cdf01396ad7","ios":"levelo://app?vid=56ba0204-9df7-4bff-8440-4cdf01396ad7"},"vehicle_type_id":"4","last_reported":1726361367,"current_range_meters":16800,"station_id":"ce4bh012rcd13ifvqcv0","pricing_plan_id":"cebpf4jnsgd1na2vs0mg"},{"bike_id":"d09aedb3-0212-456b-a0d7-0a019f75665d","system_id":"levelo_inurba_marseille","lat":43.23162,"lon":5.43706,"is_reserved":false,"is_disabled":false,"rental_uris":{"android":"levelo://app?vid=d09aedb3-0212-456b-a0d7-0a019f75665d","ios":"levelo://app?vid=d09aedb3-0212-456b-a0d7-0a019f75665d"},"vehicle_type_id":"4","last_reported":1726361367,"current_range_meters":38800,"station_id":"ce4bhmp2rcd13ifvqgog","pricing_plan_id":"cebpf4jnsgd1na2vs0mg"},{"bike_id":"81c81fb4-025f-48a4-b8df-9ad87869c16e","system_id":"levelo_inurba_marseille","lat":43.269296,"lon":5.40267,"is_reserved":false,"is_disabled":false,"rental_uris":{"android":"levelo://app?vid=81c81fb4-025f-48a4-b8df-9ad87869c16e","ios":"levelo://app?vid=81c81fb4-025f-48a4-b8df-9ad87869c16e"},"vehicle_type_id":"4","last_reported":1726361367,"current_range_meters":38800,"station_id":"cjm6bp8fraef2m0cb0m0","pricing_plan_id":"cebpf4jnsgd1na2vs0mg"},{"bike_id":"b0c0b401-1a02-4c6e-b083-412d97778540","system_id":"levelo_inurba_marseille","lat":43.27375,"lon":5.36251,"is_reserved":false,"is_disabled":false,"rental_uris":{"android":"levelo://app?vid=b0c0b401-1a02-4c6e-b083-412d97778540","ios":"levelo://app?vid=b0c0b401-1a02-4c6e-b083-412d97778540"},"vehicle_type_id":"4","last_reported":1726361367,"current_range_meters":20000,"station_id":"ce4bhbh2rcd13ifvqeo0","pricing_plan_id":"cebpf4jnsgd1na2vs0mg"},{"bike_id":"43412657-8f93-44d7-90fb-da7639962547","system_id":"levelo_inurba_marseille","lat":43.33718,"lon":5.39174,"is_reserved":false,"is_disabled":false,"rental_uris":{"android":"levelo://app?vid=43412657-8f93-44d7-90fb-da7639962547","ios":"levelo://app?vid=43412657-8f93-44d7-90fb-da7639962547"},"vehicle_type_id":"4","last_reported":1726361367,"current_range_meters":24000,"station_id":"ce4bhr92rcd13ifvqhsg","pricing_plan_id":"cebpf4jnsgd1na2vs0mg"},{"bike_id":"9c45b430-37cb-4496-b5f4-aaba63906ca9","system_id":"levelo_inurba_marseille","lat":43.28153,"lon":5.42644,"is_reserved":false,"is_disabled":false,"rental_uris":{"android":"levelo://app?vid=9c45b430-37cb-4496-b5f4-aaba63906ca9","ios":"levelo://app?vid=9c45b430-37cb-4496-b5f4-aaba63906ca9"},"vehicle_type_id":"4","last_reported":1726361367,"current_range_meters":16800,"station_id":"ce4bhnh2rcd13ifvqgug","pricing_plan_id":"cebpf4jnsgd1na2vs0mg"},{"bike_id":"e0fa6c7f-c8b8-4a59-ae7d-120eeae56e59","system_id":"levelo_inurba_marseille","lat":43.28707,"lon":5.39968,"is_reserved":false,"is_disabled":false,"rental_uris":{"android":"levelo://app?vid=e0fa6c7f-c8b8-4a59-ae7d-120eeae56e59","ios":"levelo://app?vid=e0fa6c7f-c8b8-4a59-ae7d-120eeae56e59"},"vehicle_type_id":"4","last_reported":1726361367,"current_range_meters":33200,"station_id":"ce4bho92rcd13ifvqh3g","pricing_plan_id":"cebpf4jnsgd1na2vs0mg"},{"bike_id":"7bcf5b96-7f9e-487c-9740-9b3e9f14ca10","system_id":"levelo_inurba_marseille","lat":43.28451,"lon":5.35899,"is_reserved":false,"is_disabled":false,"rental_uris":{"android":"levelo://app?vid=7bcf5b96-7f9e-487c-9740-9b3e9f14ca10","ios":"levelo://app?vid=7bcf5b96-7f9e-487c-9740-9b3e9f14ca10"},"vehicle_type_id":"4","last_reported":1726361367,"current_range_meters":32800,"station_id":"ce4bhah2rcd13ifvqei0","pricing_plan_id":"cebpf4jnsgd1na2vs0mg"},{"bike_id":"4e8fe8aa-a9a1-4877-b582-bf4fe2f33f39","system_id":"levelo_inurba_marseille","lat":43.28703,"lon":5.39978,"is_reserved":false,"is_disabled":false,"rental_uris":{"android":"levelo://app?vid=4e8fe8aa-a9a1-4877-b582-bf4fe2f33f39","ios":"levelo://app?vid=4e8fe8aa-a9a1-4877-b582-bf4fe2f33f39"},"vehicle_type_id":"4","last_reported":1726361367,"current_range_meters":16000,"station_id":"ce4bho92rcd13ifvqh3g","pricing_plan_id":"cebpf4jnsgd1na2vs0mg"},{"bike_id":"2743157b-4959-4e59-9b9e-d18d8abe7268","system_id":"levelo_inurba_marseille","lat":43.28574,"lon":5.39495,"is_reserved":false,"is_disabled":false,"rental_uris":{"android":"levelo://app?vid=2743157b-4959-4e59-9b9e-d18d8abe7268","ios":"levelo://app?vid=2743157b-4959-4e59-9b9e-d18d8abe7268"},"vehicle_type_id":"4","last_reported":1726361367,"current_range_meters":24800,"station_id":"ce4bh292rcd13ifvqdg0","pricing_plan_id":"cebpf4jnsgd1na2vs0mg"},{"bike_id":"35e46e1e-3cad-4d90-bc94-c0cc6e26a963","system_id":"levelo_inurba_marseille","lat":43.31362,"lon":5.36695,"is_reserved":false,"is_disabled":false,"rental_uris":{"android":"levelo://app?vid=35e46e1e-3cad-4d90-bc94-c0cc6e26a963","ios":"levelo://app?vid=35e46e1e-3cad-4d90-bc94-c0cc6e26a963"},"vehicle_type_id":"4","last_reported":1726361367,"current_range_meters":12400,"station_id":"ce4bgr92rcd13ifvqc6g","pricing_plan_id":"cebpf4jnsgd1na2vs0mg"},{"bike_id":"61e00977-be43-400f-99ea-3c33330f7657","system_id":"levelo_inurba_marseille","lat":43.25008,"lon":5.38915,"is_reserved":false,"is_disabled":false,"rental_uris":{"android":"levelo://app?vid=61e00977-be43-400f-99ea-3c33330f7657","ios":"levelo://app?vid=61e00977-be43-400f-99ea-3c33330f7657"},"vehicle_type_id":"4","last_reported":1726361367,"current_range_meters":16800,"station_id":"ce4bhgp2rcd13ifvqfd0","pricing_plan_id":"cebpf4jnsgd1na2vs0mg"},{"bike_id":"c4985018-8c9d-4b48-9870-cec3c6606bd7","system_id":"levelo_inurba_marseille","lat":43.28662,"lon":5.3636,"is_reserved":false,"is_disabled":false,"rental_uris":{"android":"levelo://app?vid=c4985018-8c9d-4b48-9870-cec3c6606bd7","ios":"levelo://app?vid=c4985018-8c9d-4b48-9870-cec3c6606bd7"},"vehicle_type_id":"4","last_reported":1726361367,"current_range_meters":38800,"station_id":"ce4bhah2rcd13ifvqej0","pricing_plan_id":"cebpf4jnsgd1na2vs0mg"},{"bike_id":"d1f38fcd-be46-4877-a9ac-34b365272c30","system_id":"levelo_inurba_marseille","lat":43.27105,"lon":5.43319,"is_reserved":false,"is_disabled":false,"rental_uris":{"android":"levelo://app?vid=d1f38fcd-be46-4877-a9ac-34b365272c30","ios":"levelo://app?vid=d1f38fcd-be46-4877-a9ac-34b365272c30"},"vehicle_type_id":"4","last_reported":1726361367,"current_range_meters":33600,"station_id":"","pricing_plan_id":"cebpf4jnsgd1na2vs0mg"},{"bike_id":"b50ecd50-2b4e-40f0-a55e-220a6b1e1011","system_id":"levelo_inurba_marseille","lat":43.29844,"lon":5.36267,"is_reserved":false,"is_disabled":false,"rental_uris":{"android":"levelo://app?vid=b50ecd50-2b4e-40f0-a55e-220a6b1e1011","ios":"levelo://app?vid=b50ecd50-2b4e-40f0-a55e-220a6b1e1011"},"vehicle_type_id":"4","last_reported":1726361367,"current_range_meters":34800,"station_id":"ce4bgpp2rcd13ifvqc3g","pricing_plan_id":"cebpf4jnsgd1na2vs0mg"},{"bike_id":"2c36f173-7fe7-45a3-b0b4-69fddd6ecd2c","system_id":"levelo_inurba_marseille","lat":43.27611,"lon":5.36109,"is_reserved":false,"is_disabled":false,"rental_uris":{"android":"levelo://app?vid=2c36f173-7fe7-45a3-b0b4-69fddd6ecd2c","ios":"levelo://app?vid=2c36f173-7fe7-45a3-b0b4-69fddd6ecd2c"},"vehicle_type_id":"4","last_reported":1726361367,"current_range_meters":22800,"station_id":"ce4bgj92rcd13ifvqbe0","pricing_plan_id":"cebpf4jnsgd1na2vs0mg"},{"bike_id":"30e46b6d-f0fe-4e24-83ed-c3933f81da86","system_id":"levelo_inurba_marseille","lat":43.309,"lon":5.39644,"is_reserved":false,"is_disabled":false,"rental_uris":{"android":"levelo://app?vid=30e46b6d-f0fe-4e24-83ed-c3933f81da86","ios":"levelo://app?vid=30e46b6d-f0fe-4e24-83ed-c3933f81da86"},"vehicle_type_id":"4","last_reported":1726361367,"current_range_meters":26000,"station_id":"ce4bh012rcd13ifvqcv0","pricing_plan_id":"cebpf4jnsgd1na2vs0mg"},{"bike_id":"f9076aec-56e7-4b2e-a7b1-575337aca9d5","system_id":"levelo_inurba_marseille","lat":43.24174,"lon":5.36394,"is_reserved":false,"is_disabled":false,"rental_uris":{"android":"levelo://app?vid=f9076aec-56e7-4b2e-a7b1-575337aca9d5","ios":"levelo://app?vid=f9076aec-56e7-4b2e-a7b1-575337aca9d5"},"vehicle_type_id":"4","last_reported":1726361367,"current_range_meters":30000,"station_id":"cpo36qri1sfpv3e86is0","pricing_plan_id":"cebpf4jnsgd1na2vs0mg"},{"bike_id":"47096ce1-5535-4338-a490-913599aee717","system_id":"levelo_inurba_marseille","lat":43.31493,"lon":5.37303,"is_reserved":false,"is_disabled":false,"rental_uris":{"android":"levelo://app?vid=47096ce1-5535-4338-a490-913599aee717","ios":"levelo://app?vid=47096ce1-5535-4338-a490-913599aee717"},"vehicle_type_id":"4","last_reported":1726361367,"current_range_meters":6400,"station_id":"ce4bgt12rcd13ifvqcd0","pricing_plan_id":"cebpf4jnsgd1na2vs0mg"},{"bike_id":"c28c449c-ebc0-4cf6-b357-c1ddf71e8385","system_id":"levelo_inurba_marseille","lat":43.25861,"lon":5.39903,"is_reserved":false,"is_disabled":false,"rental_uris":{"android":"levelo://app?vid=c28c449c-ebc0-4cf6-b357-c1ddf71e8385","ios":"levelo://app?vid=c28c449c-ebc0-4cf6-b357-c1ddf71e8385"},"vehicle_type_id":"4","last_reported":1726361367,"current_range_meters":38800,"station_id":"ce4bhl92rcd13ifvqghg","pricing_plan_id":"cebpf4jnsgd1na2vs0mg"},{"bike_id":"a4f18687-e126-425b-b639-a942cceab9e8","system_id":"levelo_inurba_marseille","lat":43.24658,"lon":5.38881,"is_reserved":false,"is_disabled":false,"rental_uris":{"android":"levelo://app?vid=a4f18687-e126-425b-b639-a942cceab9e8","ios":"levelo://app?vid=a4f18687-e126-425b-b639-a942cceab9e8"},"vehicle_type_id":"4","last_reported":1726361367,"current_range_meters":28000,"station_id":"ce4bhg12rcd13ifvqf60","pricing_plan_id":"cebpf4jnsgd1na2vs0mg"},{"bike_id":"91f7e9e5-076e-4e3a-8acf-289dc20e3d9f","system_id":"levelo_inurba_marseille","lat":43.31727,"lon":5.42402,"is_reserved":false,"is_disabled":false,"rental_uris":{"android":"levelo://app?vid=91f7e9e5-076e-4e3a-8acf-289dc20e3d9f","ios":"levelo://app?vid=91f7e9e5-076e-4e3a-8acf-289dc20e3d9f"},"vehicle_type_id":"4","last_reported":1726361367,"current_range_meters":38800,"station_id":"ce4bhp92rcd13ifvqhbg","pricing_plan_id":"cebpf4jnsgd1na2vs0mg"},{"bike_id":"e5c6bf89-4473-473c-ac1e-1a3ffa56e397","system_id":"levelo_inurba_marseille","lat":43.25492,"lon":5.37648,"is_reserved":false,"is_disabled":false,"rental_uris":{"android":"levelo://app?vid=e5c6bf89-4473-473c-ac1e-1a3ffa56e397","ios":"levelo://app?vid=e5c6bf89-4473-473c-ac1e-1a3ffa56e397"},"vehicle_type_id":"4","last_reported":1726361367,"current_range_meters":8800,"station_id":"ce4bhh12rcd13ifvqff0","pricing_plan_id":"cebpf4jnsgd1na2vs0mg"},{"bike_id":"d4dcec5a-b0b6-4319-8584-aaf3103d153c","system_id":"levelo_inurba_marseille","lat":43.29562,"lon":5.42276,"is_reserved":false,"is_disabled":false,"rental_uris":{"android":"levelo://app?vid=d4dcec5a-b0b6-4319-8584-aaf3103d153c","ios":"levelo://app?vid=d4dcec5a-b0b6-4319-8584-aaf3103d153c"},"vehicle_type_id":"4","last_reported":1726361367,"current_range_meters":38400,"station_id":"ce4bhph2rcd13ifvqhdg","pricing_plan_id":"cebpf4jnsgd1na2vs0mg"},{"bike_id":"7560168d-c555-4b8e-a518-1c66771c1c72","system_id":"levelo_inurba_marseille","lat":43.24203,"lon":5.39729,"is_reserved":false,"is_disabled":false,"rental_uris":{"android":"levelo://app?vid=7560168d-c555-4b8e-a518-1c66771c1c72","ios":"levelo://app?vid=7560168d-c555-4b8e-a518-1c66771c1c72"},"vehicle_type_id":"4","last_reported":1726361367,"current_range_meters":12000,"station_id":"ce4bhn12rcd13ifvqgpg","pricing_plan_id":"cebpf4jnsgd1na2vs0mg"},{"bike_id":"36612ab8-e475-4981-b0de-04a150aa48e8","system_id":"levelo_inurba_marseille","lat":43.295563,"lon":5.422944,"is_reserved":false,"is_disabled":false,"rental_uris":{"android":"levelo://app?vid=36612ab8-e475-4981-b0de-04a150aa48e8","ios":"levelo://app?vid=36612ab8-e475-4981-b0de-04a150aa48e8"},"vehicle_type_id":"4","last_reported":1726361367,"current_range_meters":19200,"station_id":"ce4bhph2rcd13ifvqhdg","pricing_plan_id":"cebpf4jnsgd1na2vs0mg"},{"bike_id":"fcc1810a-9ff2-41c7-b13e-016a47a053a8","system_id":"levelo_inurba_marseille","lat":43.32338,"lon":5.4062,"is_reserved":false,"is_disabled":false,"rental_uris":{"android":"levelo://app?vid=fcc1810a-9ff2-41c7-b13e-016a47a053a8","ios":"levelo://app?vid=fcc1810a-9ff2-41c7-b13e-016a47a053a8"},"vehicle_type_id":"4","last_reported":1726361367,"current_range_meters":37600,"station_id":"ce4bhq92rcd13ifvqhjg","pricing_plan_id":"cebpf4jnsgd1na2vs0mg"},{"bike_id":"5263c75a-b0ca-4e1c-9976-2df708ba914c","system_id":"levelo_inurba_marseille","lat":43.29566,"lon":5.4228,"is_reserved":false,"is_disabled":false,"rental_uris":{"android":"levelo://app?vid=5263c75a-b0ca-4e1c-9976-2df708ba914c","ios":"levelo://app?vid=5263c75a-b0ca-4e1c-9976-2df708ba914c"},"vehicle_type_id":"4","last_reported":1726361367,"current_range_meters":14400,"station_id":"ce4bhph2rcd13ifvqhdg","pricing_plan_id":"cebpf4jnsgd1na2vs0mg"},{"bike_id":"1593b932-8ba4-4827-b074-452362fd64b5","system_id":"levelo_inurba_marseille","lat":43.30802,"lon":5.38151,"is_reserved":false,"is_disabled":false,"rental_uris":{"android":"levelo://app?vid=1593b932-8ba4-4827-b074-452362fd64b5","ios":"levelo://app?vid=1593b932-8ba4-4827-b074-452362fd64b5"},"vehicle_type_id":"4","last_reported":1726361367,"current_range_meters":38800,"station_id":"ce4bgt12rcd13ifvqce0","pricing_plan_id":"cebpf4jnsgd1na2vs0mg"},{"bike_id":"799f8608-555e-48d6-80b8-09777b67c188","system_id":"levelo_inurba_marseille","lat":43.30938,"lon":5.4014,"is_reserved":false,"is_disabled":false,"rental_uris":{"android":"levelo://app?vid=799f8608-555e-48d6-80b8-09777b67c188","ios":"levelo://app?vid=799f8608-555e-48d6-80b8-09777b67c188"},"vehicle_type_id":"4","last_reported":1726361367,"current_range_meters":14400,"station_id":"ce4bgvp2rcd13ifvqct0","pricing_plan_id":"cebpf4jnsgd1na2vs0mg"},{"bike_id":"f0aac7a0-7541-4b46-9d82-7048cd507417","system_id":"levelo_inurba_marseille","lat":43.30337,"lon":5.40441,"is_reserved":false,"is_disabled":false,"rental_uris":{"android":"levelo://app?vid=f0aac7a0-7541-4b46-9d82-7048cd507417","ios":"levelo://app?vid=f0aac7a0-7541-4b46-9d82-7048cd507417"},"vehicle_type_id":"4","last_reported":1726361367,"current_range_meters":20000,"station_id":"ce4bh012rcd13ifvqd10","pricing_plan_id":"cebpf4jnsgd1na2vs0mg"},{"bike_id":"8124cf99-7c0b-4671-875f-9c404528385c","system_id":"levelo_inurba_marseille","lat":43.29029,"lon":5.38124,"is_reserved":false,"is_disabled":false,"rental_uris":{"android":"levelo://app?vid=8124cf99-7c0b-4671-875f-9c404528385c","ios":"levelo://app?vid=8124cf99-7c0b-4671-875f-9c404528385c"},"vehicle_type_id":"4","last_reported":1726361367,"current_range_meters":38000,"station_id":"ce4bh4p2rcd13ifvqe1g","pricing_plan_id":"cebpf4jnsgd1na2vs0mg"},{"bike_id":"ae9ee9ee-6a2e-41cd-a44a-ef53e1fb31cd","system_id":"levelo_inurba_marseille","lat":43.27493,"lon":5.42449,"is_reserved":false,"is_disabled":false,"rental_uris":{"android":"levelo://app?vid=ae9ee9ee-6a2e-41cd-a44a-ef53e1fb31cd","ios":"levelo://app?vid=ae9ee9ee-6a2e-41cd-a44a-ef53e1fb31cd"},"vehicle_type_id":"4","last_reported":1726361367,"current_range_meters":34000,"station_id":"ce4bhn92rcd13ifvqgrg","pricing_plan_id":"cebpf4jnsgd1na2vs0mg"},