{"last_updated":1736604486,"ttl":60,"version":"2.2","data":{"bikes":[{"bike_id":"8c0dc03a-0ada-45f2-b8d1-8403a2d5c1d4","system_id":"levelo_inurba_marseille","lat":43.2809,"lon":5.39653,"is_reserved":false,"is_disabled":false,"rental_uris":{"android":"levelo://app?vid=8c0dc03a-0ada-45f2-b8d1-8403a2d5c1d4","ios":"levelo://app?vid=8c0dc03a-0ada-45f2-b8d1-8403a2d5c1d4"},"vehicle_type_id":"4","last_reported":1736604487,"current_range_meters":20000,"station_id":"ce4bho12rcd13ifvqh2g","pricing_plan_id":"cebpf4jnsgd1na2vs0mg"},{"bike_id":"be771353-bbc6-4c09-922d-cfeec4b6c516","system_id":"levelo_inurba_marseille","lat":43.29028,"lon":5.38638,"is_reserved":false,"is_disabled":false,"rental_uris":{"android":"levelo://app?vid=be771353-bbc6-4c09-922d-cfeec4b6c516","ios":"levelo://app?vid=be771353-bbc6-4c09-922d-cfeec4b6c516"},"vehicle_type_id":"4","last_reported":1736604487,"current_range_meters":30400,"station_id":"ce4bh4p2rcd13ifvqe0g","pricing_plan_id":"cebpf4jnsgd1na2vs0mg"},{"bike_id":"c82771ca-fb00-42d6-96ec-3b3c8efdb4d4","system_id":"levelo_inurba_marseille","lat":43.30552,"lon":5.36711,"is_reserved":false,"is_disabled":false,"rental_uris":{"android":"levelo://app?vid=c82771ca-fb00-42d6-96ec-3b3c8efdb4d4","ios":"levelo://app?vid=c82771ca-fb00-42d6-96ec-3b3c8efdb4d4"},"vehicle_type_id":"4","last_reported":1736604487,"current_range_meters":16000,"station_id":"ce4bgrp2rcd13ifvqc9g","pricing_plan_id":"cebpf4jnsgd1na2vs0mg"},{"bike_id":"14f3feea-c78a-4059-b0b9-de31c40e61af","system_id":"levelo_inurba_marseille","lat":43.260349,"lon":5.375643,"is_reserved":false,"is_disabled":false,"rental_uris":{"android":"levelo://app?vid=14f3feea-c78a-4059-b0b9-de31c40e61af","ios":"levelo://app?vid=14f3feea-c78a-4059-b0b9-de31c40e61af"},"vehicle_type_id":"4","last_reported":1736604487,"current_range_meters":39200,"station_id":"ce4bhgh2rcd13ifvqfa0","pricing_plan_id":"cebpf4jnsgd1na2vs0mg"},{"bike_id":"62c05618-3895-4c89-8fce-29ab1136c989","system_id":"levelo_inurba_marseille","lat":43.30548,"lon":5.38427,"is_reserved":false,"is_disabled":false,"rental_uris":{"android":"levelo://app?vid=62c05618-3895-4c89-8fce-29ab1136c989","ios":"levelo://app?vid=62c05618-3895-4c89-8fce-29ab1136c989"},"vehicle_type_id":"4","last_reported":1736604487,"current_range_meters":36800,"station_id":"ce4bgg92rcd13ifvqb30","pricing_plan_id":"cebpf4jnsgd1na2vs0mg"},{"bike_id":"e092d466-3ea5-4da1-b70e-30cdc1cf50de","system_id":"levelo_inurba_marseille","lat":43.26785,"lon":5.39411,"is_reserved":false,"is_disabled":false,"rental_uris":{"android":"levelo://app?vid=e092d466-3ea5-4da1-b70e-30cdc1cf50de","ios":"levelo://app?vid=e092d466-3ea5-4da1-b70e-30cdc1cf50de"},"vehicle_type_id":"4","last_reported":1736604487,"current_range_meters":30000,"station_id":"ce4bhh12rcd13ifvqfg0","pricing_plan_id":"cebpf4jnsgd1na2vs0mg"},{"bike_id":"49fd3436-8925-49a3-a5c4-f21976e6efe9","system_id":"levelo_inurba_marseille","lat":43.29257,"lon":5.38444,"is_reserved":false,"is_disabled":false,"rental_uris":{"android":"levelo://app?vid=49fd3436-8925-49a3-a5c4-f21976e6efe9","ios":"levelo://app?vid=49fd3436-8925-49a3-a5c4-f21976e6efe9"},"vehicle_type_id":"4","last_reported":1736604487,"current_range_meters":29600,"station_id":"ce4bh692rcd13ifvqea0","pricing_plan_id":"cebpf4jnsgd1na2vs0mg"},{"bike_id":"86fd816e-462e-4af7-802e-42d9ef60e928","system_id":"levelo_inurba_marseille","lat":43.29003,"lon":5.35612,"is_reserved":false,"is_disabled":false,"rental_uris":{"android":"levelo://app?vid=86fd816e-462e-4af7-802e-42d9ef60e928","ios":"levelo://app?vid=86fd816e-462e-4af7-802e-42d9ef60e928"},"vehicle_type_id":"4","last_reported":1736604487,"current_range_meters":30800,"station_id":"ce4bhb92rcd13ifvqen0","pricing_plan_id":"cebpf4jnsgd1na2vs0mg"},{"bike_id":"230b25ba-08ad-4536-893c-30ebe8d45916","system_id":"levelo_inurba_marseille","lat":43.296327,"lon":5.405996,"is_reserved":false,"is_disabled":false,"rental_uris":{"android":"levelo://app?vid=230b25ba-08ad-4536-893c-30ebe8d45916","ios":"levelo://app?vid=230b25ba-08ad-4536-893c-30ebe8d45916"},"vehicle_type_id":"4","last_reported":1736604487,"current_range_meters":38800,"station_id":"ce4bh0h2rcd13ifvqd60","pricing_plan_id":"cebpf4jnsgd1na2vs0mg"},{"bike_id":"a444a04d-7a75-4bb0-b921-23a4f692b157","system_id":"levelo_inurba_marseille","lat":43.24652,"lon":5.3889,"is_reserved":false,"is_disabled":false,"rental_uris":{"android":"levelo://app?vid=a444a04d-7a75-4bb0-b921-23a4f692b157","ios":"levelo://app?vid=a444a04d-7a75-4bb0-b921-23a4f692b157"},"vehicle_type_id":"4","last_reported":1736604487,"current_range_meters":18800,"station_id":"ce4bhg12rcd13ifvqf60","pricing_plan_id":"cebpf4jnsgd1na2vs0mg"},{"bike_id":"23b995e3-70bb-4837-aafa-d164d2f448af","system_id":"levelo_inurba_marseille","lat":43.30534,"lon":5.36529,"is_reserved":false,"is_disabled":false,"rental_uris":{"android":"levelo://app?vid=23b995e3-70bb-4837-aafa-d164d2f448af","ios":"levelo://app?vid=23b995e3-70bb-4837-aafa-d164d2f448af"},"vehicle_type_id":"4","last_reported":1736604487,"current_range_meters":20800,"station_id":"ce4bgs12rcd13ifvqcag","pricing_plan_id":"cebpf4jnsgd1na2vs0mg"},{"bike_id":"626149fa-1445-4d37-9b22-05b7760e332b","system_id":"levelo_inurba_marseille","lat":43.29041,"lon":5.39968,"is_reserved":false,"is_disabled":false,"rental_uris":{"android":"levelo://app?vid=626149fa-1445-4d37-9b22-05b7760e332b","ios":"levelo://app?vid=626149fa-1445-4d37-9b22-05b7760e332b"},"vehicle_type_id":"4","last_reported":1736604487,"current_range_meters":32800,"station_id":"ce4bh392rcd13ifvqdm0","pricing_plan_id":"cebpf4jnsgd1na2vs0mg"},{"bike_id":"9c3f6bb4-fd78-490a-8cd7-7d7694c0f9a0","system_id":"levelo_inurba_marseille","lat":43.2901,"lon":5.35596,"is_reserved":false,"is_disabled":false,"rental_uris":{"android":"levelo://app?vid=9c3f6bb4-fd78-490a-8cd7-7d7694c0f9a0","ios":"levelo://app?vid=9c3f6bb4-fd78-490a-8cd7-7d7694c0f9a0"},"vehicle_type_id":"4","last_reported":1736604487,"current_range_meters":28400,"station_id":"ce4bhb92rcd13ifvqen0","pricing_plan_id":"cebpf4jnsgd1na2vs0mg"},{"bike_id":"87425919-3fc0-488c-bd01-ad75fb42f75f","system_id":"levelo_inurba_marseille","lat":43.29269,"lon":5.36849,"is_reserved":false,"is_disabled":true,"rental_uris":{"android":"levelo://app?vid=87425919-3fc0-488c-bd01-ad75fb42f75f","ios":"levelo://app?vid=87425919-3fc0-488c-bd01-ad75fb42f75f"},"vehicle_type_id":"4","last_reported":1736604487,"current_range_meters":0,"station_id":"ce4bhbp2rcd13ifvqesg","pricing_plan_id":"cebpf4jnsgd1na2vs0mg"},{"bike_id":"f27315e5-5b6e-4c1c-bf3c-bb19556d13a1","system_id":"levelo_inurba_marseille","lat":43.33611,"lon":5.41022,"is_reserved":false,"is_disabled":false,"rental_uris":{"android":"levelo://app?vid=f27315e5-5b6e-4c1c-bf3c-bb19556d13a1","ios":"levelo://app?vid=f27315e5-5b6e-4c1c-bf3c-bb19556d13a1"},"vehicle_type_id":"4","last_reported":1736604487,"current_range_meters":38800,"station_id":"ce4bhqh2rcd13ifvqhmg","pricing_plan_id":"cebpf4jnsgd1na2vs0mg"},{"bike_id":"853d56cd-3451-4764-beab-a40e85523b05","system_id":"levelo_inurba_marseille","lat":43.246465,"lon":5.389095,"is_reserved":false,"is_disabled":false,"rental_uris":{"android":"levelo://app?vid=853d56cd-3451-4764-beab-a40e85523b05","ios":"levelo://app?vid=853d56cd-3451-4764-beab-a40e85523b05"},"vehicle_type_id":"4","last_reported":1736604487,"current_range_meters":4400,"station_id":"ce4bhg12rcd13ifvqf60","pricing_plan_id":"cebpf4jnsgd1na2vs0mg"},{"bike_id":"c792ce5c-3a32-4e4c-87cf-15d2d5a7d3f1","system_id":"levelo_inurba_marseille","lat":43.25858,"lon":5.39906,"is_reserved":false,"is_disabled":false,"rental_uris":{"android":"levelo://app?vid=c792ce5c-3a32-4e4c-87cf-15d2d5a7d3f1","ios":"levelo://app?vid=c792ce5c-3a32-4e4c-87cf-15d2d5a7d3f1"},"vehicle_type_id":"4","last_reported":1736604487,"current_range_meters":14800,"station_id":"ce4bhl92rcd13ifvqghg","pricing_plan_id":"cebpf4jnsgd1na2vs0mg"},{"bike_id":"6907f29b-d969-4572-ac6c-61fad4176dd4","system_id":"levelo_inurba_marseille","lat":43.30596,"lon":5.39348,"is_reserved":false,"is_disabled":false,"rental_uris":{"android":"levelo://app?vid=6907f29b-d969-4572-ac6c-61fad4176dd4","ios":"levelo://app?vid=6907f29b-d969-4572-ac6c-61fad4176dd4"},"vehicle_type_id":"4","last_reported":1736604487,"current_range_meters":39200,"station_id":"ce4bh0p2rcd13ifvqd80","pricing_plan_id":"cebpf4jnsgd1na2vs0mg"},{"bike_id":"004c2ac5-7f25-4e48-8a80-9a02537f6ba6","system_id":"levelo_inurba_marseille","lat":43.32107,"lon":5.36781,"is_reserved":false,"is_disabled":false,"rental_uris":{"android":"levelo://app?vid=004c2ac5-7f25-4e48-8a80-9a02537f6ba6","ios":"levelo://app?vid=004c2ac5-7f25-4e48-8a80-9a02537f6ba6"},"vehicle_type_id":"4","last_reported":1736604487,"current_range_meters":30000,"station_id":"ce4bhrh2rcd13ifvqhug","pricing_plan_id":"cebpf4jnsgd1na2vs0mg"},{"bike_id":"6a8dc65c-8c47-4239-8815-8efa2acdc338","system_id":"levelo_inurba_marseille","lat":43.279903,"lon":5.416598,"is_reserved":false,"is_disabled":true,"rental_uris":{"android":"levelo://app?vid=6a8dc65c-8c47-4239-8815-8efa2acdc338","ios":"levelo://app?vid=6a8dc65c-8c47-4239-8815-8efa2acdc338"},"vehicle_type_id":"4","last_reported":1736604487,"current_range_meters":10800,"station_id":"ce4bho12rcd13ifvqh1g","pricing_plan_id":"cebpf4jnsgd1na2vs0mg"},{"bike_id":"50d6370e-6ee3-4854-b19d-1a0decc89f05","system_id":"levelo_inurba_marseille","lat":43.30329,"lon":5.40436,"is_reserved":false,"is_disabled":false,"rental_uris":{"android":"levelo://app?vid=50d6370e-6ee3-4854-b19d-1a0decc89f05","ios":"levelo://app?vid=50d6370e-6ee3-4854-b19d-1a0decc89f05"},"vehicle_type_id":"4","last_reported":1736604487,"current_range_meters":38400,"station_id":"ce4bh012rcd13ifvqd10","pricing_plan_id":"cebpf4jnsgd1na2vs0mg"},{"bike_id":"86cd1141-6e96-4c04-94b3-22ca752a46a1","system_id":"levelo_inurba_marseille","lat":43.23187,"lon":5.4,"is_reserved":false,"is_disabled":false,"rental_uris":{"android":"levelo://app?vid=86cd1141-6e96-4c04-94b3-22ca752a46a1","ios":"levelo://app?vid=86cd1141-6e96-4c04-94b3-22ca752a46a1"},"vehicle_type_id":"4","last_reported":1736604487,"current_range_meters":25200,"station_id":"ce4bhn12rcd13ifvqgqg","pricing_plan_id":"cebpf4jnsgd1na2vs0mg"},{"bike_id":"a040475b-e097-4a8b-8235-5ca715d8c773","system_id":"levelo_inurba_marseille","lat":43.27428,"lon":5.39408,"is_reserved":false,"is_disabled":false,"rental_uris":{"android":"levelo://app?vid=a040475b-e097-4a8b-8235-5ca715d8c773","ios":"levelo://app?vid=a040475b-e097-4a8b-8235-5ca715d8c773"},"vehicle_type_id":"4","last_reported":1736604487,"current_range_meters":31200,"station_id":"ce4bhdp2rcd13ifvqf20","pricing_plan_id":"cebpf4jnsgd1na2vs0mg"},{"bike_id":"c1dea8eb-dedb-48c3-82b9-ba4d059a0755","system_id":"levelo_inurba_marseille","lat":43.2656,"lon":5.37304,"is_reserved":false,"is_disabled":true,"rental_uris":{"android":"levelo://app?vid=c1dea8eb-dedb-48c3-82b9-ba4d059a0755","ios":"levelo://app?vid=c1dea8eb-dedb-48c3-82b9-ba4d059a0755"},"vehicle_type_id":"4","last_reported":1736604487,"current_range_meters":9200,"station_id":"ce4bhg12rcd13ifvqf70","pricing_plan_id":"cebpf4jnsgd1na2vs0mg"},{"bike_id":"2e1fce22-6a81-4f1e-a42b-f3662154580d","system_id":"levelo_inurba_marseille","lat":43.24386,"lon":5.37057,"is_reserved":false,"is_disabled":false,"rental_uris":{"android":"levelo://app?vid=2e1fce22-6a81-4f1e-a42b-f3662154580d","ios":"levelo://app?vid=2e1fce22-6a81-4f1e-a42b-f3662154580d"},"vehicle_type_id":"4","last_reported":1736604487,"current_range_meters":3600,"station_id":"ce4bhhh2rcd13ifvqfk0","pricing_plan_id":"cebpf4jnsgd1na2vs0mg"},{"bike_id":"824c4c31-cff3-42b3-877b-6f5243ac81c7","system_id":"levelo_inurba_marseille","lat":43.24644,"lon":5.38894,"is_reserved":false,"is_disabled":false,"rental_uris":{"android":"levelo://app?vid=824c4c31-cff3-42b3-877b-6f5243ac81c7","ios":"levelo://app?vid=824c4c31-cff3-42b3-877b-6f5243ac81c7"},"vehicle_type_id":"4","last_reported":1736604487,"current_range_meters":28400,"station_id":"ce4bhg12rcd13ifvqf60","pricing_plan_id":"cebpf4jnsgd1na2vs0mg"},{"bike_id":"6c5d2f72-b27d-4307-937f-d70d968aa286","system_id":"levelo_inurba_marseille","lat":43.26206,"lon":5.37926,"is_reserved":false,"is_disabled":false,"rental_uris":{"android":"levelo://app?vid=6c5d2f72-b27d-4307-937f-d70d968aa286","ios":"levelo://app?vid=6c5d2f72-b27d-4307-937f-d70d968aa286"},"vehicle_type_id":"4","last_reported":1736604487,"current_range_meters":12000,"station_id":"ce4bhjp2rcd13ifvqg90","pricing_plan_id":"cebpf4jnsgd1na2vs0mg"},{"bike_id":"76714c84-c52f-4659-8795-5749b66b5c39","system_id":"levelo_inurba_marseille","lat":43.29007,"lon":5.35608,"is_reserved":false,"is_disabled":false,"rental_uris":{"android":"levelo://app?vid=76714c84-c52f-4659-8795-5749b66b5c39","ios":"levelo://app?vid=76714c84-c52f-4659-8795-5749b66b5c39"},"vehicle_type_id":"4","last_reported":1736604487,"current_range_meters":25200,"station_id":"ce4bhb92rcd13ifvqen0","pricing_plan_id":"cebpf4jnsgd1na2vs0mg"},{"bike_id":"d8b0e9d9-6078-4702-b585-fc8b36a7c70f","system_id":"levelo_inurba_marseille","lat":43.30419,"lon":5.39748,"is_reserved":false,"is_disabled":false,"rental_uris":{"android":"levelo://app?vid=d8b0e9d9-6078-4702-b585-fc8b36a7c70f","ios":"levelo://app?vid=d8b0e9d9-6078-4702-b585-fc8b36a7c70f"},"vehicle_type_id":"4","last_reported":1736604487,"current_range_meters":37600,"station_id":"ce4bh092rcd13ifvqd20","pricing_plan_id":"cebpf4jnsgd1na2vs0mg"},{"bike_id":"7e7a452e-245b-4f5f-a024-db21fa28a5e2","system_id":"levelo_inurba_marseille","lat":43.27377,"lon":5.36282,"is_reserved":false,"is_disabled":false,"rental_uris":{"android":"levelo://app?vid=7e7a452e-245b-4f5f-a024-db21fa28a5e2","ios":"levelo://app?vid=7e7a452e-245b-4f5f-a024-db21fa28a5e2"},"vehicle_type_id":"4","last_reported":1736604487,"current_range_meters":26800,"station_id":"ce4bhbh2rcd13ifvqeo0","pricing_plan_id":"cebpf4jnsgd1na2vs0mg"},{"bike_id":"40aa582d-815a-4ab4-b49f-d3b3d622ee04","system_id":"levelo_inurba_marseille","lat":43.2306,"lon":5.35509,"is_reserved":false,"is_disabled":false,"rental_uris":{"android":"levelo://app?vid=40aa582d-815a-4ab4-b49f-d3b3d622ee04","ios":"levelo://app?vid=40aa582d-815a-4ab4-b49f-d3b3d622ee04"},"vehicle_type_id":"4","last_reported":1736604487,"current_range_meters":38400,"station_id":"cpo3342slgdg3j2ifvpg","pricing_plan_id":"cebpf4jnsgd1na2vs0mg"},{"bike_id":"6b750947-fb43-40e2-9931-495446cc2b3f","system_id":"levelo_inurba_marseille","lat":43.22923,"lon":5.35377,"is_reserved":false,"is_disabled":false,"rental_uris":{"android":"levelo://app?vid=6b750947-fb43-40e2-9931-495446cc2b3f","ios":"levelo://app?vid=6b750947-fb43-40e2-9931-495446cc2b3f"},"vehicle_type_id":"4","last_reported":1736604487,"current_range_meters":37600,"station_id":"cpo3532slgdg3j2ikp40","pricing_plan_id":"cebpf4jnsgd1na2vs0mg"},{"bike_id":"c8e997c0-8580-4d0f-8d9f-0766596381e1","system_id":"levelo_inurba_marseille","lat":43.34017,"lon":5.37574,"is_reserved":false,"is_disabled":false,"rental_uris":{"android":"levelo://app?vid=c8e997c0-8580-4d0f-8d9f-0766596381e1","ios":"levelo://app?vid=c8e997c0-8580-4d0f-8d9f-0766596381e1"},"vehicle_type_id":"4","last_reported":1736604487,"current_range_meters":6400,"station_id":"","pricing_plan_id":"cebpf4jnsgd1na2vs0mg"},{"bike_id":"8cce07fd-e0b9-4057-8641-fe54ec299b00","system_id":"levelo_inurba_marseille","lat":43.29008,"lon":5.3563,"is_reserved":false,"is_disabled":false,"rental_uris":{"android":"levelo://app?vid=8cce07fd-e0b9-4057-8641-fe54ec299b00","ios":"levelo://app?vid=8cce07fd-e0b9-4057-8641-fe54ec299b00"},"vehicle_type_id":"4","last_reported":1736604487,"current_range_meters":9600,"station_id":"ce4bhb92rcd13ifvqen0","pricing_plan_id":"cebpf4jnsgd1na2vs0mg"},{"bike_id":"ba5df164-d25c-4a1c-8679-1bd1a1db0642","system_id":"levelo_inurba_marseille","lat":43.33708,"lon":5.39195,"is_reserved":false,"is_disabled":false,"rental_uris":{"android":"levelo://app?vid=ba5df164-d25c-4a1c-8679-1bd1a1db0642","ios":"levelo://app?vid=ba5df164-d25c-4a1c-8679-1bd1a1db0642"},"vehicle_type_id":"4","last_reported":1736604487,"current_range_meters":28000,"station_id":"ce4bhr92rcd13ifvqhsg","pricing_plan_id":"cebpf4jnsgd1na2vs0mg"},{"bike_id":"eb9b2df2-fdc1-4d66-abed-6bda4748c4f1","system_id":"levelo_inurba_marseille","lat":43.26201,"lon":5.37934,"is_reserved":false,"is_disabled":false,"rental_uris":{"android":"levelo://app?vid=eb9b2df2-fdc1-4d66-abed-6bda4748c4f1","ios":"levelo://app?vid=eb9b2df2-fdc1-4d66-abed-6bda4748c4f1"},"vehicle_type_id":"4","last_reported":1736604487,"current_range_meters":27200,"station_id":"ce4bhjp2rcd13ifvqg90","pricing_plan_id":"cebpf4jnsgd1na2vs0mg"},{"bike_id":"756acf7b-5e79-461a-9a9d-14e00e8d684f","system_id":"levelo_inurba_marseille","lat":43.30463,"lon":5.37907,"is_reserved":false,"is_disabled":true,"rental_uris":{"android":"levelo://app?vid=756acf7b-5e79-461a-9a9d-14e00e8d684f","ios":"levelo://app?vid=756acf7b-5e79-461a-9a9d-14e00e8d684f"},"vehicle_type_id":"4","last_reported":1736604487,"current_range_meters":34800,"station_id":"ce4bgup2rcd13ifvqcn0","pricing_plan_id":"cebpf4jnsgd1na2vs0mg"},{"bike_id":"b81fb0b2-c49e-467d-ac3f-3a28e36a524f","system_id":"levelo_inurba_marseille","lat":43.27201,"lon":5.39195,"is_reserved":false,"is_disabled":false,"rental_uris":{"android":"levelo://app?vid=b81fb0b2-c49e-467d-ac3f-3a28e36a524f","ios":"levelo://app?vid=b81fb0b2-c49e-467d-ac3f-3a28e36a524f"},"vehicle_type_id":"4","last_reported":1736604487,"current_range_meters":36400,"station_id":"ce4bhhp2rcd13ifvqfm0","pricing_plan_id":"cebpf4jnsgd1na2vs0mg"},{"bike_id":"6b764e8c-1a43-46a3-97d7-14881c8e848c","system_id":"levelo_inurba_marseille","lat":43.25832,"lon":5.39429,"is_reserved":false,"is_disabled":false,"rental_uris":{"android":"levelo://app?vid=6b764e8c-1a43-46a3-97d7-14881c8e848c","ios":"levelo://app?vid=6b764e8c-1a43-46a3-97d7-14881c8e848c"},"vehicle_type_id":"4","last_reported":1736604487,"current_range_meters":39200,"station_id":"ce4bhip2rcd13ifvqft0","pricing_plan_id":"cebpf4jnsgd1na2vs0mg"},{"bike_id":"d8327471-e10e-4e1d-a46b-c43156fc0620","system_id":"levelo_inurba_marseille","lat":43.2687,"lon":5.39367,"is_reserved":false,"is_disabled":true,"rental_uris":{"android":"levelo://app?vid=d8327471-e10e-4e1d-a46b-c43156fc0620","ios":"levelo://app?vid=d8327471-e10e-4e1d-a46b-c43156fc0620"},"vehicle_type_id":"4","last_reported":1736604487,"current_range_meters":0,"station_id":"ce4bhh12rcd13ifvqfg0","pricing_plan_id":"cebpf4jnsgd1na2vs0mg"},{"bike_id":"b5b7f5ac-60b6-4be5-9cc9-eeccfd501552","system_id":"levelo_inurba_marseille","lat":43.30554,"lon":5.36532,"is_reserved":false,"is_disabled":false,"rental_uris":{"android":"levelo://app?vid=b5b7f5ac-60b6-4be5-9cc9-eeccfd501552","ios":"levelo://app?vid=b5b7f5ac-60b6-4be5-9cc9-eeccfd501552"},"vehicle_type_id":"4","last_reported":1736604487,"current_range_meters":32000,"station_id":"ce4bgs12rcd13ifvqcag","pricing_plan_id":"cebpf4jnsgd1na2vs0mg"},{"bike_id":"e0807d9a-e6e0-49fa-b303-f10d1cc851d9","system_id":"levelo_inurba_marseille","lat":43.29206,"lon":5.36065,"is_reserved":false,"is_disabled":false,"rental_uris":{"android":"levelo://app?vid=e0807d9a-e6e0-49fa-b303-f10d1cc851d9","ios":"levelo://app?vid=e0807d9a-e6e0-49fa-b303-f10d1cc851d9"},"vehicle_type_id":"4","last_reported":1736604487,"current_range_meters":38800,"station_id":"ce4bhbh2rcd13ifvqeqg","pricing_plan_id":"cebpf4jnsgd1na2vs0mg"},{"bike_id":"7d959c37-4d60-4094-901d-194afd224ca0","system_id":"levelo_inurba_marseille","lat":43.2838,"lon":5.38644,"is_reserved":false,"is_disabled":true,"rental_uris":{"android":"levelo://app?vid=7d959c37-4d60-4094-901d-194afd224ca0","ios":"levelo://app?vid=7d959c37-4d60-4094-901d-194afd224ca0"},"vehicle_type_id":"4","last_reported":1736604487,"current_range_meters":16400,"station_id":"ce4bh492rcd13ifvqdvg","pricing_plan_id":"cebpf4jnsgd1na2vs0mg"},{"bike_id":"c60d357e-02a7-47e1-ae13-39f132590e03","system_id":"levelo_inurba_marseille","lat":43.27949,"lon":5.41043,"is_reserved":false,"is_disabled":false,"rental_uris":{"android":"levelo://app?vid=c60d357e-02a7-47e1-ae13-39f132590e03","ios":"levelo://app?vid=c60d357e-02a7-47e1-ae13-39f132590e03"},"vehicle_type_id":"4","last_reported":1736604487,"current_range_meters":30800,"station_id":"ce4bhnp2rcd13ifvqh0g","pricing_plan_id":"cebpf4jnsgd1na2vs0mg"},{"bike_id":"89259ed2-f3d2-467f-9db2-4e564ba442fd","system_id":"levelo_inurba_marseille","lat":43.30653,"lon":5.40112,"is_reserved":false,"is_disabled":false,"rental_uris":{"android":"levelo://app?vid=89259ed2-f3d2-467f-9db2-4e564ba442fd","ios":"levelo://app?vid=89259ed2-f3d2-467f-9db2-4e564ba442fd"},"vehicle_type_id":"4","last_reported":1736604487,"current_range_meters":14000,"station_id":"ce4bh112rcd13ifvqda0","pricing_plan_id":"cebpf4jnsgd1na2vs0mg"},{"bike_id":"c56556c9-aba8-4c1a-b17e-1640ff64f182","system_id":"levelo_inurba_marseille","lat":43.30553,"lon":5.36528,"is_reserved":false,"is_disabled":false,"rental_uris":{"android":"levelo://app?vid=c56556c9-aba8-4c1a-b17e-1640ff64f182","ios":"levelo://app?vid=c56556c9-aba8-4c1a-b17e-1640ff64f182"},"vehicle_type_id":"4","last_reported":1736604487,"current_range_meters":37600,"station_id":"ce4bgs12rcd13ifvqcag","pricing_plan_id":"cebpf4jnsgd1na2vs0mg"},{"bike_id":"426ee80e-06b0-4d0f-86a5-ea8ad64aaa11","system_id":"levelo_inurba_marseille","lat":43.289204,"lon":5.437799,"is_reserved":false,"is_disabled":false,"rental_uris":{"android":"levelo://app?vid=426ee80e-06b0-4d0f-86a5-ea8ad64aaa11","ios":"levelo://app?vid=426ee80e-06b0-4d0f-86a5-ea8ad64aaa11"},"vehicle_type_id":"4","last_reported":1736604487,"current_range_meters":17200,"station_id":"","pricing_plan_id":"cebpf4jnsgd1na2vs0mg"},{"bike_id":"0545f7c2-8b74-4aef-b4f9-4a206fac8b8b","system_id":"levelo_inurba_marseille","lat":43.29007,"lon":5.35596,"is_reserved":false,"is_disabled":false,"rental_uris":{"android":"levelo://app?vid=0545f7c2-8b74-4aef-b4f9-4a206fac8b8b","ios":"levelo://app?vid=0545f7c2-8b74-4aef-b4f9-4a206fac8b8b"},"vehicle_type_id":"4","last_reported":1736604487,"current_range_meters":17200,"station_id":"ce4bhb92rcd13ifvqen0","pricing_plan_id":"cebpf4jnsgd1na2vs0mg"},{"bike_id":"e90edf27-fc2d-4ec9-babd-679acf42a017","system_id":"levelo_inurba_marseille","lat":43.28345,"lon":5.38636,"is_reserved":false,"is_disabled":true,"rental_uris":{"android":"levelo://app?vid=e90edf27-fc2d-4ec9-babd-679acf42a017","ios":"levelo://app?vid=e90edf27-fc2d-4ec9-babd-679acf42a017"},"vehicle_type_id":"4","last_reported":1736604487,"current_range_meters":0,"station_id":"ce4bh492rcd13ifvqdvg","pricing_plan_id":"cebpf4jnsgd1na2vs0mg"},{"bike_id":"83482fa2-fd12-4c62-8190-e3a445c635d6","system_id":"levelo_inurba_marseille","lat":43.2988,"lon":5.3978,"is_reserved":false,"is_disabled":false,"rental_uris":{"android":"levelo://app?vid=83482fa2-fd12-4c62-8190-e3a445c635d6","ios":"levelo://app?vid=83482fa2-fd12-4c62-8190-e3a445c635d6"},"vehicle_type_id":"4","last_reported":1736604487,"current_range_meters":37600,"station_id":"ce4bh0h2rcd13ifvqd50","pricing_plan_id":"cebpf4jnsgd1na2vs0mg"},{"bike_id":"b4e320d3-5a10-431c-b233-2a45a29eb456","system_id":"levelo_inurba_marseille","lat":43.2827,"lon":5.35068,"is_reserved":false,"is_disabled":false,"rental_uris":{"android":"levelo://app?vid=b4e320d3-5a10-431c-b233-2a45a29eb456","ios":"levelo://app?vid=b4e320d3-5a10-431c-b233-2a45a29eb456"},"vehicle_type_id":"4","last_reported":1736604487,"current_range_meters":8000,"station_id":"ce4bhbp2rcd13ifvqerg","pricing_plan_id":"cebpf4jnsgd1na2vs0mg"},{"bike_id":"b27cc99f-6b66-4ab0-833d-ef1cae10794f","system_id":"levelo_inurba_marseille","lat":43.25863,"lon":5.39906,"is_reserved":false,"is_disabled":false,"rental_uris":{"android":"levelo://app?vid=b27cc99f-6b66-4ab0-833d-ef1cae10794f","ios":"levelo://app?vid=b27cc99f-6b66-4ab0-833d-ef1cae10794f"},"vehicle_type_id":"4","last_reported":1736604487,"current_range_meters":38800,"station_id":"ce4bhl92rcd13ifvqghg","pricing_plan_id":"cebpf4jnsgd1na2vs0mg"},{"bike_id":"e17e8030-e1e0-48e9-8179-88c7c3f6f0b6","system_id":"levelo_inurba_marseille","lat":43.32289,"lon":5.38269,"is_reserved":false,"is_disabled":false,"rental_uris":{"android":"levelo://app?vid=e17e8030-e1e0-48e9-8179-88c7c3f6f0b6","ios":"levelo://app?vid=e17e8030-e1e0-48e9-8179-88c7c3f6f0b6"},"vehicle_type_id":"4","last_reported":1736604487,"current_range_meters":11200,"station_id":"ce4bhr12rcd13ifvqhqg","pricing_plan_id":"cebpf4jnsgd1na2vs0mg"},{"bike_id":"f4dbc556-58b0-4dfd-be99-18a51c032520","system_id":"levelo_inurba_marseille","lat":43.24196,"lon":5.39726,"is_reserved":false,"is_disabled":true,"rental_uris":{"android":"levelo://app?vid=f4dbc556-58b0-4dfd-be99-18a51c032520","ios":"levelo://app?vid=f4dbc556-58b0-4dfd-be99-18a51c032520"},"vehicle_type_id":"4","last_reported":1736604487,"current_range_meters":38000,"station_id":"ce4bhn12rcd13ifvqgpg","pricing_plan_id":"cebpf4jnsgd1na2vs0mg"},{"bike_id":"9c62e164-6cf9-4292-996f-7c2ed5673e8e","system_id":"levelo_inurba_marseille","lat":43.23959,"lon":5.36626,"is_reserved":false,"is_disabled":false,"rental_uris":{"android":"levelo://app?vid=9c62e164-6cf9-4292-996f-7c2ed5673e8e","ios":"levelo://app?vid=9c62e164-6cf9-4292-996f-7c2ed5673e8e"},"vehicle_type_id":"4","last_reported":1736604487,"current_range_meters":30000,"station_id":"ce4bhi12rcd13ifvqfp0","pricing_plan_id":"cebpf4jnsgd1na2vs0mg"},{"bike_id":"1eee0eb3-790d-45e0-9130-987efc84424f","system_id":"levelo_inurba_marseille","lat":43.27207,"lon":5.39179,"is_reserved":false,"is_disabled":false,"rental_uris":{"android":"levelo://app?vid=1eee0eb3-790d-45e0-9130-987efc84424f","ios":"levelo://app?vid=1eee0eb3-790d-45e0-9130-987efc84424f"},"vehicle_type_id":"4","last_reported":1736604487,"current_range_meters":28400,"station_id":"ce4bhhp2rcd13ifvqfm0","pricing_plan_id":"cebpf4jnsgd1na2vs0mg"},{"bike_id":"12582279-585d-44d4-9b2c-dbe6a16e07ea","system_id":"levelo_inurba_marseille","lat":43.27963,"lon":5.38705,"is_reserved":false,"is_disabled":false,"rental_uris":{"android":"levelo://app?vid=12582279-585d-44d4-9b2c-dbe6a16e07ea","ios":"levelo://app?vid=12582279-585d-44d4-9b2c-dbe6a16e07ea"},"vehicle_type_id":"4","last_reported":1736604487,"current_range_meters":27600,"station_id":"ce4bhg12rcd13ifvqf80","pricing_plan_id":"cebpf4jnsgd1na2vs0mg"},{"bike_id":"80609ff8-7d7d-4ae2-9159-aea837c7c52b","system_id":"levelo_inurba_marseille","lat":43.23952,"lon":5.36639,"is_reserved":false,"is_disabled":false,"rental_uris":{"android":"levelo://app?vid=80609ff8-7d7d-4ae2-9159-aea837c7c52b","ios":"levelo://app?vid=80609ff8-7d7d-4ae2-9159-aea837c7c52b"},"vehicle_type_id":"4","last_reported":1736604487,"current_range_meters":10800,"station_id":"ce4bhi12rcd13ifvqfp0","pricing_plan_id":"cebpf4jnsgd1na2vs0mg"},{"bike_id":"1d33c123-9da4-443d-83cb-f0ed3f307ace","system_id":"levelo_inurba_marseille","lat":43.25872,"lon":5.39893,"is_reserved":false,"is_disabled":false,"rental_uris":{"android":"levelo://app?vid=1d33c123-9da4-443d-83cb-f0ed3f307ace","ios":"levelo://app?vid=1d33c123-9da4-443d-83cb-f0ed3f307ace"},"vehicle_type_id":"4","last_reported":1736604487,"current_range_meters":12800,"station_id":"ce4bhl92rcd13ifvqghg","pricing_plan_id":"cebpf4jnsgd1na2vs0mg"},{"bike_id":"b1a76e20-e335-4436-b732-5d4d026d3961","system_id":"levelo_inurba_marseille","lat":43.29194,"lon":5.35806,"is_reserved":false,"is_disabled":false,"rental_uris":{"android":"levelo://app?vid=b1a76e20-e335-4436-b732-5d4d026d3961","ios":"levelo://app?vid=b1a76e20-e335-4436-b732-5d4d026d3961"},"vehicle_type_id":"4","last_reported":1736604487,"current_range_meters":24800,"station_id":"ce4bhb12rcd13ifvqel0","pricing_plan_id":"cebpf4jnsgd1na2vs0mg"},{"bike_id":"65d97d9b-4907-4902-b96c-d3fd3d23eb27","system_id":"levelo_inurba_marseille","lat":43.23052,"lon":5.35491,"is_reserved":false,"is_disabled":false,"rental_uris":{"android":"levelo://app?vid=65d97d9b-4907-4902-b96c-d3fd3d23eb27","ios":"levelo://app?vid=65d97d9b-4907-4902-b96c-d3fd3d23eb27"},"vehicle_type_id":"4","last_reported":1736604487,"current_range_meters":38800,"station_id":"cpo3342slgdg3j2ifvpg","pricing_plan_id":"cebpf4jnsgd1na2vs0mg"},{"bike_id":"baf74963-7d44-43cf-b2a2-efc3c98b4e82","system_id":"levelo_inurba_marseille","lat":43.27405,"lon":5.39422,"is_reserved":false,"is_disabled":false,"rental_uris":{"android":"levelo://app?vid=baf74963-7d44-43cf-b2a2-efc3c98b4e82","ios":"levelo://app?vid=baf74963-7d44-43cf-b2a2-efc3c98b4e82"},"vehicle_type_id":"4","last_reported":1736604487,"current_range_meters":39200,"station_id":"ce4bhdp2rcd13ifvqf20","pricing_plan_id":"cebpf4jnsgd1na2vs0mg"},{"bike_id":"ac2ea72a-6a8b-4ad0-af0a-f6089f860be6","system_id":"levelo_inurba_marseille","lat":43.29718,"lon":5.37691,"is_reserved":false,"is_disabled":false,"rental_uris":{"android":"levelo://app?vid=ac2ea72a-6a8b-4ad0-af0a-f6089f860be6","ios":"levelo://app?vid=ac2ea72a-6a8b-4ad0-af0a-f6089f860be6"},"vehicle_type_id":"4","last_reported":1736604487,"current_range_meters":28400,"station_id":"ce4bgkh2rcd13ifvqbl0","pricing_plan_id":"cebpf4jnsgd1na2vs0mg"},{"bike_id":"6ce4f187-8b41-497d-8d2a-6139d4e7cb53","system_id":"levelo_inurba_marseille","lat":43.26954,"lon":5.38639,"is_reserved":false,"is_disabled":true,"rental_uris":{"android":"levelo://app?vid=6ce4f187-8b41-497d-8d2a-6139d4e7cb53","ios":"levelo://app?vid=6ce4f187-8b41-497d-8d2a-6139d4e7cb53"},"vehicle_type_id":"4","last_reported":1736604487,"current_range_meters":0,"station_id":"ce4bhh92rcd13ifvqfh0","pricing_plan_id":"cebpf4jnsgd1na2vs0mg"},{"bike_id":"da9fa69f-5545-42eb-b485-cfe2b4a4bca4","system_id":"levelo_inurba_marseille","lat":43.30957,"lon":5.39043,"is_reserved":false,"is_disabled":false,"rental_uris":{"android":"levelo://app?vid=da9fa69f-5545-42eb-b485-cfe2b4a4bca4","ios":"levelo://app?vid=da9fa69f-5545-42eb-b485-cfe2b4a4bca4"},"vehicle_type_id":"4","last_reported":1736604487,"current_range_meters":38400,"station_id":"ce4bgup2rcd13ifvqco0","pricing_plan_id":"cebpf4jnsgd1na2vs0mg"},{"bike_id":"539c8ae2-b705-452d-a101-0bcd91a18101","system_id":"levelo_inurba_marseille","lat":43.3015,"lon":5.38093,"is_reserved":false,"is_disabled":false,"rental_uris":{"android":"levelo://app?vid=539c8ae2-b705-452d-a101-0bcd91a18101","ios":"levelo://app?vid=539c8ae2-b705-452d-a101-0bcd91a18101"},"vehicle_type_id":"4","last_reported":1736604487,"current_range_meters":8400,"station_id":"ce4bgjp2rcd13ifvqbh0","pricing_plan_id":"cebpf4jnsgd1na2vs0mg"},{"bike_id":"125e3e37-3f30-4761-a249-1beea305da1b","system_id":"levelo_inurba_marseille","lat":43.27224,"lon":5.39186,"is_reserved":false,"is_disabled":false,"rental_uris":{"android":"levelo://app?vid=125e3e37-3f30-4761-a249-1beea305da1b","ios":"levelo://app?vid=125e3e37-3f30-4761-a249-1beea305da1b"},"vehicle_type_id":"4","last_reported":1736604487,"current_range_meters":29600,"station_id":"ce4bhhp2rcd13ifvqfm0","pricing_plan_id":"cebpf4jnsgd1na2vs0mg"},{"bike_id":"9df3f5ea-fde0-41ed-b85b-9852593c7149","system_id":"levelo_inurba_marseille","lat":43.24073,"lon":5.37737,"is_reserved":false,"is_disabled":false,"rental_uris":{"android":"levelo://app?vid=9df3f5ea-fde0-41ed-b85b-9852593c7149","ios":"levelo://app?vid=9df3f5ea-fde0-41ed-b85b-9852593c7149"},"vehicle_type_id":"4","last_reported":1736604487,"current_range_meters":37600,"station_id":"ce4bhnp2rcd13ifvqgvg","pricing_plan_id":"cebpf4jnsgd1na2vs0mg"},{"bike_id":"066fc890-cce1-4b7e-a941-320c51e991c9","system_id":"levelo_inurba_marseille","lat":43.23952,"lon":5.36658,"is_reserved":false,"is_disabled":false,"rental_uris":{"android":"levelo://app?vid=066fc890-cce1-4b7e-a941-320c51e991c9","ios":"levelo://app?vid=066fc890-cce1-4b7e-a941-320c51e991c9"},"vehicle_type_id":"4","last_reported":1736604487,"current_range_meters":22400,"station_id":"ce4bhi12rcd13ifvqfp0","pricing_plan_id":"cebpf4jnsgd1na2vs0mg"},{"bike_id":"5f50eb76-c20c-4230-926b-27928bb7844b","system_id":"levelo_inurba_marseille","lat":43.29195,"lon":5.35817,"is_reserved":false,"is_disabled":false,"rental_uris":{"android":"levelo://app?vid=5f50eb76-c20c-4230-926b-27928bb7844b","ios":"levelo://app?vid=5f50eb76-c20c-4230-926b-27928bb7844b"},"vehicle_type_id":"4","last_reported":1736604487,"current_range_meters":33200,"station_id":"ce4bhb12rcd13ifvqel0","pricing_plan_id":"cebpf4jnsgd1na2vs0mg"},{"bike_id":"7756efe2-089b-4934-9204-09bec9f8ddf9","system_id":"levelo_inurba_marseille","lat":43.29556,"lon":5.42291,"is_reserved":false,"is_disabled":false,"rental_uris":{"android":"levelo://app?vid=7756efe2-089b-4934-9204-09bec9f8ddf9","ios":"levelo://app?vid=7756efe2-089b-4934-9204-09bec9f8ddf9"},"vehicle_type_id":"4","last_reported":1736604487,"current_range_meters":28000,"station_id":"ce4bhph2rcd13ifvqhdg","pricing_plan_id":"cebpf4jnsgd1na2vs0mg"},{"bike_id":"b1cd05bd-cc6d-452b-8b8c-f24ee7fb627f","system_id":"levelo_inurba_marseille","lat":43.258277,"lon":5.394265,"is_reserved":false,"is_disabled":false,"rental_uris":{"android":"levelo://app?vid=b1cd05bd-cc6d-452b-8b8c-f24ee7fb627f","ios":"levelo://app?vid=b1cd05bd-cc6d-452b-8b8c-f24ee7fb627f"},"vehicle_type_id":"4","last_reported":1736604487,"current_range_meters":32000,"station_id":"ce4bhip2rcd13ifvqft0","pricing_plan_id":"cebpf4jnsgd1na2vs0mg"},{"bike_id":"1427a9ce-b525-4f97-9b27-39e4941f848e","system_id":"levelo_inurba_marseille","lat":43.24663,"lon":5.38172,"is_reserved":false,"is_disabled":false,"rental_uris":{"android":"levelo://app?vid=1427a9ce-b525-4f97-9b27-39e4941f848e","ios":"levelo://app?vid=1427a9ce-b525-4f97-9b27-39e4941f848e"},"vehicle_type_id":"4","last_reported":1736604487,"current_range_meters":6000,"station_id":"ce4bhih2rcd13ifvqfr0","pricing_plan_id":"cebpf4jnsgd1na2vs0mg"},{"bike_id":"3f1c785d-f4db-48c3-8fab-d7359eef83a2","system_id":"levelo_inurba_marseille","lat":43.30415,"lon":5.4129,"is_reserved":false,"is_disabled":false,"rental_uris":{"android":"levelo://app?vid=3f1c785d-f4db-48c3-8fab-d7359eef83a2","ios":"levelo://app?vid=3f1c785d-f4db-48c3-8fab-d7359eef83a2"},"vehicle_type_id":"4","last_reported":1736604487,"current_range_meters":38000,"station_id":"ce4bhop2rcd13ifvqh8g","pricing_plan_id":"cebpf4jnsgd1na2vs0mg"},{"bike_id":"3b4bd5b4-0685-4715-9538-a6a6d1310d09","system_id":"levelo_inurba_marseille","lat":43.3053,"lon":5.36553,"is_reserved":false,"is_disabled":false,"rental_uris":{"android":"levelo://app?vid=3b4bd5b4-0685-4715-9538-a6a6d1310d09","ios":"levelo://app?vid=3b4bd5b4-0685-4715-9538-a6a6d1310d09"},"vehicle_type_id":"4","last_reported":1736604487,"current_range_meters":37600,"station_id":"ce4bgs12rcd13ifvqcag","pricing_plan_id":"cebpf4jnsgd1na2vs0mg"},{"bike_id":"dc388f0e-5ba4-4401-b2b7-3e59da087469","system_id":"levelo_inurba_marseille","lat":43.28612,"lon":5.35112,"is_reserved":false,"is_disabled":false,"rental_uris":{"android":"levelo://app?vid=dc388f0e-5ba4-4401-b2b7-3e59da087469","ios":"levelo://app?vid=dc388f0e-5ba4-4401-b2b7-3e59da087469"},"vehicle_type_id":"4","last_reported":1736604487,"current_range_meters":18000,"station_id":"ce4bhch2rcd13ifvqeug","pricing_plan_id":"cebpf4jnsgd1na2vs0mg"},{"bike_id":"07dfc879-b707-4497-b414-f10a59ae4c2d","system_id":"levelo_inurba_marseille","lat":43.30542,"lon":5.36558,"is_reserved":false,"is_disabled":false,"rental_uris":{"android":"levelo://app?vid=07dfc879-b707-4497-b414-f10a59ae4c2d","ios":"levelo://app?vid=07dfc879-b707-4497-b414-f10a59ae4c2d"},"vehicle_type_id":"4","last_reported":1736604487,"current_range_meters":22800,"station_id":"ce4bgs12rcd13ifvqcag","pricing_plan_id":"cebpf4jnsgd1na2vs0mg"},{"bike_id":"2c9dd628-c688-4c37-b6d2-d665ced3ed71","system_id":"levelo_inurba_marseille","lat":43.25006,"lon":5.3892,"is_reserved":false,"is_disabled":false,"rental_uris":{"android":"levelo://app?vid=2c9dd628-c688-4c37-b6d2-d665ced3ed71","ios":"levelo://app?vid=2c9dd628-c688-4c37-b6d2-d665ced3ed71"},"vehicle_type_id":"4","last_reported":1736604487,"current_range_meters":38000,"station_id":"ce4bhgp2rcd13ifvqfd0","pricing_plan_id":"cebpf4jnsgd1na2vs0mg"},{"bike_id":"dea36c55-6edf-4c74-91be-15f04a3f87af","system_id":"levelo_inurba_marseille","lat":43.27565,"lon":5.38407,"is_reserved":false,"is_disabled":false,"rental_uris":{"android":"levelo://app?vid=dea36c55-6edf-4c74-91be-15f04a3f87af","ios":"levelo://app?vid=dea36c55-6edf-4c74-91be-15f04a3f87af"},"vehicle_type_id":"4","last_reported":1736604487,"current_range_meters":38800,"station_id":"ce4bhh92rcd13ifvqfi0","pricing_plan_id":"cebpf4jnsgd1na2vs0mg"},{"bike_id":"85077f2d-96d6-4799-acc0-68a7354da011","system_id":"levelo_inurba_marseille","lat":43.25501,"lon":5.37655,"is_reserved":false,"is_disabled":false,"rental_uris":{"android":"levelo://app?vid=85077f2d-96d6-4799-acc0-68a7354da011","ios":"levelo://app?vid=85077f2d-96d6-4799-acc0-68a7354da011"},"vehicle_type_id":"4","last_reported":1736604487,"current_range_meters":32400,"station_id":"ce4bhh12rcd13ifvqff0","pricing_plan_id":"cebpf4jnsgd1na2vs0mg"},{"bike_id":"e4591532-c524-4a6b-b78c-8f6f8e9deec2","system_id":"levelo_inurba_marseille","lat":43.3056,"lon":5.365275,"is_reserved":false,"is_disabled":false,"rental_uris":{"android":"levelo://app?vid=e4591532-c524-4a6b-b78c-8f6f8e9deec2","ios":"levelo://app?vid=e4591532-c524-4a6b-b78c-8f6f8e9deec2"},"vehicle_type_id":"4","last_reported":1736604487,"current_range_meters":35200,"station_id":"ce4bgs12rcd13ifvqcag","pricing_plan_id":"cebpf4jnsgd1na2vs0mg"},{"bike_id":"5b037463-e776-4f8a-b002-41b2aa90a2b6","system_id":"levelo_inurba_marseille","lat":43.23056,"lon":5.35498,"is_reserved":false,"is_disabled":true,"rental_uris":{"android":"levelo://app?vid=5b037463-e776-4f8a-b002-41b2aa90a2b6","ios":"levelo://app?vid=5b037463-e776-4f8a-b002-41b2aa90a2b6"},"vehicle_type_id":"4","last_reported":1736604487,"current_range_meters":0,"station_id":"cpo3342slgdg3j2ifvpg","pricing_plan_id":"cebpf4jnsgd1na2vs0mg"},{"bike_id":"623b3de8-02dd-46fd-bb53-cd67f5f2d0b6","system_id":"levelo_inurba_marseille","lat":43.28265,"lon":5.35061,"is_reserved":false,"is_disabled":true,"rental_uris":{"android":"levelo://app?vid=623b3de8-02dd-46fd-bb53-cd67f5f2d0b6","ios":"levelo://app?vid=623b3de8-02dd-46fd-bb53-cd67f5f2d0b6"},"vehicle_type_id":"4","last_reported":1736604487,"current_range_meters":1200,"station_id":"ce4bhbp2rcd13ifvqerg","pricing_plan_id":"cebpf4jnsgd1na2vs0mg"},{"bike_id":"3bc5df64-0857-4ab7-967a-d122965cd4aa","system_id":"levelo_inurba_marseille","lat":43.28151,"lon":5.42644,"is_reserved":false,"is_disabled":false,"rental_uris":{"android":"levelo://app?vid=3bc5df64-0857-4ab7-967a-d122965cd4aa","ios":"levelo://app?vid=3bc5df64-0857-4ab7-967a-d122965cd4aa"},"vehicle_type_id":"4","last_reported":1736604487,"current_range_meters":12400,"station_id":"ce4bhnh2rcd13ifvqgug","pricing_plan_id":"cebpf4jnsgd1na2vs0mg"},{"bike_id":"44f08a7a-0e1a-4c47-b420-a2644ced2d85","system_id":"levelo_inurba_marseille","lat":43.26554,"lon":5.37286,"is_reserved":false,"is_disabled":false,"rental_uris":{"android":"levelo://app?vid=44f08a7a-0e1a-4c47-b420-a2644ced2d85","ios":"levelo://app?vid=44f08a7a-0e1a-4c47-b420-a2644ced2d85"},"vehicle_type_id":"4","last_reported":1736604487,"current_range_meters":32400,"station_id":"ce4bhg12rcd13ifvqf70","pricing_plan_id":"cebpf4jnsgd1na2vs0mg"},{"bike_id":"cbb6f882-36e6-4fa0-a8d5-d3e0a6df31ed","system_id":"levelo_inurba_marseille","lat":43.29712,"lon":5.37692,"is_reserved":false,"is_disabled":false,"rental_uris":{"android":"levelo://app?vid=cbb6f882-36e6-4fa0-a8d5-d3e0a6df31ed","ios":"levelo://app?vid=cbb6f882-36e6-4fa0-a8d5-d3e0a6df31ed"},"vehicle_type_id":"4","last_reported":1736604487,"current_range_meters":20000,"station_id":"ce4bgkh2rcd13ifvqbl0","pricing_plan_id":"cebpf4jnsgd1na2vs0mg"},{"bike_id":"931a94cb-4d76-44ed-832b-c204c760481e","system_id":"levelo_inurba_marseille","lat":43.31162,"lon":5.38723,"is_reserved":false,"is_disabled":false,"rental_uris":{"android":"levelo://app?vid=931a94cb-4d76-44ed-832b-c204c760481e","ios":"levelo://app?vid=931a94cb-4d76-44ed-832b-c204c760481e"},"vehicle_type_id":"4","last_reported":1736604487,"current_range_meters":36800,"station_id":"ce4bgv12rcd13ifvqcp0","pricing_plan_id":"cebpf4jnsgd1na2vs0mg"},{"bike_id":"b2a7859b-4ace-4ab3-b38d-302d3d46f774","system_id":"levelo_inurba_marseille","lat":43.30215,"lon":5.389824,"is_reserved":false,"is_disabled":false,"rental_uris":{"android":"levelo://app?vid=b2a7859b-4ace-4ab3-b38d-302d3d46f774","ios":"levelo://app?vid=b2a7859b-4ace-4ab3-b38d-302d3d46f774"},"vehicle_type_id":"4","last_reported":1736604487,"current_range_meters":10000,"station_id":"ce4bh0p2rcd13ifvqd80","pricing_plan_id":"cebpf4jnsgd1na2vs0mg"},{"bike_id":"7e9a745e-c82d-4677-a3f0-c081269f42e9","system_id":"levelo_inurba_marseille","lat":43.28999,"lon":5.35615,"is_reserved":false,"is_disabled":false,"rental_uris":{"android":"levelo://app?vid=7e9a745e-c82d-4677-a3f0-c081269f42e9","ios":"levelo://app?vid=7e9a745e-c82d-4677-a3f0-c081269f42e9"},"vehicle_type_id":"4","last_reported":1736604487,"current_range_meters":27200,"station_id":"ce4bhb92rcd13ifvqen0","pricing_plan_id":"cebpf4jnsgd1na2vs0mg"},{"bike_id":"63a2109a-c57e-4ee6-ab82-881cb060df81","system_id":"levelo_inurba_marseille","lat":43.23058,"lon":5.35496,"is_reserved":false,"is_disabled":false,"rental_uris":{"android":"levelo://app?vid=63a2109a-c57e-4ee6-ab82-881cb060df81","ios":"levelo://app?vid=63a2109a-c57e-4ee6-ab82-881cb060df81"},"vehicle_type_id":"4","last_reported":1736604487,"current_range_meters":22800,"station_id":"cpo3342slgdg3j2ifvpg","pricing_plan_id":"cebpf4jnsgd1na2vs0mg"},{"bike_id":"6a1b54ad-8916-43da-9190-f329d3dc710b","system_id":"levelo_inurba_marseille","lat":43.30541,"lon":5.36527,"is_reserved":false,"is_disabled":false,"rental_uris":{"android":"levelo://app?vid=6a1b54ad-8916-43da-9190-f329d3dc710b","ios":"levelo://app?vid=6a1b54ad-8916-43da-9190-f329d3dc710b"},"vehicle_type_id":"4","last_reported":1736604487,"current_range_meters":30400,"station_id":"ce4bgs12rcd13ifvqcag","pricing_plan_id":"cebpf4jnsgd1na2vs0mg"},{"bike_id":"a754abf4-87cb-4915-a97f-0b4d0e8971f5","system_id":"levelo_inurba_marseille","lat":43.28617,"lon":5.35104,"is_reserved":false,"is_disabled":false,"rental_uris":{"android":"levelo://app?vid=a754abf4-87cb-4915-a97f-0b4d0e8971f5","ios":"levelo://app?vid=a754abf4-87cb-4915-a97f-0b4d0e8971f5"},"vehicle_type_id":"4","last_reported":1736604487,"current_range_meters":38800,"station_id":"ce4bhch2rcd13ifvqeug","pricing_plan_id":"cebpf4jnsgd1na2vs0mg"},{"bike_id":"1320d702-2b4f-4a36-ba06-ba4168316330","system_id":"levelo_inurba_marseille","lat":43.29008,"lon":5.35618,"is_reserved":false,"is_disabled":false,"rental_uris":{"android":"levelo://app?vid=1320d702-2b4f-4a36-ba06-ba4168316330","ios":"levelo://app?vid=1320d702-2b4f-4a36-ba06-ba4168316330"},"vehicle_type_id":"4","last_reported":1736604487,"current_range_meters":24000,"station_id":"ce4bhb92rcd13ifvqen0","pricing_plan_id":"cebpf4jnsgd1na2vs0mg"},{"bike_id":"bc2ecfb6-7911-4f67-9761-2fa9eb95f393","system_id":"levelo_inurba_marseille","lat":43.297214,"lon":5.376977,"is_reserved":false,"is_disabled":false,"rental_uris":{"android":"levelo://app?vid=bc2ecfb6-7911-4f67-9761-2fa9eb95f393","ios":"levelo://app?vid=bc2ecfb6-7911-4f67-9761-2fa9eb95f393"},"vehicle_type_id":"4","last_reported":1736604487,"current_range_meters":36800,"station_id":"ce4bgkh2rcd13ifvqbl0","pricing_plan_id":"cebpf4jnsgd1na2vs0mg"},{"bike_id":"6e0b7390-3f03-4896-850a-30b735b3a5fe","system_id":"levelo_inurba_marseille","lat":43.255,"lon":5.37657,"is_reserved":false,"is_disabled":false,"rental_uris":{"android":"levelo://app?vid=6e0b7390-3f03-4896-850a-30b735b3a5fe","ios":"levelo://app?vid=6e0b7390-3f03-4896-850a-30b735b3a5fe"},"vehicle_type_id":"4","last_reported":1736604487,"current_range_meters":21600,"station_id":"ce4bhh12rcd13ifvqff0","pricing_plan_id":"cebpf4jnsgd1na2vs0mg"},{"bike_id":"19294e41-dd99-443a-831f-a3b89a9a6e0b","system_id":"levelo_inurba_marseille","lat":43.30557,"lon":5.36711,"is_reserved":false,"is_disabled":false,"rental_uris":{"android":"levelo://app?vid=19294e41-dd99-443a-831f-a3b89a9a6e0b","ios":"levelo://app?vid=19294e41-dd99-443a-831f-a3b89a9a6e0b"},"vehicle_type_id":"4","last_reported":1736604487,"current_range_meters":33200,"station_id":"ce4bgrp2rcd13ifvqc9g","pricing_plan_id":"cebpf4jnsgd1na2vs0mg"},{"bike_id":"dbc6f73a-ba6a-472d-b4ef-2f1dc6f069a6","system_id":"levelo_inurba_marseille","lat":43.31449,"lon":5.37388,"is_reserved":false,"is_disabled":false,"rental_uris":{"android":"levelo://app?vid=dbc6f73a-ba6a-472d-b4ef-2f1dc6f069a6","ios":"levelo://app?vid=dbc6f73a-ba6a-472d-b4ef-2f1dc6f069a6"},"vehicle_type_id":"4","last_reported":1736604487,"current_range_meters":38800,"station_id":"","pricing_plan_id":"cebpf4jnsgd1na2vs0mg"},{"bike_id":"22427c5b-820c-4b15-9031-d50bac4cfc8b","system_id":"levelo_inurba_marseille","lat":43.26558,"lon":5.37286,"is_reserved":false,"is_disabled":false,"rental_uris":{"android":"levelo://app?vid=22427c5b-820c-4b15-9031-d50bac4cfc8b","ios":"levelo://app?vid=22427c5b-820c-4b15-9031-d50bac4cfc8b"},"vehicle_type_id":"4","last_reported":1736604487,"current_range_meters":36800,"station_id":"ce4bhg12rcd13ifvqf70","pricing_plan_id":"cebpf4jnsgd1na2vs0mg"},{"bike_id":"5acc867e-f922-47c6-b8ae-054333bf079b","system_id":"levelo_inurba_marseille","lat":43.27205,"lon":5.39183,"is_reserved":false,"is_disabled":false,"rental_uris":{"android":"levelo://app?vid=5acc867e-f922-47c6-b8ae-054333bf079b","ios":"levelo://app?vid=5acc867e-f922-47c6-b8ae-054333bf079b"},"vehicle_type_id":"4","last_reported":1736604487,"current_range_meters":36400,"station_id":"ce4bhhp2rcd13ifvqfm0","pricing_plan_id":"cebpf4jnsgd1na2vs0mg"},{"bike_id":"f34fc04b-b351-4ac8-a47c-a2006c27444b","system_id":"levelo_inurba_marseille","lat":43.31534,"lon":5.38032,"is_reserved":false,"is_disabled":true,"rental_uris":{"android":"levelo://app?vid=f34fc04b-b351-4ac8-a47c-a2006c27444b","ios":"levelo://app?vid=f34fc04b-b351-4ac8-a47c-a2006c27444b"},"vehicle_type_id":"4","last_reported":1736604487,"current_range_meters":25200,"station_id":"ce4bhsp2rcd13ifvqi50","pricing_plan_id":"cebpf4jnsgd1na2vs0mg"},{"bike_id":"d2ff887b-198f-4a48-b3f7-d6c06a3e71c1","system_id":"levelo_inurba_marseille","lat":43.308,"lon":5.43523,"is_reserved":false,"is_disabled":false,"rental_uris":{"android":"levelo://app?vid=d2ff887b-198f-4a48-b3f7-d6c06a3e71c1","ios":"levelo://app?vid=d2ff887b-198f-4a48-b3f7-d6c06a3e71c1"},"vehicle_type_id":"4","last_reported":1736604487,"current_range_meters":39200,"station_id":"ce4bhph2rcd13ifvqheg","pricing_plan_id":"cebpf4jnsgd1na2vs0mg"},{"bike_id":"f9c402fa-3b28-4e61-afb4-5446ea4ebade","system_id":"levelo_inurba_marseille","lat":43.27612,"lon":5.3611,"is_reserved":false,"is_disabled":false,"rental_uris":{"android":"levelo://app?vid=f9c402fa-3b28-4e61-afb4-5446ea4ebade","ios":"levelo://app?vid=f9c402fa-3b28-4e61-afb4-5446ea4ebade"},"vehicle_type_id":"4","last_reported":1736604487,"current_range_meters":32400,"station_id":"ce4bgj92rcd13ifvqbe0","pricing_plan_id":"cebpf4jnsgd1na2vs0mg"},{"bike_id":"138a2cc5-596d-46d7-ad0b-b1a909948621","system_id":"levelo_inurba_marseille","lat":43.2621,"lon":5.37444,"is_reserved":false,"is_disabled":false,"rental_uris":{"android":"levelo://app?vid=138a2cc5-596d-46d7-ad0b-b1a909948621","ios":"levelo://app?vid=138a2cc5-596d-46d7-ad0b-b1a909948621"},"vehicle_type_id":"4","last_reported":1736604487,"current_range_meters":28800,"station_id":"ce4bhgp2rcd13ifvqfc0","pricing_plan_id":"cebpf4jnsgd1na2vs0mg"},{"bike_id":"07b8b9a3-a564-434b-90a6-202790eb4cd3","system_id":"levelo_inurba_marseille","lat":43.3052,"lon":5.36495,"is_reserved":false,"is_disabled":false,"rental_uris":{"android":"levelo://app?vid=07b8b9a3-a564-434b-90a6-202790eb4cd3","ios":"levelo://app?vid=07b8b9a3-a564-434b-90a6-202790eb4cd3"},"vehicle_type_id":"4","last_reported":1736604487,"current_range_meters":39200,"station_id":"ce4bgs12rcd13ifvqcag","pricing_plan_id":"cebpf4jnsgd1na2vs0mg"},{"bike_id":"d04cd2d1-575e-479a-80df-de9a65c1551d","system_id":"levelo_inurba_marseille","lat":43.27373,"lon":5.36256,"is_reserved":false,"is_disabled":false,"rental_uris":{"android":"levelo://app?vid=d04cd2d1-575e-479a-80df-de9a65c1551d","ios":"levelo://app?vid=d04cd2d1-575e-479a-80df-de9a65c1551d"},"vehicle_type_id":"4","last_reported":1736604487,"current_range_meters":32800,"station_id":"ce4bhbh2rcd13ifvqeo0","pricing_plan_id":"cebpf4jnsgd1na2vs0mg"},{"bike_id":"9d19643c-d149-49be-bc25-949474e6e069","system_id":"levelo_inurba_marseille","lat":43.29024,"lon":5.3813,"is_reserved":false,"is_disabled":true,"rental_uris":{"android":"levelo://app?vid=9d19643c-d149-49be-bc25-949474e6e069","ios":"levelo://app?vid=9d19643c-d149-49be-bc25-949474e6e069"},"vehicle_type_id":"4","last_reported":1736604487,"current_range_meters":38800,"station_id":"ce4bh4p2rcd13ifvqe1g","pricing_plan_id":"cebpf4jnsgd1na2vs0mg"},{"bike_id":"9036add8-c7a0-4f2a-9c89-c0ef00edac80","system_id":"levelo_inurba_marseille","lat":43.28358,"lon":5.38094,"is_reserved":false,"is_disabled":true,"rental_uris":{"android":"levelo://app?vid=9036add8-c7a0-4f2a-9c89-c0ef00edac80","ios":"levelo://app?vid=9036add8-c7a0-4f2a-9c89-c0ef00edac80"},"vehicle_type_id":"4","last_reported":1736604487,"current_range_meters":1600,"station_id":"ce4bh412rcd13ifvqdr0","pricing_plan_id":"cebpf4jnsgd1na2vs0mg"},{"bike_id":"1ff4d6af-d168-4206-80a1-8f85ab0c0a00","system_id":"levelo_inurba_marseille","lat":43.25858,"lon":5.39896,"is_reserved":false,"is_disabled":true,"rental_uris":{"android":"levelo://app?vid=1ff4d6af-d168-4206-80a1-8f85ab0c0a00","ios":"levelo://app?vid=1ff4d6af-d168-4206-80a1-8f85ab0c0a00"},"vehicle_type_id":"4","last_reported":1736604487,"current_range_meters":17600,"station_id":"ce4bhl92rcd13ifvqghg","pricing_plan_id":"cebpf4jnsgd1na2vs0mg"},{"bike_id":"86abeea7-c434-4e10-8df8-12c24097eeb0","system_id":"levelo_inurba_marseille","lat":43.30428,"lon":5.39723,"is_reserved":false,"is_disabled":true,"rental_uris":{"android":"levelo://app?vid=86abeea7-c434-4e10-8df8-12c24097eeb0","ios":"levelo://app?vid=86abeea7-c434-4e10-8df8-12c24097eeb0"},"vehicle_type_id":"4","last_reported":1736604487,"current_range_meters":28800,"station_id":"ce4bh092rcd13ifvqd20","pricing_plan_id":"cebpf4jnsgd1na2vs0mg"},{"bike_id":"be09db7c-c08b-4e39-b5ac-7bb644d97b96","system_id":"levelo_inurba_marseille","lat":43.2783,"lon":5.39217,"is_reserved":false,"is_disabled":false,"rental_uris":{"android":"levelo://app?vid=be09db7c-c08b-4e39-b5ac-7bb644d97b96","ios":"levelo://app?vid=be09db7c-c08b-4e39-b5ac-7bb644d97b96"},"vehicle_type_id":"4","last_reported":1736604487,"current_range_meters":38000,"station_id":"ce4bhjp2rcd13ifvqga0","pricing_plan_id":"cebpf4jnsgd1na2vs0mg"},{"bike_id":"b83a81d3-5f39-4c0c-8b11-a9b102a1e985","system_id":"levelo_inurba_marseille","lat":43.27212,"lon":5.39196,"is_reserved":false,"is_disabled":false,"rental_uris":{"android":"levelo://app?vid=b83a81d3-5f39-4c0c-8b11-a9b102a1e985","ios":"levelo://app?vid=b83a81d3-5f39-4c0c-8b11-a9b102a1e985"},"vehicle_type_id":"4","last_reported":1736604487,"current_range_meters":4000,"station_id":"ce4bhhp2rcd13ifvqfm0","pricing_plan_id":"cebpf4jnsgd1na2vs0mg"},{"bike_id":"10f7d31a-ef8d-4e8a-acbf-8aa9a8c72143","system_id":"levelo_inurba_marseille","lat":43.24391,"lon":5.3708,"is_reserved":false,"is_disabled":false,"rental_uris":{"android":"levelo://app?vid=10f7d31a-ef8d-4e8a-acbf-8aa9a8c72143","ios":"levelo://app?vid=10f7d31a-ef8d-4e8a-acbf-8aa9a8c72143"},"vehicle_type_id":"4","last_reported":1736604487,"current_range_meters":17600,"station_id":"ce4bhhh2rcd13ifvqfk0","pricing_plan_id":"cebpf4jnsgd1na2vs0mg"},{"bike_id":"1fedc598-f70f-4c41-a2c3-d78b434b4e36","system_id":"levelo_inurba_marseille","lat":43.26189,"lon":5.37455,"is_reserved":false,"is_disabled":false,"rental_uris":{"android":"levelo://app?vid=1fedc598-f70f-4c41-a2c3-d78b434b4e36","ios":"levelo://app?vid=1fedc598-f70f-4c41-a2c3-d78b434b4e36"},"vehicle_type_id":"4","last_reported":1736604487,"current_range_meters":24800,"station_id":"ce4bhgp2rcd13ifvqfc0","pricing_plan_id":"cebpf4jnsgd1na2vs0mg"},{"bike_id":"ff36ae8f-3017-44ad-98c9-a0c43a0fd6d4","system_id":"levelo_inurba_marseille","lat":43.291,"lon":5.38126,"is_reserved":false,"is_disabled":false,"rental_uris":{"android":"levelo://app?vid=ff36ae8f-3017-44ad-98c9-a0c43a0fd6d4","ios":"levelo://app?vid=ff36ae8f-3017-44ad-98c9-a0c43a0fd6d4"},"vehicle_type_id":"4","last_reported":1736604487,"current_range_meters":38000,"station_id":"ce4bh512rcd13ifvqe2g","pricing_plan_id":"cebpf4jnsgd1na2vs0mg"},{"bike_id":"1bff2bac-4883-4019-adbe-2dc598af8aad","system_id":"levelo_inurba_marseille","lat":43.274151,"lon":5.393931,"is_reserved":false,"is_disabled":true,"rental_uris":{"android":"levelo://app?vid=1bff2bac-4883-4019-adbe-2dc598af8aad","ios":"levelo://app?vid=1bff2bac-4883-4019-adbe-2dc598af8aad"},"vehicle_type_id":"4","last_reported":1736604487,"current_range_meters":28400,"station_id":"ce4bhdp2rcd13ifvqf20","pricing_plan_id":"cebpf4jnsgd1na2vs0mg"},{"bike_id":"ae29e0de-7b5a-45d6-ace3-313c5e88010a","system_id":"levelo_inurba_marseille","lat":43.27904,"lon":5.41709,"is_reserved":false,"is_disabled":true,"rental_uris":{"android":"levelo://app?vid=ae29e0de-7b5a-45d6-ace3-313c5e88010a","ios":"levelo://app?vid=ae29e0de-7b5a-45d6-ace3-313c5e88010a"},"vehicle_type_id":"4","last_reported":1736604487,"current_range_meters":400,"station_id":"ce4bho12rcd13ifvqh1g","pricing_plan_id":"cebpf4jnsgd1na2vs0mg"},{"bike_id":"931d873d-7c0f-44bb-bab3-92c6d2a6e163","system_id":"levelo_inurba_marseille","lat":43.276621,"lon":5.389108,"is_reserved":false,"is_disabled":false,"rental_uris":{"android":"levelo://app?vid=931d873d-7c0f-44bb-bab3-92c6d2a6e163","ios":"levelo://app?vid=931d873d-7c0f-44bb-bab3-92c6d2a6e163"},"vehicle_type_id":"4","last_reported":1736604487,"current_range_meters":36400,"station_id":"ce4bhi12rcd13ifvqfo0","pricing_plan_id":"cebpf4jnsgd1na2vs0mg"},{"bike_id":"572f0254-11cf-4ef2-b3f9-66737ed8298a","system_id":"levelo_inurba_marseille","lat":43.28429,"lon":5.35003,"is_reserved":false,"is_disabled":true,"rental_uris":{"android":"levelo://app?vid=572f0254-11cf-4ef2-b3f9-66737ed8298a","ios":"levelo://app?vid=572f0254-11cf-4ef2-b3f9-66737ed8298a"},"vehicle_type_id":"4","last_reported":1736604487,"current_range_meters":0,"station_id":"ce4bhbh2rcd13ifvqepg","pricing_plan_id":"cebpf4jnsgd1na2vs0mg"},{"bike_id":"5bdd2038-029f-4df4-bc54-4e134e223773","system_id":"levelo_inurba_marseille","lat":43.27665,"lon":5.3887,"is_reserved":false,"is_disabled":false,"rental_uris":{"android":"levelo://app?vid=5bdd2038-029f-4df4-bc54-4e134e223773","ios":"levelo://app?vid=5bdd2038-029f-4df4-bc54-4e134e223773"},"vehicle_type_id":"4","last_reported":1736604487,"current_range_meters":5600,"station_id":"ce4bhi12rcd13ifvqfo0","pricing_plan_id":"cebpf4jnsgd1na2vs0mg"},{"bike_id":"d2a3646f-410b-4c71-b1c9-6faf46be44c7","system_id":"levelo_inurba_marseille","lat":43.29547,"lon":5.42282,"is_reserved":false,"is_disabled":false,"rental_uris":{"android":"levelo://app?vid=d2a3646f-410b-4c71-b1c9-6faf46be44c7","ios":"levelo://app?vid=d2a3646f-410b-4c71-b1c9-6faf46be44c7"},"vehicle_type_id":"4","last_reported":1736604487,"current_range_meters":38800,"station_id":"ce4bhph2rcd13ifvqhdg","pricing_plan_id":"cebpf4jnsgd1na2vs0mg"},{"bike_id":"517842b4-006c-4e7f-8540-9a333914c9eb","system_id":"levelo_inurba_marseille","lat":43.27976,"lon":5.40014,"is_reserved":false,"is_disabled":false,"rental_uris":{"android":"levelo://app?vid=517842b4-006c-4e7f-8540-9a333914c9eb","ios":"levelo://app?vid=517842b4-006c-4e7f-8540-9a333914c9eb"},"vehicle_type_id":"4","last_reported":1736604487,"current_range_meters":17200,"station_id":"ce4bho92rcd13ifvqh4g","pricing_plan_id":"cebpf4jnsgd1na2vs0mg"},{"bike_id":"25dc6faf-85ce-4986-b44d-1099f0350546","system_id":"levelo_inurba_marseille","lat":43.28486,"lon":5.38414,"is_reserved":false,"is_disabled":false,"rental_uris":{"android":"levelo://app?vid=25dc6faf-85ce-4986-b44d-1099f0350546","ios":"levelo://app?vid=25dc6faf-85ce-4986-b44d-1099f0350546"},"vehicle_type_id":"4","last_reported":1736604487,"current_range_meters":12800,"station_id":"ce4bh512rcd13ifvqe3g","pricing_plan_id":"cebpf4jnsgd1na2vs0mg"},{"bike_id":"cd98288c-6ca0-48e3-a655-eb48b6b18cba","system_id":"levelo_inurba_marseille","lat":43.27708,"lon":5.38908,"is_reserved":false,"is_disabled":false,"rental_uris":{"android":"levelo://app?vid=cd98288c-6ca0-48e3-a655-eb48b6b18cba","ios":"levelo://app?vid=cd98288c-6ca0-48e3-a655-eb48b6b18cba"},"vehicle_type_id":"4","last_reported":1736604487,"current_range_meters":38800,"station_id":"ce4bhi12rcd13ifvqfo0","pricing_plan_id":"cebpf4jnsgd1na2vs0mg"},{"bike_id":"87b2a9d6-51a0-4005-9bed-2205b6aeb2b1","system_id":"levelo_inurba_marseille","lat":43.24068,"lon":5.37758,"is_reserved":false,"is_disabled":false,"rental_uris":{"android":"levelo://app?vid=87b2a9d6-51a0-4005-9bed-2205b6aeb2b1","ios":"levelo://app?vid=87b2a9d6-51a0-4005-9bed-2205b6aeb2b1"},"vehicle_type_id":"4","last_reported":1736604487,"current_range_meters":39200,"station_id":"ce4bhnp2rcd13ifvqgvg","pricing_plan_id":"cebpf4jnsgd1na2vs0mg"},{"bike_id":"2af0db1c-b78d-4f11-84f5-1058c38073b8","system_id":"levelo_inurba_marseille","lat":43.30205,"lon":5.39467,"is_reserved":false,"is_disabled":false,"rental_uris":{"android":"levelo://app?vid=2af0db1c-b78d-4f11-84f5-1058c38073b8","ios":"levelo://app?vid=2af0db1c-b78d-4f11-84f5-1058c38073b8"},"vehicle_type_id":"4","last_reported":1736604487,"current_range_meters":19200,"station_id":"ce4bh0p2rcd13ifvqd70","pricing_plan_id":"cebpf4jnsgd1na2vs0mg"},{"bike_id":"bc624fca-1286-42f8-b873-f9e63f2ded01","system_id":"levelo_inurba_marseille","lat":43.30956,"lon":5.39037,"is_reserved":false,"is_disabled":false,"rental_uris":{"android":"levelo://app?vid=bc624fca-1286-42f8-b873-f9e63f2ded01","ios":"levelo://app?vid=bc624fca-1286-42f8-b873-f9e63f2ded01"},"vehicle_type_id":"4","last_reported":1736604487,"current_range_meters":19600,"station_id":"ce4bgup2rcd13ifvqco0","pricing_plan_id":"cebpf4jnsgd1na2vs0mg"},{"bike_id":"65e8b99d-cb00-44f8-a57f-7740743f51e0","system_id":"levelo_inurba_marseille","lat":43.24994,"lon":5.38939,"is_reserved":false,"is_disabled":true,"rental_uris":{"android":"levelo://app?vid=65e8b99d-cb00-44f8-a57f-7740743f51e0","ios":"levelo://app?vid=65e8b99d-cb00-44f8-a57f-7740743f51e0"},"vehicle_type_id":"4","last_reported":1736604487,"current_range_meters":32000,"station_id":"ce4bhgp2rcd13ifvqfd0","pricing_plan_id":"cebpf4jnsgd1na2vs0mg"},{"bike_id":"e7bed24c-76b8-4bfe-8ea5-51efa81df6c2","system_id":"levelo_inurba_marseille","lat":43.27491,"lon":5.42459,"is_reserved":false,"is_disabled":true,"rental_uris":{"android":"levelo://app?vid=e7bed24c-76b8-4bfe-8ea5-51efa81df6c2","ios":"levelo://app?vid=e7bed24c-76b8-4bfe-8ea5-51efa81df6c2"},"vehicle_type_id":"4","last_reported":1736604487,"current_range_meters":0,"station_id":"ce4bhn92rcd13ifvqgrg","pricing_plan_id":"cebpf4jnsgd1na2vs0mg"},{"bike_id":"33c1aab9-e8c6-4dd0-a4c1-4a0d16b5de56","system_id":"levelo_inurba_marseille","lat":43.30212,"lon":5.39467,"is_reserved":false,"is_disabled":false,"rental_uris":{"android":"levelo://app?vid=33c1aab9-e8c6-4dd0-a4c1-4a0d16b5de56","ios":"levelo://app?vid=33c1aab9-e8c6-4dd0-a4c1-4a0d16b5de56"},"vehicle_type_id":"4","last_reported":1736604487,"current_range_meters":39200,"station_id":"ce4bh0p2rcd13ifvqd70","pricing_plan_id":"cebpf4jnsgd1na2vs0mg"},{"bike_id":"a4de5071-dd1c-452c-a877-311a543c6eda","system_id":"levelo_inurba_marseille","lat":43.23151,"lon":5.43728,"is_reserved":false,"is_disabled":false,"rental_uris":{"android":"levelo://app?vid=a4de5071-dd1c-452c-a877-311a543c6eda","ios":"levelo://app?vid=a4de5071-dd1c-452c-a877-311a543c6eda"},"vehicle_type_id":"4","last_reported":1736604487,"current_range_meters":39200,"station_id":"ce4bhmp2rcd13ifvqgog","pricing_plan_id":"cebpf4jnsgd1na2vs0mg"},{"bike_id":"814abafe-7099-4ffd-9d3a-d164e15be7d4","system_id":"levelo_inurba_marseille","lat":43.28375,"lon":5.38623,"is_reserved":false,"is_disabled":false,"rental_uris":{"android":"levelo://app?vid=814abafe-7099-4ffd-9d3a-d164e15be7d4","ios":"levelo://app?vid=814abafe-7099-4ffd-9d3a-d164e15be7d4"},"vehicle_type_id":"4","last_reported":1736604487,"current_range_meters":39200,"station_id":"ce4bh492rcd13ifvqdvg","pricing_plan_id":"cebpf4jnsgd1na2vs0mg"},{"bike_id":"b704bf42-2bc7-4506-b669-8ca7a3330fef","system_id":"levelo_inurba_marseille","lat":43.28171,"lon":5.42628,"is_reserved":false,"is_disabled":true,"rental_uris":{"android":"levelo://app?vid=b704bf42-2bc7-4506-b669-8ca7a3330fef","ios":"levelo://app?vid=b704bf42-2bc7-4506-b669-8ca7a3330fef"},"vehicle_type_id":"4","last_reported":1736604487,"current_range_meters":32000,"station_id":"ce4bhnh2rcd13ifvqgug","pricing_plan_id":"cebpf4jnsgd1na2vs0mg"},{"bike_id":"cf1439c9-41e6-46d1-aa0b-8284bdbf1d1b","system_id":"levelo_inurba_marseille","lat":43.29871,"lon":5.39732,"is_reserved":false,"is_disabled":false,"rental_uris":{"android":"levelo://app?vid=cf1439c9-41e6-46d1-aa0b-8284bdbf1d1b","ios":"levelo://app?vid=cf1439c9-41e6-46d1-aa0b-8284bdbf1d1b"},"vehicle_type_id":"4","last_reported":1736604487,"current_range_meters":35600,"station_id":"ce4bh0h2rcd13ifvqd50","pricing_plan_id":"cebpf4jnsgd1na2vs0mg"},{"bike_id":"0e5cdb80-4434-4e90-aaf0-0fa5d0f7917d","system_id":"levelo_inurba_marseille","lat":43.30959,"lon":5.39052,"is_reserved":false,"is_disabled":false,"rental_uris":{"android":"levelo://app?vid=0e5cdb80-4434-4e90-aaf0-0fa5d0f7917d","ios":"levelo://app?vid=0e5cdb80-4434-4e90-aaf0-0fa5d0f7917d"},"vehicle_type_id":"4","last_reported":1736604487,"current_range_meters":38800,"station_id":"ce4bgup2rcd13ifvqco0","pricing_plan_id":"cebpf4jnsgd1na2vs0mg"},{"bike_id":"ec8dd450-04ec-424a-9b75-485ea37729d9","system_id":"levelo_inurba_marseille","lat":43.28359,"lon":5.38095,"is_reserved":false,"is_disabled":true,"rental_uris":{"android":"levelo://app?vid=ec8dd450-04ec-424a-9b75-485ea37729d9","ios":"levelo://app?vid=ec8dd450-04ec-424a-9b75-485ea37729d9"},"vehicle_type_id":"4","last_reported":1736604487,"current_range_meters":400,"station_id":"ce4bh412rcd13ifvqdr0","pricing_plan_id":"cebpf4jnsgd1na2vs0mg"},{"bike_id":"c25c5964-08be-41c1-a317-052d00cc2a92","system_id":"levelo_inurba_marseille","lat":43.31178,"lon":5.38719,"is_reserved":false,"is_disabled":false,"rental_uris":{"android":"levelo://app?vid=c25c5964-08be-41c1-a317-052d00cc2a92","ios":"levelo://app?vid=c25c5964-08be-41c1-a317-052d00cc2a92"},"vehicle_type_id":"4","last_reported":1736604487,"current_range_meters":29600,"station_id":"ce4bgv12rcd13ifvqcp0","pricing_plan_id":"cebpf4jnsgd1na2vs0mg"},{"bike_id":"16a686d8-5f08-4b2e-994d-4f394baa716e","system_id":"levelo_inurba_marseille","lat":43.2467,"lon":5.38159,"is_reserved":false,"is_disabled":false,"rental_uris":{"android":"levelo://app?vid=16a686d8-5f08-4b2e-994d-4f394baa716e","ios":"levelo://app?vid=16a686d8-5f08-4b2e-994d-4f394baa716e"},"vehicle_type_id":"4","last_reported":1736604487,"current_range_meters":7200,"station_id":"ce4bhih2rcd13ifvqfr0","pricing_plan_id":"cebpf4jnsgd1na2vs0mg"},{"bike_id":"f62a7ed4-7c80-4ed8-9568-a4dea62069d1","system_id":"levelo_inurba_marseille","lat":43.28082,"lon":5.39654,"is_reserved":false,"is_disabled":true,"rental_uris":{"android":"levelo://app?vid=f62a7ed4-7c80-4ed8-9568-a4dea62069d1","ios":"levelo://app?vid=f62a7ed4-7c80-4ed8-9568-a4dea62069d1"},"vehicle_type_id":"4","last_reported":1736604487,"current_range_meters":37600,"station_id":"ce4bho12rcd13ifvqh2g","pricing_plan_id":"cebpf4jnsgd1na2vs0mg"},{"bike_id":"e2744ec8-2f1a-4025-9ec0-6a07f5db3fc4","system_id":"levelo_inurba_marseille","lat":43.25508,"lon":5.37659,"is_reserved":false,"is_disabled":false,"rental_uris":{"android":"levelo://app?vid=e2744ec8-2f1a-4025-9ec0-6a07f5db3fc4","ios":"levelo://app?vid=e2744ec8-2f1a-4025-9ec0-6a07f5db3fc4"},"vehicle_type_id":"4","last_reported":1736604487,"current_range_meters":39200,"station_id":"ce4bhh12rcd13ifvqff0","pricing_plan_id":"cebpf4jnsgd1na2vs0mg"},{"bike_id":"ad824709-8a34-46bc-ad92-951a3fc2a1cf","system_id":"levelo_inurba_marseille","lat":43.29006,"lon":5.35618,"is_reserved":false,"is_disabled":false,"rental_uris":{"android":"levelo://app?vid=ad824709-8a34-46bc-ad92-951a3fc2a1cf","ios":"levelo://app?vid=ad824709-8a34-46bc-ad92-951a3fc2a1cf"},"vehicle_type_id":"4","last_reported":1736604487,"current_range_meters":38800,"station_id":"ce4bhb92rcd13ifvqen0","pricing_plan_id":"cebpf4jnsgd1na2vs0mg"},{"bike_id":"88b9fc2d-c8a2-4570-bdbb-17ee4c5ee58e","system_id":"levelo_inurba_marseille","lat":43.30543,"lon":5.36697,"is_reserved":false,"is_disabled":false,"rental_uris":{"android":"levelo://app?vid=88b9fc2d-c8a2-4570-bdbb-17ee4c5ee58e","ios":"levelo://app?vid=88b9fc2d-c8a2-4570-bdbb-17ee4c5ee58e"},"vehicle_type_id":"4","last_reported":1736604487,"current_range_meters":24800,"station_id":"ce4bgrp2rcd13ifvqc9g","pricing_plan_id":"cebpf4jnsgd1na2vs0mg"},{"bike_id":"fd344cff-090d-4c27-8236-d77bef291b66","system_id":"levelo_inurba_marseille","lat":43.2845,"lon":5.39194,"is_reserved":false,"is_disabled":false,"rental_uris":{"android":"levelo://app?vid=fd344cff-090d-4c27-8236-d77bef291b66","ios":"levelo://app?vid=fd344cff-090d-4c27-8236-d77bef291b66"},"vehicle_type_id":"4","last_reported":1736604487,"current_range_meters":32000,"station_id":"ce4bhoh2rcd13ifvqh5g","pricing_plan_id":"cebpf4jnsgd1na2vs0mg"},{"bike_id":"7ee1c4d2-bf0f-4f78-8afb-2eaa43b7970f","system_id":"levelo_inurba_marseille","lat":43.23156,"lon":5.437005,"is_reserved":false,"is_disabled":false,"rental_uris":{"android":"levelo://app?vid=7ee1c4d2-bf0f-4f78-8afb-2eaa43b7970f","ios":"levelo://app?vid=7ee1c4d2-bf0f-4f78-8afb-2eaa43b7970f"},"vehicle_type_id":"4","last_reported":1736604487,"current_range_meters":11200,"station_id":"ce4bhmp2rcd13ifvqgog","pricing_plan_id":"cebpf4jnsgd1na2vs0mg"},{"bike_id":"954b128e-8a09-4b68-88fa-c9fd5aace058","system_id":"levelo_inurba_marseille","lat":43.25118,"lon":5.40323,"is_reserved":false,"is_disabled":false,"rental_uris":{"android":"levelo://app?vid=954b128e-8a09-4b68-88fa-c9fd5aace058","ios":"levelo://app?vid=954b128e-8a09-4b68-88fa-c9fd5aace058"},"vehicle_type_id":"4","last_reported":1736604487,"current_range_meters":26800,"station_id":"ce4bhlh2rcd13ifvqgig","pricing_plan_id":"cebpf4jnsgd1na2vs0mg"},{"bike_id":"c0089609-49bf-4e42-87b8-c13e48858e79","system_id":"levelo_inurba_marseille","lat":43.28076,"lon":5.39678,"is_reserved":false,"is_disabled":false,"rental_uris":{"android":"levelo://app?vid=c0089609-49bf-4e42-87b8-c13e48858e79","ios":"levelo://app?vid=c0089609-49bf-4e42-87b8-c13e48858e79"},"vehicle_type_id":"4","last_reported":1736604487,"current_range_meters":38800,"station_id":"ce4bho12rcd13ifvqh2g","pricing_plan_id":"cebpf4jnsgd1na2vs0mg"},{"bike_id":"31240ca4-9f64-4406-9c52-14b4354e548c","system_id":"levelo_inurba_marseille","lat":43.28618,"lon":5.3511,"is_reserved":false,"is_disabled":false,"rental_uris":{"android":"levelo://app?vid=31240ca4-9f64-4406-9c52-14b4354e548c","ios":"levelo://app?vid=31240ca4-9f64-4406-9c52-14b4354e548c"},"vehicle_type_id":"4","last_reported":1736604487,"current_range_meters":38800,"station_id":"ce4bhch2rcd13ifvqeug","pricing_plan_id":"cebpf4jnsgd1na2vs0mg"},{"bike_id":"fccc43ba-f4e7-4d77-83a3-88d7bee38766","system_id":"levelo_inurba_marseille","lat":43.29226,"lon":5.36075,"is_reserved":false,"is_disabled":false,"rental_uris":{"android":"levelo://app?vid=fccc43ba-f4e7-4d77-83a3-88d7bee38766","ios":"levelo://app?vid=fccc43ba-f4e7-4d77-83a3-88d7bee38766"},"vehicle_type_id":"4","last_reported":1736604487,"current_range_meters":22400,"station_id":"ce4bhbh2rcd13ifvqeqg","pricing_plan_id":"cebpf4jnsgd1na2vs0mg"},{"bike_id":"e852a9e7-a797-4614-b49f-5b0fd280197a","system_id":"levelo_inurba_marseille","lat":43.32497,"lon":5.38317,"is_reserved":false,"is_disabled":false,"rental_uris":{"android":"levelo://app?vid=e852a9e7-a797-4614-b49f-5b0fd280197a","ios":"levelo://app?vid=e852a9e7-a797-4614-b49f-5b0fd280197a"},"vehicle_type_id":"4","last_reported":1736604487,"current_range_meters":38000,"station_id":"","pricing_plan_id":"cebpf4jnsgd1na2vs0mg"},{"bike_id":"a5e0dc49-0174-4a8e-b087-e337f53d81df","system_id":"levelo_inurba_marseille","lat":43.23182,"lon":5.3998,"is_reserved":false,"is_disabled":true,"rental_uris":{"android":"levelo://app?vid=a5e0dc49-0174-4a8e-b087-e337f53d81df","ios":"levelo://app?vid=a5e0dc49-0174-4a8e-b087-e337f53d81df"},"vehicle_type_id":"4","last_reported":1736604487,"current_range_meters":400,"station_id":"ce4bhn12rcd13ifvqgqg","pricing_plan_id":"cebpf4jnsgd1na2vs0mg"},{"bike_id":"4e0ef48f-522a-48e2-be76-c8bb9b7fe6c7","system_id":"levelo_inurba_marseille","lat":43.30313,"lon":5.36901,"is_reserved":false,"is_disabled":false,"rental_uris":{"android":"levelo://app?vid=4e0ef48f-522a-48e2-be76-c8bb9b7fe6c7","ios":"levelo://app?vid=4e0ef48f-522a-48e2-be76-c8bb9b7fe6c7"},"vehicle_type_id":"4","last_reported":1736604487,"current_range_meters":38800,"station_id":"ce4bgqh2rcd13ifvqc5g","pricing_plan_id":"cebpf4jnsgd1na2vs0mg"},{"bike_id":"1e2223a2-c032-49e7-8dbf-982df86a0520","system_id":"levelo_inurba_marseille","lat":43.22932,"lon":5.35376,"is_reserved":false,"is_disabled":false,"rental_uris":{"android":"levelo://app?vid=1e2223a2-c032-49e7-8dbf-982df86a0520","ios":"levelo://app?vid=1e2223a2-c032-49e7-8dbf-982df86a0520"},"vehicle_type_id":"4","last_reported":1736604487,"current_range_meters":28400,"station_id":"cpo3532slgdg3j2ikp40","pricing_plan_id":"cebpf4jnsgd1na2vs0mg"},{"bike_id":"d28f80db-1140-4bd2-8bf1-16f3f10f9e61","system_id":"levelo_inurba_marseille","lat":43.31229,"lon":5.36839,"is_reserved":false,"is_disabled":false,"rental_uris":{"android":"levelo://app?vid=d28f80db-1140-4bd2-8bf1-16f3f10f9e61","ios":"levelo://app?vid=d28f80db-1140-4bd2-8bf1-16f3f10f9e61"},"vehicle_type_id":"4","last_reported":1736604487,"current_range_meters":35600,"station_id":"ce4bgl92rcd13ifvqbq0","pricing_plan_id":"cebpf4jnsgd1na2vs0mg"},{"bike_id":"540fad5b-d975-43cc-b386-6dd08caf613c","system_id":"levelo_inurba_marseille","lat":43.24072,"lon":5.37751,"is_reserved":false,"is_disabled":true,"rental_uris":{"android":"levelo://app?vid=540fad5b-d975-43cc-b386-6dd08caf613c","ios":"levelo://app?vid=540fad5b-d975-43cc-b386-6dd08caf613c"},"vehicle_type_id":"4","last_reported":1736604487,"current_range_meters":400,"station_id":"ce4bhnp2rcd13ifvqgvg","pricing_plan_id":"cebpf4jnsgd1na2vs0mg"},{"bike_id":"5f2cf356-122a-4d24-85ba-e38bc4612223","system_id":"levelo_inurba_marseille","lat":43.25585,"lon":5.38243,"is_reserved":false,"is_disabled":true,"rental_uris":{"android":"levelo://app?vid=5f2cf356-122a-4d24-85ba-e38bc4612223","ios":"levelo://app?vid=5f2cf356-122a-4d24-85ba-e38bc4612223"},"vehicle_type_id":"4","last_reported":1736604487,"current_range_meters":33200,"station_id":"ce4bhih2rcd13ifvqfs0","pricing_plan_id":"cebpf4jnsgd1na2vs0mg"},{"bike_id":"be8a233f-ad85-41b2-af03-bfa1e3033438","system_id":"levelo_inurba_marseille","lat":43.23198,"lon":5.35552,"is_reserved":false,"is_disabled":false,"rental_uris":{"android":"levelo://app?vid=be8a233f-ad85-41b2-af03-bfa1e3033438","ios":"levelo://app?vid=be8a233f-ad85-41b2-af03-bfa1e3033438"},"vehicle_type_id":"4","last_reported":1736604487,"current_range_meters":19200,"station_id":"ce4bhu92rcd13ifvqi70","pricing_plan_id":"cebpf4jnsgd1na2vs0mg"},{"bike_id":"d7284d59-0fa0-4e55-88c3-9102035d8a99","system_id":"levelo_inurba_marseille","lat":43.30242,"lon":5.4006,"is_reserved":false,"is_disabled":true,"rental_uris":{"android":"levelo://app?vid=d7284d59-0fa0-4e55-88c3-9102035d8a99","ios":"levelo://app?vid=d7284d59-0fa0-4e55-88c3-9102035d8a99"},"vehicle_type_id":"4","last_reported":1736604487,"current_range_meters":38800,"station_id":"ce4bgvh2rcd13ifvqcs0","pricing_plan_id":"cebpf4jnsgd1na2vs0mg"},{"bike_id":"6b2825b1-487a-4555-b90b-9fd19833cab0","system_id":"levelo_inurba_marseille","lat":43.30434,"lon":5.39759,"is_reserved":false,"is_disabled":false,"rental_uris":{"android":"levelo://app?vid=6b2825b1-487a-4555-b90b-9fd19833cab0","ios":"levelo://app?vid=6b2825b1-487a-4555-b90b-9fd19833cab0"},"vehicle_type_id":"4","last_reported":1736604487,"current_range_meters":16400,"station_id":"ce4bh092rcd13ifvqd20","pricing_plan_id":"cebpf4jnsgd1na2vs0mg"},{"bike_id":"2016ddbf-9a27-4973-8593-90d6c48f1463","system_id":"levelo_inurba_marseille","lat":43.24071,"lon":5.37764,"is_reserved":false,"is_disabled":false,"rental_uris":{"android":"levelo://app?vid=2016ddbf-9a27-4973-8593-90d6c48f1463","ios":"levelo://app?vid=2016ddbf-9a27-4973-8593-90d6c48f1463"},"vehicle_type_id":"4","last_reported":1736604487,"current_range_meters":17200,"station_id":"ce4bhnp2rcd13ifvqgvg","pricing_plan_id":"cebpf4jnsgd1na2vs0mg"},{"bike_id":"8242826e-ab20-43ea-95c1-e76b426a119e","system_id":"levelo_inurba_marseille","lat":43.33761,"lon":5.37426,"is_reserved":false,"is_disabled":false,"rental_uris":{"android":"levelo://app?vid=8242826e-ab20-43ea-95c1-e76b426a119e","ios":"levelo://app?vid=8242826e-ab20-43ea-95c1-e76b426a119e"},"vehicle_type_id":"4","last_reported":1736604487,"current_range_meters":14000,"station_id":"","pricing_plan_id":"cebpf4jnsgd1na2vs0mg"},{"bike_id":"57f5a8a9-f2e5-4673-966d-ca04b8d8c8e6","system_id":"levelo_inurba_marseille","lat":43.311084,"lon":5.377761,"is_reserved":false,"is_disabled":true,"rental_uris":{"android":"levelo://app?vid=57f5a8a9-f2e5-4673-966d-ca04b8d8c8e6","ios":"levelo://app?vid=57f5a8a9-f2e5-4673-966d-ca04b8d8c8e6"},"vehicle_type_id":"4","last_reported":1736604487,"current_range_meters":6800,"station_id":"ce4bgt92rcd13ifvqcg0","pricing_plan_id":"cebpf4jnsgd1na2vs0mg"},{"bike_id":"85427a88-99f5-4856-b496-8ef79c1ec2f5","system_id":"levelo_inurba_marseille","lat":43.24687,"lon":5.38171,"is_reserved":false,"is_disabled":false,"rental_uris":{"android":"levelo://app?vid=85427a88-99f5-4856-b496-8ef79c1ec2f5","ios":"levelo://app?vid=85427a88-99f5-4856-b496-8ef79c1ec2f5"},"vehicle_type_id":"4","last_reported":1736604487,"current_range_meters":33600,"station_id":"ce4bhih2rcd13ifvqfr0","pricing_plan_id":"cebpf4jnsgd1na2vs0mg"},{"bike_id":"b9187d71-fe07-45bd-b2ae-49577031a026","system_id":"levelo_inurba_marseille","lat":43.29007,"lon":5.35607,"is_reserved":false,"is_disabled":false,"rental_uris":{"android":"levelo://app?vid=b9187d71-fe07-45bd-b2ae-49577031a026","ios":"levelo://app?vid=b9187d71-fe07-45bd-b2ae-49577031a026"},"vehicle_type_id":"4","last_reported":1736604487,"current_range_meters":30000,"station_id":"ce4bhb92rcd13ifvqen0","pricing_plan_id":"cebpf4jnsgd1na2vs0mg"},{"bike_id":"a87af074-b65f-41a5-92b8-2c17276383e0","system_id":"levelo_inurba_marseille","lat":43.30319,"lon":5.40442,"is_reserved":false,"is_disabled":false,"rental_uris":{"android":"levelo://app?vid=a87af074-b65f-41a5-92b8-2c17276383e0","ios":"levelo://app?vid=a87af074-b65f-41a5-92b8-2c17276383e0"},"vehicle_type_id":"4","last_reported":1736604487,"current_range_meters":37600,"station_id":"ce4bh012rcd13ifvqd10","pricing_plan_id":"cebpf4jnsgd1na2vs0mg"},{"bike_id":"2ebbe722-1578-4260-86ec-9d078af85fb5","system_id":"levelo_inurba_marseille","lat":43.27089,"lon":5.42276,"is_reserved":false,"is_disabled":false,"rental_uris":{"android":"levelo://app?vid=2ebbe722-1578-4260-86ec-9d078af85fb5","ios":"levelo://app?vid=2ebbe722-1578-4260-86ec-9d078af85fb5"},"vehicle_type_id":"4","last_reported":1736604487,"current_range_meters":19600,"station_id":"ce4bhk92rcd13ifvqgb0","pricing_plan_id":"cebpf4jnsgd1na2vs0mg"},{"bike_id":"91291e8f-d824-472a-8638-bad6f379f32e","system_id":"levelo_inurba_marseille","lat":43.30495,"lon":5.38092,"is_reserved":false,"is_disabled":false,"rental_uris":{"android":"levelo://app?vid=91291e8f-d824-472a-8638-bad6f379f32e","ios":"levelo://app?vid=91291e8f-d824-472a-8638-bad6f379f32e"},"vehicle_type_id":"4","last_reported":1736604487,"current_range_meters":34000,"station_id":"","pricing_plan_id":"cebpf4jnsgd1na2vs0mg"},{"bike_id":"6f8d5613-68e8-453b-9903-0b6c2da05e2d","system_id":"levelo_inurba_marseille","lat":43.24167,"lon":5.36404,"is_reserved":false,"is_disabled":false,"rental_uris":{"android":"levelo://app?vid=6f8d5613-68e8-453b-9903-0b6c2da05e2d","ios":"levelo://app?vid=6f8d5613-68e8-453b-9903-0b6c2da05e2d"},"vehicle_type_id":"4","last_reported":1736604487,"current_range_meters":6800,"station_id":"cpo36qri1sfpv3e86is0","pricing_plan_id":"cebpf4jnsgd1na2vs0mg"},{"bike_id":"c7b1edc3-aee1-4c2c-aec8-8cfa209ca4bf","system_id":"levelo_inurba_marseille","lat":43.29017,"lon":5.3561,"is_reserved":false,"is_disabled":false,"rental_uris":{"android":"levelo://app?vid=c7b1edc3-aee1-4c2c-aec8-8cfa209ca4bf","ios":"levelo://app?vid=c7b1edc3-aee1-4c2c-aec8-8cfa209ca4bf"},"vehicle_type_id":"4","last_reported":1736604487,"current_range_meters":38800,"station_id":"ce4bhb92rcd13ifvqen0","pricing_plan_id":"cebpf4jnsgd1na2vs0mg"},{"bike_id":"ddbb6c22-ce6c-4a2b-9053-6349e4af3c9a","system_id":"levelo_inurba_marseille","lat":43.25871,"lon":5.39921,"is_reserved":false,"is_disabled":false,"rental_uris":{"android":"levelo://app?vid=ddbb6c22-ce6c-4a2b-9053-6349e4af3c9a","ios":"levelo://app?vid=ddbb6c22-ce6c-4a2b-9053-6349e4af3c9a"},"vehicle_type_id":"4","last_reported":1736604487,"current_range_meters":37600,"station_id":"ce4bhl92rcd13ifvqghg","pricing_plan_id":"cebpf4jnsgd1na2vs0mg"},{"bike_id":"4ea89943-560f-4480-a533-4fe6664bd873","system_id":"levelo_inurba_marseille","lat":43.26193,"lon":5.37452,"is_reserved":false,"is_disabled":false,"rental_uris":{"android":"levelo://app?vid=4ea89943-560f-4480-a533-4fe6664bd873","ios":"levelo://app?vid=4ea89943-560f-4480-a533-4fe6664bd873"},"vehicle_type_id":"4","last_reported":1736604487,"current_range_meters":19200,"station_id":"ce4bhgp2rcd13ifvqfc0","pricing_plan_id":"cebpf4jnsgd1na2vs0mg"},{"bike_id":"17a8896e-9a1b-48ed-9a17-244bc88bdbd9","system_id":"levelo_inurba_marseille","lat":43.2994,"lon":5.37636,"is_reserved":false,"is_disabled":false,"rental_uris":{"android":"levelo://app?vid=17a8896e-9a1b-48ed-9a17-244bc88bdbd9","ios":"levelo://app?vid=17a8896e-9a1b-48ed-9a17-244bc88bdbd9"},"vehicle_type_id":"4","last_reported":1736604487,"current_range_meters":27600,"station_id":"","pricing_plan_id":"cebpf4jnsgd1na2vs0mg"},{"bike_id":"b52cf5d7-d0ff-45b3-ac5b-ffe5c33591d4","system_id":"levelo_inurba_marseille","lat":43.23069,"lon":5.35479,"is_reserved":false,"is_disabled":false,"rental_uris":{"android":"levelo://app?vid=b52cf5d7-d0ff-45b3-ac5b-ffe5c33591d4","ios":"levelo://app?vid=b52cf5d7-d0ff-45b3-ac5b-ffe5c33591d4"},"vehicle_type_id":"4","last_reported":1736604487,"current_range_meters":3600,"station_id":"cpo3342slgdg3j2ifvpg","pricing_plan_id":"cebpf4jnsgd1na2vs0mg"},{"bike_id":"8b88170d-e695-4530-8583-a66b3ec41a93","system_id":"levelo_inurba_marseille","lat":43.3361,"lon":5.410278,"is_reserved":false,"is_disabled":true,"rental_uris":{"android":"levelo://app?vid=8b88170d-e695-4530-8583-a66b3ec41a93","ios":"levelo://app?vid=8b88170d-e695-4530-8583-a66b3ec41a93"},"vehicle_type_id":"4","last_reported":1736604487,"current_range_meters":11200,"station_id":"ce4bhqh2rcd13ifvqhmg","pricing_plan_id":"cebpf4jnsgd1na2vs0mg"},{"bike_id":"b8acbba0-a715-4ced-a2aa-0517db10ac9d","system_id":"levelo_inurba_marseille","lat":43.229263,"lon":5.353869,"is_reserved":false,"is_disabled":true,"rental_uris":{"android":"levelo://app?vid=b8acbba0-a715-4ced-a2aa-0517db10ac9d","ios":"levelo://app?vid=b8acbba0-a715-4ced-a2aa-0517db10ac9d"},"vehicle_type_id":"4","last_reported":1736604487,"current_range_meters":36400,"station_id":"cpo3532slgdg3j2ikp40","pricing_plan_id":"cebpf4jnsgd1na2vs0mg"},{"bike_id":"f7a5e165-5043-4ba0-b06c-270f257dffbd","system_id":"levelo_inurba_marseille","lat":43.27318,"lon":5.39111,"is_reserved":false,"is_disabled":false,"rental_uris":{"android":"levelo://app?vid=f7a5e165-5043-4ba0-b06c-270f257dffbd","ios":"levelo://app?vid=f7a5e165-5043-4ba0-b06c-270f257dffbd"},"vehicle_type_id":"4","last_reported":1736604487,"current_range_meters":39200,"station_id":"ce4bhgp2rcd13ifvqfe0","pricing_plan_id":"cebpf4jnsgd1na2vs0mg"},{"bike_id":"10805d30-f651-42fc-83dc-af6ada96f984","system_id":"levelo_inurba_marseille","lat":43.23181,"lon":5.39992,"is_reserved":false,"is_disabled":false,"rental_uris":{"android":"levelo://app?vid=10805d30-f651-42fc-83dc-af6ada96f984","ios":"levelo://app?vid=10805d30-f651-42fc-83dc-af6ada96f984"},"vehicle_type_id":"4","last_reported":1736604487,"current_range_meters":39200,"station_id":"ce4bhn12rcd13ifvqgqg","pricing_plan_id":"cebpf4jnsgd1na2vs0mg"},{"bike_id":"d7d2325d-e4a1-4cbe-a252-bfd56a7cc468","system_id":"levelo_inurba_marseille","lat":43.27614,"lon":5.36114,"is_reserved":false,"is_disabled":false,"rental_uris":{"android":"levelo://app?vid=d7d2325d-e4a1-4cbe-a252-bfd56a7cc468","ios":"levelo://app?vid=d7d2325d-e4a1-4cbe-a252-bfd56a7cc468"},"vehicle_type_id":"4","last_reported":1736604487,"current_range_meters":8400,"station_id":"ce4bgj92rcd13ifvqbe0","pricing_plan_id":"cebpf4jnsgd1na2vs0mg"},{"bike_id":"a629db01-3382-4ad3-9e7a-94c3ab64ac1e","system_id":"levelo_inurba_marseille","lat":43.29956,"lon":5.41322,"is_reserved":false,"is_disabled":false,"rental_uris":{"android":"levelo://app?vid=a629db01-3382-4ad3-9e7a-94c3ab64ac1e","ios":"levelo://app?vid=a629db01-3382-4ad3-9e7a-94c3ab64ac1e"},"vehicle_type_id":"4","last_reported":1736604487,"current_range_meters":19200,"station_id":"ce4bhp12rcd13ifvqh9g","pricing_plan_id":"cebpf4jnsgd1na2vs0mg"},{"bike_id":"1dc03b13-9b8c-46dd-9f7e-2952982016aa","system_id":"levelo_inurba_marseille","lat":43.32474,"lon":5.36562,"is_reserved":false,"is_disabled":false,"rental_uris":{"android":"levelo://app?vid=1dc03b13-9b8c-46dd-9f7e-2952982016aa","ios":"levelo://app?vid=1dc03b13-9b8c-46dd-9f7e-2952982016aa"},"vehicle_type_id":"4","last_reported":1736604487,"current_range_meters":26800,"station_id":"ce4bhs12rcd13ifvqhvg","pricing_plan_id":"cebpf4jnsgd1na2vs0mg"},{"bike_id":"d65184a4-3247-43ce-a6ca-aff9623fa9f1","system_id":"levelo_inurba_marseille","lat":43.30887,"lon":5.39652,"is_reserved":false,"is_disabled":false,"rental_uris":{"android":"levelo://app?vid=d65184a4-3247-43ce-a6ca-aff9623fa9f1","ios":"levelo://app?vid=d65184a4-3247-43ce-a6ca-aff9623fa9f1"},"vehicle_type_id":"4","last_reported":1736604487,"current_range_meters":8400,"station_id":"ce4bh012rcd13ifvqcv0","pricing_plan_id":"cebpf4jnsgd1na2vs0mg"},{"bike_id":"9273e0d3-e036-4dab-901c-7570e2557655","system_id":"levelo_inurba_marseille","lat":43.30951,"lon":5.39044,"is_reserved":false,"is_disabled":false,"rental_uris":{"android":"levelo://app?vid=9273e0d3-e036-4dab-901c-7570e2557655","ios":"levelo://app?vid=9273e0d3-e036-4dab-901c-7570e2557655"},"vehicle_type_id":"4","last_reported":1736604487,"current_range_meters":37600,"station_id":"ce4bgup2rcd13ifvqco0","pricing_plan_id":"cebpf4jnsgd1na2vs0mg"},{"bike_id":"60bead8e-89cf-478c-b055-b7e4858ff279","system_id":"levelo_inurba_marseille","lat":43.26212,"lon":5.37919,"is_reserved":false,"is_disabled":false,"rental_uris":{"android":"levelo://app?vid=60bead8e-89cf-478c-b055-b7e4858ff279","ios":"levelo://app?vid=60bead8e-89cf-478c-b055-b7e4858ff279"},"vehicle_type_id":"4","last_reported":1736604487,"current_range_meters":24000,"station_id":"ce4bhjp2rcd13ifvqg90","pricing_plan_id":"cebpf4jnsgd1na2vs0mg"},{"bike_id":"377730c6-0336-4c78-9c46-cdee41ff19a9","system_id":"levelo_inurba_marseille","lat":43.28042,"lon":5.41096,"is_reserved":false,"is_disabled":true,"rental_uris":{"android":"levelo://app?vid=377730c6-0336-4c78-9c46-cdee41ff19a9","ios":"levelo://app?vid=377730c6-0336-4c78-9c46-cdee41ff19a9"},"vehicle_type_id":"4","last_reported":1736604487,"current_range_meters":800,"station_id":"","pricing_plan_id":"cebpf4jnsgd1na2vs0mg"},{"bike_id":"d02e961a-61d3-49ae-ab1c-e75b5a03b8e3","system_id":"levelo_inurba_marseille","lat":43.29722,"lon":5.3769,"is_reserved":false,"is_disabled":false,"rental_uris":{"android":"levelo://app?vid=d02e961a-61d3-49ae-ab1c-e75b5a03b8e3","ios":"levelo://app?vid=d02e961a-61d3-49ae-ab1c-e75b5a03b8e3"},"vehicle_type_id":"4","last_reported":1736604487,"current_range_meters":27200,"station_id":"ce4bgkh2rcd13ifvqbl0","pricing_plan_id":"cebpf4jnsgd1na2vs0mg"},{"bike_id":"054cd636-1c92-4b02-9f52-65bb09761079","system_id":"levelo_inurba_marseille","lat":43.27625,"lon":5.36123,"is_reserved":false,"is_disabled":true,"rental_uris":{"android":"levelo://app?vid=054cd636-1c92-4b02-9f52-65bb09761079","ios":"levelo://app?vid=054cd636-1c92-4b02-9f52-65bb09761079"},"vehicle_type_id":"4","last_reported":1736604487,"current_range_meters":39200,"station_id":"ce4bgj92rcd13ifvqbe0","pricing_plan_id":"cebpf4jnsgd1na2vs0mg"},{"bike_id":"7438e2b8-3f02-4dc0-96c2-fe728623bae8","system_id":"levelo_inurba_marseille","lat":43.32395,"lon":5.42273,"is_reserved":false,"is_disabled":false,"rental_uris":{"android":"levelo://app?vid=7438e2b8-3f02-4dc0-96c2-fe728623bae8","ios":"levelo://app?vid=7438e2b8-3f02-4dc0-96c2-fe728623bae8"},"vehicle_type_id":"4","last_reported":1736604487,"current_range_meters":38800,"station_id":"ce4bhf92rcd13ifvqf40","pricing_plan_id":"cebpf4jnsgd1na2vs0mg"},{"bike_id":"266859f2-18fe-482a-8c9f-5bdad982c716","system_id":"levelo_inurba_marseille","lat":43.28076,"lon":5.41115,"is_reserved":false,"is_disabled":true,"rental_uris":{"android":"levelo://app?vid=266859f2-18fe-482a-8c9f-5bdad982c716","ios":"levelo://app?vid=266859f2-18fe-482a-8c9f-5bdad982c716"},"vehicle_type_id":"4","last_reported":1736604487,"current_range_meters":0,"station_id":"","pricing_plan_id":"cebpf4jnsgd1na2vs0mg"},{"bike_id":"fd01bc8c-af59-4352-a996-47a66c3328f9","system_id":"levelo_inurba_marseille","lat":43.29876,"lon":5.38161,"is_reserved":false,"is_disabled":true,"rental_uris":{"android":"levelo://app?vid=fd01bc8c-af59-4352-a996-47a66c3328f9","ios":"levelo://app?vid=fd01bc8c-af59-4352-a996-47a66c3328f9"},"vehicle_type_id":"4","last_reported":1736604487,"current_range_meters":39200,"station_id":"ce4bgj12rcd13ifvqbc0","pricing_plan_id":"cebpf4jnsgd1na2vs0mg"},{"bike_id":"90a09054-f4e6-45d8-804d-6b33d5b4d235","system_id":"levelo_inurba_marseille","lat":43.2803,"lon":5.3694,"is_reserved":false,"is_disabled":true,"rental_uris":{"android":"levelo://app?vid=90a09054-f4e6-45d8-804d-6b33d5b4d235","ios":"levelo://app?vid=90a09054-f4e6-45d8-804d-6b33d5b4d235"},"vehicle_type_id":"4","last_reported":1736604487,"current_range_meters":0,"station_id":"ce4bha12rcd13ifvqef0","pricing_plan_id":"cebpf4jnsgd1na2vs0mg"},{"bike_id":"604ee3d1-5e86-41f7-9037-599fe3357dd5","system_id":"levelo_inurba_marseille","lat":43.27361,"lon":5.36256,"is_reserved":false,"is_disabled":false,"rental_uris":{"android":"levelo://app?vid=604ee3d1-5e86-41f7-9037-599fe3357dd5","ios":"levelo://app?vid=604ee3d1-5e86-41f7-9037-599fe3357dd5"},"vehicle_type_id":"4","last_reported":1736604487,"current_range_meters":2800,"station_id":"ce4bhbh2rcd13ifvqeo0","pricing_plan_id":"cebpf4jnsgd1na2vs0mg"},{"bike_id":"91c61851-e9b3-4fa3-b6c1-3b415367d21d","system_id":"levelo_inurba_marseille","lat":43.30645,"lon":5.4011,"is_reserved":false,"is_disabled":false,"rental_uris":{"android":"levelo://app?vid=91c61851-e9b3-4fa3-b6c1-3b415367d21d","ios":"levelo://app?vid=91c61851-e9b3-4fa3-b6c1-3b415367d21d"},"vehicle_type_id":"4","last_reported":1736604487,"current_range_meters":16000,"station_id":"ce4bh112rcd13ifvqda0","pricing_plan_id":"cebpf4jnsgd1na2vs0mg"},{"bike_id":"cda7064c-9b45-439f-b558-1bce2bbf8a73","system_id":"levelo_inurba_marseille","lat":43.26571,"lon":5.39013,"is_reserved":false,"is_disabled":false,"rental_uris":{"android":"levelo://app?vid=cda7064c-9b45-439f-b558-1bce2bbf8a73","ios":"levelo://app?vid=cda7064c-9b45-439f-b558-1bce2bbf8a73"},"vehicle_type_id":"4","last_reported":1736604487,"current_range_meters":20800,"station_id":"ce4bhe12rcd13ifvqf30","pricing_plan_id":"cebpf4jnsgd1na2vs0mg"},{"bike_id":"e53ac43a-53d3-47b2-af6c-16783631ac47","system_id":"levelo_inurba_marseille","lat":43.2798,"lon":5.40043,"is_reserved":false,"is_disabled":false,"rental_uris":{"android":"levelo://app?vid=e53ac43a-53d3-47b2-af6c-16783631ac47","ios":"levelo://app?vid=e53ac43a-53d3-47b2-af6c-16783631ac47"},"vehicle_type_id":"4","last_reported":1736604487,"current_range_meters":39200,"station_id":"ce4bho92rcd13ifvqh4g","pricing_plan_id":"cebpf4jnsgd1na2vs0mg"},{"bike_id":"c2648b04-c40f-4ba3-a8b6-a9cb85e8ba96","system_id":"levelo_inurba_marseille","lat":43.30589,"lon":5.39359,"is_reserved":false,"is_disabled":false,"rental_uris":{"android":"levelo://app?vid=c2648b04-c40f-4ba3-a8b6-a9cb85e8ba96","ios":"levelo://app?vid=c2648b04-c40f-4ba3-a8b6-a9cb85e8ba96"},"vehicle_type_id":"4","last_reported":1736604487,"current_range_meters":35200,"station_id":"ce4bh0p2rcd13ifvqd80","pricing_plan_id":"cebpf4jnsgd1na2vs0mg"},{"bike_id":"b31c05a9-6487-4217-80a6-25821a78c060","system_id":"levelo_inurba_marseille","lat":43.23195,"lon":5.35572,"is_reserved":false,"is_disabled":true,"rental_uris":{"android":"levelo://app?vid=b31c05a9-6487-4217-80a6-25821a78c060","ios":"levelo://app?vid=b31c05a9-6487-4217-80a6-25821a78c060"},"vehicle_type_id":"4","last_reported":1736604487,"current_range_meters":0,"station_id":"ce4bhu92rcd13ifvqi70","pricing_plan_id":"cebpf4jnsgd1na2vs0mg"},{"bike_id":"c30d8612-b90b-4a2a-b0c4-468de2eb82c6","system_id":"levelo_inurba_marseille","lat":43.27371,"lon":5.36258,"is_reserved":false,"is_disabled":false,"rental_uris":{"android":"levelo://app?vid=c30d8612-b90b-4a2a-b0c4-468de2eb82c6","ios":"levelo://app?vid=c30d8612-b90b-4a2a-b0c4-468de2eb82c6"},"vehicle_type_id":"4","last_reported":1736604487,"current_range_meters":21600,"station_id":"ce4bhbh2rcd13ifvqeo0","pricing_plan_id":"cebpf4jnsgd1na2vs0mg"},{"bike_id":"c8aef9ab-ffaf-4274-a001-16a43e134b7d","system_id":"levelo_inurba_marseille","lat":43.30847,"lon":5.37798,"is_reserved":false,"is_disabled":false,"rental_uris":{"android":"levelo://app?vid=c8aef9ab-ffaf-4274-a001-16a43e134b7d","ios":"levelo://app?vid=c8aef9ab-ffaf-4274-a001-16a43e134b7d"},"vehicle_type_id":"4","last_reported":1736604487,"current_range_meters":30400,"station_id":"","pricing_plan_id":"cebpf4jnsgd1na2vs0mg"},{"bike_id":"e1cf2823-1b48-4a2a-a96a-bbc41e753ad0","system_id":"levelo_inurba_marseille","lat":43.25857,"lon":5.39913,"is_reserved":false,"is_disabled":false,"rental_uris":{"android":"levelo://app?vid=e1cf2823-1b48-4a2a-a96a-bbc41e753ad0","ios":"levelo://app?vid=e1cf2823-1b48-4a2a-a96a-bbc41e753ad0"},"vehicle_type_id":"4","last_reported":1736604487,"current_range_meters":32400,"station_id":"ce4bhl92rcd13ifvqghg","pricing_plan_id":"cebpf4jnsgd1na2vs0mg"},{"bike_id":"e77b10a5-d949-41d9-8dc1-f24aeb11f6e4","system_id":"levelo_inurba_marseille","lat":43.296183,"lon":5.37733,"is_reserved":false,"is_disabled":false,"rental_uris":{"android":"levelo://app?vid=e77b10a5-d949-41d9-8dc1-f24aeb11f6e4","ios":"levelo://app?vid=e77b10a5-d949-41d9-8dc1-f24aeb11f6e4"},"vehicle_type_id":"4","last_reported":1736604487,"current_range_meters":36400,"station_id":"ce4bgi92rcd13ifvqb90","pricing_plan_id":"cebpf4jnsgd1na2vs0mg"},{"bike_id":"ef41cc25-69fd-411b-a326-a1f77d8eb0de","system_id":"levelo_inurba_marseille","lat":43.26956,"lon":5.38637,"is_reserved":false,"is_disabled":false,"rental_uris":{"android":"levelo://app?vid=ef41cc25-69fd-411b-a326-a1f77d8eb0de","ios":"levelo://app?vid=ef41cc25-69fd-411b-a326-a1f77d8eb0de"},"vehicle_type_id":"4","last_reported":1736604487,"current_range_meters":14800,"station_id":"ce4bhh92rcd13ifvqfh0","pricing_plan_id":"cebpf4jnsgd1na2vs0mg"},{"bike_id":"2a0992e2-e202-445e-9017-db4ba74dcffe","system_id":"levelo_inurba_marseille","lat":43.25005,"lon":5.38931,"is_reserved":false,"is_disabled":false,"rental_uris":{"android":"levelo://app?vid=2a0992e2-e202-445e-9017-db4ba74dcffe","ios":"levelo://app?vid=2a0992e2-e202-445e-9017-db4ba74dcffe"},"vehicle_type_id":"4","last_reported":1736604487,"current_range_meters":10000,"station_id":"ce4bhgp2rcd13ifvqfd0","pricing_plan_id":"cebpf4jnsgd1na2vs0mg"},{"bike_id":"3e8b7527-e89d-4d31-a3a1-bab5d9961c5a","system_id":"levelo_inurba_marseille","lat":43.33621,"lon":5.41023,"is_reserved":false,"is_disabled":true,"rental_uris":{"android":"levelo://app?vid=3e8b7527-e89d-4d31-a3a1-bab5d9961c5a","ios":"levelo://app?vid=3e8b7527-e89d-4d31-a3a1-bab5d9961c5a"},"vehicle_type_id":"4","last_reported":1736604487,"current_range_meters":36800,"station_id":"ce4bhqh2rcd13ifvqhmg","pricing_plan_id":"cebpf4jnsgd1na2vs0mg"},{"bike_id":"c5a4cc0a-368f-444e-923b-d63fe711e2e2","system_id":"levelo_inurba_marseille","lat":43.28002,"lon":5.40021,"is_reserved":false,"is_disabled":false,"rental_uris":{"android":"levelo://app?vid=c5a4cc0a-368f-444e-923b-d63fe711e2e2","ios":"levelo://app?vid=c5a4cc0a-368f-444e-923b-d63fe711e2e2"},"vehicle_type_id":"4","last_reported":1736604487,"current_range_meters":27600,"station_id":"ce4bho92rcd13ifvqh4g","pricing_plan_id":"cebpf4jnsgd1na2vs0mg"},{"bike_id":"a3fefaf9-4ba7-4bbe-ad11-cda9aaf6b6a6","system_id":"levelo_inurba_marseille","lat":43.31711,"lon":5.43702,"is_reserved":false,"is_disabled":false,"rental_uris":{"android":"levelo://app?vid=a3fefaf9-4ba7-4bbe-ad11-cda9aaf6b6a6","ios":"levelo://app?vid=a3fefaf9-4ba7-4bbe-ad11-cda9aaf6b6a6"},"vehicle_type_id":"4","last_reported":1736604487,"current_range_meters":38400,"station_id":"ce4bhp92rcd13ifvqhcg","pricing_plan_id":"cebpf4jnsgd1na2vs0mg"},{"bike_id":"cfbaf99c-c14a-433d-9b69-8289fb3cd1c5","system_id":"levelo_inurba_marseille","lat":43.26952,"lon":5.40253,"is_reserved":false,"is_disabled":false,"rental_uris":{"android":"levelo://app?vid=cfbaf99c-c14a-433d-9b69-8289fb3cd1c5","ios":"levelo://app?vid=cfbaf99c-c14a-433d-9b69-8289fb3cd1c5"},"vehicle_type_id":"4","last_reported":1736604487,"current_range_meters":38800,"station_id":"cjm6bp8fraef2m0cb0m0","pricing_plan_id":"cebpf4jnsgd1na2vs0mg"},{"bike_id":"b9619dd7-91f7-432e-b0ef-695b4d3f299d","system_id":"levelo_inurba_marseille","lat":43.32012,"lon":5.38163,"is_reserved":false,"is_disabled":false,"rental_uris":{"android":"levelo://app?vid=b9619dd7-91f7-432e-b0ef-695b4d3f299d","ios":"levelo://app?vid=b9619dd7-91f7-432e-b0ef-695b4d3f299d"},"vehicle_type_id":"4","last_reported":1736604487,"current_range_meters":38800,"station_id":"ce4bhr12rcd13ifvqhpg","pricing_plan_id":"cebpf4jnsgd1na2vs0mg"},{"bike_id":"56b70192-5598-4693-b1b5-0f08311fbecd","system_id":"levelo_inurba_marseille","lat":43.306401,"lon":5.400977,"is_reserved":false,"is_disabled":false,"rental_uris":{"android":"levelo://app?vid=56b70192-5598-4693-b1b5-0f08311fbecd","ios":"levelo://app?vid=56b70192-5598-4693-b1b5-0f08311fbecd"},"vehicle_type_id":"4","last_reported":1736604487,"current_range_meters":28800,"station_id":"ce4bh112rcd13ifvqda0","pricing_plan_id":"cebpf4jnsgd1na2vs0mg"},{"bike_id":"ef287c15-81b0-4d7b-9432-620efedf4f44","system_id":"levelo_inurba_marseille","lat":43.29531,"lon":5.39406,"is_reserved":false,"is_disabled":false,"rental_uris":{"android":"levelo://app?vid=ef287c15-81b0-4d7b-9432-620efedf4f44","ios":"levelo://app?vid=ef287c15-81b0-4d7b-9432-620efedf4f44"},"vehicle_type_id":"4","last_reported":1736604487,"current_range_meters":27600,"station_id":"ce4bh292rcd13ifvqdf0","pricing_plan_id":"cebpf4jnsgd1na2vs0mg"},{"bike_id":"97e205c2-4bee-4260-8623-df45247a4287","system_id":"levelo_inurba_marseille","lat":43.25002,"lon":5.38925,"is_reserved":false,"is_disabled":false,"rental_uris":{"android":"levelo://app?vid=97e205c2-4bee-4260-8623-df45247a4287","ios":"levelo://app?vid=97e205c2-4bee-4260-8623-df45247a4287"},"vehicle_type_id":"4","last_reported":1736604487,"current_range_meters":24400,"station_id":"ce4bhgp2rcd13ifvqfd0","pricing_plan_id":"cebpf4jnsgd1na2vs0mg"},{"bike_id":"9417f5e2-fd0d-41fb-a081-845b7126b20e","system_id":"levelo_inurba_marseille","lat":43.28806,"lon":5.35871,"is_reserved":false,"is_disabled":false,"rental_uris":{"android":"levelo://app?vid=9417f5e2-fd0d-41fb-a081-845b7126b20e","ios":"levelo://app?vid=9417f5e2-fd0d-41fb-a081-845b7126b20e"},"vehicle_type_id":"4","last_reported":1736604487,"current_range_meters":38000,"station_id":"ce4bhb12rcd13ifvqem0","pricing_plan_id":"cebpf4jnsgd1na2vs0mg"},{"bike_id":"f2a8f573-d893-43fd-9320-1a2c82f053c3","system_id":"levelo_inurba_marseille","lat":43.30959,"lon":5.39033,"is_reserved":false,"is_disabled":false,"rental_uris":{"android":"levelo://app?vid=f2a8f573-d893-43fd-9320-1a2c82f053c3","ios":"levelo://app?vid=f2a8f573-d893-43fd-9320-1a2c82f053c3"},"vehicle_type_id":"4","last_reported":1736604487,"current_range_meters":36000,"station_id":"ce4bgup2rcd13ifvqco0","pricing_plan_id":"cebpf4jnsgd1na2vs0mg"},{"bike_id":"7b26886d-9f00-45c2-b619-b2358b9c85a5","system_id":"levelo_inurba_marseille","lat":43.29603,"lon":5.38097,"is_reserved":false,"is_disabled":false,"rental_uris":{"android":"levelo://app?vid=7b26886d-9f00-45c2-b619-b2358b9c85a5","ios":"levelo://app?vid=7b26886d-9f00-45c2-b619-b2358b9c85a5"},"vehicle_type_id":"4","last_reported":1736604487,"current_range_meters":38000,"station_id":"ce4bgl12rcd13ifvqbo0","pricing_plan_id":"cebpf4jnsgd1na2vs0mg"},{"bike_id":"5d81e121-f2b9-4f65-bf9d-3c0394da90b2","system_id":"levelo_inurba_marseille","lat":43.30325,"lon":5.40432,"is_reserved":false,"is_disabled":false,"rental_uris":{"android":"levelo://app?vid=5d81e121-f2b9-4f65-bf9d-3c0394da90b2","ios":"levelo://app?vid=5d81e121-f2b9-4f65-bf9d-3c0394da90b2"},"vehicle_type_id":"4","last_reported":1736604487,"current_range_meters":29600,"station_id":"ce4bh012rcd13ifvqd10","pricing_plan_id":"cebpf4jnsgd1na2vs0mg"},{"bike_id":"2338bf9e-aeb1-410a-8f97-a0753740e97f","system_id":"levelo_inurba_marseille","lat":43.315,"lon":5.37305,"is_reserved":false,"is_disabled":false,"rental_uris":{"android":"levelo://app?vid=2338bf9e-aeb1-410a-8f97-a0753740e97f","ios":"levelo://app?vid=2338bf9e-aeb1-410a-8f97-a0753740e97f"},"vehicle_type_id":"4","last_reported":1736604487,"current_range_meters":38400,"station_id":"ce4bgt12rcd13ifvqcd0","pricing_plan_id":"cebpf4jnsgd1na2vs0mg"},{"bike_id":"829ddfbe-8cdb-4dcc-abde-9acf8693e400","system_id":"levelo_inurba_marseille","lat":43.30453,"lon":5.37907,"is_reserved":false,"is_disabled":false,"rental_uris":{"android":"levelo://app?vid=829ddfbe-8cdb-4dcc-abde-9acf8693e400","ios":"levelo://app?vid=829ddfbe-8cdb-4dcc-abde-9acf8693e400"},"vehicle_type_id":"4","last_reported":1736604487,"current_range_meters":34000,"station_id":"ce4bgup2rcd13ifvqcn0","pricing_plan_id":"cebpf4jnsgd1na2vs0mg"},{"bike_id":"a5363611-b409-4b82-872f-bcbdcc80ff67","system_id":"levelo_inurba_marseille","lat":43.23155,"lon":5.43717,"is_reserved":false,"is_disabled":false,"rental_uris":{"android":"levelo://app?vid=a5363611-b409-4b82-872f-bcbdcc80ff67","ios":"levelo://app?vid=a5363611-b409-4b82-872f-bcbdcc80ff67"},"vehicle_type_id":"4","last_reported":1736604487,"current_range_meters":18000,"station_id":"ce4bhmp2rcd13ifvqgog","pricing_plan_id":"cebpf4jnsgd1na2vs0mg"},{"bike_id":"b3cb95fb-9c38-4961-8032-9e7e1343adcd","system_id":"levelo_inurba_marseille","lat":43.32368,"lon":5.3889,"is_reserved":false,"is_disabled":false,"rental_uris":{"android":"levelo://app?vid=b3cb95fb-9c38-4961-8032-9e7e1343adcd","ios":"levelo://app?vid=b3cb95fb-9c38-4961-8032-9e7e1343adcd"},"vehicle_type_id":"4","last_reported":1736604487,"current_range_meters":23200,"station_id":"ce4bhqp2rcd13ifvqhog","pricing_plan_id":"cebpf4jnsgd1na2vs0mg"},{"bike_id":"6fdecff2-2545-405f-8c66-4d246590b289","system_id":"levelo_inurba_marseille","lat":43.24175,"lon":5.36405,"is_reserved":false,"is_disabled":false,"rental_uris":{"android":"levelo://app?vid=6fdecff2-2545-405f-8c66-4d246590b289","ios":"levelo://app?vid=6fdecff2-2545-405f-8c66-4d246590b289"},"vehicle_type_id":"4","last_reported":1736604487,"current_range_meters":9600,"station_id":"cpo36qri1sfpv3e86is0","pricing_plan_id":"cebpf4jnsgd1na2vs0mg"},{"bike_id":"2880b973-4442-45d0-9d55-0d4ee051ed38","system_id":"levelo_inurba_marseille","lat":43.32287,"lon":5.3826,"is_reserved":false,"is_disabled":false,"rental_uris":{"android":"levelo://app?vid=2880b973-4442-45d0-9d55-0d4ee051ed38","ios":"levelo://app?vid=2880b973-4442-45d0-9d55-0d4ee051ed38"},"vehicle_type_id":"4","last_reported":1736604487,"current_range_meters":20000,"station_id":"ce4bhr12rcd13ifvqhqg","pricing_plan_id":"cebpf4jnsgd1na2vs0mg"},{"bike_id":"2cb3fb61-b168-42b1-a995-2e4bf8761473","system_id":"levelo_inurba_marseille","lat":43.25582,"lon":5.38245,"is_reserved":false,"is_disabled":false,"rental_uris":{"android":"levelo://app?vid=2cb3fb61-b168-42b1-a995-2e4bf8761473","ios":"levelo://app?vid=2cb3fb61-b168-42b1-a995-2e4bf8761473"},"vehicle_type_id":"4","last_reported":1736604487,"current_range_meters":34800,"station_id":"ce4bhih2rcd13ifvqfs0","pricing_plan_id":"cebpf4jnsgd1na2vs0mg"},