{"last_updated":1750281028,"ttl":60,"version":"2.2","data":{"bikes":[{"bike_id":"3da29fb8-fc97-44c6-b9ac-31dd456b2fd4","system_id":"levelo_inurba_marseille","lat":43.33771,"lon":5.37424,"is_reserved":false,"is_disabled":true,"rental_uris":{"android":"levelo://app?vid=3da29fb8-fc97-44c6-b9ac-31dd456b2fd4","ios":"levelo://app?vid=3da29fb8-fc97-44c6-b9ac-31dd456b2fd4"},"vehicle_type_id":"4","last_reported":1750281028,"current_range_meters":0,"station_id":"","pricing_plan_id":"cebpf4jnsgd1na2vs0mg"},{"bike_id":"01861ad8-a8d7-4be6-816e-651927c87584","system_id":"levelo_inurba_marseille","lat":43.33751,"lon":5.37456,"is_reserved":false,"is_disabled":true,"rental_uris":{"android":"levelo://app?vid=01861ad8-a8d7-4be6-816e-651927c87584","ios":"levelo://app?vid=01861ad8-a8d7-4be6-816e-651927c87584"},"vehicle_type_id":"4","last_reported":1750281028,"current_range_meters":0,"station_id":"","pricing_plan_id":"cebpf4jnsgd1na2vs0mg"},{"bike_id":"dbfce7a3-3423-4296-b193-a177dea644ac","system_id":"levelo_inurba_marseille","lat":43.27289,"lon":5.41591,"is_reserved":false,"is_disabled":true,"rental_uris":{"android":"levelo://app?vid=dbfce7a3-3423-4296-b193-a177dea644ac","ios":"levelo://app?vid=dbfce7a3-3423-4296-b193-a177dea644ac"},"vehicle_type_id":"4","last_reported":1750281028,"current_range_meters":0,"station_id":"","pricing_plan_id":"cebpf4jnsgd1na2vs0mg"},{"bike_id":"eff675e9-75ca-47c9-bd95-5090bc060d4f","system_id":"levelo_inurba_marseille","lat":43.34062,"lon":5.36103,"is_reserved":false,"is_disabled":true,"rental_uris":{"android":"levelo://app?vid=eff675e9-75ca-47c9-bd95-5090bc060d4f","ios":"levelo://app?vid=eff675e9-75ca-47c9-bd95-5090bc060d4f"},"vehicle_type_id":"4","last_reported":1750281028,"current_range_meters":0,"station_id":"","pricing_plan_id":"cebpf4jnsgd1na2vs0mg"},{"bike_id":"d2bd57c8-6b64-48db-ad24-5398eb3fd9d6","system_id":"levelo_inurba_marseille","lat":43.337444,"lon":5.374475,"is_reserved":false,"is_disabled":true,"rental_uris":{"android":"levelo://app?vid=d2bd57c8-6b64-48db-ad24-5398eb3fd9d6","ios":"levelo://app?vid=d2bd57c8-6b64-48db-ad24-5398eb3fd9d6"},"vehicle_type_id":"4","last_reported":1750281028,"current_range_meters":0,"station_id":"","pricing_plan_id":"cebpf4jnsgd1na2vs0mg"},{"bike_id":"62a493c7-4534-4419-ad43-0582de34a72a","system_id":"levelo_inurba_marseille","lat":43.21366,"lon":5.355183,"is_reserved":false,"is_disabled":true,"rental_uris":{"android":"levelo://app?vid=62a493c7-4534-4419-ad43-0582de34a72a","ios":"levelo://app?vid=62a493c7-4534-4419-ad43-0582de34a72a"},"vehicle_type_id":"4","last_reported":1750281028,"current_range_meters":0,"station_id":"","pricing_plan_id":"cebpf4jnsgd1na2vs0mg"},{"bike_id":"b9e37238-9abe-4b8b-b932-edaee33a7e59","system_id":"levelo_inurba_marseille","lat":43.274904,"lon":5.390071,"is_reserved":false,"is_disabled":true,"rental_uris":{"android":"levelo://app?vid=b9e37238-9abe-4b8b-b932-edaee33a7e59","ios":"levelo://app?vid=b9e37238-9abe-4b8b-b932-edaee33a7e59"},"vehicle_type_id":"4","last_reported":1750281028,"current_range_meters":0,"station_id":"","pricing_plan_id":"cebpf4jnsgd1na2vs0mg"},{"bike_id":"8ad9234e-001a-4549-8bba-9baf2ef98804","system_id":"levelo_inurba_marseille","lat":43.27403,"lon":5.3979,"is_reserved":false,"is_disabled":true,"rental_uris":{"android":"levelo://app?vid=8ad9234e-001a-4549-8bba-9baf2ef98804","ios":"levelo://app?vid=8ad9234e-001a-4549-8bba-9baf2ef98804"},"vehicle_type_id":"4","last_reported":1750281028,"current_range_meters":0,"station_id":"","pricing_plan_id":"cebpf4jnsgd1na2vs0mg"},{"bike_id":"bc81a397-aae3-4e78-aa3e-c9b45e8bd116","system_id":"levelo_inurba_marseille","lat":43.33965,"lon":5.40623,"is_reserved":false,"is_disabled":true,"rental_uris":{"android":"levelo://app?vid=bc81a397-aae3-4e78-aa3e-c9b45e8bd116","ios":"levelo://app?vid=bc81a397-aae3-4e78-aa3e-c9b45e8bd116"},"vehicle_type_id":"4","last_reported":1750281028,"current_range_meters":0,"station_id":"","pricing_plan_id":"cebpf4jnsgd1na2vs0mg"},{"bike_id":"93af304b-67b5-47b8-a3fd-e0775f7cde8c","system_id":"levelo_inurba_marseille","lat":43.215301,"lon":5.347406,"is_reserved":false,"is_disabled":true,"rental_uris":{"android":"levelo://app?vid=93af304b-67b5-47b8-a3fd-e0775f7cde8c","ios":"levelo://app?vid=93af304b-67b5-47b8-a3fd-e0775f7cde8c"},"vehicle_type_id":"4","last_reported":1750281028,"current_range_meters":0,"station_id":"","pricing_plan_id":"cebpf4jnsgd1na2vs0mg"},{"bike_id":"d6609b4f-333b-43c1-9ebe-8726f5e76e88","system_id":"levelo_inurba_marseille","lat":43.337444,"lon":5.374475,"is_reserved":false,"is_disabled":true,"rental_uris":{"android":"levelo://app?vid=d6609b4f-333b-43c1-9ebe-8726f5e76e88","ios":"levelo://app?vid=d6609b4f-333b-43c1-9ebe-8726f5e76e88"},"vehicle_type_id":"4","last_reported":1750281028,"current_range_meters":0,"station_id":"","pricing_plan_id":"cebpf4jnsgd1na2vs0mg"},{"bike_id":"57c83ce1-960e-466a-b6c5-d93bc130c53a","system_id":"levelo_inurba_marseille","lat":43.24928,"lon":5.3894,"is_reserved":false,"is_disabled":true,"rental_uris":{"android":"levelo://app?vid=57c83ce1-960e-466a-b6c5-d93bc130c53a","ios":"levelo://app?vid=57c83ce1-960e-466a-b6c5-d93bc130c53a"},"vehicle_type_id":"4","last_reported":1750281028,"current_range_meters":0,"station_id":"","pricing_plan_id":"cebpf4jnsgd1na2vs0mg"},{"bike_id":"41e07387-4a2e-4dd8-8f58-a7a708e5f066","system_id":"levelo_inurba_marseille","lat":43.26207,"lon":5.37245,"is_reserved":false,"is_disabled":true,"rental_uris":{"android":"levelo://app?vid=41e07387-4a2e-4dd8-8f58-a7a708e5f066","ios":"levelo://app?vid=41e07387-4a2e-4dd8-8f58-a7a708e5f066"},"vehicle_type_id":"4","last_reported":1750281028,"current_range_meters":0,"station_id":"","pricing_plan_id":"cebpf4jnsgd1na2vs0mg"},{"bike_id":"f2f6d3e3-8f2e-44e6-ba70-dcf65240c943","system_id":"levelo_inurba_marseille","lat":43.29531,"lon":5.38553,"is_reserved":false,"is_disabled":true,"rental_uris":{"android":"levelo://app?vid=f2f6d3e3-8f2e-44e6-ba70-dcf65240c943","ios":"levelo://app?vid=f2f6d3e3-8f2e-44e6-ba70-dcf65240c943"},"vehicle_type_id":"4","last_reported":1750281028,"current_range_meters":0,"station_id":"ce4bgih2rcd13ifvqba0","pricing_plan_id":"cebpf4jnsgd1na2vs0mg"},{"bike_id":"e7b40dde-d85d-4591-a2f0-0335333fc024","system_id":"levelo_inurba_marseille","lat":43.3053,"lon":5.36725,"is_reserved":false,"is_disabled":true,"rental_uris":{"android":"levelo://app?vid=e7b40dde-d85d-4591-a2f0-0335333fc024","ios":"levelo://app?vid=e7b40dde-d85d-4591-a2f0-0335333fc024"},"vehicle_type_id":"4","last_reported":1750281028,"current_range_meters":0,"station_id":"ce4bgrp2rcd13ifvqc9g","pricing_plan_id":"cebpf4jnsgd1na2vs0mg"},{"bike_id":"3edfb1ae-1ef0-4754-bc42-7c4f579bd69b","system_id":"levelo_inurba_marseille","lat":43.31481,"lon":5.3729,"is_reserved":false,"is_disabled":true,"rental_uris":{"android":"levelo://app?vid=3edfb1ae-1ef0-4754-bc42-7c4f579bd69b","ios":"levelo://app?vid=3edfb1ae-1ef0-4754-bc42-7c4f579bd69b"},"vehicle_type_id":"4","last_reported":1750281028,"current_range_meters":0,"station_id":"ce4bgt12rcd13ifvqcd0","pricing_plan_id":"cebpf4jnsgd1na2vs0mg"},{"bike_id":"c3b617c7-e032-45c1-8687-7fbc6a82f6f2","system_id":"levelo_inurba_marseille","lat":43.30881,"lon":5.37195,"is_reserved":false,"is_disabled":true,"rental_uris":{"android":"levelo://app?vid=c3b617c7-e032-45c1-8687-7fbc6a82f6f2","ios":"levelo://app?vid=c3b617c7-e032-45c1-8687-7fbc6a82f6f2"},"vehicle_type_id":"4","last_reported":1750281028,"current_range_meters":0,"station_id":"ce4bguh2rcd13ifvqckg","pricing_plan_id":"cebpf4jnsgd1na2vs0mg"},{"bike_id":"daeabe22-2764-4c7d-a306-27c04d846623","system_id":"levelo_inurba_marseille","lat":43.30931,"lon":5.40139,"is_reserved":false,"is_disabled":true,"rental_uris":{"android":"levelo://app?vid=daeabe22-2764-4c7d-a306-27c04d846623","ios":"levelo://app?vid=daeabe22-2764-4c7d-a306-27c04d846623"},"vehicle_type_id":"4","last_reported":1750281028,"current_range_meters":0,"station_id":"ce4bgvp2rcd13ifvqct0","pricing_plan_id":"cebpf4jnsgd1na2vs0mg"},{"bike_id":"0a5a8089-b04a-4fb2-8234-336fb4b8f059","system_id":"levelo_inurba_marseille","lat":43.284771,"lon":5.384044,"is_reserved":false,"is_disabled":true,"rental_uris":{"android":"levelo://app?vid=0a5a8089-b04a-4fb2-8234-336fb4b8f059","ios":"levelo://app?vid=0a5a8089-b04a-4fb2-8234-336fb4b8f059"},"vehicle_type_id":"4","last_reported":1750281028,"current_range_meters":0,"station_id":"ce4bh512rcd13ifvqe3g","pricing_plan_id":"cebpf4jnsgd1na2vs0mg"},{"bike_id":"1eb7f3c2-6d3e-42a0-99c6-9e58413f5be1","system_id":"levelo_inurba_marseille","lat":43.28993,"lon":5.36663,"is_reserved":false,"is_disabled":true,"rental_uris":{"android":"levelo://app?vid=1eb7f3c2-6d3e-42a0-99c6-9e58413f5be1","ios":"levelo://app?vid=1eb7f3c2-6d3e-42a0-99c6-9e58413f5be1"},"vehicle_type_id":"4","last_reported":1750281028,"current_range_meters":0,"station_id":"ce4bhap2rcd13ifvqek0","pricing_plan_id":"cebpf4jnsgd1na2vs0mg"},{"bike_id":"a8f084da-6134-4ba3-9f3b-73ca32b22222","system_id":"levelo_inurba_marseille","lat":43.272013,"lon":5.391905,"is_reserved":false,"is_disabled":true,"rental_uris":{"android":"levelo://app?vid=a8f084da-6134-4ba3-9f3b-73ca32b22222","ios":"levelo://app?vid=a8f084da-6134-4ba3-9f3b-73ca32b22222"},"vehicle_type_id":"4","last_reported":1750281028,"current_range_meters":0,"station_id":"ce4bhhp2rcd13ifvqfm0","pricing_plan_id":"cebpf4jnsgd1na2vs0mg"},{"bike_id":"a3cb1119-a0d7-493b-b56b-9d3b82f59e3f","system_id":"levelo_inurba_marseille","lat":43.23963,"lon":5.3663,"is_reserved":false,"is_disabled":true,"rental_uris":{"android":"levelo://app?vid=a3cb1119-a0d7-493b-b56b-9d3b82f59e3f","ios":"levelo://app?vid=a3cb1119-a0d7-493b-b56b-9d3b82f59e3f"},"vehicle_type_id":"4","last_reported":1750281028,"current_range_meters":0,"station_id":"ce4bhi12rcd13ifvqfp0","pricing_plan_id":"cebpf4jnsgd1na2vs0mg"},{"bike_id":"c04a387f-80dd-4b28-951f-34d6016ac9ab","system_id":"levelo_inurba_marseille","lat":43.2396,"lon":5.36628,"is_reserved":false,"is_disabled":true,"rental_uris":{"android":"levelo://app?vid=c04a387f-80dd-4b28-951f-34d6016ac9ab","ios":"levelo://app?vid=c04a387f-80dd-4b28-951f-34d6016ac9ab"},"vehicle_type_id":"4","last_reported":1750281028,"current_range_meters":0,"station_id":"ce4bhi12rcd13ifvqfp0","pricing_plan_id":"cebpf4jnsgd1na2vs0mg"},{"bike_id":"2bc67312-7663-44a5-924d-ca4d44c17fe0","system_id":"levelo_inurba_marseille","lat":43.27068,"lon":5.42279,"is_reserved":false,"is_disabled":true,"rental_uris":{"android":"levelo://app?vid=2bc67312-7663-44a5-924d-ca4d44c17fe0","ios":"levelo://app?vid=2bc67312-7663-44a5-924d-ca4d44c17fe0"},"vehicle_type_id":"4","last_reported":1750281028,"current_range_meters":0,"station_id":"ce4bhk92rcd13ifvqgb0","pricing_plan_id":"cebpf4jnsgd1na2vs0mg"},{"bike_id":"5bccf602-4c86-4237-bb72-2cc1362f334e","system_id":"levelo_inurba_marseille","lat":43.25119,"lon":5.40311,"is_reserved":false,"is_disabled":true,"rental_uris":{"android":"levelo://app?vid=5bccf602-4c86-4237-bb72-2cc1362f334e","ios":"levelo://app?vid=5bccf602-4c86-4237-bb72-2cc1362f334e"},"vehicle_type_id":"4","last_reported":1750281028,"current_range_meters":0,"station_id":"ce4bhlh2rcd13ifvqgig","pricing_plan_id":"cebpf4jnsgd1na2vs0mg"},{"bike_id":"ab095030-d938-4cc7-8678-d56646437b79","system_id":"levelo_inurba_marseille","lat":43.27998,"lon":5.40007,"is_reserved":false,"is_disabled":true,"rental_uris":{"android":"levelo://app?vid=ab095030-d938-4cc7-8678-d56646437b79","ios":"levelo://app?vid=ab095030-d938-4cc7-8678-d56646437b79"},"vehicle_type_id":"4","last_reported":1750281028,"current_range_meters":0,"station_id":"ce4bho92rcd13ifvqh4g","pricing_plan_id":"cebpf4jnsgd1na2vs0mg"},{"bike_id":"9f66fae9-2f11-4e29-abc6-b15e8f8524ed","system_id":"levelo_inurba_marseille","lat":43.31698,"lon":5.43694,"is_reserved":false,"is_disabled":true,"rental_uris":{"android":"levelo://app?vid=9f66fae9-2f11-4e29-abc6-b15e8f8524ed","ios":"levelo://app?vid=9f66fae9-2f11-4e29-abc6-b15e8f8524ed"},"vehicle_type_id":"4","last_reported":1750281028,"current_range_meters":0,"station_id":"ce4bhp92rcd13ifvqhcg","pricing_plan_id":"cebpf4jnsgd1na2vs0mg"},{"bike_id":"11679121-5457-4472-94b6-eb0c28ce7faa","system_id":"levelo_inurba_marseille","lat":43.32103,"lon":5.3676,"is_reserved":false,"is_disabled":true,"rental_uris":{"android":"levelo://app?vid=11679121-5457-4472-94b6-eb0c28ce7faa","ios":"levelo://app?vid=11679121-5457-4472-94b6-eb0c28ce7faa"},"vehicle_type_id":"4","last_reported":1750281028,"current_range_meters":0,"station_id":"ce4bhrh2rcd13ifvqhug","pricing_plan_id":"cebpf4jnsgd1na2vs0mg"},{"bike_id":"b6d27190-b949-4a3d-816f-d496cdfa6600","system_id":"levelo_inurba_marseille","lat":43.21184,"lon":5.35047,"is_reserved":false,"is_disabled":true,"rental_uris":{"android":"levelo://app?vid=b6d27190-b949-4a3d-816f-d496cdfa6600","ios":"levelo://app?vid=b6d27190-b949-4a3d-816f-d496cdfa6600"},"vehicle_type_id":"4","last_reported":1750281028,"current_range_meters":0,"station_id":"st_cvj6sg6p6f1abm77japg","pricing_plan_id":"cebpf4jnsgd1na2vs0mg"},{"bike_id":"dd06e3ac-22dd-4430-858c-a433dce6b321","system_id":"levelo_inurba_marseille","lat":43.28722,"lon":5.36091,"is_reserved":false,"is_disabled":true,"rental_uris":{"android":"levelo://app?vid=dd06e3ac-22dd-4430-858c-a433dce6b321","ios":"levelo://app?vid=dd06e3ac-22dd-4430-858c-a433dce6b321"},"vehicle_type_id":"4","last_reported":1750281028,"current_range_meters":400,"station_id":"","pricing_plan_id":"cebpf4jnsgd1na2vs0mg"},{"bike_id":"f2ba2bf0-3390-4949-964f-22facc2eb341","system_id":"levelo_inurba_marseille","lat":43.30152,"lon":5.38771,"is_reserved":false,"is_disabled":true,"rental_uris":{"android":"levelo://app?vid=f2ba2bf0-3390-4949-964f-22facc2eb341","ios":"levelo://app?vid=f2ba2bf0-3390-4949-964f-22facc2eb341"},"vehicle_type_id":"4","last_reported":1750281028,"current_range_meters":400,"station_id":"ce4bghh2rcd13ifvqb60","pricing_plan_id":"cebpf4jnsgd1na2vs0mg"},{"bike_id":"9833b7eb-4521-451c-9c4f-e9e19f02b941","system_id":"levelo_inurba_marseille","lat":43.2174,"lon":5.34602,"is_reserved":false,"is_disabled":true,"rental_uris":{"android":"levelo://app?vid=9833b7eb-4521-451c-9c4f-e9e19f02b941","ios":"levelo://app?vid=9833b7eb-4521-451c-9c4f-e9e19f02b941"},"vehicle_type_id":"4","last_reported":1750281028,"current_range_meters":400,"station_id":"st_cvj6r9ubvosntc0bgbag","pricing_plan_id":"cebpf4jnsgd1na2vs0mg"},{"bike_id":"906ee980-4d80-4eb6-b1ff-80e75364ef4f","system_id":"levelo_inurba_marseille","lat":43.26206,"lon":5.37444,"is_reserved":false,"is_disabled":true,"rental_uris":{"android":"levelo://app?vid=906ee980-4d80-4eb6-b1ff-80e75364ef4f","ios":"levelo://app?vid=906ee980-4d80-4eb6-b1ff-80e75364ef4f"},"vehicle_type_id":"4","last_reported":1750281028,"current_range_meters":800,"station_id":"ce4bhgp2rcd13ifvqfc0","pricing_plan_id":"cebpf4jnsgd1na2vs0mg"},{"bike_id":"2c981d74-d5f9-48bb-8e15-237f47601c6a","system_id":"levelo_inurba_marseille","lat":43.25493,"lon":5.37648,"is_reserved":false,"is_disabled":true,"rental_uris":{"android":"levelo://app?vid=2c981d74-d5f9-48bb-8e15-237f47601c6a","ios":"levelo://app?vid=2c981d74-d5f9-48bb-8e15-237f47601c6a"},"vehicle_type_id":"4","last_reported":1750281028,"current_range_meters":800,"station_id":"ce4bhh12rcd13ifvqff0","pricing_plan_id":"cebpf4jnsgd1na2vs0mg"},{"bike_id":"b53d57b5-a8b7-407d-baba-e4297e438598","system_id":"levelo_inurba_marseille","lat":43.28143,"lon":5.42639,"is_reserved":false,"is_disabled":true,"rental_uris":{"android":"levelo://app?vid=b53d57b5-a8b7-407d-baba-e4297e438598","ios":"levelo://app?vid=b53d57b5-a8b7-407d-baba-e4297e438598"},"vehicle_type_id":"4","last_reported":1750281028,"current_range_meters":800,"station_id":"ce4bhnh2rcd13ifvqgug","pricing_plan_id":"cebpf4jnsgd1na2vs0mg"},{"bike_id":"5eba18e5-8ee1-4b39-8442-d5f63ccaf14d","system_id":"levelo_inurba_marseille","lat":43.30737,"lon":5.42454,"is_reserved":false,"is_disabled":true,"rental_uris":{"android":"levelo://app?vid=5eba18e5-8ee1-4b39-8442-d5f63ccaf14d","ios":"levelo://app?vid=5eba18e5-8ee1-4b39-8442-d5f63ccaf14d"},"vehicle_type_id":"4","last_reported":1750281028,"current_range_meters":800,"station_id":"st_cvj6ca6bvosntc0bfgr0","pricing_plan_id":"cebpf4jnsgd1na2vs0mg"},{"bike_id":"f6856bde-c087-417e-98d5-459a2a731cea","system_id":"levelo_inurba_marseille","lat":43.21737,"lon":5.34602,"is_reserved":false,"is_disabled":true,"rental_uris":{"android":"levelo://app?vid=f6856bde-c087-417e-98d5-459a2a731cea","ios":"levelo://app?vid=f6856bde-c087-417e-98d5-459a2a731cea"},"vehicle_type_id":"4","last_reported":1750281028,"current_range_meters":800,"station_id":"st_cvj6r9ubvosntc0bgbag","pricing_plan_id":"cebpf4jnsgd1na2vs0mg"},{"bike_id":"2498d847-e9ab-4035-883c-e82c1773aa95","system_id":"levelo_inurba_marseille","lat":43.21758,"lon":5.34602,"is_reserved":false,"is_disabled":true,"rental_uris":{"android":"levelo://app?vid=2498d847-e9ab-4035-883c-e82c1773aa95","ios":"levelo://app?vid=2498d847-e9ab-4035-883c-e82c1773aa95"},"vehicle_type_id":"4","last_reported":1750281028,"current_range_meters":800,"station_id":"st_cvj6r9ubvosntc0bgbag","pricing_plan_id":"cebpf4jnsgd1na2vs0mg"},{"bike_id":"f652fe36-df84-456d-ae5c-aa83179ce3be","system_id":"levelo_inurba_marseille","lat":43.30089,"lon":5.40185,"is_reserved":false,"is_disabled":true,"rental_uris":{"android":"levelo://app?vid=f652fe36-df84-456d-ae5c-aa83179ce3be","ios":"levelo://app?vid=f652fe36-df84-456d-ae5c-aa83179ce3be"},"vehicle_type_id":"4","last_reported":1750281028,"current_range_meters":1200,"station_id":"","pricing_plan_id":"cebpf4jnsgd1na2vs0mg"},{"bike_id":"47196f00-388f-4b3b-a4de-3dba126cd107","system_id":"levelo_inurba_marseille","lat":43.243735,"lon":5.411634,"is_reserved":false,"is_disabled":true,"rental_uris":{"android":"levelo://app?vid=47196f00-388f-4b3b-a4de-3dba126cd107","ios":"levelo://app?vid=47196f00-388f-4b3b-a4de-3dba126cd107"},"vehicle_type_id":"4","last_reported":1750281028,"current_range_meters":1200,"station_id":"","pricing_plan_id":"cebpf4jnsgd1na2vs0mg"},{"bike_id":"cd35a0d9-b04c-4c91-a961-329f449b2c9e","system_id":"levelo_inurba_marseille","lat":43.31163,"lon":5.3872,"is_reserved":false,"is_disabled":true,"rental_uris":{"android":"levelo://app?vid=cd35a0d9-b04c-4c91-a961-329f449b2c9e","ios":"levelo://app?vid=cd35a0d9-b04c-4c91-a961-329f449b2c9e"},"vehicle_type_id":"4","last_reported":1750281028,"current_range_meters":1200,"station_id":"ce4bgv12rcd13ifvqcp0","pricing_plan_id":"cebpf4jnsgd1na2vs0mg"},{"bike_id":"86e093fc-1723-40ce-9960-e588d4e8d4d8","system_id":"levelo_inurba_marseille","lat":43.265688,"lon":5.390071,"is_reserved":false,"is_disabled":false,"rental_uris":{"android":"levelo://app?vid=86e093fc-1723-40ce-9960-e588d4e8d4d8","ios":"levelo://app?vid=86e093fc-1723-40ce-9960-e588d4e8d4d8"},"vehicle_type_id":"4","last_reported":1750281028,"current_range_meters":1200,"station_id":"ce4bhe12rcd13ifvqf30","pricing_plan_id":"cebpf4jnsgd1na2vs0mg"},{"bike_id":"ac1c17be-32dc-4449-8610-ca5bfe2cd501","system_id":"levelo_inurba_marseille","lat":43.33825,"lon":5.37479,"is_reserved":false,"is_disabled":true,"rental_uris":{"android":"levelo://app?vid=ac1c17be-32dc-4449-8610-ca5bfe2cd501","ios":"levelo://app?vid=ac1c17be-32dc-4449-8610-ca5bfe2cd501"},"vehicle_type_id":"4","last_reported":1750281028,"current_range_meters":1600,"station_id":"","pricing_plan_id":"cebpf4jnsgd1na2vs0mg"},{"bike_id":"33e9c9da-1cc0-4262-ad00-281d3e3f35fc","system_id":"levelo_inurba_marseille","lat":43.33795,"lon":5.37458,"is_reserved":false,"is_disabled":true,"rental_uris":{"android":"levelo://app?vid=33e9c9da-1cc0-4262-ad00-281d3e3f35fc","ios":"levelo://app?vid=33e9c9da-1cc0-4262-ad00-281d3e3f35fc"},"vehicle_type_id":"4","last_reported":1750281028,"current_range_meters":1600,"station_id":"","pricing_plan_id":"cebpf4jnsgd1na2vs0mg"},{"bike_id":"b14441fb-5e91-4c46-a57d-3b18cb5c66b3","system_id":"levelo_inurba_marseille","lat":43.30323,"lon":5.40428,"is_reserved":false,"is_disabled":true,"rental_uris":{"android":"levelo://app?vid=b14441fb-5e91-4c46-a57d-3b18cb5c66b3","ios":"levelo://app?vid=b14441fb-5e91-4c46-a57d-3b18cb5c66b3"},"vehicle_type_id":"4","last_reported":1750281028,"current_range_meters":1600,"station_id":"ce4bh012rcd13ifvqd10","pricing_plan_id":"cebpf4jnsgd1na2vs0mg"},{"bike_id":"76ae4590-b6ec-4c57-9e7e-9c9048bbf080","system_id":"levelo_inurba_marseille","lat":43.28369,"lon":5.38634,"is_reserved":false,"is_disabled":true,"rental_uris":{"android":"levelo://app?vid=76ae4590-b6ec-4c57-9e7e-9c9048bbf080","ios":"levelo://app?vid=76ae4590-b6ec-4c57-9e7e-9c9048bbf080"},"vehicle_type_id":"4","last_reported":1750281028,"current_range_meters":1600,"station_id":"ce4bh492rcd13ifvqdvg","pricing_plan_id":"cebpf4jnsgd1na2vs0mg"},{"bike_id":"ecd6fe17-dd59-4949-9f4f-75980f0af3be","system_id":"levelo_inurba_marseille","lat":43.3053,"lon":5.38425,"is_reserved":false,"is_disabled":true,"rental_uris":{"android":"levelo://app?vid=ecd6fe17-dd59-4949-9f4f-75980f0af3be","ios":"levelo://app?vid=ecd6fe17-dd59-4949-9f4f-75980f0af3be"},"vehicle_type_id":"4","last_reported":1750281028,"current_range_meters":2000,"station_id":"ce4bgg92rcd13ifvqb30","pricing_plan_id":"cebpf4jnsgd1na2vs0mg"},{"bike_id":"59a1dab9-9d66-432c-9d38-b999118657c1","system_id":"levelo_inurba_marseille","lat":43.29414,"lon":5.38624,"is_reserved":false,"is_disabled":false,"rental_uris":{"android":"levelo://app?vid=59a1dab9-9d66-432c-9d38-b999118657c1","ios":"levelo://app?vid=59a1dab9-9d66-432c-9d38-b999118657c1"},"vehicle_type_id":"4","last_reported":1750281028,"current_range_meters":2000,"station_id":"ce4bh2h2rcd13ifvqdh0","pricing_plan_id":"cebpf4jnsgd1na2vs0mg"},{"bike_id":"41b121d6-b8aa-483c-9d61-27033c318e8d","system_id":"levelo_inurba_marseille","lat":43.32108,"lon":5.36762,"is_reserved":false,"is_disabled":true,"rental_uris":{"android":"levelo://app?vid=41b121d6-b8aa-483c-9d61-27033c318e8d","ios":"levelo://app?vid=41b121d6-b8aa-483c-9d61-27033c318e8d"},"vehicle_type_id":"4","last_reported":1750281028,"current_range_meters":2000,"station_id":"ce4bhrh2rcd13ifvqhug","pricing_plan_id":"cebpf4jnsgd1na2vs0mg"},{"bike_id":"fe753a6d-0961-441e-b4a4-a4fa5974f5cc","system_id":"levelo_inurba_marseille","lat":43.21187,"lon":5.35048,"is_reserved":false,"is_disabled":false,"rental_uris":{"android":"levelo://app?vid=fe753a6d-0961-441e-b4a4-a4fa5974f5cc","ios":"levelo://app?vid=fe753a6d-0961-441e-b4a4-a4fa5974f5cc"},"vehicle_type_id":"4","last_reported":1750281028,"current_range_meters":2800,"station_id":"st_cvj6sg6p6f1abm77japg","pricing_plan_id":"cebpf4jnsgd1na2vs0mg"},{"bike_id":"dcf38cf0-7284-4775-add2-8c5f9927b31c","system_id":"levelo_inurba_marseille","lat":43.25451,"lon":5.37844,"is_reserved":false,"is_disabled":false,"rental_uris":{"android":"levelo://app?vid=dcf38cf0-7284-4775-add2-8c5f9927b31c","ios":"levelo://app?vid=dcf38cf0-7284-4775-add2-8c5f9927b31c"},"vehicle_type_id":"4","last_reported":1750281028,"current_range_meters":3200,"station_id":"","pricing_plan_id":"cebpf4jnsgd1na2vs0mg"},{"bike_id":"6cae2b52-0c3e-48ff-8783-d5e1ec0c576d","system_id":"levelo_inurba_marseille","lat":43.29569,"lon":5.39965,"is_reserved":false,"is_disabled":false,"rental_uris":{"android":"levelo://app?vid=6cae2b52-0c3e-48ff-8783-d5e1ec0c576d","ios":"levelo://app?vid=6cae2b52-0c3e-48ff-8783-d5e1ec0c576d"},"vehicle_type_id":"4","last_reported":1750281028,"current_range_meters":3200,"station_id":"ce4bh312rcd13ifvqdj0","pricing_plan_id":"cebpf4jnsgd1na2vs0mg"},{"bike_id":"32325996-b78d-482d-aa15-a566cea6ff74","system_id":"levelo_inurba_marseille","lat":43.292,"lon":5.39338,"is_reserved":false,"is_disabled":false,"rental_uris":{"android":"levelo://app?vid=32325996-b78d-482d-aa15-a566cea6ff74","ios":"levelo://app?vid=32325996-b78d-482d-aa15-a566cea6ff74"},"vehicle_type_id":"4","last_reported":1750281028,"current_range_meters":3600,"station_id":"ce4bh192rcd13ifvqdd0","pricing_plan_id":"cebpf4jnsgd1na2vs0mg"},{"bike_id":"34600179-9b7d-4478-8188-b3cd8f972910","system_id":"levelo_inurba_marseille","lat":43.292919,"lon":5.401667,"is_reserved":false,"is_disabled":false,"rental_uris":{"android":"levelo://app?vid=34600179-9b7d-4478-8188-b3cd8f972910","ios":"levelo://app?vid=34600179-9b7d-4478-8188-b3cd8f972910"},"vehicle_type_id":"4","last_reported":1750281028,"current_range_meters":3600,"station_id":"ce4bh312rcd13ifvqdk0","pricing_plan_id":"cebpf4jnsgd1na2vs0mg"},{"bike_id":"075f3aa9-8529-44f9-983b-339a9e69e8c7","system_id":"levelo_inurba_marseille","lat":43.26684,"lon":5.38273,"is_reserved":false,"is_disabled":false,"rental_uris":{"android":"levelo://app?vid=075f3aa9-8529-44f9-983b-339a9e69e8c7","ios":"levelo://app?vid=075f3aa9-8529-44f9-983b-339a9e69e8c7"},"vehicle_type_id":"4","last_reported":1750281028,"current_range_meters":3600,"station_id":"ce4bhg92rcd13ifvqf90","pricing_plan_id":"cebpf4jnsgd1na2vs0mg"},{"bike_id":"fb7f0fca-328c-4590-8315-5fcf92aa068d","system_id":"levelo_inurba_marseille","lat":43.33768,"lon":5.37485,"is_reserved":false,"is_disabled":false,"rental_uris":{"android":"levelo://app?vid=fb7f0fca-328c-4590-8315-5fcf92aa068d","ios":"levelo://app?vid=fb7f0fca-328c-4590-8315-5fcf92aa068d"},"vehicle_type_id":"4","last_reported":1750281028,"current_range_meters":4400,"station_id":"","pricing_plan_id":"cebpf4jnsgd1na2vs0mg"},{"bike_id":"4f6ef606-e889-40bf-ad3e-9168eb04dffb","system_id":"levelo_inurba_marseille","lat":43.30644,"lon":5.40098,"is_reserved":false,"is_disabled":false,"rental_uris":{"android":"levelo://app?vid=4f6ef606-e889-40bf-ad3e-9168eb04dffb","ios":"levelo://app?vid=4f6ef606-e889-40bf-ad3e-9168eb04dffb"},"vehicle_type_id":"4","last_reported":1750281028,"current_range_meters":4400,"station_id":"ce4bh112rcd13ifvqda0","pricing_plan_id":"cebpf4jnsgd1na2vs0mg"},{"bike_id":"f7d91fb3-aea4-407f-8fe2-cec07dc4ebb0","system_id":"levelo_inurba_marseille","lat":43.2844,"lon":5.39203,"is_reserved":false,"is_disabled":false,"rental_uris":{"android":"levelo://app?vid=f7d91fb3-aea4-407f-8fe2-cec07dc4ebb0","ios":"levelo://app?vid=f7d91fb3-aea4-407f-8fe2-cec07dc4ebb0"},"vehicle_type_id":"4","last_reported":1750281028,"current_range_meters":4400,"station_id":"ce4bhoh2rcd13ifvqh5g","pricing_plan_id":"cebpf4jnsgd1na2vs0mg"},{"bike_id":"0c2732ce-a727-46b0-af5a-af7ba2098b27","system_id":"levelo_inurba_marseille","lat":43.33784,"lon":5.37496,"is_reserved":false,"is_disabled":false,"rental_uris":{"android":"levelo://app?vid=0c2732ce-a727-46b0-af5a-af7ba2098b27","ios":"levelo://app?vid=0c2732ce-a727-46b0-af5a-af7ba2098b27"},"vehicle_type_id":"4","last_reported":1750281028,"current_range_meters":4800,"station_id":"","pricing_plan_id":"cebpf4jnsgd1na2vs0mg"},{"bike_id":"7c09299a-15cc-4fda-90f9-f5d40d2114a7","system_id":"levelo_inurba_marseille","lat":43.30424,"lon":5.39754,"is_reserved":false,"is_disabled":false,"rental_uris":{"android":"levelo://app?vid=7c09299a-15cc-4fda-90f9-f5d40d2114a7","ios":"levelo://app?vid=7c09299a-15cc-4fda-90f9-f5d40d2114a7"},"vehicle_type_id":"4","last_reported":1750281028,"current_range_meters":4800,"station_id":"ce4bh092rcd13ifvqd20","pricing_plan_id":"cebpf4jnsgd1na2vs0mg"},{"bike_id":"3e52a751-a840-44d8-b538-6070e0e48b71","system_id":"levelo_inurba_marseille","lat":43.27911,"lon":5.39575,"is_reserved":false,"is_disabled":false,"rental_uris":{"android":"levelo://app?vid=3e52a751-a840-44d8-b538-6070e0e48b71","ios":"levelo://app?vid=3e52a751-a840-44d8-b538-6070e0e48b71"},"vehicle_type_id":"4","last_reported":1750281028,"current_range_meters":4800,"station_id":"ce4bhf92rcd13ifvqf40","pricing_plan_id":"cebpf4jnsgd1na2vs0mg"},{"bike_id":"08b20fd9-3a03-411e-adf8-334a04a2895e","system_id":"levelo_inurba_marseille","lat":43.286929,"lon":5.399714,"is_reserved":false,"is_disabled":false,"rental_uris":{"android":"levelo://app?vid=08b20fd9-3a03-411e-adf8-334a04a2895e","ios":"levelo://app?vid=08b20fd9-3a03-411e-adf8-334a04a2895e"},"vehicle_type_id":"4","last_reported":1750281028,"current_range_meters":4800,"station_id":"ce4bho92rcd13ifvqh3g","pricing_plan_id":"cebpf4jnsgd1na2vs0mg"},{"bike_id":"d8668b9e-841c-4a6d-93f7-b45609b7b3c9","system_id":"levelo_inurba_marseille","lat":43.28436,"lon":5.39185,"is_reserved":false,"is_disabled":false,"rental_uris":{"android":"levelo://app?vid=d8668b9e-841c-4a6d-93f7-b45609b7b3c9","ios":"levelo://app?vid=d8668b9e-841c-4a6d-93f7-b45609b7b3c9"},"vehicle_type_id":"4","last_reported":1750281028,"current_range_meters":5600,"station_id":"ce4bhoh2rcd13ifvqh5g","pricing_plan_id":"cebpf4jnsgd1na2vs0mg"},{"bike_id":"64b8b83e-503a-4015-b7c1-3bd9b6c0bb97","system_id":"levelo_inurba_marseille","lat":43.30359,"lon":5.45144,"is_reserved":false,"is_disabled":false,"rental_uris":{"android":"levelo://app?vid=64b8b83e-503a-4015-b7c1-3bd9b6c0bb97","ios":"levelo://app?vid=64b8b83e-503a-4015-b7c1-3bd9b6c0bb97"},"vehicle_type_id":"4","last_reported":1750281028,"current_range_meters":6000,"station_id":"","pricing_plan_id":"cebpf4jnsgd1na2vs0mg"},{"bike_id":"b1f081a1-bf79-4822-ba39-d7efd8f333cb","system_id":"levelo_inurba_marseille","lat":43.28482,"lon":5.38416,"is_reserved":false,"is_disabled":false,"rental_uris":{"android":"levelo://app?vid=b1f081a1-bf79-4822-ba39-d7efd8f333cb","ios":"levelo://app?vid=b1f081a1-bf79-4822-ba39-d7efd8f333cb"},"vehicle_type_id":"4","last_reported":1750281028,"current_range_meters":6000,"station_id":"ce4bh512rcd13ifvqe3g","pricing_plan_id":"cebpf4jnsgd1na2vs0mg"},{"bike_id":"f6eccc99-5d18-4517-8042-c147296d91f3","system_id":"levelo_inurba_marseille","lat":43.287251,"lon":5.379324,"is_reserved":false,"is_disabled":false,"rental_uris":{"android":"levelo://app?vid=f6eccc99-5d18-4517-8042-c147296d91f3","ios":"levelo://app?vid=f6eccc99-5d18-4517-8042-c147296d91f3"},"vehicle_type_id":"4","last_reported":1750281028,"current_range_meters":6000,"station_id":"ce4bh9p2rcd13ifvqec0","pricing_plan_id":"cebpf4jnsgd1na2vs0mg"},{"bike_id":"d4b2375e-15c2-4b2f-a628-6d423b46231b","system_id":"levelo_inurba_marseille","lat":43.24242,"lon":5.41111,"is_reserved":false,"is_disabled":false,"rental_uris":{"android":"levelo://app?vid=d4b2375e-15c2-4b2f-a628-6d423b46231b","ios":"levelo://app?vid=d4b2375e-15c2-4b2f-a628-6d423b46231b"},"vehicle_type_id":"4","last_reported":1750281028,"current_range_meters":6400,"station_id":"","pricing_plan_id":"cebpf4jnsgd1na2vs0mg"},{"bike_id":"04d4a1ca-a424-40b0-976d-37af3fbf0ef1","system_id":"levelo_inurba_marseille","lat":43.276154,"lon":5.361017,"is_reserved":false,"is_disabled":false,"rental_uris":{"android":"levelo://app?vid=04d4a1ca-a424-40b0-976d-37af3fbf0ef1","ios":"levelo://app?vid=04d4a1ca-a424-40b0-976d-37af3fbf0ef1"},"vehicle_type_id":"4","last_reported":1750281028,"current_range_meters":6400,"station_id":"ce4bgj92rcd13ifvqbe0","pricing_plan_id":"cebpf4jnsgd1na2vs0mg"},{"bike_id":"820df921-69fc-426c-b325-82acf4918bb0","system_id":"levelo_inurba_marseille","lat":43.30604,"lon":5.372023,"is_reserved":false,"is_disabled":false,"rental_uris":{"android":"levelo://app?vid=820df921-69fc-426c-b325-82acf4918bb0","ios":"levelo://app?vid=820df921-69fc-426c-b325-82acf4918bb0"},"vehicle_type_id":"4","last_reported":1750281028,"current_range_meters":6400,"station_id":"ce4bgqh2rcd13ifvqc4g","pricing_plan_id":"cebpf4jnsgd1na2vs0mg"},{"bike_id":"ddb9b70d-db61-4f52-8fc3-611162a80857","system_id":"levelo_inurba_marseille","lat":43.27936,"lon":5.41037,"is_reserved":false,"is_disabled":false,"rental_uris":{"android":"levelo://app?vid=ddb9b70d-db61-4f52-8fc3-611162a80857","ios":"levelo://app?vid=ddb9b70d-db61-4f52-8fc3-611162a80857"},"vehicle_type_id":"4","last_reported":1750281028,"current_range_meters":6400,"station_id":"ce4bhnp2rcd13ifvqh0g","pricing_plan_id":"cebpf4jnsgd1na2vs0mg"},{"bike_id":"94bcc58f-7023-41cb-871b-3595da7eac8b","system_id":"levelo_inurba_marseille","lat":43.33151,"lon":5.3816,"is_reserved":false,"is_disabled":false,"rental_uris":{"android":"levelo://app?vid=94bcc58f-7023-41cb-871b-3595da7eac8b","ios":"levelo://app?vid=94bcc58f-7023-41cb-871b-3595da7eac8b"},"vehicle_type_id":"4","last_reported":1750281028,"current_range_meters":6800,"station_id":"","pricing_plan_id":"cebpf4jnsgd1na2vs0mg"},{"bike_id":"738241d1-4d0b-4f79-9613-3352b59c4740","system_id":"levelo_inurba_marseille","lat":43.29713,"lon":5.36612,"is_reserved":false,"is_disabled":false,"rental_uris":{"android":"levelo://app?vid=738241d1-4d0b-4f79-9613-3352b59c4740","ios":"levelo://app?vid=738241d1-4d0b-4f79-9613-3352b59c4740"},"vehicle_type_id":"4","last_reported":1750281028,"current_range_meters":6800,"station_id":"ce4bgn12rcd13ifvqbt0","pricing_plan_id":"cebpf4jnsgd1na2vs0mg"},{"bike_id":"6ee328be-8e74-4a24-8413-fe430a3556d7","system_id":"levelo_inurba_marseille","lat":43.24803,"lon":5.37458,"is_reserved":false,"is_disabled":false,"rental_uris":{"android":"levelo://app?vid=6ee328be-8e74-4a24-8413-fe430a3556d7","ios":"levelo://app?vid=6ee328be-8e74-4a24-8413-fe430a3556d7"},"vehicle_type_id":"4","last_reported":1750281028,"current_range_meters":6800,"station_id":"ce4bhgh2rcd13ifvqfb0","pricing_plan_id":"cebpf4jnsgd1na2vs0mg"},{"bike_id":"752a64ac-dca9-4178-81ed-fc066e91d36b","system_id":"levelo_inurba_marseille","lat":43.25117,"lon":5.40317,"is_reserved":false,"is_disabled":false,"rental_uris":{"android":"levelo://app?vid=752a64ac-dca9-4178-81ed-fc066e91d36b","ios":"levelo://app?vid=752a64ac-dca9-4178-81ed-fc066e91d36b"},"vehicle_type_id":"4","last_reported":1750281028,"current_range_meters":6800,"station_id":"ce4bhlh2rcd13ifvqgig","pricing_plan_id":"cebpf4jnsgd1na2vs0mg"},{"bike_id":"fd6620fc-4984-412e-ba2f-ba95e379184e","system_id":"levelo_inurba_marseille","lat":43.23053,"lon":5.35488,"is_reserved":false,"is_disabled":false,"rental_uris":{"android":"levelo://app?vid=fd6620fc-4984-412e-ba2f-ba95e379184e","ios":"levelo://app?vid=fd6620fc-4984-412e-ba2f-ba95e379184e"},"vehicle_type_id":"4","last_reported":1750281028,"current_range_meters":6800,"station_id":"cpo3342slgdg3j2ifvpg","pricing_plan_id":"cebpf4jnsgd1na2vs0mg"},{"bike_id":"884efa12-ce77-4eba-9082-28398d130c75","system_id":"levelo_inurba_marseille","lat":43.30752,"lon":5.41062,"is_reserved":false,"is_disabled":false,"rental_uris":{"android":"levelo://app?vid=884efa12-ce77-4eba-9082-28398d130c75","ios":"levelo://app?vid=884efa12-ce77-4eba-9082-28398d130c75"},"vehicle_type_id":"4","last_reported":1750281028,"current_range_meters":7200,"station_id":"","pricing_plan_id":"cebpf4jnsgd1na2vs0mg"},{"bike_id":"6f3a0055-18ce-456d-886f-5dd53c809fc5","system_id":"levelo_inurba_marseille","lat":43.26759,"lon":5.4254,"is_reserved":false,"is_disabled":false,"rental_uris":{"android":"levelo://app?vid=6f3a0055-18ce-456d-886f-5dd53c809fc5","ios":"levelo://app?vid=6f3a0055-18ce-456d-886f-5dd53c809fc5"},"vehicle_type_id":"4","last_reported":1750281028,"current_range_meters":7200,"station_id":"","pricing_plan_id":"cebpf4jnsgd1na2vs0mg"},{"bike_id":"239de95e-8d17-4a10-896f-5aa289ce820d","system_id":"levelo_inurba_marseille","lat":43.29884,"lon":5.38904,"is_reserved":false,"is_disabled":false,"rental_uris":{"android":"levelo://app?vid=239de95e-8d17-4a10-896f-5aa289ce820d","ios":"levelo://app?vid=239de95e-8d17-4a10-896f-5aa289ce820d"},"vehicle_type_id":"4","last_reported":1750281028,"current_range_meters":7200,"station_id":"ce4bh392rcd13ifvqdl0","pricing_plan_id":"cebpf4jnsgd1na2vs0mg"},{"bike_id":"5d54178c-a357-4442-ad8f-c2adb3b9b77b","system_id":"levelo_inurba_marseille","lat":43.27361,"lon":5.36271,"is_reserved":false,"is_disabled":false,"rental_uris":{"android":"levelo://app?vid=5d54178c-a357-4442-ad8f-c2adb3b9b77b","ios":"levelo://app?vid=5d54178c-a357-4442-ad8f-c2adb3b9b77b"},"vehicle_type_id":"4","last_reported":1750281028,"current_range_meters":7200,"station_id":"ce4bhbh2rcd13ifvqeo0","pricing_plan_id":"cebpf4jnsgd1na2vs0mg"},{"bike_id":"b5002037-f4b0-4634-8bc4-796d0c74810e","system_id":"levelo_inurba_marseille","lat":43.24365,"lon":5.41157,"is_reserved":false,"is_disabled":false,"rental_uris":{"android":"levelo://app?vid=b5002037-f4b0-4634-8bc4-796d0c74810e","ios":"levelo://app?vid=b5002037-f4b0-4634-8bc4-796d0c74810e"},"vehicle_type_id":"4","last_reported":1750281028,"current_range_meters":8000,"station_id":"","pricing_plan_id":"cebpf4jnsgd1na2vs0mg"},{"bike_id":"7c617461-8eac-4bb2-a78e-c2062533f433","system_id":"levelo_inurba_marseille","lat":43.30431,"lon":5.38892,"is_reserved":false,"is_disabled":false,"rental_uris":{"android":"levelo://app?vid=7c617461-8eac-4bb2-a78e-c2062533f433","ios":"levelo://app?vid=7c617461-8eac-4bb2-a78e-c2062533f433"},"vehicle_type_id":"4","last_reported":1750281028,"current_range_meters":8000,"station_id":"ce4bgk12rcd13ifvqbi0","pricing_plan_id":"cebpf4jnsgd1na2vs0mg"},{"bike_id":"1de2f79e-de9c-4804-8a30-fd0ba39bc388","system_id":"levelo_inurba_marseille","lat":43.31174,"lon":5.3871,"is_reserved":false,"is_disabled":false,"rental_uris":{"android":"levelo://app?vid=1de2f79e-de9c-4804-8a30-fd0ba39bc388","ios":"levelo://app?vid=1de2f79e-de9c-4804-8a30-fd0ba39bc388"},"vehicle_type_id":"4","last_reported":1750281028,"current_range_meters":8000,"station_id":"ce4bgv12rcd13ifvqcp0","pricing_plan_id":"cebpf4jnsgd1na2vs0mg"},{"bike_id":"95ea89fe-6003-4c3c-800f-cadd418e813e","system_id":"levelo_inurba_marseille","lat":43.28936,"lon":5.3664,"is_reserved":false,"is_disabled":false,"rental_uris":{"android":"levelo://app?vid=95ea89fe-6003-4c3c-800f-cadd418e813e","ios":"levelo://app?vid=95ea89fe-6003-4c3c-800f-cadd418e813e"},"vehicle_type_id":"4","last_reported":1750281028,"current_range_meters":8000,"station_id":"ce4bhap2rcd13ifvqek0","pricing_plan_id":"cebpf4jnsgd1na2vs0mg"},{"bike_id":"ef3ce628-e2f9-4174-be0e-24d86a2afa3c","system_id":"levelo_inurba_marseille","lat":43.24648,"lon":5.38872,"is_reserved":false,"is_disabled":false,"rental_uris":{"android":"levelo://app?vid=ef3ce628-e2f9-4174-be0e-24d86a2afa3c","ios":"levelo://app?vid=ef3ce628-e2f9-4174-be0e-24d86a2afa3c"},"vehicle_type_id":"4","last_reported":1750281028,"current_range_meters":8000,"station_id":"ce4bhg12rcd13ifvqf60","pricing_plan_id":"cebpf4jnsgd1na2vs0mg"},{"bike_id":"47444d27-12ce-42f7-a5aa-d5845a0ddc8f","system_id":"levelo_inurba_marseille","lat":43.27809,"lon":5.40703,"is_reserved":false,"is_disabled":false,"rental_uris":{"android":"levelo://app?vid=47444d27-12ce-42f7-a5aa-d5845a0ddc8f","ios":"levelo://app?vid=47444d27-12ce-42f7-a5aa-d5845a0ddc8f"},"vehicle_type_id":"4","last_reported":1750281028,"current_range_meters":8000,"station_id":"ce4bhnh2rcd13ifvqgtg","pricing_plan_id":"cebpf4jnsgd1na2vs0mg"},{"bike_id":"56b82e87-2260-4261-9bd4-a50ebaba82cc","system_id":"levelo_inurba_marseille","lat":43.28152,"lon":5.42638,"is_reserved":false,"is_disabled":false,"rental_uris":{"android":"levelo://app?vid=56b82e87-2260-4261-9bd4-a50ebaba82cc","ios":"levelo://app?vid=56b82e87-2260-4261-9bd4-a50ebaba82cc"},"vehicle_type_id":"4","last_reported":1750281028,"current_range_meters":8000,"station_id":"ce4bhnh2rcd13ifvqgug","pricing_plan_id":"cebpf4jnsgd1na2vs0mg"},{"bike_id":"dbae5f57-0fc1-4f5f-b585-58ef01ef7e55","system_id":"levelo_inurba_marseille","lat":43.21741,"lon":5.34601,"is_reserved":false,"is_disabled":false,"rental_uris":{"android":"levelo://app?vid=dbae5f57-0fc1-4f5f-b585-58ef01ef7e55","ios":"levelo://app?vid=dbae5f57-0fc1-4f5f-b585-58ef01ef7e55"},"vehicle_type_id":"4","last_reported":1750281028,"current_range_meters":8000,"station_id":"st_cvj6r9ubvosntc0bgbag","pricing_plan_id":"cebpf4jnsgd1na2vs0mg"},{"bike_id":"75fd588d-acfb-46e9-8dd8-1fb428c7a2d5","system_id":"levelo_inurba_marseille","lat":43.33753,"lon":5.37487,"is_reserved":false,"is_disabled":false,"rental_uris":{"android":"levelo://app?vid=75fd588d-acfb-46e9-8dd8-1fb428c7a2d5","ios":"levelo://app?vid=75fd588d-acfb-46e9-8dd8-1fb428c7a2d5"},"vehicle_type_id":"4","last_reported":1750281028,"current_range_meters":8400,"station_id":"","pricing_plan_id":"cebpf4jnsgd1na2vs0mg"},{"bike_id":"a7ea04ce-7da1-491a-9b2c-19e2efb97b6a","system_id":"levelo_inurba_marseille","lat":43.30532,"lon":5.38427,"is_reserved":false,"is_disabled":false,"rental_uris":{"android":"levelo://app?vid=a7ea04ce-7da1-491a-9b2c-19e2efb97b6a","ios":"levelo://app?vid=a7ea04ce-7da1-491a-9b2c-19e2efb97b6a"},"vehicle_type_id":"4","last_reported":1750281028,"current_range_meters":8400,"station_id":"ce4bgg92rcd13ifvqb30","pricing_plan_id":"cebpf4jnsgd1na2vs0mg"},{"bike_id":"3eef383f-a868-4100-8143-499f70540d2c","system_id":"levelo_inurba_marseille","lat":43.28344,"lon":5.38109,"is_reserved":false,"is_disabled":false,"rental_uris":{"android":"levelo://app?vid=3eef383f-a868-4100-8143-499f70540d2c","ios":"levelo://app?vid=3eef383f-a868-4100-8143-499f70540d2c"},"vehicle_type_id":"4","last_reported":1750281028,"current_range_meters":8400,"station_id":"ce4bh412rcd13ifvqdr0","pricing_plan_id":"cebpf4jnsgd1na2vs0mg"},{"bike_id":"7144d01a-118b-4255-8940-6f5421f910bd","system_id":"levelo_inurba_marseille","lat":43.290328,"lon":5.386465,"is_reserved":false,"is_disabled":false,"rental_uris":{"android":"levelo://app?vid=7144d01a-118b-4255-8940-6f5421f910bd","ios":"levelo://app?vid=7144d01a-118b-4255-8940-6f5421f910bd"},"vehicle_type_id":"4","last_reported":1750281028,"current_range_meters":8400,"station_id":"ce4bh4p2rcd13ifvqe0g","pricing_plan_id":"cebpf4jnsgd1na2vs0mg"},{"bike_id":"633768cb-d620-4866-b92c-062f0034ceee","system_id":"levelo_inurba_marseille","lat":43.2901,"lon":5.38139,"is_reserved":false,"is_disabled":false,"rental_uris":{"android":"levelo://app?vid=633768cb-d620-4866-b92c-062f0034ceee","ios":"levelo://app?vid=633768cb-d620-4866-b92c-062f0034ceee"},"vehicle_type_id":"4","last_reported":1750281028,"current_range_meters":8400,"station_id":"ce4bh4p2rcd13ifvqe1g","pricing_plan_id":"cebpf4jnsgd1na2vs0mg"},{"bike_id":"e74ec53c-5d28-4a0c-9275-8d1a60721385","system_id":"levelo_inurba_marseille","lat":43.29101,"lon":5.38118,"is_reserved":false,"is_disabled":false,"rental_uris":{"android":"levelo://app?vid=e74ec53c-5d28-4a0c-9275-8d1a60721385","ios":"levelo://app?vid=e74ec53c-5d28-4a0c-9275-8d1a60721385"},"vehicle_type_id":"4","last_reported":1750281028,"current_range_meters":8400,"station_id":"ce4bh512rcd13ifvqe2g","pricing_plan_id":"cebpf4jnsgd1na2vs0mg"},{"bike_id":"d7b10fea-6cb9-47f2-92bf-867544787e64","system_id":"levelo_inurba_marseille","lat":43.28721,"lon":5.36086,"is_reserved":false,"is_disabled":false,"rental_uris":{"android":"levelo://app?vid=d7b10fea-6cb9-47f2-92bf-867544787e64","ios":"levelo://app?vid=d7b10fea-6cb9-47f2-92bf-867544787e64"},"vehicle_type_id":"4","last_reported":1750281028,"current_range_meters":8400,"station_id":"cki0cbj6b192h4jlfktg","pricing_plan_id":"cebpf4jnsgd1na2vs0mg"},{"bike_id":"83cfee7d-980d-496a-98c8-745c7e44c68d","system_id":"levelo_inurba_marseille","lat":43.32884,"lon":5.39082,"is_reserved":false,"is_disabled":false,"rental_uris":{"android":"levelo://app?vid=83cfee7d-980d-496a-98c8-745c7e44c68d","ios":"levelo://app?vid=83cfee7d-980d-496a-98c8-745c7e44c68d"},"vehicle_type_id":"4","last_reported":1750281028,"current_range_meters":8800,"station_id":"","pricing_plan_id":"cebpf4jnsgd1na2vs0mg"},{"bike_id":"3b6cb134-fba5-4c92-a083-0b826b3d0167","system_id":"levelo_inurba_marseille","lat":43.2993,"lon":5.36505,"is_reserved":false,"is_disabled":false,"rental_uris":{"android":"levelo://app?vid=3b6cb134-fba5-4c92-a083-0b826b3d0167","ios":"levelo://app?vid=3b6cb134-fba5-4c92-a083-0b826b3d0167"},"vehicle_type_id":"4","last_reported":1750281028,"current_range_meters":8800,"station_id":"ce4bgm92rcd13ifvqbr0","pricing_plan_id":"cebpf4jnsgd1na2vs0mg"},{"bike_id":"d6b765c2-2327-48d2-bc40-82365bfe22e8","system_id":"levelo_inurba_marseille","lat":43.29257,"lon":5.40905,"is_reserved":false,"is_disabled":false,"rental_uris":{"android":"levelo://app?vid=d6b765c2-2327-48d2-bc40-82365bfe22e8","ios":"levelo://app?vid=d6b765c2-2327-48d2-bc40-82365bfe22e8"},"vehicle_type_id":"4","last_reported":1750281028,"current_range_meters":8800,"station_id":"ce4bh192rcd13ifvqdc0","pricing_plan_id":"cebpf4jnsgd1na2vs0mg"},{"bike_id":"0a5d1aff-a871-4ca0-9390-c3a8228c6b19","system_id":"levelo_inurba_marseille","lat":43.29529,"lon":5.39052,"is_reserved":false,"is_disabled":false,"rental_uris":{"android":"levelo://app?vid=0a5d1aff-a871-4ca0-9390-c3a8228c6b19","ios":"levelo://app?vid=0a5d1aff-a871-4ca0-9390-c3a8228c6b19"},"vehicle_type_id":"4","last_reported":1750281028,"current_range_meters":8800,"station_id":"ce4bh3p2rcd13ifvqdp0","pricing_plan_id":"cebpf4jnsgd1na2vs0mg"},{"bike_id":"b7f57fa5-5a2e-4ae0-80db-dd6d0587523a","system_id":"levelo_inurba_marseille","lat":43.28458,"lon":5.38415,"is_reserved":false,"is_disabled":false,"rental_uris":{"android":"levelo://app?vid=b7f57fa5-5a2e-4ae0-80db-dd6d0587523a","ios":"levelo://app?vid=b7f57fa5-5a2e-4ae0-80db-dd6d0587523a"},"vehicle_type_id":"4","last_reported":1750281028,"current_range_meters":8800,"station_id":"ce4bh512rcd13ifvqe3g","pricing_plan_id":"cebpf4jnsgd1na2vs0mg"},{"bike_id":"fff6391a-7306-40b8-86b3-a922b577d688","system_id":"levelo_inurba_marseille","lat":43.24652,"lon":5.38882,"is_reserved":false,"is_disabled":false,"rental_uris":{"android":"levelo://app?vid=fff6391a-7306-40b8-86b3-a922b577d688","ios":"levelo://app?vid=fff6391a-7306-40b8-86b3-a922b577d688"},"vehicle_type_id":"4","last_reported":1750281028,"current_range_meters":8800,"station_id":"ce4bhg12rcd13ifvqf60","pricing_plan_id":"cebpf4jnsgd1na2vs0mg"},{"bike_id":"69782be2-23f1-401e-9c1c-094bd60878ee","system_id":"levelo_inurba_marseille","lat":43.25579,"lon":5.38229,"is_reserved":false,"is_disabled":false,"rental_uris":{"android":"levelo://app?vid=69782be2-23f1-401e-9c1c-094bd60878ee","ios":"levelo://app?vid=69782be2-23f1-401e-9c1c-094bd60878ee"},"vehicle_type_id":"4","last_reported":1750281028,"current_range_meters":8800,"station_id":"ce4bhih2rcd13ifvqfs0","pricing_plan_id":"cebpf4jnsgd1na2vs0mg"},{"bike_id":"641c5c57-edd1-4e50-a345-96d6a654372e","system_id":"levelo_inurba_marseille","lat":43.23188,"lon":5.39975,"is_reserved":false,"is_disabled":false,"rental_uris":{"android":"levelo://app?vid=641c5c57-edd1-4e50-a345-96d6a654372e","ios":"levelo://app?vid=641c5c57-edd1-4e50-a345-96d6a654372e"},"vehicle_type_id":"4","last_reported":1750281028,"current_range_meters":8800,"station_id":"ce4bhn12rcd13ifvqgqg","pricing_plan_id":"cebpf4jnsgd1na2vs0mg"},{"bike_id":"75759bf8-707f-43b6-94f7-17b37635eb78","system_id":"levelo_inurba_marseille","lat":43.32334,"lon":5.40618,"is_reserved":false,"is_disabled":false,"rental_uris":{"android":"levelo://app?vid=75759bf8-707f-43b6-94f7-17b37635eb78","ios":"levelo://app?vid=75759bf8-707f-43b6-94f7-17b37635eb78"},"vehicle_type_id":"4","last_reported":1750281028,"current_range_meters":8800,"station_id":"ce4bhq92rcd13ifvqhjg","pricing_plan_id":"cebpf4jnsgd1na2vs0mg"},{"bike_id":"23f3feed-e6a0-4a28-bf48-8571d41ec480","system_id":"levelo_inurba_marseille","lat":43.3153,"lon":5.374833,"is_reserved":false,"is_disabled":false,"rental_uris":{"android":"levelo://app?vid=23f3feed-e6a0-4a28-bf48-8571d41ec480","ios":"levelo://app?vid=23f3feed-e6a0-4a28-bf48-8571d41ec480"},"vehicle_type_id":"4","last_reported":1750281028,"current_range_meters":9200,"station_id":"","pricing_plan_id":"cebpf4jnsgd1na2vs0mg"},{"bike_id":"5b64672e-b786-4fe7-9953-7da2f8feeb90","system_id":"levelo_inurba_marseille","lat":43.30333,"lon":5.40086,"is_reserved":false,"is_disabled":false,"rental_uris":{"android":"levelo://app?vid=5b64672e-b786-4fe7-9953-7da2f8feeb90","ios":"levelo://app?vid=5b64672e-b786-4fe7-9953-7da2f8feeb90"},"vehicle_type_id":"4","last_reported":1750281028,"current_range_meters":9200,"station_id":"","pricing_plan_id":"cebpf4jnsgd1na2vs0mg"},{"bike_id":"fd4929ef-d295-49aa-ab35-c456db6140c8","system_id":"levelo_inurba_marseille","lat":43.29267,"lon":5.38431,"is_reserved":false,"is_disabled":false,"rental_uris":{"android":"levelo://app?vid=fd4929ef-d295-49aa-ab35-c456db6140c8","ios":"levelo://app?vid=fd4929ef-d295-49aa-ab35-c456db6140c8"},"vehicle_type_id":"4","last_reported":1750281028,"current_range_meters":9200,"station_id":"ce4bh692rcd13ifvqea0","pricing_plan_id":"cebpf4jnsgd1na2vs0mg"},{"bike_id":"471e2f72-9c35-4231-8175-c204d44796c5","system_id":"levelo_inurba_marseille","lat":43.23181,"lon":5.39991,"is_reserved":false,"is_disabled":false,"rental_uris":{"android":"levelo://app?vid=471e2f72-9c35-4231-8175-c204d44796c5","ios":"levelo://app?vid=471e2f72-9c35-4231-8175-c204d44796c5"},"vehicle_type_id":"4","last_reported":1750281028,"current_range_meters":9200,"station_id":"ce4bhn12rcd13ifvqgqg","pricing_plan_id":"cebpf4jnsgd1na2vs0mg"},{"bike_id":"e3c965ff-b8c0-4308-8d14-7d7655f959ef","system_id":"levelo_inurba_marseille","lat":43.27987,"lon":5.41656,"is_reserved":false,"is_disabled":false,"rental_uris":{"android":"levelo://app?vid=e3c965ff-b8c0-4308-8d14-7d7655f959ef","ios":"levelo://app?vid=e3c965ff-b8c0-4308-8d14-7d7655f959ef"},"vehicle_type_id":"4","last_reported":1750281028,"current_range_meters":9200,"station_id":"ce4bho12rcd13ifvqh1g","pricing_plan_id":"cebpf4jnsgd1na2vs0mg"},{"bike_id":"2503ef2d-ca38-40ac-a55a-d6d8bd08fde6","system_id":"levelo_inurba_marseille","lat":43.31578,"lon":5.36947,"is_reserved":false,"is_disabled":false,"rental_uris":{"android":"levelo://app?vid=2503ef2d-ca38-40ac-a55a-d6d8bd08fde6","ios":"levelo://app?vid=2503ef2d-ca38-40ac-a55a-d6d8bd08fde6"},"vehicle_type_id":"4","last_reported":1750281028,"current_range_meters":9600,"station_id":"","pricing_plan_id":"cebpf4jnsgd1na2vs0mg"},{"bike_id":"de0f7c2b-5974-4035-a240-8ed367c0e3f3","system_id":"levelo_inurba_marseille","lat":43.31961,"lon":5.3763,"is_reserved":false,"is_disabled":false,"rental_uris":{"android":"levelo://app?vid=de0f7c2b-5974-4035-a240-8ed367c0e3f3","ios":"levelo://app?vid=de0f7c2b-5974-4035-a240-8ed367c0e3f3"},"vehicle_type_id":"4","last_reported":1750281028,"current_range_meters":9600,"station_id":"","pricing_plan_id":"cebpf4jnsgd1na2vs0mg"},{"bike_id":"19f81a7b-ae27-47ca-af36-c44aab5bd5f3","system_id":"levelo_inurba_marseille","lat":43.29701,"lon":5.36602,"is_reserved":false,"is_disabled":false,"rental_uris":{"android":"levelo://app?vid=19f81a7b-ae27-47ca-af36-c44aab5bd5f3","ios":"levelo://app?vid=19f81a7b-ae27-47ca-af36-c44aab5bd5f3"},"vehicle_type_id":"4","last_reported":1750281028,"current_range_meters":9600,"station_id":"ce4bgn12rcd13ifvqbt0","pricing_plan_id":"cebpf4jnsgd1na2vs0mg"},{"bike_id":"c02b5f69-6a81-431a-ad20-960c9ba07212","system_id":"levelo_inurba_marseille","lat":43.31068,"lon":5.38349,"is_reserved":false,"is_disabled":false,"rental_uris":{"android":"levelo://app?vid=c02b5f69-6a81-431a-ad20-960c9ba07212","ios":"levelo://app?vid=c02b5f69-6a81-431a-ad20-960c9ba07212"},"vehicle_type_id":"4","last_reported":1750281028,"current_range_meters":9600,"station_id":"ce4bgv92rcd13ifvqcr0","pricing_plan_id":"cebpf4jnsgd1na2vs0mg"},{"bike_id":"326549e9-4759-4235-983a-f8e4bc5a6a4b","system_id":"levelo_inurba_marseille","lat":43.30913,"lon":5.40137,"is_reserved":false,"is_disabled":false,"rental_uris":{"android":"levelo://app?vid=326549e9-4759-4235-983a-f8e4bc5a6a4b","ios":"levelo://app?vid=326549e9-4759-4235-983a-f8e4bc5a6a4b"},"vehicle_type_id":"4","last_reported":1750281028,"current_range_meters":9600,"station_id":"ce4bgvp2rcd13ifvqct0","pricing_plan_id":"cebpf4jnsgd1na2vs0mg"},{"bike_id":"4caa671f-37ec-4b68-9bee-227d366ccc88","system_id":"levelo_inurba_marseille","lat":43.30135,"lon":5.39859,"is_reserved":false,"is_disabled":false,"rental_uris":{"android":"levelo://app?vid=4caa671f-37ec-4b68-9bee-227d366ccc88","ios":"levelo://app?vid=4caa671f-37ec-4b68-9bee-227d366ccc88"},"vehicle_type_id":"4","last_reported":1750281028,"current_range_meters":9600,"station_id":"ce4bh0h2rcd13ifvqd40","pricing_plan_id":"cebpf4jnsgd1na2vs0mg"},{"bike_id":"d0c3c7a1-a682-4abb-b32c-b7af45585b31","system_id":"levelo_inurba_marseille","lat":43.28701,"lon":5.39987,"is_reserved":false,"is_disabled":false,"rental_uris":{"android":"levelo://app?vid=d0c3c7a1-a682-4abb-b32c-b7af45585b31","ios":"levelo://app?vid=d0c3c7a1-a682-4abb-b32c-b7af45585b31"},"vehicle_type_id":"4","last_reported":1750281028,"current_range_meters":9600,"station_id":"ce4bho92rcd13ifvqh3g","pricing_plan_id":"cebpf4jnsgd1na2vs0mg"},{"bike_id":"dadef28e-7562-4c42-898f-7a7bd0ef4956","system_id":"levelo_inurba_marseille","lat":43.27622,"lon":5.36103,"is_reserved":false,"is_disabled":false,"rental_uris":{"android":"levelo://app?vid=dadef28e-7562-4c42-898f-7a7bd0ef4956","ios":"levelo://app?vid=dadef28e-7562-4c42-898f-7a7bd0ef4956"},"vehicle_type_id":"4","last_reported":1750281028,"current_range_meters":10000,"station_id":"ce4bgj92rcd13ifvqbe0","pricing_plan_id":"cebpf4jnsgd1na2vs0mg"},{"bike_id":"84d567e8-44c2-45e5-ba71-d239d2622af2","system_id":"levelo_inurba_marseille","lat":43.31369,"lon":5.36724,"is_reserved":false,"is_disabled":false,"rental_uris":{"android":"levelo://app?vid=84d567e8-44c2-45e5-ba71-d239d2622af2","ios":"levelo://app?vid=84d567e8-44c2-45e5-ba71-d239d2622af2"},"vehicle_type_id":"4","last_reported":1750281028,"current_range_meters":10000,"station_id":"ce4bgr92rcd13ifvqc6g","pricing_plan_id":"cebpf4jnsgd1na2vs0mg"},{"bike_id":"bf681d83-ae5d-410a-ba2f-87283af83791","system_id":"levelo_inurba_marseille","lat":43.31359,"lon":5.38492,"is_reserved":false,"is_disabled":false,"rental_uris":{"android":"levelo://app?vid=bf681d83-ae5d-410a-ba2f-87283af83791","ios":"levelo://app?vid=bf681d83-ae5d-410a-ba2f-87283af83791"},"vehicle_type_id":"4","last_reported":1750281028,"current_range_meters":10000,"station_id":"ce4bgt92rcd13ifvqcf0","pricing_plan_id":"cebpf4jnsgd1na2vs0mg"},{"bike_id":"d3c2f0c9-6847-419c-b0ee-1046ed8a7e8a","system_id":"levelo_inurba_marseille","lat":43.311775,"lon":5.387179,"is_reserved":false,"is_disabled":false,"rental_uris":{"android":"levelo://app?vid=d3c2f0c9-6847-419c-b0ee-1046ed8a7e8a","ios":"levelo://app?vid=d3c2f0c9-6847-419c-b0ee-1046ed8a7e8a"},"vehicle_type_id":"4","last_reported":1750281028,"current_range_meters":10000,"station_id":"ce4bgv12rcd13ifvqcp0","pricing_plan_id":"cebpf4jnsgd1na2vs0mg"},{"bike_id":"9282e2ab-6bc3-4346-af89-970a0ac264ad","system_id":"levelo_inurba_marseille","lat":43.31275,"lon":5.40161,"is_reserved":false,"is_disabled":false,"rental_uris":{"android":"levelo://app?vid=9282e2ab-6bc3-4346-af89-970a0ac264ad","ios":"levelo://app?vid=9282e2ab-6bc3-4346-af89-970a0ac264ad"},"vehicle_type_id":"4","last_reported":1750281028,"current_range_meters":10000,"station_id":"ce4bh092rcd13ifvqd30","pricing_plan_id":"cebpf4jnsgd1na2vs0mg"},{"bike_id":"bb45e67b-3ca9-4249-8e9c-823c1000de4b","system_id":"levelo_inurba_marseille","lat":43.3058,"lon":5.39343,"is_reserved":false,"is_disabled":false,"rental_uris":{"android":"levelo://app?vid=bb45e67b-3ca9-4249-8e9c-823c1000de4b","ios":"levelo://app?vid=bb45e67b-3ca9-4249-8e9c-823c1000de4b"},"vehicle_type_id":"4","last_reported":1750281028,"current_range_meters":10000,"station_id":"ce4bh0p2rcd13ifvqd80","pricing_plan_id":"cebpf4jnsgd1na2vs0mg"},{"bike_id":"7ab5af0a-5b00-4541-85a5-284c7186b3f8","system_id":"levelo_inurba_marseille","lat":43.3061,"lon":5.40104,"is_reserved":false,"is_disabled":false,"rental_uris":{"android":"levelo://app?vid=7ab5af0a-5b00-4541-85a5-284c7186b3f8","ios":"levelo://app?vid=7ab5af0a-5b00-4541-85a5-284c7186b3f8"},"vehicle_type_id":"4","last_reported":1750281028,"current_range_meters":10000,"station_id":"ce4bh112rcd13ifvqda0","pricing_plan_id":"cebpf4jnsgd1na2vs0mg"},{"bike_id":"0a9ff0c7-8b85-4233-bcce-992b0abbb281","system_id":"levelo_inurba_marseille","lat":43.29571,"lon":5.39983,"is_reserved":false,"is_disabled":false,"rental_uris":{"android":"levelo://app?vid=0a9ff0c7-8b85-4233-bcce-992b0abbb281","ios":"levelo://app?vid=0a9ff0c7-8b85-4233-bcce-992b0abbb281"},"vehicle_type_id":"4","last_reported":1750281028,"current_range_meters":10000,"station_id":"ce4bh312rcd13ifvqdj0","pricing_plan_id":"cebpf4jnsgd1na2vs0mg"},{"bike_id":"3518210a-6d90-482f-a11b-11cb7c94acd1","system_id":"levelo_inurba_marseille","lat":43.26455,"lon":5.39127,"is_reserved":false,"is_disabled":false,"rental_uris":{"android":"levelo://app?vid=3518210a-6d90-482f-a11b-11cb7c94acd1","ios":"levelo://app?vid=3518210a-6d90-482f-a11b-11cb7c94acd1"},"vehicle_type_id":"4","last_reported":1750281028,"current_range_meters":10800,"station_id":"","pricing_plan_id":"cebpf4jnsgd1na2vs0mg"},{"bike_id":"1fffbc51-6bbc-4ace-9fbd-43056e4d2bc1","system_id":"levelo_inurba_marseille","lat":43.30241,"lon":5.40047,"is_reserved":false,"is_disabled":false,"rental_uris":{"android":"levelo://app?vid=1fffbc51-6bbc-4ace-9fbd-43056e4d2bc1","ios":"levelo://app?vid=1fffbc51-6bbc-4ace-9fbd-43056e4d2bc1"},"vehicle_type_id":"4","last_reported":1750281028,"current_range_meters":10800,"station_id":"ce4bgvh2rcd13ifvqcs0","pricing_plan_id":"cebpf4jnsgd1na2vs0mg"},{"bike_id":"2218fd3b-4948-4762-a55e-49112f312d79","system_id":"levelo_inurba_marseille","lat":43.29804,"lon":5.40395,"is_reserved":false,"is_disabled":false,"rental_uris":{"android":"levelo://app?vid=2218fd3b-4948-4762-a55e-49112f312d79","ios":"levelo://app?vid=2218fd3b-4948-4762-a55e-49112f312d79"},"vehicle_type_id":"4","last_reported":1750281028,"current_range_meters":10800,"station_id":"ce4bh112rcd13ifvqd90","pricing_plan_id":"cebpf4jnsgd1na2vs0mg"},{"bike_id":"1883a909-1ed4-4191-baa3-724b72d98064","system_id":"levelo_inurba_marseille","lat":43.28849,"lon":5.39322,"is_reserved":false,"is_disabled":false,"rental_uris":{"android":"levelo://app?vid=1883a909-1ed4-4191-baa3-724b72d98064","ios":"levelo://app?vid=1883a909-1ed4-4191-baa3-724b72d98064"},"vehicle_type_id":"4","last_reported":1750281028,"current_range_meters":10800,"station_id":"ce4bh2p2rcd13ifvqdi0","pricing_plan_id":"cebpf4jnsgd1na2vs0mg"},{"bike_id":"6ce10a1f-0a04-4b70-8d39-c196a32af404","system_id":"levelo_inurba_marseille","lat":43.29555,"lon":5.39974,"is_reserved":false,"is_disabled":false,"rental_uris":{"android":"levelo://app?vid=6ce10a1f-0a04-4b70-8d39-c196a32af404","ios":"levelo://app?vid=6ce10a1f-0a04-4b70-8d39-c196a32af404"},"vehicle_type_id":"4","last_reported":1750281028,"current_range_meters":10800,"station_id":"ce4bh312rcd13ifvqdj0","pricing_plan_id":"cebpf4jnsgd1na2vs0mg"},{"bike_id":"7180df16-7bbc-49a8-b4b9-87eb49b98731","system_id":"levelo_inurba_marseille","lat":43.28352,"lon":5.38094,"is_reserved":false,"is_disabled":false,"rental_uris":{"android":"levelo://app?vid=7180df16-7bbc-49a8-b4b9-87eb49b98731","ios":"levelo://app?vid=7180df16-7bbc-49a8-b4b9-87eb49b98731"},"vehicle_type_id":"4","last_reported":1750281028,"current_range_meters":10800,"station_id":"ce4bh412rcd13ifvqdr0","pricing_plan_id":"cebpf4jnsgd1na2vs0mg"},{"bike_id":"83162ce7-f968-4741-b4d8-5303f4c7db4f","system_id":"levelo_inurba_marseille","lat":43.25812,"lon":5.39438,"is_reserved":false,"is_disabled":false,"rental_uris":{"android":"levelo://app?vid=83162ce7-f968-4741-b4d8-5303f4c7db4f","ios":"levelo://app?vid=83162ce7-f968-4741-b4d8-5303f4c7db4f"},"vehicle_type_id":"4","last_reported":1750281028,"current_range_meters":10800,"station_id":"ce4bhip2rcd13ifvqft0","pricing_plan_id":"cebpf4jnsgd1na2vs0mg"},{"bike_id":"4b8da722-ee9e-48a4-a5e5-3a8a10364708","system_id":"levelo_inurba_marseille","lat":43.31223,"lon":5.37809,"is_reserved":false,"is_disabled":false,"rental_uris":{"android":"levelo://app?vid=4b8da722-ee9e-48a4-a5e5-3a8a10364708","ios":"levelo://app?vid=4b8da722-ee9e-48a4-a5e5-3a8a10364708"},"vehicle_type_id":"4","last_reported":1750281028,"current_range_meters":11200,"station_id":"","pricing_plan_id":"cebpf4jnsgd1na2vs0mg"},{"bike_id":"12bdf26d-bf34-446a-bdbd-1f7be07acafb","system_id":"levelo_inurba_marseille","lat":43.30426,"lon":5.38885,"is_reserved":false,"is_disabled":false,"rental_uris":{"android":"levelo://app?vid=12bdf26d-bf34-446a-bdbd-1f7be07acafb","ios":"levelo://app?vid=12bdf26d-bf34-446a-bdbd-1f7be07acafb"},"vehicle_type_id":"4","last_reported":1750281028,"current_range_meters":11200,"station_id":"ce4bgk12rcd13ifvqbi0","pricing_plan_id":"cebpf4jnsgd1na2vs0mg"},{"bike_id":"d83a0f04-244b-4633-bd56-be21b81ea461","system_id":"levelo_inurba_marseille","lat":43.299683,"lon":5.371737,"is_reserved":false,"is_disabled":false,"rental_uris":{"android":"levelo://app?vid=d83a0f04-244b-4633-bd56-be21b81ea461","ios":"levelo://app?vid=d83a0f04-244b-4633-bd56-be21b81ea461"},"vehicle_type_id":"4","last_reported":1750281028,"current_range_meters":11200,"station_id":"ce4bgr92rcd13ifvqc7g","pricing_plan_id":"cebpf4jnsgd1na2vs0mg"},{"bike_id":"da794ecc-7ffc-4aac-aeb6-36fca201d161","system_id":"levelo_inurba_marseille","lat":43.31494,"lon":5.37304,"is_reserved":false,"is_disabled":false,"rental_uris":{"android":"levelo://app?vid=da794ecc-7ffc-4aac-aeb6-36fca201d161","ios":"levelo://app?vid=da794ecc-7ffc-4aac-aeb6-36fca201d161"},"vehicle_type_id":"4","last_reported":1750281028,"current_range_meters":11200,"station_id":"ce4bgt12rcd13ifvqcd0","pricing_plan_id":"cebpf4jnsgd1na2vs0mg"},{"bike_id":"e30a8aef-01bc-4bd4-bba1-97a762d003c8","system_id":"levelo_inurba_marseille","lat":43.31686,"lon":5.40485,"is_reserved":false,"is_disabled":false,"rental_uris":{"android":"levelo://app?vid=e30a8aef-01bc-4bd4-bba1-97a762d003c8","ios":"levelo://app?vid=e30a8aef-01bc-4bd4-bba1-97a762d003c8"},"vehicle_type_id":"4","last_reported":1750281028,"current_range_meters":11200,"station_id":"ce4bh012rcd13ifvqd00","pricing_plan_id":"cebpf4jnsgd1na2vs0mg"},{"bike_id":"72a93840-ce06-492f-9c60-a46270f3b67c","system_id":"levelo_inurba_marseille","lat":43.25356,"lon":5.39465,"is_reserved":false,"is_disabled":false,"rental_uris":{"android":"levelo://app?vid=72a93840-ce06-492f-9c60-a46270f3b67c","ios":"levelo://app?vid=72a93840-ce06-492f-9c60-a46270f3b67c"},"vehicle_type_id":"4","last_reported":1750281028,"current_range_meters":11600,"station_id":"","pricing_plan_id":"cebpf4jnsgd1na2vs0mg"},{"bike_id":"d4c18ab9-b77c-429f-8035-e219b5f65950","system_id":"levelo_inurba_marseille","lat":43.29039,"lon":5.39965,"is_reserved":false,"is_disabled":false,"rental_uris":{"android":"levelo://app?vid=d4c18ab9-b77c-429f-8035-e219b5f65950","ios":"levelo://app?vid=d4c18ab9-b77c-429f-8035-e219b5f65950"},"vehicle_type_id":"4","last_reported":1750281028,"current_range_meters":11600,"station_id":"ce4bh392rcd13ifvqdm0","pricing_plan_id":"cebpf4jnsgd1na2vs0mg"},{"bike_id":"c9ac6079-8e2e-4136-b88d-25284359b0ff","system_id":"levelo_inurba_marseille","lat":43.2953,"lon":5.39043,"is_reserved":false,"is_disabled":false,"rental_uris":{"android":"levelo://app?vid=c9ac6079-8e2e-4136-b88d-25284359b0ff","ios":"levelo://app?vid=c9ac6079-8e2e-4136-b88d-25284359b0ff"},"vehicle_type_id":"4","last_reported":1750281028,"current_range_meters":11600,"station_id":"ce4bh3p2rcd13ifvqdp0","pricing_plan_id":"cebpf4jnsgd1na2vs0mg"},{"bike_id":"17054a50-bb14-4390-a814-1acf48f044c5","system_id":"levelo_inurba_marseille","lat":43.29032,"lon":5.38646,"is_reserved":false,"is_disabled":false,"rental_uris":{"android":"levelo://app?vid=17054a50-bb14-4390-a814-1acf48f044c5","ios":"levelo://app?vid=17054a50-bb14-4390-a814-1acf48f044c5"},"vehicle_type_id":"4","last_reported":1750281028,"current_range_meters":11600,"station_id":"ce4bh4p2rcd13ifvqe0g","pricing_plan_id":"cebpf4jnsgd1na2vs0mg"},{"bike_id":"2a98b236-cdc9-4b58-8c20-3ba23def1ca4","system_id":"levelo_inurba_marseille","lat":43.29263,"lon":5.38446,"is_reserved":false,"is_disabled":false,"rental_uris":{"android":"levelo://app?vid=2a98b236-cdc9-4b58-8c20-3ba23def1ca4","ios":"levelo://app?vid=2a98b236-cdc9-4b58-8c20-3ba23def1ca4"},"vehicle_type_id":"4","last_reported":1750281028,"current_range_meters":11600,"station_id":"ce4bh692rcd13ifvqea0","pricing_plan_id":"cebpf4jnsgd1na2vs0mg"},{"bike_id":"34028d9a-a12f-42db-b198-b18a67a6f506","system_id":"levelo_inurba_marseille","lat":43.27833,"lon":5.39197,"is_reserved":false,"is_disabled":false,"rental_uris":{"android":"levelo://app?vid=34028d9a-a12f-42db-b198-b18a67a6f506","ios":"levelo://app?vid=34028d9a-a12f-42db-b198-b18a67a6f506"},"vehicle_type_id":"4","last_reported":1750281028,"current_range_meters":11600,"station_id":"ce4bhjp2rcd13ifvqga0","pricing_plan_id":"cebpf4jnsgd1na2vs0mg"},{"bike_id":"a623133e-c386-43c9-b2ce-8cbde74ee2df","system_id":"levelo_inurba_marseille","lat":43.32477,"lon":5.36561,"is_reserved":false,"is_disabled":false,"rental_uris":{"android":"levelo://app?vid=a623133e-c386-43c9-b2ce-8cbde74ee2df","ios":"levelo://app?vid=a623133e-c386-43c9-b2ce-8cbde74ee2df"},"vehicle_type_id":"4","last_reported":1750281028,"current_range_meters":11600,"station_id":"ce4bhs12rcd13ifvqhvg","pricing_plan_id":"cebpf4jnsgd1na2vs0mg"},{"bike_id":"b9740617-416c-49ef-a593-d345aa13726b","system_id":"levelo_inurba_marseille","lat":43.27023,"lon":5.43107,"is_reserved":false,"is_disabled":false,"rental_uris":{"android":"levelo://app?vid=b9740617-416c-49ef-a593-d345aa13726b","ios":"levelo://app?vid=b9740617-416c-49ef-a593-d345aa13726b"},"vehicle_type_id":"4","last_reported":1750281028,"current_range_meters":12000,"station_id":"","pricing_plan_id":"cebpf4jnsgd1na2vs0mg"},{"bike_id":"0dedb6f6-6801-483b-bfb8-9cd4533d158f","system_id":"levelo_inurba_marseille","lat":43.31147,"lon":5.38102,"is_reserved":false,"is_disabled":false,"rental_uris":{"android":"levelo://app?vid=0dedb6f6-6801-483b-bfb8-9cd4533d158f","ios":"levelo://app?vid=0dedb6f6-6801-483b-bfb8-9cd4533d158f"},"vehicle_type_id":"4","last_reported":1750281028,"current_range_meters":12000,"station_id":"","pricing_plan_id":"cebpf4jnsgd1na2vs0mg"},{"bike_id":"88f23c07-619f-46a6-a32d-485b66e4685f","system_id":"levelo_inurba_marseille","lat":43.30869,"lon":5.37162,"is_reserved":false,"is_disabled":false,"rental_uris":{"android":"levelo://app?vid=88f23c07-619f-46a6-a32d-485b66e4685f","ios":"levelo://app?vid=88f23c07-619f-46a6-a32d-485b66e4685f"},"vehicle_type_id":"4","last_reported":1750281028,"current_range_meters":12000,"station_id":"ce4bguh2rcd13ifvqckg","pricing_plan_id":"cebpf4jnsgd1na2vs0mg"},{"bike_id":"1854a7fa-15d2-4303-a16e-cccd5830b98e","system_id":"levelo_inurba_marseille","lat":43.30255,"lon":5.40057,"is_reserved":false,"is_disabled":false,"rental_uris":{"android":"levelo://app?vid=1854a7fa-15d2-4303-a16e-cccd5830b98e","ios":"levelo://app?vid=1854a7fa-15d2-4303-a16e-cccd5830b98e"},"vehicle_type_id":"4","last_reported":1750281028,"current_range_meters":12000,"station_id":"ce4bgvh2rcd13ifvqcs0","pricing_plan_id":"cebpf4jnsgd1na2vs0mg"},{"bike_id":"47c1d3ff-2ab8-4bf2-8574-bc9622db1873","system_id":"levelo_inurba_marseille","lat":43.29188,"lon":5.3932,"is_reserved":false,"is_disabled":false,"rental_uris":{"android":"levelo://app?vid=47c1d3ff-2ab8-4bf2-8574-bc9622db1873","ios":"levelo://app?vid=47c1d3ff-2ab8-4bf2-8574-bc9622db1873"},"vehicle_type_id":"4","last_reported":1750281028,"current_range_meters":12000,"station_id":"ce4bh192rcd13ifvqdd0","pricing_plan_id":"cebpf4jnsgd1na2vs0mg"},{"bike_id":"c750c9ae-d6a7-4a3b-961c-442be058f127","system_id":"levelo_inurba_marseille","lat":43.29269,"lon":5.40129,"is_reserved":false,"is_disabled":false,"rental_uris":{"android":"levelo://app?vid=c750c9ae-d6a7-4a3b-961c-442be058f127","ios":"levelo://app?vid=c750c9ae-d6a7-4a3b-961c-442be058f127"},"vehicle_type_id":"4","last_reported":1750281028,"current_range_meters":12000,"station_id":"ce4bh312rcd13ifvqdk0","pricing_plan_id":"cebpf4jnsgd1na2vs0mg"},{"bike_id":"5ad5f0ad-1eb3-4baf-82ff-b70bd75e6330","system_id":"levelo_inurba_marseille","lat":43.29094,"lon":5.38112,"is_reserved":false,"is_disabled":false,"rental_uris":{"android":"levelo://app?vid=5ad5f0ad-1eb3-4baf-82ff-b70bd75e6330","ios":"levelo://app?vid=5ad5f0ad-1eb3-4baf-82ff-b70bd75e6330"},"vehicle_type_id":"4","last_reported":1750281028,"current_range_meters":12000,"station_id":"ce4bh512rcd13ifvqe2g","pricing_plan_id":"cebpf4jnsgd1na2vs0mg"},{"bike_id":"2ee6b23f-0c08-44f9-990b-23dc1b889a82","system_id":"levelo_inurba_marseille","lat":43.29263,"lon":5.38415,"is_reserved":false,"is_disabled":false,"rental_uris":{"android":"levelo://app?vid=2ee6b23f-0c08-44f9-990b-23dc1b889a82","ios":"levelo://app?vid=2ee6b23f-0c08-44f9-990b-23dc1b889a82"},"vehicle_type_id":"4","last_reported":1750281028,"current_range_meters":12000,"station_id":"ce4bh692rcd13ifvqea0","pricing_plan_id":"cebpf4jnsgd1na2vs0mg"},{"bike_id":"72945425-1aaa-4e75-9ae2-476e905a3c78","system_id":"levelo_inurba_marseille","lat":43.28027,"lon":5.36941,"is_reserved":false,"is_disabled":false,"rental_uris":{"android":"levelo://app?vid=72945425-1aaa-4e75-9ae2-476e905a3c78","ios":"levelo://app?vid=72945425-1aaa-4e75-9ae2-476e905a3c78"},"vehicle_type_id":"4","last_reported":1750281028,"current_range_meters":12000,"station_id":"ce4bha12rcd13ifvqef0","pricing_plan_id":"cebpf4jnsgd1na2vs0mg"},{"bike_id":"7239351f-578b-4d64-a60e-006f48b4615a","system_id":"levelo_inurba_marseille","lat":43.27906,"lon":5.39584,"is_reserved":false,"is_disabled":false,"rental_uris":{"android":"levelo://app?vid=7239351f-578b-4d64-a60e-006f48b4615a","ios":"levelo://app?vid=7239351f-578b-4d64-a60e-006f48b4615a"},"vehicle_type_id":"4","last_reported":1750281028,"current_range_meters":12000,"station_id":"ce4bhf92rcd13ifvqf40","pricing_plan_id":"cebpf4jnsgd1na2vs0mg"},{"bike_id":"900a9a32-71d3-43f4-b06c-4f7199f0d1b8","system_id":"levelo_inurba_marseille","lat":43.27807,"lon":5.40706,"is_reserved":false,"is_disabled":false,"rental_uris":{"android":"levelo://app?vid=900a9a32-71d3-43f4-b06c-4f7199f0d1b8","ios":"levelo://app?vid=900a9a32-71d3-43f4-b06c-4f7199f0d1b8"},"vehicle_type_id":"4","last_reported":1750281028,"current_range_meters":12000,"station_id":"ce4bhnh2rcd13ifvqgtg","pricing_plan_id":"cebpf4jnsgd1na2vs0mg"},{"bike_id":"bf9f876b-7ab3-48c4-8b0f-84c1d2c88c6d","system_id":"levelo_inurba_marseille","lat":43.29526,"lon":5.38545,"is_reserved":false,"is_disabled":false,"rental_uris":{"android":"levelo://app?vid=bf9f876b-7ab3-48c4-8b0f-84c1d2c88c6d","ios":"levelo://app?vid=bf9f876b-7ab3-48c4-8b0f-84c1d2c88c6d"},"vehicle_type_id":"4","last_reported":1750281028,"current_range_meters":12400,"station_id":"ce4bgih2rcd13ifvqba0","pricing_plan_id":"cebpf4jnsgd1na2vs0mg"},{"bike_id":"090d8134-33c4-46ee-b3a3-bf74142ea81d","system_id":"levelo_inurba_marseille","lat":43.286601,"lon":5.367546,"is_reserved":false,"is_disabled":false,"rental_uris":{"android":"levelo://app?vid=090d8134-33c4-46ee-b3a3-bf74142ea81d","ios":"levelo://app?vid=090d8134-33c4-46ee-b3a3-bf74142ea81d"},"vehicle_type_id":"4","last_reported":1750281028,"current_range_meters":12400,"station_id":"ce4bgj92rcd13ifvqbd0","pricing_plan_id":"cebpf4jnsgd1na2vs0mg"},{"bike_id":"60f94429-50bb-4fba-9522-8852de39e7ba","system_id":"levelo_inurba_marseille","lat":43.30928,"lon":5.40138,"is_reserved":false,"is_disabled":false,"rental_uris":{"android":"levelo://app?vid=60f94429-50bb-4fba-9522-8852de39e7ba","ios":"levelo://app?vid=60f94429-50bb-4fba-9522-8852de39e7ba"},"vehicle_type_id":"4","last_reported":1750281028,"current_range_meters":12400,"station_id":"ce4bgvp2rcd13ifvqct0","pricing_plan_id":"cebpf4jnsgd1na2vs0mg"},{"bike_id":"62f488e3-bcdb-4c3a-a77a-693e89b8d406","system_id":"levelo_inurba_marseille","lat":43.29525,"lon":5.39401,"is_reserved":false,"is_disabled":false,"rental_uris":{"android":"levelo://app?vid=62f488e3-bcdb-4c3a-a77a-693e89b8d406","ios":"levelo://app?vid=62f488e3-bcdb-4c3a-a77a-693e89b8d406"},"vehicle_type_id":"4","last_reported":1750281028,"current_range_meters":12400,"station_id":"ce4bh292rcd13ifvqdf0","pricing_plan_id":"cebpf4jnsgd1na2vs0mg"},{"bike_id":"fb505541-9a08-440d-836c-84ed4bf0071a","system_id":"levelo_inurba_marseille","lat":43.28343,"lon":5.38097,"is_reserved":false,"is_disabled":false,"rental_uris":{"android":"levelo://app?vid=fb505541-9a08-440d-836c-84ed4bf0071a","ios":"levelo://app?vid=fb505541-9a08-440d-836c-84ed4bf0071a"},"vehicle_type_id":"4","last_reported":1750281028,"current_range_meters":12400,"station_id":"ce4bh412rcd13ifvqdr0","pricing_plan_id":"cebpf4jnsgd1na2vs0mg"},{"bike_id":"28a6aed9-7d79-454a-9fb7-a0eead15a254","system_id":"levelo_inurba_marseille","lat":43.29266,"lon":5.38429,"is_reserved":false,"is_disabled":false,"rental_uris":{"android":"levelo://app?vid=28a6aed9-7d79-454a-9fb7-a0eead15a254","ios":"levelo://app?vid=28a6aed9-7d79-454a-9fb7-a0eead15a254"},"vehicle_type_id":"4","last_reported":1750281028,"current_range_meters":12400,"station_id":"ce4bh692rcd13ifvqea0","pricing_plan_id":"cebpf4jnsgd1na2vs0mg"},{"bike_id":"b8a8057e-f2af-4faa-a510-a1d6e7775241","system_id":"levelo_inurba_marseille","lat":43.2465,"lon":5.38895,"is_reserved":false,"is_disabled":false,"rental_uris":{"android":"levelo://app?vid=b8a8057e-f2af-4faa-a510-a1d6e7775241","ios":"levelo://app?vid=b8a8057e-f2af-4faa-a510-a1d6e7775241"},"vehicle_type_id":"4","last_reported":1750281028,"current_range_meters":12400,"station_id":"ce4bhg12rcd13ifvqf60","pricing_plan_id":"cebpf4jnsgd1na2vs0mg"},{"bike_id":"d9269cb4-e58e-42af-ae8e-de92d898f96f","system_id":"levelo_inurba_marseille","lat":43.31759,"lon":5.39018,"is_reserved":false,"is_disabled":false,"rental_uris":{"android":"levelo://app?vid=d9269cb4-e58e-42af-ae8e-de92d898f96f","ios":"levelo://app?vid=d9269cb4-e58e-42af-ae8e-de92d898f96f"},"vehicle_type_id":"4","last_reported":1750281028,"current_range_meters":12400,"station_id":"ce4bhqp2rcd13ifvqhng","pricing_plan_id":"cebpf4jnsgd1na2vs0mg"},{"bike_id":"1ef1ad6b-e01b-4d85-96a2-5e5b2748b4f8","system_id":"levelo_inurba_marseille","lat":43.29254,"lon":5.37631,"is_reserved":false,"is_disabled":false,"rental_uris":{"android":"levelo://app?vid=1ef1ad6b-e01b-4d85-96a2-5e5b2748b4f8","ios":"levelo://app?vid=1ef1ad6b-e01b-4d85-96a2-5e5b2748b4f8"},"vehicle_type_id":"4","last_reported":1750281028,"current_range_meters":12800,"station_id":"ce4bgi12rcd13ifvqb80","pricing_plan_id":"cebpf4jnsgd1na2vs0mg"},{"bike_id":"77b43f60-5104-4cac-b5b3-20b358f452c5","system_id":"levelo_inurba_marseille","lat":43.29261,"lon":5.38439,"is_reserved":false,"is_disabled":false,"rental_uris":{"android":"levelo://app?vid=77b43f60-5104-4cac-b5b3-20b358f452c5","ios":"levelo://app?vid=77b43f60-5104-4cac-b5b3-20b358f452c5"},"vehicle_type_id":"4","last_reported":1750281028,"current_range_meters":12800,"station_id":"ce4bh692rcd13ifvqea0","pricing_plan_id":"cebpf4jnsgd1na2vs0mg"},{"bike_id":"f86d7cf7-9772-480f-83bf-a90c167ffdaa","system_id":"levelo_inurba_marseille","lat":43.25105,"lon":5.40321,"is_reserved":false,"is_disabled":false,"rental_uris":{"android":"levelo://app?vid=f86d7cf7-9772-480f-83bf-a90c167ffdaa","ios":"levelo://app?vid=f86d7cf7-9772-480f-83bf-a90c167ffdaa"},"vehicle_type_id":"4","last_reported":1750281028,"current_range_meters":12800,"station_id":"ce4bhlh2rcd13ifvqgig","pricing_plan_id":"cebpf4jnsgd1na2vs0mg"},{"bike_id":"1db2f0cb-2ffe-44dc-8590-252091411295","system_id":"levelo_inurba_marseille","lat":43.29932,"lon":5.36518,"is_reserved":false,"is_disabled":false,"rental_uris":{"android":"levelo://app?vid=1db2f0cb-2ffe-44dc-8590-252091411295","ios":"levelo://app?vid=1db2f0cb-2ffe-44dc-8590-252091411295"},"vehicle_type_id":"4","last_reported":1750281028,"current_range_meters":13600,"station_id":"ce4bgm92rcd13ifvqbr0","pricing_plan_id":"cebpf4jnsgd1na2vs0mg"},{"bike_id":"3b31bcc9-38c8-4089-a610-38921b49eca3","system_id":"levelo_inurba_marseille","lat":43.30132,"lon":5.39879,"is_reserved":false,"is_disabled":false,"rental_uris":{"android":"levelo://app?vid=3b31bcc9-38c8-4089-a610-38921b49eca3","ios":"levelo://app?vid=3b31bcc9-38c8-4089-a610-38921b49eca3"},"vehicle_type_id":"4","last_reported":1750281028,"current_range_meters":13600,"station_id":"ce4bh0h2rcd13ifvqd40","pricing_plan_id":"cebpf4jnsgd1na2vs0mg"},{"bike_id":"9e8a753e-1a3a-4387-a9be-de6f77f12b9d","system_id":"levelo_inurba_marseille","lat":43.24819,"lon":5.37472,"is_reserved":false,"is_disabled":false,"rental_uris":{"android":"levelo://app?vid=9e8a753e-1a3a-4387-a9be-de6f77f12b9d","ios":"levelo://app?vid=9e8a753e-1a3a-4387-a9be-de6f77f12b9d"},"vehicle_type_id":"4","last_reported":1750281028,"current_range_meters":13600,"station_id":"ce4bhgh2rcd13ifvqfb0","pricing_plan_id":"cebpf4jnsgd1na2vs0mg"},{"bike_id":"9d2a90e7-394f-41d8-ae49-77712a22ee78","system_id":"levelo_inurba_marseille","lat":43.254892,"lon":5.376397,"is_reserved":false,"is_disabled":false,"rental_uris":{"android":"levelo://app?vid=9d2a90e7-394f-41d8-ae49-77712a22ee78","ios":"levelo://app?vid=9d2a90e7-394f-41d8-ae49-77712a22ee78"},"vehicle_type_id":"4","last_reported":1750281028,"current_range_meters":13600,"station_id":"ce4bhh12rcd13ifvqff0","pricing_plan_id":"cebpf4jnsgd1na2vs0mg"},{"bike_id":"40349b3f-d60c-4198-b036-5dbd77550f57","system_id":"levelo_inurba_marseille","lat":43.26932,"lon":5.40247,"is_reserved":false,"is_disabled":false,"rental_uris":{"android":"levelo://app?vid=40349b3f-d60c-4198-b036-5dbd77550f57","ios":"levelo://app?vid=40349b3f-d60c-4198-b036-5dbd77550f57"},"vehicle_type_id":"4","last_reported":1750281028,"current_range_meters":13600,"station_id":"cjm6bp8fraef2m0cb0m0","pricing_plan_id":"cebpf4jnsgd1na2vs0mg"},{"bike_id":"268aafb4-1331-426c-97bc-a7d6564caeb6","system_id":"levelo_inurba_marseille","lat":43.32933,"lon":5.37919,"is_reserved":false,"is_disabled":false,"rental_uris":{"android":"levelo://app?vid=268aafb4-1331-426c-97bc-a7d6564caeb6","ios":"levelo://app?vid=268aafb4-1331-426c-97bc-a7d6564caeb6"},"vehicle_type_id":"4","last_reported":1750281028,"current_range_meters":14000,"station_id":"","pricing_plan_id":"cebpf4jnsgd1na2vs0mg"},{"bike_id":"aa5bca45-2260-4a15-9478-3ead8e726a90","system_id":"levelo_inurba_marseille","lat":43.29903,"lon":5.3748,"is_reserved":false,"is_disabled":false,"rental_uris":{"android":"levelo://app?vid=aa5bca45-2260-4a15-9478-3ead8e726a90","ios":"levelo://app?vid=aa5bca45-2260-4a15-9478-3ead8e726a90"},"vehicle_type_id":"4","last_reported":1750281028,"current_range_meters":14000,"station_id":"ce4bgjh2rcd13ifvqbg0","pricing_plan_id":"cebpf4jnsgd1na2vs0mg"},{"bike_id":"fb01af8c-3dfb-4c6c-bbe3-bfe485c7678c","system_id":"levelo_inurba_marseille","lat":43.30885,"lon":5.3965,"is_reserved":false,"is_disabled":false,"rental_uris":{"android":"levelo://app?vid=fb01af8c-3dfb-4c6c-bbe3-bfe485c7678c","ios":"levelo://app?vid=fb01af8c-3dfb-4c6c-bbe3-bfe485c7678c"},"vehicle_type_id":"4","last_reported":1750281028,"current_range_meters":14000,"station_id":"ce4bh012rcd13ifvqcv0","pricing_plan_id":"cebpf4jnsgd1na2vs0mg"},{"bike_id":"c85cd0ab-8e08-42ca-aec4-ee1cbfb122dd","system_id":"levelo_inurba_marseille","lat":43.29538,"lon":5.39372,"is_reserved":false,"is_disabled":false,"rental_uris":{"android":"levelo://app?vid=c85cd0ab-8e08-42ca-aec4-ee1cbfb122dd","ios":"levelo://app?vid=c85cd0ab-8e08-42ca-aec4-ee1cbfb122dd"},"vehicle_type_id":"4","last_reported":1750281028,"current_range_meters":14000,"station_id":"ce4bh292rcd13ifvqdf0","pricing_plan_id":"cebpf4jnsgd1na2vs0mg"},{"bike_id":"086bf558-2d00-43a6-8809-1b04aa2a4eb6","system_id":"levelo_inurba_marseille","lat":43.29514,"lon":5.39401,"is_reserved":false,"is_disabled":false,"rental_uris":{"android":"levelo://app?vid=086bf558-2d00-43a6-8809-1b04aa2a4eb6","ios":"levelo://app?vid=086bf558-2d00-43a6-8809-1b04aa2a4eb6"},"vehicle_type_id":"4","last_reported":1750281028,"current_range_meters":14000,"station_id":"ce4bh292rcd13ifvqdf0","pricing_plan_id":"cebpf4jnsgd1na2vs0mg"},{"bike_id":"3d1fc9c3-122f-433f-ab35-b934f0bd89ff","system_id":"levelo_inurba_marseille","lat":43.29882,"lon":5.38912,"is_reserved":false,"is_disabled":false,"rental_uris":{"android":"levelo://app?vid=3d1fc9c3-122f-433f-ab35-b934f0bd89ff","ios":"levelo://app?vid=3d1fc9c3-122f-433f-ab35-b934f0bd89ff"},"vehicle_type_id":"4","last_reported":1750281028,"current_range_meters":14000,"station_id":"ce4bh392rcd13ifvqdl0","pricing_plan_id":"cebpf4jnsgd1na2vs0mg"},{"bike_id":"e19c5d0b-0d9e-4d79-8e3e-f772e7d1d4cf","system_id":"levelo_inurba_marseille","lat":43.23965,"lon":5.36628,"is_reserved":false,"is_disabled":false,"rental_uris":{"android":"levelo://app?vid=e19c5d0b-0d9e-4d79-8e3e-f772e7d1d4cf","ios":"levelo://app?vid=e19c5d0b-0d9e-4d79-8e3e-f772e7d1d4cf"},"vehicle_type_id":"4","last_reported":1750281028,"current_range_meters":14000,"station_id":"ce4bhi12rcd13ifvqfp0","pricing_plan_id":"cebpf4jnsgd1na2vs0mg"},{"bike_id":"a5a61b06-1d3e-42fa-88e1-4d7f199b6649","system_id":"levelo_inurba_marseille","lat":43.284453,"lon":5.391941,"is_reserved":false,"is_disabled":false,"rental_uris":{"android":"levelo://app?vid=a5a61b06-1d3e-42fa-88e1-4d7f199b6649","ios":"levelo://app?vid=a5a61b06-1d3e-42fa-88e1-4d7f199b6649"},"vehicle_type_id":"4","last_reported":1750281028,"current_range_meters":14000,"station_id":"ce4bhoh2rcd13ifvqh5g","pricing_plan_id":"cebpf4jnsgd1na2vs0mg"},{"bike_id":"f09e4435-0207-4cfc-9e8b-e439ec782eb3","system_id":"levelo_inurba_marseille","lat":43.29537,"lon":5.38538,"is_reserved":false,"is_disabled":false,"rental_uris":{"android":"levelo://app?vid=f09e4435-0207-4cfc-9e8b-e439ec782eb3","ios":"levelo://app?vid=f09e4435-0207-4cfc-9e8b-e439ec782eb3"},"vehicle_type_id":"4","last_reported":1750281028,"current_range_meters":14400,"station_id":"ce4bgih2rcd13ifvqba0","pricing_plan_id":"cebpf4jnsgd1na2vs0mg"},{"bike_id":"bdc765ac-0386-4a30-98e1-3aea0a296494","system_id":"levelo_inurba_marseille","lat":43.29538,"lon":5.38528,"is_reserved":false,"is_disabled":false,"rental_uris":{"android":"levelo://app?vid=bdc765ac-0386-4a30-98e1-3aea0a296494","ios":"levelo://app?vid=bdc765ac-0386-4a30-98e1-3aea0a296494"},"vehicle_type_id":"4","last_reported":1750281028,"current_range_meters":14400,"station_id":"ce4bgih2rcd13ifvqba0","pricing_plan_id":"cebpf4jnsgd1na2vs0mg"},{"bike_id":"2cf59a45-cef5-4753-a4b1-ed44ae1ff166","system_id":"levelo_inurba_marseille","lat":43.29254,"lon":5.40907,"is_reserved":false,"is_disabled":false,"rental_uris":{"android":"levelo://app?vid=2cf59a45-cef5-4753-a4b1-ed44ae1ff166","ios":"levelo://app?vid=2cf59a45-cef5-4753-a4b1-ed44ae1ff166"},"vehicle_type_id":"4","last_reported":1750281028,"current_range_meters":14400,"station_id":"ce4bh192rcd13ifvqdc0","pricing_plan_id":"cebpf4jnsgd1na2vs0mg"},{"bike_id":"a07ae4fd-dc37-40d4-99ff-1d64290dfa14","system_id":"levelo_inurba_marseille","lat":43.29023,"lon":5.38647,"is_reserved":false,"is_disabled":false,"rental_uris":{"android":"levelo://app?vid=a07ae4fd-dc37-40d4-99ff-1d64290dfa14","ios":"levelo://app?vid=a07ae4fd-dc37-40d4-99ff-1d64290dfa14"},"vehicle_type_id":"4","last_reported":1750281028,"current_range_meters":14400,"station_id":"ce4bh4p2rcd13ifvqe0g","pricing_plan_id":"cebpf4jnsgd1na2vs0mg"},{"bike_id":"6e7ac712-8aa9-455d-bfce-c8ff42ebbf04","system_id":"levelo_inurba_marseille","lat":43.250867,"lon":5.395292,"is_reserved":false,"is_disabled":false,"rental_uris":{"android":"levelo://app?vid=6e7ac712-8aa9-455d-bfce-c8ff42ebbf04","ios":"levelo://app?vid=6e7ac712-8aa9-455d-bfce-c8ff42ebbf04"},"vehicle_type_id":"4","last_reported":1750281028,"current_range_meters":14400,"station_id":"ce4bhm12rcd13ifvqgkg","pricing_plan_id":"cebpf4jnsgd1na2vs0mg"},{"bike_id":"c53f5cdb-aaa9-4344-991b-b831c32e3a6b","system_id":"levelo_inurba_marseille","lat":43.31085,"lon":5.42419,"is_reserved":false,"is_disabled":false,"rental_uris":{"android":"levelo://app?vid=c53f5cdb-aaa9-4344-991b-b831c32e3a6b","ios":"levelo://app?vid=c53f5cdb-aaa9-4344-991b-b831c32e3a6b"},"vehicle_type_id":"4","last_reported":1750281028,"current_range_meters":14400,"station_id":"ce4bhp92rcd13ifvqhag","pricing_plan_id":"cebpf4jnsgd1na2vs0mg"},{"bike_id":"efde03b6-bf56-4cbb-a1d9-7772d28569f6","system_id":"levelo_inurba_marseille","lat":43.31993,"lon":5.38167,"is_reserved":false,"is_disabled":false,"rental_uris":{"android":"levelo://app?vid=efde03b6-bf56-4cbb-a1d9-7772d28569f6","ios":"levelo://app?vid=efde03b6-bf56-4cbb-a1d9-7772d28569f6"},"vehicle_type_id":"4","last_reported":1750281028,"current_range_meters":14400,"station_id":"ce4bhr12rcd13ifvqhpg","pricing_plan_id":"cebpf4jnsgd1na2vs0mg"},{"bike_id":"6760503e-c295-4a14-9881-1d4c41a815cc","system_id":"levelo_inurba_marseille","lat":43.33021,"lon":5.39036,"is_reserved":false,"is_disabled":false,"rental_uris":{"android":"levelo://app?vid=6760503e-c295-4a14-9881-1d4c41a815cc","ios":"levelo://app?vid=6760503e-c295-4a14-9881-1d4c41a815cc"},"vehicle_type_id":"4","last_reported":1750281028,"current_range_meters":14400,"station_id":"ce4bhr92rcd13ifvqhrg","pricing_plan_id":"cebpf4jnsgd1na2vs0mg"},{"bike_id":"eaaa9fcd-34d4-4d0b-8f90-fbf605a0610f","system_id":"levelo_inurba_marseille","lat":43.21189,"lon":5.35083,"is_reserved":false,"is_disabled":false,"rental_uris":{"android":"levelo://app?vid=eaaa9fcd-34d4-4d0b-8f90-fbf605a0610f","ios":"levelo://app?vid=eaaa9fcd-34d4-4d0b-8f90-fbf605a0610f"},"vehicle_type_id":"4","last_reported":1750281028,"current_range_meters":14400,"station_id":"st_cvj6sg6p6f1abm77japg","pricing_plan_id":"cebpf4jnsgd1na2vs0mg"},{"bike_id":"e921cee3-b8ce-4c00-b7eb-8ab335b5e125","system_id":"levelo_inurba_marseille","lat":43.30211,"lon":5.42267,"is_reserved":false,"is_disabled":false,"rental_uris":{"android":"levelo://app?vid=e921cee3-b8ce-4c00-b7eb-8ab335b5e125","ios":"levelo://app?vid=e921cee3-b8ce-4c00-b7eb-8ab335b5e125"},"vehicle_type_id":"4","last_reported":1750281028,"current_range_meters":14800,"station_id":"","pricing_plan_id":"cebpf4jnsgd1na2vs0mg"},{"bike_id":"e8c7deee-23b3-4846-9062-4edf6057c6eb","system_id":"levelo_inurba_marseille","lat":43.2972,"lon":5.37933,"is_reserved":false,"is_disabled":false,"rental_uris":{"android":"levelo://app?vid=e8c7deee-23b3-4846-9062-4edf6057c6eb","ios":"levelo://app?vid=e8c7deee-23b3-4846-9062-4edf6057c6eb"},"vehicle_type_id":"4","last_reported":1750281028,"current_range_meters":14800,"station_id":"","pricing_plan_id":"cebpf4jnsgd1na2vs0mg"},{"bike_id":"f025e0b0-8595-426c-b214-cb9b74c5fcfd","system_id":"levelo_inurba_marseille","lat":43.32199,"lon":5.40581,"is_reserved":false,"is_disabled":false,"rental_uris":{"android":"levelo://app?vid=f025e0b0-8595-426c-b214-cb9b74c5fcfd","ios":"levelo://app?vid=f025e0b0-8595-426c-b214-cb9b74c5fcfd"},"vehicle_type_id":"4","last_reported":1750281028,"current_range_meters":14800,"station_id":"","pricing_plan_id":"cebpf4jnsgd1na2vs0mg"},{"bike_id":"56fdfc4e-979c-4ed5-9885-57018d76de79","system_id":"levelo_inurba_marseille","lat":43.29341,"lon":5.42822,"is_reserved":false,"is_disabled":false,"rental_uris":{"android":"levelo://app?vid=56fdfc4e-979c-4ed5-9885-57018d76de79","ios":"levelo://app?vid=56fdfc4e-979c-4ed5-9885-57018d76de79"},"vehicle_type_id":"4","last_reported":1750281028,"current_range_meters":14800,"station_id":"","pricing_plan_id":"cebpf4jnsgd1na2vs0mg"},{"bike_id":"7379bf96-5cb1-4276-a8f7-b364df2a3488","system_id":"levelo_inurba_marseille","lat":43.30248,"lon":5.40064,"is_reserved":false,"is_disabled":false,"rental_uris":{"android":"levelo://app?vid=7379bf96-5cb1-4276-a8f7-b364df2a3488","ios":"levelo://app?vid=7379bf96-5cb1-4276-a8f7-b364df2a3488"},"vehicle_type_id":"4","last_reported":1750281028,"current_range_meters":14800,"station_id":"ce4bgvh2rcd13ifvqcs0","pricing_plan_id":"cebpf4jnsgd1na2vs0mg"},{"bike_id":"fa0ae0ed-102b-4234-907a-cfcb22a16335","system_id":"levelo_inurba_marseille","lat":43.31756,"lon":5.39024,"is_reserved":false,"is_disabled":false,"rental_uris":{"android":"levelo://app?vid=fa0ae0ed-102b-4234-907a-cfcb22a16335","ios":"levelo://app?vid=fa0ae0ed-102b-4234-907a-cfcb22a16335"},"vehicle_type_id":"4","last_reported":1750281028,"current_range_meters":14800,"station_id":"ce4bhqp2rcd13ifvqhng","pricing_plan_id":"cebpf4jnsgd1na2vs0mg"},{"bike_id":"4b6b2a2b-d3c4-4663-8ea1-de4eff39b7b2","system_id":"levelo_inurba_marseille","lat":43.2119,"lon":5.35073,"is_reserved":false,"is_disabled":false,"rental_uris":{"android":"levelo://app?vid=4b6b2a2b-d3c4-4663-8ea1-de4eff39b7b2","ios":"levelo://app?vid=4b6b2a2b-d3c4-4663-8ea1-de4eff39b7b2"},"vehicle_type_id":"4","last_reported":1750281028,"current_range_meters":14800,"station_id":"st_cvj6sg6p6f1abm77japg","pricing_plan_id":"cebpf4jnsgd1na2vs0mg"},{"bike_id":"3eb9992a-e24a-4ed3-bd44-5e035e6e973e","system_id":"levelo_inurba_marseille","lat":43.31316,"lon":5.37879,"is_reserved":false,"is_disabled":false,"rental_uris":{"android":"levelo://app?vid=3eb9992a-e24a-4ed3-bd44-5e035e6e973e","ios":"levelo://app?vid=3eb9992a-e24a-4ed3-bd44-5e035e6e973e"},"vehicle_type_id":"4","last_reported":1750281028,"current_range_meters":15200,"station_id":"","pricing_plan_id":"cebpf4jnsgd1na2vs0mg"},{"bike_id":"bb115bb2-f0d3-4bec-b264-63c2a737b22d","system_id":"levelo_inurba_marseille","lat":43.31119,"lon":5.37767,"is_reserved":false,"is_disabled":false,"rental_uris":{"android":"levelo://app?vid=bb115bb2-f0d3-4bec-b264-63c2a737b22d","ios":"levelo://app?vid=bb115bb2-f0d3-4bec-b264-63c2a737b22d"},"vehicle_type_id":"4","last_reported":1750281028,"current_range_meters":15200,"station_id":"ce4bgt92rcd13ifvqcg0","pricing_plan_id":"cebpf4jnsgd1na2vs0mg"},{"bike_id":"3eceb174-c76c-4865-a8ce-669000d3c9cb","system_id":"levelo_inurba_marseille","lat":43.26235,"lon":5.4047,"is_reserved":false,"is_disabled":false,"rental_uris":{"android":"levelo://app?vid=3eceb174-c76c-4865-a8ce-669000d3c9cb","ios":"levelo://app?vid=3eceb174-c76c-4865-a8ce-669000d3c9cb"},"vehicle_type_id":"4","last_reported":1750281028,"current_range_meters":15200,"station_id":"ce4bhmh2rcd13ifvqgmg","pricing_plan_id":"cebpf4jnsgd1na2vs0mg"},{"bike_id":"65be88d8-1132-4ab5-8053-668d0c8dc5a6","system_id":"levelo_inurba_marseille","lat":43.229304,"lon":5.353708,"is_reserved":false,"is_disabled":false,"rental_uris":{"android":"levelo://app?vid=65be88d8-1132-4ab5-8053-668d0c8dc5a6","ios":"levelo://app?vid=65be88d8-1132-4ab5-8053-668d0c8dc5a6"},"vehicle_type_id":"4","last_reported":1750281028,"current_range_meters":15200,"station_id":"cpo3532slgdg3j2ikp40","pricing_plan_id":"cebpf4jnsgd1na2vs0mg"},{"bike_id":"1c677120-4027-4cfd-bc05-02cd4933d748","system_id":"levelo_inurba_marseille","lat":43.30236,"lon":5.40043,"is_reserved":false,"is_disabled":false,"rental_uris":{"android":"levelo://app?vid=1c677120-4027-4cfd-bc05-02cd4933d748","ios":"levelo://app?vid=1c677120-4027-4cfd-bc05-02cd4933d748"},"vehicle_type_id":"4","last_reported":1750281028,"current_range_meters":16000,"station_id":"","pricing_plan_id":"cebpf4jnsgd1na2vs0mg"},{"bike_id":"38d0f90c-70ae-4fd9-beb6-11a5d45d4d10","system_id":"levelo_inurba_marseille","lat":43.30901,"lon":5.37198,"is_reserved":false,"is_disabled":false,"rental_uris":{"android":"levelo://app?vid=38d0f90c-70ae-4fd9-beb6-11a5d45d4d10","ios":"levelo://app?vid=38d0f90c-70ae-4fd9-beb6-11a5d45d4d10"},"vehicle_type_id":"4","last_reported":1750281028,"current_range_meters":16000,"station_id":"ce4bguh2rcd13ifvqckg","pricing_plan_id":"cebpf4jnsgd1na2vs0mg"},{"bike_id":"e087ba64-044b-41d9-8f3f-c1ce88885309","system_id":"levelo_inurba_marseille","lat":43.29026,"lon":5.38632,"is_reserved":false,"is_disabled":false,"rental_uris":{"android":"levelo://app?vid=e087ba64-044b-41d9-8f3f-c1ce88885309","ios":"levelo://app?vid=e087ba64-044b-41d9-8f3f-c1ce88885309"},"vehicle_type_id":"4","last_reported":1750281028,"current_range_meters":16000,"station_id":"ce4bh4p2rcd13ifvqe0g","pricing_plan_id":"cebpf4jnsgd1na2vs0mg"},{"bike_id":"0ae84ac4-aa4e-47bd-ab40-2043c1cc9875","system_id":"levelo_inurba_marseille","lat":43.27564,"lon":5.38404,"is_reserved":false,"is_disabled":false,"rental_uris":{"android":"levelo://app?vid=0ae84ac4-aa4e-47bd-ab40-2043c1cc9875","ios":"levelo://app?vid=0ae84ac4-aa4e-47bd-ab40-2043c1cc9875"},"vehicle_type_id":"4","last_reported":1750281028,"current_range_meters":16000,"station_id":"ce4bhh92rcd13ifvqfi0","pricing_plan_id":"cebpf4jnsgd1na2vs0mg"},{"bike_id":"d131648c-62dd-4350-a484-bb7b469ec4d5","system_id":"levelo_inurba_marseille","lat":43.23195,"lon":5.39971,"is_reserved":false,"is_disabled":false,"rental_uris":{"android":"levelo://app?vid=d131648c-62dd-4350-a484-bb7b469ec4d5","ios":"levelo://app?vid=d131648c-62dd-4350-a484-bb7b469ec4d5"},"vehicle_type_id":"4","last_reported":1750281028,"current_range_meters":16000,"station_id":"ce4bhn12rcd13ifvqgqg","pricing_plan_id":"cebpf4jnsgd1na2vs0mg"},{"bike_id":"2c555767-5c9b-4c10-a745-6bbf5ccfa066","system_id":"levelo_inurba_marseille","lat":43.2541,"lon":5.375926,"is_reserved":false,"is_disabled":false,"rental_uris":{"android":"levelo://app?vid=2c555767-5c9b-4c10-a745-6bbf5ccfa066","ios":"levelo://app?vid=2c555767-5c9b-4c10-a745-6bbf5ccfa066"},"vehicle_type_id":"4","last_reported":1750281028,"current_range_meters":16400,"station_id":"","pricing_plan_id":"cebpf4jnsgd1na2vs0mg"},{"bike_id":"77ac8037-3c3c-493a-82c2-904a9ad6c7d0","system_id":"levelo_inurba_marseille","lat":43.26823,"lon":5.39032,"is_reserved":false,"is_disabled":false,"rental_uris":{"android":"levelo://app?vid=77ac8037-3c3c-493a-82c2-904a9ad6c7d0","ios":"levelo://app?vid=77ac8037-3c3c-493a-82c2-904a9ad6c7d0"},"vehicle_type_id":"4","last_reported":1750281028,"current_range_meters":16400,"station_id":"","pricing_plan_id":"cebpf4jnsgd1na2vs0mg"},{"bike_id":"7c8e9ae2-13d3-4481-bbfc-b23dfd1f2836","system_id":"levelo_inurba_marseille","lat":43.29537,"lon":5.38545,"is_reserved":false,"is_disabled":false,"rental_uris":{"android":"levelo://app?vid=7c8e9ae2-13d3-4481-bbfc-b23dfd1f2836","ios":"levelo://app?vid=7c8e9ae2-13d3-4481-bbfc-b23dfd1f2836"},"vehicle_type_id":"4","last_reported":1750281028,"current_range_meters":16400,"station_id":"ce4bgih2rcd13ifvqba0","pricing_plan_id":"cebpf4jnsgd1na2vs0mg"},{"bike_id":"85b00e2f-48a4-4c63-bf99-e93dc5653500","system_id":"levelo_inurba_marseille","lat":43.30178,"lon":5.36602,"is_reserved":false,"is_disabled":false,"rental_uris":{"android":"levelo://app?vid=85b00e2f-48a4-4c63-bf99-e93dc5653500","ios":"levelo://app?vid=85b00e2f-48a4-4c63-bf99-e93dc5653500"},"vehicle_type_id":"4","last_reported":1750281028,"current_range_meters":16400,"station_id":"ce4bgrh2rcd13ifvqc8g","pricing_plan_id":"cebpf4jnsgd1na2vs0mg"},{"bike_id":"fc77f1fd-748e-45f1-b71b-f9a34a8ac5f6","system_id":"levelo_inurba_marseille","lat":43.30136,"lon":5.39858,"is_reserved":false,"is_disabled":false,"rental_uris":{"android":"levelo://app?vid=fc77f1fd-748e-45f1-b71b-f9a34a8ac5f6","ios":"levelo://app?vid=fc77f1fd-748e-45f1-b71b-f9a34a8ac5f6"},"vehicle_type_id":"4","last_reported":1750281028,"current_range_meters":16400,"station_id":"ce4bh0h2rcd13ifvqd40","pricing_plan_id":"cebpf4jnsgd1na2vs0mg"},{"bike_id":"30dbc9dc-cecc-47a0-8b89-e4e35349af18","system_id":"levelo_inurba_marseille","lat":43.28263,"lon":5.35055,"is_reserved":false,"is_disabled":false,"rental_uris":{"android":"levelo://app?vid=30dbc9dc-cecc-47a0-8b89-e4e35349af18","ios":"levelo://app?vid=30dbc9dc-cecc-47a0-8b89-e4e35349af18"},"vehicle_type_id":"4","last_reported":1750281028,"current_range_meters":16400,"station_id":"ce4bhbp2rcd13ifvqerg","pricing_plan_id":"cebpf4jnsgd1na2vs0mg"},{"bike_id":"629faaf7-9e1d-400f-8c06-cc9703b3a3d4","system_id":"levelo_inurba_marseille","lat":43.25578,"lon":5.38227,"is_reserved":false,"is_disabled":false,"rental_uris":{"android":"levelo://app?vid=629faaf7-9e1d-400f-8c06-cc9703b3a3d4","ios":"levelo://app?vid=629faaf7-9e1d-400f-8c06-cc9703b3a3d4"},"vehicle_type_id":"4","last_reported":1750281028,"current_range_meters":16400,"station_id":"ce4bhih2rcd13ifvqfs0","pricing_plan_id":"cebpf4jnsgd1na2vs0mg"},{"bike_id":"755e8ffb-6820-407a-b6c7-c67cf4c26d2a","system_id":"levelo_inurba_marseille","lat":43.32625,"lon":5.40976,"is_reserved":false,"is_disabled":false,"rental_uris":{"android":"levelo://app?vid=755e8ffb-6820-407a-b6c7-c67cf4c26d2a","ios":"levelo://app?vid=755e8ffb-6820-407a-b6c7-c67cf4c26d2a"},"vehicle_type_id":"4","last_reported":1750281028,"current_range_meters":16400,"station_id":"ce4bhpp2rcd13ifvqhgg","pricing_plan_id":"cebpf4jnsgd1na2vs0mg"},{"bike_id":"5668cdb2-0f80-4fdc-9e87-26332f13354b","system_id":"levelo_inurba_marseille","lat":43.28606,"lon":5.37076,"is_reserved":false,"is_disabled":false,"rental_uris":{"android":"levelo://app?vid=5668cdb2-0f80-4fdc-9e87-26332f13354b","ios":"levelo://app?vid=5668cdb2-0f80-4fdc-9e87-26332f13354b"},"vehicle_type_id":"4","last_reported":1750281028,"current_range_meters":16400,"station_id":"ce4bht12rcd13ifvqi60","pricing_plan_id":"cebpf4jnsgd1na2vs0mg"},{"bike_id":"a004d7f2-75e1-49e9-b073-ad13bcf23d1e","system_id":"levelo_inurba_marseille","lat":43.23192,"lon":5.35556,"is_reserved":false,"is_disabled":false,"rental_uris":{"android":"levelo://app?vid=a004d7f2-75e1-49e9-b073-ad13bcf23d1e","ios":"levelo://app?vid=a004d7f2-75e1-49e9-b073-ad13bcf23d1e"},"vehicle_type_id":"4","last_reported":1750281028,"current_range_meters":16400,"station_id":"ce4bhu92rcd13ifvqi70","pricing_plan_id":"cebpf4jnsgd1na2vs0mg"},{"bike_id":"a841cd3b-aa85-4500-9c2b-c46cd1ebc3cb","system_id":"levelo_inurba_marseille","lat":43.301806,"lon":5.36624,"is_reserved":false,"is_disabled":false,"rental_uris":{"android":"levelo://app?vid=a841cd3b-aa85-4500-9c2b-c46cd1ebc3cb","ios":"levelo://app?vid=a841cd3b-aa85-4500-9c2b-c46cd1ebc3cb"},"vehicle_type_id":"4","last_reported":1750281028,"current_range_meters":16800,"station_id":"ce4bgrh2rcd13ifvqc8g","pricing_plan_id":"cebpf4jnsgd1na2vs0mg"},{"bike_id":"2289780d-87f5-4eda-8b44-a1554f10039b","system_id":"levelo_inurba_marseille","lat":43.30932,"lon":5.4014,"is_reserved":false,"is_disabled":false,"rental_uris":{"android":"levelo://app?vid=2289780d-87f5-4eda-8b44-a1554f10039b","ios":"levelo://app?vid=2289780d-87f5-4eda-8b44-a1554f10039b"},"vehicle_type_id":"4","last_reported":1750281028,"current_range_meters":16800,"station_id":"ce4bgvp2rcd13ifvqct0","pricing_plan_id":"cebpf4jnsgd1na2vs0mg"},{"bike_id":"0e7b1841-d463-40d9-85b8-27817481cc25","system_id":"levelo_inurba_marseille","lat":43.30325,"lon":5.40431,"is_reserved":false,"is_disabled":false,"rental_uris":{"android":"levelo://app?vid=0e7b1841-d463-40d9-85b8-27817481cc25","ios":"levelo://app?vid=0e7b1841-d463-40d9-85b8-27817481cc25"},"vehicle_type_id":"4","last_reported":1750281028,"current_range_meters":16800,"station_id":"ce4bh012rcd13ifvqd10","pricing_plan_id":"cebpf4jnsgd1na2vs0mg"},{"bike_id":"fe153a46-2ef7-45e1-8572-c7c93e6fdc59","system_id":"levelo_inurba_marseille","lat":43.29566,"lon":5.39973,"is_reserved":false,"is_disabled":false,"rental_uris":{"android":"levelo://app?vid=fe153a46-2ef7-45e1-8572-c7c93e6fdc59","ios":"levelo://app?vid=fe153a46-2ef7-45e1-8572-c7c93e6fdc59"},"vehicle_type_id":"4","last_reported":1750281028,"current_range_meters":16800,"station_id":"ce4bh312rcd13ifvqdj0","pricing_plan_id":"cebpf4jnsgd1na2vs0mg"},{"bike_id":"8fa32756-371a-4795-b65c-53bf71acc125","system_id":"levelo_inurba_marseille","lat":43.29438,"lon":5.39738,"is_reserved":false,"is_disabled":false,"rental_uris":{"android":"levelo://app?vid=8fa32756-371a-4795-b65c-53bf71acc125","ios":"levelo://app?vid=8fa32756-371a-4795-b65c-53bf71acc125"},"vehicle_type_id":"4","last_reported":1750281028,"current_range_meters":16800,"station_id":"ce4bh3h2rcd13ifvqdo0","pricing_plan_id":"cebpf4jnsgd1na2vs0mg"},{"bike_id":"c210cd70-b029-4012-b506-b603aa70f1f6","system_id":"levelo_inurba_marseille","lat":43.255,"lon":5.37652,"is_reserved":false,"is_disabled":false,"rental_uris":{"android":"levelo://app?vid=c210cd70-b029-4012-b506-b603aa70f1f6","ios":"levelo://app?vid=c210cd70-b029-4012-b506-b603aa70f1f6"},"vehicle_type_id":"4","last_reported":1750281028,"current_range_meters":16800,"station_id":"ce4bhh12rcd13ifvqff0","pricing_plan_id":"cebpf4jnsgd1na2vs0mg"},{"bike_id":"cf7519da-cf10-40ae-ba7d-6ed14968e0ee","system_id":"levelo_inurba_marseille","lat":43.25083,"lon":5.39517,"is_reserved":false,"is_disabled":false,"rental_uris":{"android":"levelo://app?vid=cf7519da-cf10-40ae-ba7d-6ed14968e0ee","ios":"levelo://app?vid=cf7519da-cf10-40ae-ba7d-6ed14968e0ee"},"vehicle_type_id":"4","last_reported":1750281028,"current_range_meters":16800,"station_id":"ce4bhm12rcd13ifvqgkg","pricing_plan_id":"cebpf4jnsgd1na2vs0mg"},{"bike_id":"7b2157cf-20da-4a8f-86b6-9e266892dc62","system_id":"levelo_inurba_marseille","lat":43.31998,"lon":5.38124,"is_reserved":false,"is_disabled":false,"rental_uris":{"android":"levelo://app?vid=7b2157cf-20da-4a8f-86b6-9e266892dc62","ios":"levelo://app?vid=7b2157cf-20da-4a8f-86b6-9e266892dc62"},"vehicle_type_id":"4","last_reported":1750281028,"current_range_meters":16800,"station_id":"ce4bhr12rcd13ifvqhpg","pricing_plan_id":"cebpf4jnsgd1na2vs0mg"},{"bike_id":"bb20faf4-85b3-4945-bb41-43e96b45a049","system_id":"levelo_inurba_marseille","lat":43.31531,"lon":5.38018,"is_reserved":false,"is_disabled":false,"rental_uris":{"android":"levelo://app?vid=bb20faf4-85b3-4945-bb41-43e96b45a049","ios":"levelo://app?vid=bb20faf4-85b3-4945-bb41-43e96b45a049"},"vehicle_type_id":"4","last_reported":1750281028,"current_range_meters":16800,"station_id":"ce4bhsp2rcd13ifvqi50","pricing_plan_id":"cebpf4jnsgd1na2vs0mg"},