{"last_updated":1761689400,"ttl":60,"version":"2.2","data":{"bikes":[{"bike_id":"de5cece4-6186-4ccb-b70e-a25e8bd3fc86","system_id":"levelo_inurba_marseille","lat":43.337444,"lon":5.374475,"is_reserved":false,"is_disabled":false,"rental_uris":{"android":"levelo://app?vid=de5cece4-6186-4ccb-b70e-a25e8bd3fc86","ios":"levelo://app?vid=de5cece4-6186-4ccb-b70e-a25e8bd3fc86"},"vehicle_type_id":"4","last_reported":1761689400,"current_range_meters":3200,"station_id":"","pricing_plan_id":"cebpf4jnsgd1na2vs0mg"},{"bike_id":"575f4d27-a4f2-41fe-9672-4a1669c622ba","system_id":"levelo_inurba_marseille","lat":43.277506,"lon":5.388086,"is_reserved":false,"is_disabled":false,"rental_uris":{"android":"levelo://app?vid=575f4d27-a4f2-41fe-9672-4a1669c622ba","ios":"levelo://app?vid=575f4d27-a4f2-41fe-9672-4a1669c622ba"},"vehicle_type_id":"4","last_reported":1761689400,"current_range_meters":3600,"station_id":"ce4bhi12rcd13ifvqfo0","pricing_plan_id":"cebpf4jnsgd1na2vs0mg"},{"bike_id":"3f7c552a-2a9b-4bf8-95bd-507570380f71","system_id":"levelo_inurba_marseille","lat":43.28696,"lon":5.37937,"is_reserved":false,"is_disabled":false,"rental_uris":{"android":"levelo://app?vid=3f7c552a-2a9b-4bf8-95bd-507570380f71","ios":"levelo://app?vid=3f7c552a-2a9b-4bf8-95bd-507570380f71"},"vehicle_type_id":"4","last_reported":1761689400,"current_range_meters":4800,"station_id":"","pricing_plan_id":"cebpf4jnsgd1na2vs0mg"},{"bike_id":"aba6b563-5093-4f2c-abdc-45b501f05388","system_id":"levelo_inurba_marseille","lat":43.27074,"lon":5.38309,"is_reserved":false,"is_disabled":true,"rental_uris":{"android":"levelo://app?vid=aba6b563-5093-4f2c-abdc-45b501f05388","ios":"levelo://app?vid=aba6b563-5093-4f2c-abdc-45b501f05388"},"vehicle_type_id":"4","last_reported":1761689400,"current_range_meters":5600,"station_id":"st_d3n2fo6cfp8s73cte1j0","pricing_plan_id":"cebpf4jnsgd1na2vs0mg"},{"bike_id":"d2f30ff1-239b-45f9-a8b7-676e761bd2a3","system_id":"levelo_inurba_marseille","lat":43.32025,"lon":5.41539,"is_reserved":false,"is_disabled":false,"rental_uris":{"android":"levelo://app?vid=d2f30ff1-239b-45f9-a8b7-676e761bd2a3","ios":"levelo://app?vid=d2f30ff1-239b-45f9-a8b7-676e761bd2a3"},"vehicle_type_id":"4","last_reported":1761689400,"current_range_meters":6000,"station_id":"ce4bhq92rcd13ifvqhkg","pricing_plan_id":"cebpf4jnsgd1na2vs0mg"},{"bike_id":"76bab7c3-bfc6-410c-b71c-b504ab4f3e12","system_id":"levelo_inurba_marseille","lat":43.2654,"lon":5.37992,"is_reserved":false,"is_disabled":false,"rental_uris":{"android":"levelo://app?vid=76bab7c3-bfc6-410c-b71c-b504ab4f3e12","ios":"levelo://app?vid=76bab7c3-bfc6-410c-b71c-b504ab4f3e12"},"vehicle_type_id":"4","last_reported":1761689400,"current_range_meters":6000,"station_id":"","pricing_plan_id":"cebpf4jnsgd1na2vs0mg"},{"bike_id":"03f19ef5-89ea-4294-b2bf-508b73a50a7e","system_id":"levelo_inurba_marseille","lat":43.30884,"lon":5.39629,"is_reserved":false,"is_disabled":false,"rental_uris":{"android":"levelo://app?vid=03f19ef5-89ea-4294-b2bf-508b73a50a7e","ios":"levelo://app?vid=03f19ef5-89ea-4294-b2bf-508b73a50a7e"},"vehicle_type_id":"4","last_reported":1761689400,"current_range_meters":6000,"station_id":"ce4bh012rcd13ifvqcv0","pricing_plan_id":"cebpf4jnsgd1na2vs0mg"},{"bike_id":"e3818a47-1ad6-4295-ab09-7b3394f68d41","system_id":"levelo_inurba_marseille","lat":43.27668,"lon":5.38887,"is_reserved":false,"is_disabled":false,"rental_uris":{"android":"levelo://app?vid=e3818a47-1ad6-4295-ab09-7b3394f68d41","ios":"levelo://app?vid=e3818a47-1ad6-4295-ab09-7b3394f68d41"},"vehicle_type_id":"4","last_reported":1761689400,"current_range_meters":6000,"station_id":"ce4bhi12rcd13ifvqfo0","pricing_plan_id":"cebpf4jnsgd1na2vs0mg"},{"bike_id":"24715fdb-254d-49c2-93a3-30b24ede44d7","system_id":"levelo_inurba_marseille","lat":43.28732,"lon":5.36077,"is_reserved":false,"is_disabled":false,"rental_uris":{"android":"levelo://app?vid=24715fdb-254d-49c2-93a3-30b24ede44d7","ios":"levelo://app?vid=24715fdb-254d-49c2-93a3-30b24ede44d7"},"vehicle_type_id":"4","last_reported":1761689400,"current_range_meters":6000,"station_id":"cki0cbj6b192h4jlfktg","pricing_plan_id":"cebpf4jnsgd1na2vs0mg"},{"bike_id":"c48dc094-4c25-4b99-9aa9-ff1b8c1db8dc","system_id":"levelo_inurba_marseille","lat":43.2254,"lon":5.34835,"is_reserved":false,"is_disabled":false,"rental_uris":{"android":"levelo://app?vid=c48dc094-4c25-4b99-9aa9-ff1b8c1db8dc","ios":"levelo://app?vid=c48dc094-4c25-4b99-9aa9-ff1b8c1db8dc"},"vehicle_type_id":"4","last_reported":1761689400,"current_range_meters":6000,"station_id":"","pricing_plan_id":"cebpf4jnsgd1na2vs0mg"},{"bike_id":"609a9047-57e2-4b1e-851d-8b6ef3587f94","system_id":"levelo_inurba_marseille","lat":43.28615,"lon":5.3706,"is_reserved":false,"is_disabled":false,"rental_uris":{"android":"levelo://app?vid=609a9047-57e2-4b1e-851d-8b6ef3587f94","ios":"levelo://app?vid=609a9047-57e2-4b1e-851d-8b6ef3587f94"},"vehicle_type_id":"4","last_reported":1761689400,"current_range_meters":6400,"station_id":"ce4bht12rcd13ifvqi60","pricing_plan_id":"cebpf4jnsgd1na2vs0mg"},{"bike_id":"bc23c83e-5098-4cb2-9645-f891504fb524","system_id":"levelo_inurba_marseille","lat":43.2994,"lon":5.36564,"is_reserved":false,"is_disabled":false,"rental_uris":{"android":"levelo://app?vid=bc23c83e-5098-4cb2-9645-f891504fb524","ios":"levelo://app?vid=bc23c83e-5098-4cb2-9645-f891504fb524"},"vehicle_type_id":"4","last_reported":1761689400,"current_range_meters":6800,"station_id":"ce4bgm92rcd13ifvqbr0","pricing_plan_id":"cebpf4jnsgd1na2vs0mg"},{"bike_id":"ecf682c9-b328-42d4-bf93-c673977dea5c","system_id":"levelo_inurba_marseille","lat":43.29171,"lon":5.37141,"is_reserved":false,"is_disabled":true,"rental_uris":{"android":"levelo://app?vid=ecf682c9-b328-42d4-bf93-c673977dea5c","ios":"levelo://app?vid=ecf682c9-b328-42d4-bf93-c673977dea5c"},"vehicle_type_id":"4","last_reported":1761689400,"current_range_meters":6800,"station_id":"ce4bha92rcd13ifvqeh0","pricing_plan_id":"cebpf4jnsgd1na2vs0mg"},{"bike_id":"fd09dbe7-0bec-431b-9705-875a0c7a7829","system_id":"levelo_inurba_marseille","lat":43.23048,"lon":5.35503,"is_reserved":false,"is_disabled":true,"rental_uris":{"android":"levelo://app?vid=fd09dbe7-0bec-431b-9705-875a0c7a7829","ios":"levelo://app?vid=fd09dbe7-0bec-431b-9705-875a0c7a7829"},"vehicle_type_id":"4","last_reported":1761689400,"current_range_meters":7200,"station_id":"cpo3342slgdg3j2ifvpg","pricing_plan_id":"cebpf4jnsgd1na2vs0mg"},{"bike_id":"eea3c3c3-734f-4fd3-8061-ed84cfe47b38","system_id":"levelo_inurba_marseille","lat":43.32566,"lon":5.39125,"is_reserved":false,"is_disabled":false,"rental_uris":{"android":"levelo://app?vid=eea3c3c3-734f-4fd3-8061-ed84cfe47b38","ios":"levelo://app?vid=eea3c3c3-734f-4fd3-8061-ed84cfe47b38"},"vehicle_type_id":"4","last_reported":1761689400,"current_range_meters":7200,"station_id":"","pricing_plan_id":"cebpf4jnsgd1na2vs0mg"},{"bike_id":"895851fd-9f94-4c26-bb54-5536d0e4a089","system_id":"levelo_inurba_marseille","lat":43.28108,"lon":5.37847,"is_reserved":false,"is_disabled":false,"rental_uris":{"android":"levelo://app?vid=895851fd-9f94-4c26-bb54-5536d0e4a089","ios":"levelo://app?vid=895851fd-9f94-4c26-bb54-5536d0e4a089"},"vehicle_type_id":"4","last_reported":1761689400,"current_range_meters":8000,"station_id":"ce4bha12rcd13ifvqee0","pricing_plan_id":"cebpf4jnsgd1na2vs0mg"},{"bike_id":"a58fc224-2878-4767-92d7-dfc7da4ca7ad","system_id":"levelo_inurba_marseille","lat":43.24996,"lon":5.3763,"is_reserved":false,"is_disabled":false,"rental_uris":{"android":"levelo://app?vid=a58fc224-2878-4767-92d7-dfc7da4ca7ad","ios":"levelo://app?vid=a58fc224-2878-4767-92d7-dfc7da4ca7ad"},"vehicle_type_id":"4","last_reported":1761689400,"current_range_meters":8000,"station_id":"","pricing_plan_id":"cebpf4jnsgd1na2vs0mg"},{"bike_id":"07f188eb-bdce-4512-b54b-1516d85c5e09","system_id":"levelo_inurba_marseille","lat":43.24386,"lon":5.37052,"is_reserved":false,"is_disabled":false,"rental_uris":{"android":"levelo://app?vid=07f188eb-bdce-4512-b54b-1516d85c5e09","ios":"levelo://app?vid=07f188eb-bdce-4512-b54b-1516d85c5e09"},"vehicle_type_id":"4","last_reported":1761689400,"current_range_meters":8000,"station_id":"ce4bhhh2rcd13ifvqfk0","pricing_plan_id":"cebpf4jnsgd1na2vs0mg"},{"bike_id":"208a1fa9-c371-4a9e-bc97-d54ccd03a0b4","system_id":"levelo_inurba_marseille","lat":43.33771,"lon":5.37468,"is_reserved":false,"is_disabled":false,"rental_uris":{"android":"levelo://app?vid=208a1fa9-c371-4a9e-bc97-d54ccd03a0b4","ios":"levelo://app?vid=208a1fa9-c371-4a9e-bc97-d54ccd03a0b4"},"vehicle_type_id":"4","last_reported":1761689400,"current_range_meters":8400,"station_id":"","pricing_plan_id":"cebpf4jnsgd1na2vs0mg"},{"bike_id":"1880ebb9-7edb-463e-976b-226e958b9ebe","system_id":"levelo_inurba_marseille","lat":43.31097,"lon":5.37487,"is_reserved":false,"is_disabled":false,"rental_uris":{"android":"levelo://app?vid=1880ebb9-7edb-463e-976b-226e958b9ebe","ios":"levelo://app?vid=1880ebb9-7edb-463e-976b-226e958b9ebe"},"vehicle_type_id":"4","last_reported":1761689400,"current_range_meters":8800,"station_id":"ce4bgt12rcd13ifvqce0","pricing_plan_id":"cebpf4jnsgd1na2vs0mg"},{"bike_id":"ff3ce436-1785-418e-8081-70fae0b4c310","system_id":"levelo_inurba_marseille","lat":43.27069,"lon":5.4227,"is_reserved":false,"is_disabled":false,"rental_uris":{"android":"levelo://app?vid=ff3ce436-1785-418e-8081-70fae0b4c310","ios":"levelo://app?vid=ff3ce436-1785-418e-8081-70fae0b4c310"},"vehicle_type_id":"4","last_reported":1761689400,"current_range_meters":8800,"station_id":"ce4bhk92rcd13ifvqgb0","pricing_plan_id":"cebpf4jnsgd1na2vs0mg"},{"bike_id":"f9484733-c07f-4293-8628-46871c65b913","system_id":"levelo_inurba_marseille","lat":43.25456,"lon":5.38104,"is_reserved":false,"is_disabled":false,"rental_uris":{"android":"levelo://app?vid=f9484733-c07f-4293-8628-46871c65b913","ios":"levelo://app?vid=f9484733-c07f-4293-8628-46871c65b913"},"vehicle_type_id":"4","last_reported":1761689400,"current_range_meters":8800,"station_id":"","pricing_plan_id":"cebpf4jnsgd1na2vs0mg"},{"bike_id":"3b82aff6-7cb9-43aa-944c-0f02fe4ef9fa","system_id":"levelo_inurba_marseille","lat":43.2793,"lon":5.3873,"is_reserved":false,"is_disabled":true,"rental_uris":{"android":"levelo://app?vid=3b82aff6-7cb9-43aa-944c-0f02fe4ef9fa","ios":"levelo://app?vid=3b82aff6-7cb9-43aa-944c-0f02fe4ef9fa"},"vehicle_type_id":"4","last_reported":1761689400,"current_range_meters":8800,"station_id":"","pricing_plan_id":"cebpf4jnsgd1na2vs0mg"},{"bike_id":"3abb3b30-040b-4af3-b943-c7c737938f81","system_id":"levelo_inurba_marseille","lat":43.29867,"lon":5.38899,"is_reserved":false,"is_disabled":false,"rental_uris":{"android":"levelo://app?vid=3abb3b30-040b-4af3-b943-c7c737938f81","ios":"levelo://app?vid=3abb3b30-040b-4af3-b943-c7c737938f81"},"vehicle_type_id":"4","last_reported":1761689400,"current_range_meters":9200,"station_id":"ce4bh392rcd13ifvqdl0","pricing_plan_id":"cebpf4jnsgd1na2vs0mg"},{"bike_id":"0d1e2ee7-5112-4f1c-b235-6bd5ea65c9f1","system_id":"levelo_inurba_marseille","lat":43.28109,"lon":5.3784,"is_reserved":false,"is_disabled":false,"rental_uris":{"android":"levelo://app?vid=0d1e2ee7-5112-4f1c-b235-6bd5ea65c9f1","ios":"levelo://app?vid=0d1e2ee7-5112-4f1c-b235-6bd5ea65c9f1"},"vehicle_type_id":"4","last_reported":1761689400,"current_range_meters":9200,"station_id":"ce4bha12rcd13ifvqee0","pricing_plan_id":"cebpf4jnsgd1na2vs0mg"},{"bike_id":"e45087bf-7172-401b-99e0-3a0a7e8c21bf","system_id":"levelo_inurba_marseille","lat":43.28417,"lon":5.34987,"is_reserved":false,"is_disabled":false,"rental_uris":{"android":"levelo://app?vid=e45087bf-7172-401b-99e0-3a0a7e8c21bf","ios":"levelo://app?vid=e45087bf-7172-401b-99e0-3a0a7e8c21bf"},"vehicle_type_id":"4","last_reported":1761689400,"current_range_meters":9600,"station_id":"ce4bhbh2rcd13ifvqepg","pricing_plan_id":"cebpf4jnsgd1na2vs0mg"},{"bike_id":"eecef57d-1115-4654-92c3-e7ae1ae01ee6","system_id":"levelo_inurba_marseille","lat":43.27833,"lon":5.3921,"is_reserved":false,"is_disabled":false,"rental_uris":{"android":"levelo://app?vid=eecef57d-1115-4654-92c3-e7ae1ae01ee6","ios":"levelo://app?vid=eecef57d-1115-4654-92c3-e7ae1ae01ee6"},"vehicle_type_id":"4","last_reported":1761689400,"current_range_meters":9600,"station_id":"ce4bhjp2rcd13ifvqga0","pricing_plan_id":"cebpf4jnsgd1na2vs0mg"},{"bike_id":"dbcbcef0-4b5f-446e-9d2e-80d991993c2b","system_id":"levelo_inurba_marseille","lat":43.29537,"lon":5.40227,"is_reserved":false,"is_disabled":false,"rental_uris":{"android":"levelo://app?vid=dbcbcef0-4b5f-446e-9d2e-80d991993c2b","ios":"levelo://app?vid=dbcbcef0-4b5f-446e-9d2e-80d991993c2b"},"vehicle_type_id":"4","last_reported":1761689400,"current_range_meters":9600,"station_id":"","pricing_plan_id":"cebpf4jnsgd1na2vs0mg"},{"bike_id":"011ffc47-cab5-4e69-83ea-75158b7053d8","system_id":"levelo_inurba_marseille","lat":43.255821,"lon":5.382295,"is_reserved":false,"is_disabled":true,"rental_uris":{"android":"levelo://app?vid=011ffc47-cab5-4e69-83ea-75158b7053d8","ios":"levelo://app?vid=011ffc47-cab5-4e69-83ea-75158b7053d8"},"vehicle_type_id":"4","last_reported":1761689400,"current_range_meters":9600,"station_id":"ce4bhih2rcd13ifvqfs0","pricing_plan_id":"cebpf4jnsgd1na2vs0mg"},{"bike_id":"0da36f85-c9c3-4754-921b-9ff4fd26bd67","system_id":"levelo_inurba_marseille","lat":43.30302,"lon":5.39214,"is_reserved":false,"is_disabled":false,"rental_uris":{"android":"levelo://app?vid=0da36f85-c9c3-4754-921b-9ff4fd26bd67","ios":"levelo://app?vid=0da36f85-c9c3-4754-921b-9ff4fd26bd67"},"vehicle_type_id":"4","last_reported":1761689400,"current_range_meters":9600,"station_id":"ce4bgkh2rcd13ifvqbk0","pricing_plan_id":"cebpf4jnsgd1na2vs0mg"},{"bike_id":"312ec842-c9ae-42ec-bc05-a95e2eb799b8","system_id":"levelo_inurba_marseille","lat":43.28565,"lon":5.39521,"is_reserved":false,"is_disabled":false,"rental_uris":{"android":"levelo://app?vid=312ec842-c9ae-42ec-bc05-a95e2eb799b8","ios":"levelo://app?vid=312ec842-c9ae-42ec-bc05-a95e2eb799b8"},"vehicle_type_id":"4","last_reported":1761689400,"current_range_meters":9600,"station_id":"ce4bh292rcd13ifvqdg0","pricing_plan_id":"cebpf4jnsgd1na2vs0mg"},{"bike_id":"0706bd2c-a666-4666-8663-f4a6c5a6d055","system_id":"levelo_inurba_marseille","lat":43.28847,"lon":5.39267,"is_reserved":false,"is_disabled":false,"rental_uris":{"android":"levelo://app?vid=0706bd2c-a666-4666-8663-f4a6c5a6d055","ios":"levelo://app?vid=0706bd2c-a666-4666-8663-f4a6c5a6d055"},"vehicle_type_id":"4","last_reported":1761689400,"current_range_meters":10000,"station_id":"ce4bh2p2rcd13ifvqdi0","pricing_plan_id":"cebpf4jnsgd1na2vs0mg"},{"bike_id":"d1b6e181-0f5b-445b-98ac-7fb8ae2b77f1","system_id":"levelo_inurba_marseille","lat":43.27973,"lon":5.38744,"is_reserved":false,"is_disabled":false,"rental_uris":{"android":"levelo://app?vid=d1b6e181-0f5b-445b-98ac-7fb8ae2b77f1","ios":"levelo://app?vid=d1b6e181-0f5b-445b-98ac-7fb8ae2b77f1"},"vehicle_type_id":"4","last_reported":1761689400,"current_range_meters":10000,"station_id":"ce4bhg12rcd13ifvqf80","pricing_plan_id":"cebpf4jnsgd1na2vs0mg"},{"bike_id":"b8b50905-27ea-486a-8c28-c7ede7156b6a","system_id":"levelo_inurba_marseille","lat":43.31165,"lon":5.38716,"is_reserved":false,"is_disabled":false,"rental_uris":{"android":"levelo://app?vid=b8b50905-27ea-486a-8c28-c7ede7156b6a","ios":"levelo://app?vid=b8b50905-27ea-486a-8c28-c7ede7156b6a"},"vehicle_type_id":"4","last_reported":1761689400,"current_range_meters":10000,"station_id":"ce4bgv12rcd13ifvqcp0","pricing_plan_id":"cebpf4jnsgd1na2vs0mg"},{"bike_id":"787e1b5e-c6e4-4b42-844c-7a462315725a","system_id":"levelo_inurba_marseille","lat":43.31175,"lon":5.38702,"is_reserved":false,"is_disabled":false,"rental_uris":{"android":"levelo://app?vid=787e1b5e-c6e4-4b42-844c-7a462315725a","ios":"levelo://app?vid=787e1b5e-c6e4-4b42-844c-7a462315725a"},"vehicle_type_id":"4","last_reported":1761689400,"current_range_meters":10800,"station_id":"ce4bgv12rcd13ifvqcp0","pricing_plan_id":"cebpf4jnsgd1na2vs0mg"},{"bike_id":"a9651118-91dd-4c89-a620-2b8c4dc38d0f","system_id":"levelo_inurba_marseille","lat":43.28464,"lon":5.38434,"is_reserved":false,"is_disabled":false,"rental_uris":{"android":"levelo://app?vid=a9651118-91dd-4c89-a620-2b8c4dc38d0f","ios":"levelo://app?vid=a9651118-91dd-4c89-a620-2b8c4dc38d0f"},"vehicle_type_id":"4","last_reported":1761689400,"current_range_meters":10800,"station_id":"ce4bh512rcd13ifvqe3g","pricing_plan_id":"cebpf4jnsgd1na2vs0mg"},{"bike_id":"dccef0b1-edb3-49b5-866c-43e10e5763cc","system_id":"levelo_inurba_marseille","lat":43.288168,"lon":5.438393,"is_reserved":false,"is_disabled":false,"rental_uris":{"android":"levelo://app?vid=dccef0b1-edb3-49b5-866c-43e10e5763cc","ios":"levelo://app?vid=dccef0b1-edb3-49b5-866c-43e10e5763cc"},"vehicle_type_id":"4","last_reported":1761689400,"current_range_meters":10800,"station_id":"","pricing_plan_id":"cebpf4jnsgd1na2vs0mg"},{"bike_id":"c2aabcc7-5152-4b4a-8c74-24ddfdd26867","system_id":"levelo_inurba_marseille","lat":43.299166,"lon":5.375628,"is_reserved":false,"is_disabled":false,"rental_uris":{"android":"levelo://app?vid=c2aabcc7-5152-4b4a-8c74-24ddfdd26867","ios":"levelo://app?vid=c2aabcc7-5152-4b4a-8c74-24ddfdd26867"},"vehicle_type_id":"4","last_reported":1761689400,"current_range_meters":10800,"station_id":"ce4bgjh2rcd13ifvqbg0","pricing_plan_id":"cebpf4jnsgd1na2vs0mg"},{"bike_id":"030580f4-22bb-4ea8-bac5-b96ccad0378a","system_id":"levelo_inurba_marseille","lat":43.29254,"lon":5.40915,"is_reserved":false,"is_disabled":false,"rental_uris":{"android":"levelo://app?vid=030580f4-22bb-4ea8-bac5-b96ccad0378a","ios":"levelo://app?vid=030580f4-22bb-4ea8-bac5-b96ccad0378a"},"vehicle_type_id":"4","last_reported":1761689400,"current_range_meters":10800,"station_id":"ce4bh192rcd13ifvqdc0","pricing_plan_id":"cebpf4jnsgd1na2vs0mg"},{"bike_id":"6abb9e09-33f3-43f3-9417-8cc0cf0144f6","system_id":"levelo_inurba_marseille","lat":43.29917,"lon":5.37489,"is_reserved":false,"is_disabled":true,"rental_uris":{"android":"levelo://app?vid=6abb9e09-33f3-43f3-9417-8cc0cf0144f6","ios":"levelo://app?vid=6abb9e09-33f3-43f3-9417-8cc0cf0144f6"},"vehicle_type_id":"4","last_reported":1761689400,"current_range_meters":10800,"station_id":"ce4bgjh2rcd13ifvqbg0","pricing_plan_id":"cebpf4jnsgd1na2vs0mg"},{"bike_id":"c9027921-921a-40c9-907d-477d8392452d","system_id":"levelo_inurba_marseille","lat":43.28704,"lon":5.3999,"is_reserved":false,"is_disabled":false,"rental_uris":{"android":"levelo://app?vid=c9027921-921a-40c9-907d-477d8392452d","ios":"levelo://app?vid=c9027921-921a-40c9-907d-477d8392452d"},"vehicle_type_id":"4","last_reported":1761689400,"current_range_meters":10800,"station_id":"ce4bho92rcd13ifvqh3g","pricing_plan_id":"cebpf4jnsgd1na2vs0mg"},{"bike_id":"897d1025-cdde-48ec-9b73-6418bafdbbc5","system_id":"levelo_inurba_marseille","lat":43.28077,"lon":5.3476,"is_reserved":false,"is_disabled":false,"rental_uris":{"android":"levelo://app?vid=897d1025-cdde-48ec-9b73-6418bafdbbc5","ios":"levelo://app?vid=897d1025-cdde-48ec-9b73-6418bafdbbc5"},"vehicle_type_id":"4","last_reported":1761689400,"current_range_meters":10800,"station_id":"","pricing_plan_id":"cebpf4jnsgd1na2vs0mg"},{"bike_id":"610073ac-3c57-4191-9464-902ce1581d9e","system_id":"levelo_inurba_marseille","lat":43.27846,"lon":5.39215,"is_reserved":false,"is_disabled":false,"rental_uris":{"android":"levelo://app?vid=610073ac-3c57-4191-9464-902ce1581d9e","ios":"levelo://app?vid=610073ac-3c57-4191-9464-902ce1581d9e"},"vehicle_type_id":"4","last_reported":1761689400,"current_range_meters":10800,"station_id":"ce4bhjp2rcd13ifvqga0","pricing_plan_id":"cebpf4jnsgd1na2vs0mg"},{"bike_id":"32a863b6-26b8-457c-992a-f0253dd4c910","system_id":"levelo_inurba_marseille","lat":43.28486,"lon":5.48384,"is_reserved":false,"is_disabled":false,"rental_uris":{"android":"levelo://app?vid=32a863b6-26b8-457c-992a-f0253dd4c910","ios":"levelo://app?vid=32a863b6-26b8-457c-992a-f0253dd4c910"},"vehicle_type_id":"4","last_reported":1761689400,"current_range_meters":10800,"station_id":"st_d3svhcjqgbts73a3dn0g","pricing_plan_id":"cebpf4jnsgd1na2vs0mg"},{"bike_id":"bf0e5934-f58a-4225-b71d-10b1b89c7380","system_id":"levelo_inurba_marseille","lat":43.28951,"lon":5.39642,"is_reserved":false,"is_disabled":false,"rental_uris":{"android":"levelo://app?vid=bf0e5934-f58a-4225-b71d-10b1b89c7380","ios":"levelo://app?vid=bf0e5934-f58a-4225-b71d-10b1b89c7380"},"vehicle_type_id":"4","last_reported":1761689400,"current_range_meters":11200,"station_id":"ce4bh3h2rcd13ifvqdn0","pricing_plan_id":"cebpf4jnsgd1na2vs0mg"},{"bike_id":"d5ca831f-8041-403e-ada8-7b4196c3d5be","system_id":"levelo_inurba_marseille","lat":43.293714,"lon":5.379385,"is_reserved":false,"is_disabled":false,"rental_uris":{"android":"levelo://app?vid=d5ca831f-8041-403e-ada8-7b4196c3d5be","ios":"levelo://app?vid=d5ca831f-8041-403e-ada8-7b4196c3d5be"},"vehicle_type_id":"4","last_reported":1761689400,"current_range_meters":11200,"station_id":"","pricing_plan_id":"cebpf4jnsgd1na2vs0mg"},{"bike_id":"d990e137-21bc-43cf-b705-e4ae0ba4bc5c","system_id":"levelo_inurba_marseille","lat":43.306119,"lon":5.393517,"is_reserved":false,"is_disabled":false,"rental_uris":{"android":"levelo://app?vid=d990e137-21bc-43cf-b705-e4ae0ba4bc5c","ios":"levelo://app?vid=d990e137-21bc-43cf-b705-e4ae0ba4bc5c"},"vehicle_type_id":"4","last_reported":1761689400,"current_range_meters":11200,"station_id":"ce4bh0p2rcd13ifvqd80","pricing_plan_id":"cebpf4jnsgd1na2vs0mg"},{"bike_id":"13e2c97f-09dd-4126-9b7a-0eb2e83aba46","system_id":"levelo_inurba_marseille","lat":43.28944,"lon":5.36401,"is_reserved":false,"is_disabled":false,"rental_uris":{"android":"levelo://app?vid=13e2c97f-09dd-4126-9b7a-0eb2e83aba46","ios":"levelo://app?vid=13e2c97f-09dd-4126-9b7a-0eb2e83aba46"},"vehicle_type_id":"4","last_reported":1761689400,"current_range_meters":11200,"station_id":"ce4bhc92rcd13ifvqetg","pricing_plan_id":"cebpf4jnsgd1na2vs0mg"},{"bike_id":"ae02210f-3a75-423b-b85c-34cdf2f682b3","system_id":"levelo_inurba_marseille","lat":43.28405,"lon":5.3752,"is_reserved":false,"is_disabled":false,"rental_uris":{"android":"levelo://app?vid=ae02210f-3a75-423b-b85c-34cdf2f682b3","ios":"levelo://app?vid=ae02210f-3a75-423b-b85c-34cdf2f682b3"},"vehicle_type_id":"4","last_reported":1761689400,"current_range_meters":11600,"station_id":"ce4bh412rcd13ifvqds0","pricing_plan_id":"cebpf4jnsgd1na2vs0mg"},{"bike_id":"2dadb0b7-125c-4cad-a51f-e306e38949dd","system_id":"levelo_inurba_marseille","lat":43.25346,"lon":5.4217,"is_reserved":false,"is_disabled":false,"rental_uris":{"android":"levelo://app?vid=2dadb0b7-125c-4cad-a51f-e306e38949dd","ios":"levelo://app?vid=2dadb0b7-125c-4cad-a51f-e306e38949dd"},"vehicle_type_id":"4","last_reported":1761689400,"current_range_meters":11600,"station_id":"st_d2m65c5bi1j21697t3ng","pricing_plan_id":"cebpf4jnsgd1na2vs0mg"},{"bike_id":"d2ce14a1-e9f5-407b-a0c3-2e69d0a16a79","system_id":"levelo_inurba_marseille","lat":43.2822,"lon":5.39075,"is_reserved":false,"is_disabled":true,"rental_uris":{"android":"levelo://app?vid=d2ce14a1-e9f5-407b-a0c3-2e69d0a16a79","ios":"levelo://app?vid=d2ce14a1-e9f5-407b-a0c3-2e69d0a16a79"},"vehicle_type_id":"4","last_reported":1761689400,"current_range_meters":11600,"station_id":"ce4bhn92rcd13ifvqgsg","pricing_plan_id":"cebpf4jnsgd1na2vs0mg"},{"bike_id":"51c86afd-1731-4357-b0d3-0aaa51113f1c","system_id":"levelo_inurba_marseille","lat":43.28457,"lon":5.35893,"is_reserved":false,"is_disabled":false,"rental_uris":{"android":"levelo://app?vid=51c86afd-1731-4357-b0d3-0aaa51113f1c","ios":"levelo://app?vid=51c86afd-1731-4357-b0d3-0aaa51113f1c"},"vehicle_type_id":"4","last_reported":1761689400,"current_range_meters":11600,"station_id":"ce4bhah2rcd13ifvqei0","pricing_plan_id":"cebpf4jnsgd1na2vs0mg"},{"bike_id":"e68f19ec-6316-4a47-919b-a01164633315","system_id":"levelo_inurba_marseille","lat":43.25097,"lon":5.39522,"is_reserved":false,"is_disabled":true,"rental_uris":{"android":"levelo://app?vid=e68f19ec-6316-4a47-919b-a01164633315","ios":"levelo://app?vid=e68f19ec-6316-4a47-919b-a01164633315"},"vehicle_type_id":"4","last_reported":1761689400,"current_range_meters":11600,"station_id":"ce4bhm12rcd13ifvqgkg","pricing_plan_id":"cebpf4jnsgd1na2vs0mg"},{"bike_id":"1975be38-f301-42ba-a022-50bba37a3dac","system_id":"levelo_inurba_marseille","lat":43.28418,"lon":5.3752,"is_reserved":false,"is_disabled":false,"rental_uris":{"android":"levelo://app?vid=1975be38-f301-42ba-a022-50bba37a3dac","ios":"levelo://app?vid=1975be38-f301-42ba-a022-50bba37a3dac"},"vehicle_type_id":"4","last_reported":1761689400,"current_range_meters":11600,"station_id":"ce4bh412rcd13ifvqds0","pricing_plan_id":"cebpf4jnsgd1na2vs0mg"},{"bike_id":"6828e858-378a-4971-8510-eff63c493e9d","system_id":"levelo_inurba_marseille","lat":43.28725,"lon":5.361,"is_reserved":false,"is_disabled":false,"rental_uris":{"android":"levelo://app?vid=6828e858-378a-4971-8510-eff63c493e9d","ios":"levelo://app?vid=6828e858-378a-4971-8510-eff63c493e9d"},"vehicle_type_id":"4","last_reported":1761689400,"current_range_meters":11600,"station_id":"cki0cbj6b192h4jlfktg","pricing_plan_id":"cebpf4jnsgd1na2vs0mg"},{"bike_id":"eea91071-a585-455f-a824-596ec59b39cb","system_id":"levelo_inurba_marseille","lat":43.25335,"lon":5.42171,"is_reserved":false,"is_disabled":false,"rental_uris":{"android":"levelo://app?vid=eea91071-a585-455f-a824-596ec59b39cb","ios":"levelo://app?vid=eea91071-a585-455f-a824-596ec59b39cb"},"vehicle_type_id":"4","last_reported":1761689400,"current_range_meters":12000,"station_id":"st_d2m65c5bi1j21697t3ng","pricing_plan_id":"cebpf4jnsgd1na2vs0mg"},{"bike_id":"dced2bcc-e95f-44ce-b7d8-7bb47def612a","system_id":"levelo_inurba_marseille","lat":43.23065,"lon":5.3549,"is_reserved":false,"is_disabled":false,"rental_uris":{"android":"levelo://app?vid=dced2bcc-e95f-44ce-b7d8-7bb47def612a","ios":"levelo://app?vid=dced2bcc-e95f-44ce-b7d8-7bb47def612a"},"vehicle_type_id":"4","last_reported":1761689400,"current_range_meters":12000,"station_id":"cpo3342slgdg3j2ifvpg","pricing_plan_id":"cebpf4jnsgd1na2vs0mg"},{"bike_id":"f1b32764-5ab9-4e8e-a35a-116f87feb363","system_id":"levelo_inurba_marseille","lat":43.303193,"lon":5.404397,"is_reserved":false,"is_disabled":false,"rental_uris":{"android":"levelo://app?vid=f1b32764-5ab9-4e8e-a35a-116f87feb363","ios":"levelo://app?vid=f1b32764-5ab9-4e8e-a35a-116f87feb363"},"vehicle_type_id":"4","last_reported":1761689400,"current_range_meters":12000,"station_id":"ce4bh012rcd13ifvqd10","pricing_plan_id":"cebpf4jnsgd1na2vs0mg"},{"bike_id":"7676bdba-76b2-41e3-bab6-d85faa9eb294","system_id":"levelo_inurba_marseille","lat":43.30639,"lon":5.40105,"is_reserved":false,"is_disabled":false,"rental_uris":{"android":"levelo://app?vid=7676bdba-76b2-41e3-bab6-d85faa9eb294","ios":"levelo://app?vid=7676bdba-76b2-41e3-bab6-d85faa9eb294"},"vehicle_type_id":"4","last_reported":1761689400,"current_range_meters":12000,"station_id":"ce4bh112rcd13ifvqda0","pricing_plan_id":"cebpf4jnsgd1na2vs0mg"},{"bike_id":"354db3a1-5841-4a68-910d-d7c28873198e","system_id":"levelo_inurba_marseille","lat":43.27172,"lon":5.40996,"is_reserved":false,"is_disabled":false,"rental_uris":{"android":"levelo://app?vid=354db3a1-5841-4a68-910d-d7c28873198e","ios":"levelo://app?vid=354db3a1-5841-4a68-910d-d7c28873198e"},"vehicle_type_id":"4","last_reported":1761689400,"current_range_meters":12400,"station_id":"ce4bhl12rcd13ifvqgf0","pricing_plan_id":"cebpf4jnsgd1na2vs0mg"},{"bike_id":"09f3f1dd-94b1-4be4-9fb0-1498a4011c94","system_id":"levelo_inurba_marseille","lat":43.2842,"lon":5.37534,"is_reserved":false,"is_disabled":false,"rental_uris":{"android":"levelo://app?vid=09f3f1dd-94b1-4be4-9fb0-1498a4011c94","ios":"levelo://app?vid=09f3f1dd-94b1-4be4-9fb0-1498a4011c94"},"vehicle_type_id":"4","last_reported":1761689400,"current_range_meters":12400,"station_id":"ce4bh412rcd13ifvqds0","pricing_plan_id":"cebpf4jnsgd1na2vs0mg"},{"bike_id":"49ed0d39-51fe-4cd4-8527-50556baa8749","system_id":"levelo_inurba_marseille","lat":43.22531,"lon":5.348321,"is_reserved":false,"is_disabled":false,"rental_uris":{"android":"levelo://app?vid=49ed0d39-51fe-4cd4-8527-50556baa8749","ios":"levelo://app?vid=49ed0d39-51fe-4cd4-8527-50556baa8749"},"vehicle_type_id":"4","last_reported":1761689400,"current_range_meters":12400,"station_id":"","pricing_plan_id":"cebpf4jnsgd1na2vs0mg"},{"bike_id":"e362f4ba-3ff5-409c-847f-dbee0482ec04","system_id":"levelo_inurba_marseille","lat":43.299955,"lon":5.371679,"is_reserved":false,"is_disabled":true,"rental_uris":{"android":"levelo://app?vid=e362f4ba-3ff5-409c-847f-dbee0482ec04","ios":"levelo://app?vid=e362f4ba-3ff5-409c-847f-dbee0482ec04"},"vehicle_type_id":"4","last_reported":1761689400,"current_range_meters":12400,"station_id":"ce4bgr92rcd13ifvqc7g","pricing_plan_id":"cebpf4jnsgd1na2vs0mg"},{"bike_id":"d5e74bc1-ca86-4b2f-9a40-71c1de3828a2","system_id":"levelo_inurba_marseille","lat":43.30231,"lon":5.40043,"is_reserved":false,"is_disabled":false,"rental_uris":{"android":"levelo://app?vid=d5e74bc1-ca86-4b2f-9a40-71c1de3828a2","ios":"levelo://app?vid=d5e74bc1-ca86-4b2f-9a40-71c1de3828a2"},"vehicle_type_id":"4","last_reported":1761689400,"current_range_meters":12800,"station_id":"ce4bgvh2rcd13ifvqcs0","pricing_plan_id":"cebpf4jnsgd1na2vs0mg"},{"bike_id":"495341ac-c385-45b2-bc9e-cf6d37a7f69b","system_id":"levelo_inurba_marseille","lat":43.290994,"lon":5.375838,"is_reserved":false,"is_disabled":false,"rental_uris":{"android":"levelo://app?vid=495341ac-c385-45b2-bc9e-cf6d37a7f69b","ios":"levelo://app?vid=495341ac-c385-45b2-bc9e-cf6d37a7f69b"},"vehicle_type_id":"4","last_reported":1761689400,"current_range_meters":12800,"station_id":"ce4bh692rcd13ifvqe90","pricing_plan_id":"cebpf4jnsgd1na2vs0mg"},{"bike_id":"f202aef9-db9c-4b5f-b19b-62f40b9a9dba","system_id":"levelo_inurba_marseille","lat":43.24069,"lon":5.37759,"is_reserved":false,"is_disabled":false,"rental_uris":{"android":"levelo://app?vid=f202aef9-db9c-4b5f-b19b-62f40b9a9dba","ios":"levelo://app?vid=f202aef9-db9c-4b5f-b19b-62f40b9a9dba"},"vehicle_type_id":"4","last_reported":1761689400,"current_range_meters":12800,"station_id":"ce4bhnp2rcd13ifvqgvg","pricing_plan_id":"cebpf4jnsgd1na2vs0mg"},{"bike_id":"32d7653e-b033-4183-b4c0-f44169bb9067","system_id":"levelo_inurba_marseille","lat":43.32717,"lon":5.39218,"is_reserved":false,"is_disabled":false,"rental_uris":{"android":"levelo://app?vid=32d7653e-b033-4183-b4c0-f44169bb9067","ios":"levelo://app?vid=32d7653e-b033-4183-b4c0-f44169bb9067"},"vehicle_type_id":"4","last_reported":1761689400,"current_range_meters":12800,"station_id":"","pricing_plan_id":"cebpf4jnsgd1na2vs0mg"},{"bike_id":"6b731dd2-098a-491c-8db5-2c32ae1bd415","system_id":"levelo_inurba_marseille","lat":43.30256,"lon":5.40077,"is_reserved":false,"is_disabled":false,"rental_uris":{"android":"levelo://app?vid=6b731dd2-098a-491c-8db5-2c32ae1bd415","ios":"levelo://app?vid=6b731dd2-098a-491c-8db5-2c32ae1bd415"},"vehicle_type_id":"4","last_reported":1761689400,"current_range_meters":12800,"station_id":"ce4bgvh2rcd13ifvqcs0","pricing_plan_id":"cebpf4jnsgd1na2vs0mg"},{"bike_id":"1ba4c94a-7f92-4a79-b713-01b134a554c7","system_id":"levelo_inurba_marseille","lat":43.30259,"lon":5.40039,"is_reserved":false,"is_disabled":false,"rental_uris":{"android":"levelo://app?vid=1ba4c94a-7f92-4a79-b713-01b134a554c7","ios":"levelo://app?vid=1ba4c94a-7f92-4a79-b713-01b134a554c7"},"vehicle_type_id":"4","last_reported":1761689400,"current_range_meters":12800,"station_id":"ce4bgvh2rcd13ifvqcs0","pricing_plan_id":"cebpf4jnsgd1na2vs0mg"},{"bike_id":"ce00e885-a781-4efe-acd7-bb2e5665d1e7","system_id":"levelo_inurba_marseille","lat":43.28403,"lon":5.3753,"is_reserved":false,"is_disabled":false,"rental_uris":{"android":"levelo://app?vid=ce00e885-a781-4efe-acd7-bb2e5665d1e7","ios":"levelo://app?vid=ce00e885-a781-4efe-acd7-bb2e5665d1e7"},"vehicle_type_id":"4","last_reported":1761689400,"current_range_meters":13600,"station_id":"ce4bh412rcd13ifvqds0","pricing_plan_id":"cebpf4jnsgd1na2vs0mg"},{"bike_id":"94e6b0aa-f8c9-477e-8091-c3a189e0f238","system_id":"levelo_inurba_marseille","lat":43.296743,"lon":5.38104,"is_reserved":false,"is_disabled":false,"rental_uris":{"android":"levelo://app?vid=94e6b0aa-f8c9-477e-8091-c3a189e0f238","ios":"levelo://app?vid=94e6b0aa-f8c9-477e-8091-c3a189e0f238"},"vehicle_type_id":"4","last_reported":1761689400,"current_range_meters":13600,"station_id":"","pricing_plan_id":"cebpf4jnsgd1na2vs0mg"},{"bike_id":"aa0e7e4b-f890-4f53-a40a-615d9f77115a","system_id":"levelo_inurba_marseille","lat":43.32129,"lon":5.36792,"is_reserved":false,"is_disabled":false,"rental_uris":{"android":"levelo://app?vid=aa0e7e4b-f890-4f53-a40a-615d9f77115a","ios":"levelo://app?vid=aa0e7e4b-f890-4f53-a40a-615d9f77115a"},"vehicle_type_id":"4","last_reported":1761689400,"current_range_meters":13600,"station_id":"ce4bhrh2rcd13ifvqhug","pricing_plan_id":"cebpf4jnsgd1na2vs0mg"},{"bike_id":"813b0e57-2c36-42ec-aee0-add73db61124","system_id":"levelo_inurba_marseille","lat":43.308647,"lon":5.396378,"is_reserved":false,"is_disabled":false,"rental_uris":{"android":"levelo://app?vid=813b0e57-2c36-42ec-aee0-add73db61124","ios":"levelo://app?vid=813b0e57-2c36-42ec-aee0-add73db61124"},"vehicle_type_id":"4","last_reported":1761689400,"current_range_meters":13600,"station_id":"ce4bh012rcd13ifvqcv0","pricing_plan_id":"cebpf4jnsgd1na2vs0mg"},{"bike_id":"2be3bf9b-39f4-4c37-8c01-9e9bcabe1c53","system_id":"levelo_inurba_marseille","lat":43.33741,"lon":5.37444,"is_reserved":false,"is_disabled":false,"rental_uris":{"android":"levelo://app?vid=2be3bf9b-39f4-4c37-8c01-9e9bcabe1c53","ios":"levelo://app?vid=2be3bf9b-39f4-4c37-8c01-9e9bcabe1c53"},"vehicle_type_id":"4","last_reported":1761689400,"current_range_meters":13600,"station_id":"","pricing_plan_id":"cebpf4jnsgd1na2vs0mg"},{"bike_id":"597cfcb5-e3bd-4683-9d62-e2f3bbf2687d","system_id":"levelo_inurba_marseille","lat":43.30253,"lon":5.40065,"is_reserved":false,"is_disabled":false,"rental_uris":{"android":"levelo://app?vid=597cfcb5-e3bd-4683-9d62-e2f3bbf2687d","ios":"levelo://app?vid=597cfcb5-e3bd-4683-9d62-e2f3bbf2687d"},"vehicle_type_id":"4","last_reported":1761689400,"current_range_meters":13600,"station_id":"ce4bgvh2rcd13ifvqcs0","pricing_plan_id":"cebpf4jnsgd1na2vs0mg"},{"bike_id":"ae8ebe94-fc0f-4409-8f77-39eb5c613a67","system_id":"levelo_inurba_marseille","lat":43.337444,"lon":5.374475,"is_reserved":false,"is_disabled":false,"rental_uris":{"android":"levelo://app?vid=ae8ebe94-fc0f-4409-8f77-39eb5c613a67","ios":"levelo://app?vid=ae8ebe94-fc0f-4409-8f77-39eb5c613a67"},"vehicle_type_id":"4","last_reported":1761689400,"current_range_meters":14000,"station_id":"","pricing_plan_id":"cebpf4jnsgd1na2vs0mg"},{"bike_id":"65a4bf0b-a957-4ac2-9c71-1b1f4c5610cb","system_id":"levelo_inurba_marseille","lat":43.28003,"lon":5.41668,"is_reserved":false,"is_disabled":false,"rental_uris":{"android":"levelo://app?vid=65a4bf0b-a957-4ac2-9c71-1b1f4c5610cb","ios":"levelo://app?vid=65a4bf0b-a957-4ac2-9c71-1b1f4c5610cb"},"vehicle_type_id":"4","last_reported":1761689400,"current_range_meters":14000,"station_id":"ce4bho12rcd13ifvqh1g","pricing_plan_id":"cebpf4jnsgd1na2vs0mg"},{"bike_id":"720466cc-999a-4d77-9e26-053a3dffc8ba","system_id":"levelo_inurba_marseille","lat":43.323675,"lon":5.388864,"is_reserved":false,"is_disabled":false,"rental_uris":{"android":"levelo://app?vid=720466cc-999a-4d77-9e26-053a3dffc8ba","ios":"levelo://app?vid=720466cc-999a-4d77-9e26-053a3dffc8ba"},"vehicle_type_id":"4","last_reported":1761689400,"current_range_meters":14000,"station_id":"ce4bhqp2rcd13ifvqhog","pricing_plan_id":"cebpf4jnsgd1na2vs0mg"},{"bike_id":"1e0547a9-c1ac-4166-bf0f-5ffe3d87ad58","system_id":"levelo_inurba_marseille","lat":43.289368,"lon":5.366344,"is_reserved":false,"is_disabled":false,"rental_uris":{"android":"levelo://app?vid=1e0547a9-c1ac-4166-bf0f-5ffe3d87ad58","ios":"levelo://app?vid=1e0547a9-c1ac-4166-bf0f-5ffe3d87ad58"},"vehicle_type_id":"4","last_reported":1761689400,"current_range_meters":14400,"station_id":"ce4bhap2rcd13ifvqek0","pricing_plan_id":"cebpf4jnsgd1na2vs0mg"},{"bike_id":"f5797326-3c99-49ed-b5ea-113d3e51334b","system_id":"levelo_inurba_marseille","lat":43.30884,"lon":5.39656,"is_reserved":false,"is_disabled":false,"rental_uris":{"android":"levelo://app?vid=f5797326-3c99-49ed-b5ea-113d3e51334b","ios":"levelo://app?vid=f5797326-3c99-49ed-b5ea-113d3e51334b"},"vehicle_type_id":"4","last_reported":1761689400,"current_range_meters":14800,"station_id":"ce4bh012rcd13ifvqcv0","pricing_plan_id":"cebpf4jnsgd1na2vs0mg"},{"bike_id":"a2c44ae7-52cc-4b80-a772-211a26fa85b1","system_id":"levelo_inurba_marseille","lat":43.30197,"lon":5.36613,"is_reserved":false,"is_disabled":true,"rental_uris":{"android":"levelo://app?vid=a2c44ae7-52cc-4b80-a772-211a26fa85b1","ios":"levelo://app?vid=a2c44ae7-52cc-4b80-a772-211a26fa85b1"},"vehicle_type_id":"4","last_reported":1761689400,"current_range_meters":14800,"station_id":"ce4bgrh2rcd13ifvqc8g","pricing_plan_id":"cebpf4jnsgd1na2vs0mg"},{"bike_id":"82c3d2c8-f0bf-446e-b125-018f07998329","system_id":"levelo_inurba_marseille","lat":43.32752,"lon":5.40101,"is_reserved":false,"is_disabled":false,"rental_uris":{"android":"levelo://app?vid=82c3d2c8-f0bf-446e-b125-018f07998329","ios":"levelo://app?vid=82c3d2c8-f0bf-446e-b125-018f07998329"},"vehicle_type_id":"4","last_reported":1761689400,"current_range_meters":14800,"station_id":"","pricing_plan_id":"cebpf4jnsgd1na2vs0mg"},{"bike_id":"d1a9908c-e85d-4fae-8dae-aa4fb62cf0dc","system_id":"levelo_inurba_marseille","lat":43.307883,"lon":5.376499,"is_reserved":false,"is_disabled":false,"rental_uris":{"android":"levelo://app?vid=d1a9908c-e85d-4fae-8dae-aa4fb62cf0dc","ios":"levelo://app?vid=d1a9908c-e85d-4fae-8dae-aa4fb62cf0dc"},"vehicle_type_id":"4","last_reported":1761689400,"current_range_meters":14800,"station_id":"ce4bgv92rcd13ifvqcq0","pricing_plan_id":"cebpf4jnsgd1na2vs0mg"},{"bike_id":"798a6099-226a-447c-bc36-82e620e156b7","system_id":"levelo_inurba_marseille","lat":43.28878,"lon":5.35846,"is_reserved":false,"is_disabled":false,"rental_uris":{"android":"levelo://app?vid=798a6099-226a-447c-bc36-82e620e156b7","ios":"levelo://app?vid=798a6099-226a-447c-bc36-82e620e156b7"},"vehicle_type_id":"4","last_reported":1761689400,"current_range_meters":14800,"station_id":"ce4bhb12rcd13ifvqem0","pricing_plan_id":"cebpf4jnsgd1na2vs0mg"},{"bike_id":"cefcc05b-5b04-4de3-a03a-e33a7e0b205b","system_id":"levelo_inurba_marseille","lat":43.265507,"lon":5.372864,"is_reserved":false,"is_disabled":false,"rental_uris":{"android":"levelo://app?vid=cefcc05b-5b04-4de3-a03a-e33a7e0b205b","ios":"levelo://app?vid=cefcc05b-5b04-4de3-a03a-e33a7e0b205b"},"vehicle_type_id":"4","last_reported":1761689400,"current_range_meters":14800,"station_id":"","pricing_plan_id":"cebpf4jnsgd1na2vs0mg"},{"bike_id":"02dd205b-e97c-4104-9683-066d2523fd3f","system_id":"levelo_inurba_marseille","lat":43.23085,"lon":5.355,"is_reserved":false,"is_disabled":false,"rental_uris":{"android":"levelo://app?vid=02dd205b-e97c-4104-9683-066d2523fd3f","ios":"levelo://app?vid=02dd205b-e97c-4104-9683-066d2523fd3f"},"vehicle_type_id":"4","last_reported":1761689400,"current_range_meters":14800,"station_id":"cpo3342slgdg3j2ifvpg","pricing_plan_id":"cebpf4jnsgd1na2vs0mg"},{"bike_id":"3647a140-bc93-465d-8d47-e974143959e0","system_id":"levelo_inurba_marseille","lat":43.28723,"lon":5.36093,"is_reserved":false,"is_disabled":false,"rental_uris":{"android":"levelo://app?vid=3647a140-bc93-465d-8d47-e974143959e0","ios":"levelo://app?vid=3647a140-bc93-465d-8d47-e974143959e0"},"vehicle_type_id":"4","last_reported":1761689400,"current_range_meters":15200,"station_id":"cki0cbj6b192h4jlfktg","pricing_plan_id":"cebpf4jnsgd1na2vs0mg"},{"bike_id":"9c97335d-e5a0-4807-8718-cc9e9bd0f749","system_id":"levelo_inurba_marseille","lat":43.25085,"lon":5.39495,"is_reserved":false,"is_disabled":false,"rental_uris":{"android":"levelo://app?vid=9c97335d-e5a0-4807-8718-cc9e9bd0f749","ios":"levelo://app?vid=9c97335d-e5a0-4807-8718-cc9e9bd0f749"},"vehicle_type_id":"4","last_reported":1761689400,"current_range_meters":15200,"station_id":"ce4bhm12rcd13ifvqgkg","pricing_plan_id":"cebpf4jnsgd1na2vs0mg"},{"bike_id":"d24a2c68-94c2-4577-88eb-bd161c9ebb38","system_id":"levelo_inurba_marseille","lat":43.225311,"lon":5.348358,"is_reserved":false,"is_disabled":false,"rental_uris":{"android":"levelo://app?vid=d24a2c68-94c2-4577-88eb-bd161c9ebb38","ios":"levelo://app?vid=d24a2c68-94c2-4577-88eb-bd161c9ebb38"},"vehicle_type_id":"4","last_reported":1761689400,"current_range_meters":15200,"station_id":"","pricing_plan_id":"cebpf4jnsgd1na2vs0mg"},{"bike_id":"63d609e6-454d-48ce-b2e8-2d48d00a16bc","system_id":"levelo_inurba_marseille","lat":43.29788,"lon":5.39352,"is_reserved":false,"is_disabled":false,"rental_uris":{"android":"levelo://app?vid=63d609e6-454d-48ce-b2e8-2d48d00a16bc","ios":"levelo://app?vid=63d609e6-454d-48ce-b2e8-2d48d00a16bc"},"vehicle_type_id":"4","last_reported":1761689400,"current_range_meters":15200,"station_id":"chh1huq6cuj3fo74tm60","pricing_plan_id":"cebpf4jnsgd1na2vs0mg"},{"bike_id":"42ed1b94-640c-460f-8d10-6f0a1faeb5d8","system_id":"levelo_inurba_marseille","lat":43.30304,"lon":5.392046,"is_reserved":false,"is_disabled":false,"rental_uris":{"android":"levelo://app?vid=42ed1b94-640c-460f-8d10-6f0a1faeb5d8","ios":"levelo://app?vid=42ed1b94-640c-460f-8d10-6f0a1faeb5d8"},"vehicle_type_id":"4","last_reported":1761689400,"current_range_meters":16000,"station_id":"ce4bgkh2rcd13ifvqbk0","pricing_plan_id":"cebpf4jnsgd1na2vs0mg"},{"bike_id":"1c39ca45-45e0-4674-9290-6314a987d622","system_id":"levelo_inurba_marseille","lat":43.30797,"lon":5.38176,"is_reserved":false,"is_disabled":false,"rental_uris":{"android":"levelo://app?vid=1c39ca45-45e0-4674-9290-6314a987d622","ios":"levelo://app?vid=1c39ca45-45e0-4674-9290-6314a987d622"},"vehicle_type_id":"4","last_reported":1761689400,"current_range_meters":16000,"station_id":"ce4bgt12rcd13ifvqce0","pricing_plan_id":"cebpf4jnsgd1na2vs0mg"},{"bike_id":"4ddf7669-6cdd-4415-aba7-251a3892d5ea","system_id":"levelo_inurba_marseille","lat":43.23197,"lon":5.39992,"is_reserved":false,"is_disabled":false,"rental_uris":{"android":"levelo://app?vid=4ddf7669-6cdd-4415-aba7-251a3892d5ea","ios":"levelo://app?vid=4ddf7669-6cdd-4415-aba7-251a3892d5ea"},"vehicle_type_id":"4","last_reported":1761689400,"current_range_meters":16000,"station_id":"ce4bhn12rcd13ifvqgqg","pricing_plan_id":"cebpf4jnsgd1na2vs0mg"},{"bike_id":"51cb843c-bce3-4cd2-9fd7-3b3ef32daec2","system_id":"levelo_inurba_marseille","lat":43.27914,"lon":5.39581,"is_reserved":false,"is_disabled":false,"rental_uris":{"android":"levelo://app?vid=51cb843c-bce3-4cd2-9fd7-3b3ef32daec2","ios":"levelo://app?vid=51cb843c-bce3-4cd2-9fd7-3b3ef32daec2"},"vehicle_type_id":"4","last_reported":1761689400,"current_range_meters":16000,"station_id":"ce4bhf92rcd13ifvqf40","pricing_plan_id":"cebpf4jnsgd1na2vs0mg"},{"bike_id":"f4ae9746-b1ce-4423-871f-af6ff98b156e","system_id":"levelo_inurba_marseille","lat":43.3025,"lon":5.40101,"is_reserved":false,"is_disabled":false,"rental_uris":{"android":"levelo://app?vid=f4ae9746-b1ce-4423-871f-af6ff98b156e","ios":"levelo://app?vid=f4ae9746-b1ce-4423-871f-af6ff98b156e"},"vehicle_type_id":"4","last_reported":1761689400,"current_range_meters":16000,"station_id":"ce4bgvh2rcd13ifvqcs0","pricing_plan_id":"cebpf4jnsgd1na2vs0mg"},{"bike_id":"2c80b54e-bbc1-4de7-afdf-9b0246ad8a4c","system_id":"levelo_inurba_marseille","lat":43.24805,"lon":5.37454,"is_reserved":false,"is_disabled":false,"rental_uris":{"android":"levelo://app?vid=2c80b54e-bbc1-4de7-afdf-9b0246ad8a4c","ios":"levelo://app?vid=2c80b54e-bbc1-4de7-afdf-9b0246ad8a4c"},"vehicle_type_id":"4","last_reported":1761689400,"current_range_meters":16400,"station_id":"ce4bhgh2rcd13ifvqfb0","pricing_plan_id":"cebpf4jnsgd1na2vs0mg"},{"bike_id":"11716ec0-de75-4788-aa86-bbb4f0d68f78","system_id":"levelo_inurba_marseille","lat":43.289797,"lon":5.366349,"is_reserved":false,"is_disabled":false,"rental_uris":{"android":"levelo://app?vid=11716ec0-de75-4788-aa86-bbb4f0d68f78","ios":"levelo://app?vid=11716ec0-de75-4788-aa86-bbb4f0d68f78"},"vehicle_type_id":"4","last_reported":1761689400,"current_range_meters":16400,"station_id":"ce4bhap2rcd13ifvqek0","pricing_plan_id":"cebpf4jnsgd1na2vs0mg"},{"bike_id":"7646a48b-a165-4172-aaa5-aabda3625dff","system_id":"levelo_inurba_marseille","lat":43.29537,"lon":5.38544,"is_reserved":false,"is_disabled":false,"rental_uris":{"android":"levelo://app?vid=7646a48b-a165-4172-aaa5-aabda3625dff","ios":"levelo://app?vid=7646a48b-a165-4172-aaa5-aabda3625dff"},"vehicle_type_id":"4","last_reported":1761689400,"current_range_meters":16400,"station_id":"ce4bgih2rcd13ifvqba0","pricing_plan_id":"cebpf4jnsgd1na2vs0mg"},{"bike_id":"bb9370ef-3590-41dd-8c39-3a78062a4405","system_id":"levelo_inurba_marseille","lat":43.26559,"lon":5.37283,"is_reserved":false,"is_disabled":false,"rental_uris":{"android":"levelo://app?vid=bb9370ef-3590-41dd-8c39-3a78062a4405","ios":"levelo://app?vid=bb9370ef-3590-41dd-8c39-3a78062a4405"},"vehicle_type_id":"4","last_reported":1761689400,"current_range_meters":16400,"station_id":"ce4bhg12rcd13ifvqf70","pricing_plan_id":"cebpf4jnsgd1na2vs0mg"},{"bike_id":"d3ab1928-98af-4dd7-b21d-a67c16787d2a","system_id":"levelo_inurba_marseille","lat":43.31707,"lon":5.40408,"is_reserved":false,"is_disabled":false,"rental_uris":{"android":"levelo://app?vid=d3ab1928-98af-4dd7-b21d-a67c16787d2a","ios":"levelo://app?vid=d3ab1928-98af-4dd7-b21d-a67c16787d2a"},"vehicle_type_id":"4","last_reported":1761689400,"current_range_meters":16400,"station_id":"","pricing_plan_id":"cebpf4jnsgd1na2vs0mg"},{"bike_id":"b320ff48-caf9-4236-a1d4-37dcec579a23","system_id":"levelo_inurba_marseille","lat":43.27621,"lon":5.36114,"is_reserved":false,"is_disabled":false,"rental_uris":{"android":"levelo://app?vid=b320ff48-caf9-4236-a1d4-37dcec579a23","ios":"levelo://app?vid=b320ff48-caf9-4236-a1d4-37dcec579a23"},"vehicle_type_id":"4","last_reported":1761689400,"current_range_meters":16400,"station_id":"ce4bgj92rcd13ifvqbe0","pricing_plan_id":"cebpf4jnsgd1na2vs0mg"},{"bike_id":"a924a928-317f-4ead-a2b2-dc0548d99d5f","system_id":"levelo_inurba_marseille","lat":43.305645,"lon":5.393413,"is_reserved":false,"is_disabled":false,"rental_uris":{"android":"levelo://app?vid=a924a928-317f-4ead-a2b2-dc0548d99d5f","ios":"levelo://app?vid=a924a928-317f-4ead-a2b2-dc0548d99d5f"},"vehicle_type_id":"4","last_reported":1761689400,"current_range_meters":16400,"station_id":"ce4bgup2rcd13ifvqco0","pricing_plan_id":"cebpf4jnsgd1na2vs0mg"},{"bike_id":"46d8cd22-361f-4c91-9e38-bf998ae888d1","system_id":"levelo_inurba_marseille","lat":43.31692,"lon":5.4047,"is_reserved":false,"is_disabled":false,"rental_uris":{"android":"levelo://app?vid=46d8cd22-361f-4c91-9e38-bf998ae888d1","ios":"levelo://app?vid=46d8cd22-361f-4c91-9e38-bf998ae888d1"},"vehicle_type_id":"4","last_reported":1761689400,"current_range_meters":16400,"station_id":"ce4bh012rcd13ifvqd00","pricing_plan_id":"cebpf4jnsgd1na2vs0mg"},{"bike_id":"fc8dce04-fa9b-4511-9944-96d30aadef1b","system_id":"levelo_inurba_marseille","lat":43.30333,"lon":5.40435,"is_reserved":false,"is_disabled":false,"rental_uris":{"android":"levelo://app?vid=fc8dce04-fa9b-4511-9944-96d30aadef1b","ios":"levelo://app?vid=fc8dce04-fa9b-4511-9944-96d30aadef1b"},"vehicle_type_id":"4","last_reported":1761689400,"current_range_meters":16400,"station_id":"ce4bh012rcd13ifvqd10","pricing_plan_id":"cebpf4jnsgd1na2vs0mg"},{"bike_id":"800402a0-10ff-4a89-83e0-c531e949cae8","system_id":"levelo_inurba_marseille","lat":43.272093,"lon":5.391853,"is_reserved":false,"is_disabled":false,"rental_uris":{"android":"levelo://app?vid=800402a0-10ff-4a89-83e0-c531e949cae8","ios":"levelo://app?vid=800402a0-10ff-4a89-83e0-c531e949cae8"},"vehicle_type_id":"4","last_reported":1761689400,"current_range_meters":16400,"station_id":"ce4bhhp2rcd13ifvqfm0","pricing_plan_id":"cebpf4jnsgd1na2vs0mg"},{"bike_id":"6a91e7ca-4b00-459a-8085-0a31f67a5c55","system_id":"levelo_inurba_marseille","lat":43.29525,"lon":5.39049,"is_reserved":false,"is_disabled":false,"rental_uris":{"android":"levelo://app?vid=6a91e7ca-4b00-459a-8085-0a31f67a5c55","ios":"levelo://app?vid=6a91e7ca-4b00-459a-8085-0a31f67a5c55"},"vehicle_type_id":"4","last_reported":1761689400,"current_range_meters":16800,"station_id":"ce4bh3p2rcd13ifvqdp0","pricing_plan_id":"cebpf4jnsgd1na2vs0mg"},{"bike_id":"b9fbed83-10d6-4a2f-8e81-30125c59e5d0","system_id":"levelo_inurba_marseille","lat":43.301263,"lon":5.398639,"is_reserved":false,"is_disabled":false,"rental_uris":{"android":"levelo://app?vid=b9fbed83-10d6-4a2f-8e81-30125c59e5d0","ios":"levelo://app?vid=b9fbed83-10d6-4a2f-8e81-30125c59e5d0"},"vehicle_type_id":"4","last_reported":1761689400,"current_range_meters":16800,"station_id":"ce4bh0h2rcd13ifvqd40","pricing_plan_id":"cebpf4jnsgd1na2vs0mg"},{"bike_id":"8304bfd4-f446-4921-9953-892e99884828","system_id":"levelo_inurba_marseille","lat":43.27976,"lon":5.38752,"is_reserved":false,"is_disabled":false,"rental_uris":{"android":"levelo://app?vid=8304bfd4-f446-4921-9953-892e99884828","ios":"levelo://app?vid=8304bfd4-f446-4921-9953-892e99884828"},"vehicle_type_id":"4","last_reported":1761689400,"current_range_meters":16800,"station_id":"ce4bhg12rcd13ifvqf80","pricing_plan_id":"cebpf4jnsgd1na2vs0mg"},{"bike_id":"132a9f41-e808-4f56-ae02-265cc585a431","system_id":"levelo_inurba_marseille","lat":43.28565,"lon":5.39499,"is_reserved":false,"is_disabled":false,"rental_uris":{"android":"levelo://app?vid=132a9f41-e808-4f56-ae02-265cc585a431","ios":"levelo://app?vid=132a9f41-e808-4f56-ae02-265cc585a431"},"vehicle_type_id":"4","last_reported":1761689400,"current_range_meters":16800,"station_id":"ce4bh292rcd13ifvqdg0","pricing_plan_id":"cebpf4jnsgd1na2vs0mg"},{"bike_id":"28ecc673-9f76-410b-bbf1-6f0559d3f1af","system_id":"levelo_inurba_marseille","lat":43.29347,"lon":5.37435,"is_reserved":false,"is_disabled":false,"rental_uris":{"android":"levelo://app?vid=28ecc673-9f76-410b-bbf1-6f0559d3f1af","ios":"levelo://app?vid=28ecc673-9f76-410b-bbf1-6f0559d3f1af"},"vehicle_type_id":"4","last_reported":1761689400,"current_range_meters":16800,"station_id":"ce4bhap2rcd13ifvqek0","pricing_plan_id":"cebpf4jnsgd1na2vs0mg"},{"bike_id":"29d4cc9f-bc36-402e-9dce-cece4b5fc105","system_id":"levelo_inurba_marseille","lat":43.31282,"lon":5.40171,"is_reserved":false,"is_disabled":false,"rental_uris":{"android":"levelo://app?vid=29d4cc9f-bc36-402e-9dce-cece4b5fc105","ios":"levelo://app?vid=29d4cc9f-bc36-402e-9dce-cece4b5fc105"},"vehicle_type_id":"4","last_reported":1761689400,"current_range_meters":16800,"station_id":"ce4bh092rcd13ifvqd30","pricing_plan_id":"cebpf4jnsgd1na2vs0mg"},{"bike_id":"28cb39b6-274f-4048-80e6-f6c2f3fc2f54","system_id":"levelo_inurba_marseille","lat":43.29538,"lon":5.38547,"is_reserved":false,"is_disabled":false,"rental_uris":{"android":"levelo://app?vid=28cb39b6-274f-4048-80e6-f6c2f3fc2f54","ios":"levelo://app?vid=28cb39b6-274f-4048-80e6-f6c2f3fc2f54"},"vehicle_type_id":"4","last_reported":1761689400,"current_range_meters":17200,"station_id":"ce4bgih2rcd13ifvqba0","pricing_plan_id":"cebpf4jnsgd1na2vs0mg"},{"bike_id":"e62bc63f-1623-48ba-bdc2-ffa136c40c90","system_id":"levelo_inurba_marseille","lat":43.28086,"lon":5.35665,"is_reserved":false,"is_disabled":false,"rental_uris":{"android":"levelo://app?vid=e62bc63f-1623-48ba-bdc2-ffa136c40c90","ios":"levelo://app?vid=e62bc63f-1623-48ba-bdc2-ffa136c40c90"},"vehicle_type_id":"4","last_reported":1761689400,"current_range_meters":17200,"station_id":"","pricing_plan_id":"cebpf4jnsgd1na2vs0mg"},{"bike_id":"fef7c7e6-8059-41aa-ae57-31b07bd2b2eb","system_id":"levelo_inurba_marseille","lat":43.225311,"lon":5.348374,"is_reserved":false,"is_disabled":false,"rental_uris":{"android":"levelo://app?vid=fef7c7e6-8059-41aa-ae57-31b07bd2b2eb","ios":"levelo://app?vid=fef7c7e6-8059-41aa-ae57-31b07bd2b2eb"},"vehicle_type_id":"4","last_reported":1761689400,"current_range_meters":17200,"station_id":"","pricing_plan_id":"cebpf4jnsgd1na2vs0mg"},{"bike_id":"14c6cedd-2559-445e-b389-644995a90b39","system_id":"levelo_inurba_marseille","lat":43.310256,"lon":5.427489,"is_reserved":false,"is_disabled":false,"rental_uris":{"android":"levelo://app?vid=14c6cedd-2559-445e-b389-644995a90b39","ios":"levelo://app?vid=14c6cedd-2559-445e-b389-644995a90b39"},"vehicle_type_id":"4","last_reported":1761689400,"current_range_meters":17200,"station_id":"","pricing_plan_id":"cebpf4jnsgd1na2vs0mg"},{"bike_id":"34cfbbfb-7fcd-4e0b-a511-b666cf091d8e","system_id":"levelo_inurba_marseille","lat":43.250856,"lon":5.395141,"is_reserved":false,"is_disabled":true,"rental_uris":{"android":"levelo://app?vid=34cfbbfb-7fcd-4e0b-a511-b666cf091d8e","ios":"levelo://app?vid=34cfbbfb-7fcd-4e0b-a511-b666cf091d8e"},"vehicle_type_id":"4","last_reported":1761689400,"current_range_meters":17200,"station_id":"ce4bhm12rcd13ifvqgkg","pricing_plan_id":"cebpf4jnsgd1na2vs0mg"},{"bike_id":"4f82c38d-7bc3-4478-9a23-3dab85ab3f3c","system_id":"levelo_inurba_marseille","lat":43.30377,"lon":5.4249,"is_reserved":false,"is_disabled":false,"rental_uris":{"android":"levelo://app?vid=4f82c38d-7bc3-4478-9a23-3dab85ab3f3c","ios":"levelo://app?vid=4f82c38d-7bc3-4478-9a23-3dab85ab3f3c"},"vehicle_type_id":"4","last_reported":1761689400,"current_range_meters":17200,"station_id":"ce4bhoh2rcd13ifvqh6g","pricing_plan_id":"cebpf4jnsgd1na2vs0mg"},{"bike_id":"eaa27f99-1b2b-451b-9b6e-d89600e0e460","system_id":"levelo_inurba_marseille","lat":43.29536,"lon":5.38545,"is_reserved":false,"is_disabled":false,"rental_uris":{"android":"levelo://app?vid=eaa27f99-1b2b-451b-9b6e-d89600e0e460","ios":"levelo://app?vid=eaa27f99-1b2b-451b-9b6e-d89600e0e460"},"vehicle_type_id":"4","last_reported":1761689400,"current_range_meters":17200,"station_id":"ce4bgih2rcd13ifvqba0","pricing_plan_id":"cebpf4jnsgd1na2vs0mg"},{"bike_id":"f6adb9c1-4a78-4322-baec-aa5f6f5d93b6","system_id":"levelo_inurba_marseille","lat":43.225321,"lon":5.348302,"is_reserved":false,"is_disabled":false,"rental_uris":{"android":"levelo://app?vid=f6adb9c1-4a78-4322-baec-aa5f6f5d93b6","ios":"levelo://app?vid=f6adb9c1-4a78-4322-baec-aa5f6f5d93b6"},"vehicle_type_id":"4","last_reported":1761689400,"current_range_meters":17200,"station_id":"","pricing_plan_id":"cebpf4jnsgd1na2vs0mg"},{"bike_id":"e08a0954-1e77-4ace-99d4-fb493c406774","system_id":"levelo_inurba_marseille","lat":43.30293,"lon":5.40002,"is_reserved":false,"is_disabled":false,"rental_uris":{"android":"levelo://app?vid=e08a0954-1e77-4ace-99d4-fb493c406774","ios":"levelo://app?vid=e08a0954-1e77-4ace-99d4-fb493c406774"},"vehicle_type_id":"4","last_reported":1761689400,"current_range_meters":17200,"station_id":"","pricing_plan_id":"cebpf4jnsgd1na2vs0mg"},{"bike_id":"d340ce0c-a59e-46d4-8780-fe806ed042f0","system_id":"levelo_inurba_marseille","lat":43.28405,"lon":5.37521,"is_reserved":false,"is_disabled":false,"rental_uris":{"android":"levelo://app?vid=d340ce0c-a59e-46d4-8780-fe806ed042f0","ios":"levelo://app?vid=d340ce0c-a59e-46d4-8780-fe806ed042f0"},"vehicle_type_id":"4","last_reported":1761689400,"current_range_meters":17600,"station_id":"ce4bh412rcd13ifvqds0","pricing_plan_id":"cebpf4jnsgd1na2vs0mg"},{"bike_id":"e3260d53-1f31-4048-a6b1-57d9b1375877","system_id":"levelo_inurba_marseille","lat":43.28537,"lon":5.441,"is_reserved":false,"is_disabled":false,"rental_uris":{"android":"levelo://app?vid=e3260d53-1f31-4048-a6b1-57d9b1375877","ios":"levelo://app?vid=e3260d53-1f31-4048-a6b1-57d9b1375877"},"vehicle_type_id":"4","last_reported":1761689400,"current_range_meters":17600,"station_id":"st_d3j3df2ikq2c7380ej80","pricing_plan_id":"cebpf4jnsgd1na2vs0mg"},{"bike_id":"3d00cf23-a66b-47a1-8eb3-f05af16b09a1","system_id":"levelo_inurba_marseille","lat":43.24393,"lon":5.37078,"is_reserved":false,"is_disabled":false,"rental_uris":{"android":"levelo://app?vid=3d00cf23-a66b-47a1-8eb3-f05af16b09a1","ios":"levelo://app?vid=3d00cf23-a66b-47a1-8eb3-f05af16b09a1"},"vehicle_type_id":"4","last_reported":1761689400,"current_range_meters":17600,"station_id":"ce4bhhh2rcd13ifvqfk0","pricing_plan_id":"cebpf4jnsgd1na2vs0mg"},{"bike_id":"3252b369-e4a3-4c0b-94db-c4612699ab97","system_id":"levelo_inurba_marseille","lat":43.31276,"lon":5.40166,"is_reserved":false,"is_disabled":false,"rental_uris":{"android":"levelo://app?vid=3252b369-e4a3-4c0b-94db-c4612699ab97","ios":"levelo://app?vid=3252b369-e4a3-4c0b-94db-c4612699ab97"},"vehicle_type_id":"4","last_reported":1761689400,"current_range_meters":17600,"station_id":"ce4bh092rcd13ifvqd30","pricing_plan_id":"cebpf4jnsgd1na2vs0mg"},{"bike_id":"7bee62d8-ea8d-43c1-9f48-0d01fee92022","system_id":"levelo_inurba_marseille","lat":43.28949,"lon":5.3665,"is_reserved":false,"is_disabled":false,"rental_uris":{"android":"levelo://app?vid=7bee62d8-ea8d-43c1-9f48-0d01fee92022","ios":"levelo://app?vid=7bee62d8-ea8d-43c1-9f48-0d01fee92022"},"vehicle_type_id":"4","last_reported":1761689400,"current_range_meters":17600,"station_id":"ce4bhap2rcd13ifvqek0","pricing_plan_id":"cebpf4jnsgd1na2vs0mg"},{"bike_id":"3be6387f-9356-4d22-96e9-26a716368262","system_id":"levelo_inurba_marseille","lat":43.29649,"lon":5.40605,"is_reserved":false,"is_disabled":true,"rental_uris":{"android":"levelo://app?vid=3be6387f-9356-4d22-96e9-26a716368262","ios":"levelo://app?vid=3be6387f-9356-4d22-96e9-26a716368262"},"vehicle_type_id":"4","last_reported":1761689400,"current_range_meters":17600,"station_id":"ce4bh0h2rcd13ifvqd60","pricing_plan_id":"cebpf4jnsgd1na2vs0mg"},{"bike_id":"70871168-18dd-4754-ad19-d28c37ce9f69","system_id":"levelo_inurba_marseille","lat":43.30826,"lon":5.38149,"is_reserved":false,"is_disabled":true,"rental_uris":{"android":"levelo://app?vid=70871168-18dd-4754-ad19-d28c37ce9f69","ios":"levelo://app?vid=70871168-18dd-4754-ad19-d28c37ce9f69"},"vehicle_type_id":"4","last_reported":1761689400,"current_range_meters":17600,"station_id":"ce4bgt12rcd13ifvqce0","pricing_plan_id":"cebpf4jnsgd1na2vs0mg"},{"bike_id":"7fb0d27d-ec45-4de8-9c9e-90046ec376fa","system_id":"levelo_inurba_marseille","lat":43.24165,"lon":5.36394,"is_reserved":false,"is_disabled":false,"rental_uris":{"android":"levelo://app?vid=7fb0d27d-ec45-4de8-9c9e-90046ec376fa","ios":"levelo://app?vid=7fb0d27d-ec45-4de8-9c9e-90046ec376fa"},"vehicle_type_id":"4","last_reported":1761689400,"current_range_meters":17600,"station_id":"cpo36qri1sfpv3e86is0","pricing_plan_id":"cebpf4jnsgd1na2vs0mg"},{"bike_id":"faee4aed-34d1-4e59-9f3e-bc2337688920","system_id":"levelo_inurba_marseille","lat":43.31716,"lon":5.4371,"is_reserved":false,"is_disabled":true,"rental_uris":{"android":"levelo://app?vid=faee4aed-34d1-4e59-9f3e-bc2337688920","ios":"levelo://app?vid=faee4aed-34d1-4e59-9f3e-bc2337688920"},"vehicle_type_id":"4","last_reported":1761689400,"current_range_meters":17600,"station_id":"ce4bhp92rcd13ifvqhcg","pricing_plan_id":"cebpf4jnsgd1na2vs0mg"},{"bike_id":"7f564d58-bf81-440c-9271-03a09c6aa686","system_id":"levelo_inurba_marseille","lat":43.29793,"lon":5.39352,"is_reserved":false,"is_disabled":false,"rental_uris":{"android":"levelo://app?vid=7f564d58-bf81-440c-9271-03a09c6aa686","ios":"levelo://app?vid=7f564d58-bf81-440c-9271-03a09c6aa686"},"vehicle_type_id":"4","last_reported":1761689400,"current_range_meters":17600,"station_id":"chh1huq6cuj3fo74tm60","pricing_plan_id":"cebpf4jnsgd1na2vs0mg"},{"bike_id":"d0690c13-9a20-4e67-8db5-0c03b6402e8a","system_id":"levelo_inurba_marseille","lat":43.31499,"lon":5.37318,"is_reserved":false,"is_disabled":false,"rental_uris":{"android":"levelo://app?vid=d0690c13-9a20-4e67-8db5-0c03b6402e8a","ios":"levelo://app?vid=d0690c13-9a20-4e67-8db5-0c03b6402e8a"},"vehicle_type_id":"4","last_reported":1761689400,"current_range_meters":17600,"station_id":"ce4bgt12rcd13ifvqcd0","pricing_plan_id":"cebpf4jnsgd1na2vs0mg"},{"bike_id":"75dc66b3-0d26-400d-85b7-e985f64e2136","system_id":"levelo_inurba_marseille","lat":43.28992,"lon":5.43711,"is_reserved":false,"is_disabled":false,"rental_uris":{"android":"levelo://app?vid=75dc66b3-0d26-400d-85b7-e985f64e2136","ios":"levelo://app?vid=75dc66b3-0d26-400d-85b7-e985f64e2136"},"vehicle_type_id":"4","last_reported":1761689400,"current_range_meters":18000,"station_id":"","pricing_plan_id":"cebpf4jnsgd1na2vs0mg"},{"bike_id":"1a34b5a4-3c1e-479b-b6f5-76f97d5c5c52","system_id":"levelo_inurba_marseille","lat":43.28535,"lon":5.44097,"is_reserved":false,"is_disabled":false,"rental_uris":{"android":"levelo://app?vid=1a34b5a4-3c1e-479b-b6f5-76f97d5c5c52","ios":"levelo://app?vid=1a34b5a4-3c1e-479b-b6f5-76f97d5c5c52"},"vehicle_type_id":"4","last_reported":1761689400,"current_range_meters":18000,"station_id":"st_d3j3df2ikq2c7380ej80","pricing_plan_id":"cebpf4jnsgd1na2vs0mg"},{"bike_id":"ea4cf001-23bc-41c3-ab59-d3c1f50281e6","system_id":"levelo_inurba_marseille","lat":43.29259,"lon":5.38431,"is_reserved":false,"is_disabled":false,"rental_uris":{"android":"levelo://app?vid=ea4cf001-23bc-41c3-ab59-d3c1f50281e6","ios":"levelo://app?vid=ea4cf001-23bc-41c3-ab59-d3c1f50281e6"},"vehicle_type_id":"4","last_reported":1761689400,"current_range_meters":18000,"station_id":"ce4bh692rcd13ifvqea0","pricing_plan_id":"cebpf4jnsgd1na2vs0mg"},{"bike_id":"7adb349b-d58b-4a64-a4d5-44b06f616a91","system_id":"levelo_inurba_marseille","lat":43.316929,"lon":5.404695,"is_reserved":false,"is_disabled":false,"rental_uris":{"android":"levelo://app?vid=7adb349b-d58b-4a64-a4d5-44b06f616a91","ios":"levelo://app?vid=7adb349b-d58b-4a64-a4d5-44b06f616a91"},"vehicle_type_id":"4","last_reported":1761689400,"current_range_meters":18000,"station_id":"ce4bh012rcd13ifvqd00","pricing_plan_id":"cebpf4jnsgd1na2vs0mg"},{"bike_id":"af657061-45d4-41f7-a25a-2f5e789e34e3","system_id":"levelo_inurba_marseille","lat":43.29534,"lon":5.38544,"is_reserved":false,"is_disabled":false,"rental_uris":{"android":"levelo://app?vid=af657061-45d4-41f7-a25a-2f5e789e34e3","ios":"levelo://app?vid=af657061-45d4-41f7-a25a-2f5e789e34e3"},"vehicle_type_id":"4","last_reported":1761689400,"current_range_meters":18000,"station_id":"ce4bgih2rcd13ifvqba0","pricing_plan_id":"cebpf4jnsgd1na2vs0mg"},{"bike_id":"ec66bba6-4075-4856-88c1-d8c49e2c0bff","system_id":"levelo_inurba_marseille","lat":43.26228,"lon":5.40449,"is_reserved":false,"is_disabled":false,"rental_uris":{"android":"levelo://app?vid=ec66bba6-4075-4856-88c1-d8c49e2c0bff","ios":"levelo://app?vid=ec66bba6-4075-4856-88c1-d8c49e2c0bff"},"vehicle_type_id":"4","last_reported":1761689400,"current_range_meters":18800,"station_id":"ce4bhmh2rcd13ifvqgmg","pricing_plan_id":"cebpf4jnsgd1na2vs0mg"},{"bike_id":"4c6591b4-a9e8-4410-b7dc-9337436e95cb","system_id":"levelo_inurba_marseille","lat":43.30139,"lon":5.39888,"is_reserved":false,"is_disabled":false,"rental_uris":{"android":"levelo://app?vid=4c6591b4-a9e8-4410-b7dc-9337436e95cb","ios":"levelo://app?vid=4c6591b4-a9e8-4410-b7dc-9337436e95cb"},"vehicle_type_id":"4","last_reported":1761689400,"current_range_meters":18800,"station_id":"ce4bh0h2rcd13ifvqd40","pricing_plan_id":"cebpf4jnsgd1na2vs0mg"},{"bike_id":"dc6a1139-cb0b-4b0c-b153-ae943ab76d70","system_id":"levelo_inurba_marseille","lat":43.30598,"lon":5.39358,"is_reserved":false,"is_disabled":false,"rental_uris":{"android":"levelo://app?vid=dc6a1139-cb0b-4b0c-b153-ae943ab76d70","ios":"levelo://app?vid=dc6a1139-cb0b-4b0c-b153-ae943ab76d70"},"vehicle_type_id":"4","last_reported":1761689400,"current_range_meters":18800,"station_id":"ce4bh0p2rcd13ifvqd80","pricing_plan_id":"cebpf4jnsgd1na2vs0mg"},{"bike_id":"cb198da0-0e7c-48ae-a1c5-8f167fa907d9","system_id":"levelo_inurba_marseille","lat":43.31112,"lon":5.37763,"is_reserved":false,"is_disabled":false,"rental_uris":{"android":"levelo://app?vid=cb198da0-0e7c-48ae-a1c5-8f167fa907d9","ios":"levelo://app?vid=cb198da0-0e7c-48ae-a1c5-8f167fa907d9"},"vehicle_type_id":"4","last_reported":1761689400,"current_range_meters":18800,"station_id":"ce4bgt92rcd13ifvqcg0","pricing_plan_id":"cebpf4jnsgd1na2vs0mg"},{"bike_id":"748aafd4-eaa1-432b-8eac-e68d6aed93bf","system_id":"levelo_inurba_marseille","lat":43.3133,"lon":5.39692,"is_reserved":false,"is_disabled":false,"rental_uris":{"android":"levelo://app?vid=748aafd4-eaa1-432b-8eac-e68d6aed93bf","ios":"levelo://app?vid=748aafd4-eaa1-432b-8eac-e68d6aed93bf"},"vehicle_type_id":"4","last_reported":1761689400,"current_range_meters":18800,"station_id":"ce4bgvp2rcd13ifvqcu0","pricing_plan_id":"cebpf4jnsgd1na2vs0mg"},{"bike_id":"66f35c71-7548-4c33-9bb7-97e77983d5f2","system_id":"levelo_inurba_marseille","lat":43.3023,"lon":5.40062,"is_reserved":false,"is_disabled":true,"rental_uris":{"android":"levelo://app?vid=66f35c71-7548-4c33-9bb7-97e77983d5f2","ios":"levelo://app?vid=66f35c71-7548-4c33-9bb7-97e77983d5f2"},"vehicle_type_id":"4","last_reported":1761689400,"current_range_meters":18800,"station_id":"ce4bgvh2rcd13ifvqcs0","pricing_plan_id":"cebpf4jnsgd1na2vs0mg"},{"bike_id":"5d059a3d-1986-46bd-9e67-5267d63535d3","system_id":"levelo_inurba_marseille","lat":43.313621,"lon":5.38489,"is_reserved":false,"is_disabled":false,"rental_uris":{"android":"levelo://app?vid=5d059a3d-1986-46bd-9e67-5267d63535d3","ios":"levelo://app?vid=5d059a3d-1986-46bd-9e67-5267d63535d3"},"vehicle_type_id":"4","last_reported":1761689400,"current_range_meters":18800,"station_id":"","pricing_plan_id":"cebpf4jnsgd1na2vs0mg"},{"bike_id":"54981271-6fcc-4bca-bad9-c46eb41508f8","system_id":"levelo_inurba_marseille","lat":43.29533,"lon":5.3853,"is_reserved":false,"is_disabled":false,"rental_uris":{"android":"levelo://app?vid=54981271-6fcc-4bca-bad9-c46eb41508f8","ios":"levelo://app?vid=54981271-6fcc-4bca-bad9-c46eb41508f8"},"vehicle_type_id":"4","last_reported":1761689400,"current_range_meters":18800,"station_id":"ce4bgih2rcd13ifvqba0","pricing_plan_id":"cebpf4jnsgd1na2vs0mg"},{"bike_id":"10c1a33a-1970-48f3-b34c-751aca7a1305","system_id":"levelo_inurba_marseille","lat":43.29788,"lon":5.39334,"is_reserved":false,"is_disabled":false,"rental_uris":{"android":"levelo://app?vid=10c1a33a-1970-48f3-b34c-751aca7a1305","ios":"levelo://app?vid=10c1a33a-1970-48f3-b34c-751aca7a1305"},"vehicle_type_id":"4","last_reported":1761689400,"current_range_meters":18800,"station_id":"chh1huq6cuj3fo74tm60","pricing_plan_id":"cebpf4jnsgd1na2vs0mg"},{"bike_id":"55e096fb-037a-4ff1-bf31-f7749c02abea","system_id":"levelo_inurba_marseille","lat":43.280003,"lon":5.416639,"is_reserved":false,"is_disabled":false,"rental_uris":{"android":"levelo://app?vid=55e096fb-037a-4ff1-bf31-f7749c02abea","ios":"levelo://app?vid=55e096fb-037a-4ff1-bf31-f7749c02abea"},"vehicle_type_id":"4","last_reported":1761689400,"current_range_meters":18800,"station_id":"ce4bho12rcd13ifvqh1g","pricing_plan_id":"cebpf4jnsgd1na2vs0mg"},{"bike_id":"5ae39c5d-5e24-440b-8fa6-9d63bbfbae68","system_id":"levelo_inurba_marseille","lat":43.29456,"lon":5.38746,"is_reserved":false,"is_disabled":false,"rental_uris":{"android":"levelo://app?vid=5ae39c5d-5e24-440b-8fa6-9d63bbfbae68","ios":"levelo://app?vid=5ae39c5d-5e24-440b-8fa6-9d63bbfbae68"},"vehicle_type_id":"4","last_reported":1761689400,"current_range_meters":18800,"station_id":"","pricing_plan_id":"cebpf4jnsgd1na2vs0mg"},{"bike_id":"2213c54a-976a-43be-8f2d-e12b8795e211","system_id":"levelo_inurba_marseille","lat":43.3089,"lon":5.39631,"is_reserved":false,"is_disabled":false,"rental_uris":{"android":"levelo://app?vid=2213c54a-976a-43be-8f2d-e12b8795e211","ios":"levelo://app?vid=2213c54a-976a-43be-8f2d-e12b8795e211"},"vehicle_type_id":"4","last_reported":1761689400,"current_range_meters":19200,"station_id":"ce4bh012rcd13ifvqcv0","pricing_plan_id":"cebpf4jnsgd1na2vs0mg"},{"bike_id":"e83d37c9-defa-41e4-b56c-ec5c1a3d2c62","system_id":"levelo_inurba_marseille","lat":43.306106,"lon":5.393406,"is_reserved":false,"is_disabled":false,"rental_uris":{"android":"levelo://app?vid=e83d37c9-defa-41e4-b56c-ec5c1a3d2c62","ios":"levelo://app?vid=e83d37c9-defa-41e4-b56c-ec5c1a3d2c62"},"vehicle_type_id":"4","last_reported":1761689400,"current_range_meters":19200,"station_id":"ce4bh0p2rcd13ifvqd80","pricing_plan_id":"cebpf4jnsgd1na2vs0mg"},{"bike_id":"1fc2cd5c-5cb6-42ed-b0f5-ddf1cc748404","system_id":"levelo_inurba_marseille","lat":43.29872,"lon":5.38909,"is_reserved":false,"is_disabled":false,"rental_uris":{"android":"levelo://app?vid=1fc2cd5c-5cb6-42ed-b0f5-ddf1cc748404","ios":"levelo://app?vid=1fc2cd5c-5cb6-42ed-b0f5-ddf1cc748404"},"vehicle_type_id":"4","last_reported":1761689400,"current_range_meters":19200,"station_id":"ce4bh392rcd13ifvqdl0","pricing_plan_id":"cebpf4jnsgd1na2vs0mg"},{"bike_id":"eb860c7a-3896-4bc5-bcc4-adbe8fda1f58","system_id":"levelo_inurba_marseille","lat":43.299236,"lon":5.374724,"is_reserved":false,"is_disabled":false,"rental_uris":{"android":"levelo://app?vid=eb860c7a-3896-4bc5-bcc4-adbe8fda1f58","ios":"levelo://app?vid=eb860c7a-3896-4bc5-bcc4-adbe8fda1f58"},"vehicle_type_id":"4","last_reported":1761689400,"current_range_meters":19200,"station_id":"ce4bgjh2rcd13ifvqbg0","pricing_plan_id":"cebpf4jnsgd1na2vs0mg"},{"bike_id":"88d5770e-c923-4058-937f-6fe5d60fc0d8","system_id":"levelo_inurba_marseille","lat":43.285673,"lon":5.394904,"is_reserved":false,"is_disabled":false,"rental_uris":{"android":"levelo://app?vid=88d5770e-c923-4058-937f-6fe5d60fc0d8","ios":"levelo://app?vid=88d5770e-c923-4058-937f-6fe5d60fc0d8"},"vehicle_type_id":"4","last_reported":1761689400,"current_range_meters":19200,"station_id":"ce4bh292rcd13ifvqdg0","pricing_plan_id":"cebpf4jnsgd1na2vs0mg"},{"bike_id":"7ae50e92-a1ad-4210-8256-dd50c1a65468","system_id":"levelo_inurba_marseille","lat":43.29053,"lon":5.37162,"is_reserved":false,"is_disabled":false,"rental_uris":{"android":"levelo://app?vid=7ae50e92-a1ad-4210-8256-dd50c1a65468","ios":"levelo://app?vid=7ae50e92-a1ad-4210-8256-dd50c1a65468"},"vehicle_type_id":"4","last_reported":1761689400,"current_range_meters":19200,"station_id":"ce4bh5p2rcd13ifvqe4g","pricing_plan_id":"cebpf4jnsgd1na2vs0mg"},{"bike_id":"ed30484c-f8c2-485f-b756-0fa24c005839","system_id":"levelo_inurba_marseille","lat":43.24802,"lon":5.37455,"is_reserved":false,"is_disabled":false,"rental_uris":{"android":"levelo://app?vid=ed30484c-f8c2-485f-b756-0fa24c005839","ios":"levelo://app?vid=ed30484c-f8c2-485f-b756-0fa24c005839"},"vehicle_type_id":"4","last_reported":1761689400,"current_range_meters":19200,"station_id":"ce4bhgh2rcd13ifvqfb0","pricing_plan_id":"cebpf4jnsgd1na2vs0mg"},{"bike_id":"e9c4d35f-4452-4790-a2e9-3dfcc4e187bd","system_id":"levelo_inurba_marseille","lat":43.286651,"lon":5.386736,"is_reserved":false,"is_disabled":false,"rental_uris":{"android":"levelo://app?vid=e9c4d35f-4452-4790-a2e9-3dfcc4e187bd","ios":"levelo://app?vid=e9c4d35f-4452-4790-a2e9-3dfcc4e187bd"},"vehicle_type_id":"4","last_reported":1761689400,"current_range_meters":19200,"station_id":"ce4bh492rcd13ifvqdug","pricing_plan_id":"cebpf4jnsgd1na2vs0mg"},{"bike_id":"76aace91-61d0-4fb5-84bc-fded435c3777","system_id":"levelo_inurba_marseille","lat":43.300441,"lon":5.386509,"is_reserved":false,"is_disabled":false,"rental_uris":{"android":"levelo://app?vid=76aace91-61d0-4fb5-84bc-fded435c3777","ios":"levelo://app?vid=76aace91-61d0-4fb5-84bc-fded435c3777"},"vehicle_type_id":"4","last_reported":1761689400,"current_range_meters":19200,"station_id":"","pricing_plan_id":"cebpf4jnsgd1na2vs0mg"},{"bike_id":"a889273d-bcc7-4055-aa42-4c0b25e800a5","system_id":"levelo_inurba_marseille","lat":43.30895,"lon":5.39669,"is_reserved":false,"is_disabled":false,"rental_uris":{"android":"levelo://app?vid=a889273d-bcc7-4055-aa42-4c0b25e800a5","ios":"levelo://app?vid=a889273d-bcc7-4055-aa42-4c0b25e800a5"},"vehicle_type_id":"4","last_reported":1761689400,"current_range_meters":19200,"station_id":"ce4bh012rcd13ifvqcv0","pricing_plan_id":"cebpf4jnsgd1na2vs0mg"},{"bike_id":"02022cdf-e65a-45f6-b63c-ce62efd90628","system_id":"levelo_inurba_marseille","lat":43.306065,"lon":5.372252,"is_reserved":false,"is_disabled":false,"rental_uris":{"android":"levelo://app?vid=02022cdf-e65a-45f6-b63c-ce62efd90628","ios":"levelo://app?vid=02022cdf-e65a-45f6-b63c-ce62efd90628"},"vehicle_type_id":"4","last_reported":1761689400,"current_range_meters":19200,"station_id":"ce4bgqh2rcd13ifvqc4g","pricing_plan_id":"cebpf4jnsgd1na2vs0mg"},{"bike_id":"4735dc9b-efdb-40d5-82ff-c13389eb3794","system_id":"levelo_inurba_marseille","lat":43.276022,"lon":5.422747,"is_reserved":false,"is_disabled":false,"rental_uris":{"android":"levelo://app?vid=4735dc9b-efdb-40d5-82ff-c13389eb3794","ios":"levelo://app?vid=4735dc9b-efdb-40d5-82ff-c13389eb3794"},"vehicle_type_id":"4","last_reported":1761689400,"current_range_meters":19200,"station_id":"ce4bhn92rcd13ifvqgrg","pricing_plan_id":"cebpf4jnsgd1na2vs0mg"},{"bike_id":"d9a6a1f6-ad3e-4d83-b3dd-5f0ef903b947","system_id":"levelo_inurba_marseille","lat":43.230866,"lon":5.354803,"is_reserved":false,"is_disabled":false,"rental_uris":{"android":"levelo://app?vid=d9a6a1f6-ad3e-4d83-b3dd-5f0ef903b947","ios":"levelo://app?vid=d9a6a1f6-ad3e-4d83-b3dd-5f0ef903b947"},"vehicle_type_id":"4","last_reported":1761689400,"current_range_meters":19600,"station_id":"","pricing_plan_id":"cebpf4jnsgd1na2vs0mg"},{"bike_id":"6a34e6d0-792e-4bee-9428-37d85ef8871d","system_id":"levelo_inurba_marseille","lat":43.24809,"lon":5.37467,"is_reserved":false,"is_disabled":false,"rental_uris":{"android":"levelo://app?vid=6a34e6d0-792e-4bee-9428-37d85ef8871d","ios":"levelo://app?vid=6a34e6d0-792e-4bee-9428-37d85ef8871d"},"vehicle_type_id":"4","last_reported":1761689400,"current_range_meters":19600,"station_id":"ce4bhgh2rcd13ifvqfb0","pricing_plan_id":"cebpf4jnsgd1na2vs0mg"},{"bike_id":"21c01c8d-1bae-4e50-b74e-b76516fa8c2e","system_id":"levelo_inurba_marseille","lat":43.27562,"lon":5.38421,"is_reserved":false,"is_disabled":false,"rental_uris":{"android":"levelo://app?vid=21c01c8d-1bae-4e50-b74e-b76516fa8c2e","ios":"levelo://app?vid=21c01c8d-1bae-4e50-b74e-b76516fa8c2e"},"vehicle_type_id":"4","last_reported":1761689400,"current_range_meters":19600,"station_id":"ce4bhh92rcd13ifvqfi0","pricing_plan_id":"cebpf4jnsgd1na2vs0mg"},{"bike_id":"556c95c4-e39d-4a50-b32b-6e1b11658636","system_id":"levelo_inurba_marseille","lat":43.24176,"lon":5.36401,"is_reserved":false,"is_disabled":false,"rental_uris":{"android":"levelo://app?vid=556c95c4-e39d-4a50-b32b-6e1b11658636","ios":"levelo://app?vid=556c95c4-e39d-4a50-b32b-6e1b11658636"},"vehicle_type_id":"4","last_reported":1761689400,"current_range_meters":19600,"station_id":"cpo36qri1sfpv3e86is0","pricing_plan_id":"cebpf4jnsgd1na2vs0mg"},{"bike_id":"56c36e90-808c-4430-bd0b-d01d8d44787a","system_id":"levelo_inurba_marseille","lat":43.29481,"lon":5.43308,"is_reserved":false,"is_disabled":false,"rental_uris":{"android":"levelo://app?vid=56c36e90-808c-4430-bd0b-d01d8d44787a","ios":"levelo://app?vid=56c36e90-808c-4430-bd0b-d01d8d44787a"},"vehicle_type_id":"4","last_reported":1761689400,"current_range_meters":19600,"station_id":"st_d3j5ugp08ojc73fj9d10","pricing_plan_id":"cebpf4jnsgd1na2vs0mg"},{"bike_id":"760b7e4a-a8c4-4135-b9cf-63172e4a5ee6","system_id":"levelo_inurba_marseille","lat":43.27948,"lon":5.41053,"is_reserved":false,"is_disabled":false,"rental_uris":{"android":"levelo://app?vid=760b7e4a-a8c4-4135-b9cf-63172e4a5ee6","ios":"levelo://app?vid=760b7e4a-a8c4-4135-b9cf-63172e4a5ee6"},"vehicle_type_id":"4","last_reported":1761689400,"current_range_meters":20000,"station_id":"ce4bhnp2rcd13ifvqh0g","pricing_plan_id":"cebpf4jnsgd1na2vs0mg"},{"bike_id":"2e71e28f-9664-4350-bc05-536897292751","system_id":"levelo_inurba_marseille","lat":43.26236,"lon":5.40447,"is_reserved":false,"is_disabled":false,"rental_uris":{"android":"levelo://app?vid=2e71e28f-9664-4350-bc05-536897292751","ios":"levelo://app?vid=2e71e28f-9664-4350-bc05-536897292751"},"vehicle_type_id":"4","last_reported":1761689400,"current_range_meters":20000,"station_id":"ce4bhmh2rcd13ifvqgmg","pricing_plan_id":"cebpf4jnsgd1na2vs0mg"},{"bike_id":"5bf996c0-533a-43f0-90e7-e795ff8ed648","system_id":"levelo_inurba_marseille","lat":43.28356,"lon":5.38106,"is_reserved":false,"is_disabled":false,"rental_uris":{"android":"levelo://app?vid=5bf996c0-533a-43f0-90e7-e795ff8ed648","ios":"levelo://app?vid=5bf996c0-533a-43f0-90e7-e795ff8ed648"},"vehicle_type_id":"4","last_reported":1761689400,"current_range_meters":20000,"station_id":"ce4bh412rcd13ifvqdr0","pricing_plan_id":"cebpf4jnsgd1na2vs0mg"},{"bike_id":"5ac25172-b8d9-40cb-9b67-6b851d69a708","system_id":"levelo_inurba_marseille","lat":43.29041,"lon":5.39963,"is_reserved":false,"is_disabled":false,"rental_uris":{"android":"levelo://app?vid=5ac25172-b8d9-40cb-9b67-6b851d69a708","ios":"levelo://app?vid=5ac25172-b8d9-40cb-9b67-6b851d69a708"},"vehicle_type_id":"4","last_reported":1761689400,"current_range_meters":20000,"station_id":"ce4bh392rcd13ifvqdm0","pricing_plan_id":"cebpf4jnsgd1na2vs0mg"},{"bike_id":"dead3ee9-28a0-4654-afdf-43074901507c","system_id":"levelo_inurba_marseille","lat":43.30328,"lon":5.40434,"is_reserved":false,"is_disabled":false,"rental_uris":{"android":"levelo://app?vid=dead3ee9-28a0-4654-afdf-43074901507c","ios":"levelo://app?vid=dead3ee9-28a0-4654-afdf-43074901507c"},"vehicle_type_id":"4","last_reported":1761689400,"current_range_meters":20000,"station_id":"ce4bh012rcd13ifvqd10","pricing_plan_id":"cebpf4jnsgd1na2vs0mg"},{"bike_id":"0320dc14-5222-40a3-b833-18c5819cb98a","system_id":"levelo_inurba_marseille","lat":43.28403,"lon":5.3751,"is_reserved":false,"is_disabled":false,"rental_uris":{"android":"levelo://app?vid=0320dc14-5222-40a3-b833-18c5819cb98a","ios":"levelo://app?vid=0320dc14-5222-40a3-b833-18c5819cb98a"},"vehicle_type_id":"4","last_reported":1761689400,"current_range_meters":20000,"station_id":"ce4bh412rcd13ifvqds0","pricing_plan_id":"cebpf4jnsgd1na2vs0mg"},{"bike_id":"a0257cb7-6e09-4e57-9074-9166ca511388","system_id":"levelo_inurba_marseille","lat":43.22565,"lon":5.41628,"is_reserved":false,"is_disabled":false,"rental_uris":{"android":"levelo://app?vid=a0257cb7-6e09-4e57-9074-9166ca511388","ios":"levelo://app?vid=a0257cb7-6e09-4e57-9074-9166ca511388"},"vehicle_type_id":"4","last_reported":1761689400,"current_range_meters":20400,"station_id":"st_d2o4gvlbi1j2169b742g","pricing_plan_id":"cebpf4jnsgd1na2vs0mg"},{"bike_id":"37b9a414-ff49-459d-a699-5e4384e67c87","system_id":"levelo_inurba_marseille","lat":43.29605,"lon":5.36748,"is_reserved":false,"is_disabled":false,"rental_uris":{"android":"levelo://app?vid=37b9a414-ff49-459d-a699-5e4384e67c87","ios":"levelo://app?vid=37b9a414-ff49-459d-a699-5e4384e67c87"},"vehicle_type_id":"4","last_reported":1761689400,"current_range_meters":20400,"station_id":"ce4bgph2rcd13ifvqc2g","pricing_plan_id":"cebpf4jnsgd1na2vs0mg"},{"bike_id":"75d57c7d-1a1a-4807-b716-f0c1fc5a0d1a","system_id":"levelo_inurba_marseille","lat":43.30598,"lon":5.37182,"is_reserved":false,"is_disabled":false,"rental_uris":{"android":"levelo://app?vid=75d57c7d-1a1a-4807-b716-f0c1fc5a0d1a","ios":"levelo://app?vid=75d57c7d-1a1a-4807-b716-f0c1fc5a0d1a"},"vehicle_type_id":"4","last_reported":1761689400,"current_range_meters":20400,"station_id":"ce4bgqh2rcd13ifvqc4g","pricing_plan_id":"cebpf4jnsgd1na2vs0mg"},{"bike_id":"9d19aa12-f7d8-4182-8cd0-6d800ec08c05","system_id":"levelo_inurba_marseille","lat":43.276166,"lon":5.360981,"is_reserved":false,"is_disabled":true,"rental_uris":{"android":"levelo://app?vid=9d19aa12-f7d8-4182-8cd0-6d800ec08c05","ios":"levelo://app?vid=9d19aa12-f7d8-4182-8cd0-6d800ec08c05"},"vehicle_type_id":"4","last_reported":1761689400,"current_range_meters":20400,"station_id":"ce4bgj92rcd13ifvqbe0","pricing_plan_id":"cebpf4jnsgd1na2vs0mg"},{"bike_id":"58e5d3a5-2659-4cba-9640-35e98cfd4b2c","system_id":"levelo_inurba_marseille","lat":43.2954,"lon":5.37515,"is_reserved":false,"is_disabled":true,"rental_uris":{"android":"levelo://app?vid=58e5d3a5-2659-4cba-9640-35e98cfd4b2c","ios":"levelo://app?vid=58e5d3a5-2659-4cba-9640-35e98cfd4b2c"},"vehicle_type_id":"4","last_reported":1761689400,"current_range_meters":20800,"station_id":"ce4bgkp2rcd13ifvqbmg","pricing_plan_id":"cebpf4jnsgd1na2vs0mg"},{"bike_id":"41dcdaf3-d035-4f5b-908d-5af2d63a6faf","system_id":"levelo_inurba_marseille","lat":43.29915,"lon":5.38158,"is_reserved":false,"is_disabled":false,"rental_uris":{"android":"levelo://app?vid=41dcdaf3-d035-4f5b-908d-5af2d63a6faf","ios":"levelo://app?vid=41dcdaf3-d035-4f5b-908d-5af2d63a6faf"},"vehicle_type_id":"4","last_reported":1761689400,"current_range_meters":20800,"station_id":"ce4bgj12rcd13ifvqbc0","pricing_plan_id":"cebpf4jnsgd1na2vs0mg"},{"bike_id":"f8107aa9-d99c-41cc-888c-08e303af4044","system_id":"levelo_inurba_marseille","lat":43.29256,"lon":5.3845,"is_reserved":false,"is_disabled":false,"rental_uris":{"android":"levelo://app?vid=f8107aa9-d99c-41cc-888c-08e303af4044","ios":"levelo://app?vid=f8107aa9-d99c-41cc-888c-08e303af4044"},"vehicle_type_id":"4","last_reported":1761689400,"current_range_meters":20800,"station_id":"ce4bh692rcd13ifvqea0","pricing_plan_id":"cebpf4jnsgd1na2vs0mg"},{"bike_id":"f6da9bb2-198b-4e40-8b6e-2f48317a2fdf","system_id":"levelo_inurba_marseille","lat":43.28944,"lon":5.36639,"is_reserved":false,"is_disabled":false,"rental_uris":{"android":"levelo://app?vid=f6da9bb2-198b-4e40-8b6e-2f48317a2fdf","ios":"levelo://app?vid=f6da9bb2-198b-4e40-8b6e-2f48317a2fdf"},"vehicle_type_id":"4","last_reported":1761689400,"current_range_meters":20800,"station_id":"ce4bhap2rcd13ifvqek0","pricing_plan_id":"cebpf4jnsgd1na2vs0mg"},{"bike_id":"608bf25b-962e-46c8-a5a7-c7a27bcfb470","system_id":"levelo_inurba_marseille","lat":43.26552,"lon":5.37286,"is_reserved":false,"is_disabled":false,"rental_uris":{"android":"levelo://app?vid=608bf25b-962e-46c8-a5a7-c7a27bcfb470","ios":"levelo://app?vid=608bf25b-962e-46c8-a5a7-c7a27bcfb470"},"vehicle_type_id":"4","last_reported":1761689400,"current_range_meters":20800,"station_id":"ce4bhg12rcd13ifvqf70","pricing_plan_id":"cebpf4jnsgd1na2vs0mg"},{"bike_id":"b4efef1a-d825-4853-9c38-51a153d81698","system_id":"levelo_inurba_marseille","lat":43.2507,"lon":5.39517,"is_reserved":false,"is_disabled":false,"rental_uris":{"android":"levelo://app?vid=b4efef1a-d825-4853-9c38-51a153d81698","ios":"levelo://app?vid=b4efef1a-d825-4853-9c38-51a153d81698"},"vehicle_type_id":"4","last_reported":1761689400,"current_range_meters":20800,"station_id":"ce4bhm12rcd13ifvqgkg","pricing_plan_id":"cebpf4jnsgd1na2vs0mg"},{"bike_id":"f0ec41fd-03ca-4d4c-9a71-3c2b6d63f2f6","system_id":"levelo_inurba_marseille","lat":43.28413,"lon":5.37524,"is_reserved":false,"is_disabled":false,"rental_uris":{"android":"levelo://app?vid=f0ec41fd-03ca-4d4c-9a71-3c2b6d63f2f6","ios":"levelo://app?vid=f0ec41fd-03ca-4d4c-9a71-3c2b6d63f2f6"},"vehicle_type_id":"4","last_reported":1761689400,"current_range_meters":20800,"station_id":"ce4bh412rcd13ifvqds0","pricing_plan_id":"cebpf4jnsgd1na2vs0mg"},{"bike_id":"9d245cdd-57af-40c9-8fae-42d63cad83d4","system_id":"levelo_inurba_marseille","lat":43.3089,"lon":5.39656,"is_reserved":false,"is_disabled":false,"rental_uris":{"android":"levelo://app?vid=9d245cdd-57af-40c9-8fae-42d63cad83d4","ios":"levelo://app?vid=9d245cdd-57af-40c9-8fae-42d63cad83d4"},"vehicle_type_id":"4","last_reported":1761689400,"current_range_meters":21600,"station_id":"ce4bh012rcd13ifvqcv0","pricing_plan_id":"cebpf4jnsgd1na2vs0mg"},{"bike_id":"059e3913-0aad-446f-b1e1-0538bc67f272","system_id":"levelo_inurba_marseille","lat":43.3033,"lon":5.40451,"is_reserved":false,"is_disabled":false,"rental_uris":{"android":"levelo://app?vid=059e3913-0aad-446f-b1e1-0538bc67f272","ios":"levelo://app?vid=059e3913-0aad-446f-b1e1-0538bc67f272"},"vehicle_type_id":"4","last_reported":1761689400,"current_range_meters":21600,"station_id":"ce4bh012rcd13ifvqd10","pricing_plan_id":"cebpf4jnsgd1na2vs0mg"},{"bike_id":"40f2b625-7d0c-4fb2-9832-dc645b0606ef","system_id":"levelo_inurba_marseille","lat":43.33757,"lon":5.37434,"is_reserved":false,"is_disabled":false,"rental_uris":{"android":"levelo://app?vid=40f2b625-7d0c-4fb2-9832-dc645b0606ef","ios":"levelo://app?vid=40f2b625-7d0c-4fb2-9832-dc645b0606ef"},"vehicle_type_id":"4","last_reported":1761689400,"current_range_meters":21600,"station_id":"","pricing_plan_id":"cebpf4jnsgd1na2vs0mg"},{"bike_id":"765e33c5-b992-4dc4-8c54-0384c53e260f","system_id":"levelo_inurba_marseille","lat":43.24176,"lon":5.36403,"is_reserved":false,"is_disabled":true,"rental_uris":{"android":"levelo://app?vid=765e33c5-b992-4dc4-8c54-0384c53e260f","ios":"levelo://app?vid=765e33c5-b992-4dc4-8c54-0384c53e260f"},"vehicle_type_id":"4","last_reported":1761689400,"current_range_meters":21600,"station_id":"cpo36qri1sfpv3e86is0","pricing_plan_id":"cebpf4jnsgd1na2vs0mg"},{"bike_id":"5d6dab70-76c7-420b-ad97-bb518b3696b2","system_id":"levelo_inurba_marseille","lat":43.30089,"lon":5.37666,"is_reserved":false,"is_disabled":false,"rental_uris":{"android":"levelo://app?vid=5d6dab70-76c7-420b-ad97-bb518b3696b2","ios":"levelo://app?vid=5d6dab70-76c7-420b-ad97-bb518b3696b2"},"vehicle_type_id":"4","last_reported":1761689400,"current_range_meters":21600,"station_id":"","pricing_plan_id":"cebpf4jnsgd1na2vs0mg"},{"bike_id":"456266f3-48d8-4fb8-ac5d-d08598ad41f1","system_id":"levelo_inurba_marseille","lat":43.25585,"lon":5.38238,"is_reserved":false,"is_disabled":false,"rental_uris":{"android":"levelo://app?vid=456266f3-48d8-4fb8-ac5d-d08598ad41f1","ios":"levelo://app?vid=456266f3-48d8-4fb8-ac5d-d08598ad41f1"},"vehicle_type_id":"4","last_reported":1761689400,"current_range_meters":21600,"station_id":"ce4bhih2rcd13ifvqfs0","pricing_plan_id":"cebpf4jnsgd1na2vs0mg"},{"bike_id":"c6706c6d-037f-4e47-b7ee-20726d97bdcf","system_id":"levelo_inurba_marseille","lat":43.29534,"lon":5.38549,"is_reserved":false,"is_disabled":false,"rental_uris":{"android":"levelo://app?vid=c6706c6d-037f-4e47-b7ee-20726d97bdcf","ios":"levelo://app?vid=c6706c6d-037f-4e47-b7ee-20726d97bdcf"},"vehicle_type_id":"4","last_reported":1761689400,"current_range_meters":21600,"station_id":"ce4bgih2rcd13ifvqba0","pricing_plan_id":"cebpf4jnsgd1na2vs0mg"},{"bike_id":"7806fdea-77e4-4f4a-b450-76370788144c","system_id":"levelo_inurba_marseille","lat":43.29187,"lon":5.39312,"is_reserved":false,"is_disabled":false,"rental_uris":{"android":"levelo://app?vid=7806fdea-77e4-4f4a-b450-76370788144c","ios":"levelo://app?vid=7806fdea-77e4-4f4a-b450-76370788144c"},"vehicle_type_id":"4","last_reported":1761689400,"current_range_meters":22000,"station_id":"ce4bh192rcd13ifvqdd0","pricing_plan_id":"cebpf4jnsgd1na2vs0mg"},{"bike_id":"e3b68576-35dd-440e-88c3-770c96cebe46","system_id":"levelo_inurba_marseille","lat":43.29852,"lon":5.36283,"is_reserved":false,"is_disabled":false,"rental_uris":{"android":"levelo://app?vid=e3b68576-35dd-440e-88c3-770c96cebe46","ios":"levelo://app?vid=e3b68576-35dd-440e-88c3-770c96cebe46"},"vehicle_type_id":"4","last_reported":1761689400,"current_range_meters":22000,"station_id":"ce4bgpp2rcd13ifvqc3g","pricing_plan_id":"cebpf4jnsgd1na2vs0mg"},{"bike_id":"28717fee-76dd-49af-beb0-0cc715783d15","system_id":"levelo_inurba_marseille","lat":43.29533,"lon":5.38534,"is_reserved":false,"is_disabled":false,"rental_uris":{"android":"levelo://app?vid=28717fee-76dd-49af-beb0-0cc715783d15","ios":"levelo://app?vid=28717fee-76dd-49af-beb0-0cc715783d15"},"vehicle_type_id":"4","last_reported":1761689400,"current_range_meters":22000,"station_id":"ce4bgih2rcd13ifvqba0","pricing_plan_id":"cebpf4jnsgd1na2vs0mg"},{"bike_id":"5b620425-6862-46cb-a74c-d3eec48203d7","system_id":"levelo_inurba_marseille","lat":43.29556,"lon":5.42295,"is_reserved":false,"is_disabled":false,"rental_uris":{"android":"levelo://app?vid=5b620425-6862-46cb-a74c-d3eec48203d7","ios":"levelo://app?vid=5b620425-6862-46cb-a74c-d3eec48203d7"},"vehicle_type_id":"4","last_reported":1761689400,"current_range_meters":22000,"station_id":"ce4bhph2rcd13ifvqhdg","pricing_plan_id":"cebpf4jnsgd1na2vs0mg"},{"bike_id":"7eaf5972-420e-4ee4-8af0-6020df7e9204","system_id":"levelo_inurba_marseille","lat":43.29708,"lon":5.36629,"is_reserved":false,"is_disabled":false,"rental_uris":{"android":"levelo://app?vid=7eaf5972-420e-4ee4-8af0-6020df7e9204","ios":"levelo://app?vid=7eaf5972-420e-4ee4-8af0-6020df7e9204"},"vehicle_type_id":"4","last_reported":1761689400,"current_range_meters":22400,"station_id":"ce4bgn12rcd13ifvqbt0","pricing_plan_id":"cebpf4jnsgd1na2vs0mg"},{"bike_id":"9d40a700-0d92-4efa-9902-11e2f8d9e543","system_id":"levelo_inurba_marseille","lat":43.30413,"lon":5.41279,"is_reserved":false,"is_disabled":false,"rental_uris":{"android":"levelo://app?vid=9d40a700-0d92-4efa-9902-11e2f8d9e543","ios":"levelo://app?vid=9d40a700-0d92-4efa-9902-11e2f8d9e543"},"vehicle_type_id":"4","last_reported":1761689400,"current_range_meters":22400,"station_id":"ce4bhop2rcd13ifvqh8g","pricing_plan_id":"cebpf4jnsgd1na2vs0mg"},{"bike_id":"a18dbf48-2c4d-4fa4-a4c5-c9871d73c9a0","system_id":"levelo_inurba_marseille","lat":43.301994,"lon":5.383462,"is_reserved":false,"is_disabled":false,"rental_uris":{"android":"levelo://app?vid=a18dbf48-2c4d-4fa4-a4c5-c9871d73c9a0","ios":"levelo://app?vid=a18dbf48-2c4d-4fa4-a4c5-c9871d73c9a0"},"vehicle_type_id":"4","last_reported":1761689400,"current_range_meters":22400,"station_id":"ce4bgup2rcd13ifvqcn0","pricing_plan_id":"cebpf4jnsgd1na2vs0mg"},{"bike_id":"2e69ba41-aa43-42b2-ae7d-ba81ab93016c","system_id":"levelo_inurba_marseille","lat":43.306,"lon":5.37234,"is_reserved":false,"is_disabled":false,"rental_uris":{"android":"levelo://app?vid=2e69ba41-aa43-42b2-ae7d-ba81ab93016c","ios":"levelo://app?vid=2e69ba41-aa43-42b2-ae7d-ba81ab93016c"},"vehicle_type_id":"4","last_reported":1761689400,"current_range_meters":22400,"station_id":"ce4bgqh2rcd13ifvqc4g","pricing_plan_id":"cebpf4jnsgd1na2vs0mg"},{"bike_id":"449d68fe-e44d-478e-956e-c4715d97f07f","system_id":"levelo_inurba_marseille","lat":43.30927,"lon":5.3916,"is_reserved":false,"is_disabled":false,"rental_uris":{"android":"levelo://app?vid=449d68fe-e44d-478e-956e-c4715d97f07f","ios":"levelo://app?vid=449d68fe-e44d-478e-956e-c4715d97f07f"},"vehicle_type_id":"4","last_reported":1761689400,"current_range_meters":22400,"station_id":"","pricing_plan_id":"cebpf4jnsgd1na2vs0mg"},{"bike_id":"72fb4fe8-29f0-47ec-a970-0be6b8af1ad5","system_id":"levelo_inurba_marseille","lat":43.29211,"lon":5.35786,"is_reserved":false,"is_disabled":false,"rental_uris":{"android":"levelo://app?vid=72fb4fe8-29f0-47ec-a970-0be6b8af1ad5","ios":"levelo://app?vid=72fb4fe8-29f0-47ec-a970-0be6b8af1ad5"},"vehicle_type_id":"4","last_reported":1761689400,"current_range_meters":22400,"station_id":"ce4bhb12rcd13ifvqel0","pricing_plan_id":"cebpf4jnsgd1na2vs0mg"},{"bike_id":"1e9ab2b8-a0e1-4419-85d4-936336420057","system_id":"levelo_inurba_marseille","lat":43.32086,"lon":5.43406,"is_reserved":false,"is_disabled":false,"rental_uris":{"android":"levelo://app?vid=1e9ab2b8-a0e1-4419-85d4-936336420057","ios":"levelo://app?vid=1e9ab2b8-a0e1-4419-85d4-936336420057"},"vehicle_type_id":"4","last_reported":1761689400,"current_range_meters":22400,"station_id":"","pricing_plan_id":"cebpf4jnsgd1na2vs0mg"},{"bike_id":"3d40ef8b-d359-4041-aa4e-66b97ec36942","system_id":"levelo_inurba_marseille","lat":43.29541,"lon":5.38611,"is_reserved":false,"is_disabled":false,"rental_uris":{"android":"levelo://app?vid=3d40ef8b-d359-4041-aa4e-66b97ec36942","ios":"levelo://app?vid=3d40ef8b-d359-4041-aa4e-66b97ec36942"},"vehicle_type_id":"4","last_reported":1761689400,"current_range_meters":22400,"station_id":"ce4bgih2rcd13ifvqba0","pricing_plan_id":"cebpf4jnsgd1na2vs0mg"},{"bike_id":"1e4090cf-2365-4758-a0d6-73841f7bd8c0","system_id":"levelo_inurba_marseille","lat":43.28559,"lon":5.39496,"is_reserved":false,"is_disabled":false,"rental_uris":{"android":"levelo://app?vid=1e4090cf-2365-4758-a0d6-73841f7bd8c0","ios":"levelo://app?vid=1e4090cf-2365-4758-a0d6-73841f7bd8c0"},"vehicle_type_id":"4","last_reported":1761689400,"current_range_meters":22400,"station_id":"ce4bh292rcd13ifvqdg0","pricing_plan_id":"cebpf4jnsgd1na2vs0mg"},{"bike_id":"945c1c2f-e3a3-4216-83eb-8a936c241ac2","system_id":"levelo_inurba_marseille","lat":43.26941,"lon":5.38913,"is_reserved":false,"is_disabled":false,"rental_uris":{"android":"levelo://app?vid=945c1c2f-e3a3-4216-83eb-8a936c241ac2","ios":"levelo://app?vid=945c1c2f-e3a3-4216-83eb-8a936c241ac2"},"vehicle_type_id":"4","last_reported":1761689400,"current_range_meters":22400,"station_id":"ce4bhhh2rcd13ifvqfl0","pricing_plan_id":"cebpf4jnsgd1na2vs0mg"},{"bike_id":"61b69d18-20cc-4fef-9ff8-b90b08cc83e9","system_id":"levelo_inurba_marseille","lat":43.26685,"lon":5.38272,"is_reserved":false,"is_disabled":false,"rental_uris":{"android":"levelo://app?vid=61b69d18-20cc-4fef-9ff8-b90b08cc83e9","ios":"levelo://app?vid=61b69d18-20cc-4fef-9ff8-b90b08cc83e9"},"vehicle_type_id":"4","last_reported":1761689400,"current_range_meters":22400,"station_id":"ce4bhg92rcd13ifvqf90","pricing_plan_id":"cebpf4jnsgd1na2vs0mg"},{"bike_id":"9b93b5e1-c939-4745-bf85-2d21945442dc","system_id":"levelo_inurba_marseille","lat":43.29994,"lon":5.364,"is_reserved":false,"is_disabled":false,"rental_uris":{"android":"levelo://app?vid=9b93b5e1-c939-4745-bf85-2d21945442dc","ios":"levelo://app?vid=9b93b5e1-c939-4745-bf85-2d21945442dc"},"vehicle_type_id":"4","last_reported":1761689400,"current_range_meters":22800,"station_id":"","pricing_plan_id":"cebpf4jnsgd1na2vs0mg"},{"bike_id":"354d79d8-b33e-4744-934c-51af9fd87ed8","system_id":"levelo_inurba_marseille","lat":43.28088,"lon":5.39664,"is_reserved":false,"is_disabled":false,"rental_uris":{"android":"levelo://app?vid=354d79d8-b33e-4744-934c-51af9fd87ed8","ios":"levelo://app?vid=354d79d8-b33e-4744-934c-51af9fd87ed8"},"vehicle_type_id":"4","last_reported":1761689400,"current_range_meters":22800,"station_id":"ce4bho12rcd13ifvqh2g","pricing_plan_id":"cebpf4jnsgd1na2vs0mg"},{"bike_id":"0fd10a7b-a597-4dc1-bac2-8bb1ff657150","system_id":"levelo_inurba_marseille","lat":43.31759,"lon":5.39013,"is_reserved":false,"is_disabled":false,"rental_uris":{"android":"levelo://app?vid=0fd10a7b-a597-4dc1-bac2-8bb1ff657150","ios":"levelo://app?vid=0fd10a7b-a597-4dc1-bac2-8bb1ff657150"},"vehicle_type_id":"4","last_reported":1761689400,"current_range_meters":22800,"station_id":"ce4bhqp2rcd13ifvqhng","pricing_plan_id":"cebpf4jnsgd1na2vs0mg"},{"bike_id":"b0f45747-c9c8-4cd0-b924-ff1f0b337f15","system_id":"levelo_inurba_marseille","lat":43.313223,"lon":5.396952,"is_reserved":false,"is_disabled":false,"rental_uris":{"android":"levelo://app?vid=b0f45747-c9c8-4cd0-b924-ff1f0b337f15","ios":"levelo://app?vid=b0f45747-c9c8-4cd0-b924-ff1f0b337f15"},"vehicle_type_id":"4","last_reported":1761689400,"current_range_meters":22800,"station_id":"ce4bgvp2rcd13ifvqcu0","pricing_plan_id":"cebpf4jnsgd1na2vs0mg"},{"bike_id":"706eae60-9c69-443c-b206-0e2f863cdf01","system_id":"levelo_inurba_marseille","lat":43.28722,"lon":5.37942,"is_reserved":false,"is_disabled":false,"rental_uris":{"android":"levelo://app?vid=706eae60-9c69-443c-b206-0e2f863cdf01","ios":"levelo://app?vid=706eae60-9c69-443c-b206-0e2f863cdf01"},"vehicle_type_id":"4","last_reported":1761689400,"current_range_meters":22800,"station_id":"ce4bh9p2rcd13ifvqec0","pricing_plan_id":"cebpf4jnsgd1na2vs0mg"},{"bike_id":"bcf17cd5-2fdf-4965-92aa-6df52e8ecdb0","system_id":"levelo_inurba_marseille","lat":43.29064,"lon":5.37166,"is_reserved":false,"is_disabled":true,"rental_uris":{"android":"levelo://app?vid=bcf17cd5-2fdf-4965-92aa-6df52e8ecdb0","ios":"levelo://app?vid=bcf17cd5-2fdf-4965-92aa-6df52e8ecdb0"},"vehicle_type_id":"4","last_reported":1761689400,"current_range_meters":22800,"station_id":"ce4bh5p2rcd13ifvqe4g","pricing_plan_id":"cebpf4jnsgd1na2vs0mg"},{"bike_id":"7b1a4a19-70aa-4654-af87-9754542a00eb","system_id":"levelo_inurba_marseille","lat":43.29536,"lon":5.39032,"is_reserved":false,"is_disabled":true,"rental_uris":{"android":"levelo://app?vid=7b1a4a19-70aa-4654-af87-9754542a00eb","ios":"levelo://app?vid=7b1a4a19-70aa-4654-af87-9754542a00eb"},"vehicle_type_id":"4","last_reported":1761689400,"current_range_meters":22800,"station_id":"ce4bh3p2rcd13ifvqdp0","pricing_plan_id":"cebpf4jnsgd1na2vs0mg"},{"bike_id":"8d97eeed-cce7-408d-ad71-3471198c9eb6","system_id":"levelo_inurba_marseille","lat":43.24809,"lon":5.37461,"is_reserved":false,"is_disabled":false,"rental_uris":{"android":"levelo://app?vid=8d97eeed-cce7-408d-ad71-3471198c9eb6","ios":"levelo://app?vid=8d97eeed-cce7-408d-ad71-3471198c9eb6"},"vehicle_type_id":"4","last_reported":1761689400,"current_range_meters":22800,"station_id":"ce4bhgh2rcd13ifvqfb0","pricing_plan_id":"cebpf4jnsgd1na2vs0mg"},{"bike_id":"7075a5bf-e685-49f2-a7bd-0a906f3c97d3","system_id":"levelo_inurba_marseille","lat":43.24375,"lon":5.37057,"is_reserved":false,"is_disabled":false,"rental_uris":{"android":"levelo://app?vid=7075a5bf-e685-49f2-a7bd-0a906f3c97d3","ios":"levelo://app?vid=7075a5bf-e685-49f2-a7bd-0a906f3c97d3"},"vehicle_type_id":"4","last_reported":1761689400,"current_range_meters":22800,"station_id":"ce4bhhh2rcd13ifvqfk0","pricing_plan_id":"cebpf4jnsgd1na2vs0mg"},{"bike_id":"3c9877a9-bf7c-4aed-9210-31aaee07a89f","system_id":"levelo_inurba_marseille","lat":43.27999,"lon":5.41668,"is_reserved":false,"is_disabled":false,"rental_uris":{"android":"levelo://app?vid=3c9877a9-bf7c-4aed-9210-31aaee07a89f","ios":"levelo://app?vid=3c9877a9-bf7c-4aed-9210-31aaee07a89f"},"vehicle_type_id":"4","last_reported":1761689400,"current_range_meters":22800,"station_id":"ce4bho12rcd13ifvqh1g","pricing_plan_id":"cebpf4jnsgd1na2vs0mg"},{"bike_id":"36fad58c-5986-4ae7-acc3-cce44f51e068","system_id":"levelo_inurba_marseille","lat":43.28965,"lon":5.37858,"is_reserved":false,"is_disabled":true,"rental_uris":{"android":"levelo://app?vid=36fad58c-5986-4ae7-acc3-cce44f51e068","ios":"levelo://app?vid=36fad58c-5986-4ae7-acc3-cce44f51e068"},"vehicle_type_id":"4","last_reported":1761689400,"current_range_meters":22800,"station_id":"ce4bh9p2rcd13ifvqed0","pricing_plan_id":"cebpf4jnsgd1na2vs0mg"},{"bike_id":"15e2c5dd-bae1-46fb-906a-d29fa37d6e53","system_id":"levelo_inurba_marseille","lat":43.31335,"lon":5.37266,"is_reserved":false,"is_disabled":false,"rental_uris":{"android":"levelo://app?vid=15e2c5dd-bae1-46fb-906a-d29fa37d6e53","ios":"levelo://app?vid=15e2c5dd-bae1-46fb-906a-d29fa37d6e53"},"vehicle_type_id":"4","last_reported":1761689400,"current_range_meters":22800,"station_id":"","pricing_plan_id":"cebpf4jnsgd1na2vs0mg"},{"bike_id":"f3f4fd84-e4b0-4a93-bebd-d783c748268d","system_id":"levelo_inurba_marseille","lat":43.27823,"lon":5.35477,"is_reserved":false,"is_disabled":false,"rental_uris":{"android":"levelo://app?vid=f3f4fd84-e4b0-4a93-bebd-d783c748268d","ios":"levelo://app?vid=f3f4fd84-e4b0-4a93-bebd-d783c748268d"},"vehicle_type_id":"4","last_reported":1761689400,"current_range_meters":23200,"station_id":"","pricing_plan_id":"cebpf4jnsgd1na2vs0mg"},{"bike_id":"6447d5c6-c1f3-4227-9d75-6d07349bdb8b","system_id":"levelo_inurba_marseille","lat":43.281054,"lon":5.378256,"is_reserved":false,"is_disabled":false,"rental_uris":{"android":"levelo://app?vid=6447d5c6-c1f3-4227-9d75-6d07349bdb8b","ios":"levelo://app?vid=6447d5c6-c1f3-4227-9d75-6d07349bdb8b"},"vehicle_type_id":"4","last_reported":1761689400,"current_range_meters":23200,"station_id":"ce4bha12rcd13ifvqee0","pricing_plan_id":"cebpf4jnsgd1na2vs0mg"},{"bike_id":"80156698-cdf0-44da-af88-09f7117dac84","system_id":"levelo_inurba_marseille","lat":43.29853,"lon":5.36281,"is_reserved":false,"is_disabled":false,"rental_uris":{"android":"levelo://app?vid=80156698-cdf0-44da-af88-09f7117dac84","ios":"levelo://app?vid=80156698-cdf0-44da-af88-09f7117dac84"},"vehicle_type_id":"4","last_reported":1761689400,"current_range_meters":23200,"station_id":"ce4bgpp2rcd13ifvqc3g","pricing_plan_id":"cebpf4jnsgd1na2vs0mg"},{"bike_id":"3feb82e6-3d78-4d4e-8cc8-73e038054381","system_id":"levelo_inurba_marseille","lat":43.30216,"lon":5.39474,"is_reserved":false,"is_disabled":false,"rental_uris":{"android":"levelo://app?vid=3feb82e6-3d78-4d4e-8cc8-73e038054381","ios":"levelo://app?vid=3feb82e6-3d78-4d4e-8cc8-73e038054381"},"vehicle_type_id":"4","last_reported":1761689400,"current_range_meters":23200,"station_id":"ce4bh0p2rcd13ifvqd70","pricing_plan_id":"cebpf4jnsgd1na2vs0mg"},{"bike_id":"9b5fba50-dca7-4457-9e49-d03b78568ab3","system_id":"levelo_inurba_marseille","lat":43.28114,"lon":5.37856,"is_reserved":false,"is_disabled":false,"rental_uris":{"android":"levelo://app?vid=9b5fba50-dca7-4457-9e49-d03b78568ab3","ios":"levelo://app?vid=9b5fba50-dca7-4457-9e49-d03b78568ab3"},"vehicle_type_id":"4","last_reported":1761689400,"current_range_meters":23200,"station_id":"ce4bha12rcd13ifvqee0","pricing_plan_id":"cebpf4jnsgd1na2vs0mg"},