{"last_updated":1745082486,"ttl":60,"version":"2.2","data":{"bikes":[{"bike_id":"7f20394c-7046-4ff0-86e9-89771a8a8d72","system_id":"levelo_inurba_marseille","lat":43.24808,"lon":5.37461,"is_reserved":false,"is_disabled":false,"rental_uris":{"android":"levelo://app?vid=7f20394c-7046-4ff0-86e9-89771a8a8d72","ios":"levelo://app?vid=7f20394c-7046-4ff0-86e9-89771a8a8d72"},"vehicle_type_id":"4","last_reported":1745082486,"current_range_meters":2800,"station_id":"ce4bhgh2rcd13ifvqfb0","pricing_plan_id":"cebpf4jnsgd1na2vs0mg"},{"bike_id":"a17b3309-b2cc-44ee-b07f-6206fe3d304d","system_id":"levelo_inurba_marseille","lat":43.29622,"lon":5.37719,"is_reserved":false,"is_disabled":false,"rental_uris":{"android":"levelo://app?vid=a17b3309-b2cc-44ee-b07f-6206fe3d304d","ios":"levelo://app?vid=a17b3309-b2cc-44ee-b07f-6206fe3d304d"},"vehicle_type_id":"4","last_reported":1745082486,"current_range_meters":2800,"station_id":"ce4bgi92rcd13ifvqb90","pricing_plan_id":"cebpf4jnsgd1na2vs0mg"},{"bike_id":"9bf76c14-d3a3-471c-aa4e-9c02d22f27bd","system_id":"levelo_inurba_marseille","lat":43.28702,"lon":5.38668,"is_reserved":false,"is_disabled":false,"rental_uris":{"android":"levelo://app?vid=9bf76c14-d3a3-471c-aa4e-9c02d22f27bd","ios":"levelo://app?vid=9bf76c14-d3a3-471c-aa4e-9c02d22f27bd"},"vehicle_type_id":"4","last_reported":1745082486,"current_range_meters":2800,"station_id":"ce4bh492rcd13ifvqdug","pricing_plan_id":"cebpf4jnsgd1na2vs0mg"},{"bike_id":"4a81b7f5-6724-4b57-a9f6-0ae339483251","system_id":"levelo_inurba_marseille","lat":43.29004,"lon":5.35609,"is_reserved":false,"is_disabled":false,"rental_uris":{"android":"levelo://app?vid=4a81b7f5-6724-4b57-a9f6-0ae339483251","ios":"levelo://app?vid=4a81b7f5-6724-4b57-a9f6-0ae339483251"},"vehicle_type_id":"4","last_reported":1745082486,"current_range_meters":2000,"station_id":"ce4bhb92rcd13ifvqen0","pricing_plan_id":"cebpf4jnsgd1na2vs0mg"},{"bike_id":"e9d0df77-57e6-47e5-ad49-14fa9db2f930","system_id":"levelo_inurba_marseille","lat":43.246496,"lon":5.388869,"is_reserved":false,"is_disabled":false,"rental_uris":{"android":"levelo://app?vid=e9d0df77-57e6-47e5-ad49-14fa9db2f930","ios":"levelo://app?vid=e9d0df77-57e6-47e5-ad49-14fa9db2f930"},"vehicle_type_id":"4","last_reported":1745082486,"current_range_meters":2800,"station_id":"ce4bhg12rcd13ifvqf60","pricing_plan_id":"cebpf4jnsgd1na2vs0mg"},{"bike_id":"782fc85e-e9c5-48d2-8e00-cdf60a2a3ffb","system_id":"levelo_inurba_marseille","lat":43.28723,"lon":5.36097,"is_reserved":false,"is_disabled":false,"rental_uris":{"android":"levelo://app?vid=782fc85e-e9c5-48d2-8e00-cdf60a2a3ffb","ios":"levelo://app?vid=782fc85e-e9c5-48d2-8e00-cdf60a2a3ffb"},"vehicle_type_id":"4","last_reported":1745082486,"current_range_meters":2000,"station_id":"cki0cbj6b192h4jlfktg","pricing_plan_id":"cebpf4jnsgd1na2vs0mg"},{"bike_id":"ef6cdbb7-6492-4f4a-a2fb-65f21256065b","system_id":"levelo_inurba_marseille","lat":43.3117,"lon":5.38722,"is_reserved":false,"is_disabled":false,"rental_uris":{"android":"levelo://app?vid=ef6cdbb7-6492-4f4a-a2fb-65f21256065b","ios":"levelo://app?vid=ef6cdbb7-6492-4f4a-a2fb-65f21256065b"},"vehicle_type_id":"4","last_reported":1745082486,"current_range_meters":2000,"station_id":"ce4bgv12rcd13ifvqcp0","pricing_plan_id":"cebpf4jnsgd1na2vs0mg"},{"bike_id":"757d7062-a866-4a00-9022-7bdf19f939aa","system_id":"levelo_inurba_marseille","lat":43.2176,"lon":5.34599,"is_reserved":false,"is_disabled":false,"rental_uris":{"android":"levelo://app?vid=757d7062-a866-4a00-9022-7bdf19f939aa","ios":"levelo://app?vid=757d7062-a866-4a00-9022-7bdf19f939aa"},"vehicle_type_id":"4","last_reported":1745082486,"current_range_meters":2800,"station_id":"st_cvj6r9ubvosntc0bgbag","pricing_plan_id":"cebpf4jnsgd1na2vs0mg"},{"bike_id":"9e6c56fd-3a24-487f-87f6-645cdf593c2e","system_id":"levelo_inurba_marseille","lat":43.301292,"lon":5.379438,"is_reserved":false,"is_disabled":false,"rental_uris":{"android":"levelo://app?vid=9e6c56fd-3a24-487f-87f6-645cdf593c2e","ios":"levelo://app?vid=9e6c56fd-3a24-487f-87f6-645cdf593c2e"},"vehicle_type_id":"4","last_reported":1745082486,"current_range_meters":2800,"station_id":"ce4bh112rcd13ifvqda0","pricing_plan_id":"cebpf4jnsgd1na2vs0mg"},{"bike_id":"1c3e85b2-6e33-439d-845b-2bbf0a1296d8","system_id":"levelo_inurba_marseille","lat":43.3042,"lon":5.41286,"is_reserved":false,"is_disabled":false,"rental_uris":{"android":"levelo://app?vid=1c3e85b2-6e33-439d-845b-2bbf0a1296d8","ios":"levelo://app?vid=1c3e85b2-6e33-439d-845b-2bbf0a1296d8"},"vehicle_type_id":"4","last_reported":1745082486,"current_range_meters":2800,"station_id":"ce4bhop2rcd13ifvqh8g","pricing_plan_id":"cebpf4jnsgd1na2vs0mg"},{"bike_id":"7ac4902b-5e8e-4316-9f21-519cd3d5ff20","system_id":"levelo_inurba_marseille","lat":43.28657,"lon":5.36347,"is_reserved":false,"is_disabled":false,"rental_uris":{"android":"levelo://app?vid=7ac4902b-5e8e-4316-9f21-519cd3d5ff20","ios":"levelo://app?vid=7ac4902b-5e8e-4316-9f21-519cd3d5ff20"},"vehicle_type_id":"4","last_reported":1745082486,"current_range_meters":2000,"station_id":"ce4bhah2rcd13ifvqej0","pricing_plan_id":"cebpf4jnsgd1na2vs0mg"},{"bike_id":"16d6c518-8e17-4c4f-a69f-886daca04ab5","system_id":"levelo_inurba_marseille","lat":43.29575,"lon":5.37519,"is_reserved":false,"is_disabled":false,"rental_uris":{"android":"levelo://app?vid=16d6c518-8e17-4c4f-a69f-886daca04ab5","ios":"levelo://app?vid=16d6c518-8e17-4c4f-a69f-886daca04ab5"},"vehicle_type_id":"4","last_reported":1745082486,"current_range_meters":2800,"station_id":"ce4bgh92rcd13ifvqb50","pricing_plan_id":"cebpf4jnsgd1na2vs0mg"},{"bike_id":"4893e6c4-22a9-4a95-a325-6524ce14877a","system_id":"levelo_inurba_marseille","lat":43.295857,"lon":5.367523,"is_reserved":false,"is_disabled":false,"rental_uris":{"android":"levelo://app?vid=4893e6c4-22a9-4a95-a325-6524ce14877a","ios":"levelo://app?vid=4893e6c4-22a9-4a95-a325-6524ce14877a"},"vehicle_type_id":"4","last_reported":1745082486,"current_range_meters":2800,"station_id":"ce4bgph2rcd13ifvqc2g","pricing_plan_id":"cebpf4jnsgd1na2vs0mg"},{"bike_id":"603ba6a1-0402-4a34-9ebe-0851f2c5e433","system_id":"levelo_inurba_marseille","lat":43.26934,"lon":5.38923,"is_reserved":false,"is_disabled":false,"rental_uris":{"android":"levelo://app?vid=603ba6a1-0402-4a34-9ebe-0851f2c5e433","ios":"levelo://app?vid=603ba6a1-0402-4a34-9ebe-0851f2c5e433"},"vehicle_type_id":"4","last_reported":1745082486,"current_range_meters":2000,"station_id":"ce4bhhh2rcd13ifvqfl0","pricing_plan_id":"cebpf4jnsgd1na2vs0mg"},{"bike_id":"71cc9a5c-bdef-42ca-8ce4-5e77fe2c683a","system_id":"levelo_inurba_marseille","lat":43.29582,"lon":5.422755,"is_reserved":false,"is_disabled":false,"rental_uris":{"android":"levelo://app?vid=71cc9a5c-bdef-42ca-8ce4-5e77fe2c683a","ios":"levelo://app?vid=71cc9a5c-bdef-42ca-8ce4-5e77fe2c683a"},"vehicle_type_id":"4","last_reported":1745082486,"current_range_meters":2800,"station_id":"ce4bhph2rcd13ifvqhdg","pricing_plan_id":"cebpf4jnsgd1na2vs0mg"},{"bike_id":"35f0a6e1-f9a9-47ee-bab6-2641cdd8ae57","system_id":"levelo_inurba_marseille","lat":43.27316,"lon":5.39094,"is_reserved":false,"is_disabled":false,"rental_uris":{"android":"levelo://app?vid=35f0a6e1-f9a9-47ee-bab6-2641cdd8ae57","ios":"levelo://app?vid=35f0a6e1-f9a9-47ee-bab6-2641cdd8ae57"},"vehicle_type_id":"4","last_reported":1745082486,"current_range_meters":3200,"station_id":"ce4bhgp2rcd13ifvqfe0","pricing_plan_id":"cebpf4jnsgd1na2vs0mg"},{"bike_id":"2129186a-764c-4538-80c0-02ed75ece084","system_id":"levelo_inurba_marseille","lat":43.29275,"lon":5.37172,"is_reserved":false,"is_disabled":false,"rental_uris":{"android":"levelo://app?vid=2129186a-764c-4538-80c0-02ed75ece084","ios":"levelo://app?vid=2129186a-764c-4538-80c0-02ed75ece084"},"vehicle_type_id":"4","last_reported":1745082486,"current_range_meters":3200,"station_id":"ce4bgh92rcd13ifvqb40","pricing_plan_id":"cebpf4jnsgd1na2vs0mg"},{"bike_id":"06fef8ce-477f-4e1d-b1df-0e0c20963139","system_id":"levelo_inurba_marseille","lat":43.29615,"lon":5.37712,"is_reserved":false,"is_disabled":false,"rental_uris":{"android":"levelo://app?vid=06fef8ce-477f-4e1d-b1df-0e0c20963139","ios":"levelo://app?vid=06fef8ce-477f-4e1d-b1df-0e0c20963139"},"vehicle_type_id":"4","last_reported":1745082486,"current_range_meters":3200,"station_id":"ce4bgi92rcd13ifvqb90","pricing_plan_id":"cebpf4jnsgd1na2vs0mg"},{"bike_id":"b0e7cb3c-f1df-4862-818a-3641546df0c4","system_id":"levelo_inurba_marseille","lat":43.279449,"lon":5.410513,"is_reserved":false,"is_disabled":false,"rental_uris":{"android":"levelo://app?vid=b0e7cb3c-f1df-4862-818a-3641546df0c4","ios":"levelo://app?vid=b0e7cb3c-f1df-4862-818a-3641546df0c4"},"vehicle_type_id":"4","last_reported":1745082486,"current_range_meters":3200,"station_id":"ce4bhk92rcd13ifvqgb0","pricing_plan_id":"cebpf4jnsgd1na2vs0mg"},{"bike_id":"b9f455ab-fc9f-4d4d-b14c-3871018155a9","system_id":"levelo_inurba_marseille","lat":43.292322,"lon":5.360713,"is_reserved":false,"is_disabled":false,"rental_uris":{"android":"levelo://app?vid=b9f455ab-fc9f-4d4d-b14c-3871018155a9","ios":"levelo://app?vid=b9f455ab-fc9f-4d4d-b14c-3871018155a9"},"vehicle_type_id":"4","last_reported":1745082486,"current_range_meters":2800,"station_id":"ce4bhbh2rcd13ifvqeqg","pricing_plan_id":"cebpf4jnsgd1na2vs0mg"},{"bike_id":"754cd7df-a070-4051-b091-125af7d9c95e","system_id":"levelo_inurba_marseille","lat":43.29267,"lon":5.36847,"is_reserved":false,"is_disabled":false,"rental_uris":{"android":"levelo://app?vid=754cd7df-a070-4051-b091-125af7d9c95e","ios":"levelo://app?vid=754cd7df-a070-4051-b091-125af7d9c95e"},"vehicle_type_id":"4","last_reported":1745082486,"current_range_meters":3200,"station_id":"ce4bhbp2rcd13ifvqesg","pricing_plan_id":"cebpf4jnsgd1na2vs0mg"},{"bike_id":"8e74e31d-13e7-482b-8bee-d721cfc11317","system_id":"levelo_inurba_marseille","lat":43.30307,"lon":5.39205,"is_reserved":false,"is_disabled":false,"rental_uris":{"android":"levelo://app?vid=8e74e31d-13e7-482b-8bee-d721cfc11317","ios":"levelo://app?vid=8e74e31d-13e7-482b-8bee-d721cfc11317"},"vehicle_type_id":"4","last_reported":1745082486,"current_range_meters":3200,"station_id":"ce4bgkh2rcd13ifvqbk0","pricing_plan_id":"cebpf4jnsgd1na2vs0mg"},{"bike_id":"208920d7-d30c-4be6-bfa6-6752ffdd25c0","system_id":"levelo_inurba_marseille","lat":43.297882,"lon":5.371092,"is_reserved":false,"is_disabled":false,"rental_uris":{"android":"levelo://app?vid=208920d7-d30c-4be6-bfa6-6752ffdd25c0","ios":"levelo://app?vid=208920d7-d30c-4be6-bfa6-6752ffdd25c0"},"vehicle_type_id":"4","last_reported":1745082486,"current_range_meters":3200,"station_id":"ce4bgop2rcd13ifvqc1g","pricing_plan_id":"cebpf4jnsgd1na2vs0mg"},{"bike_id":"84cb47bd-2a38-420c-b4af-8627d3be764f","system_id":"levelo_inurba_marseille","lat":43.28702,"lon":5.37392,"is_reserved":false,"is_disabled":false,"rental_uris":{"android":"levelo://app?vid=84cb47bd-2a38-420c-b4af-8627d3be764f","ios":"levelo://app?vid=84cb47bd-2a38-420c-b4af-8627d3be764f"},"vehicle_type_id":"4","last_reported":1745082486,"current_range_meters":3200,"station_id":"ce4bh3p2rcd13ifvqdq0","pricing_plan_id":"cebpf4jnsgd1na2vs0mg"},{"bike_id":"67b074ea-4173-49ae-a14a-2aad88199024","system_id":"levelo_inurba_marseille","lat":43.305942,"lon":5.393613,"is_reserved":false,"is_disabled":false,"rental_uris":{"android":"levelo://app?vid=67b074ea-4173-49ae-a14a-2aad88199024","ios":"levelo://app?vid=67b074ea-4173-49ae-a14a-2aad88199024"},"vehicle_type_id":"4","last_reported":1745082486,"current_range_meters":4000,"station_id":"ce4bh2h2rcd13ifvqdh0","pricing_plan_id":"cebpf4jnsgd1na2vs0mg"},{"bike_id":"9f7b4d9f-d60d-4e90-adef-da55fb205698","system_id":"levelo_inurba_marseille","lat":43.27994,"lon":5.40009,"is_reserved":false,"is_disabled":false,"rental_uris":{"android":"levelo://app?vid=9f7b4d9f-d60d-4e90-adef-da55fb205698","ios":"levelo://app?vid=9f7b4d9f-d60d-4e90-adef-da55fb205698"},"vehicle_type_id":"4","last_reported":1745082486,"current_range_meters":3600,"station_id":"ce4bho92rcd13ifvqh4g","pricing_plan_id":"cebpf4jnsgd1na2vs0mg"},{"bike_id":"3836cf77-6e77-45a4-affb-f3f136465ed5","system_id":"levelo_inurba_marseille","lat":43.28954,"lon":5.36655,"is_reserved":false,"is_disabled":false,"rental_uris":{"android":"levelo://app?vid=3836cf77-6e77-45a4-affb-f3f136465ed5","ios":"levelo://app?vid=3836cf77-6e77-45a4-affb-f3f136465ed5"},"vehicle_type_id":"4","last_reported":1745082486,"current_range_meters":3200,"station_id":"ce4bhap2rcd13ifvqek0","pricing_plan_id":"cebpf4jnsgd1na2vs0mg"},{"bike_id":"39783330-5b8c-4efa-a51f-b0c977415a28","system_id":"levelo_inurba_marseille","lat":43.29307,"lon":5.37459,"is_reserved":false,"is_disabled":true,"rental_uris":{"android":"levelo://app?vid=39783330-5b8c-4efa-a51f-b0c977415a28","ios":"levelo://app?vid=39783330-5b8c-4efa-a51f-b0c977415a28"},"vehicle_type_id":"4","last_reported":1745082486,"current_range_meters":3600,"station_id":"ce4bgi12rcd13ifvqb70","pricing_plan_id":"cebpf4jnsgd1na2vs0mg"},{"bike_id":"ca12a2b4-87e9-4491-854e-18b728d81a89","system_id":"levelo_inurba_marseille","lat":43.29621,"lon":5.3716,"is_reserved":false,"is_disabled":false,"rental_uris":{"android":"levelo://app?vid=ca12a2b4-87e9-4491-854e-18b728d81a89","ios":"levelo://app?vid=ca12a2b4-87e9-4491-854e-18b728d81a89"},"vehicle_type_id":"4","last_reported":1745082486,"current_range_meters":3600,"station_id":"ce4bgnh2rcd13ifvqc0g","pricing_plan_id":"cebpf4jnsgd1na2vs0mg"},{"bike_id":"2f222afe-b793-4933-8983-40ad1126f8ed","system_id":"levelo_inurba_marseille","lat":43.30198,"lon":5.36637,"is_reserved":false,"is_disabled":false,"rental_uris":{"android":"levelo://app?vid=2f222afe-b793-4933-8983-40ad1126f8ed","ios":"levelo://app?vid=2f222afe-b793-4933-8983-40ad1126f8ed"},"vehicle_type_id":"4","last_reported":1745082486,"current_range_meters":3600,"station_id":"ce4bgrh2rcd13ifvqc8g","pricing_plan_id":"cebpf4jnsgd1na2vs0mg"},{"bike_id":"86a4284e-c7c0-42e9-a343-01856fc0fbf3","system_id":"levelo_inurba_marseille","lat":43.2919,"lon":5.35794,"is_reserved":false,"is_disabled":false,"rental_uris":{"android":"levelo://app?vid=86a4284e-c7c0-42e9-a343-01856fc0fbf3","ios":"levelo://app?vid=86a4284e-c7c0-42e9-a343-01856fc0fbf3"},"vehicle_type_id":"4","last_reported":1745082486,"current_range_meters":4000,"station_id":"ce4bhb12rcd13ifvqel0","pricing_plan_id":"cebpf4jnsgd1na2vs0mg"},{"bike_id":"31bc597c-c8c5-4de0-b892-c1ad38bac149","system_id":"levelo_inurba_marseille","lat":43.28663,"lon":5.38676,"is_reserved":false,"is_disabled":false,"rental_uris":{"android":"levelo://app?vid=31bc597c-c8c5-4de0-b892-c1ad38bac149","ios":"levelo://app?vid=31bc597c-c8c5-4de0-b892-c1ad38bac149"},"vehicle_type_id":"4","last_reported":1745082486,"current_range_meters":4000,"station_id":"ce4bh492rcd13ifvqdug","pricing_plan_id":"cebpf4jnsgd1na2vs0mg"},{"bike_id":"ccf3091c-e5a9-4caa-b08e-a04a3d1f5222","system_id":"levelo_inurba_marseille","lat":43.27564,"lon":5.38427,"is_reserved":false,"is_disabled":false,"rental_uris":{"android":"levelo://app?vid=ccf3091c-e5a9-4caa-b08e-a04a3d1f5222","ios":"levelo://app?vid=ccf3091c-e5a9-4caa-b08e-a04a3d1f5222"},"vehicle_type_id":"4","last_reported":1745082486,"current_range_meters":4000,"station_id":"ce4bhh92rcd13ifvqfi0","pricing_plan_id":"cebpf4jnsgd1na2vs0mg"},{"bike_id":"97f18444-000b-4a53-8704-9b4e5af9c747","system_id":"levelo_inurba_marseille","lat":43.27306,"lon":5.39077,"is_reserved":false,"is_disabled":false,"rental_uris":{"android":"levelo://app?vid=97f18444-000b-4a53-8704-9b4e5af9c747","ios":"levelo://app?vid=97f18444-000b-4a53-8704-9b4e5af9c747"},"vehicle_type_id":"4","last_reported":1745082486,"current_range_meters":4000,"station_id":"ce4bhgp2rcd13ifvqfe0","pricing_plan_id":"cebpf4jnsgd1na2vs0mg"},{"bike_id":"9d23dfd0-1ba2-499f-b646-d8d4c16eb1e0","system_id":"levelo_inurba_marseille","lat":43.29601,"lon":5.38103,"is_reserved":false,"is_disabled":false,"rental_uris":{"android":"levelo://app?vid=9d23dfd0-1ba2-499f-b646-d8d4c16eb1e0","ios":"levelo://app?vid=9d23dfd0-1ba2-499f-b646-d8d4c16eb1e0"},"vehicle_type_id":"4","last_reported":1745082486,"current_range_meters":4000,"station_id":"ce4bgl12rcd13ifvqbo0","pricing_plan_id":"cebpf4jnsgd1na2vs0mg"},{"bike_id":"4c7585ce-a8ab-48f5-88b4-5615c4618bdb","system_id":"levelo_inurba_marseille","lat":43.24388,"lon":5.37054,"is_reserved":false,"is_disabled":false,"rental_uris":{"android":"levelo://app?vid=4c7585ce-a8ab-48f5-88b4-5615c4618bdb","ios":"levelo://app?vid=4c7585ce-a8ab-48f5-88b4-5615c4618bdb"},"vehicle_type_id":"4","last_reported":1745082486,"current_range_meters":4000,"station_id":"ce4bhhh2rcd13ifvqfk0","pricing_plan_id":"cebpf4jnsgd1na2vs0mg"},{"bike_id":"473db490-9fd2-4026-a0fd-81b8e78eeae0","system_id":"levelo_inurba_marseille","lat":43.28355,"lon":5.38101,"is_reserved":false,"is_disabled":false,"rental_uris":{"android":"levelo://app?vid=473db490-9fd2-4026-a0fd-81b8e78eeae0","ios":"levelo://app?vid=473db490-9fd2-4026-a0fd-81b8e78eeae0"},"vehicle_type_id":"4","last_reported":1745082486,"current_range_meters":4000,"station_id":"ce4bh412rcd13ifvqdr0","pricing_plan_id":"cebpf4jnsgd1na2vs0mg"},{"bike_id":"8ff3876f-4e58-4cb7-b3a3-e264a04fd0b6","system_id":"levelo_inurba_marseille","lat":43.26696,"lon":5.3826,"is_reserved":false,"is_disabled":true,"rental_uris":{"android":"levelo://app?vid=8ff3876f-4e58-4cb7-b3a3-e264a04fd0b6","ios":"levelo://app?vid=8ff3876f-4e58-4cb7-b3a3-e264a04fd0b6"},"vehicle_type_id":"4","last_reported":1745082486,"current_range_meters":4400,"station_id":"ce4bhg92rcd13ifvqf90","pricing_plan_id":"cebpf4jnsgd1na2vs0mg"},{"bike_id":"657f27db-624c-4442-99bb-6d5f2015485a","system_id":"levelo_inurba_marseille","lat":43.282643,"lon":5.350571,"is_reserved":false,"is_disabled":false,"rental_uris":{"android":"levelo://app?vid=657f27db-624c-4442-99bb-6d5f2015485a","ios":"levelo://app?vid=657f27db-624c-4442-99bb-6d5f2015485a"},"vehicle_type_id":"4","last_reported":1745082486,"current_range_meters":4400,"station_id":"ce4bhbp2rcd13ifvqerg","pricing_plan_id":"cebpf4jnsgd1na2vs0mg"},{"bike_id":"2d2ce68e-f71a-4dfe-ad8d-aa75c9589e29","system_id":"levelo_inurba_marseille","lat":43.30587,"lon":5.39356,"is_reserved":false,"is_disabled":false,"rental_uris":{"android":"levelo://app?vid=2d2ce68e-f71a-4dfe-ad8d-aa75c9589e29","ios":"levelo://app?vid=2d2ce68e-f71a-4dfe-ad8d-aa75c9589e29"},"vehicle_type_id":"4","last_reported":1745082486,"current_range_meters":4400,"station_id":"ce4bh0p2rcd13ifvqd80","pricing_plan_id":"cebpf4jnsgd1na2vs0mg"},{"bike_id":"d7b4cc4f-d02a-4fa2-8f41-3b1cdb52f469","system_id":"levelo_inurba_marseille","lat":43.28375,"lon":5.38631,"is_reserved":false,"is_disabled":false,"rental_uris":{"android":"levelo://app?vid=d7b4cc4f-d02a-4fa2-8f41-3b1cdb52f469","ios":"levelo://app?vid=d7b4cc4f-d02a-4fa2-8f41-3b1cdb52f469"},"vehicle_type_id":"4","last_reported":1745082486,"current_range_meters":2000,"station_id":"ce4bh492rcd13ifvqdvg","pricing_plan_id":"cebpf4jnsgd1na2vs0mg"},{"bike_id":"5f1c1fe8-82cc-4dcf-a09d-aba89fb26283","system_id":"levelo_inurba_marseille","lat":43.27315,"lon":5.39078,"is_reserved":false,"is_disabled":false,"rental_uris":{"android":"levelo://app?vid=5f1c1fe8-82cc-4dcf-a09d-aba89fb26283","ios":"levelo://app?vid=5f1c1fe8-82cc-4dcf-a09d-aba89fb26283"},"vehicle_type_id":"4","last_reported":1745082486,"current_range_meters":4400,"station_id":"ce4bhgp2rcd13ifvqfe0","pricing_plan_id":"cebpf4jnsgd1na2vs0mg"},{"bike_id":"6987c513-b50c-45b1-80e3-356055d982d5","system_id":"levelo_inurba_marseille","lat":43.299647,"lon":5.377604,"is_reserved":false,"is_disabled":true,"rental_uris":{"android":"levelo://app?vid=6987c513-b50c-45b1-80e3-356055d982d5","ios":"levelo://app?vid=6987c513-b50c-45b1-80e3-356055d982d5"},"vehicle_type_id":"4","last_reported":1745082486,"current_range_meters":4800,"station_id":"","pricing_plan_id":"cebpf4jnsgd1na2vs0mg"},{"bike_id":"16c2698f-dfbb-44b5-a2d6-7ef62a047cb7","system_id":"levelo_inurba_marseille","lat":43.27371,"lon":5.36257,"is_reserved":false,"is_disabled":false,"rental_uris":{"android":"levelo://app?vid=16c2698f-dfbb-44b5-a2d6-7ef62a047cb7","ios":"levelo://app?vid=16c2698f-dfbb-44b5-a2d6-7ef62a047cb7"},"vehicle_type_id":"4","last_reported":1745082486,"current_range_meters":2000,"station_id":"ce4bhbh2rcd13ifvqeo0","pricing_plan_id":"cebpf4jnsgd1na2vs0mg"},{"bike_id":"4addd690-439d-4f7a-9efa-6f2489334330","system_id":"levelo_inurba_marseille","lat":43.29689,"lon":5.36598,"is_reserved":false,"is_disabled":false,"rental_uris":{"android":"levelo://app?vid=4addd690-439d-4f7a-9efa-6f2489334330","ios":"levelo://app?vid=4addd690-439d-4f7a-9efa-6f2489334330"},"vehicle_type_id":"4","last_reported":1745082486,"current_range_meters":4800,"station_id":"ce4bgn12rcd13ifvqbt0","pricing_plan_id":"cebpf4jnsgd1na2vs0mg"},{"bike_id":"9c65ac09-2d1b-4e35-8c7e-3e8d5c47e416","system_id":"levelo_inurba_marseille","lat":43.26217,"lon":5.37921,"is_reserved":false,"is_disabled":false,"rental_uris":{"android":"levelo://app?vid=9c65ac09-2d1b-4e35-8c7e-3e8d5c47e416","ios":"levelo://app?vid=9c65ac09-2d1b-4e35-8c7e-3e8d5c47e416"},"vehicle_type_id":"4","last_reported":1745082486,"current_range_meters":4800,"station_id":"ce4bhjp2rcd13ifvqg90","pricing_plan_id":"cebpf4jnsgd1na2vs0mg"},{"bike_id":"96bb94e9-8682-42bd-bdca-a06e6c27a0ac","system_id":"levelo_inurba_marseille","lat":43.29556,"lon":5.42297,"is_reserved":false,"is_disabled":false,"rental_uris":{"android":"levelo://app?vid=96bb94e9-8682-42bd-bdca-a06e6c27a0ac","ios":"levelo://app?vid=96bb94e9-8682-42bd-bdca-a06e6c27a0ac"},"vehicle_type_id":"4","last_reported":1745082486,"current_range_meters":4400,"station_id":"ce4bhph2rcd13ifvqhdg","pricing_plan_id":"cebpf4jnsgd1na2vs0mg"},{"bike_id":"a968bc14-c848-422a-b8e8-61f50cb7032f","system_id":"levelo_inurba_marseille","lat":43.30804,"lon":5.4349,"is_reserved":false,"is_disabled":false,"rental_uris":{"android":"levelo://app?vid=a968bc14-c848-422a-b8e8-61f50cb7032f","ios":"levelo://app?vid=a968bc14-c848-422a-b8e8-61f50cb7032f"},"vehicle_type_id":"4","last_reported":1745082486,"current_range_meters":4800,"station_id":"ce4bhph2rcd13ifvqheg","pricing_plan_id":"cebpf4jnsgd1na2vs0mg"},{"bike_id":"be7ce320-88aa-44df-a9ec-f66e47c31c71","system_id":"levelo_inurba_marseille","lat":43.298515,"lon":5.371537,"is_reserved":false,"is_disabled":false,"rental_uris":{"android":"levelo://app?vid=be7ce320-88aa-44df-a9ec-f66e47c31c71","ios":"levelo://app?vid=be7ce320-88aa-44df-a9ec-f66e47c31c71"},"vehicle_type_id":"4","last_reported":1745082486,"current_range_meters":4800,"station_id":"ce4bgn92rcd13ifvqbvg","pricing_plan_id":"cebpf4jnsgd1na2vs0mg"},{"bike_id":"53f720ee-738a-4b95-9a72-5e8dcd541282","system_id":"levelo_inurba_marseille","lat":43.30146,"lon":5.39915,"is_reserved":false,"is_disabled":false,"rental_uris":{"android":"levelo://app?vid=53f720ee-738a-4b95-9a72-5e8dcd541282","ios":"levelo://app?vid=53f720ee-738a-4b95-9a72-5e8dcd541282"},"vehicle_type_id":"4","last_reported":1745082486,"current_range_meters":4800,"station_id":"","pricing_plan_id":"cebpf4jnsgd1na2vs0mg"},{"bike_id":"0e59e82e-de05-4ce3-9935-8c82a29c3b93","system_id":"levelo_inurba_marseille","lat":43.28448,"lon":5.39211,"is_reserved":false,"is_disabled":false,"rental_uris":{"android":"levelo://app?vid=0e59e82e-de05-4ce3-9935-8c82a29c3b93","ios":"levelo://app?vid=0e59e82e-de05-4ce3-9935-8c82a29c3b93"},"vehicle_type_id":"4","last_reported":1745082486,"current_range_meters":4800,"station_id":"ce4bhoh2rcd13ifvqh5g","pricing_plan_id":"cebpf4jnsgd1na2vs0mg"},{"bike_id":"a4ee9808-c56f-429a-bd9e-2837e81985cb","system_id":"levelo_inurba_marseille","lat":43.27982,"lon":5.41659,"is_reserved":false,"is_disabled":true,"rental_uris":{"android":"levelo://app?vid=a4ee9808-c56f-429a-bd9e-2837e81985cb","ios":"levelo://app?vid=a4ee9808-c56f-429a-bd9e-2837e81985cb"},"vehicle_type_id":"4","last_reported":1745082486,"current_range_meters":5600,"station_id":"ce4bho12rcd13ifvqh1g","pricing_plan_id":"cebpf4jnsgd1na2vs0mg"},{"bike_id":"29cfae59-b16b-41ff-9b77-563b57761993","system_id":"levelo_inurba_marseille","lat":43.26677,"lon":5.3827,"is_reserved":false,"is_disabled":false,"rental_uris":{"android":"levelo://app?vid=29cfae59-b16b-41ff-9b77-563b57761993","ios":"levelo://app?vid=29cfae59-b16b-41ff-9b77-563b57761993"},"vehicle_type_id":"4","last_reported":1745082486,"current_range_meters":5600,"station_id":"ce4bhg92rcd13ifvqf90","pricing_plan_id":"cebpf4jnsgd1na2vs0mg"},{"bike_id":"0a2aade4-42d2-4d48-b9a9-de84860db66a","system_id":"levelo_inurba_marseille","lat":43.29006,"lon":5.35615,"is_reserved":false,"is_disabled":false,"rental_uris":{"android":"levelo://app?vid=0a2aade4-42d2-4d48-b9a9-de84860db66a","ios":"levelo://app?vid=0a2aade4-42d2-4d48-b9a9-de84860db66a"},"vehicle_type_id":"4","last_reported":1745082486,"current_range_meters":5600,"station_id":"ce4bhb92rcd13ifvqen0","pricing_plan_id":"cebpf4jnsgd1na2vs0mg"},{"bike_id":"b0af5943-f94d-411e-939b-4dc90206d002","system_id":"levelo_inurba_marseille","lat":43.26933,"lon":5.38912,"is_reserved":false,"is_disabled":false,"rental_uris":{"android":"levelo://app?vid=b0af5943-f94d-411e-939b-4dc90206d002","ios":"levelo://app?vid=b0af5943-f94d-411e-939b-4dc90206d002"},"vehicle_type_id":"4","last_reported":1745082486,"current_range_meters":5600,"station_id":"ce4bhhh2rcd13ifvqfl0","pricing_plan_id":"cebpf4jnsgd1na2vs0mg"},{"bike_id":"e02e2a24-a8bc-4c14-be77-a5c144bce9de","system_id":"levelo_inurba_marseille","lat":43.29017,"lon":5.35622,"is_reserved":false,"is_disabled":false,"rental_uris":{"android":"levelo://app?vid=e02e2a24-a8bc-4c14-be77-a5c144bce9de","ios":"levelo://app?vid=e02e2a24-a8bc-4c14-be77-a5c144bce9de"},"vehicle_type_id":"4","last_reported":1745082486,"current_range_meters":5600,"station_id":"ce4bhb92rcd13ifvqen0","pricing_plan_id":"cebpf4jnsgd1na2vs0mg"},{"bike_id":"499aa859-c5fb-432e-ac08-704c7e839fa9","system_id":"levelo_inurba_marseille","lat":43.2572,"lon":5.41116,"is_reserved":false,"is_disabled":false,"rental_uris":{"android":"levelo://app?vid=499aa859-c5fb-432e-ac08-704c7e839fa9","ios":"levelo://app?vid=499aa859-c5fb-432e-ac08-704c7e839fa9"},"vehicle_type_id":"4","last_reported":1745082486,"current_range_meters":5600,"station_id":"ce4bhkp2rcd13ifvqgd0","pricing_plan_id":"cebpf4jnsgd1na2vs0mg"},{"bike_id":"5e050082-7596-40a7-93dc-676d550708f3","system_id":"levelo_inurba_marseille","lat":43.28414,"lon":5.37503,"is_reserved":false,"is_disabled":false,"rental_uris":{"android":"levelo://app?vid=5e050082-7596-40a7-93dc-676d550708f3","ios":"levelo://app?vid=5e050082-7596-40a7-93dc-676d550708f3"},"vehicle_type_id":"4","last_reported":1745082486,"current_range_meters":6400,"station_id":"ce4bh412rcd13ifvqds0","pricing_plan_id":"cebpf4jnsgd1na2vs0mg"},{"bike_id":"fa8bf4af-d3ea-48b8-9137-5da41bcf45a0","system_id":"levelo_inurba_marseille","lat":43.309525,"lon":5.390314,"is_reserved":false,"is_disabled":false,"rental_uris":{"android":"levelo://app?vid=fa8bf4af-d3ea-48b8-9137-5da41bcf45a0","ios":"levelo://app?vid=fa8bf4af-d3ea-48b8-9137-5da41bcf45a0"},"vehicle_type_id":"4","last_reported":1745082486,"current_range_meters":6000,"station_id":"ce4bgup2rcd13ifvqco0","pricing_plan_id":"cebpf4jnsgd1na2vs0mg"},{"bike_id":"1210dc72-37b8-49f7-b249-6faa54daba28","system_id":"levelo_inurba_marseille","lat":43.323595,"lon":5.367582,"is_reserved":false,"is_disabled":false,"rental_uris":{"android":"levelo://app?vid=1210dc72-37b8-49f7-b249-6faa54daba28","ios":"levelo://app?vid=1210dc72-37b8-49f7-b249-6faa54daba28"},"vehicle_type_id":"4","last_reported":1745082486,"current_range_meters":6000,"station_id":"ce4bhsh2rcd13ifvqi2g","pricing_plan_id":"cebpf4jnsgd1na2vs0mg"},{"bike_id":"bad151c2-17f8-429b-b15e-e219aa1da86d","system_id":"levelo_inurba_marseille","lat":43.27215,"lon":5.39186,"is_reserved":false,"is_disabled":false,"rental_uris":{"android":"levelo://app?vid=bad151c2-17f8-429b-b15e-e219aa1da86d","ios":"levelo://app?vid=bad151c2-17f8-429b-b15e-e219aa1da86d"},"vehicle_type_id":"4","last_reported":1745082486,"current_range_meters":6000,"station_id":"ce4bhhp2rcd13ifvqfm0","pricing_plan_id":"cebpf4jnsgd1na2vs0mg"},{"bike_id":"33544a48-0ca4-46e4-ab48-0c98eb662b45","system_id":"levelo_inurba_marseille","lat":43.263736,"lon":5.373774,"is_reserved":false,"is_disabled":false,"rental_uris":{"android":"levelo://app?vid=33544a48-0ca4-46e4-ab48-0c98eb662b45","ios":"levelo://app?vid=33544a48-0ca4-46e4-ab48-0c98eb662b45"},"vehicle_type_id":"4","last_reported":1745082486,"current_range_meters":6000,"station_id":"ce4bgk12rcd13ifvqbj0","pricing_plan_id":"cebpf4jnsgd1na2vs0mg"},{"bike_id":"38e1d4a8-b95d-48d8-8278-6a486da70761","system_id":"levelo_inurba_marseille","lat":43.23192,"lon":5.35562,"is_reserved":false,"is_disabled":false,"rental_uris":{"android":"levelo://app?vid=38e1d4a8-b95d-48d8-8278-6a486da70761","ios":"levelo://app?vid=38e1d4a8-b95d-48d8-8278-6a486da70761"},"vehicle_type_id":"4","last_reported":1745082486,"current_range_meters":6000,"station_id":"ce4bhu92rcd13ifvqi70","pricing_plan_id":"cebpf4jnsgd1na2vs0mg"},{"bike_id":"7f80811d-5e00-4167-808a-28d8742addcc","system_id":"levelo_inurba_marseille","lat":43.30547,"lon":5.38435,"is_reserved":false,"is_disabled":false,"rental_uris":{"android":"levelo://app?vid=7f80811d-5e00-4167-808a-28d8742addcc","ios":"levelo://app?vid=7f80811d-5e00-4167-808a-28d8742addcc"},"vehicle_type_id":"4","last_reported":1745082486,"current_range_meters":6000,"station_id":"ce4bgg92rcd13ifvqb30","pricing_plan_id":"cebpf4jnsgd1na2vs0mg"},{"bike_id":"bbcbf55a-5484-40db-a874-f81e0300c4d9","system_id":"levelo_inurba_marseille","lat":43.25938,"lon":5.40889,"is_reserved":false,"is_disabled":false,"rental_uris":{"android":"levelo://app?vid=bbcbf55a-5484-40db-a874-f81e0300c4d9","ios":"levelo://app?vid=bbcbf55a-5484-40db-a874-f81e0300c4d9"},"vehicle_type_id":"4","last_reported":1745082486,"current_range_meters":6400,"station_id":"ce4bhm92rcd13ifvqglg","pricing_plan_id":"cebpf4jnsgd1na2vs0mg"},{"bike_id":"8ac83911-5e80-44cc-bfbb-02e6e01ba924","system_id":"levelo_inurba_marseille","lat":43.30951,"lon":5.39031,"is_reserved":false,"is_disabled":false,"rental_uris":{"android":"levelo://app?vid=8ac83911-5e80-44cc-bfbb-02e6e01ba924","ios":"levelo://app?vid=8ac83911-5e80-44cc-bfbb-02e6e01ba924"},"vehicle_type_id":"4","last_reported":1745082486,"current_range_meters":6400,"station_id":"ce4bgup2rcd13ifvqco0","pricing_plan_id":"cebpf4jnsgd1na2vs0mg"},{"bike_id":"899ecc40-163c-4083-9c2d-d05c72401cb1","system_id":"levelo_inurba_marseille","lat":43.285115,"lon":5.388718,"is_reserved":false,"is_disabled":false,"rental_uris":{"android":"levelo://app?vid=899ecc40-163c-4083-9c2d-d05c72401cb1","ios":"levelo://app?vid=899ecc40-163c-4083-9c2d-d05c72401cb1"},"vehicle_type_id":"4","last_reported":1745082486,"current_range_meters":6400,"station_id":"ce4bhoh2rcd13ifvqh5g","pricing_plan_id":"cebpf4jnsgd1na2vs0mg"},{"bike_id":"ee2c42d9-062e-486d-94e5-a8bebc2f1c3b","system_id":"levelo_inurba_marseille","lat":43.252,"lon":5.37588,"is_reserved":false,"is_disabled":true,"rental_uris":{"android":"levelo://app?vid=ee2c42d9-062e-486d-94e5-a8bebc2f1c3b","ios":"levelo://app?vid=ee2c42d9-062e-486d-94e5-a8bebc2f1c3b"},"vehicle_type_id":"4","last_reported":1745082486,"current_range_meters":6400,"station_id":"","pricing_plan_id":"cebpf4jnsgd1na2vs0mg"},{"bike_id":"709c5515-4e73-41f4-a094-b1cb2d9405da","system_id":"levelo_inurba_marseille","lat":43.241678,"lon":5.363968,"is_reserved":false,"is_disabled":false,"rental_uris":{"android":"levelo://app?vid=709c5515-4e73-41f4-a094-b1cb2d9405da","ios":"levelo://app?vid=709c5515-4e73-41f4-a094-b1cb2d9405da"},"vehicle_type_id":"4","last_reported":1745082486,"current_range_meters":6400,"station_id":"cpo36qri1sfpv3e86is0","pricing_plan_id":"cebpf4jnsgd1na2vs0mg"},{"bike_id":"38d71541-39fa-44bc-b9fa-dad7cbdc7434","system_id":"levelo_inurba_marseille","lat":43.28757,"lon":5.3866,"is_reserved":false,"is_disabled":false,"rental_uris":{"android":"levelo://app?vid=38d71541-39fa-44bc-b9fa-dad7cbdc7434","ios":"levelo://app?vid=38d71541-39fa-44bc-b9fa-dad7cbdc7434"},"vehicle_type_id":"4","last_reported":1745082486,"current_range_meters":6400,"station_id":"","pricing_plan_id":"cebpf4jnsgd1na2vs0mg"},{"bike_id":"ab9da56e-72dd-4ce8-89c1-66ee7b6fc0e1","system_id":"levelo_inurba_marseille","lat":43.27914,"lon":5.39598,"is_reserved":false,"is_disabled":false,"rental_uris":{"android":"levelo://app?vid=ab9da56e-72dd-4ce8-89c1-66ee7b6fc0e1","ios":"levelo://app?vid=ab9da56e-72dd-4ce8-89c1-66ee7b6fc0e1"},"vehicle_type_id":"4","last_reported":1745082486,"current_range_meters":6400,"station_id":"ce4bhf92rcd13ifvqf40","pricing_plan_id":"cebpf4jnsgd1na2vs0mg"},{"bike_id":"df982341-d3f1-47bb-bcdf-1054fc116c62","system_id":"levelo_inurba_marseille","lat":43.2978,"lon":5.38114,"is_reserved":false,"is_disabled":true,"rental_uris":{"android":"levelo://app?vid=df982341-d3f1-47bb-bcdf-1054fc116c62","ios":"levelo://app?vid=df982341-d3f1-47bb-bcdf-1054fc116c62"},"vehicle_type_id":"4","last_reported":1745082486,"current_range_meters":6800,"station_id":"ce4bgip2rcd13ifvqbb0","pricing_plan_id":"cebpf4jnsgd1na2vs0mg"},{"bike_id":"8ff9f10e-8733-4a3a-8b8c-71b67317cfa0","system_id":"levelo_inurba_marseille","lat":43.24162,"lon":5.36398,"is_reserved":false,"is_disabled":false,"rental_uris":{"android":"levelo://app?vid=8ff9f10e-8733-4a3a-8b8c-71b67317cfa0","ios":"levelo://app?vid=8ff9f10e-8733-4a3a-8b8c-71b67317cfa0"},"vehicle_type_id":"4","last_reported":1745082486,"current_range_meters":6800,"station_id":"cpo36qri1sfpv3e86is0","pricing_plan_id":"cebpf4jnsgd1na2vs0mg"},{"bike_id":"2d31a6a8-ff35-41dc-b4a7-a934151b8888","system_id":"levelo_inurba_marseille","lat":43.29528,"lon":5.38552,"is_reserved":false,"is_disabled":false,"rental_uris":{"android":"levelo://app?vid=2d31a6a8-ff35-41dc-b4a7-a934151b8888","ios":"levelo://app?vid=2d31a6a8-ff35-41dc-b4a7-a934151b8888"},"vehicle_type_id":"4","last_reported":1745082486,"current_range_meters":6400,"station_id":"ce4bgih2rcd13ifvqba0","pricing_plan_id":"cebpf4jnsgd1na2vs0mg"},{"bike_id":"03e574a2-b92f-42df-8d73-6f221e87f413","system_id":"levelo_inurba_marseille","lat":43.288025,"lon":5.379569,"is_reserved":false,"is_disabled":false,"rental_uris":{"android":"levelo://app?vid=03e574a2-b92f-42df-8d73-6f221e87f413","ios":"levelo://app?vid=03e574a2-b92f-42df-8d73-6f221e87f413"},"vehicle_type_id":"4","last_reported":1745082486,"current_range_meters":6800,"station_id":"ce4bh9p2rcd13ifvqec0","pricing_plan_id":"cebpf4jnsgd1na2vs0mg"},{"bike_id":"416003ca-161f-4cf9-b2ff-769e7826ab66","system_id":"levelo_inurba_marseille","lat":43.28258,"lon":5.35068,"is_reserved":false,"is_disabled":false,"rental_uris":{"android":"levelo://app?vid=416003ca-161f-4cf9-b2ff-769e7826ab66","ios":"levelo://app?vid=416003ca-161f-4cf9-b2ff-769e7826ab66"},"vehicle_type_id":"4","last_reported":1745082486,"current_range_meters":6800,"station_id":"ce4bhbp2rcd13ifvqerg","pricing_plan_id":"cebpf4jnsgd1na2vs0mg"},{"bike_id":"aaafad92-d28a-4d17-a0fb-3ff3c58bebc6","system_id":"levelo_inurba_marseille","lat":43.28149,"lon":5.42668,"is_reserved":false,"is_disabled":false,"rental_uris":{"android":"levelo://app?vid=aaafad92-d28a-4d17-a0fb-3ff3c58bebc6","ios":"levelo://app?vid=aaafad92-d28a-4d17-a0fb-3ff3c58bebc6"},"vehicle_type_id":"4","last_reported":1745082486,"current_range_meters":7200,"station_id":"ce4bhnh2rcd13ifvqgug","pricing_plan_id":"cebpf4jnsgd1na2vs0mg"},{"bike_id":"bbb26e68-7d82-407b-a700-3e2d65994384","system_id":"levelo_inurba_marseille","lat":43.30262,"lon":5.37726,"is_reserved":false,"is_disabled":false,"rental_uris":{"android":"levelo://app?vid=bbb26e68-7d82-407b-a700-3e2d65994384","ios":"levelo://app?vid=bbb26e68-7d82-407b-a700-3e2d65994384"},"vehicle_type_id":"4","last_reported":1745082486,"current_range_meters":7200,"station_id":"ce4bguh2rcd13ifvqcj0","pricing_plan_id":"cebpf4jnsgd1na2vs0mg"},{"bike_id":"34216264-87a0-4171-bbce-44c67c1bd610","system_id":"levelo_inurba_marseille","lat":43.307994,"lon":5.366228,"is_reserved":false,"is_disabled":false,"rental_uris":{"android":"levelo://app?vid=34216264-87a0-4171-bbce-44c67c1bd610","ios":"levelo://app?vid=34216264-87a0-4171-bbce-44c67c1bd610"},"vehicle_type_id":"4","last_reported":1745082486,"current_range_meters":8000,"station_id":"ce4bgs12rcd13ifvqcag","pricing_plan_id":"cebpf4jnsgd1na2vs0mg"},{"bike_id":"276d94a9-b91a-47b5-b4e8-19ed1fdcca68","system_id":"levelo_inurba_marseille","lat":43.29577,"lon":5.42245,"is_reserved":false,"is_disabled":true,"rental_uris":{"android":"levelo://app?vid=276d94a9-b91a-47b5-b4e8-19ed1fdcca68","ios":"levelo://app?vid=276d94a9-b91a-47b5-b4e8-19ed1fdcca68"},"vehicle_type_id":"4","last_reported":1745082486,"current_range_meters":7200,"station_id":"ce4bhph2rcd13ifvqhdg","pricing_plan_id":"cebpf4jnsgd1na2vs0mg"},{"bike_id":"252fbb03-e98c-43ce-a748-f04c86d2ed2c","system_id":"levelo_inurba_marseille","lat":43.28728,"lon":5.36083,"is_reserved":false,"is_disabled":false,"rental_uris":{"android":"levelo://app?vid=252fbb03-e98c-43ce-a748-f04c86d2ed2c","ios":"levelo://app?vid=252fbb03-e98c-43ce-a748-f04c86d2ed2c"},"vehicle_type_id":"4","last_reported":1745082486,"current_range_meters":6800,"station_id":"cki0cbj6b192h4jlfktg","pricing_plan_id":"cebpf4jnsgd1na2vs0mg"},{"bike_id":"c42c97dc-851b-476d-ba23-67d0582febc0","system_id":"levelo_inurba_marseille","lat":43.303197,"lon":5.4044,"is_reserved":false,"is_disabled":true,"rental_uris":{"android":"levelo://app?vid=c42c97dc-851b-476d-ba23-67d0582febc0","ios":"levelo://app?vid=c42c97dc-851b-476d-ba23-67d0582febc0"},"vehicle_type_id":"4","last_reported":1745082486,"current_range_meters":7200,"station_id":"ce4bh012rcd13ifvqd10","pricing_plan_id":"cebpf4jnsgd1na2vs0mg"},{"bike_id":"822dad89-dafd-4e18-81b7-5536455dcb90","system_id":"levelo_inurba_marseille","lat":43.26804,"lon":5.40273,"is_reserved":false,"is_disabled":false,"rental_uris":{"android":"levelo://app?vid=822dad89-dafd-4e18-81b7-5536455dcb90","ios":"levelo://app?vid=822dad89-dafd-4e18-81b7-5536455dcb90"},"vehicle_type_id":"4","last_reported":1745082486,"current_range_meters":7200,"station_id":"ce501612rcd8frsf0b60","pricing_plan_id":"cebpf4jnsgd1na2vs0mg"},{"bike_id":"d0906380-06f1-4ada-9312-c0f73e4c727e","system_id":"levelo_inurba_marseille","lat":43.28482,"lon":5.38422,"is_reserved":false,"is_disabled":false,"rental_uris":{"android":"levelo://app?vid=d0906380-06f1-4ada-9312-c0f73e4c727e","ios":"levelo://app?vid=d0906380-06f1-4ada-9312-c0f73e4c727e"},"vehicle_type_id":"4","last_reported":1745082486,"current_range_meters":7200,"station_id":"ce4bh512rcd13ifvqe3g","pricing_plan_id":"cebpf4jnsgd1na2vs0mg"},{"bike_id":"d872c5be-2c3c-47f6-9cc0-84aeb212b750","system_id":"levelo_inurba_marseille","lat":43.24088,"lon":5.37769,"is_reserved":false,"is_disabled":false,"rental_uris":{"android":"levelo://app?vid=d872c5be-2c3c-47f6-9cc0-84aeb212b750","ios":"levelo://app?vid=d872c5be-2c3c-47f6-9cc0-84aeb212b750"},"vehicle_type_id":"4","last_reported":1745082486,"current_range_meters":7200,"station_id":"ce4bhnp2rcd13ifvqgvg","pricing_plan_id":"cebpf4jnsgd1na2vs0mg"},{"bike_id":"df1df40f-fd9c-4585-bc36-bdce6918b7d5","system_id":"levelo_inurba_marseille","lat":43.23207,"lon":5.35529,"is_reserved":false,"is_disabled":false,"rental_uris":{"android":"levelo://app?vid=df1df40f-fd9c-4585-bc36-bdce6918b7d5","ios":"levelo://app?vid=df1df40f-fd9c-4585-bc36-bdce6918b7d5"},"vehicle_type_id":"4","last_reported":1745082486,"current_range_meters":7200,"station_id":"ce4bhu92rcd13ifvqi70","pricing_plan_id":"cebpf4jnsgd1na2vs0mg"},{"bike_id":"24af5ddf-1ac5-414e-ab55-76cdf5e628ef","system_id":"levelo_inurba_marseille","lat":43.27999,"lon":5.40021,"is_reserved":false,"is_disabled":false,"rental_uris":{"android":"levelo://app?vid=24af5ddf-1ac5-414e-ab55-76cdf5e628ef","ios":"levelo://app?vid=24af5ddf-1ac5-414e-ab55-76cdf5e628ef"},"vehicle_type_id":"4","last_reported":1745082486,"current_range_meters":7200,"station_id":"ce4bho92rcd13ifvqh4g","pricing_plan_id":"cebpf4jnsgd1na2vs0mg"},{"bike_id":"0ea790f3-79ef-4002-a541-f67a691aae21","system_id":"levelo_inurba_marseille","lat":43.23195,"lon":5.35549,"is_reserved":false,"is_disabled":false,"rental_uris":{"android":"levelo://app?vid=0ea790f3-79ef-4002-a541-f67a691aae21","ios":"levelo://app?vid=0ea790f3-79ef-4002-a541-f67a691aae21"},"vehicle_type_id":"4","last_reported":1745082486,"current_range_meters":8000,"station_id":"ce4bhu92rcd13ifvqi70","pricing_plan_id":"cebpf4jnsgd1na2vs0mg"},{"bike_id":"e846867d-eadf-44ba-ae5f-adc1d7771f35","system_id":"levelo_inurba_marseille","lat":43.29894,"lon":5.38896,"is_reserved":false,"is_disabled":false,"rental_uris":{"android":"levelo://app?vid=e846867d-eadf-44ba-ae5f-adc1d7771f35","ios":"levelo://app?vid=e846867d-eadf-44ba-ae5f-adc1d7771f35"},"vehicle_type_id":"4","last_reported":1745082486,"current_range_meters":8000,"station_id":"ce4bh392rcd13ifvqdl0","pricing_plan_id":"cebpf4jnsgd1na2vs0mg"},{"bike_id":"b4e93325-015c-44b3-869e-0d3e2d52cc76","system_id":"levelo_inurba_marseille","lat":43.29718,"lon":5.36616,"is_reserved":false,"is_disabled":false,"rental_uris":{"android":"levelo://app?vid=b4e93325-015c-44b3-869e-0d3e2d52cc76","ios":"levelo://app?vid=b4e93325-015c-44b3-869e-0d3e2d52cc76"},"vehicle_type_id":"4","last_reported":1745082486,"current_range_meters":8000,"station_id":"ce4bgn12rcd13ifvqbt0","pricing_plan_id":"cebpf4jnsgd1na2vs0mg"},{"bike_id":"46e352c6-99ec-440a-82b0-5370c1bdf47f","system_id":"levelo_inurba_marseille","lat":43.31122,"lon":5.3778,"is_reserved":false,"is_disabled":false,"rental_uris":{"android":"levelo://app?vid=46e352c6-99ec-440a-82b0-5370c1bdf47f","ios":"levelo://app?vid=46e352c6-99ec-440a-82b0-5370c1bdf47f"},"vehicle_type_id":"4","last_reported":1745082486,"current_range_meters":8000,"station_id":"ce4bgt92rcd13ifvqcg0","pricing_plan_id":"cebpf4jnsgd1na2vs0mg"},{"bike_id":"066f1a3f-2f55-42ac-aa57-b561bb82f13e","system_id":"levelo_inurba_marseille","lat":43.3086,"lon":5.37303,"is_reserved":false,"is_disabled":false,"rental_uris":{"android":"levelo://app?vid=066f1a3f-2f55-42ac-aa57-b561bb82f13e","ios":"levelo://app?vid=066f1a3f-2f55-42ac-aa57-b561bb82f13e"},"vehicle_type_id":"4","last_reported":1745082486,"current_range_meters":8000,"station_id":"","pricing_plan_id":"cebpf4jnsgd1na2vs0mg"},{"bike_id":"4a86d0f8-ff65-4446-9521-1002867a3da0","system_id":"levelo_inurba_marseille","lat":43.24533,"lon":5.3953,"is_reserved":false,"is_disabled":true,"rental_uris":{"android":"levelo://app?vid=4a86d0f8-ff65-4446-9521-1002867a3da0","ios":"levelo://app?vid=4a86d0f8-ff65-4446-9521-1002867a3da0"},"vehicle_type_id":"4","last_reported":1745082486,"current_range_meters":8000,"station_id":"ce4bhlp2rcd13ifvqgjg","pricing_plan_id":"cebpf4jnsgd1na2vs0mg"},{"bike_id":"90db0def-5b1f-4e3a-a96e-47e8592b4a0b","system_id":"levelo_inurba_marseille","lat":43.2721,"lon":5.39202,"is_reserved":false,"is_disabled":false,"rental_uris":{"android":"levelo://app?vid=90db0def-5b1f-4e3a-a96e-47e8592b4a0b","ios":"levelo://app?vid=90db0def-5b1f-4e3a-a96e-47e8592b4a0b"},"vehicle_type_id":"4","last_reported":1745082486,"current_range_meters":8000,"station_id":"ce4bhhp2rcd13ifvqfm0","pricing_plan_id":"cebpf4jnsgd1na2vs0mg"},{"bike_id":"58e56f2a-2968-4edd-8e98-b740f9cea991","system_id":"levelo_inurba_marseille","lat":43.26198,"lon":5.37449,"is_reserved":false,"is_disabled":false,"rental_uris":{"android":"levelo://app?vid=58e56f2a-2968-4edd-8e98-b740f9cea991","ios":"levelo://app?vid=58e56f2a-2968-4edd-8e98-b740f9cea991"},"vehicle_type_id":"4","last_reported":1745082486,"current_range_meters":8000,"station_id":"ce4bhgp2rcd13ifvqfc0","pricing_plan_id":"cebpf4jnsgd1na2vs0mg"},{"bike_id":"d1b21d6a-bf21-47c9-887d-12da491272d1","system_id":"levelo_inurba_marseille","lat":43.27207,"lon":5.39182,"is_reserved":false,"is_disabled":false,"rental_uris":{"android":"levelo://app?vid=d1b21d6a-bf21-47c9-887d-12da491272d1","ios":"levelo://app?vid=d1b21d6a-bf21-47c9-887d-12da491272d1"},"vehicle_type_id":"4","last_reported":1745082486,"current_range_meters":8000,"station_id":"ce4bhhp2rcd13ifvqfm0","pricing_plan_id":"cebpf4jnsgd1na2vs0mg"},{"bike_id":"e86094fb-fcc5-44c8-b04b-3c95df477c02","system_id":"levelo_inurba_marseille","lat":43.29608,"lon":5.38134,"is_reserved":false,"is_disabled":false,"rental_uris":{"android":"levelo://app?vid=e86094fb-fcc5-44c8-b04b-3c95df477c02","ios":"levelo://app?vid=e86094fb-fcc5-44c8-b04b-3c95df477c02"},"vehicle_type_id":"4","last_reported":1745082486,"current_range_meters":8000,"station_id":"ce4bgl12rcd13ifvqbo0","pricing_plan_id":"cebpf4jnsgd1na2vs0mg"},{"bike_id":"0b40943d-b526-41fb-810d-35e7e3139bd0","system_id":"levelo_inurba_marseille","lat":43.30667,"lon":5.39193,"is_reserved":false,"is_disabled":false,"rental_uris":{"android":"levelo://app?vid=0b40943d-b526-41fb-810d-35e7e3139bd0","ios":"levelo://app?vid=0b40943d-b526-41fb-810d-35e7e3139bd0"},"vehicle_type_id":"4","last_reported":1745082486,"current_range_meters":8000,"station_id":"","pricing_plan_id":"cebpf4jnsgd1na2vs0mg"},{"bike_id":"98133c5f-1713-4ff0-94e5-8b169d954486","system_id":"levelo_inurba_marseille","lat":43.2979,"lon":5.38127,"is_reserved":false,"is_disabled":true,"rental_uris":{"android":"levelo://app?vid=98133c5f-1713-4ff0-94e5-8b169d954486","ios":"levelo://app?vid=98133c5f-1713-4ff0-94e5-8b169d954486"},"vehicle_type_id":"4","last_reported":1745082486,"current_range_meters":8000,"station_id":"ce4bgip2rcd13ifvqbb0","pricing_plan_id":"cebpf4jnsgd1na2vs0mg"},{"bike_id":"a0ddb0a5-f7f0-4281-aa27-9e82747cc573","system_id":"levelo_inurba_marseille","lat":43.33754,"lon":5.37491,"is_reserved":false,"is_disabled":false,"rental_uris":{"android":"levelo://app?vid=a0ddb0a5-f7f0-4281-aa27-9e82747cc573","ios":"levelo://app?vid=a0ddb0a5-f7f0-4281-aa27-9e82747cc573"},"vehicle_type_id":"4","last_reported":1745082486,"current_range_meters":8000,"station_id":"","pricing_plan_id":"cebpf4jnsgd1na2vs0mg"},{"bike_id":"9fe8c14c-2d24-41b2-9662-956cdf9f075c","system_id":"levelo_inurba_marseille","lat":43.24485,"lon":5.36901,"is_reserved":false,"is_disabled":false,"rental_uris":{"android":"levelo://app?vid=9fe8c14c-2d24-41b2-9662-956cdf9f075c","ios":"levelo://app?vid=9fe8c14c-2d24-41b2-9662-956cdf9f075c"},"vehicle_type_id":"4","last_reported":1745082486,"current_range_meters":8400,"station_id":"","pricing_plan_id":"cebpf4jnsgd1na2vs0mg"},{"bike_id":"3cd9c5a8-9c86-4314-951d-926dcb6fbdd8","system_id":"levelo_inurba_marseille","lat":43.309258,"lon":5.40134,"is_reserved":false,"is_disabled":false,"rental_uris":{"android":"levelo://app?vid=3cd9c5a8-9c86-4314-951d-926dcb6fbdd8","ios":"levelo://app?vid=3cd9c5a8-9c86-4314-951d-926dcb6fbdd8"},"vehicle_type_id":"4","last_reported":1745082486,"current_range_meters":8400,"station_id":"ce4bgvp2rcd13ifvqct0","pricing_plan_id":"cebpf4jnsgd1na2vs0mg"},{"bike_id":"f6ba2129-4c99-433a-9ce5-8a3893340f52","system_id":"levelo_inurba_marseille","lat":43.24159,"lon":5.36422,"is_reserved":false,"is_disabled":false,"rental_uris":{"android":"levelo://app?vid=f6ba2129-4c99-433a-9ce5-8a3893340f52","ios":"levelo://app?vid=f6ba2129-4c99-433a-9ce5-8a3893340f52"},"vehicle_type_id":"4","last_reported":1745082486,"current_range_meters":8400,"station_id":"cpo36qri1sfpv3e86is0","pricing_plan_id":"cebpf4jnsgd1na2vs0mg"},{"bike_id":"82cf97f6-2d10-439b-a6f0-f962bacaaf34","system_id":"levelo_inurba_marseille","lat":43.32372,"lon":5.38886,"is_reserved":false,"is_disabled":false,"rental_uris":{"android":"levelo://app?vid=82cf97f6-2d10-439b-a6f0-f962bacaaf34","ios":"levelo://app?vid=82cf97f6-2d10-439b-a6f0-f962bacaaf34"},"vehicle_type_id":"4","last_reported":1745082486,"current_range_meters":8400,"station_id":"ce4bhqp2rcd13ifvqhog","pricing_plan_id":"cebpf4jnsgd1na2vs0mg"},{"bike_id":"f3db6b84-95ea-47eb-b4cd-d586544348cb","system_id":"levelo_inurba_marseille","lat":43.2417,"lon":5.36413,"is_reserved":false,"is_disabled":false,"rental_uris":{"android":"levelo://app?vid=f3db6b84-95ea-47eb-b4cd-d586544348cb","ios":"levelo://app?vid=f3db6b84-95ea-47eb-b4cd-d586544348cb"},"vehicle_type_id":"4","last_reported":1745082486,"current_range_meters":8400,"station_id":"cpo36qri1sfpv3e86is0","pricing_plan_id":"cebpf4jnsgd1na2vs0mg"},{"bike_id":"049d9cb8-3c15-4190-a88f-f42e807620f6","system_id":"levelo_inurba_marseille","lat":43.26785,"lon":5.39464,"is_reserved":false,"is_disabled":false,"rental_uris":{"android":"levelo://app?vid=049d9cb8-3c15-4190-a88f-f42e807620f6","ios":"levelo://app?vid=049d9cb8-3c15-4190-a88f-f42e807620f6"},"vehicle_type_id":"4","last_reported":1745082486,"current_range_meters":8400,"station_id":"","pricing_plan_id":"cebpf4jnsgd1na2vs0mg"},{"bike_id":"bd5aa58f-ce42-4a8a-8899-1cf572c880b9","system_id":"levelo_inurba_marseille","lat":43.278098,"lon":5.407122,"is_reserved":false,"is_disabled":false,"rental_uris":{"android":"levelo://app?vid=bd5aa58f-ce42-4a8a-8899-1cf572c880b9","ios":"levelo://app?vid=bd5aa58f-ce42-4a8a-8899-1cf572c880b9"},"vehicle_type_id":"4","last_reported":1745082486,"current_range_meters":8400,"station_id":"ce4bhnh2rcd13ifvqgtg","pricing_plan_id":"cebpf4jnsgd1na2vs0mg"},{"bike_id":"298aeb19-84d3-4289-b53a-cbf2a27fc537","system_id":"levelo_inurba_marseille","lat":43.27328,"lon":5.39106,"is_reserved":false,"is_disabled":false,"rental_uris":{"android":"levelo://app?vid=298aeb19-84d3-4289-b53a-cbf2a27fc537","ios":"levelo://app?vid=298aeb19-84d3-4289-b53a-cbf2a27fc537"},"vehicle_type_id":"4","last_reported":1745082486,"current_range_meters":8400,"station_id":"ce4bhgp2rcd13ifvqfe0","pricing_plan_id":"cebpf4jnsgd1na2vs0mg"},{"bike_id":"64a83c4d-ee79-4c1e-8b6b-a05db002de62","system_id":"levelo_inurba_marseille","lat":43.34779,"lon":5.41502,"is_reserved":false,"is_disabled":false,"rental_uris":{"android":"levelo://app?vid=64a83c4d-ee79-4c1e-8b6b-a05db002de62","ios":"levelo://app?vid=64a83c4d-ee79-4c1e-8b6b-a05db002de62"},"vehicle_type_id":"4","last_reported":1745082486,"current_range_meters":8400,"station_id":"","pricing_plan_id":"cebpf4jnsgd1na2vs0mg"},{"bike_id":"e96b2cff-fe66-412a-9b9c-7c1c5ffaba31","system_id":"levelo_inurba_marseille","lat":43.26574,"lon":5.37301,"is_reserved":false,"is_disabled":false,"rental_uris":{"android":"levelo://app?vid=e96b2cff-fe66-412a-9b9c-7c1c5ffaba31","ios":"levelo://app?vid=e96b2cff-fe66-412a-9b9c-7c1c5ffaba31"},"vehicle_type_id":"4","last_reported":1745082486,"current_range_meters":8400,"station_id":"ce4bhg12rcd13ifvqf70","pricing_plan_id":"cebpf4jnsgd1na2vs0mg"},{"bike_id":"04e330aa-25c3-469b-a03e-3730fa11ed60","system_id":"levelo_inurba_marseille","lat":43.28268,"lon":5.35074,"is_reserved":false,"is_disabled":false,"rental_uris":{"android":"levelo://app?vid=04e330aa-25c3-469b-a03e-3730fa11ed60","ios":"levelo://app?vid=04e330aa-25c3-469b-a03e-3730fa11ed60"},"vehicle_type_id":"4","last_reported":1745082486,"current_range_meters":8400,"station_id":"ce4bhbp2rcd13ifvqerg","pricing_plan_id":"cebpf4jnsgd1na2vs0mg"},{"bike_id":"41d0c25e-26af-4bee-8a65-b0d6a8246600","system_id":"levelo_inurba_marseille","lat":43.290051,"lon":5.356055,"is_reserved":false,"is_disabled":false,"rental_uris":{"android":"levelo://app?vid=41d0c25e-26af-4bee-8a65-b0d6a8246600","ios":"levelo://app?vid=41d0c25e-26af-4bee-8a65-b0d6a8246600"},"vehicle_type_id":"4","last_reported":1745082486,"current_range_meters":8400,"station_id":"ce4bhb92rcd13ifvqen0","pricing_plan_id":"cebpf4jnsgd1na2vs0mg"},{"bike_id":"71cc0587-e633-47a5-8120-a23ee2fc9730","system_id":"levelo_inurba_marseille","lat":43.28857,"lon":5.3585,"is_reserved":false,"is_disabled":false,"rental_uris":{"android":"levelo://app?vid=71cc0587-e633-47a5-8120-a23ee2fc9730","ios":"levelo://app?vid=71cc0587-e633-47a5-8120-a23ee2fc9730"},"vehicle_type_id":"4","last_reported":1745082486,"current_range_meters":8400,"station_id":"ce4bhb12rcd13ifvqem0","pricing_plan_id":"cebpf4jnsgd1na2vs0mg"},{"bike_id":"2a6e0c69-91b3-4fff-87ee-485aa8525c65","system_id":"levelo_inurba_marseille","lat":43.29278,"lon":5.36847,"is_reserved":false,"is_disabled":false,"rental_uris":{"android":"levelo://app?vid=2a6e0c69-91b3-4fff-87ee-485aa8525c65","ios":"levelo://app?vid=2a6e0c69-91b3-4fff-87ee-485aa8525c65"},"vehicle_type_id":"4","last_reported":1745082486,"current_range_meters":8400,"station_id":"ce4bhbp2rcd13ifvqesg","pricing_plan_id":"cebpf4jnsgd1na2vs0mg"},{"bike_id":"228c1aaf-b0a1-4b32-976c-5ccd2a3d299d","system_id":"levelo_inurba_marseille","lat":43.25106,"lon":5.40353,"is_reserved":false,"is_disabled":false,"rental_uris":{"android":"levelo://app?vid=228c1aaf-b0a1-4b32-976c-5ccd2a3d299d","ios":"levelo://app?vid=228c1aaf-b0a1-4b32-976c-5ccd2a3d299d"},"vehicle_type_id":"4","last_reported":1745082486,"current_range_meters":8400,"station_id":"ce4bhlh2rcd13ifvqgig","pricing_plan_id":"cebpf4jnsgd1na2vs0mg"},{"bike_id":"6044c73e-3359-4c8f-8774-16748e5d9acc","system_id":"levelo_inurba_marseille","lat":43.26557,"lon":5.37282,"is_reserved":false,"is_disabled":false,"rental_uris":{"android":"levelo://app?vid=6044c73e-3359-4c8f-8774-16748e5d9acc","ios":"levelo://app?vid=6044c73e-3359-4c8f-8774-16748e5d9acc"},"vehicle_type_id":"4","last_reported":1745082486,"current_range_meters":8800,"station_id":"ce4bhg12rcd13ifvqf70","pricing_plan_id":"cebpf4jnsgd1na2vs0mg"},{"bike_id":"d800adbc-43f1-45d2-a8a2-e52bdf96e0cb","system_id":"levelo_inurba_marseille","lat":43.24071,"lon":5.37763,"is_reserved":false,"is_disabled":false,"rental_uris":{"android":"levelo://app?vid=d800adbc-43f1-45d2-a8a2-e52bdf96e0cb","ios":"levelo://app?vid=d800adbc-43f1-45d2-a8a2-e52bdf96e0cb"},"vehicle_type_id":"4","last_reported":1745082486,"current_range_meters":8800,"station_id":"ce4bhnp2rcd13ifvqgvg","pricing_plan_id":"cebpf4jnsgd1na2vs0mg"},{"bike_id":"629cb732-65d4-4554-81b1-5e32804601e9","system_id":"levelo_inurba_marseille","lat":43.2733,"lon":5.39106,"is_reserved":false,"is_disabled":false,"rental_uris":{"android":"levelo://app?vid=629cb732-65d4-4554-81b1-5e32804601e9","ios":"levelo://app?vid=629cb732-65d4-4554-81b1-5e32804601e9"},"vehicle_type_id":"4","last_reported":1745082486,"current_range_meters":8800,"station_id":"ce4bhgp2rcd13ifvqfe0","pricing_plan_id":"cebpf4jnsgd1na2vs0mg"},{"bike_id":"53c31571-ea31-4144-aa5c-20cb1dfd622d","system_id":"levelo_inurba_marseille","lat":43.31484,"lon":5.37305,"is_reserved":false,"is_disabled":false,"rental_uris":{"android":"levelo://app?vid=53c31571-ea31-4144-aa5c-20cb1dfd622d","ios":"levelo://app?vid=53c31571-ea31-4144-aa5c-20cb1dfd622d"},"vehicle_type_id":"4","last_reported":1745082486,"current_range_meters":8800,"station_id":"ce4bgt12rcd13ifvqcd0","pricing_plan_id":"cebpf4jnsgd1na2vs0mg"},{"bike_id":"32d0376c-7031-4c7f-841e-7570a6189b10","system_id":"levelo_inurba_marseille","lat":43.24388,"lon":5.37061,"is_reserved":false,"is_disabled":false,"rental_uris":{"android":"levelo://app?vid=32d0376c-7031-4c7f-841e-7570a6189b10","ios":"levelo://app?vid=32d0376c-7031-4c7f-841e-7570a6189b10"},"vehicle_type_id":"4","last_reported":1745082486,"current_range_meters":8800,"station_id":"ce4bhhh2rcd13ifvqfk0","pricing_plan_id":"cebpf4jnsgd1na2vs0mg"},{"bike_id":"506029f3-934b-4b14-bf28-b9c4802540f9","system_id":"levelo_inurba_marseille","lat":43.23201,"lon":5.35548,"is_reserved":false,"is_disabled":false,"rental_uris":{"android":"levelo://app?vid=506029f3-934b-4b14-bf28-b9c4802540f9","ios":"levelo://app?vid=506029f3-934b-4b14-bf28-b9c4802540f9"},"vehicle_type_id":"4","last_reported":1745082486,"current_range_meters":8800,"station_id":"ce4bhu92rcd13ifvqi70","pricing_plan_id":"cebpf4jnsgd1na2vs0mg"},{"bike_id":"797e599a-b065-43f5-9150-a4b58619ce01","system_id":"levelo_inurba_marseille","lat":43.24802,"lon":5.37454,"is_reserved":false,"is_disabled":false,"rental_uris":{"android":"levelo://app?vid=797e599a-b065-43f5-9150-a4b58619ce01","ios":"levelo://app?vid=797e599a-b065-43f5-9150-a4b58619ce01"},"vehicle_type_id":"4","last_reported":1745082486,"current_range_meters":8800,"station_id":"ce4bhgh2rcd13ifvqfb0","pricing_plan_id":"cebpf4jnsgd1na2vs0mg"},{"bike_id":"1bdb50c0-078e-4921-ac58-9c33ed6c918f","system_id":"levelo_inurba_marseille","lat":43.31331,"lon":5.39691,"is_reserved":false,"is_disabled":false,"rental_uris":{"android":"levelo://app?vid=1bdb50c0-078e-4921-ac58-9c33ed6c918f","ios":"levelo://app?vid=1bdb50c0-078e-4921-ac58-9c33ed6c918f"},"vehicle_type_id":"4","last_reported":1745082486,"current_range_meters":8400,"station_id":"ce4bgvp2rcd13ifvqcu0","pricing_plan_id":"cebpf4jnsgd1na2vs0mg"},{"bike_id":"89bdf782-7e48-4454-99d8-89a7414eb3a4","system_id":"levelo_inurba_marseille","lat":43.28157,"lon":5.42637,"is_reserved":false,"is_disabled":false,"rental_uris":{"android":"levelo://app?vid=89bdf782-7e48-4454-99d8-89a7414eb3a4","ios":"levelo://app?vid=89bdf782-7e48-4454-99d8-89a7414eb3a4"},"vehicle_type_id":"4","last_reported":1745082486,"current_range_meters":8800,"station_id":"ce4bhnh2rcd13ifvqgug","pricing_plan_id":"cebpf4jnsgd1na2vs0mg"},{"bike_id":"0f1893a8-a23b-4ca2-8c98-0d8f78b63199","system_id":"levelo_inurba_marseille","lat":43.28401,"lon":5.34995,"is_reserved":false,"is_disabled":false,"rental_uris":{"android":"levelo://app?vid=0f1893a8-a23b-4ca2-8c98-0d8f78b63199","ios":"levelo://app?vid=0f1893a8-a23b-4ca2-8c98-0d8f78b63199"},"vehicle_type_id":"4","last_reported":1745082486,"current_range_meters":9200,"station_id":"ce4bhbh2rcd13ifvqepg","pricing_plan_id":"cebpf4jnsgd1na2vs0mg"},{"bike_id":"f3f6adef-ff12-4b15-841d-3d372fcead96","system_id":"levelo_inurba_marseille","lat":43.312418,"lon":5.401425,"is_reserved":false,"is_disabled":false,"rental_uris":{"android":"levelo://app?vid=f3f6adef-ff12-4b15-841d-3d372fcead96","ios":"levelo://app?vid=f3f6adef-ff12-4b15-841d-3d372fcead96"},"vehicle_type_id":"4","last_reported":1745082486,"current_range_meters":9200,"station_id":"ce4bhq92rcd13ifvqhkg","pricing_plan_id":"cebpf4jnsgd1na2vs0mg"},{"bike_id":"22e4088f-c738-4258-b3ef-026c578a918f","system_id":"levelo_inurba_marseille","lat":43.26687,"lon":5.38263,"is_reserved":false,"is_disabled":false,"rental_uris":{"android":"levelo://app?vid=22e4088f-c738-4258-b3ef-026c578a918f","ios":"levelo://app?vid=22e4088f-c738-4258-b3ef-026c578a918f"},"vehicle_type_id":"4","last_reported":1745082486,"current_range_meters":9600,"station_id":"ce4bhg92rcd13ifvqf90","pricing_plan_id":"cebpf4jnsgd1na2vs0mg"},{"bike_id":"8fc416ec-704a-4139-92e9-aa10689d87e4","system_id":"levelo_inurba_marseille","lat":43.28716,"lon":5.37414,"is_reserved":false,"is_disabled":false,"rental_uris":{"android":"levelo://app?vid=8fc416ec-704a-4139-92e9-aa10689d87e4","ios":"levelo://app?vid=8fc416ec-704a-4139-92e9-aa10689d87e4"},"vehicle_type_id":"4","last_reported":1745082486,"current_range_meters":9600,"station_id":"ce4bh3p2rcd13ifvqdq0","pricing_plan_id":"cebpf4jnsgd1na2vs0mg"},{"bike_id":"1eaca8f5-0017-418a-9bfc-52185bf67513","system_id":"levelo_inurba_marseille","lat":43.33767,"lon":5.39174,"is_reserved":false,"is_disabled":false,"rental_uris":{"android":"levelo://app?vid=1eaca8f5-0017-418a-9bfc-52185bf67513","ios":"levelo://app?vid=1eaca8f5-0017-418a-9bfc-52185bf67513"},"vehicle_type_id":"4","last_reported":1745082486,"current_range_meters":9600,"station_id":"","pricing_plan_id":"cebpf4jnsgd1na2vs0mg"},{"bike_id":"080681e3-1a53-41ef-98e7-bf4209928adc","system_id":"levelo_inurba_marseille","lat":43.27495,"lon":5.42452,"is_reserved":false,"is_disabled":false,"rental_uris":{"android":"levelo://app?vid=080681e3-1a53-41ef-98e7-bf4209928adc","ios":"levelo://app?vid=080681e3-1a53-41ef-98e7-bf4209928adc"},"vehicle_type_id":"4","last_reported":1745082486,"current_range_meters":9200,"station_id":"ce4bhn92rcd13ifvqgrg","pricing_plan_id":"cebpf4jnsgd1na2vs0mg"},{"bike_id":"6c5f2ce8-954e-4cb6-bb58-c13fa41801a9","system_id":"levelo_inurba_marseille","lat":43.27995,"lon":5.40012,"is_reserved":false,"is_disabled":false,"rental_uris":{"android":"levelo://app?vid=6c5f2ce8-954e-4cb6-bb58-c13fa41801a9","ios":"levelo://app?vid=6c5f2ce8-954e-4cb6-bb58-c13fa41801a9"},"vehicle_type_id":"4","last_reported":1745082486,"current_range_meters":9600,"station_id":"ce4bho92rcd13ifvqh4g","pricing_plan_id":"cebpf4jnsgd1na2vs0mg"},{"bike_id":"186380b9-3dab-457b-b648-71d123fa0368","system_id":"levelo_inurba_marseille","lat":43.25123,"lon":5.40339,"is_reserved":false,"is_disabled":true,"rental_uris":{"android":"levelo://app?vid=186380b9-3dab-457b-b648-71d123fa0368","ios":"levelo://app?vid=186380b9-3dab-457b-b648-71d123fa0368"},"vehicle_type_id":"4","last_reported":1745082486,"current_range_meters":9600,"station_id":"ce4bhlh2rcd13ifvqgig","pricing_plan_id":"cebpf4jnsgd1na2vs0mg"},{"bike_id":"4045ed24-c0da-429c-8e13-6fea3894e718","system_id":"levelo_inurba_marseille","lat":43.31536,"lon":5.38053,"is_reserved":false,"is_disabled":false,"rental_uris":{"android":"levelo://app?vid=4045ed24-c0da-429c-8e13-6fea3894e718","ios":"levelo://app?vid=4045ed24-c0da-429c-8e13-6fea3894e718"},"vehicle_type_id":"4","last_reported":1745082486,"current_range_meters":9600,"station_id":"ce4bhsp2rcd13ifvqi50","pricing_plan_id":"cebpf4jnsgd1na2vs0mg"},{"bike_id":"651fd81e-099b-43fe-b69d-94e675569986","system_id":"levelo_inurba_marseille","lat":43.26557,"lon":5.37281,"is_reserved":false,"is_disabled":false,"rental_uris":{"android":"levelo://app?vid=651fd81e-099b-43fe-b69d-94e675569986","ios":"levelo://app?vid=651fd81e-099b-43fe-b69d-94e675569986"},"vehicle_type_id":"4","last_reported":1745082486,"current_range_meters":9600,"station_id":"ce4bhg12rcd13ifvqf70","pricing_plan_id":"cebpf4jnsgd1na2vs0mg"},{"bike_id":"ddfec0c8-4c1e-446d-847a-242803b37d09","system_id":"levelo_inurba_marseille","lat":43.27999,"lon":5.40016,"is_reserved":false,"is_disabled":false,"rental_uris":{"android":"levelo://app?vid=ddfec0c8-4c1e-446d-847a-242803b37d09","ios":"levelo://app?vid=ddfec0c8-4c1e-446d-847a-242803b37d09"},"vehicle_type_id":"4","last_reported":1745082486,"current_range_meters":9600,"station_id":"ce4bho92rcd13ifvqh4g","pricing_plan_id":"cebpf4jnsgd1na2vs0mg"},{"bike_id":"d5ca498f-53fb-495d-b440-f96ed572d532","system_id":"levelo_inurba_marseille","lat":43.28428,"lon":5.3499,"is_reserved":false,"is_disabled":false,"rental_uris":{"android":"levelo://app?vid=d5ca498f-53fb-495d-b440-f96ed572d532","ios":"levelo://app?vid=d5ca498f-53fb-495d-b440-f96ed572d532"},"vehicle_type_id":"4","last_reported":1745082486,"current_range_meters":10000,"station_id":"ce4bhbh2rcd13ifvqepg","pricing_plan_id":"cebpf4jnsgd1na2vs0mg"},{"bike_id":"c6eb518d-f8e2-4c5c-8098-b5d751548fcd","system_id":"levelo_inurba_marseille","lat":43.25933,"lon":5.40918,"is_reserved":false,"is_disabled":false,"rental_uris":{"android":"levelo://app?vid=c6eb518d-f8e2-4c5c-8098-b5d751548fcd","ios":"levelo://app?vid=c6eb518d-f8e2-4c5c-8098-b5d751548fcd"},"vehicle_type_id":"4","last_reported":1745082486,"current_range_meters":10000,"station_id":"ce4bhm92rcd13ifvqglg","pricing_plan_id":"cebpf4jnsgd1na2vs0mg"},{"bike_id":"bf14e57e-8044-4055-a387-3cf54b2bc698","system_id":"levelo_inurba_marseille","lat":43.24648,"lon":5.38889,"is_reserved":false,"is_disabled":false,"rental_uris":{"android":"levelo://app?vid=bf14e57e-8044-4055-a387-3cf54b2bc698","ios":"levelo://app?vid=bf14e57e-8044-4055-a387-3cf54b2bc698"},"vehicle_type_id":"4","last_reported":1745082486,"current_range_meters":10000,"station_id":"ce4bhg12rcd13ifvqf60","pricing_plan_id":"cebpf4jnsgd1na2vs0mg"},{"bike_id":"7046e670-9269-4f85-bf5f-70e94f92976f","system_id":"levelo_inurba_marseille","lat":43.29889,"lon":5.38911,"is_reserved":false,"is_disabled":false,"rental_uris":{"android":"levelo://app?vid=7046e670-9269-4f85-bf5f-70e94f92976f","ios":"levelo://app?vid=7046e670-9269-4f85-bf5f-70e94f92976f"},"vehicle_type_id":"4","last_reported":1745082486,"current_range_meters":10000,"station_id":"ce4bh392rcd13ifvqdl0","pricing_plan_id":"cebpf4jnsgd1na2vs0mg"},{"bike_id":"1965f819-3778-4654-96e5-aaaf9c36cc08","system_id":"levelo_inurba_marseille","lat":43.30397,"lon":5.42509,"is_reserved":false,"is_disabled":false,"rental_uris":{"android":"levelo://app?vid=1965f819-3778-4654-96e5-aaaf9c36cc08","ios":"levelo://app?vid=1965f819-3778-4654-96e5-aaaf9c36cc08"},"vehicle_type_id":"4","last_reported":1745082486,"current_range_meters":10000,"station_id":"ce4bhoh2rcd13ifvqh6g","pricing_plan_id":"cebpf4jnsgd1na2vs0mg"},{"bike_id":"fad00337-7ff5-4cde-ae41-7324defc86f2","system_id":"levelo_inurba_marseille","lat":43.32358,"lon":5.36748,"is_reserved":false,"is_disabled":false,"rental_uris":{"android":"levelo://app?vid=fad00337-7ff5-4cde-ae41-7324defc86f2","ios":"levelo://app?vid=fad00337-7ff5-4cde-ae41-7324defc86f2"},"vehicle_type_id":"4","last_reported":1745082486,"current_range_meters":10000,"station_id":"ce4bhsh2rcd13ifvqi2g","pricing_plan_id":"cebpf4jnsgd1na2vs0mg"},{"bike_id":"d2ba4413-c35f-41b1-8baf-f83e6001a359","system_id":"levelo_inurba_marseille","lat":43.29032,"lon":5.38657,"is_reserved":false,"is_disabled":true,"rental_uris":{"android":"levelo://app?vid=d2ba4413-c35f-41b1-8baf-f83e6001a359","ios":"levelo://app?vid=d2ba4413-c35f-41b1-8baf-f83e6001a359"},"vehicle_type_id":"4","last_reported":1745082486,"current_range_meters":10000,"station_id":"ce4bh4p2rcd13ifvqe0g","pricing_plan_id":"cebpf4jnsgd1na2vs0mg"},{"bike_id":"a8932743-e52a-410b-88d3-ace13ba9c4d5","system_id":"levelo_inurba_marseille","lat":43.29707,"lon":5.36599,"is_reserved":false,"is_disabled":false,"rental_uris":{"android":"levelo://app?vid=a8932743-e52a-410b-88d3-ace13ba9c4d5","ios":"levelo://app?vid=a8932743-e52a-410b-88d3-ace13ba9c4d5"},"vehicle_type_id":"4","last_reported":1745082486,"current_range_meters":10000,"station_id":"ce4bgn12rcd13ifvqbt0","pricing_plan_id":"cebpf4jnsgd1na2vs0mg"},{"bike_id":"f7908fc6-003a-427b-b74a-81296d583d25","system_id":"levelo_inurba_marseille","lat":43.24177,"lon":5.39734,"is_reserved":false,"is_disabled":false,"rental_uris":{"android":"levelo://app?vid=f7908fc6-003a-427b-b74a-81296d583d25","ios":"levelo://app?vid=f7908fc6-003a-427b-b74a-81296d583d25"},"vehicle_type_id":"4","last_reported":1745082486,"current_range_meters":10000,"station_id":"ce4bhn12rcd13ifvqgpg","pricing_plan_id":"cebpf4jnsgd1na2vs0mg"},{"bike_id":"22583896-a653-48d4-8b37-6cfca0e7be93","system_id":"levelo_inurba_marseille","lat":43.21214,"lon":5.35099,"is_reserved":false,"is_disabled":false,"rental_uris":{"android":"levelo://app?vid=22583896-a653-48d4-8b37-6cfca0e7be93","ios":"levelo://app?vid=22583896-a653-48d4-8b37-6cfca0e7be93"},"vehicle_type_id":"4","last_reported":1745082486,"current_range_meters":10000,"station_id":"st_cvj6sg6p6f1abm77japg","pricing_plan_id":"cebpf4jnsgd1na2vs0mg"},{"bike_id":"106c5265-7c1a-45be-9031-3c55f8880986","system_id":"levelo_inurba_marseille","lat":43.26184,"lon":5.3794,"is_reserved":false,"is_disabled":false,"rental_uris":{"android":"levelo://app?vid=106c5265-7c1a-45be-9031-3c55f8880986","ios":"levelo://app?vid=106c5265-7c1a-45be-9031-3c55f8880986"},"vehicle_type_id":"4","last_reported":1745082486,"current_range_meters":10800,"station_id":"ce4bhjp2rcd13ifvqg90","pricing_plan_id":"cebpf4jnsgd1na2vs0mg"},{"bike_id":"20aab713-b807-4cab-a272-9ffba5cba397","system_id":"levelo_inurba_marseille","lat":43.30257,"lon":5.38946,"is_reserved":false,"is_disabled":false,"rental_uris":{"android":"levelo://app?vid=20aab713-b807-4cab-a272-9ffba5cba397","ios":"levelo://app?vid=20aab713-b807-4cab-a272-9ffba5cba397"},"vehicle_type_id":"4","last_reported":1745082486,"current_range_meters":10800,"station_id":"","pricing_plan_id":"cebpf4jnsgd1na2vs0mg"},{"bike_id":"7201ba14-46ec-4f1c-af68-94d6da988cd5","system_id":"levelo_inurba_marseille","lat":43.27209,"lon":5.3918,"is_reserved":false,"is_disabled":false,"rental_uris":{"android":"levelo://app?vid=7201ba14-46ec-4f1c-af68-94d6da988cd5","ios":"levelo://app?vid=7201ba14-46ec-4f1c-af68-94d6da988cd5"},"vehicle_type_id":"4","last_reported":1745082486,"current_range_meters":10800,"station_id":"ce4bhhp2rcd13ifvqfm0","pricing_plan_id":"cebpf4jnsgd1na2vs0mg"},{"bike_id":"b625a873-2c79-4244-bf1e-56514f7be91a","system_id":"levelo_inurba_marseille","lat":43.30217,"lon":5.39466,"is_reserved":false,"is_disabled":false,"rental_uris":{"android":"levelo://app?vid=b625a873-2c79-4244-bf1e-56514f7be91a","ios":"levelo://app?vid=b625a873-2c79-4244-bf1e-56514f7be91a"},"vehicle_type_id":"4","last_reported":1745082486,"current_range_meters":10800,"station_id":"ce4bh0p2rcd13ifvqd70","pricing_plan_id":"cebpf4jnsgd1na2vs0mg"},{"bike_id":"6b2a2f68-fd74-4a24-a495-23dd8d3467f4","system_id":"levelo_inurba_marseille","lat":43.21198,"lon":5.35127,"is_reserved":false,"is_disabled":false,"rental_uris":{"android":"levelo://app?vid=6b2a2f68-fd74-4a24-a495-23dd8d3467f4","ios":"levelo://app?vid=6b2a2f68-fd74-4a24-a495-23dd8d3467f4"},"vehicle_type_id":"4","last_reported":1745082486,"current_range_meters":10800,"station_id":"st_cvj6sg6p6f1abm77japg","pricing_plan_id":"cebpf4jnsgd1na2vs0mg"},{"bike_id":"904fb01d-7241-46ce-a67c-332bfceba3ad","system_id":"levelo_inurba_marseille","lat":43.28423,"lon":5.3499,"is_reserved":false,"is_disabled":false,"rental_uris":{"android":"levelo://app?vid=904fb01d-7241-46ce-a67c-332bfceba3ad","ios":"levelo://app?vid=904fb01d-7241-46ce-a67c-332bfceba3ad"},"vehicle_type_id":"4","last_reported":1745082486,"current_range_meters":10800,"station_id":"ce4bhbh2rcd13ifvqepg","pricing_plan_id":"cebpf4jnsgd1na2vs0mg"},{"bike_id":"8c5395fa-1293-4952-abb6-4ad70261f2e6","system_id":"levelo_inurba_marseille","lat":43.25726,"lon":5.41109,"is_reserved":false,"is_disabled":false,"rental_uris":{"android":"levelo://app?vid=8c5395fa-1293-4952-abb6-4ad70261f2e6","ios":"levelo://app?vid=8c5395fa-1293-4952-abb6-4ad70261f2e6"},"vehicle_type_id":"4","last_reported":1745082486,"current_range_meters":10800,"station_id":"ce4bhkp2rcd13ifvqgd0","pricing_plan_id":"cebpf4jnsgd1na2vs0mg"},{"bike_id":"bafb7314-0487-42a8-bef8-2bdf7f1a7c90","system_id":"levelo_inurba_marseille","lat":43.29023,"lon":5.38139,"is_reserved":false,"is_disabled":false,"rental_uris":{"android":"levelo://app?vid=bafb7314-0487-42a8-bef8-2bdf7f1a7c90","ios":"levelo://app?vid=bafb7314-0487-42a8-bef8-2bdf7f1a7c90"},"vehicle_type_id":"4","last_reported":1745082486,"current_range_meters":10800,"station_id":"ce4bh4p2rcd13ifvqe1g","pricing_plan_id":"cebpf4jnsgd1na2vs0mg"},{"bike_id":"be28d615-3a64-401b-866a-c0a83a3b3115","system_id":"levelo_inurba_marseille","lat":43.28156,"lon":5.42646,"is_reserved":false,"is_disabled":false,"rental_uris":{"android":"levelo://app?vid=be28d615-3a64-401b-866a-c0a83a3b3115","ios":"levelo://app?vid=be28d615-3a64-401b-866a-c0a83a3b3115"},"vehicle_type_id":"4","last_reported":1745082486,"current_range_meters":10800,"station_id":"ce4bhnh2rcd13ifvqgug","pricing_plan_id":"cebpf4jnsgd1na2vs0mg"},{"bike_id":"4b44bcc4-7340-4196-9d80-e6b8c8ef283e","system_id":"levelo_inurba_marseille","lat":43.2961,"lon":5.38108,"is_reserved":false,"is_disabled":false,"rental_uris":{"android":"levelo://app?vid=4b44bcc4-7340-4196-9d80-e6b8c8ef283e","ios":"levelo://app?vid=4b44bcc4-7340-4196-9d80-e6b8c8ef283e"},"vehicle_type_id":"4","last_reported":1745082486,"current_range_meters":10800,"station_id":"ce4bgl12rcd13ifvqbo0","pricing_plan_id":"cebpf4jnsgd1na2vs0mg"},{"bike_id":"97e50bb0-9a70-481b-b370-e509345e710a","system_id":"levelo_inurba_marseille","lat":43.28035,"lon":5.36941,"is_reserved":false,"is_disabled":true,"rental_uris":{"android":"levelo://app?vid=97e50bb0-9a70-481b-b370-e509345e710a","ios":"levelo://app?vid=97e50bb0-9a70-481b-b370-e509345e710a"},"vehicle_type_id":"4","last_reported":1745082486,"current_range_meters":11200,"station_id":"ce4bha12rcd13ifvqef0","pricing_plan_id":"cebpf4jnsgd1na2vs0mg"},{"bike_id":"b77e39ba-d725-4ba7-846e-6802fb1581a3","system_id":"levelo_inurba_marseille","lat":43.28618,"lon":5.351,"is_reserved":false,"is_disabled":false,"rental_uris":{"android":"levelo://app?vid=b77e39ba-d725-4ba7-846e-6802fb1581a3","ios":"levelo://app?vid=b77e39ba-d725-4ba7-846e-6802fb1581a3"},"vehicle_type_id":"4","last_reported":1745082486,"current_range_meters":11200,"station_id":"ce4bhhp2rcd13ifvqfm0","pricing_plan_id":"cebpf4jnsgd1na2vs0mg"},{"bike_id":"a6a80bbc-2d6f-4cb6-afca-5c8dd3f07fd8","system_id":"levelo_inurba_marseille","lat":43.28444,"lon":5.39198,"is_reserved":false,"is_disabled":false,"rental_uris":{"android":"levelo://app?vid=a6a80bbc-2d6f-4cb6-afca-5c8dd3f07fd8","ios":"levelo://app?vid=a6a80bbc-2d6f-4cb6-afca-5c8dd3f07fd8"},"vehicle_type_id":"4","last_reported":1745082486,"current_range_meters":11200,"station_id":"ce4bhoh2rcd13ifvqh5g","pricing_plan_id":"cebpf4jnsgd1na2vs0mg"},{"bike_id":"1d181db4-d821-4de8-ac3f-370a2afe097a","system_id":"levelo_inurba_marseille","lat":43.27314,"lon":5.390593,"is_reserved":false,"is_disabled":false,"rental_uris":{"android":"levelo://app?vid=1d181db4-d821-4de8-ac3f-370a2afe097a","ios":"levelo://app?vid=1d181db4-d821-4de8-ac3f-370a2afe097a"},"vehicle_type_id":"4","last_reported":1745082486,"current_range_meters":11200,"station_id":"ce4bhgp2rcd13ifvqfe0","pricing_plan_id":"cebpf4jnsgd1na2vs0mg"},{"bike_id":"33d8bee4-b42d-476e-9005-502de9f1dc95","system_id":"levelo_inurba_marseille","lat":43.255,"lon":5.3765,"is_reserved":false,"is_disabled":false,"rental_uris":{"android":"levelo://app?vid=33d8bee4-b42d-476e-9005-502de9f1dc95","ios":"levelo://app?vid=33d8bee4-b42d-476e-9005-502de9f1dc95"},"vehicle_type_id":"4","last_reported":1745082486,"current_range_meters":11600,"station_id":"ce4bhh12rcd13ifvqff0","pricing_plan_id":"cebpf4jnsgd1na2vs0mg"},{"bike_id":"457c9077-2774-4b70-8696-84d89b220989","system_id":"levelo_inurba_marseille","lat":43.29536,"lon":5.38551,"is_reserved":false,"is_disabled":false,"rental_uris":{"android":"levelo://app?vid=457c9077-2774-4b70-8696-84d89b220989","ios":"levelo://app?vid=457c9077-2774-4b70-8696-84d89b220989"},"vehicle_type_id":"4","last_reported":1745082486,"current_range_meters":11600,"station_id":"ce4bgih2rcd13ifvqba0","pricing_plan_id":"cebpf4jnsgd1na2vs0mg"},{"bike_id":"f0b6af0d-1cbf-47a3-af07-dab09fabbbf0","system_id":"levelo_inurba_marseille","lat":43.23181,"lon":5.35573,"is_reserved":false,"is_disabled":false,"rental_uris":{"android":"levelo://app?vid=f0b6af0d-1cbf-47a3-af07-dab09fabbbf0","ios":"levelo://app?vid=f0b6af0d-1cbf-47a3-af07-dab09fabbbf0"},"vehicle_type_id":"4","last_reported":1745082486,"current_range_meters":11600,"station_id":"ce4bhu92rcd13ifvqi70","pricing_plan_id":"cebpf4jnsgd1na2vs0mg"},{"bike_id":"8f0ca786-634e-423c-aa22-3eac0f0522af","system_id":"levelo_inurba_marseille","lat":43.29772,"lon":5.37099,"is_reserved":false,"is_disabled":false,"rental_uris":{"android":"levelo://app?vid=8f0ca786-634e-423c-aa22-3eac0f0522af","ios":"levelo://app?vid=8f0ca786-634e-423c-aa22-3eac0f0522af"},"vehicle_type_id":"4","last_reported":1745082486,"current_range_meters":11600,"station_id":"ce4bgop2rcd13ifvqc1g","pricing_plan_id":"cebpf4jnsgd1na2vs0mg"},{"bike_id":"e112b213-5d4e-451d-9329-86d6ec0b13fc","system_id":"levelo_inurba_marseille","lat":43.30014,"lon":5.37179,"is_reserved":false,"is_disabled":false,"rental_uris":{"android":"levelo://app?vid=e112b213-5d4e-451d-9329-86d6ec0b13fc","ios":"levelo://app?vid=e112b213-5d4e-451d-9329-86d6ec0b13fc"},"vehicle_type_id":"4","last_reported":1745082486,"current_range_meters":11600,"station_id":"ce4bgr92rcd13ifvqc7g","pricing_plan_id":"cebpf4jnsgd1na2vs0mg"},{"bike_id":"0a779b39-0990-40aa-91bc-7f9da8a4e2fb","system_id":"levelo_inurba_marseille","lat":43.27314,"lon":5.39082,"is_reserved":false,"is_disabled":false,"rental_uris":{"android":"levelo://app?vid=0a779b39-0990-40aa-91bc-7f9da8a4e2fb","ios":"levelo://app?vid=0a779b39-0990-40aa-91bc-7f9da8a4e2fb"},"vehicle_type_id":"4","last_reported":1745082486,"current_range_meters":12000,"station_id":"ce4bhgp2rcd13ifvqfe0","pricing_plan_id":"cebpf4jnsgd1na2vs0mg"},{"bike_id":"e9a213a9-7ef7-46e7-865c-ea873bf3c849","system_id":"levelo_inurba_marseille","lat":43.30323,"lon":5.37925,"is_reserved":false,"is_disabled":false,"rental_uris":{"android":"levelo://app?vid=e9a213a9-7ef7-46e7-865c-ea873bf3c849","ios":"levelo://app?vid=e9a213a9-7ef7-46e7-865c-ea873bf3c849"},"vehicle_type_id":"4","last_reported":1745082486,"current_range_meters":12800,"station_id":"","pricing_plan_id":"cebpf4jnsgd1na2vs0mg"},{"bike_id":"377d8ef9-73e3-4fe9-9dfe-7e30d0ec185e","system_id":"levelo_inurba_marseille","lat":43.299712,"lon":5.384768,"is_reserved":false,"is_disabled":false,"rental_uris":{"android":"levelo://app?vid=377d8ef9-73e3-4fe9-9dfe-7e30d0ec185e","ios":"levelo://app?vid=377d8ef9-73e3-4fe9-9dfe-7e30d0ec185e"},"vehicle_type_id":"4","last_reported":1745082486,"current_range_meters":12400,"station_id":"ce4bgj92rcd13ifvqbd0","pricing_plan_id":"cebpf4jnsgd1na2vs0mg"},{"bike_id":"4500bcf7-bacd-47ce-8256-01f941bfb534","system_id":"levelo_inurba_marseille","lat":43.2953,"lon":5.37495,"is_reserved":false,"is_disabled":true,"rental_uris":{"android":"levelo://app?vid=4500bcf7-bacd-47ce-8256-01f941bfb534","ios":"levelo://app?vid=4500bcf7-bacd-47ce-8256-01f941bfb534"},"vehicle_type_id":"4","last_reported":1745082486,"current_range_meters":12400,"station_id":"ce4bgkp2rcd13ifvqbmg","pricing_plan_id":"cebpf4jnsgd1na2vs0mg"},{"bike_id":"ea4450d9-9a99-4594-a78c-98193f997324","system_id":"levelo_inurba_marseille","lat":43.26962,"lon":5.38647,"is_reserved":false,"is_disabled":false,"rental_uris":{"android":"levelo://app?vid=ea4450d9-9a99-4594-a78c-98193f997324","ios":"levelo://app?vid=ea4450d9-9a99-4594-a78c-98193f997324"},"vehicle_type_id":"4","last_reported":1745082486,"current_range_meters":12400,"station_id":"ce4bhh92rcd13ifvqfh0","pricing_plan_id":"cebpf4jnsgd1na2vs0mg"},{"bike_id":"2f6c3e53-7841-4b71-b5e3-a9cfe4e4f7bb","system_id":"levelo_inurba_marseille","lat":43.29022,"lon":5.381291,"is_reserved":false,"is_disabled":false,"rental_uris":{"android":"levelo://app?vid=2f6c3e53-7841-4b71-b5e3-a9cfe4e4f7bb","ios":"levelo://app?vid=2f6c3e53-7841-4b71-b5e3-a9cfe4e4f7bb"},"vehicle_type_id":"4","last_reported":1745082486,"current_range_meters":12000,"station_id":"ce4bh4p2rcd13ifvqe1g","pricing_plan_id":"cebpf4jnsgd1na2vs0mg"},{"bike_id":"24213b37-b766-4d9c-a174-f6bf34920497","system_id":"levelo_inurba_marseille","lat":43.28469,"lon":5.384178,"is_reserved":false,"is_disabled":false,"rental_uris":{"android":"levelo://app?vid=24213b37-b766-4d9c-a174-f6bf34920497","ios":"levelo://app?vid=24213b37-b766-4d9c-a174-f6bf34920497"},"vehicle_type_id":"4","last_reported":1745082486,"current_range_meters":12800,"station_id":"ce4bh512rcd13ifvqe3g","pricing_plan_id":"cebpf4jnsgd1na2vs0mg"},{"bike_id":"3aac0636-4f03-4144-a29f-ca009183b90c","system_id":"levelo_inurba_marseille","lat":43.25002,"lon":5.38922,"is_reserved":false,"is_disabled":false,"rental_uris":{"android":"levelo://app?vid=3aac0636-4f03-4144-a29f-ca009183b90c","ios":"levelo://app?vid=3aac0636-4f03-4144-a29f-ca009183b90c"},"vehicle_type_id":"4","last_reported":1745082486,"current_range_meters":12400,"station_id":"ce4bhgp2rcd13ifvqfd0","pricing_plan_id":"cebpf4jnsgd1na2vs0mg"},{"bike_id":"08edc1a8-c956-43cf-b4e9-b84aecf6b890","system_id":"levelo_inurba_marseille","lat":43.29008,"lon":5.3561,"is_reserved":false,"is_disabled":false,"rental_uris":{"android":"levelo://app?vid=08edc1a8-c956-43cf-b4e9-b84aecf6b890","ios":"levelo://app?vid=08edc1a8-c956-43cf-b4e9-b84aecf6b890"},"vehicle_type_id":"4","last_reported":1745082486,"current_range_meters":12800,"station_id":"ce4bhb92rcd13ifvqen0","pricing_plan_id":"cebpf4jnsgd1na2vs0mg"},{"bike_id":"02771de0-1903-43f7-8cc2-def7121e4cad","system_id":"levelo_inurba_marseille","lat":43.28035,"lon":5.36941,"is_reserved":false,"is_disabled":false,"rental_uris":{"android":"levelo://app?vid=02771de0-1903-43f7-8cc2-def7121e4cad","ios":"levelo://app?vid=02771de0-1903-43f7-8cc2-def7121e4cad"},"vehicle_type_id":"4","last_reported":1745082486,"current_range_meters":12800,"station_id":"ce4bha12rcd13ifvqef0","pricing_plan_id":"cebpf4jnsgd1na2vs0mg"},{"bike_id":"c4641a77-7032-4dca-811a-a2db6c9273ef","system_id":"levelo_inurba_marseille","lat":43.29059,"lon":5.37158,"is_reserved":false,"is_disabled":false,"rental_uris":{"android":"levelo://app?vid=c4641a77-7032-4dca-811a-a2db6c9273ef","ios":"levelo://app?vid=c4641a77-7032-4dca-811a-a2db6c9273ef"},"vehicle_type_id":"4","last_reported":1745082486,"current_range_meters":12800,"station_id":"ce4bh5p2rcd13ifvqe4g","pricing_plan_id":"cebpf4jnsgd1na2vs0mg"},{"bike_id":"4e6892ef-dbe3-43e4-bc69-b2da5d802c90","system_id":"levelo_inurba_marseille","lat":43.27384,"lon":5.3626,"is_reserved":false,"is_disabled":true,"rental_uris":{"android":"levelo://app?vid=4e6892ef-dbe3-43e4-bc69-b2da5d802c90","ios":"levelo://app?vid=4e6892ef-dbe3-43e4-bc69-b2da5d802c90"},"vehicle_type_id":"4","last_reported":1745082486,"current_range_meters":13600,"station_id":"ce4bhbh2rcd13ifvqeo0","pricing_plan_id":"cebpf4jnsgd1na2vs0mg"},{"bike_id":"386c0466-92a0-4b14-84ad-ceae0ada9e40","system_id":"levelo_inurba_marseille","lat":43.30909,"lon":5.36844,"is_reserved":false,"is_disabled":true,"rental_uris":{"android":"levelo://app?vid=386c0466-92a0-4b14-84ad-ceae0ada9e40","ios":"levelo://app?vid=386c0466-92a0-4b14-84ad-ceae0ada9e40"},"vehicle_type_id":"4","last_reported":1745082486,"current_range_meters":13600,"station_id":"ce4bgn92rcd13ifvqbvg","pricing_plan_id":"cebpf4jnsgd1na2vs0mg"},{"bike_id":"f970c391-3d68-4ffb-91b3-5dbb9dd22fa0","system_id":"levelo_inurba_marseille","lat":43.29599,"lon":5.38091,"is_reserved":false,"is_disabled":false,"rental_uris":{"android":"levelo://app?vid=f970c391-3d68-4ffb-91b3-5dbb9dd22fa0","ios":"levelo://app?vid=f970c391-3d68-4ffb-91b3-5dbb9dd22fa0"},"vehicle_type_id":"4","last_reported":1745082486,"current_range_meters":13600,"station_id":"ce4bgl12rcd13ifvqbo0","pricing_plan_id":"cebpf4jnsgd1na2vs0mg"},{"bike_id":"49a1d797-b941-4171-af94-57eb3416bda4","system_id":"levelo_inurba_marseille","lat":43.30799,"lon":5.4352,"is_reserved":false,"is_disabled":false,"rental_uris":{"android":"levelo://app?vid=49a1d797-b941-4171-af94-57eb3416bda4","ios":"levelo://app?vid=49a1d797-b941-4171-af94-57eb3416bda4"},"vehicle_type_id":"4","last_reported":1745082486,"current_range_meters":13600,"station_id":"ce4bhph2rcd13ifvqheg","pricing_plan_id":"cebpf4jnsgd1na2vs0mg"},{"bike_id":"97608968-192f-401a-bb03-2f393f53d9a4","system_id":"levelo_inurba_marseille","lat":43.28144,"lon":5.42672,"is_reserved":false,"is_disabled":false,"rental_uris":{"android":"levelo://app?vid=97608968-192f-401a-bb03-2f393f53d9a4","ios":"levelo://app?vid=97608968-192f-401a-bb03-2f393f53d9a4"},"vehicle_type_id":"4","last_reported":1745082486,"current_range_meters":13600,"station_id":"ce4bhnh2rcd13ifvqgug","pricing_plan_id":"cebpf4jnsgd1na2vs0mg"},{"bike_id":"6c128d84-22c4-4f98-bb7e-fea0e5819d78","system_id":"levelo_inurba_marseille","lat":43.29533,"lon":5.39032,"is_reserved":false,"is_disabled":false,"rental_uris":{"android":"levelo://app?vid=6c128d84-22c4-4f98-bb7e-fea0e5819d78","ios":"levelo://app?vid=6c128d84-22c4-4f98-bb7e-fea0e5819d78"},"vehicle_type_id":"4","last_reported":1745082486,"current_range_meters":14000,"station_id":"ce4bh3p2rcd13ifvqdp0","pricing_plan_id":"cebpf4jnsgd1na2vs0mg"},{"bike_id":"527fac75-0783-4b2c-bd4e-07f2f2fee902","system_id":"levelo_inurba_marseille","lat":43.31135,"lon":5.37805,"is_reserved":false,"is_disabled":true,"rental_uris":{"android":"levelo://app?vid=527fac75-0783-4b2c-bd4e-07f2f2fee902","ios":"levelo://app?vid=527fac75-0783-4b2c-bd4e-07f2f2fee902"},"vehicle_type_id":"4","last_reported":1745082486,"current_range_meters":14000,"station_id":"ce4bgt92rcd13ifvqcg0","pricing_plan_id":"cebpf4jnsgd1na2vs0mg"},{"bike_id":"44c2515b-ff63-4bac-a0f9-f4fef656ac10","system_id":"levelo_inurba_marseille","lat":43.28429,"lon":5.34988,"is_reserved":false,"is_disabled":false,"rental_uris":{"android":"levelo://app?vid=44c2515b-ff63-4bac-a0f9-f4fef656ac10","ios":"levelo://app?vid=44c2515b-ff63-4bac-a0f9-f4fef656ac10"},"vehicle_type_id":"4","last_reported":1745082486,"current_range_meters":14000,"station_id":"ce4bhbh2rcd13ifvqepg","pricing_plan_id":"cebpf4jnsgd1na2vs0mg"},{"bike_id":"a7365d94-3c13-45f7-8410-092b80c6163d","system_id":"levelo_inurba_marseille","lat":43.28408,"lon":5.37513,"is_reserved":false,"is_disabled":true,"rental_uris":{"android":"levelo://app?vid=a7365d94-3c13-45f7-8410-092b80c6163d","ios":"levelo://app?vid=a7365d94-3c13-45f7-8410-092b80c6163d"},"vehicle_type_id":"4","last_reported":1745082486,"current_range_meters":14000,"station_id":"ce4bh412rcd13ifvqds0","pricing_plan_id":"cebpf4jnsgd1na2vs0mg"},{"bike_id":"cb627876-4483-4712-953d-ed1d7d1873d4","system_id":"levelo_inurba_marseille","lat":43.25014,"lon":5.38905,"is_reserved":false,"is_disabled":false,"rental_uris":{"android":"levelo://app?vid=cb627876-4483-4712-953d-ed1d7d1873d4","ios":"levelo://app?vid=cb627876-4483-4712-953d-ed1d7d1873d4"},"vehicle_type_id":"4","last_reported":1745082486,"current_range_meters":14000,"station_id":"ce4bhgp2rcd13ifvqfd0","pricing_plan_id":"cebpf4jnsgd1na2vs0mg"},{"bike_id":"e2ca6fad-f63a-4cac-9b3d-3ea03d2f61a2","system_id":"levelo_inurba_marseille","lat":43.29968,"lon":5.38499,"is_reserved":false,"is_disabled":false,"rental_uris":{"android":"levelo://app?vid=e2ca6fad-f63a-4cac-9b3d-3ea03d2f61a2","ios":"levelo://app?vid=e2ca6fad-f63a-4cac-9b3d-3ea03d2f61a2"},"vehicle_type_id":"4","last_reported":1745082486,"current_range_meters":14000,"station_id":"ce4bgj92rcd13ifvqbd0","pricing_plan_id":"cebpf4jnsgd1na2vs0mg"},{"bike_id":"6a32e526-bab1-4b7a-b7c8-37ff2daabfc6","system_id":"levelo_inurba_marseille","lat":43.292816,"lon":5.368702,"is_reserved":false,"is_disabled":false,"rental_uris":{"android":"levelo://app?vid=6a32e526-bab1-4b7a-b7c8-37ff2daabfc6","ios":"levelo://app?vid=6a32e526-bab1-4b7a-b7c8-37ff2daabfc6"},"vehicle_type_id":"4","last_reported":1745082486,"current_range_meters":14000,"station_id":"ce4bgqh2rcd13ifvqc4g","pricing_plan_id":"cebpf4jnsgd1na2vs0mg"},{"bike_id":"6abb242c-9418-4082-97af-22eaad1e6bd2","system_id":"levelo_inurba_marseille","lat":43.28272,"lon":5.35059,"is_reserved":false,"is_disabled":false,"rental_uris":{"android":"levelo://app?vid=6abb242c-9418-4082-97af-22eaad1e6bd2","ios":"levelo://app?vid=6abb242c-9418-4082-97af-22eaad1e6bd2"},"vehicle_type_id":"4","last_reported":1745082486,"current_range_meters":14000,"station_id":"ce4bhbp2rcd13ifvqerg","pricing_plan_id":"cebpf4jnsgd1na2vs0mg"},{"bike_id":"597236d8-ee38-4d6f-b6ab-d41b8c4bd7ed","system_id":"levelo_inurba_marseille","lat":43.289968,"lon":5.356167,"is_reserved":false,"is_disabled":false,"rental_uris":{"android":"levelo://app?vid=597236d8-ee38-4d6f-b6ab-d41b8c4bd7ed","ios":"levelo://app?vid=597236d8-ee38-4d6f-b6ab-d41b8c4bd7ed"},"vehicle_type_id":"4","last_reported":1745082486,"current_range_meters":14000,"station_id":"ce4bhb92rcd13ifvqen0","pricing_plan_id":"cebpf4jnsgd1na2vs0mg"},{"bike_id":"41a270be-5201-4fe2-a1a2-954f669e840e","system_id":"levelo_inurba_marseille","lat":43.30376,"lon":5.4249,"is_reserved":false,"is_disabled":false,"rental_uris":{"android":"levelo://app?vid=41a270be-5201-4fe2-a1a2-954f669e840e","ios":"levelo://app?vid=41a270be-5201-4fe2-a1a2-954f669e840e"},"vehicle_type_id":"4","last_reported":1745082486,"current_range_meters":14000,"station_id":"ce4bhoh2rcd13ifvqh6g","pricing_plan_id":"cebpf4jnsgd1na2vs0mg"},{"bike_id":"e2e275b0-7733-4521-8a7a-33d0200db17d","system_id":"levelo_inurba_marseille","lat":43.26204,"lon":5.37932,"is_reserved":false,"is_disabled":false,"rental_uris":{"android":"levelo://app?vid=e2e275b0-7733-4521-8a7a-33d0200db17d","ios":"levelo://app?vid=e2e275b0-7733-4521-8a7a-33d0200db17d"},"vehicle_type_id":"4","last_reported":1745082486,"current_range_meters":14400,"station_id":"ce4bhjp2rcd13ifvqg90","pricing_plan_id":"cebpf4jnsgd1na2vs0mg"},{"bike_id":"ccda434a-4005-4811-ad66-9baf050c9396","system_id":"levelo_inurba_marseille","lat":43.27959,"lon":5.41043,"is_reserved":false,"is_disabled":false,"rental_uris":{"android":"levelo://app?vid=ccda434a-4005-4811-ad66-9baf050c9396","ios":"levelo://app?vid=ccda434a-4005-4811-ad66-9baf050c9396"},"vehicle_type_id":"4","last_reported":1745082486,"current_range_meters":14400,"station_id":"ce4bhnp2rcd13ifvqh0g","pricing_plan_id":"cebpf4jnsgd1na2vs0mg"},{"bike_id":"585dc1bf-e962-4c0c-94d3-bda040b0293a","system_id":"levelo_inurba_marseille","lat":43.28429,"lon":5.35005,"is_reserved":false,"is_disabled":false,"rental_uris":{"android":"levelo://app?vid=585dc1bf-e962-4c0c-94d3-bda040b0293a","ios":"levelo://app?vid=585dc1bf-e962-4c0c-94d3-bda040b0293a"},"vehicle_type_id":"4","last_reported":1745082486,"current_range_meters":14400,"station_id":"ce4bhbh2rcd13ifvqepg","pricing_plan_id":"cebpf4jnsgd1na2vs0mg"},{"bike_id":"00879c1d-a962-4133-ba5d-8de0f524e6f5","system_id":"levelo_inurba_marseille","lat":43.27511,"lon":5.42467,"is_reserved":false,"is_disabled":false,"rental_uris":{"android":"levelo://app?vid=00879c1d-a962-4133-ba5d-8de0f524e6f5","ios":"levelo://app?vid=00879c1d-a962-4133-ba5d-8de0f524e6f5"},"vehicle_type_id":"4","last_reported":1745082486,"current_range_meters":14400,"station_id":"ce4bhn92rcd13ifvqgrg","pricing_plan_id":"cebpf4jnsgd1na2vs0mg"},{"bike_id":"42ec8baf-e603-434e-b9e6-ffcadfc83e93","system_id":"levelo_inurba_marseille","lat":43.25079,"lon":5.39503,"is_reserved":false,"is_disabled":true,"rental_uris":{"android":"levelo://app?vid=42ec8baf-e603-434e-b9e6-ffcadfc83e93","ios":"levelo://app?vid=42ec8baf-e603-434e-b9e6-ffcadfc83e93"},"vehicle_type_id":"4","last_reported":1745082486,"current_range_meters":14000,"station_id":"ce4bhm12rcd13ifvqgkg","pricing_plan_id":"cebpf4jnsgd1na2vs0mg"},{"bike_id":"ccff5ce8-308a-48cf-a6cd-b0ad5b40962d","system_id":"levelo_inurba_marseille","lat":43.29623,"lon":5.37154,"is_reserved":false,"is_disabled":false,"rental_uris":{"android":"levelo://app?vid=ccff5ce8-308a-48cf-a6cd-b0ad5b40962d","ios":"levelo://app?vid=ccff5ce8-308a-48cf-a6cd-b0ad5b40962d"},"vehicle_type_id":"4","last_reported":1745082486,"current_range_meters":14400,"station_id":"ce4bgnh2rcd13ifvqc0g","pricing_plan_id":"cebpf4jnsgd1na2vs0mg"},{"bike_id":"33399c5a-7b71-4ae2-a964-55b2f2e618d0","system_id":"levelo_inurba_marseille","lat":43.30202,"lon":5.36606,"is_reserved":false,"is_disabled":true,"rental_uris":{"android":"levelo://app?vid=33399c5a-7b71-4ae2-a964-55b2f2e618d0","ios":"levelo://app?vid=33399c5a-7b71-4ae2-a964-55b2f2e618d0"},"vehicle_type_id":"4","last_reported":1745082486,"current_range_meters":14800,"station_id":"ce4bgrh2rcd13ifvqc8g","pricing_plan_id":"cebpf4jnsgd1na2vs0mg"},{"bike_id":"94b17a3e-0154-42de-b7ac-24f8eeeb26c4","system_id":"levelo_inurba_marseille","lat":43.281525,"lon":5.426481,"is_reserved":false,"is_disabled":false,"rental_uris":{"android":"levelo://app?vid=94b17a3e-0154-42de-b7ac-24f8eeeb26c4","ios":"levelo://app?vid=94b17a3e-0154-42de-b7ac-24f8eeeb26c4"},"vehicle_type_id":"4","last_reported":1745082486,"current_range_meters":14800,"station_id":"ce4bhnh2rcd13ifvqgug","pricing_plan_id":"cebpf4jnsgd1na2vs0mg"},{"bike_id":"3a314526-3aad-410b-a5b7-c30391e6b4d1","system_id":"levelo_inurba_marseille","lat":43.28407,"lon":5.35009,"is_reserved":false,"is_disabled":false,"rental_uris":{"android":"levelo://app?vid=3a314526-3aad-410b-a5b7-c30391e6b4d1","ios":"levelo://app?vid=3a314526-3aad-410b-a5b7-c30391e6b4d1"},"vehicle_type_id":"4","last_reported":1745082486,"current_range_meters":14800,"station_id":"ce4bhbh2rcd13ifvqepg","pricing_plan_id":"cebpf4jnsgd1na2vs0mg"},{"bike_id":"15572984-94dd-404c-b34b-0eba775da91a","system_id":"levelo_inurba_marseille","lat":43.2502,"lon":5.38932,"is_reserved":false,"is_disabled":false,"rental_uris":{"android":"levelo://app?vid=15572984-94dd-404c-b34b-0eba775da91a","ios":"levelo://app?vid=15572984-94dd-404c-b34b-0eba775da91a"},"vehicle_type_id":"4","last_reported":1745082486,"current_range_meters":15200,"station_id":"ce4bhgp2rcd13ifvqfd0","pricing_plan_id":"cebpf4jnsgd1na2vs0mg"},{"bike_id":"6c255856-9c2c-4068-b54b-b637197bd464","system_id":"levelo_inurba_marseille","lat":43.30269,"lon":5.37691,"is_reserved":false,"is_disabled":false,"rental_uris":{"android":"levelo://app?vid=6c255856-9c2c-4068-b54b-b637197bd464","ios":"levelo://app?vid=6c255856-9c2c-4068-b54b-b637197bd464"},"vehicle_type_id":"4","last_reported":1745082486,"current_range_meters":15200,"station_id":"ce4bguh2rcd13ifvqcj0","pricing_plan_id":"cebpf4jnsgd1na2vs0mg"},{"bike_id":"0adb5513-68c4-46c9-ba13-6d229579eb21","system_id":"levelo_inurba_marseille","lat":43.29938,"lon":5.36556,"is_reserved":false,"is_disabled":false,"rental_uris":{"android":"levelo://app?vid=0adb5513-68c4-46c9-ba13-6d229579eb21","ios":"levelo://app?vid=0adb5513-68c4-46c9-ba13-6d229579eb21"},"vehicle_type_id":"4","last_reported":1745082486,"current_range_meters":15200,"station_id":"ce4bgm92rcd13ifvqbr0","pricing_plan_id":"cebpf4jnsgd1na2vs0mg"},{"bike_id":"5e7e83d6-8284-48e9-9372-797b9c44861d","system_id":"levelo_inurba_marseille","lat":43.26206,"lon":5.37934,"is_reserved":false,"is_disabled":false,"rental_uris":{"android":"levelo://app?vid=5e7e83d6-8284-48e9-9372-797b9c44861d","ios":"levelo://app?vid=5e7e83d6-8284-48e9-9372-797b9c44861d"},"vehicle_type_id":"4","last_reported":1745082486,"current_range_meters":15200,"station_id":"ce4bhjp2rcd13ifvqg90","pricing_plan_id":"cebpf4jnsgd1na2vs0mg"},{"bike_id":"d8c1d767-8274-47ee-b62f-f03e1e6accbb","system_id":"levelo_inurba_marseille","lat":43.24832,"lon":5.37457,"is_reserved":false,"is_disabled":false,"rental_uris":{"android":"levelo://app?vid=d8c1d767-8274-47ee-b62f-f03e1e6accbb","ios":"levelo://app?vid=d8c1d767-8274-47ee-b62f-f03e1e6accbb"},"vehicle_type_id":"4","last_reported":1745082486,"current_range_meters":16000,"station_id":"ce4bhgh2rcd13ifvqfb0","pricing_plan_id":"cebpf4jnsgd1na2vs0mg"},{"bike_id":"ac84d666-1929-494d-a2cf-c4f46d500c1f","system_id":"levelo_inurba_marseille","lat":43.29261,"lon":5.38451,"is_reserved":false,"is_disabled":false,"rental_uris":{"android":"levelo://app?vid=ac84d666-1929-494d-a2cf-c4f46d500c1f","ios":"levelo://app?vid=ac84d666-1929-494d-a2cf-c4f46d500c1f"},"vehicle_type_id":"4","last_reported":1745082486,"current_range_meters":16400,"station_id":"ce4bh692rcd13ifvqea0","pricing_plan_id":"cebpf4jnsgd1na2vs0mg"},{"bike_id":"57304c2a-5d56-4192-a247-737390c4af5d","system_id":"levelo_inurba_marseille","lat":43.23209,"lon":5.35534,"is_reserved":false,"is_disabled":false,"rental_uris":{"android":"levelo://app?vid=57304c2a-5d56-4192-a247-737390c4af5d","ios":"levelo://app?vid=57304c2a-5d56-4192-a247-737390c4af5d"},"vehicle_type_id":"4","last_reported":1745082486,"current_range_meters":16400,"station_id":"ce4bhu92rcd13ifvqi70","pricing_plan_id":"cebpf4jnsgd1na2vs0mg"},{"bike_id":"595b48c9-1e88-4986-baa8-99667dedc9fb","system_id":"levelo_inurba_marseille","lat":43.29067,"lon":5.37154,"is_reserved":false,"is_disabled":false,"rental_uris":{"android":"levelo://app?vid=595b48c9-1e88-4986-baa8-99667dedc9fb","ios":"levelo://app?vid=595b48c9-1e88-4986-baa8-99667dedc9fb"},"vehicle_type_id":"4","last_reported":1745082486,"current_range_meters":16400,"station_id":"ce4bh5p2rcd13ifvqe4g","pricing_plan_id":"cebpf4jnsgd1na2vs0mg"},{"bike_id":"e971cb3e-89af-4e45-a12b-76ae62070f9b","system_id":"levelo_inurba_marseille","lat":43.26505,"lon":5.39543,"is_reserved":false,"is_disabled":false,"rental_uris":{"android":"levelo://app?vid=e971cb3e-89af-4e45-a12b-76ae62070f9b","ios":"levelo://app?vid=e971cb3e-89af-4e45-a12b-76ae62070f9b"},"vehicle_type_id":"4","last_reported":1745082486,"current_range_meters":16400,"station_id":"ce4bhi12rcd13ifvqfq0","pricing_plan_id":"cebpf4jnsgd1na2vs0mg"},{"bike_id":"94f13275-e6ef-4496-b980-2eabc4d92cee","system_id":"levelo_inurba_marseille","lat":43.26193,"lon":5.37448,"is_reserved":false,"is_disabled":false,"rental_uris":{"android":"levelo://app?vid=94f13275-e6ef-4496-b980-2eabc4d92cee","ios":"levelo://app?vid=94f13275-e6ef-4496-b980-2eabc4d92cee"},"vehicle_type_id":"4","last_reported":1745082486,"current_range_meters":16400,"station_id":"ce4bhgp2rcd13ifvqfc0","pricing_plan_id":"cebpf4jnsgd1na2vs0mg"},{"bike_id":"d5ef647d-00ca-43ce-8de2-a9826ded3f15","system_id":"levelo_inurba_marseille","lat":43.21183,"lon":5.35084,"is_reserved":false,"is_disabled":false,"rental_uris":{"android":"levelo://app?vid=d5ef647d-00ca-43ce-8de2-a9826ded3f15","ios":"levelo://app?vid=d5ef647d-00ca-43ce-8de2-a9826ded3f15"},"vehicle_type_id":"4","last_reported":1745082486,"current_range_meters":16400,"station_id":"st_cvj6sg6p6f1abm77japg","pricing_plan_id":"cebpf4jnsgd1na2vs0mg"},{"bike_id":"e33770b8-9704-4ffa-9426-d155ddf8ab2c","system_id":"levelo_inurba_marseille","lat":43.30252,"lon":5.4006,"is_reserved":false,"is_disabled":false,"rental_uris":{"android":"levelo://app?vid=e33770b8-9704-4ffa-9426-d155ddf8ab2c","ios":"levelo://app?vid=e33770b8-9704-4ffa-9426-d155ddf8ab2c"},"vehicle_type_id":"4","last_reported":1745082486,"current_range_meters":16800,"station_id":"ce4bgvh2rcd13ifvqcs0","pricing_plan_id":"cebpf4jnsgd1na2vs0mg"},{"bike_id":"dcc78168-aa9b-4738-a163-c4551731c530","system_id":"levelo_inurba_marseille","lat":43.23052,"lon":5.35522,"is_reserved":false,"is_disabled":false,"rental_uris":{"android":"levelo://app?vid=dcc78168-aa9b-4738-a163-c4551731c530","ios":"levelo://app?vid=dcc78168-aa9b-4738-a163-c4551731c530"},"vehicle_type_id":"4","last_reported":1745082486,"current_range_meters":16800,"station_id":"cpo3342slgdg3j2ifvpg","pricing_plan_id":"cebpf4jnsgd1na2vs0mg"},{"bike_id":"0857cacd-0e30-450e-a5a2-f1cc86bd6114","system_id":"levelo_inurba_marseille","lat":43.27312,"lon":5.39085,"is_reserved":false,"is_disabled":false,"rental_uris":{"android":"levelo://app?vid=0857cacd-0e30-450e-a5a2-f1cc86bd6114","ios":"levelo://app?vid=0857cacd-0e30-450e-a5a2-f1cc86bd6114"},"vehicle_type_id":"4","last_reported":1745082486,"current_range_meters":16800,"station_id":"ce4bhgp2rcd13ifvqfe0","pricing_plan_id":"cebpf4jnsgd1na2vs0mg"},{"bike_id":"de529644-a84f-44f1-bcc1-e3d38f0c4616","system_id":"levelo_inurba_marseille","lat":43.29079,"lon":5.37182,"is_reserved":false,"is_disabled":false,"rental_uris":{"android":"levelo://app?vid=de529644-a84f-44f1-bcc1-e3d38f0c4616","ios":"levelo://app?vid=de529644-a84f-44f1-bcc1-e3d38f0c4616"},"vehicle_type_id":"4","last_reported":1745082486,"current_range_meters":16800,"station_id":"ce4bh5p2rcd13ifvqe4g","pricing_plan_id":"cebpf4jnsgd1na2vs0mg"},{"bike_id":"6186a45d-4f80-4e94-a5c7-46db45e20b68","system_id":"levelo_inurba_marseille","lat":43.27813,"lon":5.40715,"is_reserved":false,"is_disabled":false,"rental_uris":{"android":"levelo://app?vid=6186a45d-4f80-4e94-a5c7-46db45e20b68","ios":"levelo://app?vid=6186a45d-4f80-4e94-a5c7-46db45e20b68"},"vehicle_type_id":"4","last_reported":1745082486,"current_range_meters":16800,"station_id":"ce4bhnh2rcd13ifvqgtg","pricing_plan_id":"cebpf4jnsgd1na2vs0mg"},{"bike_id":"b5b2dec0-c721-4986-873c-c8130460c8fe","system_id":"levelo_inurba_marseille","lat":43.26947,"lon":5.40264,"is_reserved":false,"is_disabled":false,"rental_uris":{"android":"levelo://app?vid=b5b2dec0-c721-4986-873c-c8130460c8fe","ios":"levelo://app?vid=b5b2dec0-c721-4986-873c-c8130460c8fe"},"vehicle_type_id":"4","last_reported":1745082486,"current_range_meters":16800,"station_id":"cjm6bp8fraef2m0cb0m0","pricing_plan_id":"cebpf4jnsgd1na2vs0mg"},{"bike_id":"40d20bb0-27bd-458b-82a8-e932fd3cc8d5","system_id":"levelo_inurba_marseille","lat":43.27311,"lon":5.39068,"is_reserved":false,"is_disabled":false,"rental_uris":{"android":"levelo://app?vid=40d20bb0-27bd-458b-82a8-e932fd3cc8d5","ios":"levelo://app?vid=40d20bb0-27bd-458b-82a8-e932fd3cc8d5"},"vehicle_type_id":"4","last_reported":1745082486,"current_range_meters":16800,"station_id":"ce4bhgp2rcd13ifvqfe0","pricing_plan_id":"cebpf4jnsgd1na2vs0mg"},{"bike_id":"4c6dfc4c-6214-48f7-a285-517a1119fa67","system_id":"levelo_inurba_marseille","lat":43.30431,"lon":5.38886,"is_reserved":false,"is_disabled":false,"rental_uris":{"android":"levelo://app?vid=4c6dfc4c-6214-48f7-a285-517a1119fa67","ios":"levelo://app?vid=4c6dfc4c-6214-48f7-a285-517a1119fa67"},"vehicle_type_id":"4","last_reported":1745082486,"current_range_meters":17200,"station_id":"","pricing_plan_id":"cebpf4jnsgd1na2vs0mg"},{"bike_id":"bc23dadd-0ea1-45f6-9387-21853e474d5e","system_id":"levelo_inurba_marseille","lat":43.283494,"lon":5.381074,"is_reserved":false,"is_disabled":false,"rental_uris":{"android":"levelo://app?vid=bc23dadd-0ea1-45f6-9387-21853e474d5e","ios":"levelo://app?vid=bc23dadd-0ea1-45f6-9387-21853e474d5e"},"vehicle_type_id":"4","last_reported":1745082486,"current_range_meters":17200,"station_id":"ce4bh412rcd13ifvqdr0","pricing_plan_id":"cebpf4jnsgd1na2vs0mg"},