{"last_updated":1728284995,"ttl":60,"version":"2.2","data":{"bikes":[{"bike_id":"a3438bce-8f3e-4a13-beaf-430d326e0ab7","system_id":"levelo_inurba_marseille","lat":43.306458,"lon":5.409893,"is_reserved":false,"is_disabled":false,"rental_uris":{"android":"levelo://app?vid=a3438bce-8f3e-4a13-beaf-430d326e0ab7","ios":"levelo://app?vid=a3438bce-8f3e-4a13-beaf-430d326e0ab7"},"vehicle_type_id":"4","last_reported":1728284995,"current_range_meters":27200,"station_id":"ce4bhop2rcd13ifvqh8g","pricing_plan_id":"cebpf4jnsgd1na2vs0mg"},{"bike_id":"7a74c89a-bd19-403a-b9c7-f4acb6b6649d","system_id":"levelo_inurba_marseille","lat":43.2749,"lon":5.42456,"is_reserved":false,"is_disabled":false,"rental_uris":{"android":"levelo://app?vid=7a74c89a-bd19-403a-b9c7-f4acb6b6649d","ios":"levelo://app?vid=7a74c89a-bd19-403a-b9c7-f4acb6b6649d"},"vehicle_type_id":"4","last_reported":1728284995,"current_range_meters":24800,"station_id":"ce4bhn92rcd13ifvqgrg","pricing_plan_id":"cebpf4jnsgd1na2vs0mg"},{"bike_id":"601e0a35-ef0a-4c9d-bad9-539b9b5f5dd5","system_id":"levelo_inurba_marseille","lat":43.23149,"lon":5.4372,"is_reserved":false,"is_disabled":false,"rental_uris":{"android":"levelo://app?vid=601e0a35-ef0a-4c9d-bad9-539b9b5f5dd5","ios":"levelo://app?vid=601e0a35-ef0a-4c9d-bad9-539b9b5f5dd5"},"vehicle_type_id":"4","last_reported":1728284995,"current_range_meters":25600,"station_id":"ce4bhmp2rcd13ifvqgog","pricing_plan_id":"cebpf4jnsgd1na2vs0mg"},{"bike_id":"9840128e-20cc-4d85-941b-d961e61c1c08","system_id":"levelo_inurba_marseille","lat":43.23164,"lon":5.43744,"is_reserved":false,"is_disabled":false,"rental_uris":{"android":"levelo://app?vid=9840128e-20cc-4d85-941b-d961e61c1c08","ios":"levelo://app?vid=9840128e-20cc-4d85-941b-d961e61c1c08"},"vehicle_type_id":"4","last_reported":1728284995,"current_range_meters":8400,"station_id":"ce4bhmp2rcd13ifvqgog","pricing_plan_id":"cebpf4jnsgd1na2vs0mg"},{"bike_id":"ef6956f5-eddf-4312-b28a-5d86c6b10f7c","system_id":"levelo_inurba_marseille","lat":43.30275,"lon":5.377,"is_reserved":false,"is_disabled":false,"rental_uris":{"android":"levelo://app?vid=ef6956f5-eddf-4312-b28a-5d86c6b10f7c","ios":"levelo://app?vid=ef6956f5-eddf-4312-b28a-5d86c6b10f7c"},"vehicle_type_id":"4","last_reported":1728284995,"current_range_meters":38800,"station_id":"ce4bguh2rcd13ifvqcj0","pricing_plan_id":"cebpf4jnsgd1na2vs0mg"},{"bike_id":"157600a6-2c54-4f56-a685-87f32fa2fd21","system_id":"levelo_inurba_marseille","lat":43.297132,"lon":5.366095,"is_reserved":false,"is_disabled":false,"rental_uris":{"android":"levelo://app?vid=157600a6-2c54-4f56-a685-87f32fa2fd21","ios":"levelo://app?vid=157600a6-2c54-4f56-a685-87f32fa2fd21"},"vehicle_type_id":"4","last_reported":1728284995,"current_range_meters":6800,"station_id":"","pricing_plan_id":"cebpf4jnsgd1na2vs0mg"},{"bike_id":"3edccbad-c604-40df-acb2-6e9d91b67298","system_id":"levelo_inurba_marseille","lat":43.23056,"lon":5.35487,"is_reserved":false,"is_disabled":false,"rental_uris":{"android":"levelo://app?vid=3edccbad-c604-40df-acb2-6e9d91b67298","ios":"levelo://app?vid=3edccbad-c604-40df-acb2-6e9d91b67298"},"vehicle_type_id":"4","last_reported":1728284995,"current_range_meters":22800,"station_id":"cpo3342slgdg3j2ifvpg","pricing_plan_id":"cebpf4jnsgd1na2vs0mg"},{"bike_id":"788ae801-7e44-4103-8c25-851c057cbb99","system_id":"levelo_inurba_marseille","lat":43.30173,"lon":5.38067,"is_reserved":false,"is_disabled":false,"rental_uris":{"android":"levelo://app?vid=788ae801-7e44-4103-8c25-851c057cbb99","ios":"levelo://app?vid=788ae801-7e44-4103-8c25-851c057cbb99"},"vehicle_type_id":"4","last_reported":1728284995,"current_range_meters":28000,"station_id":"ce4bgjp2rcd13ifvqbh0","pricing_plan_id":"cebpf4jnsgd1na2vs0mg"},{"bike_id":"6e39b554-957d-41b1-9b50-f6e7bbcd6957","system_id":"levelo_inurba_marseille","lat":43.240684,"lon":5.377658,"is_reserved":false,"is_disabled":false,"rental_uris":{"android":"levelo://app?vid=6e39b554-957d-41b1-9b50-f6e7bbcd6957","ios":"levelo://app?vid=6e39b554-957d-41b1-9b50-f6e7bbcd6957"},"vehicle_type_id":"4","last_reported":1728284995,"current_range_meters":38400,"station_id":"ce4bhnp2rcd13ifvqgvg","pricing_plan_id":"cebpf4jnsgd1na2vs0mg"},{"bike_id":"fe5fa97b-028a-43f5-99d5-d609a6328ca8","system_id":"levelo_inurba_marseille","lat":43.31358,"lon":5.38493,"is_reserved":false,"is_disabled":false,"rental_uris":{"android":"levelo://app?vid=fe5fa97b-028a-43f5-99d5-d609a6328ca8","ios":"levelo://app?vid=fe5fa97b-028a-43f5-99d5-d609a6328ca8"},"vehicle_type_id":"4","last_reported":1728284995,"current_range_meters":27200,"station_id":"ce4bh0p2rcd13ifvqd80","pricing_plan_id":"cebpf4jnsgd1na2vs0mg"},{"bike_id":"cd5a5f40-4417-4ba3-9500-d4e28dea01ea","system_id":"levelo_inurba_marseille","lat":43.27492,"lon":5.42479,"is_reserved":false,"is_disabled":false,"rental_uris":{"android":"levelo://app?vid=cd5a5f40-4417-4ba3-9500-d4e28dea01ea","ios":"levelo://app?vid=cd5a5f40-4417-4ba3-9500-d4e28dea01ea"},"vehicle_type_id":"4","last_reported":1728284995,"current_range_meters":22800,"station_id":"ce4bhn92rcd13ifvqgrg","pricing_plan_id":"cebpf4jnsgd1na2vs0mg"},{"bike_id":"7c3acb4c-8811-42c8-98ab-05cf388495cd","system_id":"levelo_inurba_marseille","lat":43.25933,"lon":5.40917,"is_reserved":false,"is_disabled":false,"rental_uris":{"android":"levelo://app?vid=7c3acb4c-8811-42c8-98ab-05cf388495cd","ios":"levelo://app?vid=7c3acb4c-8811-42c8-98ab-05cf388495cd"},"vehicle_type_id":"4","last_reported":1728284995,"current_range_meters":27600,"station_id":"ce4bhm92rcd13ifvqglg","pricing_plan_id":"cebpf4jnsgd1na2vs0mg"},{"bike_id":"3d3e93be-8a67-4628-9af2-2661c9a0daa4","system_id":"levelo_inurba_marseille","lat":43.2293,"lon":5.35381,"is_reserved":false,"is_disabled":false,"rental_uris":{"android":"levelo://app?vid=3d3e93be-8a67-4628-9af2-2661c9a0daa4","ios":"levelo://app?vid=3d3e93be-8a67-4628-9af2-2661c9a0daa4"},"vehicle_type_id":"4","last_reported":1728284995,"current_range_meters":32400,"station_id":"cpo3532slgdg3j2ikp40","pricing_plan_id":"cebpf4jnsgd1na2vs0mg"},{"bike_id":"83bd8e08-648e-4fc6-8901-05219804adac","system_id":"levelo_inurba_marseille","lat":43.22931,"lon":5.35378,"is_reserved":false,"is_disabled":false,"rental_uris":{"android":"levelo://app?vid=83bd8e08-648e-4fc6-8901-05219804adac","ios":"levelo://app?vid=83bd8e08-648e-4fc6-8901-05219804adac"},"vehicle_type_id":"4","last_reported":1728284995,"current_range_meters":26800,"station_id":"cpo3532slgdg3j2ikp40","pricing_plan_id":"cebpf4jnsgd1na2vs0mg"},{"bike_id":"7682acca-7fd1-43d3-a81b-cb243d7203cf","system_id":"levelo_inurba_marseille","lat":43.31226,"lon":5.368627,"is_reserved":false,"is_disabled":false,"rental_uris":{"android":"levelo://app?vid=7682acca-7fd1-43d3-a81b-cb243d7203cf","ios":"levelo://app?vid=7682acca-7fd1-43d3-a81b-cb243d7203cf"},"vehicle_type_id":"4","last_reported":1728284995,"current_range_meters":11600,"station_id":"ce4bgl92rcd13ifvqbq0","pricing_plan_id":"cebpf4jnsgd1na2vs0mg"},{"bike_id":"81b07a05-4c57-4e76-99d6-5f6e3acbb201","system_id":"levelo_inurba_marseille","lat":43.23065,"lon":5.35486,"is_reserved":false,"is_disabled":false,"rental_uris":{"android":"levelo://app?vid=81b07a05-4c57-4e76-99d6-5f6e3acbb201","ios":"levelo://app?vid=81b07a05-4c57-4e76-99d6-5f6e3acbb201"},"vehicle_type_id":"4","last_reported":1728284995,"current_range_meters":14000,"station_id":"cpo3342slgdg3j2ifvpg","pricing_plan_id":"cebpf4jnsgd1na2vs0mg"},{"bike_id":"a0415ac1-17fc-48cb-86ae-9c6faa753ffd","system_id":"levelo_inurba_marseille","lat":43.299194,"lon":5.371816,"is_reserved":false,"is_disabled":false,"rental_uris":{"android":"levelo://app?vid=a0415ac1-17fc-48cb-86ae-9c6faa753ffd","ios":"levelo://app?vid=a0415ac1-17fc-48cb-86ae-9c6faa753ffd"},"vehicle_type_id":"4","last_reported":1728284995,"current_range_meters":12800,"station_id":"ce4bgr92rcd13ifvqc7g","pricing_plan_id":"cebpf4jnsgd1na2vs0mg"},{"bike_id":"5b1770e4-c9be-450e-82c9-49bf93617411","system_id":"levelo_inurba_marseille","lat":43.29781,"lon":5.37115,"is_reserved":false,"is_disabled":false,"rental_uris":{"android":"levelo://app?vid=5b1770e4-c9be-450e-82c9-49bf93617411","ios":"levelo://app?vid=5b1770e4-c9be-450e-82c9-49bf93617411"},"vehicle_type_id":"4","last_reported":1728284995,"current_range_meters":27600,"station_id":"ce4bgop2rcd13ifvqc1g","pricing_plan_id":"cebpf4jnsgd1na2vs0mg"},{"bike_id":"7b5acb30-7728-4d2f-b8de-cc88114cf385","system_id":"levelo_inurba_marseille","lat":43.23153,"lon":5.43721,"is_reserved":false,"is_disabled":false,"rental_uris":{"android":"levelo://app?vid=7b5acb30-7728-4d2f-b8de-cc88114cf385","ios":"levelo://app?vid=7b5acb30-7728-4d2f-b8de-cc88114cf385"},"vehicle_type_id":"4","last_reported":1728284995,"current_range_meters":38800,"station_id":"ce4bhmp2rcd13ifvqgog","pricing_plan_id":"cebpf4jnsgd1na2vs0mg"},{"bike_id":"2861f3e3-0324-4046-963b-1508529b940f","system_id":"levelo_inurba_marseille","lat":43.31349,"lon":5.3672,"is_reserved":false,"is_disabled":false,"rental_uris":{"android":"levelo://app?vid=2861f3e3-0324-4046-963b-1508529b940f","ios":"levelo://app?vid=2861f3e3-0324-4046-963b-1508529b940f"},"vehicle_type_id":"4","last_reported":1728284995,"current_range_meters":29600,"station_id":"ce4bgr92rcd13ifvqc6g","pricing_plan_id":"cebpf4jnsgd1na2vs0mg"},{"bike_id":"e2200a0d-12da-4459-b8f5-161f17ffb2d2","system_id":"levelo_inurba_marseille","lat":43.31369,"lon":5.36695,"is_reserved":false,"is_disabled":false,"rental_uris":{"android":"levelo://app?vid=e2200a0d-12da-4459-b8f5-161f17ffb2d2","ios":"levelo://app?vid=e2200a0d-12da-4459-b8f5-161f17ffb2d2"},"vehicle_type_id":"4","last_reported":1728284995,"current_range_meters":34800,"station_id":"ce4bgr92rcd13ifvqc6g","pricing_plan_id":"cebpf4jnsgd1na2vs0mg"},{"bike_id":"6601027d-e3e4-4aee-81e2-2ce4f906b542","system_id":"levelo_inurba_marseille","lat":43.3015,"lon":5.37426,"is_reserved":false,"is_disabled":false,"rental_uris":{"android":"levelo://app?vid=6601027d-e3e4-4aee-81e2-2ce4f906b542","ios":"levelo://app?vid=6601027d-e3e4-4aee-81e2-2ce4f906b542"},"vehicle_type_id":"4","last_reported":1728284995,"current_range_meters":25200,"station_id":"ce4bgs92rcd13ifvqcc0","pricing_plan_id":"cebpf4jnsgd1na2vs0mg"},{"bike_id":"626804b4-5ba9-43ab-8f7c-c0afdee8e2dd","system_id":"levelo_inurba_marseille","lat":43.27999,"lon":5.40026,"is_reserved":false,"is_disabled":false,"rental_uris":{"android":"levelo://app?vid=626804b4-5ba9-43ab-8f7c-c0afdee8e2dd","ios":"levelo://app?vid=626804b4-5ba9-43ab-8f7c-c0afdee8e2dd"},"vehicle_type_id":"4","last_reported":1728284995,"current_range_meters":13600,"station_id":"ce4bho92rcd13ifvqh4g","pricing_plan_id":"cebpf4jnsgd1na2vs0mg"},{"bike_id":"32ab325a-0e98-4bb3-809c-c26d46577549","system_id":"levelo_inurba_marseille","lat":43.22937,"lon":5.35373,"is_reserved":false,"is_disabled":false,"rental_uris":{"android":"levelo://app?vid=32ab325a-0e98-4bb3-809c-c26d46577549","ios":"levelo://app?vid=32ab325a-0e98-4bb3-809c-c26d46577549"},"vehicle_type_id":"4","last_reported":1728284995,"current_range_meters":23200,"station_id":"cpo3532slgdg3j2ikp40","pricing_plan_id":"cebpf4jnsgd1na2vs0mg"},{"bike_id":"21814611-01da-4a56-bde2-76253f0cdaa1","system_id":"levelo_inurba_marseille","lat":43.27075,"lon":5.42281,"is_reserved":false,"is_disabled":false,"rental_uris":{"android":"levelo://app?vid=21814611-01da-4a56-bde2-76253f0cdaa1","ios":"levelo://app?vid=21814611-01da-4a56-bde2-76253f0cdaa1"},"vehicle_type_id":"4","last_reported":1728284995,"current_range_meters":38800,"station_id":"ce4bhk92rcd13ifvqgb0","pricing_plan_id":"cebpf4jnsgd1na2vs0mg"},{"bike_id":"4d73853f-2ee2-42b3-a713-3619fc35a409","system_id":"levelo_inurba_marseille","lat":43.26806,"lon":5.40267,"is_reserved":false,"is_disabled":false,"rental_uris":{"android":"levelo://app?vid=4d73853f-2ee2-42b3-a713-3619fc35a409","ios":"levelo://app?vid=4d73853f-2ee2-42b3-a713-3619fc35a409"},"vehicle_type_id":"4","last_reported":1728284995,"current_range_meters":32000,"station_id":"ce501612rcd8frsf0b60","pricing_plan_id":"cebpf4jnsgd1na2vs0mg"},{"bike_id":"a3c78e45-f1bd-458f-b4ec-4d0099e4009a","system_id":"levelo_inurba_marseille","lat":43.29058,"lon":5.3716,"is_reserved":false,"is_disabled":false,"rental_uris":{"android":"levelo://app?vid=a3c78e45-f1bd-458f-b4ec-4d0099e4009a","ios":"levelo://app?vid=a3c78e45-f1bd-458f-b4ec-4d0099e4009a"},"vehicle_type_id":"4","last_reported":1728284995,"current_range_meters":18000,"station_id":"ce4bh5p2rcd13ifvqe4g","pricing_plan_id":"cebpf4jnsgd1na2vs0mg"},{"bike_id":"5345be8f-7fb4-4256-8824-f8d71c4a0ba2","system_id":"levelo_inurba_marseille","lat":43.292949,"lon":5.401837,"is_reserved":false,"is_disabled":false,"rental_uris":{"android":"levelo://app?vid=5345be8f-7fb4-4256-8824-f8d71c4a0ba2","ios":"levelo://app?vid=5345be8f-7fb4-4256-8824-f8d71c4a0ba2"},"vehicle_type_id":"4","last_reported":1728284995,"current_range_meters":21600,"station_id":"","pricing_plan_id":"cebpf4jnsgd1na2vs0mg"},{"bike_id":"791d327b-ece7-4e56-87b0-a0163dafa8c0","system_id":"levelo_inurba_marseille","lat":43.29621,"lon":5.3717,"is_reserved":false,"is_disabled":false,"rental_uris":{"android":"levelo://app?vid=791d327b-ece7-4e56-87b0-a0163dafa8c0","ios":"levelo://app?vid=791d327b-ece7-4e56-87b0-a0163dafa8c0"},"vehicle_type_id":"4","last_reported":1728284995,"current_range_meters":29600,"station_id":"ce4bgnh2rcd13ifvqc0g","pricing_plan_id":"cebpf4jnsgd1na2vs0mg"},{"bike_id":"d1d419d3-bbbc-4172-85f3-ae4285bf0f8c","system_id":"levelo_inurba_marseille","lat":43.2408,"lon":5.37758,"is_reserved":false,"is_disabled":false,"rental_uris":{"android":"levelo://app?vid=d1d419d3-bbbc-4172-85f3-ae4285bf0f8c","ios":"levelo://app?vid=d1d419d3-bbbc-4172-85f3-ae4285bf0f8c"},"vehicle_type_id":"4","last_reported":1728284995,"current_range_meters":20400,"station_id":"ce4bhnp2rcd13ifvqgvg","pricing_plan_id":"cebpf4jnsgd1na2vs0mg"},{"bike_id":"aea6280b-cdd4-4154-919f-9a5c82db0da6","system_id":"levelo_inurba_marseille","lat":43.33612,"lon":5.41028,"is_reserved":false,"is_disabled":false,"rental_uris":{"android":"levelo://app?vid=aea6280b-cdd4-4154-919f-9a5c82db0da6","ios":"levelo://app?vid=aea6280b-cdd4-4154-919f-9a5c82db0da6"},"vehicle_type_id":"4","last_reported":1728284995,"current_range_meters":20800,"station_id":"ce4bhqh2rcd13ifvqhmg","pricing_plan_id":"cebpf4jnsgd1na2vs0mg"},{"bike_id":"8c4ede2a-8479-4951-912b-e9104b176599","system_id":"levelo_inurba_marseille","lat":43.33728,"lon":5.39192,"is_reserved":false,"is_disabled":false,"rental_uris":{"android":"levelo://app?vid=8c4ede2a-8479-4951-912b-e9104b176599","ios":"levelo://app?vid=8c4ede2a-8479-4951-912b-e9104b176599"},"vehicle_type_id":"4","last_reported":1728284995,"current_range_meters":3200,"station_id":"ce4bhr92rcd13ifvqhsg","pricing_plan_id":"cebpf4jnsgd1na2vs0mg"},{"bike_id":"5b8f0a30-9eed-4db0-b2a8-9b55c1a6fc53","system_id":"levelo_inurba_marseille","lat":43.31351,"lon":5.36716,"is_reserved":false,"is_disabled":false,"rental_uris":{"android":"levelo://app?vid=5b8f0a30-9eed-4db0-b2a8-9b55c1a6fc53","ios":"levelo://app?vid=5b8f0a30-9eed-4db0-b2a8-9b55c1a6fc53"},"vehicle_type_id":"4","last_reported":1728284995,"current_range_meters":24400,"station_id":"ce4bgr92rcd13ifvqc6g","pricing_plan_id":"cebpf4jnsgd1na2vs0mg"},{"bike_id":"4018fa26-9a2a-4214-af21-76b3667a940b","system_id":"levelo_inurba_marseille","lat":43.32433,"lon":5.37825,"is_reserved":false,"is_disabled":false,"rental_uris":{"android":"levelo://app?vid=4018fa26-9a2a-4214-af21-76b3667a940b","ios":"levelo://app?vid=4018fa26-9a2a-4214-af21-76b3667a940b"},"vehicle_type_id":"4","last_reported":1728284995,"current_range_meters":24400,"station_id":"","pricing_plan_id":"cebpf4jnsgd1na2vs0mg"},{"bike_id":"35db5aab-a536-4286-87d7-90ec43783f24","system_id":"levelo_inurba_marseille","lat":43.23194,"lon":5.35553,"is_reserved":false,"is_disabled":false,"rental_uris":{"android":"levelo://app?vid=35db5aab-a536-4286-87d7-90ec43783f24","ios":"levelo://app?vid=35db5aab-a536-4286-87d7-90ec43783f24"},"vehicle_type_id":"4","last_reported":1728284995,"current_range_meters":36800,"station_id":"ce4bhu92rcd13ifvqi70","pricing_plan_id":"cebpf4jnsgd1na2vs0mg"},{"bike_id":"ac7477e2-647f-4698-b2f1-05ac6bd7ca79","system_id":"levelo_inurba_marseille","lat":43.27384,"lon":5.36264,"is_reserved":false,"is_disabled":false,"rental_uris":{"android":"levelo://app?vid=ac7477e2-647f-4698-b2f1-05ac6bd7ca79","ios":"levelo://app?vid=ac7477e2-647f-4698-b2f1-05ac6bd7ca79"},"vehicle_type_id":"4","last_reported":1728284995,"current_range_meters":28800,"station_id":"ce4bhbh2rcd13ifvqeo0","pricing_plan_id":"cebpf4jnsgd1na2vs0mg"},{"bike_id":"27ae6162-a08c-49d0-85b6-ce403e02864e","system_id":"levelo_inurba_marseille","lat":43.31494,"lon":5.37304,"is_reserved":false,"is_disabled":false,"rental_uris":{"android":"levelo://app?vid=27ae6162-a08c-49d0-85b6-ce403e02864e","ios":"levelo://app?vid=27ae6162-a08c-49d0-85b6-ce403e02864e"},"vehicle_type_id":"4","last_reported":1728284995,"current_range_meters":39200,"station_id":"ce4bgt12rcd13ifvqcd0","pricing_plan_id":"cebpf4jnsgd1na2vs0mg"},{"bike_id":"62dfd99c-f976-4937-b2d0-5b50f5ae699f","system_id":"levelo_inurba_marseille","lat":43.24166,"lon":5.36405,"is_reserved":false,"is_disabled":false,"rental_uris":{"android":"levelo://app?vid=62dfd99c-f976-4937-b2d0-5b50f5ae699f","ios":"levelo://app?vid=62dfd99c-f976-4937-b2d0-5b50f5ae699f"},"vehicle_type_id":"4","last_reported":1728284995,"current_range_meters":11200,"station_id":"cpo36qri1sfpv3e86is0","pricing_plan_id":"cebpf4jnsgd1na2vs0mg"},{"bike_id":"a6530365-194e-4e15-a9ab-70c867665fe4","system_id":"levelo_inurba_marseille","lat":43.27887,"lon":5.405843,"is_reserved":false,"is_disabled":false,"rental_uris":{"android":"levelo://app?vid=a6530365-194e-4e15-a9ab-70c867665fe4","ios":"levelo://app?vid=a6530365-194e-4e15-a9ab-70c867665fe4"},"vehicle_type_id":"4","last_reported":1728284995,"current_range_meters":21600,"station_id":"ce4bhh92rcd13ifvqfj0","pricing_plan_id":"cebpf4jnsgd1na2vs0mg"},{"bike_id":"491813ec-5bcd-4eda-acb2-c01ccb4e9894","system_id":"levelo_inurba_marseille","lat":43.33396,"lon":5.37721,"is_reserved":false,"is_disabled":false,"rental_uris":{"android":"levelo://app?vid=491813ec-5bcd-4eda-acb2-c01ccb4e9894","ios":"levelo://app?vid=491813ec-5bcd-4eda-acb2-c01ccb4e9894"},"vehicle_type_id":"4","last_reported":1728284995,"current_range_meters":20400,"station_id":"","pricing_plan_id":"cebpf4jnsgd1na2vs0mg"},{"bike_id":"23c14b3c-a751-4109-bb74-0ad6b39787af","system_id":"levelo_inurba_marseille","lat":43.24078,"lon":5.37754,"is_reserved":false,"is_disabled":false,"rental_uris":{"android":"levelo://app?vid=23c14b3c-a751-4109-bb74-0ad6b39787af","ios":"levelo://app?vid=23c14b3c-a751-4109-bb74-0ad6b39787af"},"vehicle_type_id":"4","last_reported":1728284995,"current_range_meters":38400,"station_id":"ce4bhnp2rcd13ifvqgvg","pricing_plan_id":"cebpf4jnsgd1na2vs0mg"},{"bike_id":"a8782ed9-d276-47bb-8c0f-80f7501deb94","system_id":"levelo_inurba_marseille","lat":43.30146,"lon":5.38081,"is_reserved":false,"is_disabled":false,"rental_uris":{"android":"levelo://app?vid=a8782ed9-d276-47bb-8c0f-80f7501deb94","ios":"levelo://app?vid=a8782ed9-d276-47bb-8c0f-80f7501deb94"},"vehicle_type_id":"4","last_reported":1728284995,"current_range_meters":24800,"station_id":"ce4bgjp2rcd13ifvqbh0","pricing_plan_id":"cebpf4jnsgd1na2vs0mg"},{"bike_id":"ae15bf0e-081e-4272-b73c-ff1d32656f13","system_id":"levelo_inurba_marseille","lat":43.24548,"lon":5.39529,"is_reserved":false,"is_disabled":false,"rental_uris":{"android":"levelo://app?vid=ae15bf0e-081e-4272-b73c-ff1d32656f13","ios":"levelo://app?vid=ae15bf0e-081e-4272-b73c-ff1d32656f13"},"vehicle_type_id":"4","last_reported":1728284995,"current_range_meters":38800,"station_id":"ce4bhlp2rcd13ifvqgjg","pricing_plan_id":"cebpf4jnsgd1na2vs0mg"},{"bike_id":"a7d39e11-88db-47a1-b559-47b761427f0e","system_id":"levelo_inurba_marseille","lat":43.25937,"lon":5.40908,"is_reserved":false,"is_disabled":false,"rental_uris":{"android":"levelo://app?vid=a7d39e11-88db-47a1-b559-47b761427f0e","ios":"levelo://app?vid=a7d39e11-88db-47a1-b559-47b761427f0e"},"vehicle_type_id":"4","last_reported":1728284995,"current_range_meters":34000,"station_id":"ce4bhm92rcd13ifvqglg","pricing_plan_id":"cebpf4jnsgd1na2vs0mg"},{"bike_id":"6ecc3250-1b8f-4fe4-9af2-4af6d50ffd76","system_id":"levelo_inurba_marseille","lat":43.25933,"lon":5.40909,"is_reserved":false,"is_disabled":false,"rental_uris":{"android":"levelo://app?vid=6ecc3250-1b8f-4fe4-9af2-4af6d50ffd76","ios":"levelo://app?vid=6ecc3250-1b8f-4fe4-9af2-4af6d50ffd76"},"vehicle_type_id":"4","last_reported":1728284995,"current_range_meters":22800,"station_id":"ce4bhm92rcd13ifvqglg","pricing_plan_id":"cebpf4jnsgd1na2vs0mg"},{"bike_id":"baba7691-81ff-4c7d-90d9-c89eba9696cb","system_id":"levelo_inurba_marseille","lat":43.25931,"lon":5.40913,"is_reserved":false,"is_disabled":false,"rental_uris":{"android":"levelo://app?vid=baba7691-81ff-4c7d-90d9-c89eba9696cb","ios":"levelo://app?vid=baba7691-81ff-4c7d-90d9-c89eba9696cb"},"vehicle_type_id":"4","last_reported":1728284995,"current_range_meters":28000,"station_id":"ce4bhm92rcd13ifvqglg","pricing_plan_id":"cebpf4jnsgd1na2vs0mg"},{"bike_id":"b1a42782-3ee6-4e5c-aa06-ed242166d1ed","system_id":"levelo_inurba_marseille","lat":43.32111,"lon":5.3677,"is_reserved":false,"is_disabled":false,"rental_uris":{"android":"levelo://app?vid=b1a42782-3ee6-4e5c-aa06-ed242166d1ed","ios":"levelo://app?vid=b1a42782-3ee6-4e5c-aa06-ed242166d1ed"},"vehicle_type_id":"4","last_reported":1728284995,"current_range_meters":36000,"station_id":"ce4bhrh2rcd13ifvqhug","pricing_plan_id":"cebpf4jnsgd1na2vs0mg"},{"bike_id":"ec9c2a56-2b62-49bb-9e7d-3f85dfb294ae","system_id":"levelo_inurba_marseille","lat":43.30197,"lon":5.36628,"is_reserved":false,"is_disabled":false,"rental_uris":{"android":"levelo://app?vid=ec9c2a56-2b62-49bb-9e7d-3f85dfb294ae","ios":"levelo://app?vid=ec9c2a56-2b62-49bb-9e7d-3f85dfb294ae"},"vehicle_type_id":"4","last_reported":1728284995,"current_range_meters":36000,"station_id":"ce4bgrh2rcd13ifvqc8g","pricing_plan_id":"cebpf4jnsgd1na2vs0mg"},{"bike_id":"aee5fe69-67ed-4185-b2b7-632403637692","system_id":"levelo_inurba_marseille","lat":43.30473,"lon":5.37908,"is_reserved":false,"is_disabled":false,"rental_uris":{"android":"levelo://app?vid=aee5fe69-67ed-4185-b2b7-632403637692","ios":"levelo://app?vid=aee5fe69-67ed-4185-b2b7-632403637692"},"vehicle_type_id":"4","last_reported":1728284995,"current_range_meters":20000,"station_id":"ce4bgup2rcd13ifvqcn0","pricing_plan_id":"cebpf4jnsgd1na2vs0mg"},{"bike_id":"6ae7d0e0-1623-4439-8d68-fec3c5db110c","system_id":"levelo_inurba_marseille","lat":43.22936,"lon":5.3538,"is_reserved":false,"is_disabled":false,"rental_uris":{"android":"levelo://app?vid=6ae7d0e0-1623-4439-8d68-fec3c5db110c","ios":"levelo://app?vid=6ae7d0e0-1623-4439-8d68-fec3c5db110c"},"vehicle_type_id":"4","last_reported":1728284995,"current_range_meters":33600,"station_id":"cpo3532slgdg3j2ikp40","pricing_plan_id":"cebpf4jnsgd1na2vs0mg"},{"bike_id":"c73f082a-a25e-488f-bfd2-4d4b6315be75","system_id":"levelo_inurba_marseille","lat":43.24075,"lon":5.37765,"is_reserved":false,"is_disabled":false,"rental_uris":{"android":"levelo://app?vid=c73f082a-a25e-488f-bfd2-4d4b6315be75","ios":"levelo://app?vid=c73f082a-a25e-488f-bfd2-4d4b6315be75"},"vehicle_type_id":"4","last_reported":1728284995,"current_range_meters":34800,"station_id":"ce4bhnp2rcd13ifvqgvg","pricing_plan_id":"cebpf4jnsgd1na2vs0mg"},{"bike_id":"4af55307-045f-4c66-a045-a91d88bb4c16","system_id":"levelo_inurba_marseille","lat":43.22935,"lon":5.35375,"is_reserved":false,"is_disabled":false,"rental_uris":{"android":"levelo://app?vid=4af55307-045f-4c66-a045-a91d88bb4c16","ios":"levelo://app?vid=4af55307-045f-4c66-a045-a91d88bb4c16"},"vehicle_type_id":"4","last_reported":1728284995,"current_range_meters":27600,"station_id":"cpo3532slgdg3j2ikp40","pricing_plan_id":"cebpf4jnsgd1na2vs0mg"},{"bike_id":"7f2ae17d-1aa3-40df-9dbc-f969d72b9f37","system_id":"levelo_inurba_marseille","lat":43.27813,"lon":5.40715,"is_reserved":false,"is_disabled":false,"rental_uris":{"android":"levelo://app?vid=7f2ae17d-1aa3-40df-9dbc-f969d72b9f37","ios":"levelo://app?vid=7f2ae17d-1aa3-40df-9dbc-f969d72b9f37"},"vehicle_type_id":"4","last_reported":1728284995,"current_range_meters":34000,"station_id":"ce4bhnh2rcd13ifvqgtg","pricing_plan_id":"cebpf4jnsgd1na2vs0mg"},{"bike_id":"49dc246d-1a06-4047-bfb6-bd7b1d5169df","system_id":"levelo_inurba_marseille","lat":43.29707,"lon":5.37713,"is_reserved":false,"is_disabled":false,"rental_uris":{"android":"levelo://app?vid=49dc246d-1a06-4047-bfb6-bd7b1d5169df","ios":"levelo://app?vid=49dc246d-1a06-4047-bfb6-bd7b1d5169df"},"vehicle_type_id":"4","last_reported":1728284995,"current_range_meters":4800,"station_id":"ce4bgkh2rcd13ifvqbl0","pricing_plan_id":"cebpf4jnsgd1na2vs0mg"},{"bike_id":"13a35d1a-1c21-4cdd-9282-17040c700716","system_id":"levelo_inurba_marseille","lat":43.32538,"lon":5.41441,"is_reserved":false,"is_disabled":false,"rental_uris":{"android":"levelo://app?vid=13a35d1a-1c21-4cdd-9282-17040c700716","ios":"levelo://app?vid=13a35d1a-1c21-4cdd-9282-17040c700716"},"vehicle_type_id":"4","last_reported":1728284995,"current_range_meters":30800,"station_id":"ce4bhq12rcd13ifvqhhg","pricing_plan_id":"cebpf4jnsgd1na2vs0mg"},{"bike_id":"6482b1fb-67cb-4384-a7c9-6c0a7b56e3b4","system_id":"levelo_inurba_marseille","lat":43.28855,"lon":5.43323,"is_reserved":false,"is_disabled":false,"rental_uris":{"android":"levelo://app?vid=6482b1fb-67cb-4384-a7c9-6c0a7b56e3b4","ios":"levelo://app?vid=6482b1fb-67cb-4384-a7c9-6c0a7b56e3b4"},"vehicle_type_id":"4","last_reported":1728284995,"current_range_meters":7200,"station_id":"","pricing_plan_id":"cebpf4jnsgd1na2vs0mg"},{"bike_id":"489f53b7-c684-4184-9256-adc6cd911843","system_id":"levelo_inurba_marseille","lat":43.30472,"lon":5.3789,"is_reserved":false,"is_disabled":false,"rental_uris":{"android":"levelo://app?vid=489f53b7-c684-4184-9256-adc6cd911843","ios":"levelo://app?vid=489f53b7-c684-4184-9256-adc6cd911843"},"vehicle_type_id":"4","last_reported":1728284995,"current_range_meters":16400,"station_id":"ce4bgup2rcd13ifvqcn0","pricing_plan_id":"cebpf4jnsgd1na2vs0mg"},{"bike_id":"1e592842-3390-46e6-95ec-f120a36922c9","system_id":"levelo_inurba_marseille","lat":43.2316,"lon":5.43708,"is_reserved":false,"is_disabled":false,"rental_uris":{"android":"levelo://app?vid=1e592842-3390-46e6-95ec-f120a36922c9","ios":"levelo://app?vid=1e592842-3390-46e6-95ec-f120a36922c9"},"vehicle_type_id":"4","last_reported":1728284995,"current_range_meters":18000,"station_id":"ce4bhmp2rcd13ifvqgog","pricing_plan_id":"cebpf4jnsgd1na2vs0mg"},{"bike_id":"cc14590c-a011-4779-bac7-aefb9a924a90","system_id":"levelo_inurba_marseille","lat":43.25002,"lon":5.38919,"is_reserved":false,"is_disabled":false,"rental_uris":{"android":"levelo://app?vid=cc14590c-a011-4779-bac7-aefb9a924a90","ios":"levelo://app?vid=cc14590c-a011-4779-bac7-aefb9a924a90"},"vehicle_type_id":"4","last_reported":1728284995,"current_range_meters":25600,"station_id":"ce4bhgp2rcd13ifvqfd0","pricing_plan_id":"cebpf4jnsgd1na2vs0mg"},{"bike_id":"9fc0fede-eafe-4fe5-b639-8db65855cbcb","system_id":"levelo_inurba_marseille","lat":43.3013,"lon":5.389603,"is_reserved":false,"is_disabled":false,"rental_uris":{"android":"levelo://app?vid=9fc0fede-eafe-4fe5-b639-8db65855cbcb","ios":"levelo://app?vid=9fc0fede-eafe-4fe5-b639-8db65855cbcb"},"vehicle_type_id":"4","last_reported":1728284995,"current_range_meters":4400,"station_id":"","pricing_plan_id":"cebpf4jnsgd1na2vs0mg"},{"bike_id":"97ef281f-c717-429c-a078-d6a368902950","system_id":"levelo_inurba_marseille","lat":43.24166,"lon":5.36393,"is_reserved":false,"is_disabled":false,"rental_uris":{"android":"levelo://app?vid=97ef281f-c717-429c-a078-d6a368902950","ios":"levelo://app?vid=97ef281f-c717-429c-a078-d6a368902950"},"vehicle_type_id":"4","last_reported":1728284995,"current_range_meters":20800,"station_id":"cpo36qri1sfpv3e86is0","pricing_plan_id":"cebpf4jnsgd1na2vs0mg"},{"bike_id":"f59a34ef-affd-4876-9736-e71a1bdc3c72","system_id":"levelo_inurba_marseille","lat":43.27497,"lon":5.42445,"is_reserved":false,"is_disabled":false,"rental_uris":{"android":"levelo://app?vid=f59a34ef-affd-4876-9736-e71a1bdc3c72","ios":"levelo://app?vid=f59a34ef-affd-4876-9736-e71a1bdc3c72"},"vehicle_type_id":"4","last_reported":1728284995,"current_range_meters":26000,"station_id":"ce4bhn92rcd13ifvqgrg","pricing_plan_id":"cebpf4jnsgd1na2vs0mg"},{"bike_id":"e1704012-6167-48bd-b1bd-4b574f1af2b2","system_id":"levelo_inurba_marseille","lat":43.268372,"lon":5.393775,"is_reserved":false,"is_disabled":false,"rental_uris":{"android":"levelo://app?vid=e1704012-6167-48bd-b1bd-4b574f1af2b2","ios":"levelo://app?vid=e1704012-6167-48bd-b1bd-4b574f1af2b2"},"vehicle_type_id":"4","last_reported":1728284995,"current_range_meters":26800,"station_id":"ce4bgkp2rcd13ifvqbmg","pricing_plan_id":"cebpf4jnsgd1na2vs0mg"},{"bike_id":"dbcd8f25-db0a-45f7-a837-ff5f9f4afc13","system_id":"levelo_inurba_marseille","lat":43.2408,"lon":5.37761,"is_reserved":false,"is_disabled":false,"rental_uris":{"android":"levelo://app?vid=dbcd8f25-db0a-45f7-a837-ff5f9f4afc13","ios":"levelo://app?vid=dbcd8f25-db0a-45f7-a837-ff5f9f4afc13"},"vehicle_type_id":"4","last_reported":1728284995,"current_range_meters":1600,"station_id":"ce4bhnp2rcd13ifvqgvg","pricing_plan_id":"cebpf4jnsgd1na2vs0mg"},{"bike_id":"85a8b07e-682b-4725-800e-b0749654fba5","system_id":"levelo_inurba_marseille","lat":43.24168,"lon":5.36393,"is_reserved":false,"is_disabled":false,"rental_uris":{"android":"levelo://app?vid=85a8b07e-682b-4725-800e-b0749654fba5","ios":"levelo://app?vid=85a8b07e-682b-4725-800e-b0749654fba5"},"vehicle_type_id":"4","last_reported":1728284995,"current_range_meters":24800,"station_id":"cpo36qri1sfpv3e86is0","pricing_plan_id":"cebpf4jnsgd1na2vs0mg"},{"bike_id":"742b0a39-2ee6-4a7f-970b-979e89ae43ed","system_id":"levelo_inurba_marseille","lat":43.30909,"lon":5.37435,"is_reserved":false,"is_disabled":false,"rental_uris":{"android":"levelo://app?vid=742b0a39-2ee6-4a7f-970b-979e89ae43ed","ios":"levelo://app?vid=742b0a39-2ee6-4a7f-970b-979e89ae43ed"},"vehicle_type_id":"4","last_reported":1728284995,"current_range_meters":17600,"station_id":"","pricing_plan_id":"cebpf4jnsgd1na2vs0mg"},{"bike_id":"2a88b022-07b9-4c3d-8333-dbf6e05cfa22","system_id":"levelo_inurba_marseille","lat":43.29269,"lon":5.40122,"is_reserved":false,"is_disabled":false,"rental_uris":{"android":"levelo://app?vid=2a88b022-07b9-4c3d-8333-dbf6e05cfa22","ios":"levelo://app?vid=2a88b022-07b9-4c3d-8333-dbf6e05cfa22"},"vehicle_type_id":"4","last_reported":1728284995,"current_range_meters":24400,"station_id":"ce4bh312rcd13ifvqdk0","pricing_plan_id":"cebpf4jnsgd1na2vs0mg"},{"bike_id":"3b5e0662-8d29-4834-92fa-9f5a70cd2485","system_id":"levelo_inurba_marseille","lat":43.30424,"lon":5.41286,"is_reserved":false,"is_disabled":false,"rental_uris":{"android":"levelo://app?vid=3b5e0662-8d29-4834-92fa-9f5a70cd2485","ios":"levelo://app?vid=3b5e0662-8d29-4834-92fa-9f5a70cd2485"},"vehicle_type_id":"4","last_reported":1728284995,"current_range_meters":39200,"station_id":"ce4bhop2rcd13ifvqh8g","pricing_plan_id":"cebpf4jnsgd1na2vs0mg"},{"bike_id":"01677004-7f97-49eb-b22e-f988245c1673","system_id":"levelo_inurba_marseille","lat":43.25584,"lon":5.38231,"is_reserved":false,"is_disabled":false,"rental_uris":{"android":"levelo://app?vid=01677004-7f97-49eb-b22e-f988245c1673","ios":"levelo://app?vid=01677004-7f97-49eb-b22e-f988245c1673"},"vehicle_type_id":"4","last_reported":1728284995,"current_range_meters":6800,"station_id":"ce4bhih2rcd13ifvqfs0","pricing_plan_id":"cebpf4jnsgd1na2vs0mg"},{"bike_id":"05ddab4b-2219-453e-b9f6-9211ae63c830","system_id":"levelo_inurba_marseille","lat":43.2417,"lon":5.36395,"is_reserved":false,"is_disabled":false,"rental_uris":{"android":"levelo://app?vid=05ddab4b-2219-453e-b9f6-9211ae63c830","ios":"levelo://app?vid=05ddab4b-2219-453e-b9f6-9211ae63c830"},"vehicle_type_id":"4","last_reported":1728284995,"current_range_meters":28800,"station_id":"cpo36qri1sfpv3e86is0","pricing_plan_id":"cebpf4jnsgd1na2vs0mg"},{"bike_id":"ce0047cd-1347-4c0f-a8c6-94fc19a36be4","system_id":"levelo_inurba_marseille","lat":43.302115,"lon":5.394665,"is_reserved":false,"is_disabled":false,"rental_uris":{"android":"levelo://app?vid=ce0047cd-1347-4c0f-a8c6-94fc19a36be4","ios":"levelo://app?vid=ce0047cd-1347-4c0f-a8c6-94fc19a36be4"},"vehicle_type_id":"4","last_reported":1728284995,"current_range_meters":6400,"station_id":"ce4bgh92rcd13ifvqb50","pricing_plan_id":"cebpf4jnsgd1na2vs0mg"},{"bike_id":"9b02bc8e-ca06-4109-bdf8-f33dbf237bad","system_id":"levelo_inurba_marseille","lat":43.3204,"lon":5.41528,"is_reserved":false,"is_disabled":false,"rental_uris":{"android":"levelo://app?vid=9b02bc8e-ca06-4109-bdf8-f33dbf237bad","ios":"levelo://app?vid=9b02bc8e-ca06-4109-bdf8-f33dbf237bad"},"vehicle_type_id":"4","last_reported":1728284995,"current_range_meters":38000,"station_id":"ce4bhq92rcd13ifvqhkg","pricing_plan_id":"cebpf4jnsgd1na2vs0mg"},{"bike_id":"d0ca1193-12e8-4ac2-9a60-4ae6e0040151","system_id":"levelo_inurba_marseille","lat":43.22942,"lon":5.35375,"is_reserved":false,"is_disabled":false,"rental_uris":{"android":"levelo://app?vid=d0ca1193-12e8-4ac2-9a60-4ae6e0040151","ios":"levelo://app?vid=d0ca1193-12e8-4ac2-9a60-4ae6e0040151"},"vehicle_type_id":"4","last_reported":1728284995,"current_range_meters":24800,"station_id":"cpo3532slgdg3j2ikp40","pricing_plan_id":"cebpf4jnsgd1na2vs0mg"},{"bike_id":"000e9510-d2f6-45de-a4ee-4b2733684efb","system_id":"levelo_inurba_marseille","lat":43.30153,"lon":5.38081,"is_reserved":false,"is_disabled":false,"rental_uris":{"android":"levelo://app?vid=000e9510-d2f6-45de-a4ee-4b2733684efb","ios":"levelo://app?vid=000e9510-d2f6-45de-a4ee-4b2733684efb"},"vehicle_type_id":"4","last_reported":1728284995,"current_range_meters":4000,"station_id":"ce4bgjp2rcd13ifvqbh0","pricing_plan_id":"cebpf4jnsgd1na2vs0mg"},{"bike_id":"bb84f9ce-d5d2-4447-9b97-8174f2fed89f","system_id":"levelo_inurba_marseille","lat":43.30461,"lon":5.37913,"is_reserved":false,"is_disabled":false,"rental_uris":{"android":"levelo://app?vid=bb84f9ce-d5d2-4447-9b97-8174f2fed89f","ios":"levelo://app?vid=bb84f9ce-d5d2-4447-9b97-8174f2fed89f"},"vehicle_type_id":"4","last_reported":1728284995,"current_range_meters":36800,"station_id":"ce4bgup2rcd13ifvqcn0","pricing_plan_id":"cebpf4jnsgd1na2vs0mg"},{"bike_id":"7d902036-f605-451d-b851-af3d9644846b","system_id":"levelo_inurba_marseille","lat":43.23158,"lon":5.43668,"is_reserved":false,"is_disabled":false,"rental_uris":{"android":"levelo://app?vid=7d902036-f605-451d-b851-af3d9644846b","ios":"levelo://app?vid=7d902036-f605-451d-b851-af3d9644846b"},"vehicle_type_id":"4","last_reported":1728284995,"current_range_meters":24400,"station_id":"ce4bhmp2rcd13ifvqgog","pricing_plan_id":"cebpf4jnsgd1na2vs0mg"},{"bike_id":"d8bc2066-a7d9-41d7-b5ad-d46901326b60","system_id":"levelo_inurba_marseille","lat":43.31369,"lon":5.36739,"is_reserved":false,"is_disabled":false,"rental_uris":{"android":"levelo://app?vid=d8bc2066-a7d9-41d7-b5ad-d46901326b60","ios":"levelo://app?vid=d8bc2066-a7d9-41d7-b5ad-d46901326b60"},"vehicle_type_id":"4","last_reported":1728284995,"current_range_meters":20800,"station_id":"ce4bgr92rcd13ifvqc6g","pricing_plan_id":"cebpf4jnsgd1na2vs0mg"},{"bike_id":"76537086-b539-49e4-b670-351e33bbd89d","system_id":"levelo_inurba_marseille","lat":43.26953,"lon":5.38631,"is_reserved":false,"is_disabled":false,"rental_uris":{"android":"levelo://app?vid=76537086-b539-49e4-b670-351e33bbd89d","ios":"levelo://app?vid=76537086-b539-49e4-b670-351e33bbd89d"},"vehicle_type_id":"4","last_reported":1728284995,"current_range_meters":32800,"station_id":"ce4bhh92rcd13ifvqfh0","pricing_plan_id":"cebpf4jnsgd1na2vs0mg"},{"bike_id":"5fd97b48-8eeb-44e8-bc7a-e8fa9d0cf5b6","system_id":"levelo_inurba_marseille","lat":43.30729,"lon":5.39711,"is_reserved":false,"is_disabled":false,"rental_uris":{"android":"levelo://app?vid=5fd97b48-8eeb-44e8-bc7a-e8fa9d0cf5b6","ios":"levelo://app?vid=5fd97b48-8eeb-44e8-bc7a-e8fa9d0cf5b6"},"vehicle_type_id":"4","last_reported":1728284995,"current_range_meters":10000,"station_id":"","pricing_plan_id":"cebpf4jnsgd1na2vs0mg"},{"bike_id":"5ef3e1d6-937b-4522-9347-f207b49b87f4","system_id":"levelo_inurba_marseille","lat":43.25827,"lon":5.39437,"is_reserved":false,"is_disabled":false,"rental_uris":{"android":"levelo://app?vid=5ef3e1d6-937b-4522-9347-f207b49b87f4","ios":"levelo://app?vid=5ef3e1d6-937b-4522-9347-f207b49b87f4"},"vehicle_type_id":"4","last_reported":1728284995,"current_range_meters":25200,"station_id":"ce4bhip2rcd13ifvqft0","pricing_plan_id":"cebpf4jnsgd1na2vs0mg"},{"bike_id":"38f238e3-faac-4b85-9e0e-8d5557d9a402","system_id":"levelo_inurba_marseille","lat":43.3027,"lon":5.37716,"is_reserved":false,"is_disabled":false,"rental_uris":{"android":"levelo://app?vid=38f238e3-faac-4b85-9e0e-8d5557d9a402","ios":"levelo://app?vid=38f238e3-faac-4b85-9e0e-8d5557d9a402"},"vehicle_type_id":"4","last_reported":1728284995,"current_range_meters":29600,"station_id":"ce4bguh2rcd13ifvqcj0","pricing_plan_id":"cebpf4jnsgd1na2vs0mg"},{"bike_id":"e8f38f77-6572-42be-9296-0cbe6e7cb972","system_id":"levelo_inurba_marseille","lat":43.23054,"lon":5.35492,"is_reserved":false,"is_disabled":false,"rental_uris":{"android":"levelo://app?vid=e8f38f77-6572-42be-9296-0cbe6e7cb972","ios":"levelo://app?vid=e8f38f77-6572-42be-9296-0cbe6e7cb972"},"vehicle_type_id":"4","last_reported":1728284995,"current_range_meters":37600,"station_id":"cpo3342slgdg3j2ifvpg","pricing_plan_id":"cebpf4jnsgd1na2vs0mg"},{"bike_id":"edc34343-f8c1-4a92-a821-dccec12f0856","system_id":"levelo_inurba_marseille","lat":43.30888,"lon":5.37195,"is_reserved":false,"is_disabled":false,"rental_uris":{"android":"levelo://app?vid=edc34343-f8c1-4a92-a821-dccec12f0856","ios":"levelo://app?vid=edc34343-f8c1-4a92-a821-dccec12f0856"},"vehicle_type_id":"4","last_reported":1728284995,"current_range_meters":38400,"station_id":"ce4bguh2rcd13ifvqckg","pricing_plan_id":"cebpf4jnsgd1na2vs0mg"},{"bike_id":"4297c095-b326-42ff-8ed3-c892bd8cf95f","system_id":"levelo_inurba_marseille","lat":43.25121,"lon":5.40313,"is_reserved":false,"is_disabled":false,"rental_uris":{"android":"levelo://app?vid=4297c095-b326-42ff-8ed3-c892bd8cf95f","ios":"levelo://app?vid=4297c095-b326-42ff-8ed3-c892bd8cf95f"},"vehicle_type_id":"4","last_reported":1728284995,"current_range_meters":26800,"station_id":"ce4bhlh2rcd13ifvqgig","pricing_plan_id":"cebpf4jnsgd1na2vs0mg"},{"bike_id":"1dad735d-481e-47ff-8bf7-942577eed167","system_id":"levelo_inurba_marseille","lat":43.23159,"lon":5.43703,"is_reserved":false,"is_disabled":false,"rental_uris":{"android":"levelo://app?vid=1dad735d-481e-47ff-8bf7-942577eed167","ios":"levelo://app?vid=1dad735d-481e-47ff-8bf7-942577eed167"},"vehicle_type_id":"4","last_reported":1728284995,"current_range_meters":21600,"station_id":"ce4bhmp2rcd13ifvqgog","pricing_plan_id":"cebpf4jnsgd1na2vs0mg"},{"bike_id":"fbe2db3f-9b7b-451a-ad48-131ae931cad3","system_id":"levelo_inurba_marseille","lat":43.25722,"lon":5.41116,"is_reserved":false,"is_disabled":false,"rental_uris":{"android":"levelo://app?vid=fbe2db3f-9b7b-451a-ad48-131ae931cad3","ios":"levelo://app?vid=fbe2db3f-9b7b-451a-ad48-131ae931cad3"},"vehicle_type_id":"4","last_reported":1728284995,"current_range_meters":38800,"station_id":"ce4bhkp2rcd13ifvqgd0","pricing_plan_id":"cebpf4jnsgd1na2vs0mg"},{"bike_id":"c91f7103-63c0-4e88-ad9d-c5194f82620f","system_id":"levelo_inurba_marseille","lat":43.28432,"lon":5.4109,"is_reserved":false,"is_disabled":false,"rental_uris":{"android":"levelo://app?vid=c91f7103-63c0-4e88-ad9d-c5194f82620f","ios":"levelo://app?vid=c91f7103-63c0-4e88-ad9d-c5194f82620f"},"vehicle_type_id":"4","last_reported":1728284995,"current_range_meters":37600,"station_id":"","pricing_plan_id":"cebpf4jnsgd1na2vs0mg"},{"bike_id":"490889b1-cee9-4892-9db5-299333956c90","system_id":"levelo_inurba_marseille","lat":43.34143,"lon":5.40898,"is_reserved":false,"is_disabled":false,"rental_uris":{"android":"levelo://app?vid=490889b1-cee9-4892-9db5-299333956c90","ios":"levelo://app?vid=490889b1-cee9-4892-9db5-299333956c90"},"vehicle_type_id":"4","last_reported":1728284995,"current_range_meters":39200,"station_id":"ce4bhqh2rcd13ifvqhlg","pricing_plan_id":"cebpf4jnsgd1na2vs0mg"},{"bike_id":"931a1d8e-4090-4299-b271-43413a8cf3bf","system_id":"levelo_inurba_marseille","lat":43.30545,"lon":5.36716,"is_reserved":false,"is_disabled":false,"rental_uris":{"android":"levelo://app?vid=931a1d8e-4090-4299-b271-43413a8cf3bf","ios":"levelo://app?vid=931a1d8e-4090-4299-b271-43413a8cf3bf"},"vehicle_type_id":"4","last_reported":1728284995,"current_range_meters":38800,"station_id":"ce4bgrp2rcd13ifvqc9g","pricing_plan_id":"cebpf4jnsgd1na2vs0mg"},{"bike_id":"ea30e775-8466-430d-96e1-a121d270f1bd","system_id":"levelo_inurba_marseille","lat":43.24642,"lon":5.38888,"is_reserved":false,"is_disabled":false,"rental_uris":{"android":"levelo://app?vid=ea30e775-8466-430d-96e1-a121d270f1bd","ios":"levelo://app?vid=ea30e775-8466-430d-96e1-a121d270f1bd"},"vehicle_type_id":"4","last_reported":1728284995,"current_range_meters":37600,"station_id":"ce4bhg12rcd13ifvqf60","pricing_plan_id":"cebpf4jnsgd1na2vs0mg"},{"bike_id":"97312657-1501-4014-af5b-82bf785315be","system_id":"levelo_inurba_marseille","lat":43.28852,"lon":5.35857,"is_reserved":false,"is_disabled":false,"rental_uris":{"android":"levelo://app?vid=97312657-1501-4014-af5b-82bf785315be","ios":"levelo://app?vid=97312657-1501-4014-af5b-82bf785315be"},"vehicle_type_id":"4","last_reported":1728284995,"current_range_meters":20000,"station_id":"ce4bhb12rcd13ifvqem0","pricing_plan_id":"cebpf4jnsgd1na2vs0mg"},{"bike_id":"4378a0dd-7ddd-4246-9294-1e2af02e0700","system_id":"levelo_inurba_marseille","lat":43.232,"lon":5.35548,"is_reserved":false,"is_disabled":false,"rental_uris":{"android":"levelo://app?vid=4378a0dd-7ddd-4246-9294-1e2af02e0700","ios":"levelo://app?vid=4378a0dd-7ddd-4246-9294-1e2af02e0700"},"vehicle_type_id":"4","last_reported":1728284995,"current_range_meters":6800,"station_id":"ce4bhu92rcd13ifvqi70","pricing_plan_id":"cebpf4jnsgd1na2vs0mg"},{"bike_id":"f2ce9936-dd28-4dc4-a56f-ccdd3dc73512","system_id":"levelo_inurba_marseille","lat":43.29181,"lon":5.379507,"is_reserved":false,"is_disabled":false,"rental_uris":{"android":"levelo://app?vid=f2ce9936-dd28-4dc4-a56f-ccdd3dc73512","ios":"levelo://app?vid=f2ce9936-dd28-4dc4-a56f-ccdd3dc73512"},"vehicle_type_id":"4","last_reported":1728284995,"current_range_meters":8000,"station_id":"ce4bgjh2rcd13ifvqbf0","pricing_plan_id":"cebpf4jnsgd1na2vs0mg"},{"bike_id":"11c38f25-728a-4ba9-b492-cd81a7e21762","system_id":"levelo_inurba_marseille","lat":43.25008,"lon":5.40408,"is_reserved":false,"is_disabled":false,"rental_uris":{"android":"levelo://app?vid=11c38f25-728a-4ba9-b492-cd81a7e21762","ios":"levelo://app?vid=11c38f25-728a-4ba9-b492-cd81a7e21762"},"vehicle_type_id":"4","last_reported":1728284995,"current_range_meters":18800,"station_id":"","pricing_plan_id":"cebpf4jnsgd1na2vs0mg"},{"bike_id":"594a551f-028c-4b5b-8770-f76d6722f290","system_id":"levelo_inurba_marseille","lat":43.33607,"lon":5.41036,"is_reserved":false,"is_disabled":false,"rental_uris":{"android":"levelo://app?vid=594a551f-028c-4b5b-8770-f76d6722f290","ios":"levelo://app?vid=594a551f-028c-4b5b-8770-f76d6722f290"},"vehicle_type_id":"4","last_reported":1728284995,"current_range_meters":8800,"station_id":"ce4bhqh2rcd13ifvqhmg","pricing_plan_id":"cebpf4jnsgd1na2vs0mg"},{"bike_id":"1fbb66fa-7e57-4df8-9848-092ef367157f","system_id":"levelo_inurba_marseille","lat":43.25936,"lon":5.40912,"is_reserved":false,"is_disabled":false,"rental_uris":{"android":"levelo://app?vid=1fbb66fa-7e57-4df8-9848-092ef367157f","ios":"levelo://app?vid=1fbb66fa-7e57-4df8-9848-092ef367157f"},"vehicle_type_id":"4","last_reported":1728284995,"current_range_meters":24000,"station_id":"ce4bhm92rcd13ifvqglg","pricing_plan_id":"cebpf4jnsgd1na2vs0mg"},{"bike_id":"4fd6295d-8ce4-4b49-a22a-dd0370aa8883","system_id":"levelo_inurba_marseille","lat":43.309027,"lon":5.368429,"is_reserved":false,"is_disabled":false,"rental_uris":{"android":"levelo://app?vid=4fd6295d-8ce4-4b49-a22a-dd0370aa8883","ios":"levelo://app?vid=4fd6295d-8ce4-4b49-a22a-dd0370aa8883"},"vehicle_type_id":"4","last_reported":1728284995,"current_range_meters":6000,"station_id":"ce4bgn92rcd13ifvqbvg","pricing_plan_id":"cebpf4jnsgd1na2vs0mg"},{"bike_id":"e68d221a-42b6-44a7-a4d9-d20a6c628b49","system_id":"levelo_inurba_marseille","lat":43.2409,"lon":5.3775,"is_reserved":false,"is_disabled":false,"rental_uris":{"android":"levelo://app?vid=e68d221a-42b6-44a7-a4d9-d20a6c628b49","ios":"levelo://app?vid=e68d221a-42b6-44a7-a4d9-d20a6c628b49"},"vehicle_type_id":"4","last_reported":1728284995,"current_range_meters":31200,"station_id":"ce4bhnp2rcd13ifvqgvg","pricing_plan_id":"cebpf4jnsgd1na2vs0mg"},{"bike_id":"93d45870-2e1c-4ed1-9664-7b219a4ed443","system_id":"levelo_inurba_marseille","lat":43.22931,"lon":5.35382,"is_reserved":false,"is_disabled":false,"rental_uris":{"android":"levelo://app?vid=93d45870-2e1c-4ed1-9664-7b219a4ed443","ios":"levelo://app?vid=93d45870-2e1c-4ed1-9664-7b219a4ed443"},"vehicle_type_id":"4","last_reported":1728284995,"current_range_meters":37600,"station_id":"cpo3532slgdg3j2ikp40","pricing_plan_id":"cebpf4jnsgd1na2vs0mg"},{"bike_id":"2f90c104-9fab-488a-8aa2-c509b3ca0832","system_id":"levelo_inurba_marseille","lat":43.267878,"lon":5.394074,"is_reserved":false,"is_disabled":false,"rental_uris":{"android":"levelo://app?vid=2f90c104-9fab-488a-8aa2-c509b3ca0832","ios":"levelo://app?vid=2f90c104-9fab-488a-8aa2-c509b3ca0832"},"vehicle_type_id":"4","last_reported":1728284995,"current_range_meters":16000,"station_id":"","pricing_plan_id":"cebpf4jnsgd1na2vs0mg"},{"bike_id":"1cdb9940-cc1d-4061-8b97-3a40dcc57816","system_id":"levelo_inurba_marseille","lat":43.256808,"lon":5.376731,"is_reserved":false,"is_disabled":false,"rental_uris":{"android":"levelo://app?vid=1cdb9940-cc1d-4061-8b97-3a40dcc57816","ios":"levelo://app?vid=1cdb9940-cc1d-4061-8b97-3a40dcc57816"},"vehicle_type_id":"4","last_reported":1728284995,"current_range_meters":15200,"station_id":"","pricing_plan_id":"cebpf4jnsgd1na2vs0mg"},{"bike_id":"427c953f-0ea6-4680-b2fa-440c826f8259","system_id":"levelo_inurba_marseille","lat":43.31343,"lon":5.36717,"is_reserved":false,"is_disabled":false,"rental_uris":{"android":"levelo://app?vid=427c953f-0ea6-4680-b2fa-440c826f8259","ios":"levelo://app?vid=427c953f-0ea6-4680-b2fa-440c826f8259"},"vehicle_type_id":"4","last_reported":1728284995,"current_range_meters":14000,"station_id":"ce4bgr92rcd13ifvqc6g","pricing_plan_id":"cebpf4jnsgd1na2vs0mg"},{"bike_id":"26d2440b-d4e3-4faf-a92b-d9f12aadb4e5","system_id":"levelo_inurba_marseille","lat":43.29259,"lon":5.36845,"is_reserved":false,"is_disabled":false,"rental_uris":{"android":"levelo://app?vid=26d2440b-d4e3-4faf-a92b-d9f12aadb4e5","ios":"levelo://app?vid=26d2440b-d4e3-4faf-a92b-d9f12aadb4e5"},"vehicle_type_id":"4","last_reported":1728284995,"current_range_meters":12800,"station_id":"","pricing_plan_id":"cebpf4jnsgd1na2vs0mg"},{"bike_id":"a79a7609-39e6-45d8-9edb-4c33802415fb","system_id":"levelo_inurba_marseille","lat":43.30539,"lon":5.36715,"is_reserved":false,"is_disabled":false,"rental_uris":{"android":"levelo://app?vid=a79a7609-39e6-45d8-9edb-4c33802415fb","ios":"levelo://app?vid=a79a7609-39e6-45d8-9edb-4c33802415fb"},"vehicle_type_id":"4","last_reported":1728284995,"current_range_meters":38800,"station_id":"ce4bgrp2rcd13ifvqc9g","pricing_plan_id":"cebpf4jnsgd1na2vs0mg"},{"bike_id":"6e512044-ef12-457b-bcca-26bd86c5618a","system_id":"levelo_inurba_marseille","lat":43.23062,"lon":5.35492,"is_reserved":false,"is_disabled":false,"rental_uris":{"android":"levelo://app?vid=6e512044-ef12-457b-bcca-26bd86c5618a","ios":"levelo://app?vid=6e512044-ef12-457b-bcca-26bd86c5618a"},"vehicle_type_id":"4","last_reported":1728284995,"current_range_meters":37600,"station_id":"cpo3342slgdg3j2ifvpg","pricing_plan_id":"cebpf4jnsgd1na2vs0mg"},{"bike_id":"4824d748-5811-4066-90c0-a04a4e2a5171","system_id":"levelo_inurba_marseille","lat":43.30476,"lon":5.37902,"is_reserved":false,"is_disabled":false,"rental_uris":{"android":"levelo://app?vid=4824d748-5811-4066-90c0-a04a4e2a5171","ios":"levelo://app?vid=4824d748-5811-4066-90c0-a04a4e2a5171"},"vehicle_type_id":"4","last_reported":1728284995,"current_range_meters":20400,"station_id":"ce4bgup2rcd13ifvqcn0","pricing_plan_id":"cebpf4jnsgd1na2vs0mg"},{"bike_id":"fe5dcab0-0dab-4e81-9dc6-41b25a1747fa","system_id":"levelo_inurba_marseille","lat":43.31344,"lon":5.36716,"is_reserved":false,"is_disabled":false,"rental_uris":{"android":"levelo://app?vid=fe5dcab0-0dab-4e81-9dc6-41b25a1747fa","ios":"levelo://app?vid=fe5dcab0-0dab-4e81-9dc6-41b25a1747fa"},"vehicle_type_id":"4","last_reported":1728284995,"current_range_meters":25200,"station_id":"ce4bgr92rcd13ifvqc6g","pricing_plan_id":"cebpf4jnsgd1na2vs0mg"},{"bike_id":"61fcd995-e66f-45d1-89a7-f7a703715bc4","system_id":"levelo_inurba_marseille","lat":43.30541,"lon":5.38426,"is_reserved":false,"is_disabled":false,"rental_uris":{"android":"levelo://app?vid=61fcd995-e66f-45d1-89a7-f7a703715bc4","ios":"levelo://app?vid=61fcd995-e66f-45d1-89a7-f7a703715bc4"},"vehicle_type_id":"4","last_reported":1728284995,"current_range_meters":38000,"station_id":"ce4bgg92rcd13ifvqb30","pricing_plan_id":"cebpf4jnsgd1na2vs0mg"},{"bike_id":"429e28c5-fac1-4ad7-930e-6c37fa9306ec","system_id":"levelo_inurba_marseille","lat":43.30468,"lon":5.37912,"is_reserved":false,"is_disabled":false,"rental_uris":{"android":"levelo://app?vid=429e28c5-fac1-4ad7-930e-6c37fa9306ec","ios":"levelo://app?vid=429e28c5-fac1-4ad7-930e-6c37fa9306ec"},"vehicle_type_id":"4","last_reported":1728284995,"current_range_meters":15200,"station_id":"ce4bgup2rcd13ifvqcn0","pricing_plan_id":"cebpf4jnsgd1na2vs0mg"},{"bike_id":"9db6ee0b-5ef0-465a-9b1b-890a3ed79cd0","system_id":"levelo_inurba_marseille","lat":43.27993,"lon":5.40017,"is_reserved":false,"is_disabled":false,"rental_uris":{"android":"levelo://app?vid=9db6ee0b-5ef0-465a-9b1b-890a3ed79cd0","ios":"levelo://app?vid=9db6ee0b-5ef0-465a-9b1b-890a3ed79cd0"},"vehicle_type_id":"4","last_reported":1728284995,"current_range_meters":38000,"station_id":"ce4bho92rcd13ifvqh4g","pricing_plan_id":"cebpf4jnsgd1na2vs0mg"},{"bike_id":"270b90ca-7521-4165-af49-e1c727e5fa34","system_id":"levelo_inurba_marseille","lat":43.24165,"lon":5.36395,"is_reserved":false,"is_disabled":false,"rental_uris":{"android":"levelo://app?vid=270b90ca-7521-4165-af49-e1c727e5fa34","ios":"levelo://app?vid=270b90ca-7521-4165-af49-e1c727e5fa34"},"vehicle_type_id":"4","last_reported":1728284995,"current_range_meters":30000,"station_id":"cpo36qri1sfpv3e86is0","pricing_plan_id":"cebpf4jnsgd1na2vs0mg"},{"bike_id":"7c41dc95-9377-4c00-b9a6-33002a1eda84","system_id":"levelo_inurba_marseille","lat":43.28949,"lon":5.36412,"is_reserved":false,"is_disabled":false,"rental_uris":{"android":"levelo://app?vid=7c41dc95-9377-4c00-b9a6-33002a1eda84","ios":"levelo://app?vid=7c41dc95-9377-4c00-b9a6-33002a1eda84"},"vehicle_type_id":"4","last_reported":1728284995,"current_range_meters":19600,"station_id":"ce4bhc92rcd13ifvqetg","pricing_plan_id":"cebpf4jnsgd1na2vs0mg"},{"bike_id":"73d97c8e-5a2e-44f3-8da0-24e25abbe6c9","system_id":"levelo_inurba_marseille","lat":43.29576,"lon":5.3752,"is_reserved":false,"is_disabled":false,"rental_uris":{"android":"levelo://app?vid=73d97c8e-5a2e-44f3-8da0-24e25abbe6c9","ios":"levelo://app?vid=73d97c8e-5a2e-44f3-8da0-24e25abbe6c9"},"vehicle_type_id":"4","last_reported":1728284995,"current_range_meters":23200,"station_id":"ce4bgh92rcd13ifvqb50","pricing_plan_id":"cebpf4jnsgd1na2vs0mg"},{"bike_id":"63f033ac-a47d-4d3b-99e7-f455d2c1997b","system_id":"levelo_inurba_marseille","lat":43.24088,"lon":5.37753,"is_reserved":false,"is_disabled":false,"rental_uris":{"android":"levelo://app?vid=63f033ac-a47d-4d3b-99e7-f455d2c1997b","ios":"levelo://app?vid=63f033ac-a47d-4d3b-99e7-f455d2c1997b"},"vehicle_type_id":"4","last_reported":1728284995,"current_range_meters":38400,"station_id":"ce4bhnp2rcd13ifvqgvg","pricing_plan_id":"cebpf4jnsgd1na2vs0mg"},{"bike_id":"74d3464e-a929-4d8f-9816-e38b964f7774","system_id":"levelo_inurba_marseille","lat":43.27489,"lon":5.42455,"is_reserved":false,"is_disabled":false,"rental_uris":{"android":"levelo://app?vid=74d3464e-a929-4d8f-9816-e38b964f7774","ios":"levelo://app?vid=74d3464e-a929-4d8f-9816-e38b964f7774"},"vehicle_type_id":"4","last_reported":1728284995,"current_range_meters":32400,"station_id":"ce4bhn92rcd13ifvqgrg","pricing_plan_id":"cebpf4jnsgd1na2vs0mg"},{"bike_id":"7044d89e-f5be-41b3-9742-0bc7e91e973c","system_id":"levelo_inurba_marseille","lat":43.26503,"lon":5.39544,"is_reserved":false,"is_disabled":false,"rental_uris":{"android":"levelo://app?vid=7044d89e-f5be-41b3-9742-0bc7e91e973c","ios":"levelo://app?vid=7044d89e-f5be-41b3-9742-0bc7e91e973c"},"vehicle_type_id":"4","last_reported":1728284995,"current_range_meters":9200,"station_id":"ce4bhi12rcd13ifvqfq0","pricing_plan_id":"cebpf4jnsgd1na2vs0mg"},{"bike_id":"824e294a-c810-4688-b9ec-efc7382fd889","system_id":"levelo_inurba_marseille","lat":43.31085,"lon":5.42428,"is_reserved":false,"is_disabled":false,"rental_uris":{"android":"levelo://app?vid=824e294a-c810-4688-b9ec-efc7382fd889","ios":"levelo://app?vid=824e294a-c810-4688-b9ec-efc7382fd889"},"vehicle_type_id":"4","last_reported":1728284995,"current_range_meters":26800,"station_id":"ce4bhp92rcd13ifvqhag","pricing_plan_id":"cebpf4jnsgd1na2vs0mg"},{"bike_id":"a9c548e3-9a04-40b1-8d8f-14281b242750","system_id":"levelo_inurba_marseille","lat":43.30193,"lon":5.36596,"is_reserved":false,"is_disabled":false,"rental_uris":{"android":"levelo://app?vid=a9c548e3-9a04-40b1-8d8f-14281b242750","ios":"levelo://app?vid=a9c548e3-9a04-40b1-8d8f-14281b242750"},"vehicle_type_id":"4","last_reported":1728284995,"current_range_meters":20800,"station_id":"ce4bgrh2rcd13ifvqc8g","pricing_plan_id":"cebpf4jnsgd1na2vs0mg"},{"bike_id":"fe2c3551-a8ef-41ab-86ab-66672625ae88","system_id":"levelo_inurba_marseille","lat":43.280795,"lon":5.396582,"is_reserved":false,"is_disabled":false,"rental_uris":{"android":"levelo://app?vid=fe2c3551-a8ef-41ab-86ab-66672625ae88","ios":"levelo://app?vid=fe2c3551-a8ef-41ab-86ab-66672625ae88"},"vehicle_type_id":"4","last_reported":1728284995,"current_range_meters":22800,"station_id":"ce4bho12rcd13ifvqh2g","pricing_plan_id":"cebpf4jnsgd1na2vs0mg"},{"bike_id":"ca5f4c34-3469-41d3-9f12-b240f1be893e","system_id":"levelo_inurba_marseille","lat":43.22933,"lon":5.35378,"is_reserved":false,"is_disabled":false,"rental_uris":{"android":"levelo://app?vid=ca5f4c34-3469-41d3-9f12-b240f1be893e","ios":"levelo://app?vid=ca5f4c34-3469-41d3-9f12-b240f1be893e"},"vehicle_type_id":"4","last_reported":1728284995,"current_range_meters":16800,"station_id":"cpo3532slgdg3j2ikp40","pricing_plan_id":"cebpf4jnsgd1na2vs0mg"},{"bike_id":"008755ca-7552-43db-a619-6e4996a250a2","system_id":"levelo_inurba_marseille","lat":43.25584,"lon":5.38226,"is_reserved":false,"is_disabled":false,"rental_uris":{"android":"levelo://app?vid=008755ca-7552-43db-a619-6e4996a250a2","ios":"levelo://app?vid=008755ca-7552-43db-a619-6e4996a250a2"},"vehicle_type_id":"4","last_reported":1728284995,"current_range_meters":28800,"station_id":"ce4bhih2rcd13ifvqfs0","pricing_plan_id":"cebpf4jnsgd1na2vs0mg"},{"bike_id":"605343d4-ac6d-4fac-b9a4-eb891878b20f","system_id":"levelo_inurba_marseille","lat":43.3047,"lon":5.37891,"is_reserved":false,"is_disabled":false,"rental_uris":{"android":"levelo://app?vid=605343d4-ac6d-4fac-b9a4-eb891878b20f","ios":"levelo://app?vid=605343d4-ac6d-4fac-b9a4-eb891878b20f"},"vehicle_type_id":"4","last_reported":1728284995,"current_range_meters":24000,"station_id":"ce4bgup2rcd13ifvqcn0","pricing_plan_id":"cebpf4jnsgd1na2vs0mg"},{"bike_id":"dd6a25d9-00db-44b2-8ae4-0f81038e536f","system_id":"levelo_inurba_marseille","lat":43.32538,"lon":5.41424,"is_reserved":false,"is_disabled":false,"rental_uris":{"android":"levelo://app?vid=dd6a25d9-00db-44b2-8ae4-0f81038e536f","ios":"levelo://app?vid=dd6a25d9-00db-44b2-8ae4-0f81038e536f"},"vehicle_type_id":"4","last_reported":1728284995,"current_range_meters":38000,"station_id":"ce4bhq12rcd13ifvqhhg","pricing_plan_id":"cebpf4jnsgd1na2vs0mg"},{"bike_id":"85081b74-3c48-4b75-b6b6-b181683e784a","system_id":"levelo_inurba_marseille","lat":43.25731,"lon":5.4111,"is_reserved":false,"is_disabled":false,"rental_uris":{"android":"levelo://app?vid=85081b74-3c48-4b75-b6b6-b181683e784a","ios":"levelo://app?vid=85081b74-3c48-4b75-b6b6-b181683e784a"},"vehicle_type_id":"4","last_reported":1728284995,"current_range_meters":36000,"station_id":"ce4bhkp2rcd13ifvqgd0","pricing_plan_id":"cebpf4jnsgd1na2vs0mg"},{"bike_id":"ca150432-5632-417f-a220-d6e10e3598a2","system_id":"levelo_inurba_marseille","lat":43.29903,"lon":5.43664,"is_reserved":false,"is_disabled":false,"rental_uris":{"android":"levelo://app?vid=ca150432-5632-417f-a220-d6e10e3598a2","ios":"levelo://app?vid=ca150432-5632-417f-a220-d6e10e3598a2"},"vehicle_type_id":"4","last_reported":1728284995,"current_range_meters":39200,"station_id":"ce4bhpp2rcd13ifvqhfg","pricing_plan_id":"cebpf4jnsgd1na2vs0mg"},{"bike_id":"e209dd5c-0d10-4561-adda-dad860e62fd5","system_id":"levelo_inurba_marseille","lat":43.30547,"lon":5.36699,"is_reserved":false,"is_disabled":false,"rental_uris":{"android":"levelo://app?vid=e209dd5c-0d10-4561-adda-dad860e62fd5","ios":"levelo://app?vid=e209dd5c-0d10-4561-adda-dad860e62fd5"},"vehicle_type_id":"4","last_reported":1728284995,"current_range_meters":39200,"station_id":"ce4bgrp2rcd13ifvqc9g","pricing_plan_id":"cebpf4jnsgd1na2vs0mg"},{"bike_id":"210f67fb-56cc-4a12-b667-99f2a225d672","system_id":"levelo_inurba_marseille","lat":43.30474,"lon":5.3799,"is_reserved":false,"is_disabled":false,"rental_uris":{"android":"levelo://app?vid=210f67fb-56cc-4a12-b667-99f2a225d672","ios":"levelo://app?vid=210f67fb-56cc-4a12-b667-99f2a225d672"},"vehicle_type_id":"4","last_reported":1728284995,"current_range_meters":9200,"station_id":"","pricing_plan_id":"cebpf4jnsgd1na2vs0mg"},{"bike_id":"7cba0374-be77-4d49-8476-e0da3cccc891","system_id":"levelo_inurba_marseille","lat":43.241667,"lon":5.36393,"is_reserved":false,"is_disabled":false,"rental_uris":{"android":"levelo://app?vid=7cba0374-be77-4d49-8476-e0da3cccc891","ios":"levelo://app?vid=7cba0374-be77-4d49-8476-e0da3cccc891"},"vehicle_type_id":"4","last_reported":1728284995,"current_range_meters":28000,"station_id":"cpo36qri1sfpv3e86is0","pricing_plan_id":"cebpf4jnsgd1na2vs0mg"},{"bike_id":"de7b61ce-9a77-48b8-b281-c8a3b04be6be","system_id":"levelo_inurba_marseille","lat":43.30582,"lon":5.36553,"is_reserved":false,"is_disabled":false,"rental_uris":{"android":"levelo://app?vid=de7b61ce-9a77-48b8-b281-c8a3b04be6be","ios":"levelo://app?vid=de7b61ce-9a77-48b8-b281-c8a3b04be6be"},"vehicle_type_id":"4","last_reported":1728284995,"current_range_meters":21600,"station_id":"ce4bgs12rcd13ifvqcag","pricing_plan_id":"cebpf4jnsgd1na2vs0mg"},{"bike_id":"c2eafa11-ad6c-4f3b-b6e4-6e6fc5d9785c","system_id":"levelo_inurba_marseille","lat":43.298978,"lon":5.436602,"is_reserved":false,"is_disabled":false,"rental_uris":{"android":"levelo://app?vid=c2eafa11-ad6c-4f3b-b6e4-6e6fc5d9785c","ios":"levelo://app?vid=c2eafa11-ad6c-4f3b-b6e4-6e6fc5d9785c"},"vehicle_type_id":"4","last_reported":1728284995,"current_range_meters":39200,"station_id":"ce4bhpp2rcd13ifvqhfg","pricing_plan_id":"cebpf4jnsgd1na2vs0mg"},{"bike_id":"b0dfacd3-cb0a-4f11-98c2-f679c9ce3099","system_id":"levelo_inurba_marseille","lat":43.31355,"lon":5.36712,"is_reserved":false,"is_disabled":false,"rental_uris":{"android":"levelo://app?vid=b0dfacd3-cb0a-4f11-98c2-f679c9ce3099","ios":"levelo://app?vid=b0dfacd3-cb0a-4f11-98c2-f679c9ce3099"},"vehicle_type_id":"4","last_reported":1728284995,"current_range_meters":26800,"station_id":"ce4bgr92rcd13ifvqc6g","pricing_plan_id":"cebpf4jnsgd1na2vs0mg"},{"bike_id":"a25e47d8-0720-4df5-baa4-a99c9ba5e5da","system_id":"levelo_inurba_marseille","lat":43.32465,"lon":5.36578,"is_reserved":false,"is_disabled":false,"rental_uris":{"android":"levelo://app?vid=a25e47d8-0720-4df5-baa4-a99c9ba5e5da","ios":"levelo://app?vid=a25e47d8-0720-4df5-baa4-a99c9ba5e5da"},"vehicle_type_id":"4","last_reported":1728284995,"current_range_meters":14400,"station_id":"ce4bhs12rcd13ifvqhvg","pricing_plan_id":"cebpf4jnsgd1na2vs0mg"},{"bike_id":"d6a904eb-96a5-4bea-a586-e8aaeedf5f4c","system_id":"levelo_inurba_marseille","lat":43.25732,"lon":5.41108,"is_reserved":false,"is_disabled":false,"rental_uris":{"android":"levelo://app?vid=d6a904eb-96a5-4bea-a586-e8aaeedf5f4c","ios":"levelo://app?vid=d6a904eb-96a5-4bea-a586-e8aaeedf5f4c"},"vehicle_type_id":"4","last_reported":1728284995,"current_range_meters":36400,"station_id":"ce4bhkp2rcd13ifvqgd0","pricing_plan_id":"cebpf4jnsgd1na2vs0mg"},{"bike_id":"f6849e98-e59e-4bc2-8e5a-02bcbb272aa6","system_id":"levelo_inurba_marseille","lat":43.33774,"lon":5.37472,"is_reserved":false,"is_disabled":false,"rental_uris":{"android":"levelo://app?vid=f6849e98-e59e-4bc2-8e5a-02bcbb272aa6","ios":"levelo://app?vid=f6849e98-e59e-4bc2-8e5a-02bcbb272aa6"},"vehicle_type_id":"4","last_reported":1728284995,"current_range_meters":38800,"station_id":"","pricing_plan_id":"cebpf4jnsgd1na2vs0mg"},{"bike_id":"09fb0b57-2324-4bd9-a741-e90822f89c25","system_id":"levelo_inurba_marseille","lat":43.24076,"lon":5.37762,"is_reserved":false,"is_disabled":false,"rental_uris":{"android":"levelo://app?vid=09fb0b57-2324-4bd9-a741-e90822f89c25","ios":"levelo://app?vid=09fb0b57-2324-4bd9-a741-e90822f89c25"},"vehicle_type_id":"4","last_reported":1728284995,"current_range_meters":38400,"station_id":"ce4bhnp2rcd13ifvqgvg","pricing_plan_id":"cebpf4jnsgd1na2vs0mg"},{"bike_id":"b4da9d8b-9301-478c-9f01-3fa9f5b15d66","system_id":"levelo_inurba_marseille","lat":43.33607,"lon":5.4102,"is_reserved":false,"is_disabled":false,"rental_uris":{"android":"levelo://app?vid=b4da9d8b-9301-478c-9f01-3fa9f5b15d66","ios":"levelo://app?vid=b4da9d8b-9301-478c-9f01-3fa9f5b15d66"},"vehicle_type_id":"4","last_reported":1728284995,"current_range_meters":36800,"station_id":"ce4bhqh2rcd13ifvqhmg","pricing_plan_id":"cebpf4jnsgd1na2vs0mg"},{"bike_id":"1acc1cdb-3607-49f5-b4fe-c81d4211d176","system_id":"levelo_inurba_marseille","lat":43.32003,"lon":5.38155,"is_reserved":false,"is_disabled":false,"rental_uris":{"android":"levelo://app?vid=1acc1cdb-3607-49f5-b4fe-c81d4211d176","ios":"levelo://app?vid=1acc1cdb-3607-49f5-b4fe-c81d4211d176"},"vehicle_type_id":"4","last_reported":1728284995,"current_range_meters":37600,"station_id":"ce4bhr12rcd13ifvqhpg","pricing_plan_id":"cebpf4jnsgd1na2vs0mg"},{"bike_id":"9c4e7bd1-4f05-4d76-9c81-197e44852db5","system_id":"levelo_inurba_marseille","lat":43.29227,"lon":5.36057,"is_reserved":false,"is_disabled":false,"rental_uris":{"android":"levelo://app?vid=9c4e7bd1-4f05-4d76-9c81-197e44852db5","ios":"levelo://app?vid=9c4e7bd1-4f05-4d76-9c81-197e44852db5"},"vehicle_type_id":"4","last_reported":1728284995,"current_range_meters":10800,"station_id":"ce4bhbh2rcd13ifvqeqg","pricing_plan_id":"cebpf4jnsgd1na2vs0mg"},{"bike_id":"fed13582-cc1d-459b-8b44-3590075050e0","system_id":"levelo_inurba_marseille","lat":43.25579,"lon":5.38235,"is_reserved":false,"is_disabled":false,"rental_uris":{"android":"levelo://app?vid=fed13582-cc1d-459b-8b44-3590075050e0","ios":"levelo://app?vid=fed13582-cc1d-459b-8b44-3590075050e0"},"vehicle_type_id":"4","last_reported":1728284995,"current_range_meters":39200,"station_id":"ce4bhih2rcd13ifvqfs0","pricing_plan_id":"cebpf4jnsgd1na2vs0mg"},{"bike_id":"b19c065e-115c-4e09-aaf9-cb329323f3a3","system_id":"levelo_inurba_marseille","lat":43.31224,"lon":5.36856,"is_reserved":false,"is_disabled":false,"rental_uris":{"android":"levelo://app?vid=b19c065e-115c-4e09-aaf9-cb329323f3a3","ios":"levelo://app?vid=b19c065e-115c-4e09-aaf9-cb329323f3a3"},"vehicle_type_id":"4","last_reported":1728284995,"current_range_meters":28800,"station_id":"ce4bgl92rcd13ifvqbq0","pricing_plan_id":"cebpf4jnsgd1na2vs0mg"},{"bike_id":"acc4a158-79c4-46ea-892f-f92f49cbf36e","system_id":"levelo_inurba_marseille","lat":43.29852,"lon":5.36285,"is_reserved":false,"is_disabled":false,"rental_uris":{"android":"levelo://app?vid=acc4a158-79c4-46ea-892f-f92f49cbf36e","ios":"levelo://app?vid=acc4a158-79c4-46ea-892f-f92f49cbf36e"},"vehicle_type_id":"4","last_reported":1728284995,"current_range_meters":29600,"station_id":"ce4bgpp2rcd13ifvqc3g","pricing_plan_id":"cebpf4jnsgd1na2vs0mg"},{"bike_id":"0fae0579-21a9-437c-87f5-9c07357a6f20","system_id":"levelo_inurba_marseille","lat":43.25937,"lon":5.40909,"is_reserved":false,"is_disabled":false,"rental_uris":{"android":"levelo://app?vid=0fae0579-21a9-437c-87f5-9c07357a6f20","ios":"levelo://app?vid=0fae0579-21a9-437c-87f5-9c07357a6f20"},"vehicle_type_id":"4","last_reported":1728284995,"current_range_meters":23200,"station_id":"ce4bhm92rcd13ifvqglg","pricing_plan_id":"cebpf4jnsgd1na2vs0mg"},{"bike_id":"a5f43e21-aab5-4ada-a340-8e9929bfea7f","system_id":"levelo_inurba_marseille","lat":43.30537,"lon":5.36718,"is_reserved":false,"is_disabled":false,"rental_uris":{"android":"levelo://app?vid=a5f43e21-aab5-4ada-a340-8e9929bfea7f","ios":"levelo://app?vid=a5f43e21-aab5-4ada-a340-8e9929bfea7f"},"vehicle_type_id":"4","last_reported":1728284995,"current_range_meters":38800,"station_id":"ce4bgrp2rcd13ifvqc9g","pricing_plan_id":"cebpf4jnsgd1na2vs0mg"},{"bike_id":"66a81085-1a96-4f65-934a-3195a2059afa","system_id":"levelo_inurba_marseille","lat":43.24651,"lon":5.38899,"is_reserved":false,"is_disabled":false,"rental_uris":{"android":"levelo://app?vid=66a81085-1a96-4f65-934a-3195a2059afa","ios":"levelo://app?vid=66a81085-1a96-4f65-934a-3195a2059afa"},"vehicle_type_id":"4","last_reported":1728284995,"current_range_meters":38800,"station_id":"ce4bhg12rcd13ifvqf60","pricing_plan_id":"cebpf4jnsgd1na2vs0mg"},{"bike_id":"dc9889f5-2039-4263-81b2-9bca840f68eb","system_id":"levelo_inurba_marseille","lat":43.23964,"lon":5.36629,"is_reserved":false,"is_disabled":false,"rental_uris":{"android":"levelo://app?vid=dc9889f5-2039-4263-81b2-9bca840f68eb","ios":"levelo://app?vid=dc9889f5-2039-4263-81b2-9bca840f68eb"},"vehicle_type_id":"4","last_reported":1728284995,"current_range_meters":37600,"station_id":"ce4bhi12rcd13ifvqfp0","pricing_plan_id":"cebpf4jnsgd1na2vs0mg"},{"bike_id":"443ebbf1-3034-4d07-899e-c26f715e3349","system_id":"levelo_inurba_marseille","lat":43.30431,"lon":5.38133,"is_reserved":false,"is_disabled":false,"rental_uris":{"android":"levelo://app?vid=443ebbf1-3034-4d07-899e-c26f715e3349","ios":"levelo://app?vid=443ebbf1-3034-4d07-899e-c26f715e3349"},"vehicle_type_id":"4","last_reported":1728284995,"current_range_meters":32800,"station_id":"","pricing_plan_id":"cebpf4jnsgd1na2vs0mg"},{"bike_id":"2bdb65cd-1e63-4874-80ab-bd72b908164f","system_id":"levelo_inurba_marseille","lat":43.24785,"lon":5.40636,"is_reserved":false,"is_disabled":false,"rental_uris":{"android":"levelo://app?vid=2bdb65cd-1e63-4874-80ab-bd72b908164f","ios":"levelo://app?vid=2bdb65cd-1e63-4874-80ab-bd72b908164f"},"vehicle_type_id":"4","last_reported":1728284995,"current_range_meters":26000,"station_id":"","pricing_plan_id":"cebpf4jnsgd1na2vs0mg"},{"bike_id":"1c6ced08-6c65-4e22-a8e3-0734c3156234","system_id":"levelo_inurba_marseille","lat":43.25726,"lon":5.41113,"is_reserved":false,"is_disabled":false,"rental_uris":{"android":"levelo://app?vid=1c6ced08-6c65-4e22-a8e3-0734c3156234","ios":"levelo://app?vid=1c6ced08-6c65-4e22-a8e3-0734c3156234"},"vehicle_type_id":"4","last_reported":1728284995,"current_range_meters":36400,"station_id":"ce4bhkp2rcd13ifvqgd0","pricing_plan_id":"cebpf4jnsgd1na2vs0mg"},{"bike_id":"025b2914-5a55-4831-9515-ed51afbb3e15","system_id":"levelo_inurba_marseille","lat":43.2316,"lon":5.43706,"is_reserved":false,"is_disabled":false,"rental_uris":{"android":"levelo://app?vid=025b2914-5a55-4831-9515-ed51afbb3e15","ios":"levelo://app?vid=025b2914-5a55-4831-9515-ed51afbb3e15"},"vehicle_type_id":"4","last_reported":1728284995,"current_range_meters":19200,"station_id":"ce4bhmp2rcd13ifvqgog","pricing_plan_id":"cebpf4jnsgd1na2vs0mg"},{"bike_id":"714ca429-1512-493a-b47a-15905dbac610","system_id":"levelo_inurba_marseille","lat":43.26691,"lon":5.38272,"is_reserved":false,"is_disabled":false,"rental_uris":{"android":"levelo://app?vid=714ca429-1512-493a-b47a-15905dbac610","ios":"levelo://app?vid=714ca429-1512-493a-b47a-15905dbac610"},"vehicle_type_id":"4","last_reported":1728284995,"current_range_meters":3600,"station_id":"ce4bhg92rcd13ifvqf90","pricing_plan_id":"cebpf4jnsgd1na2vs0mg"},{"bike_id":"c8f137e0-e80f-4bc8-809c-5c15cfb70f09","system_id":"levelo_inurba_marseille","lat":43.30892,"lon":5.37193,"is_reserved":false,"is_disabled":false,"rental_uris":{"android":"levelo://app?vid=c8f137e0-e80f-4bc8-809c-5c15cfb70f09","ios":"levelo://app?vid=c8f137e0-e80f-4bc8-809c-5c15cfb70f09"},"vehicle_type_id":"4","last_reported":1728284995,"current_range_meters":28400,"station_id":"ce4bguh2rcd13ifvqckg","pricing_plan_id":"cebpf4jnsgd1na2vs0mg"},{"bike_id":"02a67eee-aeac-4da1-8fef-5d62a4c68b76","system_id":"levelo_inurba_marseille","lat":43.30467,"lon":5.37897,"is_reserved":false,"is_disabled":false,"rental_uris":{"android":"levelo://app?vid=02a67eee-aeac-4da1-8fef-5d62a4c68b76","ios":"levelo://app?vid=02a67eee-aeac-4da1-8fef-5d62a4c68b76"},"vehicle_type_id":"4","last_reported":1728284995,"current_range_meters":28000,"station_id":"ce4bgup2rcd13ifvqcn0","pricing_plan_id":"cebpf4jnsgd1na2vs0mg"},{"bike_id":"5aa9c39f-76bd-4322-bf9b-c856b262eba4","system_id":"levelo_inurba_marseille","lat":43.252983,"lon":5.402146,"is_reserved":false,"is_disabled":false,"rental_uris":{"android":"levelo://app?vid=5aa9c39f-76bd-4322-bf9b-c856b262eba4","ios":"levelo://app?vid=5aa9c39f-76bd-4322-bf9b-c856b262eba4"},"vehicle_type_id":"4","last_reported":1728284995,"current_range_meters":16800,"station_id":"ce4bgr92rcd13ifvqc7g","pricing_plan_id":"cebpf4jnsgd1na2vs0mg"},{"bike_id":"dc2cdd9b-cb48-46f6-82c6-0d81a53e2f09","system_id":"levelo_inurba_marseille","lat":43.3043,"lon":5.38153,"is_reserved":false,"is_disabled":false,"rental_uris":{"android":"levelo://app?vid=dc2cdd9b-cb48-46f6-82c6-0d81a53e2f09","ios":"levelo://app?vid=dc2cdd9b-cb48-46f6-82c6-0d81a53e2f09"},"vehicle_type_id":"4","last_reported":1728284995,"current_range_meters":38800,"station_id":"","pricing_plan_id":"cebpf4jnsgd1na2vs0mg"},{"bike_id":"6d7f7a57-57dd-4e06-8807-088686dc31fa","system_id":"levelo_inurba_marseille","lat":43.31224,"lon":5.36865,"is_reserved":false,"is_disabled":false,"rental_uris":{"android":"levelo://app?vid=6d7f7a57-57dd-4e06-8807-088686dc31fa","ios":"levelo://app?vid=6d7f7a57-57dd-4e06-8807-088686dc31fa"},"vehicle_type_id":"4","last_reported":1728284995,"current_range_meters":6800,"station_id":"ce4bgl92rcd13ifvqbq0","pricing_plan_id":"cebpf4jnsgd1na2vs0mg"},{"bike_id":"5bb95529-a43c-4271-94df-720a4a700760","system_id":"levelo_inurba_marseille","lat":43.29712,"lon":5.37721,"is_reserved":false,"is_disabled":false,"rental_uris":{"android":"levelo://app?vid=5bb95529-a43c-4271-94df-720a4a700760","ios":"levelo://app?vid=5bb95529-a43c-4271-94df-720a4a700760"},"vehicle_type_id":"4","last_reported":1728284995,"current_range_meters":24400,"station_id":"ce4bgkh2rcd13ifvqbl0","pricing_plan_id":"cebpf4jnsgd1na2vs0mg"},{"bike_id":"13b0039f-a583-46cf-9deb-910985564f65","system_id":"levelo_inurba_marseille","lat":43.29556,"lon":5.42292,"is_reserved":false,"is_disabled":false,"rental_uris":{"android":"levelo://app?vid=13b0039f-a583-46cf-9deb-910985564f65","ios":"levelo://app?vid=13b0039f-a583-46cf-9deb-910985564f65"},"vehicle_type_id":"4","last_reported":1728284995,"current_range_meters":38800,"station_id":"ce4bhph2rcd13ifvqhdg","pricing_plan_id":"cebpf4jnsgd1na2vs0mg"},{"bike_id":"985db904-a375-48af-aac6-2e5630c83450","system_id":"levelo_inurba_marseille","lat":43.30279,"lon":5.37713,"is_reserved":false,"is_disabled":false,"rental_uris":{"android":"levelo://app?vid=985db904-a375-48af-aac6-2e5630c83450","ios":"levelo://app?vid=985db904-a375-48af-aac6-2e5630c83450"},"vehicle_type_id":"4","last_reported":1728284995,"current_range_meters":11200,"station_id":"ce4bguh2rcd13ifvqcj0","pricing_plan_id":"cebpf4jnsgd1na2vs0mg"},{"bike_id":"631867e0-b7d1-4074-a40b-9626c875de36","system_id":"levelo_inurba_marseille","lat":43.292644,"lon":5.366961,"is_reserved":false,"is_disabled":false,"rental_uris":{"android":"levelo://app?vid=631867e0-b7d1-4074-a40b-9626c875de36","ios":"levelo://app?vid=631867e0-b7d1-4074-a40b-9626c875de36"},"vehicle_type_id":"4","last_reported":1728284995,"current_range_meters":23200,"station_id":"","pricing_plan_id":"cebpf4jnsgd1na2vs0mg"},{"bike_id":"f84a8922-779c-40a0-b82e-d439a7fc24ba","system_id":"levelo_inurba_marseille","lat":43.27989,"lon":5.42455,"is_reserved":false,"is_disabled":false,"rental_uris":{"android":"levelo://app?vid=f84a8922-779c-40a0-b82e-d439a7fc24ba","ios":"levelo://app?vid=f84a8922-779c-40a0-b82e-d439a7fc24ba"},"vehicle_type_id":"4","last_reported":1728284995,"current_range_meters":30800,"station_id":"","pricing_plan_id":"cebpf4jnsgd1na2vs0mg"},{"bike_id":"30b75ea9-e8af-43ec-822f-5e33978d52b7","system_id":"levelo_inurba_marseille","lat":43.29164,"lon":5.37166,"is_reserved":false,"is_disabled":false,"rental_uris":{"android":"levelo://app?vid=30b75ea9-e8af-43ec-822f-5e33978d52b7","ios":"levelo://app?vid=30b75ea9-e8af-43ec-822f-5e33978d52b7"},"vehicle_type_id":"4","last_reported":1728284995,"current_range_meters":16800,"station_id":"ce4bha92rcd13ifvqeh0","pricing_plan_id":"cebpf4jnsgd1na2vs0mg"},{"bike_id":"234a1e6a-6833-45a9-919c-bd924d949198","system_id":"levelo_inurba_marseille","lat":43.30464,"lon":5.379,"is_reserved":false,"is_disabled":false,"rental_uris":{"android":"levelo://app?vid=234a1e6a-6833-45a9-919c-bd924d949198","ios":"levelo://app?vid=234a1e6a-6833-45a9-919c-bd924d949198"},"vehicle_type_id":"4","last_reported":1728284995,"current_range_meters":22800,"station_id":"ce4bgup2rcd13ifvqcn0","pricing_plan_id":"cebpf4jnsgd1na2vs0mg"},{"bike_id":"8289ea2f-2d6f-43d3-87e0-0626b05d3eb3","system_id":"levelo_inurba_marseille","lat":43.290231,"lon":5.381337,"is_reserved":false,"is_disabled":false,"rental_uris":{"android":"levelo://app?vid=8289ea2f-2d6f-43d3-87e0-0626b05d3eb3","ios":"levelo://app?vid=8289ea2f-2d6f-43d3-87e0-0626b05d3eb3"},"vehicle_type_id":"4","last_reported":1728284995,"current_range_meters":14000,"station_id":"","pricing_plan_id":"cebpf4jnsgd1na2vs0mg"},{"bike_id":"b9b14ef1-a4fd-4ec7-acf3-b0d47c2e6c33","system_id":"levelo_inurba_marseille","lat":43.29025,"lon":5.37557,"is_reserved":false,"is_disabled":false,"rental_uris":{"android":"levelo://app?vid=b9b14ef1-a4fd-4ec7-acf3-b0d47c2e6c33","ios":"levelo://app?vid=b9b14ef1-a4fd-4ec7-acf3-b0d47c2e6c33"},"vehicle_type_id":"4","last_reported":1728284995,"current_range_meters":27200,"station_id":"","pricing_plan_id":"cebpf4jnsgd1na2vs0mg"},{"bike_id":"1e1c695d-cc24-4676-981a-2750bce0b137","system_id":"levelo_inurba_marseille","lat":43.26558,"lon":5.37281,"is_reserved":false,"is_disabled":false,"rental_uris":{"android":"levelo://app?vid=1e1c695d-cc24-4676-981a-2750bce0b137","ios":"levelo://app?vid=1e1c695d-cc24-4676-981a-2750bce0b137"},"vehicle_type_id":"4","last_reported":1728284995,"current_range_meters":17200,"station_id":"ce4bhg12rcd13ifvqf70","pricing_plan_id":"cebpf4jnsgd1na2vs0mg"},{"bike_id":"fcb769bd-e567-4fcc-a4bd-aeaa03f693aa","system_id":"levelo_inurba_marseille","lat":43.31371,"lon":5.36697,"is_reserved":false,"is_disabled":false,"rental_uris":{"android":"levelo://app?vid=fcb769bd-e567-4fcc-a4bd-aeaa03f693aa","ios":"levelo://app?vid=fcb769bd-e567-4fcc-a4bd-aeaa03f693aa"},"vehicle_type_id":"4","last_reported":1728284995,"current_range_meters":5600,"station_id":"ce4bgr92rcd13ifvqc6g","pricing_plan_id":"cebpf4jnsgd1na2vs0mg"},{"bike_id":"fc8b58c3-249e-4c7b-89ff-1d5b56bfd43a","system_id":"levelo_inurba_marseille","lat":43.304932,"lon":5.380024,"is_reserved":false,"is_disabled":false,"rental_uris":{"android":"levelo://app?vid=fc8b58c3-249e-4c7b-89ff-1d5b56bfd43a","ios":"levelo://app?vid=fc8b58c3-249e-4c7b-89ff-1d5b56bfd43a"},"vehicle_type_id":"4","last_reported":1728284995,"current_range_meters":22000,"station_id":"ce4bgup2rcd13ifvqcn0","pricing_plan_id":"cebpf4jnsgd1na2vs0mg"},{"bike_id":"afbfa584-4ffb-4d63-8201-eaeac3f2152c","system_id":"levelo_inurba_marseille","lat":43.284851,"lon":5.381725,"is_reserved":false,"is_disabled":false,"rental_uris":{"android":"levelo://app?vid=afbfa584-4ffb-4d63-8201-eaeac3f2152c","ios":"levelo://app?vid=afbfa584-4ffb-4d63-8201-eaeac3f2152c"},"vehicle_type_id":"4","last_reported":1728284995,"current_range_meters":20000,"station_id":"ce4bgs92rcd13ifvqcc0","pricing_plan_id":"cebpf4jnsgd1na2vs0mg"},{"bike_id":"0310fd20-d962-41d3-867a-dcb14ee1af85","system_id":"levelo_inurba_marseille","lat":43.26947,"lon":5.38634,"is_reserved":false,"is_disabled":false,"rental_uris":{"android":"levelo://app?vid=0310fd20-d962-41d3-867a-dcb14ee1af85","ios":"levelo://app?vid=0310fd20-d962-41d3-867a-dcb14ee1af85"},"vehicle_type_id":"4","last_reported":1728284995,"current_range_meters":32400,"station_id":"ce4bhh92rcd13ifvqfh0","pricing_plan_id":"cebpf4jnsgd1na2vs0mg"},{"bike_id":"e56d549c-2a5c-4883-86b6-174da71f2767","system_id":"levelo_inurba_marseille","lat":43.29286,"lon":5.3685,"is_reserved":false,"is_disabled":false,"rental_uris":{"android":"levelo://app?vid=e56d549c-2a5c-4883-86b6-174da71f2767","ios":"levelo://app?vid=e56d549c-2a5c-4883-86b6-174da71f2767"},"vehicle_type_id":"4","last_reported":1728284995,"current_range_meters":24000,"station_id":"ce4bhbp2rcd13ifvqesg","pricing_plan_id":"cebpf4jnsgd1na2vs0mg"},{"bike_id":"44cb9723-f094-45c7-9c71-6d82e25886a7","system_id":"levelo_inurba_marseille","lat":43.23058,"lon":5.35493,"is_reserved":false,"is_disabled":false,"rental_uris":{"android":"levelo://app?vid=44cb9723-f094-45c7-9c71-6d82e25886a7","ios":"levelo://app?vid=44cb9723-f094-45c7-9c71-6d82e25886a7"},"vehicle_type_id":"4","last_reported":1728284995,"current_range_meters":38000,"station_id":"cpo3342slgdg3j2ifvpg","pricing_plan_id":"cebpf4jnsgd1na2vs0mg"},{"bike_id":"d20dcc4d-e7fd-4bc1-a5e2-4e770ba1cba2","system_id":"levelo_inurba_marseille","lat":43.22928,"lon":5.35374,"is_reserved":false,"is_disabled":false,"rental_uris":{"android":"levelo://app?vid=d20dcc4d-e7fd-4bc1-a5e2-4e770ba1cba2","ios":"levelo://app?vid=d20dcc4d-e7fd-4bc1-a5e2-4e770ba1cba2"},"vehicle_type_id":"4","last_reported":1728284995,"current_range_meters":32000,"station_id":"cpo3532slgdg3j2ikp40","pricing_plan_id":"cebpf4jnsgd1na2vs0mg"},{"bike_id":"3a6d1d8b-614e-403e-a4a0-e442787381cd","system_id":"levelo_inurba_marseille","lat":43.27372,"lon":5.36259,"is_reserved":false,"is_disabled":false,"rental_uris":{"android":"levelo://app?vid=3a6d1d8b-614e-403e-a4a0-e442787381cd","ios":"levelo://app?vid=3a6d1d8b-614e-403e-a4a0-e442787381cd"},"vehicle_type_id":"4","last_reported":1728284995,"current_range_meters":37600,"station_id":"ce4bhbh2rcd13ifvqeo0","pricing_plan_id":"cebpf4jnsgd1na2vs0mg"},{"bike_id":"470c594a-c056-4a83-89a4-d3e99708311a","system_id":"levelo_inurba_marseille","lat":43.30154,"lon":5.38077,"is_reserved":false,"is_disabled":false,"rental_uris":{"android":"levelo://app?vid=470c594a-c056-4a83-89a4-d3e99708311a","ios":"levelo://app?vid=470c594a-c056-4a83-89a4-d3e99708311a"},"vehicle_type_id":"4","last_reported":1728284995,"current_range_meters":35600,"station_id":"ce4bgjp2rcd13ifvqbh0","pricing_plan_id":"cebpf4jnsgd1na2vs0mg"},{"bike_id":"3925e56f-80ad-4171-9df7-8b4ce291b2fe","system_id":"levelo_inurba_marseille","lat":43.3133,"lon":5.39686,"is_reserved":false,"is_disabled":false,"rental_uris":{"android":"levelo://app?vid=3925e56f-80ad-4171-9df7-8b4ce291b2fe","ios":"levelo://app?vid=3925e56f-80ad-4171-9df7-8b4ce291b2fe"},"vehicle_type_id":"4","last_reported":1728284995,"current_range_meters":32000,"station_id":"ce4bgvp2rcd13ifvqcu0","pricing_plan_id":"cebpf4jnsgd1na2vs0mg"},{"bike_id":"fc44b58f-e4f8-4071-927a-92d0d4be5e65","system_id":"levelo_inurba_marseille","lat":43.28715,"lon":5.3999,"is_reserved":false,"is_disabled":false,"rental_uris":{"android":"levelo://app?vid=fc44b58f-e4f8-4071-927a-92d0d4be5e65","ios":"levelo://app?vid=fc44b58f-e4f8-4071-927a-92d0d4be5e65"},"vehicle_type_id":"4","last_reported":1728284995,"current_range_meters":3200,"station_id":"ce4bho92rcd13ifvqh3g","pricing_plan_id":"cebpf4jnsgd1na2vs0mg"},{"bike_id":"2bc14bf1-7659-4a87-9396-473744a5bca9","system_id":"levelo_inurba_marseille","lat":43.26211,"lon":5.37924,"is_reserved":false,"is_disabled":false,"rental_uris":{"android":"levelo://app?vid=2bc14bf1-7659-4a87-9396-473744a5bca9","ios":"levelo://app?vid=2bc14bf1-7659-4a87-9396-473744a5bca9"},"vehicle_type_id":"4","last_reported":1728284995,"current_range_meters":38800,"station_id":"ce4bhjp2rcd13ifvqg90","pricing_plan_id":"cebpf4jnsgd1na2vs0mg"},{"bike_id":"4e0c83a2-b0c3-4894-8559-e509681998d3","system_id":"levelo_inurba_marseille","lat":43.31124,"lon":5.38329,"is_reserved":false,"is_disabled":false,"rental_uris":{"android":"levelo://app?vid=4e0c83a2-b0c3-4894-8559-e509681998d3","ios":"levelo://app?vid=4e0c83a2-b0c3-4894-8559-e509681998d3"},"vehicle_type_id":"4","last_reported":1728284995,"current_range_meters":4000,"station_id":"","pricing_plan_id":"cebpf4jnsgd1na2vs0mg"},{"bike_id":"ae53a9d1-01ac-447b-a4c7-269e1c5ac403","system_id":"levelo_inurba_marseille","lat":43.31822,"lon":5.40632,"is_reserved":false,"is_disabled":false,"rental_uris":{"android":"levelo://app?vid=ae53a9d1-01ac-447b-a4c7-269e1c5ac403","ios":"levelo://app?vid=ae53a9d1-01ac-447b-a4c7-269e1c5ac403"},"vehicle_type_id":"4","last_reported":1728284995,"current_range_meters":8400,"station_id":"","pricing_plan_id":"cebpf4jnsgd1na2vs0mg"},{"bike_id":"87737580-1091-4d61-a6ca-f123391133c1","system_id":"levelo_inurba_marseille","lat":43.32538,"lon":5.41422,"is_reserved":false,"is_disabled":false,"rental_uris":{"android":"levelo://app?vid=87737580-1091-4d61-a6ca-f123391133c1","ios":"levelo://app?vid=87737580-1091-4d61-a6ca-f123391133c1"},"vehicle_type_id":"4","last_reported":1728284995,"current_range_meters":38800,"station_id":"ce4bhq12rcd13ifvqhhg","pricing_plan_id":"cebpf4jnsgd1na2vs0mg"},{"bike_id":"96187375-27cf-476f-b0df-40c900959d5d","system_id":"levelo_inurba_marseille","lat":43.24085,"lon":5.3776,"is_reserved":false,"is_disabled":false,"rental_uris":{"android":"levelo://app?vid=96187375-27cf-476f-b0df-40c900959d5d","ios":"levelo://app?vid=96187375-27cf-476f-b0df-40c900959d5d"},"vehicle_type_id":"4","last_reported":1728284995,"current_range_meters":36400,"station_id":"ce4bhnp2rcd13ifvqgvg","pricing_plan_id":"cebpf4jnsgd1na2vs0mg"},{"bike_id":"1c61e578-5af2-46a8-97da-91a2b6e2e295","system_id":"levelo_inurba_marseille","lat":43.31119,"lon":5.37763,"is_reserved":false,"is_disabled":false,"rental_uris":{"android":"levelo://app?vid=1c61e578-5af2-46a8-97da-91a2b6e2e295","ios":"levelo://app?vid=1c61e578-5af2-46a8-97da-91a2b6e2e295"},"vehicle_type_id":"4","last_reported":1728284995,"current_range_meters":28800,"station_id":"ce4bgt92rcd13ifvqcg0","pricing_plan_id":"cebpf4jnsgd1na2vs0mg"},{"bike_id":"12c24200-9c9c-470e-aa9c-8ffd8543d16b","system_id":"levelo_inurba_marseille","lat":43.3046,"lon":5.37891,"is_reserved":false,"is_disabled":false,"rental_uris":{"android":"levelo://app?vid=12c24200-9c9c-470e-aa9c-8ffd8543d16b","ios":"levelo://app?vid=12c24200-9c9c-470e-aa9c-8ffd8543d16b"},"vehicle_type_id":"4","last_reported":1728284995,"current_range_meters":17200,"station_id":"ce4bgup2rcd13ifvqcn0","pricing_plan_id":"cebpf4jnsgd1na2vs0mg"},{"bike_id":"a3d74777-7d26-4cc7-a169-07a161b5cdca","system_id":"levelo_inurba_marseille","lat":43.2408,"lon":5.37753,"is_reserved":false,"is_disabled":false,"rental_uris":{"android":"levelo://app?vid=a3d74777-7d26-4cc7-a169-07a161b5cdca","ios":"levelo://app?vid=a3d74777-7d26-4cc7-a169-07a161b5cdca"},"vehicle_type_id":"4","last_reported":1728284995,"current_range_meters":7200,"station_id":"ce4bhnp2rcd13ifvqgvg","pricing_plan_id":"cebpf4jnsgd1na2vs0mg"},{"bike_id":"b645e3aa-fecd-4429-96d8-1c9f522f3c11","system_id":"levelo_inurba_marseille","lat":43.27307,"lon":5.39085,"is_reserved":false,"is_disabled":false,"rental_uris":{"android":"levelo://app?vid=b645e3aa-fecd-4429-96d8-1c9f522f3c11","ios":"levelo://app?vid=b645e3aa-fecd-4429-96d8-1c9f522f3c11"},"vehicle_type_id":"4","last_reported":1728284995,"current_range_meters":9200,"station_id":"ce4bhgp2rcd13ifvqfe0","pricing_plan_id":"cebpf4jnsgd1na2vs0mg"},{"bike_id":"637950e6-461d-4fd3-aeb4-7a41f1df4b89","system_id":"levelo_inurba_marseille","lat":43.30547,"lon":5.36712,"is_reserved":false,"is_disabled":false,"rental_uris":{"android":"levelo://app?vid=637950e6-461d-4fd3-aeb4-7a41f1df4b89","ios":"levelo://app?vid=637950e6-461d-4fd3-aeb4-7a41f1df4b89"},"vehicle_type_id":"4","last_reported":1728284995,"current_range_meters":10800,"station_id":"ce4bgrp2rcd13ifvqc9g","pricing_plan_id":"cebpf4jnsgd1na2vs0mg"},{"bike_id":"f304753d-2a56-4d62-a1a4-aa8f5c39a0f3","system_id":"levelo_inurba_marseille","lat":43.29944,"lon":5.36529,"is_reserved":false,"is_disabled":false,"rental_uris":{"android":"levelo://app?vid=f304753d-2a56-4d62-a1a4-aa8f5c39a0f3","ios":"levelo://app?vid=f304753d-2a56-4d62-a1a4-aa8f5c39a0f3"},"vehicle_type_id":"4","last_reported":1728284995,"current_range_meters":27200,"station_id":"ce4bgm92rcd13ifvqbr0","pricing_plan_id":"cebpf4jnsgd1na2vs0mg"},{"bike_id":"4c471c99-9651-49a4-ba9a-f5d3701ed59c","system_id":"levelo_inurba_marseille","lat":43.27978,"lon":5.38743,"is_reserved":false,"is_disabled":false,"rental_uris":{"android":"levelo://app?vid=4c471c99-9651-49a4-ba9a-f5d3701ed59c","ios":"levelo://app?vid=4c471c99-9651-49a4-ba9a-f5d3701ed59c"},"vehicle_type_id":"4","last_reported":1728284995,"current_range_meters":37600,"station_id":"ce4bhg12rcd13ifvqf80","pricing_plan_id":"cebpf4jnsgd1na2vs0mg"},{"bike_id":"89a7025c-a209-4d5e-9eea-e1c5cfbea74a","system_id":"levelo_inurba_marseille","lat":43.26955,"lon":5.38636,"is_reserved":false,"is_disabled":false,"rental_uris":{"android":"levelo://app?vid=89a7025c-a209-4d5e-9eea-e1c5cfbea74a","ios":"levelo://app?vid=89a7025c-a209-4d5e-9eea-e1c5cfbea74a"},"vehicle_type_id":"4","last_reported":1728284995,"current_range_meters":38800,"station_id":"ce4bhh92rcd13ifvqfh0","pricing_plan_id":"cebpf4jnsgd1na2vs0mg"},{"bike_id":"f8f76ece-43e6-44a9-b368-d97ca628cdcf","system_id":"levelo_inurba_marseille","lat":43.23159,"lon":5.43718,"is_reserved":false,"is_disabled":false,"rental_uris":{"android":"levelo://app?vid=f8f76ece-43e6-44a9-b368-d97ca628cdcf","ios":"levelo://app?vid=f8f76ece-43e6-44a9-b368-d97ca628cdcf"},"vehicle_type_id":"4","last_reported":1728284995,"current_range_meters":28000,"station_id":"ce4bhmp2rcd13ifvqgog","pricing_plan_id":"cebpf4jnsgd1na2vs0mg"},{"bike_id":"837043df-f039-493b-8ea8-33e020bf3b8f","system_id":"levelo_inurba_marseille","lat":43.28443,"lon":5.39196,"is_reserved":false,"is_disabled":false,"rental_uris":{"android":"levelo://app?vid=837043df-f039-493b-8ea8-33e020bf3b8f","ios":"levelo://app?vid=837043df-f039-493b-8ea8-33e020bf3b8f"},"vehicle_type_id":"4","last_reported":1728284995,"current_range_meters":36400,"station_id":"ce4bhoh2rcd13ifvqh5g","pricing_plan_id":"cebpf4jnsgd1na2vs0mg"},{"bike_id":"6b4618ac-bf15-42bd-b8ce-f62f3e28352b","system_id":"levelo_inurba_marseille","lat":43.23199,"lon":5.3555,"is_reserved":false,"is_disabled":false,"rental_uris":{"android":"levelo://app?vid=6b4618ac-bf15-42bd-b8ce-f62f3e28352b","ios":"levelo://app?vid=6b4618ac-bf15-42bd-b8ce-f62f3e28352b"},"vehicle_type_id":"4","last_reported":1728284995,"current_range_meters":35200,"station_id":"ce4bhu92rcd13ifvqi70","pricing_plan_id":"cebpf4jnsgd1na2vs0mg"},{"bike_id":"cc461165-a007-4b5e-a9f5-97d0088c5fe5","system_id":"levelo_inurba_marseille","lat":43.27499,"lon":5.42455,"is_reserved":false,"is_disabled":false,"rental_uris":{"android":"levelo://app?vid=cc461165-a007-4b5e-a9f5-97d0088c5fe5","ios":"levelo://app?vid=cc461165-a007-4b5e-a9f5-97d0088c5fe5"},"vehicle_type_id":"4","last_reported":1728284995,"current_range_meters":7200,"station_id":"ce4bhn92rcd13ifvqgrg","pricing_plan_id":"cebpf4jnsgd1na2vs0mg"},{"bike_id":"3c5c7e4d-28a3-493d-932d-15fe0f3477bf","system_id":"levelo_inurba_marseille","lat":43.284143,"lon":5.367514,"is_reserved":false,"is_disabled":false,"rental_uris":{"android":"levelo://app?vid=3c5c7e4d-28a3-493d-932d-15fe0f3477bf","ios":"levelo://app?vid=3c5c7e4d-28a3-493d-932d-15fe0f3477bf"},"vehicle_type_id":"4","last_reported":1728284995,"current_range_meters":33600,"station_id":"","pricing_plan_id":"cebpf4jnsgd1na2vs0mg"},{"bike_id":"6f890cc3-ee40-4b81-af6c-c65d98a63562","system_id":"levelo_inurba_marseille","lat":43.30155,"lon":5.38074,"is_reserved":false,"is_disabled":false,"rental_uris":{"android":"levelo://app?vid=6f890cc3-ee40-4b81-af6c-c65d98a63562","ios":"levelo://app?vid=6f890cc3-ee40-4b81-af6c-c65d98a63562"},"vehicle_type_id":"4","last_reported":1728284995,"current_range_meters":12800,"station_id":"ce4bgjp2rcd13ifvqbh0","pricing_plan_id":"cebpf4jnsgd1na2vs0mg"},{"bike_id":"d497d0f1-9157-442c-84ef-a30c7875a0d0","system_id":"levelo_inurba_marseille","lat":43.30945,"lon":5.39032,"is_reserved":false,"is_disabled":false,"rental_uris":{"android":"levelo://app?vid=d497d0f1-9157-442c-84ef-a30c7875a0d0","ios":"levelo://app?vid=d497d0f1-9157-442c-84ef-a30c7875a0d0"},"vehicle_type_id":"4","last_reported":1728284995,"current_range_meters":27600,"station_id":"ce4bgup2rcd13ifvqco0","pricing_plan_id":"cebpf4jnsgd1na2vs0mg"},{"bike_id":"d81e8b70-0cec-4a83-ac18-c99848066d32","system_id":"levelo_inurba_marseille","lat":43.24081,"lon":5.37749,"is_reserved":false,"is_disabled":false,"rental_uris":{"android":"levelo://app?vid=d81e8b70-0cec-4a83-ac18-c99848066d32","ios":"levelo://app?vid=d81e8b70-0cec-4a83-ac18-c99848066d32"},"vehicle_type_id":"4","last_reported":1728284995,"current_range_meters":38400,"station_id":"ce4bhnp2rcd13ifvqgvg","pricing_plan_id":"cebpf4jnsgd1na2vs0mg"},{"bike_id":"a49eaf76-607e-407c-85d8-153589115262","system_id":"levelo_inurba_marseille","lat":43.25941,"lon":5.40902,"is_reserved":false,"is_disabled":false,"rental_uris":{"android":"levelo://app?vid=a49eaf76-607e-407c-85d8-153589115262","ios":"levelo://app?vid=a49eaf76-607e-407c-85d8-153589115262"},"vehicle_type_id":"4","last_reported":1728284995,"current_range_meters":38400,"station_id":"ce4bhm92rcd13ifvqglg","pricing_plan_id":"cebpf4jnsgd1na2vs0mg"},{"bike_id":"bdefae95-7cc5-4880-bfcb-b1af39586be0","system_id":"levelo_inurba_marseille","lat":43.32658,"lon":5.40995,"is_reserved":false,"is_disabled":false,"rental_uris":{"android":"levelo://app?vid=bdefae95-7cc5-4880-bfcb-b1af39586be0","ios":"levelo://app?vid=bdefae95-7cc5-4880-bfcb-b1af39586be0"},"vehicle_type_id":"4","last_reported":1728284995,"current_range_meters":32800,"station_id":"ce4bhpp2rcd13ifvqhgg","pricing_plan_id":"cebpf4jnsgd1na2vs0mg"},{"bike_id":"7f2584c3-186b-4ca9-b416-bee639b50e12","system_id":"levelo_inurba_marseille","lat":43.22936,"lon":5.35372,"is_reserved":false,"is_disabled":false,"rental_uris":{"android":"levelo://app?vid=7f2584c3-186b-4ca9-b416-bee639b50e12","ios":"levelo://app?vid=7f2584c3-186b-4ca9-b416-bee639b50e12"},"vehicle_type_id":"4","last_reported":1728284995,"current_range_meters":25600,"station_id":"cpo3532slgdg3j2ikp40","pricing_plan_id":"cebpf4jnsgd1na2vs0mg"},{"bike_id":"1d152269-c2fa-4900-bfa9-f20a095e29df","system_id":"levelo_inurba_marseille","lat":43.25729,"lon":5.41111,"is_reserved":false,"is_disabled":false,"rental_uris":{"android":"levelo://app?vid=1d152269-c2fa-4900-bfa9-f20a095e29df","ios":"levelo://app?vid=1d152269-c2fa-4900-bfa9-f20a095e29df"},"vehicle_type_id":"4","last_reported":1728284995,"current_range_meters":36800,"station_id":"ce4bhkp2rcd13ifvqgd0","pricing_plan_id":"cebpf4jnsgd1na2vs0mg"},{"bike_id":"fd5eca2a-efbf-49f6-b20c-313e16602a60","system_id":"levelo_inurba_marseille","lat":43.289444,"lon":5.363809,"is_reserved":false,"is_disabled":false,"rental_uris":{"android":"levelo://app?vid=fd5eca2a-efbf-49f6-b20c-313e16602a60","ios":"levelo://app?vid=fd5eca2a-efbf-49f6-b20c-313e16602a60"},"vehicle_type_id":"4","last_reported":1728284995,"current_range_meters":20000,"station_id":"ce4bhmp2rcd13ifvqgog","pricing_plan_id":"cebpf4jnsgd1na2vs0mg"},{"bike_id":"e03c9d0c-17ae-4003-b903-fd8aa9951041","system_id":"levelo_inurba_marseille","lat":43.3375,"lon":5.37448,"is_reserved":false,"is_disabled":false,"rental_uris":{"android":"levelo://app?vid=e03c9d0c-17ae-4003-b903-fd8aa9951041","ios":"levelo://app?vid=e03c9d0c-17ae-4003-b903-fd8aa9951041"},"vehicle_type_id":"4","last_reported":1728284995,"current_range_meters":29600,"station_id":"","pricing_plan_id":"cebpf4jnsgd1na2vs0mg"},{"bike_id":"f5ebf8b7-4991-4b21-a187-452d168a5891","system_id":"levelo_inurba_marseille","lat":43.30467,"lon":5.37894,"is_reserved":false,"is_disabled":false,"rental_uris":{"android":"levelo://app?vid=f5ebf8b7-4991-4b21-a187-452d168a5891","ios":"levelo://app?vid=f5ebf8b7-4991-4b21-a187-452d168a5891"},"vehicle_type_id":"4","last_reported":1728284995,"current_range_meters":36400,"station_id":"ce4bgup2rcd13ifvqcn0","pricing_plan_id":"cebpf4jnsgd1na2vs0mg"},{"bike_id":"a5aeff0b-8abd-4182-acc2-6bb57fc6a1ad","system_id":"levelo_inurba_marseille","lat":43.314789,"lon":5.373103,"is_reserved":false,"is_disabled":false,"rental_uris":{"android":"levelo://app?vid=a5aeff0b-8abd-4182-acc2-6bb57fc6a1ad","ios":"levelo://app?vid=a5aeff0b-8abd-4182-acc2-6bb57fc6a1ad"},"vehicle_type_id":"4","last_reported":1728284995,"current_range_meters":22800,"station_id":"ce4bgt12rcd13ifvqcd0","pricing_plan_id":"cebpf4jnsgd1na2vs0mg"},{"bike_id":"a485b0d4-2721-435c-b41c-eed272d33850","system_id":"levelo_inurba_marseille","lat":43.25937,"lon":5.40906,"is_reserved":false,"is_disabled":false,"rental_uris":{"android":"levelo://app?vid=a485b0d4-2721-435c-b41c-eed272d33850","ios":"levelo://app?vid=a485b0d4-2721-435c-b41c-eed272d33850"},"vehicle_type_id":"4","last_reported":1728284995,"current_range_meters":23200,"station_id":"ce4bhm92rcd13ifvqglg","pricing_plan_id":"cebpf4jnsgd1na2vs0mg"},{"bike_id":"2d4539f4-aec5-4beb-bd77-a5fc6efa9c98","system_id":"levelo_inurba_marseille","lat":43.32476,"lon":5.36567,"is_reserved":false,"is_disabled":false,"rental_uris":{"android":"levelo://app?vid=2d4539f4-aec5-4beb-bd77-a5fc6efa9c98","ios":"levelo://app?vid=2d4539f4-aec5-4beb-bd77-a5fc6efa9c98"},"vehicle_type_id":"4","last_reported":1728284995,"current_range_meters":35600,"station_id":"ce4bhs12rcd13ifvqhvg","pricing_plan_id":"cebpf4jnsgd1na2vs0mg"},{"bike_id":"d225f5ba-4021-4fcf-8bdd-acf0abf5705f","system_id":"levelo_inurba_marseille","lat":43.28149,"lon":5.4265,"is_reserved":false,"is_disabled":false,"rental_uris":{"android":"levelo://app?vid=d225f5ba-4021-4fcf-8bdd-acf0abf5705f","ios":"levelo://app?vid=d225f5ba-4021-4fcf-8bdd-acf0abf5705f"},"vehicle_type_id":"4","last_reported":1728284995,"current_range_meters":37600,"station_id":"ce4bhnh2rcd13ifvqgug","pricing_plan_id":"cebpf4jnsgd1na2vs0mg"},{"bike_id":"aa6d088f-1202-4166-8f50-be994e611c8b","system_id":"levelo_inurba_marseille","lat":43.32539,"lon":5.41416,"is_reserved":false,"is_disabled":false,"rental_uris":{"android":"levelo://app?vid=aa6d088f-1202-4166-8f50-be994e611c8b","ios":"levelo://app?vid=aa6d088f-1202-4166-8f50-be994e611c8b"},"vehicle_type_id":"4","last_reported":1728284995,"current_range_meters":36400,"station_id":"ce4bhq12rcd13ifvqhhg","pricing_plan_id":"cebpf4jnsgd1na2vs0mg"},{"bike_id":"4739f68f-77e9-4c42-87ae-d48d58d82ff2","system_id":"levelo_inurba_marseille","lat":43.31361,"lon":5.36721,"is_reserved":false,"is_disabled":false,"rental_uris":{"android":"levelo://app?vid=4739f68f-77e9-4c42-87ae-d48d58d82ff2","ios":"levelo://app?vid=4739f68f-77e9-4c42-87ae-d48d58d82ff2"},"vehicle_type_id":"4","last_reported":1728284995,"current_range_meters":38800,"station_id":"ce4bgr92rcd13ifvqc6g","pricing_plan_id":"cebpf4jnsgd1na2vs0mg"},{"bike_id":"eaeabf89-88b4-4a66-8892-99ca406a1db2","system_id":"levelo_inurba_marseille","lat":43.27498,"lon":5.42446,"is_reserved":false,"is_disabled":false,"rental_uris":{"android":"levelo://app?vid=eaeabf89-88b4-4a66-8892-99ca406a1db2","ios":"levelo://app?vid=eaeabf89-88b4-4a66-8892-99ca406a1db2"},"vehicle_type_id":"4","last_reported":1728284995,"current_range_meters":33600,"station_id":"ce4bhn92rcd13ifvqgrg","pricing_plan_id":"cebpf4jnsgd1na2vs0mg"},{"bike_id":"0e19ddb6-6b85-4f53-a309-557f590b598b","system_id":"levelo_inurba_marseille","lat":43.23193,"lon":5.35536,"is_reserved":false,"is_disabled":false,"rental_uris":{"android":"levelo://app?vid=0e19ddb6-6b85-4f53-a309-557f590b598b","ios":"levelo://app?vid=0e19ddb6-6b85-4f53-a309-557f590b598b"},"vehicle_type_id":"4","last_reported":1728284995,"current_range_meters":28000,"station_id":"ce4bhu92rcd13ifvqi70","pricing_plan_id":"cebpf4jnsgd1na2vs0mg"},{"bike_id":"260ed674-5c80-4eea-baa5-4641d577e36d","system_id":"levelo_inurba_marseille","lat":43.26689,"lon":5.3826,"is_reserved":false,"is_disabled":false,"rental_uris":{"android":"levelo://app?vid=260ed674-5c80-4eea-baa5-4641d577e36d","ios":"levelo://app?vid=260ed674-5c80-4eea-baa5-4641d577e36d"},"vehicle_type_id":"4","last_reported":1728284995,"current_range_meters":32800,"station_id":"ce4bhg92rcd13ifvqf90","pricing_plan_id":"cebpf4jnsgd1na2vs0mg"},{"bike_id":"c594ec9e-2e54-4d0e-b576-809ae5d9b15b","system_id":"levelo_inurba_marseille","lat":43.27942,"lon":5.41058,"is_reserved":false,"is_disabled":false,"rental_uris":{"android":"levelo://app?vid=c594ec9e-2e54-4d0e-b576-809ae5d9b15b","ios":"levelo://app?vid=c594ec9e-2e54-4d0e-b576-809ae5d9b15b"},"vehicle_type_id":"4","last_reported":1728284995,"current_range_meters":10000,"station_id":"ce4bhnp2rcd13ifvqh0g","pricing_plan_id":"cebpf4jnsgd1na2vs0mg"},{"bike_id":"a4f44b5d-8a45-4bdf-8e84-a06164eda575","system_id":"levelo_inurba_marseille","lat":43.30149,"lon":5.38077,"is_reserved":false,"is_disabled":false,"rental_uris":{"android":"levelo://app?vid=a4f44b5d-8a45-4bdf-8e84-a06164eda575","ios":"levelo://app?vid=a4f44b5d-8a45-4bdf-8e84-a06164eda575"},"vehicle_type_id":"4","last_reported":1728284995,"current_range_meters":24800,"station_id":"ce4bgjp2rcd13ifvqbh0","pricing_plan_id":"cebpf4jnsgd1na2vs0mg"},{"bike_id":"56b6fd59-75e4-4531-8391-9ea094f65b50","system_id":"levelo_inurba_marseille","lat":43.25937,"lon":5.40916,"is_reserved":false,"is_disabled":false,"rental_uris":{"android":"levelo://app?vid=56b6fd59-75e4-4531-8391-9ea094f65b50","ios":"levelo://app?vid=56b6fd59-75e4-4531-8391-9ea094f65b50"},"vehicle_type_id":"4","last_reported":1728284995,"current_range_meters":24400,"station_id":"ce4bhm92rcd13ifvqglg","pricing_plan_id":"cebpf4jnsgd1na2vs0mg"},{"bike_id":"31124de3-391b-4328-ab48-6217e8366587","system_id":"levelo_inurba_marseille","lat":43.28931,"lon":5.36615,"is_reserved":false,"is_disabled":false,"rental_uris":{"android":"levelo://app?vid=31124de3-391b-4328-ab48-6217e8366587","ios":"levelo://app?vid=31124de3-391b-4328-ab48-6217e8366587"},"vehicle_type_id":"4","last_reported":1728284995,"current_range_meters":33600,"station_id":"ce4bhap2rcd13ifvqek0","pricing_plan_id":"cebpf4jnsgd1na2vs0mg"},{"bike_id":"0a537418-8078-456b-ac47-cd4c5d7b55cd","system_id":"levelo_inurba_marseille","lat":43.331123,"lon":5.399816,"is_reserved":false,"is_disabled":false,"rental_uris":{"android":"levelo://app?vid=0a537418-8078-456b-ac47-cd4c5d7b55cd","ios":"levelo://app?vid=0a537418-8078-456b-ac47-cd4c5d7b55cd"},"vehicle_type_id":"4","last_reported":1728284995,"current_range_meters":13600,"station_id":"ce4bhqh2rcd13ifvqhmg","pricing_plan_id":"cebpf4jnsgd1na2vs0mg"},{"bike_id":"ec2d0e6d-c7c0-47e4-a08a-2520de140e57","system_id":"levelo_inurba_marseille","lat":43.27497,"lon":5.42453,"is_reserved":false,"is_disabled":false,"rental_uris":{"android":"levelo://app?vid=ec2d0e6d-c7c0-47e4-a08a-2520de140e57","ios":"levelo://app?vid=ec2d0e6d-c7c0-47e4-a08a-2520de140e57"},"vehicle_type_id":"4","last_reported":1728284995,"current_range_meters":20800,"station_id":"ce4bhn92rcd13ifvqgrg","pricing_plan_id":"cebpf4jnsgd1na2vs0mg"},{"bike_id":"c34bd4ee-7b82-407e-b12c-a09c645b0d87","system_id":"levelo_inurba_marseille","lat":43.27974,"lon":5.38737,"is_reserved":false,"is_disabled":false,"rental_uris":{"android":"levelo://app?vid=c34bd4ee-7b82-407e-b12c-a09c645b0d87","ios":"levelo://app?vid=c34bd4ee-7b82-407e-b12c-a09c645b0d87"},