{"last_updated":1739200196,"ttl":60,"version":"2.2","data":{"bikes":[{"bike_id":"5cda301b-bce8-41d3-abea-2e981f99524e","system_id":"levelo_inurba_marseille","lat":43.29875,"lon":5.36287,"is_reserved":false,"is_disabled":false,"rental_uris":{"android":"levelo://app?vid=5cda301b-bce8-41d3-abea-2e981f99524e","ios":"levelo://app?vid=5cda301b-bce8-41d3-abea-2e981f99524e"},"vehicle_type_id":"4","last_reported":1739200197,"current_range_meters":29600,"station_id":"ce4bgpp2rcd13ifvqc3g","pricing_plan_id":"cebpf4jnsgd1na2vs0mg"},{"bike_id":"4f7a648d-0884-4b7c-afa9-00d4603e5e75","system_id":"levelo_inurba_marseille","lat":43.31094,"lon":5.37773,"is_reserved":false,"is_disabled":false,"rental_uris":{"android":"levelo://app?vid=4f7a648d-0884-4b7c-afa9-00d4603e5e75","ios":"levelo://app?vid=4f7a648d-0884-4b7c-afa9-00d4603e5e75"},"vehicle_type_id":"4","last_reported":1739200197,"current_range_meters":38800,"station_id":"ce4bgt92rcd13ifvqcg0","pricing_plan_id":"cebpf4jnsgd1na2vs0mg"},{"bike_id":"e7d8ed8c-85a3-44c3-8805-56fbe310205d","system_id":"levelo_inurba_marseille","lat":43.28403,"lon":5.37528,"is_reserved":false,"is_disabled":false,"rental_uris":{"android":"levelo://app?vid=e7d8ed8c-85a3-44c3-8805-56fbe310205d","ios":"levelo://app?vid=e7d8ed8c-85a3-44c3-8805-56fbe310205d"},"vehicle_type_id":"4","last_reported":1739200197,"current_range_meters":38400,"station_id":"ce4bh412rcd13ifvqds0","pricing_plan_id":"cebpf4jnsgd1na2vs0mg"},{"bike_id":"7d836d2d-c58d-4b58-979b-16543b991174","system_id":"levelo_inurba_marseille","lat":43.26961,"lon":5.38621,"is_reserved":false,"is_disabled":false,"rental_uris":{"android":"levelo://app?vid=7d836d2d-c58d-4b58-979b-16543b991174","ios":"levelo://app?vid=7d836d2d-c58d-4b58-979b-16543b991174"},"vehicle_type_id":"4","last_reported":1739200197,"current_range_meters":26800,"station_id":"ce4bhh92rcd13ifvqfh0","pricing_plan_id":"cebpf4jnsgd1na2vs0mg"},{"bike_id":"b068362a-3288-489d-9388-78d1aec4149d","system_id":"levelo_inurba_marseille","lat":43.26559,"lon":5.38998,"is_reserved":false,"is_disabled":false,"rental_uris":{"android":"levelo://app?vid=b068362a-3288-489d-9388-78d1aec4149d","ios":"levelo://app?vid=b068362a-3288-489d-9388-78d1aec4149d"},"vehicle_type_id":"4","last_reported":1739200197,"current_range_meters":38800,"station_id":"ce4bhe12rcd13ifvqf30","pricing_plan_id":"cebpf4jnsgd1na2vs0mg"},{"bike_id":"9857501a-9c64-4e8c-bbab-22c968b3d40f","system_id":"levelo_inurba_marseille","lat":43.30146,"lon":5.37428,"is_reserved":false,"is_disabled":false,"rental_uris":{"android":"levelo://app?vid=9857501a-9c64-4e8c-bbab-22c968b3d40f","ios":"levelo://app?vid=9857501a-9c64-4e8c-bbab-22c968b3d40f"},"vehicle_type_id":"4","last_reported":1739200197,"current_range_meters":37600,"station_id":"ce4bgs92rcd13ifvqcc0","pricing_plan_id":"cebpf4jnsgd1na2vs0mg"},{"bike_id":"1e432c46-6902-4068-bc83-c8d18cce47cc","system_id":"levelo_inurba_marseille","lat":43.26057,"lon":5.39395,"is_reserved":false,"is_disabled":false,"rental_uris":{"android":"levelo://app?vid=1e432c46-6902-4068-bc83-c8d18cce47cc","ios":"levelo://app?vid=1e432c46-6902-4068-bc83-c8d18cce47cc"},"vehicle_type_id":"4","last_reported":1739200197,"current_range_meters":38000,"station_id":"ce4bhh92rcd13ifvqfj0","pricing_plan_id":"cebpf4jnsgd1na2vs0mg"},{"bike_id":"ed25fbaf-4a9c-4cb0-ad1d-9d86b289153d","system_id":"levelo_inurba_marseille","lat":43.30274,"lon":5.37695,"is_reserved":false,"is_disabled":false,"rental_uris":{"android":"levelo://app?vid=ed25fbaf-4a9c-4cb0-ad1d-9d86b289153d","ios":"levelo://app?vid=ed25fbaf-4a9c-4cb0-ad1d-9d86b289153d"},"vehicle_type_id":"4","last_reported":1739200197,"current_range_meters":39200,"station_id":"ce4bguh2rcd13ifvqcj0","pricing_plan_id":"cebpf4jnsgd1na2vs0mg"},{"bike_id":"84dcddb1-4a88-43f5-b474-649fc43fc503","system_id":"levelo_inurba_marseille","lat":43.29615,"lon":5.37716,"is_reserved":false,"is_disabled":false,"rental_uris":{"android":"levelo://app?vid=84dcddb1-4a88-43f5-b474-649fc43fc503","ios":"levelo://app?vid=84dcddb1-4a88-43f5-b474-649fc43fc503"},"vehicle_type_id":"4","last_reported":1739200197,"current_range_meters":32800,"station_id":"ce4bgi92rcd13ifvqb90","pricing_plan_id":"cebpf4jnsgd1na2vs0mg"},{"bike_id":"cd43b8b3-9bce-4582-844f-517531c1058f","system_id":"levelo_inurba_marseille","lat":43.28259,"lon":5.3856,"is_reserved":false,"is_disabled":false,"rental_uris":{"android":"levelo://app?vid=cd43b8b3-9bce-4582-844f-517531c1058f","ios":"levelo://app?vid=cd43b8b3-9bce-4582-844f-517531c1058f"},"vehicle_type_id":"4","last_reported":1739200197,"current_range_meters":17200,"station_id":"","pricing_plan_id":"cebpf4jnsgd1na2vs0mg"},{"bike_id":"51b9a729-fd90-485f-a462-351308296e2e","system_id":"levelo_inurba_marseille","lat":43.27921,"lon":5.41059,"is_reserved":false,"is_disabled":true,"rental_uris":{"android":"levelo://app?vid=51b9a729-fd90-485f-a462-351308296e2e","ios":"levelo://app?vid=51b9a729-fd90-485f-a462-351308296e2e"},"vehicle_type_id":"4","last_reported":1739200197,"current_range_meters":0,"station_id":"ce4bhnp2rcd13ifvqh0g","pricing_plan_id":"cebpf4jnsgd1na2vs0mg"},{"bike_id":"8440a93c-9f0d-494a-8d04-da2f83d7ddb3","system_id":"levelo_inurba_marseille","lat":43.336158,"lon":5.410376,"is_reserved":false,"is_disabled":false,"rental_uris":{"android":"levelo://app?vid=8440a93c-9f0d-494a-8d04-da2f83d7ddb3","ios":"levelo://app?vid=8440a93c-9f0d-494a-8d04-da2f83d7ddb3"},"vehicle_type_id":"4","last_reported":1739200197,"current_range_meters":38800,"station_id":"ce4bhqh2rcd13ifvqhmg","pricing_plan_id":"cebpf4jnsgd1na2vs0mg"},{"bike_id":"6d65ae34-2ff7-46e5-b87e-38814047fdee","system_id":"levelo_inurba_marseille","lat":43.31716,"lon":5.4042,"is_reserved":false,"is_disabled":false,"rental_uris":{"android":"levelo://app?vid=6d65ae34-2ff7-46e5-b87e-38814047fdee","ios":"levelo://app?vid=6d65ae34-2ff7-46e5-b87e-38814047fdee"},"vehicle_type_id":"4","last_reported":1739200197,"current_range_meters":38800,"station_id":"","pricing_plan_id":"cebpf4jnsgd1na2vs0mg"},{"bike_id":"4a223305-3a4a-41de-bb70-9a7d7094342b","system_id":"levelo_inurba_marseille","lat":43.25109,"lon":5.40322,"is_reserved":false,"is_disabled":false,"rental_uris":{"android":"levelo://app?vid=4a223305-3a4a-41de-bb70-9a7d7094342b","ios":"levelo://app?vid=4a223305-3a4a-41de-bb70-9a7d7094342b"},"vehicle_type_id":"4","last_reported":1739200197,"current_range_meters":21600,"station_id":"ce4bhlh2rcd13ifvqgig","pricing_plan_id":"cebpf4jnsgd1na2vs0mg"},{"bike_id":"4d204692-43d3-495c-b2d3-51ca2587e954","system_id":"levelo_inurba_marseille","lat":43.2694,"lon":5.4026,"is_reserved":false,"is_disabled":false,"rental_uris":{"android":"levelo://app?vid=4d204692-43d3-495c-b2d3-51ca2587e954","ios":"levelo://app?vid=4d204692-43d3-495c-b2d3-51ca2587e954"},"vehicle_type_id":"4","last_reported":1739200197,"current_range_meters":24000,"station_id":"cjm6bp8fraef2m0cb0m0","pricing_plan_id":"cebpf4jnsgd1na2vs0mg"},{"bike_id":"4fec62a4-5d14-461f-a07c-ceeb3a48fbed","system_id":"levelo_inurba_marseille","lat":43.3107,"lon":5.38342,"is_reserved":false,"is_disabled":false,"rental_uris":{"android":"levelo://app?vid=4fec62a4-5d14-461f-a07c-ceeb3a48fbed","ios":"levelo://app?vid=4fec62a4-5d14-461f-a07c-ceeb3a48fbed"},"vehicle_type_id":"4","last_reported":1739200197,"current_range_meters":38800,"station_id":"ce4bgv92rcd13ifvqcr0","pricing_plan_id":"cebpf4jnsgd1na2vs0mg"},{"bike_id":"fea52798-e931-45ae-a156-233e5c832d95","system_id":"levelo_inurba_marseille","lat":43.30522,"lon":5.3668,"is_reserved":false,"is_disabled":false,"rental_uris":{"android":"levelo://app?vid=fea52798-e931-45ae-a156-233e5c832d95","ios":"levelo://app?vid=fea52798-e931-45ae-a156-233e5c832d95"},"vehicle_type_id":"4","last_reported":1739200197,"current_range_meters":28000,"station_id":"ce4bgrp2rcd13ifvqc9g","pricing_plan_id":"cebpf4jnsgd1na2vs0mg"},{"bike_id":"44976dab-4e89-4f2d-8a14-6c8c7d5e8913","system_id":"levelo_inurba_marseille","lat":43.28151,"lon":5.4264,"is_reserved":false,"is_disabled":false,"rental_uris":{"android":"levelo://app?vid=44976dab-4e89-4f2d-8a14-6c8c7d5e8913","ios":"levelo://app?vid=44976dab-4e89-4f2d-8a14-6c8c7d5e8913"},"vehicle_type_id":"4","last_reported":1739200197,"current_range_meters":38800,"station_id":"ce4bhnh2rcd13ifvqgug","pricing_plan_id":"cebpf4jnsgd1na2vs0mg"},{"bike_id":"ca62490e-1209-4d5b-b694-89bacead5861","system_id":"levelo_inurba_marseille","lat":43.28566,"lon":5.36724,"is_reserved":false,"is_disabled":false,"rental_uris":{"android":"levelo://app?vid=ca62490e-1209-4d5b-b694-89bacead5861","ios":"levelo://app?vid=ca62490e-1209-4d5b-b694-89bacead5861"},"vehicle_type_id":"4","last_reported":1739200197,"current_range_meters":18000,"station_id":"","pricing_plan_id":"cebpf4jnsgd1na2vs0mg"},{"bike_id":"5391c93c-7685-48ea-9c51-32eb81a76c53","system_id":"levelo_inurba_marseille","lat":43.26193,"lon":5.3745,"is_reserved":false,"is_disabled":false,"rental_uris":{"android":"levelo://app?vid=5391c93c-7685-48ea-9c51-32eb81a76c53","ios":"levelo://app?vid=5391c93c-7685-48ea-9c51-32eb81a76c53"},"vehicle_type_id":"4","last_reported":1739200197,"current_range_meters":22800,"station_id":"ce4bhgp2rcd13ifvqfc0","pricing_plan_id":"cebpf4jnsgd1na2vs0mg"},{"bike_id":"6803ddfa-d502-42a2-ad93-8e0a9a783768","system_id":"levelo_inurba_marseille","lat":43.26031,"lon":5.3755,"is_reserved":false,"is_disabled":false,"rental_uris":{"android":"levelo://app?vid=6803ddfa-d502-42a2-ad93-8e0a9a783768","ios":"levelo://app?vid=6803ddfa-d502-42a2-ad93-8e0a9a783768"},"vehicle_type_id":"4","last_reported":1739200197,"current_range_meters":24400,"station_id":"ce4bhgh2rcd13ifvqfa0","pricing_plan_id":"cebpf4jnsgd1na2vs0mg"},{"bike_id":"ec577290-415e-4adf-bee8-70a702854fd7","system_id":"levelo_inurba_marseille","lat":43.28453,"lon":5.35888,"is_reserved":false,"is_disabled":false,"rental_uris":{"android":"levelo://app?vid=ec577290-415e-4adf-bee8-70a702854fd7","ios":"levelo://app?vid=ec577290-415e-4adf-bee8-70a702854fd7"},"vehicle_type_id":"4","last_reported":1739200197,"current_range_meters":39200,"station_id":"ce4bhah2rcd13ifvqei0","pricing_plan_id":"cebpf4jnsgd1na2vs0mg"},{"bike_id":"56ebd5a1-0151-443b-8f69-f24d8ff4c9e1","system_id":"levelo_inurba_marseille","lat":43.29799,"lon":5.38088,"is_reserved":false,"is_disabled":false,"rental_uris":{"android":"levelo://app?vid=56ebd5a1-0151-443b-8f69-f24d8ff4c9e1","ios":"levelo://app?vid=56ebd5a1-0151-443b-8f69-f24d8ff4c9e1"},"vehicle_type_id":"4","last_reported":1739200197,"current_range_meters":28800,"station_id":"ce4bgip2rcd13ifvqbb0","pricing_plan_id":"cebpf4jnsgd1na2vs0mg"},{"bike_id":"382af791-3583-4039-a61e-564fc043feb5","system_id":"levelo_inurba_marseille","lat":43.24082,"lon":5.37752,"is_reserved":false,"is_disabled":false,"rental_uris":{"android":"levelo://app?vid=382af791-3583-4039-a61e-564fc043feb5","ios":"levelo://app?vid=382af791-3583-4039-a61e-564fc043feb5"},"vehicle_type_id":"4","last_reported":1739200197,"current_range_meters":38400,"station_id":"ce4bhnp2rcd13ifvqgvg","pricing_plan_id":"cebpf4jnsgd1na2vs0mg"},{"bike_id":"f798cbc4-a869-471f-bce8-f64397eebe81","system_id":"levelo_inurba_marseille","lat":43.23954,"lon":5.36624,"is_reserved":false,"is_disabled":false,"rental_uris":{"android":"levelo://app?vid=f798cbc4-a869-471f-bce8-f64397eebe81","ios":"levelo://app?vid=f798cbc4-a869-471f-bce8-f64397eebe81"},"vehicle_type_id":"4","last_reported":1739200197,"current_range_meters":25600,"station_id":"ce4bhi12rcd13ifvqfp0","pricing_plan_id":"cebpf4jnsgd1na2vs0mg"},{"bike_id":"b021e1a2-bb30-4956-b0f1-62e84c7a74e2","system_id":"levelo_inurba_marseille","lat":43.32396,"lon":5.36764,"is_reserved":false,"is_disabled":false,"rental_uris":{"android":"levelo://app?vid=b021e1a2-bb30-4956-b0f1-62e84c7a74e2","ios":"levelo://app?vid=b021e1a2-bb30-4956-b0f1-62e84c7a74e2"},"vehicle_type_id":"4","last_reported":1739200197,"current_range_meters":32000,"station_id":"ce4bhsh2rcd13ifvqi2g","pricing_plan_id":"cebpf4jnsgd1na2vs0mg"},{"bike_id":"28a47fb1-cfd8-458a-9d02-867dcc69b64f","system_id":"levelo_inurba_marseille","lat":43.27673,"lon":5.38943,"is_reserved":false,"is_disabled":false,"rental_uris":{"android":"levelo://app?vid=28a47fb1-cfd8-458a-9d02-867dcc69b64f","ios":"levelo://app?vid=28a47fb1-cfd8-458a-9d02-867dcc69b64f"},"vehicle_type_id":"4","last_reported":1739200197,"current_range_meters":39200,"station_id":"ce4bhi12rcd13ifvqfo0","pricing_plan_id":"cebpf4jnsgd1na2vs0mg"},{"bike_id":"d8299846-783e-4e6a-8bf3-c2ce336b2e6f","system_id":"levelo_inurba_marseille","lat":43.286983,"lon":5.394526,"is_reserved":false,"is_disabled":false,"rental_uris":{"android":"levelo://app?vid=d8299846-783e-4e6a-8bf3-c2ce336b2e6f","ios":"levelo://app?vid=d8299846-783e-4e6a-8bf3-c2ce336b2e6f"},"vehicle_type_id":"4","last_reported":1739200197,"current_range_meters":16800,"station_id":"ce4bh292rcd13ifvqdg0","pricing_plan_id":"cebpf4jnsgd1na2vs0mg"},{"bike_id":"776c444e-ae69-4270-af0f-40003d483afe","system_id":"levelo_inurba_marseille","lat":43.23964,"lon":5.36639,"is_reserved":false,"is_disabled":false,"rental_uris":{"android":"levelo://app?vid=776c444e-ae69-4270-af0f-40003d483afe","ios":"levelo://app?vid=776c444e-ae69-4270-af0f-40003d483afe"},"vehicle_type_id":"4","last_reported":1739200197,"current_range_meters":37600,"station_id":"ce4bhi12rcd13ifvqfp0","pricing_plan_id":"cebpf4jnsgd1na2vs0mg"},{"bike_id":"ca5c520f-fb70-4f0c-aeed-482b8e97eae1","system_id":"levelo_inurba_marseille","lat":43.31117,"lon":5.37778,"is_reserved":false,"is_disabled":false,"rental_uris":{"android":"levelo://app?vid=ca5c520f-fb70-4f0c-aeed-482b8e97eae1","ios":"levelo://app?vid=ca5c520f-fb70-4f0c-aeed-482b8e97eae1"},"vehicle_type_id":"4","last_reported":1739200197,"current_range_meters":28800,"station_id":"ce4bgt92rcd13ifvqcg0","pricing_plan_id":"cebpf4jnsgd1na2vs0mg"},{"bike_id":"1d372f93-b8e6-4f13-9d33-813b3a0ab7b3","system_id":"levelo_inurba_marseille","lat":43.29365,"lon":5.37861,"is_reserved":false,"is_disabled":false,"rental_uris":{"android":"levelo://app?vid=1d372f93-b8e6-4f13-9d33-813b3a0ab7b3","ios":"levelo://app?vid=1d372f93-b8e6-4f13-9d33-813b3a0ab7b3"},"vehicle_type_id":"4","last_reported":1739200197,"current_range_meters":36800,"station_id":"ce4bgjh2rcd13ifvqbf0","pricing_plan_id":"cebpf4jnsgd1na2vs0mg"},{"bike_id":"c93ba4b5-809f-42a1-951f-4f195f9c3735","system_id":"levelo_inurba_marseille","lat":43.29183,"lon":5.35807,"is_reserved":false,"is_disabled":false,"rental_uris":{"android":"levelo://app?vid=c93ba4b5-809f-42a1-951f-4f195f9c3735","ios":"levelo://app?vid=c93ba4b5-809f-42a1-951f-4f195f9c3735"},"vehicle_type_id":"4","last_reported":1739200197,"current_range_meters":38000,"station_id":"ce4bhb12rcd13ifvqel0","pricing_plan_id":"cebpf4jnsgd1na2vs0mg"},{"bike_id":"3269462b-d1f8-4e6c-ad17-2a10a27bad7b","system_id":"levelo_inurba_marseille","lat":43.28101,"lon":5.3781,"is_reserved":false,"is_disabled":false,"rental_uris":{"android":"levelo://app?vid=3269462b-d1f8-4e6c-ad17-2a10a27bad7b","ios":"levelo://app?vid=3269462b-d1f8-4e6c-ad17-2a10a27bad7b"},"vehicle_type_id":"4","last_reported":1739200197,"current_range_meters":28000,"station_id":"ce4bha12rcd13ifvqee0","pricing_plan_id":"cebpf4jnsgd1na2vs0mg"},{"bike_id":"84ec2ef8-1939-41fc-b66c-9a9a09d0458a","system_id":"levelo_inurba_marseille","lat":43.28073,"lon":5.39661,"is_reserved":false,"is_disabled":false,"rental_uris":{"android":"levelo://app?vid=84ec2ef8-1939-41fc-b66c-9a9a09d0458a","ios":"levelo://app?vid=84ec2ef8-1939-41fc-b66c-9a9a09d0458a"},"vehicle_type_id":"4","last_reported":1739200197,"current_range_meters":35200,"station_id":"ce4bho12rcd13ifvqh2g","pricing_plan_id":"cebpf4jnsgd1na2vs0mg"},{"bike_id":"3d775884-6b38-47ff-bdab-a7708da1a655","system_id":"levelo_inurba_marseille","lat":43.26199,"lon":5.37445,"is_reserved":false,"is_disabled":false,"rental_uris":{"android":"levelo://app?vid=3d775884-6b38-47ff-bdab-a7708da1a655","ios":"levelo://app?vid=3d775884-6b38-47ff-bdab-a7708da1a655"},"vehicle_type_id":"4","last_reported":1739200197,"current_range_meters":29600,"station_id":"ce4bhgp2rcd13ifvqfc0","pricing_plan_id":"cebpf4jnsgd1na2vs0mg"},{"bike_id":"30a04f13-fea8-4b77-992f-0b729af72960","system_id":"levelo_inurba_marseille","lat":43.28114,"lon":5.37836,"is_reserved":false,"is_disabled":false,"rental_uris":{"android":"levelo://app?vid=30a04f13-fea8-4b77-992f-0b729af72960","ios":"levelo://app?vid=30a04f13-fea8-4b77-992f-0b729af72960"},"vehicle_type_id":"4","last_reported":1739200197,"current_range_meters":25600,"station_id":"ce4bha12rcd13ifvqee0","pricing_plan_id":"cebpf4jnsgd1na2vs0mg"},{"bike_id":"a1e1c154-9e5a-4afc-9a7e-cedaf38d9921","system_id":"levelo_inurba_marseille","lat":43.29002,"lon":5.35616,"is_reserved":false,"is_disabled":false,"rental_uris":{"android":"levelo://app?vid=a1e1c154-9e5a-4afc-9a7e-cedaf38d9921","ios":"levelo://app?vid=a1e1c154-9e5a-4afc-9a7e-cedaf38d9921"},"vehicle_type_id":"4","last_reported":1739200197,"current_range_meters":34800,"station_id":"ce4bhb92rcd13ifvqen0","pricing_plan_id":"cebpf4jnsgd1na2vs0mg"},{"bike_id":"726fb099-c3d7-4106-beb8-89951bfba46d","system_id":"levelo_inurba_marseille","lat":43.29579,"lon":5.37503,"is_reserved":false,"is_disabled":true,"rental_uris":{"android":"levelo://app?vid=726fb099-c3d7-4106-beb8-89951bfba46d","ios":"levelo://app?vid=726fb099-c3d7-4106-beb8-89951bfba46d"},"vehicle_type_id":"4","last_reported":1739200197,"current_range_meters":34000,"station_id":"ce4bgh92rcd13ifvqb50","pricing_plan_id":"cebpf4jnsgd1na2vs0mg"},{"bike_id":"a0786387-34cb-41ee-a124-76dad3f46db5","system_id":"levelo_inurba_marseille","lat":43.30454,"lon":5.37905,"is_reserved":false,"is_disabled":false,"rental_uris":{"android":"levelo://app?vid=a0786387-34cb-41ee-a124-76dad3f46db5","ios":"levelo://app?vid=a0786387-34cb-41ee-a124-76dad3f46db5"},"vehicle_type_id":"4","last_reported":1739200197,"current_range_meters":28000,"station_id":"ce4bgup2rcd13ifvqcn0","pricing_plan_id":"cebpf4jnsgd1na2vs0mg"},{"bike_id":"1bbaf7b8-7e30-4a0d-aa87-6eb1043569d6","system_id":"levelo_inurba_marseille","lat":43.281,"lon":5.37851,"is_reserved":false,"is_disabled":false,"rental_uris":{"android":"levelo://app?vid=1bbaf7b8-7e30-4a0d-aa87-6eb1043569d6","ios":"levelo://app?vid=1bbaf7b8-7e30-4a0d-aa87-6eb1043569d6"},"vehicle_type_id":"4","last_reported":1739200197,"current_range_meters":29600,"station_id":"ce4bha12rcd13ifvqee0","pricing_plan_id":"cebpf4jnsgd1na2vs0mg"},{"bike_id":"aad80c40-1a19-4967-9ae2-246b8397418b","system_id":"levelo_inurba_marseille","lat":43.30037,"lon":5.37551,"is_reserved":false,"is_disabled":false,"rental_uris":{"android":"levelo://app?vid=aad80c40-1a19-4967-9ae2-246b8397418b","ios":"levelo://app?vid=aad80c40-1a19-4967-9ae2-246b8397418b"},"vehicle_type_id":"4","last_reported":1739200197,"current_range_meters":38000,"station_id":"ce4bgkh2rcd13ifvqbl0","pricing_plan_id":"cebpf4jnsgd1na2vs0mg"},{"bike_id":"5728af05-01f3-4c14-afd6-c4ebe0f65611","system_id":"levelo_inurba_marseille","lat":43.24998,"lon":5.38934,"is_reserved":false,"is_disabled":false,"rental_uris":{"android":"levelo://app?vid=5728af05-01f3-4c14-afd6-c4ebe0f65611","ios":"levelo://app?vid=5728af05-01f3-4c14-afd6-c4ebe0f65611"},"vehicle_type_id":"4","last_reported":1739200197,"current_range_meters":7200,"station_id":"ce4bhgp2rcd13ifvqfd0","pricing_plan_id":"cebpf4jnsgd1na2vs0mg"},{"bike_id":"c589096b-2f0f-4a04-810c-5a98686a2581","system_id":"levelo_inurba_marseille","lat":43.28097,"lon":5.37851,"is_reserved":false,"is_disabled":false,"rental_uris":{"android":"levelo://app?vid=c589096b-2f0f-4a04-810c-5a98686a2581","ios":"levelo://app?vid=c589096b-2f0f-4a04-810c-5a98686a2581"},"vehicle_type_id":"4","last_reported":1739200197,"current_range_meters":28000,"station_id":"ce4bha12rcd13ifvqee0","pricing_plan_id":"cebpf4jnsgd1na2vs0mg"},{"bike_id":"b57c3c52-f51a-4e18-bdaf-76e91ccd9395","system_id":"levelo_inurba_marseille","lat":43.24186,"lon":5.39728,"is_reserved":false,"is_disabled":false,"rental_uris":{"android":"levelo://app?vid=b57c3c52-f51a-4e18-bdaf-76e91ccd9395","ios":"levelo://app?vid=b57c3c52-f51a-4e18-bdaf-76e91ccd9395"},"vehicle_type_id":"4","last_reported":1739200197,"current_range_meters":38800,"station_id":"ce4bhn12rcd13ifvqgpg","pricing_plan_id":"cebpf4jnsgd1na2vs0mg"},{"bike_id":"3441c74a-282b-45aa-b329-9e43a88c8a80","system_id":"levelo_inurba_marseille","lat":43.24817,"lon":5.37432,"is_reserved":false,"is_disabled":false,"rental_uris":{"android":"levelo://app?vid=3441c74a-282b-45aa-b329-9e43a88c8a80","ios":"levelo://app?vid=3441c74a-282b-45aa-b329-9e43a88c8a80"},"vehicle_type_id":"4","last_reported":1739200197,"current_range_meters":19200,"station_id":"ce4bhgh2rcd13ifvqfb0","pricing_plan_id":"cebpf4jnsgd1na2vs0mg"},{"bike_id":"e00cd517-4a6d-40d8-b46e-27fb98e2bb39","system_id":"levelo_inurba_marseille","lat":43.2844,"lon":5.35892,"is_reserved":false,"is_disabled":false,"rental_uris":{"android":"levelo://app?vid=e00cd517-4a6d-40d8-b46e-27fb98e2bb39","ios":"levelo://app?vid=e00cd517-4a6d-40d8-b46e-27fb98e2bb39"},"vehicle_type_id":"4","last_reported":1739200197,"current_range_meters":38800,"station_id":"ce4bhah2rcd13ifvqei0","pricing_plan_id":"cebpf4jnsgd1na2vs0mg"},{"bike_id":"6d35baf6-b40a-4254-a7f5-d19098690ec0","system_id":"levelo_inurba_marseille","lat":43.30557,"lon":5.36657,"is_reserved":false,"is_disabled":false,"rental_uris":{"android":"levelo://app?vid=6d35baf6-b40a-4254-a7f5-d19098690ec0","ios":"levelo://app?vid=6d35baf6-b40a-4254-a7f5-d19098690ec0"},"vehicle_type_id":"4","last_reported":1739200197,"current_range_meters":29600,"station_id":"ce4bgrp2rcd13ifvqc9g","pricing_plan_id":"cebpf4jnsgd1na2vs0mg"},{"bike_id":"ff7a2a59-7301-40ff-8498-3236d4a83429","system_id":"levelo_inurba_marseille","lat":43.28136,"lon":5.39863,"is_reserved":false,"is_disabled":false,"rental_uris":{"android":"levelo://app?vid=ff7a2a59-7301-40ff-8498-3236d4a83429","ios":"levelo://app?vid=ff7a2a59-7301-40ff-8498-3236d4a83429"},"vehicle_type_id":"4","last_reported":1739200197,"current_range_meters":20000,"station_id":"","pricing_plan_id":"cebpf4jnsgd1na2vs0mg"},{"bike_id":"8e2f681c-56b3-4dbe-acf6-d95949b97842","system_id":"levelo_inurba_marseille","lat":43.301561,"lon":5.380922,"is_reserved":false,"is_disabled":true,"rental_uris":{"android":"levelo://app?vid=8e2f681c-56b3-4dbe-acf6-d95949b97842","ios":"levelo://app?vid=8e2f681c-56b3-4dbe-acf6-d95949b97842"},"vehicle_type_id":"4","last_reported":1739200197,"current_range_meters":26800,"station_id":"","pricing_plan_id":"cebpf4jnsgd1na2vs0mg"},{"bike_id":"fa2aa83b-ea8e-4382-8883-daf1d30785d3","system_id":"levelo_inurba_marseille","lat":43.27071,"lon":5.42284,"is_reserved":false,"is_disabled":false,"rental_uris":{"android":"levelo://app?vid=fa2aa83b-ea8e-4382-8883-daf1d30785d3","ios":"levelo://app?vid=fa2aa83b-ea8e-4382-8883-daf1d30785d3"},"vehicle_type_id":"4","last_reported":1739200197,"current_range_meters":24000,"station_id":"ce4bhk92rcd13ifvqgb0","pricing_plan_id":"cebpf4jnsgd1na2vs0mg"},{"bike_id":"4ba63a9b-b4bf-4388-af01-3ebb98ec1c1b","system_id":"levelo_inurba_marseille","lat":43.32981,"lon":5.39039,"is_reserved":false,"is_disabled":false,"rental_uris":{"android":"levelo://app?vid=4ba63a9b-b4bf-4388-af01-3ebb98ec1c1b","ios":"levelo://app?vid=4ba63a9b-b4bf-4388-af01-3ebb98ec1c1b"},"vehicle_type_id":"4","last_reported":1739200197,"current_range_meters":25200,"station_id":"ce4bhr92rcd13ifvqhrg","pricing_plan_id":"cebpf4jnsgd1na2vs0mg"},{"bike_id":"b41d8475-1b61-4022-b648-2777adae10ea","system_id":"levelo_inurba_marseille","lat":43.24144,"lon":5.36602,"is_reserved":false,"is_disabled":false,"rental_uris":{"android":"levelo://app?vid=b41d8475-1b61-4022-b648-2777adae10ea","ios":"levelo://app?vid=b41d8475-1b61-4022-b648-2777adae10ea"},"vehicle_type_id":"4","last_reported":1739200197,"current_range_meters":28800,"station_id":"","pricing_plan_id":"cebpf4jnsgd1na2vs0mg"},{"bike_id":"9be9344b-405a-4b39-a21c-83cfb0feb0fc","system_id":"levelo_inurba_marseille","lat":43.31367,"lon":5.36694,"is_reserved":false,"is_disabled":false,"rental_uris":{"android":"levelo://app?vid=9be9344b-405a-4b39-a21c-83cfb0feb0fc","ios":"levelo://app?vid=9be9344b-405a-4b39-a21c-83cfb0feb0fc"},"vehicle_type_id":"4","last_reported":1739200197,"current_range_meters":38800,"station_id":"ce4bgr92rcd13ifvqc6g","pricing_plan_id":"cebpf4jnsgd1na2vs0mg"},{"bike_id":"d2073a62-16cd-40e9-bcc5-59550ac04715","system_id":"levelo_inurba_marseille","lat":43.264879,"lon":5.395469,"is_reserved":false,"is_disabled":false,"rental_uris":{"android":"levelo://app?vid=d2073a62-16cd-40e9-bcc5-59550ac04715","ios":"levelo://app?vid=d2073a62-16cd-40e9-bcc5-59550ac04715"},"vehicle_type_id":"4","last_reported":1739200197,"current_range_meters":38800,"station_id":"ce4bhi12rcd13ifvqfq0","pricing_plan_id":"cebpf4jnsgd1na2vs0mg"},{"bike_id":"fe320b2e-324a-42ec-8587-da8fcb5f56ee","system_id":"levelo_inurba_marseille","lat":43.28727,"lon":5.36088,"is_reserved":false,"is_disabled":false,"rental_uris":{"android":"levelo://app?vid=fe320b2e-324a-42ec-8587-da8fcb5f56ee","ios":"levelo://app?vid=fe320b2e-324a-42ec-8587-da8fcb5f56ee"},"vehicle_type_id":"4","last_reported":1739200197,"current_range_meters":23200,"station_id":"cki0cbj6b192h4jlfktg","pricing_plan_id":"cebpf4jnsgd1na2vs0mg"},{"bike_id":"a201a94e-bef4-4cd6-bae4-fb46dcae17db","system_id":"levelo_inurba_marseille","lat":43.28724,"lon":5.36094,"is_reserved":false,"is_disabled":false,"rental_uris":{"android":"levelo://app?vid=a201a94e-bef4-4cd6-bae4-fb46dcae17db","ios":"levelo://app?vid=a201a94e-bef4-4cd6-bae4-fb46dcae17db"},"vehicle_type_id":"4","last_reported":1739200197,"current_range_meters":35600,"station_id":"cki0cbj6b192h4jlfktg","pricing_plan_id":"cebpf4jnsgd1na2vs0mg"},{"bike_id":"d3591e02-e841-4886-88af-8db6004e794b","system_id":"levelo_inurba_marseille","lat":43.30542,"lon":5.36708,"is_reserved":false,"is_disabled":false,"rental_uris":{"android":"levelo://app?vid=d3591e02-e841-4886-88af-8db6004e794b","ios":"levelo://app?vid=d3591e02-e841-4886-88af-8db6004e794b"},"vehicle_type_id":"4","last_reported":1739200197,"current_range_meters":39200,"station_id":"ce4bgrp2rcd13ifvqc9g","pricing_plan_id":"cebpf4jnsgd1na2vs0mg"},{"bike_id":"51ab7186-5043-4bed-baca-73708608a302","system_id":"levelo_inurba_marseille","lat":43.29584,"lon":5.37026,"is_reserved":false,"is_disabled":true,"rental_uris":{"android":"levelo://app?vid=51ab7186-5043-4bed-baca-73708608a302","ios":"levelo://app?vid=51ab7186-5043-4bed-baca-73708608a302"},"vehicle_type_id":"4","last_reported":1739200197,"current_range_meters":11600,"station_id":"","pricing_plan_id":"cebpf4jnsgd1na2vs0mg"},{"bike_id":"48f2202c-e063-4fe1-816b-a0c820596133","system_id":"levelo_inurba_marseille","lat":43.26204,"lon":5.37927,"is_reserved":false,"is_disabled":false,"rental_uris":{"android":"levelo://app?vid=48f2202c-e063-4fe1-816b-a0c820596133","ios":"levelo://app?vid=48f2202c-e063-4fe1-816b-a0c820596133"},"vehicle_type_id":"4","last_reported":1739200197,"current_range_meters":38800,"station_id":"ce4bhjp2rcd13ifvqg90","pricing_plan_id":"cebpf4jnsgd1na2vs0mg"},{"bike_id":"6bf584aa-4c4f-4f88-a9b6-6d0eb0dcbbb2","system_id":"levelo_inurba_marseille","lat":43.31376,"lon":5.36707,"is_reserved":false,"is_disabled":false,"rental_uris":{"android":"levelo://app?vid=6bf584aa-4c4f-4f88-a9b6-6d0eb0dcbbb2","ios":"levelo://app?vid=6bf584aa-4c4f-4f88-a9b6-6d0eb0dcbbb2"},"vehicle_type_id":"4","last_reported":1739200197,"current_range_meters":39200,"station_id":"ce4bgr92rcd13ifvqc6g","pricing_plan_id":"cebpf4jnsgd1na2vs0mg"},{"bike_id":"0b2730f4-2761-48a6-b43d-961c9e696ec1","system_id":"levelo_inurba_marseille","lat":43.28448,"lon":5.35889,"is_reserved":false,"is_disabled":false,"rental_uris":{"android":"levelo://app?vid=0b2730f4-2761-48a6-b43d-961c9e696ec1","ios":"levelo://app?vid=0b2730f4-2761-48a6-b43d-961c9e696ec1"},"vehicle_type_id":"4","last_reported":1739200197,"current_range_meters":39200,"station_id":"ce4bhah2rcd13ifvqei0","pricing_plan_id":"cebpf4jnsgd1na2vs0mg"},{"bike_id":"6786f0a6-4038-4cb8-ac65-e731d74f4379","system_id":"levelo_inurba_marseille","lat":43.27398,"lon":5.39393,"is_reserved":false,"is_disabled":false,"rental_uris":{"android":"levelo://app?vid=6786f0a6-4038-4cb8-ac65-e731d74f4379","ios":"levelo://app?vid=6786f0a6-4038-4cb8-ac65-e731d74f4379"},"vehicle_type_id":"4","last_reported":1739200197,"current_range_meters":38800,"station_id":"ce4bhdp2rcd13ifvqf20","pricing_plan_id":"cebpf4jnsgd1na2vs0mg"},{"bike_id":"5f8a149c-aa41-49d3-a762-395d6e2fcd1f","system_id":"levelo_inurba_marseille","lat":43.29293,"lon":5.37448,"is_reserved":false,"is_disabled":false,"rental_uris":{"android":"levelo://app?vid=5f8a149c-aa41-49d3-a762-395d6e2fcd1f","ios":"levelo://app?vid=5f8a149c-aa41-49d3-a762-395d6e2fcd1f"},"vehicle_type_id":"4","last_reported":1739200197,"current_range_meters":36400,"station_id":"ce4bgi12rcd13ifvqb70","pricing_plan_id":"cebpf4jnsgd1na2vs0mg"},{"bike_id":"4acb85d5-9cb6-4c09-878d-5a7228332205","system_id":"levelo_inurba_marseille","lat":43.24257,"lon":5.36965,"is_reserved":false,"is_disabled":false,"rental_uris":{"android":"levelo://app?vid=4acb85d5-9cb6-4c09-878d-5a7228332205","ios":"levelo://app?vid=4acb85d5-9cb6-4c09-878d-5a7228332205"},"vehicle_type_id":"4","last_reported":1739200197,"current_range_meters":18000,"station_id":"ce4bhg12rcd13ifvqf60","pricing_plan_id":"cebpf4jnsgd1na2vs0mg"},{"bike_id":"af301340-655f-4c3d-a720-d256a4d8d904","system_id":"levelo_inurba_marseille","lat":43.30254,"lon":5.400743,"is_reserved":false,"is_disabled":false,"rental_uris":{"android":"levelo://app?vid=af301340-655f-4c3d-a720-d256a4d8d904","ios":"levelo://app?vid=af301340-655f-4c3d-a720-d256a4d8d904"},"vehicle_type_id":"4","last_reported":1739200197,"current_range_meters":24400,"station_id":"ce4bgvh2rcd13ifvqcs0","pricing_plan_id":"cebpf4jnsgd1na2vs0mg"},{"bike_id":"a5e058a2-17bc-4f3f-a468-2679b31f751e","system_id":"levelo_inurba_marseille","lat":43.30258,"lon":5.40048,"is_reserved":false,"is_disabled":false,"rental_uris":{"android":"levelo://app?vid=a5e058a2-17bc-4f3f-a468-2679b31f751e","ios":"levelo://app?vid=a5e058a2-17bc-4f3f-a468-2679b31f751e"},"vehicle_type_id":"4","last_reported":1739200197,"current_range_meters":24400,"station_id":"ce4bgvh2rcd13ifvqcs0","pricing_plan_id":"cebpf4jnsgd1na2vs0mg"},{"bike_id":"c27831c1-d266-4639-82f3-e78fb3277b69","system_id":"levelo_inurba_marseille","lat":43.30768,"lon":5.37663,"is_reserved":false,"is_disabled":false,"rental_uris":{"android":"levelo://app?vid=c27831c1-d266-4639-82f3-e78fb3277b69","ios":"levelo://app?vid=c27831c1-d266-4639-82f3-e78fb3277b69"},"vehicle_type_id":"4","last_reported":1739200197,"current_range_meters":24400,"station_id":"ce4bgv92rcd13ifvqcq0","pricing_plan_id":"cebpf4jnsgd1na2vs0mg"},{"bike_id":"0cdcc8f7-f674-43f1-9b73-0f1949650402","system_id":"levelo_inurba_marseille","lat":43.23958,"lon":5.36629,"is_reserved":false,"is_disabled":false,"rental_uris":{"android":"levelo://app?vid=0cdcc8f7-f674-43f1-9b73-0f1949650402","ios":"levelo://app?vid=0cdcc8f7-f674-43f1-9b73-0f1949650402"},"vehicle_type_id":"4","last_reported":1739200197,"current_range_meters":38000,"station_id":"ce4bhi12rcd13ifvqfp0","pricing_plan_id":"cebpf4jnsgd1na2vs0mg"},{"bike_id":"34bb1c38-a48a-4f88-b8db-bfdd613d1995","system_id":"levelo_inurba_marseille","lat":43.26208,"lon":5.40457,"is_reserved":false,"is_disabled":false,"rental_uris":{"android":"levelo://app?vid=34bb1c38-a48a-4f88-b8db-bfdd613d1995","ios":"levelo://app?vid=34bb1c38-a48a-4f88-b8db-bfdd613d1995"},"vehicle_type_id":"4","last_reported":1739200197,"current_range_meters":17600,"station_id":"ce4bhmh2rcd13ifvqgmg","pricing_plan_id":"cebpf4jnsgd1na2vs0mg"},{"bike_id":"de77abfa-6f74-40e9-8131-b7884eda37eb","system_id":"levelo_inurba_marseille","lat":43.29937,"lon":5.39406,"is_reserved":false,"is_disabled":false,"rental_uris":{"android":"levelo://app?vid=de77abfa-6f74-40e9-8131-b7884eda37eb","ios":"levelo://app?vid=de77abfa-6f74-40e9-8131-b7884eda37eb"},"vehicle_type_id":"4","last_reported":1739200197,"current_range_meters":32000,"station_id":"","pricing_plan_id":"cebpf4jnsgd1na2vs0mg"},{"bike_id":"e2a9cf7a-0120-496d-b62d-222fd8bf761f","system_id":"levelo_inurba_marseille","lat":43.26933,"lon":5.3892,"is_reserved":false,"is_disabled":false,"rental_uris":{"android":"levelo://app?vid=e2a9cf7a-0120-496d-b62d-222fd8bf761f","ios":"levelo://app?vid=e2a9cf7a-0120-496d-b62d-222fd8bf761f"},"vehicle_type_id":"4","last_reported":1739200197,"current_range_meters":20400,"station_id":"ce4bhhh2rcd13ifvqfl0","pricing_plan_id":"cebpf4jnsgd1na2vs0mg"},{"bike_id":"66776b49-5a24-4829-aa64-d290023efbe7","system_id":"levelo_inurba_marseille","lat":43.31905,"lon":5.40731,"is_reserved":false,"is_disabled":false,"rental_uris":{"android":"levelo://app?vid=66776b49-5a24-4829-aa64-d290023efbe7","ios":"levelo://app?vid=66776b49-5a24-4829-aa64-d290023efbe7"},"vehicle_type_id":"4","last_reported":1739200197,"current_range_meters":38800,"station_id":"ce4bhq12rcd13ifvqhig","pricing_plan_id":"cebpf4jnsgd1na2vs0mg"},{"bike_id":"ee079ffa-4416-4a91-bc98-3bd665acea3b","system_id":"levelo_inurba_marseille","lat":43.337283,"lon":5.391832,"is_reserved":false,"is_disabled":false,"rental_uris":{"android":"levelo://app?vid=ee079ffa-4416-4a91-bc98-3bd665acea3b","ios":"levelo://app?vid=ee079ffa-4416-4a91-bc98-3bd665acea3b"},"vehicle_type_id":"4","last_reported":1739200197,"current_range_meters":38800,"station_id":"ce4bhr92rcd13ifvqhsg","pricing_plan_id":"cebpf4jnsgd1na2vs0mg"},{"bike_id":"1fa82dc6-47d4-4356-bbca-393bf4461726","system_id":"levelo_inurba_marseille","lat":43.23962,"lon":5.36637,"is_reserved":false,"is_disabled":false,"rental_uris":{"android":"levelo://app?vid=1fa82dc6-47d4-4356-bbca-393bf4461726","ios":"levelo://app?vid=1fa82dc6-47d4-4356-bbca-393bf4461726"},"vehicle_type_id":"4","last_reported":1739200197,"current_range_meters":23200,"station_id":"ce4bhi12rcd13ifvqfp0","pricing_plan_id":"cebpf4jnsgd1na2vs0mg"},{"bike_id":"d441ee9f-c7ca-487d-b140-c7eeb3736d66","system_id":"levelo_inurba_marseille","lat":43.29258,"lon":5.40904,"is_reserved":false,"is_disabled":false,"rental_uris":{"android":"levelo://app?vid=d441ee9f-c7ca-487d-b140-c7eeb3736d66","ios":"levelo://app?vid=d441ee9f-c7ca-487d-b140-c7eeb3736d66"},"vehicle_type_id":"4","last_reported":1739200197,"current_range_meters":18000,"station_id":"ce4bh192rcd13ifvqdc0","pricing_plan_id":"cebpf4jnsgd1na2vs0mg"},{"bike_id":"fd4d734a-0c54-4e79-9a40-ca5ee9ce0d49","system_id":"levelo_inurba_marseille","lat":43.29571,"lon":5.40005,"is_reserved":false,"is_disabled":true,"rental_uris":{"android":"levelo://app?vid=fd4d734a-0c54-4e79-9a40-ca5ee9ce0d49","ios":"levelo://app?vid=fd4d734a-0c54-4e79-9a40-ca5ee9ce0d49"},"vehicle_type_id":"4","last_reported":1739200197,"current_range_meters":0,"station_id":"ce4bh312rcd13ifvqdj0","pricing_plan_id":"cebpf4jnsgd1na2vs0mg"},{"bike_id":"b463dfee-0d20-4ab9-819a-c7b4ad766bca","system_id":"levelo_inurba_marseille","lat":43.23146,"lon":5.43723,"is_reserved":false,"is_disabled":false,"rental_uris":{"android":"levelo://app?vid=b463dfee-0d20-4ab9-819a-c7b4ad766bca","ios":"levelo://app?vid=b463dfee-0d20-4ab9-819a-c7b4ad766bca"},"vehicle_type_id":"4","last_reported":1739200197,"current_range_meters":21600,"station_id":"ce4bhmp2rcd13ifvqgog","pricing_plan_id":"cebpf4jnsgd1na2vs0mg"},{"bike_id":"8538082d-d32f-4abb-b19f-d0a609e586ba","system_id":"levelo_inurba_marseille","lat":43.34174,"lon":5.4088,"is_reserved":false,"is_disabled":false,"rental_uris":{"android":"levelo://app?vid=8538082d-d32f-4abb-b19f-d0a609e586ba","ios":"levelo://app?vid=8538082d-d32f-4abb-b19f-d0a609e586ba"},"vehicle_type_id":"4","last_reported":1739200197,"current_range_meters":38800,"station_id":"","pricing_plan_id":"cebpf4jnsgd1na2vs0mg"},{"bike_id":"67c77a93-95e0-4dde-b030-1b6a0f65cf9a","system_id":"levelo_inurba_marseille","lat":43.27194,"lon":5.40984,"is_reserved":false,"is_disabled":false,"rental_uris":{"android":"levelo://app?vid=67c77a93-95e0-4dde-b030-1b6a0f65cf9a","ios":"levelo://app?vid=67c77a93-95e0-4dde-b030-1b6a0f65cf9a"},"vehicle_type_id":"4","last_reported":1739200197,"current_range_meters":12400,"station_id":"ce4bhl12rcd13ifvqgf0","pricing_plan_id":"cebpf4jnsgd1na2vs0mg"},{"bike_id":"d0d8ec2f-c95a-46f3-be60-0d8863b57c52","system_id":"levelo_inurba_marseille","lat":43.28345,"lon":5.38102,"is_reserved":false,"is_disabled":false,"rental_uris":{"android":"levelo://app?vid=d0d8ec2f-c95a-46f3-be60-0d8863b57c52","ios":"levelo://app?vid=d0d8ec2f-c95a-46f3-be60-0d8863b57c52"},"vehicle_type_id":"4","last_reported":1739200197,"current_range_meters":38400,"station_id":"ce4bh412rcd13ifvqdr0","pricing_plan_id":"cebpf4jnsgd1na2vs0mg"},{"bike_id":"6d3b97fb-4f4c-4033-b1fc-3eaa58179946","system_id":"levelo_inurba_marseille","lat":43.27815,"lon":5.40717,"is_reserved":false,"is_disabled":false,"rental_uris":{"android":"levelo://app?vid=6d3b97fb-4f4c-4033-b1fc-3eaa58179946","ios":"levelo://app?vid=6d3b97fb-4f4c-4033-b1fc-3eaa58179946"},"vehicle_type_id":"4","last_reported":1739200197,"current_range_meters":38800,"station_id":"ce4bhnh2rcd13ifvqgtg","pricing_plan_id":"cebpf4jnsgd1na2vs0mg"},{"bike_id":"f53564a4-cbf9-4b55-bb72-8eda8cad3a05","system_id":"levelo_inurba_marseille","lat":43.27081,"lon":5.42276,"is_reserved":false,"is_disabled":false,"rental_uris":{"android":"levelo://app?vid=f53564a4-cbf9-4b55-bb72-8eda8cad3a05","ios":"levelo://app?vid=f53564a4-cbf9-4b55-bb72-8eda8cad3a05"},"vehicle_type_id":"4","last_reported":1739200197,"current_range_meters":22800,"station_id":"ce4bhk92rcd13ifvqgb0","pricing_plan_id":"cebpf4jnsgd1na2vs0mg"},{"bike_id":"094ce0d3-0869-4a4e-bc44-e588765eb895","system_id":"levelo_inurba_marseille","lat":43.27565,"lon":5.38408,"is_reserved":false,"is_disabled":false,"rental_uris":{"android":"levelo://app?vid=094ce0d3-0869-4a4e-bc44-e588765eb895","ios":"levelo://app?vid=094ce0d3-0869-4a4e-bc44-e588765eb895"},"vehicle_type_id":"4","last_reported":1739200197,"current_range_meters":14000,"station_id":"ce4bhh92rcd13ifvqfi0","pricing_plan_id":"cebpf4jnsgd1na2vs0mg"},{"bike_id":"05f6ac8f-0127-4e39-bd11-d53a74225ef8","system_id":"levelo_inurba_marseille","lat":43.27874,"lon":5.40597,"is_reserved":false,"is_disabled":true,"rental_uris":{"android":"levelo://app?vid=05f6ac8f-0127-4e39-bd11-d53a74225ef8","ios":"levelo://app?vid=05f6ac8f-0127-4e39-bd11-d53a74225ef8"},"vehicle_type_id":"4","last_reported":1739200197,"current_range_meters":0,"station_id":"","pricing_plan_id":"cebpf4jnsgd1na2vs0mg"},{"bike_id":"e49ee871-b82d-4767-83e2-99541bcc1e76","system_id":"levelo_inurba_marseille","lat":43.31753,"lon":5.39011,"is_reserved":false,"is_disabled":false,"rental_uris":{"android":"levelo://app?vid=e49ee871-b82d-4767-83e2-99541bcc1e76","ios":"levelo://app?vid=e49ee871-b82d-4767-83e2-99541bcc1e76"},"vehicle_type_id":"4","last_reported":1739200197,"current_range_meters":25200,"station_id":"ce4bhqp2rcd13ifvqhng","pricing_plan_id":"cebpf4jnsgd1na2vs0mg"},{"bike_id":"ae573ce6-0d15-4e2b-abc8-f4b1d60833fb","system_id":"levelo_inurba_marseille","lat":43.3018,"lon":5.36607,"is_reserved":false,"is_disabled":false,"rental_uris":{"android":"levelo://app?vid=ae573ce6-0d15-4e2b-abc8-f4b1d60833fb","ios":"levelo://app?vid=ae573ce6-0d15-4e2b-abc8-f4b1d60833fb"},"vehicle_type_id":"4","last_reported":1739200197,"current_range_meters":38800,"station_id":"ce4bgrh2rcd13ifvqc8g","pricing_plan_id":"cebpf4jnsgd1na2vs0mg"},{"bike_id":"2622dd31-a463-4b85-ba10-5093e4a8f567","system_id":"levelo_inurba_marseille","lat":43.26202,"lon":5.37929,"is_reserved":false,"is_disabled":false,"rental_uris":{"android":"levelo://app?vid=2622dd31-a463-4b85-ba10-5093e4a8f567","ios":"levelo://app?vid=2622dd31-a463-4b85-ba10-5093e4a8f567"},"vehicle_type_id":"4","last_reported":1739200197,"current_range_meters":35600,"station_id":"ce4bhjp2rcd13ifvqg90","pricing_plan_id":"cebpf4jnsgd1na2vs0mg"},{"bike_id":"a11bda5f-e8b3-4b2f-a9ee-d474ac602af8","system_id":"levelo_inurba_marseille","lat":43.29546,"lon":5.3856,"is_reserved":false,"is_disabled":true,"rental_uris":{"android":"levelo://app?vid=a11bda5f-e8b3-4b2f-a9ee-d474ac602af8","ios":"levelo://app?vid=a11bda5f-e8b3-4b2f-a9ee-d474ac602af8"},"vehicle_type_id":"4","last_reported":1739200197,"current_range_meters":400,"station_id":"ce4bgih2rcd13ifvqba0","pricing_plan_id":"cebpf4jnsgd1na2vs0mg"},{"bike_id":"ad0c2723-4955-492b-8622-37e7226ab62a","system_id":"levelo_inurba_marseille","lat":43.27619,"lon":5.3612,"is_reserved":false,"is_disabled":false,"rental_uris":{"android":"levelo://app?vid=ad0c2723-4955-492b-8622-37e7226ab62a","ios":"levelo://app?vid=ad0c2723-4955-492b-8622-37e7226ab62a"},"vehicle_type_id":"4","last_reported":1739200197,"current_range_meters":37600,"station_id":"ce4bgj92rcd13ifvqbe0","pricing_plan_id":"cebpf4jnsgd1na2vs0mg"},{"bike_id":"db5d46bd-0ab6-4ccc-ae72-f41cbb1a3d24","system_id":"levelo_inurba_marseille","lat":43.29967,"lon":5.38493,"is_reserved":false,"is_disabled":false,"rental_uris":{"android":"levelo://app?vid=db5d46bd-0ab6-4ccc-ae72-f41cbb1a3d24","ios":"levelo://app?vid=db5d46bd-0ab6-4ccc-ae72-f41cbb1a3d24"},"vehicle_type_id":"4","last_reported":1739200197,"current_range_meters":29600,"station_id":"ce4bgj92rcd13ifvqbd0","pricing_plan_id":"cebpf4jnsgd1na2vs0mg"},{"bike_id":"6c812d7d-beb3-4612-a8b5-a4f98ae205ce","system_id":"levelo_inurba_marseille","lat":43.30212,"lon":5.39465,"is_reserved":false,"is_disabled":false,"rental_uris":{"android":"levelo://app?vid=6c812d7d-beb3-4612-a8b5-a4f98ae205ce","ios":"levelo://app?vid=6c812d7d-beb3-4612-a8b5-a4f98ae205ce"},"vehicle_type_id":"4","last_reported":1739200197,"current_range_meters":9600,"station_id":"ce4bh0p2rcd13ifvqd70","pricing_plan_id":"cebpf4jnsgd1na2vs0mg"},{"bike_id":"965a9ce7-9ea3-47be-9834-364ff2137ce4","system_id":"levelo_inurba_marseille","lat":43.29525,"lon":5.39052,"is_reserved":false,"is_disabled":false,"rental_uris":{"android":"levelo://app?vid=965a9ce7-9ea3-47be-9834-364ff2137ce4","ios":"levelo://app?vid=965a9ce7-9ea3-47be-9834-364ff2137ce4"},"vehicle_type_id":"4","last_reported":1739200197,"current_range_meters":26800,"station_id":"ce4bh3p2rcd13ifvqdp0","pricing_plan_id":"cebpf4jnsgd1na2vs0mg"},{"bike_id":"f4b26390-acd7-49a5-b9ae-eb2e2296da89","system_id":"levelo_inurba_marseille","lat":43.32469,"lon":5.36577,"is_reserved":false,"is_disabled":false,"rental_uris":{"android":"levelo://app?vid=f4b26390-acd7-49a5-b9ae-eb2e2296da89","ios":"levelo://app?vid=f4b26390-acd7-49a5-b9ae-eb2e2296da89"},"vehicle_type_id":"4","last_reported":1739200197,"current_range_meters":38800,"station_id":"ce4bhs12rcd13ifvqhvg","pricing_plan_id":"cebpf4jnsgd1na2vs0mg"},{"bike_id":"fd7cd6eb-8023-4160-9061-39fa556cf25c","system_id":"levelo_inurba_marseille","lat":43.303193,"lon":5.404514,"is_reserved":false,"is_disabled":true,"rental_uris":{"android":"levelo://app?vid=fd7cd6eb-8023-4160-9061-39fa556cf25c","ios":"levelo://app?vid=fd7cd6eb-8023-4160-9061-39fa556cf25c"},"vehicle_type_id":"4","last_reported":1739200197,"current_range_meters":32400,"station_id":"ce4bh012rcd13ifvqd10","pricing_plan_id":"cebpf4jnsgd1na2vs0mg"},{"bike_id":"0e21f7aa-06e5-493f-93a8-8a8d203cf3cf","system_id":"levelo_inurba_marseille","lat":43.31686,"lon":5.40463,"is_reserved":false,"is_disabled":false,"rental_uris":{"android":"levelo://app?vid=0e21f7aa-06e5-493f-93a8-8a8d203cf3cf","ios":"levelo://app?vid=0e21f7aa-06e5-493f-93a8-8a8d203cf3cf"},"vehicle_type_id":"4","last_reported":1739200197,"current_range_meters":20800,"station_id":"ce4bh012rcd13ifvqd00","pricing_plan_id":"cebpf4jnsgd1na2vs0mg"},{"bike_id":"d32849cf-4c14-4032-9063-172d06d3f04f","system_id":"levelo_inurba_marseille","lat":43.23192,"lon":5.35556,"is_reserved":false,"is_disabled":false,"rental_uris":{"android":"levelo://app?vid=d32849cf-4c14-4032-9063-172d06d3f04f","ios":"levelo://app?vid=d32849cf-4c14-4032-9063-172d06d3f04f"},"vehicle_type_id":"4","last_reported":1739200197,"current_range_meters":37600,"station_id":"ce4bhu92rcd13ifvqi70","pricing_plan_id":"cebpf4jnsgd1na2vs0mg"},{"bike_id":"121bb849-508e-46b5-9b17-1022bc99350e","system_id":"levelo_inurba_marseille","lat":43.268128,"lon":5.402348,"is_reserved":false,"is_disabled":false,"rental_uris":{"android":"levelo://app?vid=121bb849-508e-46b5-9b17-1022bc99350e","ios":"levelo://app?vid=121bb849-508e-46b5-9b17-1022bc99350e"},"vehicle_type_id":"4","last_reported":1739200197,"current_range_meters":27600,"station_id":"ce501612rcd8frsf0b60","pricing_plan_id":"cebpf4jnsgd1na2vs0mg"},{"bike_id":"b00c295a-8f71-4044-bfe7-faa250b6ed2c","system_id":"levelo_inurba_marseille","lat":43.29567,"lon":5.37511,"is_reserved":false,"is_disabled":false,"rental_uris":{"android":"levelo://app?vid=b00c295a-8f71-4044-bfe7-faa250b6ed2c","ios":"levelo://app?vid=b00c295a-8f71-4044-bfe7-faa250b6ed2c"},"vehicle_type_id":"4","last_reported":1739200197,"current_range_meters":38800,"station_id":"ce4bgh92rcd13ifvqb50","pricing_plan_id":"cebpf4jnsgd1na2vs0mg"},{"bike_id":"fc43e51d-a224-4e17-9020-c4eaa9393cf6","system_id":"levelo_inurba_marseille","lat":43.29157,"lon":5.37162,"is_reserved":false,"is_disabled":false,"rental_uris":{"android":"levelo://app?vid=fc43e51d-a224-4e17-9020-c4eaa9393cf6","ios":"levelo://app?vid=fc43e51d-a224-4e17-9020-c4eaa9393cf6"},"vehicle_type_id":"4","last_reported":1739200197,"current_range_meters":38400,"station_id":"ce4bha92rcd13ifvqeh0","pricing_plan_id":"cebpf4jnsgd1na2vs0mg"},{"bike_id":"3daa1d8e-60e9-4e20-8ab5-719b83045bcd","system_id":"levelo_inurba_marseille","lat":43.27805,"lon":5.40702,"is_reserved":false,"is_disabled":false,"rental_uris":{"android":"levelo://app?vid=3daa1d8e-60e9-4e20-8ab5-719b83045bcd","ios":"levelo://app?vid=3daa1d8e-60e9-4e20-8ab5-719b83045bcd"},"vehicle_type_id":"4","last_reported":1739200197,"current_range_meters":27200,"station_id":"ce4bhnh2rcd13ifvqgtg","pricing_plan_id":"cebpf4jnsgd1na2vs0mg"},{"bike_id":"b7cfafc0-fba3-47fa-8c3d-d96c6bee1f7a","system_id":"levelo_inurba_marseille","lat":43.2439,"lon":5.37064,"is_reserved":false,"is_disabled":false,"rental_uris":{"android":"levelo://app?vid=b7cfafc0-fba3-47fa-8c3d-d96c6bee1f7a","ios":"levelo://app?vid=b7cfafc0-fba3-47fa-8c3d-d96c6bee1f7a"},"vehicle_type_id":"4","last_reported":1739200197,"current_range_meters":36400,"station_id":"ce4bhhh2rcd13ifvqfk0","pricing_plan_id":"cebpf4jnsgd1na2vs0mg"},{"bike_id":"8017650e-fddd-4161-8c1a-75916b0435b9","system_id":"levelo_inurba_marseille","lat":43.24187,"lon":5.3974,"is_reserved":false,"is_disabled":false,"rental_uris":{"android":"levelo://app?vid=8017650e-fddd-4161-8c1a-75916b0435b9","ios":"levelo://app?vid=8017650e-fddd-4161-8c1a-75916b0435b9"},"vehicle_type_id":"4","last_reported":1739200197,"current_range_meters":38000,"station_id":"ce4bhn12rcd13ifvqgpg","pricing_plan_id":"cebpf4jnsgd1na2vs0mg"},{"bike_id":"902be964-d29b-4b5d-8426-5651a309aed5","system_id":"levelo_inurba_marseille","lat":43.30783,"lon":5.37662,"is_reserved":false,"is_disabled":false,"rental_uris":{"android":"levelo://app?vid=902be964-d29b-4b5d-8426-5651a309aed5","ios":"levelo://app?vid=902be964-d29b-4b5d-8426-5651a309aed5"},"vehicle_type_id":"4","last_reported":1739200197,"current_range_meters":27600,"station_id":"ce4bgv92rcd13ifvqcq0","pricing_plan_id":"cebpf4jnsgd1na2vs0mg"},{"bike_id":"8c6282ff-cc19-4b4a-a5da-222818127f79","system_id":"levelo_inurba_marseille","lat":43.299093,"lon":5.37462,"is_reserved":false,"is_disabled":false,"rental_uris":{"android":"levelo://app?vid=8c6282ff-cc19-4b4a-a5da-222818127f79","ios":"levelo://app?vid=8c6282ff-cc19-4b4a-a5da-222818127f79"},"vehicle_type_id":"4","last_reported":1739200197,"current_range_meters":38800,"station_id":"ce4bgjh2rcd13ifvqbg0","pricing_plan_id":"cebpf4jnsgd1na2vs0mg"},{"bike_id":"386a5c6b-0374-40ee-8fee-068f2ec38f9b","system_id":"levelo_inurba_marseille","lat":43.23965,"lon":5.36617,"is_reserved":false,"is_disabled":false,"rental_uris":{"android":"levelo://app?vid=386a5c6b-0374-40ee-8fee-068f2ec38f9b","ios":"levelo://app?vid=386a5c6b-0374-40ee-8fee-068f2ec38f9b"},"vehicle_type_id":"4","last_reported":1739200197,"current_range_meters":16000,"station_id":"ce4bhi12rcd13ifvqfp0","pricing_plan_id":"cebpf4jnsgd1na2vs0mg"},{"bike_id":"d4897387-d94a-4836-8801-67bff7723442","system_id":"levelo_inurba_marseille","lat":43.23186,"lon":5.3999,"is_reserved":false,"is_disabled":true,"rental_uris":{"android":"levelo://app?vid=d4897387-d94a-4836-8801-67bff7723442","ios":"levelo://app?vid=d4897387-d94a-4836-8801-67bff7723442"},"vehicle_type_id":"4","last_reported":1739200197,"current_range_meters":0,"station_id":"ce4bhn12rcd13ifvqgqg","pricing_plan_id":"cebpf4jnsgd1na2vs0mg"},{"bike_id":"189f6c80-0e9f-46bb-bba1-6d41d8d5efa8","system_id":"levelo_inurba_marseille","lat":43.29514,"lon":5.37518,"is_reserved":false,"is_disabled":false,"rental_uris":{"android":"levelo://app?vid=189f6c80-0e9f-46bb-bba1-6d41d8d5efa8","ios":"levelo://app?vid=189f6c80-0e9f-46bb-bba1-6d41d8d5efa8"},"vehicle_type_id":"4","last_reported":1739200197,"current_range_meters":1600,"station_id":"ce4bgkp2rcd13ifvqbmg","pricing_plan_id":"cebpf4jnsgd1na2vs0mg"},{"bike_id":"053133cf-59b9-401b-bb8c-fcb466d4fcbe","system_id":"levelo_inurba_marseille","lat":43.24544,"lon":5.39527,"is_reserved":false,"is_disabled":false,"rental_uris":{"android":"levelo://app?vid=053133cf-59b9-401b-bb8c-fcb466d4fcbe","ios":"levelo://app?vid=053133cf-59b9-401b-bb8c-fcb466d4fcbe"},"vehicle_type_id":"4","last_reported":1739200197,"current_range_meters":22400,"station_id":"ce4bhlp2rcd13ifvqgjg","pricing_plan_id":"cebpf4jnsgd1na2vs0mg"},{"bike_id":"6d6c1a71-cbc1-478c-b892-05b3c8cff896","system_id":"levelo_inurba_marseille","lat":43.30557,"lon":5.3653,"is_reserved":false,"is_disabled":false,"rental_uris":{"android":"levelo://app?vid=6d6c1a71-cbc1-478c-b892-05b3c8cff896","ios":"levelo://app?vid=6d6c1a71-cbc1-478c-b892-05b3c8cff896"},"vehicle_type_id":"4","last_reported":1739200197,"current_range_meters":38000,"station_id":"ce4bgs12rcd13ifvqcag","pricing_plan_id":"cebpf4jnsgd1na2vs0mg"},{"bike_id":"ad896f67-20e5-4bfe-9e1c-ac0243670036","system_id":"levelo_inurba_marseille","lat":43.29598,"lon":5.38099,"is_reserved":false,"is_disabled":false,"rental_uris":{"android":"levelo://app?vid=ad896f67-20e5-4bfe-9e1c-ac0243670036","ios":"levelo://app?vid=ad896f67-20e5-4bfe-9e1c-ac0243670036"},"vehicle_type_id":"4","last_reported":1739200197,"current_range_meters":8400,"station_id":"ce4bgl12rcd13ifvqbo0","pricing_plan_id":"cebpf4jnsgd1na2vs0mg"},{"bike_id":"01b0e03f-7b96-4ac3-a2a1-cc92043b5081","system_id":"levelo_inurba_marseille","lat":43.29193,"lon":5.39301,"is_reserved":false,"is_disabled":true,"rental_uris":{"android":"levelo://app?vid=01b0e03f-7b96-4ac3-a2a1-cc92043b5081","ios":"levelo://app?vid=01b0e03f-7b96-4ac3-a2a1-cc92043b5081"},"vehicle_type_id":"4","last_reported":1739200197,"current_range_meters":27200,"station_id":"ce4bh192rcd13ifvqdd0","pricing_plan_id":"cebpf4jnsgd1na2vs0mg"},{"bike_id":"444df73d-d66d-4ef2-9b59-6e409b523fa0","system_id":"levelo_inurba_marseille","lat":43.28011,"lon":5.39995,"is_reserved":false,"is_disabled":false,"rental_uris":{"android":"levelo://app?vid=444df73d-d66d-4ef2-9b59-6e409b523fa0","ios":"levelo://app?vid=444df73d-d66d-4ef2-9b59-6e409b523fa0"},"vehicle_type_id":"4","last_reported":1739200197,"current_range_meters":39200,"station_id":"ce4bho92rcd13ifvqh4g","pricing_plan_id":"cebpf4jnsgd1na2vs0mg"},{"bike_id":"f2c1f718-908f-4e45-ab14-588547e3dffd","system_id":"levelo_inurba_marseille","lat":43.27328,"lon":5.39111,"is_reserved":false,"is_disabled":false,"rental_uris":{"android":"levelo://app?vid=f2c1f718-908f-4e45-ab14-588547e3dffd","ios":"levelo://app?vid=f2c1f718-908f-4e45-ab14-588547e3dffd"},"vehicle_type_id":"4","last_reported":1739200197,"current_range_meters":39200,"station_id":"ce4bhgp2rcd13ifvqfe0","pricing_plan_id":"cebpf4jnsgd1na2vs0mg"},{"bike_id":"f5d045ce-3427-4e40-8c82-dbea3e0240e3","system_id":"levelo_inurba_marseille","lat":43.2512,"lon":5.40316,"is_reserved":false,"is_disabled":false,"rental_uris":{"android":"levelo://app?vid=f5d045ce-3427-4e40-8c82-dbea3e0240e3","ios":"levelo://app?vid=f5d045ce-3427-4e40-8c82-dbea3e0240e3"},"vehicle_type_id":"4","last_reported":1739200197,"current_range_meters":27600,"station_id":"ce4bhlh2rcd13ifvqgig","pricing_plan_id":"cebpf4jnsgd1na2vs0mg"},{"bike_id":"8a07cb15-3f33-4396-80df-93d936a2141d","system_id":"levelo_inurba_marseille","lat":43.29701,"lon":5.37707,"is_reserved":false,"is_disabled":false,"rental_uris":{"android":"levelo://app?vid=8a07cb15-3f33-4396-80df-93d936a2141d","ios":"levelo://app?vid=8a07cb15-3f33-4396-80df-93d936a2141d"},"vehicle_type_id":"4","last_reported":1739200197,"current_range_meters":38800,"station_id":"ce4bgkh2rcd13ifvqbl0","pricing_plan_id":"cebpf4jnsgd1na2vs0mg"},{"bike_id":"9571229b-d1f4-46a1-804f-ae5b773e1183","system_id":"levelo_inurba_marseille","lat":43.29992,"lon":5.38513,"is_reserved":false,"is_disabled":false,"rental_uris":{"android":"levelo://app?vid=9571229b-d1f4-46a1-804f-ae5b773e1183","ios":"levelo://app?vid=9571229b-d1f4-46a1-804f-ae5b773e1183"},"vehicle_type_id":"4","last_reported":1739200197,"current_range_meters":38000,"station_id":"ce4bgj92rcd13ifvqbd0","pricing_plan_id":"cebpf4jnsgd1na2vs0mg"},{"bike_id":"90789574-302d-4f35-aa6b-b1488aa454cd","system_id":"levelo_inurba_marseille","lat":43.3024,"lon":5.40052,"is_reserved":false,"is_disabled":false,"rental_uris":{"android":"levelo://app?vid=90789574-302d-4f35-aa6b-b1488aa454cd","ios":"levelo://app?vid=90789574-302d-4f35-aa6b-b1488aa454cd"},"vehicle_type_id":"4","last_reported":1739200197,"current_range_meters":37600,"station_id":"ce4bgvh2rcd13ifvqcs0","pricing_plan_id":"cebpf4jnsgd1na2vs0mg"},{"bike_id":"9f443121-e8ff-4aac-bc9a-d9077c8e664b","system_id":"levelo_inurba_marseille","lat":43.27063,"lon":5.42273,"is_reserved":false,"is_disabled":false,"rental_uris":{"android":"levelo://app?vid=9f443121-e8ff-4aac-bc9a-d9077c8e664b","ios":"levelo://app?vid=9f443121-e8ff-4aac-bc9a-d9077c8e664b"},"vehicle_type_id":"4","last_reported":1739200197,"current_range_meters":29600,"station_id":"ce4bhk92rcd13ifvqgb0","pricing_plan_id":"cebpf4jnsgd1na2vs0mg"},{"bike_id":"2a770ae2-03a1-4cb9-a363-e879ddefa502","system_id":"levelo_inurba_marseille","lat":43.31771,"lon":5.39004,"is_reserved":false,"is_disabled":false,"rental_uris":{"android":"levelo://app?vid=2a770ae2-03a1-4cb9-a363-e879ddefa502","ios":"levelo://app?vid=2a770ae2-03a1-4cb9-a363-e879ddefa502"},"vehicle_type_id":"4","last_reported":1739200197,"current_range_meters":39200,"station_id":"ce4bhqp2rcd13ifvqhng","pricing_plan_id":"cebpf4jnsgd1na2vs0mg"},{"bike_id":"0cab5767-2e42-4521-b0bd-7a9f605c5457","system_id":"levelo_inurba_marseille","lat":43.31234,"lon":5.36858,"is_reserved":false,"is_disabled":false,"rental_uris":{"android":"levelo://app?vid=0cab5767-2e42-4521-b0bd-7a9f605c5457","ios":"levelo://app?vid=0cab5767-2e42-4521-b0bd-7a9f605c5457"},"vehicle_type_id":"4","last_reported":1739200197,"current_range_meters":31200,"station_id":"ce4bgl92rcd13ifvqbq0","pricing_plan_id":"cebpf4jnsgd1na2vs0mg"},{"bike_id":"64642a07-48e4-499e-ad94-a97c33a8a8ac","system_id":"levelo_inurba_marseille","lat":43.24806,"lon":5.3746,"is_reserved":false,"is_disabled":false,"rental_uris":{"android":"levelo://app?vid=64642a07-48e4-499e-ad94-a97c33a8a8ac","ios":"levelo://app?vid=64642a07-48e4-499e-ad94-a97c33a8a8ac"},"vehicle_type_id":"4","last_reported":1739200197,"current_range_meters":38000,"station_id":"ce4bhgh2rcd13ifvqfb0","pricing_plan_id":"cebpf4jnsgd1na2vs0mg"},{"bike_id":"d0b01411-1b2b-4b99-b5de-287a3aa82eb2","system_id":"levelo_inurba_marseille","lat":43.304443,"lon":5.367506,"is_reserved":false,"is_disabled":false,"rental_uris":{"android":"levelo://app?vid=d0b01411-1b2b-4b99-b5de-287a3aa82eb2","ios":"levelo://app?vid=d0b01411-1b2b-4b99-b5de-287a3aa82eb2"},"vehicle_type_id":"4","last_reported":1739200197,"current_range_meters":13600,"station_id":"","pricing_plan_id":"cebpf4jnsgd1na2vs0mg"},{"bike_id":"a69dfcd0-86b4-4dd1-9d00-ba466809ccef","system_id":"levelo_inurba_marseille","lat":43.25015,"lon":5.38925,"is_reserved":false,"is_disabled":false,"rental_uris":{"android":"levelo://app?vid=a69dfcd0-86b4-4dd1-9d00-ba466809ccef","ios":"levelo://app?vid=a69dfcd0-86b4-4dd1-9d00-ba466809ccef"},"vehicle_type_id":"4","last_reported":1739200197,"current_range_meters":34800,"station_id":"ce4bhgp2rcd13ifvqfd0","pricing_plan_id":"cebpf4jnsgd1na2vs0mg"},{"bike_id":"b31aee6a-50fe-46b0-9973-1cb3e84501e5","system_id":"levelo_inurba_marseille","lat":43.29074,"lon":5.37194,"is_reserved":false,"is_disabled":false,"rental_uris":{"android":"levelo://app?vid=b31aee6a-50fe-46b0-9973-1cb3e84501e5","ios":"levelo://app?vid=b31aee6a-50fe-46b0-9973-1cb3e84501e5"},"vehicle_type_id":"4","last_reported":1739200197,"current_range_meters":36800,"station_id":"ce4bh5p2rcd13ifvqe4g","pricing_plan_id":"cebpf4jnsgd1na2vs0mg"},{"bike_id":"b5adb758-e812-478d-8f27-34ee1f672923","system_id":"levelo_inurba_marseille","lat":43.30248,"lon":5.40079,"is_reserved":false,"is_disabled":false,"rental_uris":{"android":"levelo://app?vid=b5adb758-e812-478d-8f27-34ee1f672923","ios":"levelo://app?vid=b5adb758-e812-478d-8f27-34ee1f672923"},"vehicle_type_id":"4","last_reported":1739200197,"current_range_meters":28800,"station_id":"ce4bgvh2rcd13ifvqcs0","pricing_plan_id":"cebpf4jnsgd1na2vs0mg"},{"bike_id":"8583503a-2f4a-4fb0-b76e-4ce9a4778990","system_id":"levelo_inurba_marseille","lat":43.29507,"lon":5.3749,"is_reserved":false,"is_disabled":false,"rental_uris":{"android":"levelo://app?vid=8583503a-2f4a-4fb0-b76e-4ce9a4778990","ios":"levelo://app?vid=8583503a-2f4a-4fb0-b76e-4ce9a4778990"},"vehicle_type_id":"4","last_reported":1739200197,"current_range_meters":37600,"station_id":"ce4bgkp2rcd13ifvqbmg","pricing_plan_id":"cebpf4jnsgd1na2vs0mg"},{"bike_id":"b24af449-2c4e-4b20-b914-56c2b7f42882","system_id":"levelo_inurba_marseille","lat":43.23155,"lon":5.43713,"is_reserved":false,"is_disabled":false,"rental_uris":{"android":"levelo://app?vid=b24af449-2c4e-4b20-b914-56c2b7f42882","ios":"levelo://app?vid=b24af449-2c4e-4b20-b914-56c2b7f42882"},"vehicle_type_id":"4","last_reported":1739200197,"current_range_meters":28000,"station_id":"ce4bhmp2rcd13ifvqgog","pricing_plan_id":"cebpf4jnsgd1na2vs0mg"},{"bike_id":"478c89b1-a385-4b91-b040-dd8278ec907a","system_id":"levelo_inurba_marseille","lat":43.27201,"lon":5.39198,"is_reserved":false,"is_disabled":false,"rental_uris":{"android":"levelo://app?vid=478c89b1-a385-4b91-b040-dd8278ec907a","ios":"levelo://app?vid=478c89b1-a385-4b91-b040-dd8278ec907a"},"vehicle_type_id":"4","last_reported":1739200197,"current_range_meters":38800,"station_id":"ce4bhhp2rcd13ifvqfm0","pricing_plan_id":"cebpf4jnsgd1na2vs0mg"},{"bike_id":"ebfe9b19-a020-4e42-9515-d839082cd818","system_id":"levelo_inurba_marseille","lat":43.27973,"lon":5.40041,"is_reserved":false,"is_disabled":false,"rental_uris":{"android":"levelo://app?vid=ebfe9b19-a020-4e42-9515-d839082cd818","ios":"levelo://app?vid=ebfe9b19-a020-4e42-9515-d839082cd818"},"vehicle_type_id":"4","last_reported":1739200197,"current_range_meters":36400,"station_id":"ce4bho92rcd13ifvqh4g","pricing_plan_id":"cebpf4jnsgd1na2vs0mg"},{"bike_id":"0306565f-c1aa-4e4b-a088-e472892792d7","system_id":"levelo_inurba_marseille","lat":43.29796,"lon":5.38101,"is_reserved":false,"is_disabled":false,"rental_uris":{"android":"levelo://app?vid=0306565f-c1aa-4e4b-a088-e472892792d7","ios":"levelo://app?vid=0306565f-c1aa-4e4b-a088-e472892792d7"},"vehicle_type_id":"4","last_reported":1739200197,"current_range_meters":28400,"station_id":"ce4bgip2rcd13ifvqbb0","pricing_plan_id":"cebpf4jnsgd1na2vs0mg"},{"bike_id":"0a261332-55f6-4ea5-8bd3-dc2e591b1330","system_id":"levelo_inurba_marseille","lat":43.28447,"lon":5.35893,"is_reserved":false,"is_disabled":false,"rental_uris":{"android":"levelo://app?vid=0a261332-55f6-4ea5-8bd3-dc2e591b1330","ios":"levelo://app?vid=0a261332-55f6-4ea5-8bd3-dc2e591b1330"},"vehicle_type_id":"4","last_reported":1739200197,"current_range_meters":30800,"station_id":"ce4bhah2rcd13ifvqei0","pricing_plan_id":"cebpf4jnsgd1na2vs0mg"},{"bike_id":"1f73100a-8043-44a4-bb6d-ffbbbec4b48b","system_id":"levelo_inurba_marseille","lat":43.29231,"lon":5.37484,"is_reserved":false,"is_disabled":false,"rental_uris":{"android":"levelo://app?vid=1f73100a-8043-44a4-bb6d-ffbbbec4b48b","ios":"levelo://app?vid=1f73100a-8043-44a4-bb6d-ffbbbec4b48b"},"vehicle_type_id":"4","last_reported":1739200197,"current_range_meters":31200,"station_id":"","pricing_plan_id":"cebpf4jnsgd1na2vs0mg"},{"bike_id":"e22bcd41-06e0-4cbc-ac3c-fe64dfb6608e","system_id":"levelo_inurba_marseille","lat":43.29755,"lon":5.37685,"is_reserved":false,"is_disabled":false,"rental_uris":{"android":"levelo://app?vid=e22bcd41-06e0-4cbc-ac3c-fe64dfb6608e","ios":"levelo://app?vid=e22bcd41-06e0-4cbc-ac3c-fe64dfb6608e"},"vehicle_type_id":"4","last_reported":1739200197,"current_range_meters":38800,"station_id":"","pricing_plan_id":"cebpf4jnsgd1na2vs0mg"},{"bike_id":"f4a09ce6-52ba-4f33-a1c4-2ffe4c5b70bb","system_id":"levelo_inurba_marseille","lat":43.30281,"lon":5.37698,"is_reserved":false,"is_disabled":false,"rental_uris":{"android":"levelo://app?vid=f4a09ce6-52ba-4f33-a1c4-2ffe4c5b70bb","ios":"levelo://app?vid=f4a09ce6-52ba-4f33-a1c4-2ffe4c5b70bb"},"vehicle_type_id":"4","last_reported":1739200197,"current_range_meters":38800,"station_id":"ce4bguh2rcd13ifvqcj0","pricing_plan_id":"cebpf4jnsgd1na2vs0mg"},{"bike_id":"37013ad9-dda1-4aaa-bc03-0fecfc70eba5","system_id":"levelo_inurba_marseille","lat":43.26929,"lon":5.38628,"is_reserved":false,"is_disabled":false,"rental_uris":{"android":"levelo://app?vid=37013ad9-dda1-4aaa-bc03-0fecfc70eba5","ios":"levelo://app?vid=37013ad9-dda1-4aaa-bc03-0fecfc70eba5"},"vehicle_type_id":"4","last_reported":1739200197,"current_range_meters":37600,"station_id":"ce4bhh92rcd13ifvqfh0","pricing_plan_id":"cebpf4jnsgd1na2vs0mg"},{"bike_id":"813b2562-52b3-4ad7-b56c-bd0afb52895a","system_id":"levelo_inurba_marseille","lat":43.3049,"lon":5.36558,"is_reserved":false,"is_disabled":false,"rental_uris":{"android":"levelo://app?vid=813b2562-52b3-4ad7-b56c-bd0afb52895a","ios":"levelo://app?vid=813b2562-52b3-4ad7-b56c-bd0afb52895a"},"vehicle_type_id":"4","last_reported":1739200197,"current_range_meters":26800,"station_id":"","pricing_plan_id":"cebpf4jnsgd1na2vs0mg"},{"bike_id":"3e51d9e1-096e-4831-a516-a31f3a86cf17","system_id":"levelo_inurba_marseille","lat":43.25818,"lon":5.39431,"is_reserved":false,"is_disabled":false,"rental_uris":{"android":"levelo://app?vid=3e51d9e1-096e-4831-a516-a31f3a86cf17","ios":"levelo://app?vid=3e51d9e1-096e-4831-a516-a31f3a86cf17"},"vehicle_type_id":"4","last_reported":1739200197,"current_range_meters":19600,"station_id":"ce4bhip2rcd13ifvqft0","pricing_plan_id":"cebpf4jnsgd1na2vs0mg"},{"bike_id":"9634a8ed-f6b9-4998-b923-2ba2f50a9ed6","system_id":"levelo_inurba_marseille","lat":43.29417,"lon":5.38622,"is_reserved":false,"is_disabled":false,"rental_uris":{"android":"levelo://app?vid=9634a8ed-f6b9-4998-b923-2ba2f50a9ed6","ios":"levelo://app?vid=9634a8ed-f6b9-4998-b923-2ba2f50a9ed6"},"vehicle_type_id":"4","last_reported":1739200197,"current_range_meters":25200,"station_id":"ce4bh2h2rcd13ifvqdh0","pricing_plan_id":"cebpf4jnsgd1na2vs0mg"},{"bike_id":"383f0b5d-a14c-4191-9bd1-0c3cd4b38e00","system_id":"levelo_inurba_marseille","lat":43.27949,"lon":5.41045,"is_reserved":false,"is_disabled":false,"rental_uris":{"android":"levelo://app?vid=383f0b5d-a14c-4191-9bd1-0c3cd4b38e00","ios":"levelo://app?vid=383f0b5d-a14c-4191-9bd1-0c3cd4b38e00"},"vehicle_type_id":"4","last_reported":1739200197,"current_range_meters":14800,"station_id":"ce4bhnp2rcd13ifvqh0g","pricing_plan_id":"cebpf4jnsgd1na2vs0mg"},{"bike_id":"1d2000e3-6e82-4c8d-9a0a-5d8181e36eb3","system_id":"levelo_inurba_marseille","lat":43.25013,"lon":5.38913,"is_reserved":false,"is_disabled":false,"rental_uris":{"android":"levelo://app?vid=1d2000e3-6e82-4c8d-9a0a-5d8181e36eb3","ios":"levelo://app?vid=1d2000e3-6e82-4c8d-9a0a-5d8181e36eb3"},"vehicle_type_id":"4","last_reported":1739200197,"current_range_meters":10000,"station_id":"ce4bhgp2rcd13ifvqfd0","pricing_plan_id":"cebpf4jnsgd1na2vs0mg"},{"bike_id":"76a8ec06-a50a-4e86-8cd9-42d2f376f745","system_id":"levelo_inurba_marseille","lat":43.28349,"lon":5.38648,"is_reserved":false,"is_disabled":false,"rental_uris":{"android":"levelo://app?vid=76a8ec06-a50a-4e86-8cd9-42d2f376f745","ios":"levelo://app?vid=76a8ec06-a50a-4e86-8cd9-42d2f376f745"},"vehicle_type_id":"4","last_reported":1739200197,"current_range_meters":38800,"station_id":"ce4bh492rcd13ifvqdvg","pricing_plan_id":"cebpf4jnsgd1na2vs0mg"},{"bike_id":"8f2e7683-b87f-4667-a605-d403a79a10a1","system_id":"levelo_inurba_marseille","lat":43.317259,"lon":5.423901,"is_reserved":false,"is_disabled":false,"rental_uris":{"android":"levelo://app?vid=8f2e7683-b87f-4667-a605-d403a79a10a1","ios":"levelo://app?vid=8f2e7683-b87f-4667-a605-d403a79a10a1"},"vehicle_type_id":"4","last_reported":1739200197,"current_range_meters":30400,"station_id":"ce4bhp92rcd13ifvqhbg","pricing_plan_id":"cebpf4jnsgd1na2vs0mg"},{"bike_id":"6998168a-02ed-49b8-bc0c-4b81f2baa47a","system_id":"levelo_inurba_marseille","lat":43.3373,"lon":5.39204,"is_reserved":false,"is_disabled":false,"rental_uris":{"android":"levelo://app?vid=6998168a-02ed-49b8-bc0c-4b81f2baa47a","ios":"levelo://app?vid=6998168a-02ed-49b8-bc0c-4b81f2baa47a"},"vehicle_type_id":"4","last_reported":1739200197,"current_range_meters":38800,"station_id":"ce4bhr92rcd13ifvqhsg","pricing_plan_id":"cebpf4jnsgd1na2vs0mg"},{"bike_id":"0bdfd0dd-9741-4f8e-ac4b-7a02400a13ed","system_id":"levelo_inurba_marseille","lat":43.30551,"lon":5.36691,"is_reserved":false,"is_disabled":false,"rental_uris":{"android":"levelo://app?vid=0bdfd0dd-9741-4f8e-ac4b-7a02400a13ed","ios":"levelo://app?vid=0bdfd0dd-9741-4f8e-ac4b-7a02400a13ed"},"vehicle_type_id":"4","last_reported":1739200197,"current_range_meters":24400,"station_id":"ce4bgrp2rcd13ifvqc9g","pricing_plan_id":"cebpf4jnsgd1na2vs0mg"},{"bike_id":"9822b2ae-52c3-4719-90d2-ce97f6ea354c","system_id":"levelo_inurba_marseille","lat":43.29967,"lon":5.37164,"is_reserved":false,"is_disabled":false,"rental_uris":{"android":"levelo://app?vid=9822b2ae-52c3-4719-90d2-ce97f6ea354c","ios":"levelo://app?vid=9822b2ae-52c3-4719-90d2-ce97f6ea354c"},"vehicle_type_id":"4","last_reported":1739200197,"current_range_meters":39200,"station_id":"ce4bgr92rcd13ifvqc7g","pricing_plan_id":"cebpf4jnsgd1na2vs0mg"},{"bike_id":"8bee9d26-17c2-4d72-bfa7-0b24f93c4ab6","system_id":"levelo_inurba_marseille","lat":43.29543,"lon":5.37485,"is_reserved":false,"is_disabled":false,"rental_uris":{"android":"levelo://app?vid=8bee9d26-17c2-4d72-bfa7-0b24f93c4ab6","ios":"levelo://app?vid=8bee9d26-17c2-4d72-bfa7-0b24f93c4ab6"},"vehicle_type_id":"4","last_reported":1739200197,"current_range_meters":36800,"station_id":"ce4bgh92rcd13ifvqb50","pricing_plan_id":"cebpf4jnsgd1na2vs0mg"},{"bike_id":"b354913e-b93a-49a2-9bf4-b72cafcb27b5","system_id":"levelo_inurba_marseille","lat":43.27805,"lon":5.40708,"is_reserved":false,"is_disabled":false,"rental_uris":{"android":"levelo://app?vid=b354913e-b93a-49a2-9bf4-b72cafcb27b5","ios":"levelo://app?vid=b354913e-b93a-49a2-9bf4-b72cafcb27b5"},"vehicle_type_id":"4","last_reported":1739200197,"current_range_meters":38800,"station_id":"ce4bhnh2rcd13ifvqgtg","pricing_plan_id":"cebpf4jnsgd1na2vs0mg"},{"bike_id":"86ac79ad-804d-400b-81b9-4c09c1285975","system_id":"levelo_inurba_marseille","lat":43.29416,"lon":5.38624,"is_reserved":false,"is_disabled":false,"rental_uris":{"android":"levelo://app?vid=86ac79ad-804d-400b-81b9-4c09c1285975","ios":"levelo://app?vid=86ac79ad-804d-400b-81b9-4c09c1285975"},"vehicle_type_id":"4","last_reported":1739200197,"current_range_meters":34000,"station_id":"ce4bh2h2rcd13ifvqdh0","pricing_plan_id":"cebpf4jnsgd1na2vs0mg"},{"bike_id":"c5a092b7-27cf-47ef-95a3-7b2325499671","system_id":"levelo_inurba_marseille","lat":43.29362,"lon":5.37841,"is_reserved":false,"is_disabled":false,"rental_uris":{"android":"levelo://app?vid=c5a092b7-27cf-47ef-95a3-7b2325499671","ios":"levelo://app?vid=c5a092b7-27cf-47ef-95a3-7b2325499671"},"vehicle_type_id":"4","last_reported":1739200197,"current_range_meters":8800,"station_id":"ce4bgjh2rcd13ifvqbf0","pricing_plan_id":"cebpf4jnsgd1na2vs0mg"},{"bike_id":"b9ae1c04-8b49-41fe-a1ca-cc17035aadbe","system_id":"levelo_inurba_marseille","lat":43.29254,"lon":5.38424,"is_reserved":false,"is_disabled":false,"rental_uris":{"android":"levelo://app?vid=b9ae1c04-8b49-41fe-a1ca-cc17035aadbe","ios":"levelo://app?vid=b9ae1c04-8b49-41fe-a1ca-cc17035aadbe"},"vehicle_type_id":"4","last_reported":1739200197,"current_range_meters":13600,"station_id":"ce4bh692rcd13ifvqea0","pricing_plan_id":"cebpf4jnsgd1na2vs0mg"},{"bike_id":"a97f3a8d-e1f7-4ede-af5a-b155aa57a80e","system_id":"levelo_inurba_marseille","lat":43.2558,"lon":5.38242,"is_reserved":false,"is_disabled":false,"rental_uris":{"android":"levelo://app?vid=a97f3a8d-e1f7-4ede-af5a-b155aa57a80e","ios":"levelo://app?vid=a97f3a8d-e1f7-4ede-af5a-b155aa57a80e"},"vehicle_type_id":"4","last_reported":1739200197,"current_range_meters":19200,"station_id":"ce4bhih2rcd13ifvqfs0","pricing_plan_id":"cebpf4jnsgd1na2vs0mg"},{"bike_id":"97d6f0b2-848e-471f-93d1-5d3a1ec2b71f","system_id":"levelo_inurba_marseille","lat":43.27325,"lon":5.39114,"is_reserved":false,"is_disabled":false,"rental_uris":{"android":"levelo://app?vid=97d6f0b2-848e-471f-93d1-5d3a1ec2b71f","ios":"levelo://app?vid=97d6f0b2-848e-471f-93d1-5d3a1ec2b71f"},"vehicle_type_id":"4","last_reported":1739200197,"current_range_meters":39200,"station_id":"ce4bhgp2rcd13ifvqfe0","pricing_plan_id":"cebpf4jnsgd1na2vs0mg"},{"bike_id":"a1d644be-809f-462f-ac59-2d1b9607cc93","system_id":"levelo_inurba_marseille","lat":43.27587,"lon":5.38403,"is_reserved":false,"is_disabled":false,"rental_uris":{"android":"levelo://app?vid=a1d644be-809f-462f-ac59-2d1b9607cc93","ios":"levelo://app?vid=a1d644be-809f-462f-ac59-2d1b9607cc93"},"vehicle_type_id":"4","last_reported":1739200197,"current_range_meters":39200,"station_id":"ce4bhh92rcd13ifvqfi0","pricing_plan_id":"cebpf4jnsgd1na2vs0mg"},{"bike_id":"16aae514-87fb-4206-b318-9b0af2c16adc","system_id":"levelo_inurba_marseille","lat":43.28689,"lon":5.38673,"is_reserved":false,"is_disabled":false,"rental_uris":{"android":"levelo://app?vid=16aae514-87fb-4206-b318-9b0af2c16adc","ios":"levelo://app?vid=16aae514-87fb-4206-b318-9b0af2c16adc"},"vehicle_type_id":"4","last_reported":1739200197,"current_range_meters":24400,"station_id":"ce4bh492rcd13ifvqdug","pricing_plan_id":"cebpf4jnsgd1na2vs0mg"},{"bike_id":"6d104768-018b-46ab-b7c2-e97432232072","system_id":"levelo_inurba_marseille","lat":43.28399,"lon":5.37519,"is_reserved":false,"is_disabled":false,"rental_uris":{"android":"levelo://app?vid=6d104768-018b-46ab-b7c2-e97432232072","ios":"levelo://app?vid=6d104768-018b-46ab-b7c2-e97432232072"},"vehicle_type_id":"4","last_reported":1739200197,"current_range_meters":38800,"station_id":"ce4bh412rcd13ifvqds0","pricing_plan_id":"cebpf4jnsgd1na2vs0mg"},{"bike_id":"5db23e37-8064-476d-afd5-67dc342e52ab","system_id":"levelo_inurba_marseille","lat":43.32148,"lon":5.41834,"is_reserved":false,"is_disabled":false,"rental_uris":{"android":"levelo://app?vid=5db23e37-8064-476d-afd5-67dc342e52ab","ios":"levelo://app?vid=5db23e37-8064-476d-afd5-67dc342e52ab"},"vehicle_type_id":"4","last_reported":1739200197,"current_range_meters":33600,"station_id":"ce4bhq92rcd13ifvqhkg","pricing_plan_id":"cebpf4jnsgd1na2vs0mg"},{"bike_id":"1d695c88-2120-4066-90f1-68155ff06e63","system_id":"levelo_inurba_marseille","lat":43.31609,"lon":5.38903,"is_reserved":false,"is_disabled":false,"rental_uris":{"android":"levelo://app?vid=1d695c88-2120-4066-90f1-68155ff06e63","ios":"levelo://app?vid=1d695c88-2120-4066-90f1-68155ff06e63"},"vehicle_type_id":"4","last_reported":1739200197,"current_range_meters":27200,"station_id":"","pricing_plan_id":"cebpf4jnsgd1na2vs0mg"},{"bike_id":"30040434-0ce6-4639-9cfb-4b7e126d7c60","system_id":"levelo_inurba_marseille","lat":43.27497,"lon":5.42443,"is_reserved":false,"is_disabled":false,"rental_uris":{"android":"levelo://app?vid=30040434-0ce6-4639-9cfb-4b7e126d7c60","ios":"levelo://app?vid=30040434-0ce6-4639-9cfb-4b7e126d7c60"},"vehicle_type_id":"4","last_reported":1739200197,"current_range_meters":38800,"station_id":"ce4bhn92rcd13ifvqgrg","pricing_plan_id":"cebpf4jnsgd1na2vs0mg"},{"bike_id":"e0e1d68e-498c-4482-87e9-d5f5bdf80bab","system_id":"levelo_inurba_marseille","lat":43.2964,"lon":5.40609,"is_reserved":false,"is_disabled":false,"rental_uris":{"android":"levelo://app?vid=e0e1d68e-498c-4482-87e9-d5f5bdf80bab","ios":"levelo://app?vid=e0e1d68e-498c-4482-87e9-d5f5bdf80bab"},"vehicle_type_id":"4","last_reported":1739200197,"current_range_meters":37600,"station_id":"ce4bh0h2rcd13ifvqd60","pricing_plan_id":"cebpf4jnsgd1na2vs0mg"},{"bike_id":"3aee1a37-713a-4089-a06a-b5701718bebc","system_id":"levelo_inurba_marseille","lat":43.27367,"lon":5.36253,"is_reserved":false,"is_disabled":false,"rental_uris":{"android":"levelo://app?vid=3aee1a37-713a-4089-a06a-b5701718bebc","ios":"levelo://app?vid=3aee1a37-713a-4089-a06a-b5701718bebc"},"vehicle_type_id":"4","last_reported":1739200197,"current_range_meters":38800,"station_id":"ce4bhbh2rcd13ifvqeo0","pricing_plan_id":"cebpf4jnsgd1na2vs0mg"},{"bike_id":"320b3191-eb18-4301-8558-bb943518dca8","system_id":"levelo_inurba_marseille","lat":43.25892,"lon":5.40899,"is_reserved":false,"is_disabled":false,"rental_uris":{"android":"levelo://app?vid=320b3191-eb18-4301-8558-bb943518dca8","ios":"levelo://app?vid=320b3191-eb18-4301-8558-bb943518dca8"},"vehicle_type_id":"4","last_reported":1739200197,"current_range_meters":36800,"station_id":"ce4bho92rcd13ifvqh3g","pricing_plan_id":"cebpf4jnsgd1na2vs0mg"},{"bike_id":"868bab58-7fb6-4926-8070-cd9a4296d6f1","system_id":"levelo_inurba_marseille","lat":43.28357,"lon":5.38112,"is_reserved":false,"is_disabled":false,"rental_uris":{"android":"levelo://app?vid=868bab58-7fb6-4926-8070-cd9a4296d6f1","ios":"levelo://app?vid=868bab58-7fb6-4926-8070-cd9a4296d6f1"},"vehicle_type_id":"4","last_reported":1739200197,"current_range_meters":20400,"station_id":"ce4bh412rcd13ifvqdr0","pricing_plan_id":"cebpf4jnsgd1na2vs0mg"},{"bike_id":"d54edd45-d387-4836-bb23-5552ab971e00","system_id":"levelo_inurba_marseille","lat":43.28096,"lon":5.37817,"is_reserved":false,"is_disabled":false,"rental_uris":{"android":"levelo://app?vid=d54edd45-d387-4836-bb23-5552ab971e00","ios":"levelo://app?vid=d54edd45-d387-4836-bb23-5552ab971e00"},"vehicle_type_id":"4","last_reported":1739200197,"current_range_meters":22800,"station_id":"ce4bha12rcd13ifvqee0","pricing_plan_id":"cebpf4jnsgd1na2vs0mg"},{"bike_id":"db2cb8ba-850b-4646-be66-57100750f4fe","system_id":"levelo_inurba_marseille","lat":43.231959,"lon":5.355466,"is_reserved":false,"is_disabled":false,"rental_uris":{"android":"levelo://app?vid=db2cb8ba-850b-4646-be66-57100750f4fe","ios":"levelo://app?vid=db2cb8ba-850b-4646-be66-57100750f4fe"},"vehicle_type_id":"4","last_reported":1739200197,"current_range_meters":9200,"station_id":"ce4bhu92rcd13ifvqi70","pricing_plan_id":"cebpf4jnsgd1na2vs0mg"},{"bike_id":"841e0f04-b00a-44de-83b7-b9b92c40d93b","system_id":"levelo_inurba_marseille","lat":43.28194,"lon":5.42648,"is_reserved":false,"is_disabled":false,"rental_uris":{"android":"levelo://app?vid=841e0f04-b00a-44de-83b7-b9b92c40d93b","ios":"levelo://app?vid=841e0f04-b00a-44de-83b7-b9b92c40d93b"},"vehicle_type_id":"4","last_reported":1739200197,"current_range_meters":18000,"station_id":"ce4bhnh2rcd13ifvqgug","pricing_plan_id":"cebpf4jnsgd1na2vs0mg"},{"bike_id":"1fd57544-042c-43cc-a3ce-ae0b6b8eba2d","system_id":"levelo_inurba_marseille","lat":43.2958,"lon":5.36744,"is_reserved":false,"is_disabled":false,"rental_uris":{"android":"levelo://app?vid=1fd57544-042c-43cc-a3ce-ae0b6b8eba2d","ios":"levelo://app?vid=1fd57544-042c-43cc-a3ce-ae0b6b8eba2d"},"vehicle_type_id":"4","last_reported":1739200197,"current_range_meters":34800,"station_id":"ce4bgph2rcd13ifvqc2g","pricing_plan_id":"cebpf4jnsgd1na2vs0mg"},{"bike_id":"96c93139-9a4e-4591-ac6c-0f1325deaaa5","system_id":"levelo_inurba_marseille","lat":43.31704,"lon":5.37768,"is_reserved":false,"is_disabled":false,"rental_uris":{"android":"levelo://app?vid=96c93139-9a4e-4591-ac6c-0f1325deaaa5","ios":"levelo://app?vid=96c93139-9a4e-4591-ac6c-0f1325deaaa5"},"vehicle_type_id":"4","last_reported":1739200197,"current_range_meters":38800,"station_id":"ce4bgth2rcd13ifvqch0","pricing_plan_id":"cebpf4jnsgd1na2vs0mg"},{"bike_id":"71245798-1c48-4fae-ae90-fb5dbb3e0a7f","system_id":"levelo_inurba_marseille","lat":43.29534,"lon":5.38536,"is_reserved":false,"is_disabled":false,"rental_uris":{"android":"levelo://app?vid=71245798-1c48-4fae-ae90-fb5dbb3e0a7f","ios":"levelo://app?vid=71245798-1c48-4fae-ae90-fb5dbb3e0a7f"},"vehicle_type_id":"4","last_reported":1739200197,"current_range_meters":36800,"station_id":"ce4bgih2rcd13ifvqba0","pricing_plan_id":"cebpf4jnsgd1na2vs0mg"},{"bike_id":"98cab3d9-3235-4d4a-9c9e-e110e48cc41b","system_id":"levelo_inurba_marseille","lat":43.29598,"lon":5.38099,"is_reserved":false,"is_disabled":false,"rental_uris":{"android":"levelo://app?vid=98cab3d9-3235-4d4a-9c9e-e110e48cc41b","ios":"levelo://app?vid=98cab3d9-3235-4d4a-9c9e-e110e48cc41b"},"vehicle_type_id":"4","last_reported":1739200197,"current_range_meters":28800,"station_id":"ce4bgl12rcd13ifvqbo0","pricing_plan_id":"cebpf4jnsgd1na2vs0mg"},{"bike_id":"5ba28b77-6595-45bb-938d-11c2f9f40964","system_id":"levelo_inurba_marseille","lat":43.28103,"lon":5.3784,"is_reserved":false,"is_disabled":false,"rental_uris":{"android":"levelo://app?vid=5ba28b77-6595-45bb-938d-11c2f9f40964","ios":"levelo://app?vid=5ba28b77-6595-45bb-938d-11c2f9f40964"},"vehicle_type_id":"4","last_reported":1739200197,"current_range_meters":32400,"station_id":"ce4bha12rcd13ifvqee0","pricing_plan_id":"cebpf4jnsgd1na2vs0mg"},{"bike_id":"1ec14052-2d33-4aa1-9ab8-58cc71db74d1","system_id":"levelo_inurba_marseille","lat":43.24168,"lon":5.36393,"is_reserved":false,"is_disabled":false,"rental_uris":{"android":"levelo://app?vid=1ec14052-2d33-4aa1-9ab8-58cc71db74d1","ios":"levelo://app?vid=1ec14052-2d33-4aa1-9ab8-58cc71db74d1"},"vehicle_type_id":"4","last_reported":1739200197,"current_range_meters":18800,"station_id":"cpo36qri1sfpv3e86is0","pricing_plan_id":"cebpf4jnsgd1na2vs0mg"},{"bike_id":"ae0dbd03-494d-4ce6-8b36-e3fa998daab3","system_id":"levelo_inurba_marseille","lat":43.2797,"lon":5.38747,"is_reserved":false,"is_disabled":false,"rental_uris":{"android":"levelo://app?vid=ae0dbd03-494d-4ce6-8b36-e3fa998daab3","ios":"levelo://app?vid=ae0dbd03-494d-4ce6-8b36-e3fa998daab3"},"vehicle_type_id":"4","last_reported":1739200197,"current_range_meters":38800,"station_id":"ce4bhg12rcd13ifvqf80","pricing_plan_id":"cebpf4jnsgd1na2vs0mg"},{"bike_id":"244e5370-077f-4f71-8582-1d3daf14279a","system_id":"levelo_inurba_marseille","lat":43.29267,"lon":5.38448,"is_reserved":false,"is_disabled":false,"rental_uris":{"android":"levelo://app?vid=244e5370-077f-4f71-8582-1d3daf14279a","ios":"levelo://app?vid=244e5370-077f-4f71-8582-1d3daf14279a"},"vehicle_type_id":"4","last_reported":1739200197,"current_range_meters":23200,"station_id":"ce4bh692rcd13ifvqea0","pricing_plan_id":"cebpf4jnsgd1na2vs0mg"},{"bike_id":"f37f2975-dffb-4f2e-8b01-29232860ec8c","system_id":"levelo_inurba_marseille","lat":43.3175,"lon":5.39019,"is_reserved":false,"is_disabled":false,"rental_uris":{"android":"levelo://app?vid=f37f2975-dffb-4f2e-8b01-29232860ec8c","ios":"levelo://app?vid=f37f2975-dffb-4f2e-8b01-29232860ec8c"},"vehicle_type_id":"4","last_reported":1739200197,"current_range_meters":36800,"station_id":"ce4bhqp2rcd13ifvqhng","pricing_plan_id":"cebpf4jnsgd1na2vs0mg"},{"bike_id":"c52b27f8-f65c-455d-8c05-8cca2fd7d5e3","system_id":"levelo_inurba_marseille","lat":43.26964,"lon":5.38619,"is_reserved":false,"is_disabled":false,"rental_uris":{"android":"levelo://app?vid=c52b27f8-f65c-455d-8c05-8cca2fd7d5e3","ios":"levelo://app?vid=c52b27f8-f65c-455d-8c05-8cca2fd7d5e3"},"vehicle_type_id":"4","last_reported":1739200197,"current_range_meters":6000,"station_id":"ce4bhh92rcd13ifvqfh0","pricing_plan_id":"cebpf4jnsgd1na2vs0mg"},{"bike_id":"fbb98623-bd6f-4427-9463-8f7fc3b3bd20","system_id":"levelo_inurba_marseille","lat":43.28031,"lon":5.36946,"is_reserved":false,"is_disabled":false,"rental_uris":{"android":"levelo://app?vid=fbb98623-bd6f-4427-9463-8f7fc3b3bd20","ios":"levelo://app?vid=fbb98623-bd6f-4427-9463-8f7fc3b3bd20"},"vehicle_type_id":"4","last_reported":1739200197,"current_range_meters":32400,"station_id":"ce4bha12rcd13ifvqef0","pricing_plan_id":"cebpf4jnsgd1na2vs0mg"},{"bike_id":"c96f92a7-f6aa-4b72-bfcc-b3fd0520d382","system_id":"levelo_inurba_marseille","lat":43.26209,"lon":5.37442,"is_reserved":false,"is_disabled":false,"rental_uris":{"android":"levelo://app?vid=c96f92a7-f6aa-4b72-bfcc-b3fd0520d382","ios":"levelo://app?vid=c96f92a7-f6aa-4b72-bfcc-b3fd0520d382"},"vehicle_type_id":"4","last_reported":1739200197,"current_range_meters":38800,"station_id":"ce4bhgp2rcd13ifvqfc0","pricing_plan_id":"cebpf4jnsgd1na2vs0mg"},{"bike_id":"573205f8-58b7-4eba-b449-5ace31c63bc8","system_id":"levelo_inurba_marseille","lat":43.26783,"lon":5.39414,"is_reserved":false,"is_disabled":false,"rental_uris":{"android":"levelo://app?vid=573205f8-58b7-4eba-b449-5ace31c63bc8","ios":"levelo://app?vid=573205f8-58b7-4eba-b449-5ace31c63bc8"},"vehicle_type_id":"4","last_reported":1739200197,"current_range_meters":17200,"station_id":"ce4bhh12rcd13ifvqfg0","pricing_plan_id":"cebpf4jnsgd1na2vs0mg"},{"bike_id":"53dedc30-10cb-4cf6-aa3e-119646708c08","system_id":"levelo_inurba_marseille","lat":43.2604,"lon":5.37549,"is_reserved":false,"is_disabled":false,"rental_uris":{"android":"levelo://app?vid=53dedc30-10cb-4cf6-aa3e-119646708c08","ios":"levelo://app?vid=53dedc30-10cb-4cf6-aa3e-119646708c08"},"vehicle_type_id":"4","last_reported":1739200197,"current_range_meters":38800,"station_id":"ce4bhgh2rcd13ifvqfa0","pricing_plan_id":"cebpf4jnsgd1na2vs0mg"},{"bike_id":"5d5b9d52-4005-4b8d-8e03-12940e9796d0","system_id":"levelo_inurba_marseille","lat":43.24069,"lon":5.37765,"is_reserved":false,"is_disabled":true,"rental_uris":{"android":"levelo://app?vid=5d5b9d52-4005-4b8d-8e03-12940e9796d0","ios":"levelo://app?vid=5d5b9d52-4005-4b8d-8e03-12940e9796d0"},"vehicle_type_id":"4","last_reported":1739200197,"current_range_meters":1600,"station_id":"ce4bhnp2rcd13ifvqgvg","pricing_plan_id":"cebpf4jnsgd1na2vs0mg"},{"bike_id":"caa0f455-d712-4d95-8750-9439ae7ebc33","system_id":"levelo_inurba_marseille","lat":43.30538,"lon":5.3655,"is_reserved":false,"is_disabled":false,"rental_uris":{"android":"levelo://app?vid=caa0f455-d712-4d95-8750-9439ae7ebc33","ios":"levelo://app?vid=caa0f455-d712-4d95-8750-9439ae7ebc33"},"vehicle_type_id":"4","last_reported":1739200197,"current_range_meters":18800,"station_id":"ce4bgs12rcd13ifvqcag","pricing_plan_id":"cebpf4jnsgd1na2vs0mg"},{"bike_id":"d65a14c4-ecf3-4048-b05f-9a757ce2f182","system_id":"levelo_inurba_marseille","lat":43.24692,"lon":5.38123,"is_reserved":false,"is_disabled":false,"rental_uris":{"android":"levelo://app?vid=d65a14c4-ecf3-4048-b05f-9a757ce2f182","ios":"levelo://app?vid=d65a14c4-ecf3-4048-b05f-9a757ce2f182"},"vehicle_type_id":"4","last_reported":1739200197,"current_range_meters":38800,"station_id":"ce4bhih2rcd13ifvqfr0","pricing_plan_id":"cebpf4jnsgd1na2vs0mg"},{"bike_id":"012990dd-a03b-467d-91bf-23a37984e05d","system_id":"levelo_inurba_marseille","lat":43.30416,"lon":5.41284,"is_reserved":false,"is_disabled":false,"rental_uris":{"android":"levelo://app?vid=012990dd-a03b-467d-91bf-23a37984e05d","ios":"levelo://app?vid=012990dd-a03b-467d-91bf-23a37984e05d"},"vehicle_type_id":"4","last_reported":1739200197,"current_range_meters":10800,"station_id":"ce4bhop2rcd13ifvqh8g","pricing_plan_id":"cebpf4jnsgd1na2vs0mg"},{"bike_id":"879d2030-c51b-4298-a606-cfdd56d5ce64","system_id":"levelo_inurba_marseille","lat":43.24186,"lon":5.39727,"is_reserved":false,"is_disabled":false,"rental_uris":{"android":"levelo://app?vid=879d2030-c51b-4298-a606-cfdd56d5ce64","ios":"levelo://app?vid=879d2030-c51b-4298-a606-cfdd56d5ce64"},"vehicle_type_id":"4","last_reported":1739200197,"current_range_meters":29600,"station_id":"ce4bhn12rcd13ifvqgpg","pricing_plan_id":"cebpf4jnsgd1na2vs0mg"},{"bike_id":"e062ae33-713d-4b23-a76d-7e91e4d9a88d","system_id":"levelo_inurba_marseille","lat":43.26027,"lon":5.3755,"is_reserved":false,"is_disabled":false,"rental_uris":{"android":"levelo://app?vid=e062ae33-713d-4b23-a76d-7e91e4d9a88d","ios":"levelo://app?vid=e062ae33-713d-4b23-a76d-7e91e4d9a88d"},"vehicle_type_id":"4","last_reported":1739200197,"current_range_meters":34800,"station_id":"ce4bhgh2rcd13ifvqfa0","pricing_plan_id":"cebpf4jnsgd1na2vs0mg"},{"bike_id":"0580eb58-e6b1-4e7b-a86c-47b05cf37565","system_id":"levelo_inurba_marseille","lat":43.27321,"lon":5.39087,"is_reserved":false,"is_disabled":false,"rental_uris":{"android":"levelo://app?vid=0580eb58-e6b1-4e7b-a86c-47b05cf37565","ios":"levelo://app?vid=0580eb58-e6b1-4e7b-a86c-47b05cf37565"},"vehicle_type_id":"4","last_reported":1739200197,"current_range_meters":38000,"station_id":"ce4bhgp2rcd13ifvqfe0","pricing_plan_id":"cebpf4jnsgd1na2vs0mg"},{"bike_id":"b1271162-1ed1-4508-a6a7-49d6eee68bba","system_id":"levelo_inurba_marseille","lat":43.29866,"lon":5.39737,"is_reserved":false,"is_disabled":false,"rental_uris":{"android":"levelo://app?vid=b1271162-1ed1-4508-a6a7-49d6eee68bba","ios":"levelo://app?vid=b1271162-1ed1-4508-a6a7-49d6eee68bba"},"vehicle_type_id":"4","last_reported":1739200197,"current_range_meters":32800,"station_id":"ce4bh0h2rcd13ifvqd50","pricing_plan_id":"cebpf4jnsgd1na2vs0mg"},{"bike_id":"26f106cf-8738-422f-bcb0-d7879a047329","system_id":"levelo_inurba_marseille","lat":43.2984,"lon":5.3628,"is_reserved":false,"is_disabled":false,"rental_uris":{"android":"levelo://app?vid=26f106cf-8738-422f-bcb0-d7879a047329","ios":"levelo://app?vid=26f106cf-8738-422f-bcb0-d7879a047329"},"vehicle_type_id":"4","last_reported":1739200197,"current_range_meters":38800,"station_id":"ce4bgpp2rcd13ifvqc3g","pricing_plan_id":"cebpf4jnsgd1na2vs0mg"},{"bike_id":"b23895f0-3e12-4e7d-aaf9-b6a4ef69306d","system_id":"levelo_inurba_marseille","lat":43.29967,"lon":5.38491,"is_reserved":false,"is_disabled":false,"rental_uris":{"android":"levelo://app?vid=b23895f0-3e12-4e7d-aaf9-b6a4ef69306d","ios":"levelo://app?vid=b23895f0-3e12-4e7d-aaf9-b6a4ef69306d"},"vehicle_type_id":"4","last_reported":1739200197,"current_range_meters":30800,"station_id":"ce4bgj92rcd13ifvqbd0","pricing_plan_id":"cebpf4jnsgd1na2vs0mg"},{"bike_id":"c6c8b5fa-8035-4487-83e5-96364709f959","system_id":"levelo_inurba_marseille","lat":43.30901,"lon":5.36839,"is_reserved":false,"is_disabled":false,"rental_uris":{"android":"levelo://app?vid=c6c8b5fa-8035-4487-83e5-96364709f959","ios":"levelo://app?vid=c6c8b5fa-8035-4487-83e5-96364709f959"},"vehicle_type_id":"4","last_reported":1739200197,"current_range_meters":25200,"station_id":"ce4bgn92rcd13ifvqbvg","pricing_plan_id":"cebpf4jnsgd1na2vs0mg"},{"bike_id":"f2a19d6d-1c3c-4ae5-a155-e51d34c1aabd","system_id":"levelo_inurba_marseille","lat":43.28571,"lon":5.39499,"is_reserved":false,"is_disabled":false,"rental_uris":{"android":"levelo://app?vid=f2a19d6d-1c3c-4ae5-a155-e51d34c1aabd","ios":"levelo://app?vid=f2a19d6d-1c3c-4ae5-a155-e51d34c1aabd"},"vehicle_type_id":"4","last_reported":1739200197,"current_range_meters":8800,"station_id":"ce4bh292rcd13ifvqdg0","pricing_plan_id":"cebpf4jnsgd1na2vs0mg"},{"bike_id":"118acaa8-c377-4759-a8f9-c3303973ef34","system_id":"levelo_inurba_marseille","lat":43.2987,"lon":5.38919,"is_reserved":false,"is_disabled":false,"rental_uris":{"android":"levelo://app?vid=118acaa8-c377-4759-a8f9-c3303973ef34","ios":"levelo://app?vid=118acaa8-c377-4759-a8f9-c3303973ef34"},"vehicle_type_id":"4","last_reported":1739200197,"current_range_meters":28400,"station_id":"ce4bh392rcd13ifvqdl0","pricing_plan_id":"cebpf4jnsgd1na2vs0mg"},{"bike_id":"34262e96-987c-4fc3-975f-8c9abba81a43","system_id":"levelo_inurba_marseille","lat":43.2708,"lon":5.42272,"is_reserved":false,"is_disabled":false,"rental_uris":{"android":"levelo://app?vid=34262e96-987c-4fc3-975f-8c9abba81a43","ios":"levelo://app?vid=34262e96-987c-4fc3-975f-8c9abba81a43"},"vehicle_type_id":"4","last_reported":1739200197,"current_range_meters":38800,"station_id":"ce4bhk92rcd13ifvqgb0","pricing_plan_id":"cebpf4jnsgd1na2vs0mg"},{"bike_id":"57e55ff3-d4d1-4810-97be-5319f99010e7","system_id":"levelo_inurba_marseille","lat":43.29058,"lon":5.37154,"is_reserved":false,"is_disabled":false,"rental_uris":{"android":"levelo://app?vid=57e55ff3-d4d1-4810-97be-5319f99010e7","ios":"levelo://app?vid=57e55ff3-d4d1-4810-97be-5319f99010e7"},"vehicle_type_id":"4","last_reported":1739200197,"current_range_meters":16000,"station_id":"ce4bh5p2rcd13ifvqe4g","pricing_plan_id":"cebpf4jnsgd1na2vs0mg"},{"bike_id":"c8284eb2-c14e-4314-acdb-ff222905a9d3","system_id":"levelo_inurba_marseille","lat":43.31372,"lon":5.36701,"is_reserved":false,"is_disabled":false,"rental_uris":{"android":"levelo://app?vid=c8284eb2-c14e-4314-acdb-ff222905a9d3","ios":"levelo://app?vid=c8284eb2-c14e-4314-acdb-ff222905a9d3"},"vehicle_type_id":"4","last_reported":1739200197,"current_range_meters":23200,"station_id":"ce4bgr92rcd13ifvqc6g","pricing_plan_id":"cebpf4jnsgd1na2vs0mg"},{"bike_id":"203e545a-1357-493b-bdb4-05f12ae75157","system_id":"levelo_inurba_marseille","lat":43.29971,"lon":5.37178,"is_reserved":false,"is_disabled":false,"rental_uris":{"android":"levelo://app?vid=203e545a-1357-493b-bdb4-05f12ae75157","ios":"levelo://app?vid=203e545a-1357-493b-bdb4-05f12ae75157"},"vehicle_type_id":"4","last_reported":1739200197,"current_range_meters":19600,"station_id":"ce4bgr92rcd13ifvqc7g","pricing_plan_id":"cebpf4jnsgd1na2vs0mg"},{"bike_id":"7b2469f4-69eb-4f37-b856-163598913a6a","system_id":"levelo_inurba_marseille","lat":43.29507,"lon":5.39032,"is_reserved":false,"is_disabled":false,"rental_uris":{"android":"levelo://app?vid=7b2469f4-69eb-4f37-b856-163598913a6a","ios":"levelo://app?vid=7b2469f4-69eb-4f37-b856-163598913a6a"},"vehicle_type_id":"4","last_reported":1739200197,"current_range_meters":22400,"station_id":"ce4bh3p2rcd13ifvqdp0","pricing_plan_id":"cebpf4jnsgd1na2vs0mg"},{"bike_id":"10a8aa0e-b281-454d-8c08-561faec463d8","system_id":"levelo_inurba_marseille","lat":43.29224,"lon":5.36064,"is_reserved":false,"is_disabled":false,"rental_uris":{"android":"levelo://app?vid=10a8aa0e-b281-454d-8c08-561faec463d8","ios":"levelo://app?vid=10a8aa0e-b281-454d-8c08-561faec463d8"},"vehicle_type_id":"4","last_reported":1739200197,"current_range_meters":36400,"station_id":"ce4bhbh2rcd13ifvqeqg","pricing_plan_id":"cebpf4jnsgd1na2vs0mg"},{"bike_id":"54ce597b-1ca1-4d62-923d-d4b29eec04b3","system_id":"levelo_inurba_marseille","lat":43.31131,"lon":5.38261,"is_reserved":false,"is_disabled":false,"rental_uris":{"android":"levelo://app?vid=54ce597b-1ca1-4d62-923d-d4b29eec04b3","ios":"levelo://app?vid=54ce597b-1ca1-4d62-923d-d4b29eec04b3"},"vehicle_type_id":"4","last_reported":1739200197,"current_range_meters":25200,"station_id":"","pricing_plan_id":"cebpf4jnsgd1na2vs0mg"},{"bike_id":"b4765ae2-b7fb-4718-bf68-ce7ba2c817f9","system_id":"levelo_inurba_marseille","lat":43.27072,"lon":5.42278,"is_reserved":false,"is_disabled":false,"rental_uris":{"android":"levelo://app?vid=b4765ae2-b7fb-4718-bf68-ce7ba2c817f9","ios":"levelo://app?vid=b4765ae2-b7fb-4718-bf68-ce7ba2c817f9"},"vehicle_type_id":"4","last_reported":1739200197,"current_range_meters":28000,"station_id":"ce4bhk92rcd13ifvqgb0","pricing_plan_id":"cebpf4jnsgd1na2vs0mg"},{"bike_id":"bc7c5aaf-6d37-4576-a8ab-ebc6a22e14b2","system_id":"levelo_inurba_marseille","lat":43.27678,"lon":5.38876,"is_reserved":false,"is_disabled":false,"rental_uris":{"android":"levelo://app?vid=bc7c5aaf-6d37-4576-a8ab-ebc6a22e14b2","ios":"levelo://app?vid=bc7c5aaf-6d37-4576-a8ab-ebc6a22e14b2"},"vehicle_type_id":"4","last_reported":1739200197,"current_range_meters":37600,"station_id":"ce4bhi12rcd13ifvqfo0","pricing_plan_id":"cebpf4jnsgd1na2vs0mg"},{"bike_id":"a2edcc76-2265-4bc6-8f2e-29b460d743ff","system_id":"levelo_inurba_marseille","lat":43.25578,"lon":5.38241,"is_reserved":false,"is_disabled":false,"rental_uris":{"android":"levelo://app?vid=a2edcc76-2265-4bc6-8f2e-29b460d743ff","ios":"levelo://app?vid=a2edcc76-2265-4bc6-8f2e-29b460d743ff"},"vehicle_type_id":"4","last_reported":1739200197,"current_range_meters":25200,"station_id":"ce4bhih2rcd13ifvqfs0","pricing_plan_id":"cebpf4jnsgd1na2vs0mg"},{"bike_id":"aaf8d01f-ecee-445b-8af9-a7ecd3dff2bf","system_id":"levelo_inurba_marseille","lat":43.29919,"lon":5.37481,"is_reserved":false,"is_disabled":false,"rental_uris":{"android":"levelo://app?vid=aaf8d01f-ecee-445b-8af9-a7ecd3dff2bf","ios":"levelo://app?vid=aaf8d01f-ecee-445b-8af9-a7ecd3dff2bf"},"vehicle_type_id":"4","last_reported":1739200197,"current_range_meters":34800,"station_id":"ce4bgjh2rcd13ifvqbg0","pricing_plan_id":"cebpf4jnsgd1na2vs0mg"},{"bike_id":"80e0752d-a67c-443f-8add-7a5d9f9a6e3d","system_id":"levelo_inurba_marseille","lat":43.28728,"lon":5.36084,"is_reserved":false,"is_disabled":false,"rental_uris":{"android":"levelo://app?vid=80e0752d-a67c-443f-8add-7a5d9f9a6e3d","ios":"levelo://app?vid=80e0752d-a67c-443f-8add-7a5d9f9a6e3d"},"vehicle_type_id":"4","last_reported":1739200197,"current_range_meters":24800,"station_id":"cki0cbj6b192h4jlfktg","pricing_plan_id":"cebpf4jnsgd1na2vs0mg"},{"bike_id":"f6032093-acba-469c-87fb-29d8d78369ea","system_id":"levelo_inurba_marseille","lat":43.28608,"lon":5.35106,"is_reserved":false,"is_disabled":false,"rental_uris":{"android":"levelo://app?vid=f6032093-acba-469c-87fb-29d8d78369ea","ios":"levelo://app?vid=f6032093-acba-469c-87fb-29d8d78369ea"},"vehicle_type_id":"4","last_reported":1739200197,"current_range_meters":28800,"station_id":"ce4bhch2rcd13ifvqeug","pricing_plan_id":"cebpf4jnsgd1na2vs0mg"},{"bike_id":"f708cebf-b6c0-49e5-ad77-2d402ac181d6","system_id":"levelo_inurba_marseille","lat":43.27347,"lon":5.39135,"is_reserved":false,"is_disabled":false,"rental_uris":{"android":"levelo://app?vid=f708cebf-b6c0-49e5-ad77-2d402ac181d6","ios":"levelo://app?vid=f708cebf-b6c0-49e5-ad77-2d402ac181d6"},"vehicle_type_id":"4","last_reported":1739200197,"current_range_meters":22800,"station_id":"ce4bhgp2rcd13ifvqfe0","pricing_plan_id":"cebpf4jnsgd1na2vs0mg"},{"bike_id":"53ff6af4-dd50-49f7-95ca-5bc40ffce5be","system_id":"levelo_inurba_marseille","lat":43.27836,"lon":5.40682,"is_reserved":false,"is_disabled":false,"rental_uris":{"android":"levelo://app?vid=53ff6af4-dd50-49f7-95ca-5bc40ffce5be","ios":"levelo://app?vid=53ff6af4-dd50-49f7-95ca-5bc40ffce5be"},"vehicle_type_id":"4","last_reported":1739200197,"current_range_meters":38800,"station_id":"ce4bhnh2rcd13ifvqgtg","pricing_plan_id":"cebpf4jnsgd1na2vs0mg"},{"bike_id":"38bc75e2-a397-4b63-995f-245fe151a8f9","system_id":"levelo_inurba_marseille","lat":43.23197,"lon":5.39982,"is_reserved":false,"is_disabled":false,"rental_uris":{"android":"levelo://app?vid=38bc75e2-a397-4b63-995f-245fe151a8f9","ios":"levelo://app?vid=38bc75e2-a397-4b63-995f-245fe151a8f9"},"vehicle_type_id":"4","last_reported":1739200197,"current_range_meters":38800,"station_id":"ce4bhn12rcd13ifvqgqg","pricing_plan_id":"cebpf4jnsgd1na2vs0mg"},{"bike_id":"ec849b97-32e8-4538-a3ea-2e1cfc5ef6fe","system_id":"levelo_inurba_marseille","lat":43.28607,"lon":5.37066,"is_reserved":false,"is_disabled":false,"rental_uris":{"android":"levelo://app?vid=ec849b97-32e8-4538-a3ea-2e1cfc5ef6fe","ios":"levelo://app?vid=ec849b97-32e8-4538-a3ea-2e1cfc5ef6fe"},"vehicle_type_id":"4","last_reported":1739200197,"current_range_meters":38000,"station_id":"ce4bht12rcd13ifvqi60","pricing_plan_id":"cebpf4jnsgd1na2vs0mg"},{"bike_id":"0d06f8ed-583f-4925-acc0-af879bb23622","system_id":"levelo_inurba_marseille","lat":43.27768,"lon":5.39874,"is_reserved":false,"is_disabled":true,"rental_uris":{"android":"levelo://app?vid=0d06f8ed-583f-4925-acc0-af879bb23622","ios":"levelo://app?vid=0d06f8ed-583f-4925-acc0-af879bb23622"},"vehicle_type_id":"4","last_reported":1739200197,"current_range_meters":0,"station_id":"","pricing_plan_id":"cebpf4jnsgd1na2vs0mg"},{"bike_id":"5d070c00-ac98-441c-96ed-7c1858ec61f4","system_id":"levelo_inurba_marseille","lat":43.29416,"lon":5.38629,"is_reserved":false,"is_disabled":false,"rental_uris":{"android":"levelo://app?vid=5d070c00-ac98-441c-96ed-7c1858ec61f4","ios":"levelo://app?vid=5d070c00-ac98-441c-96ed-7c1858ec61f4"},"vehicle_type_id":"4","last_reported":1739200197,"current_range_meters":24400,"station_id":"ce4bh2h2rcd13ifvqdh0","pricing_plan_id":"cebpf4jnsgd1na2vs0mg"},{"bike_id":"d606c525-7dbc-4209-ad64-fc43807a857e","system_id":"levelo_inurba_marseille","lat":43.27995,"lon":5.40003,"is_reserved":false,"is_disabled":false,"rental_uris":{"android":"levelo://app?vid=d606c525-7dbc-4209-ad64-fc43807a857e","ios":"levelo://app?vid=d606c525-7dbc-4209-ad64-fc43807a857e"},"vehicle_type_id":"4","last_reported":1739200197,"current_range_meters":35200,"station_id":"ce4bho92rcd13ifvqh4g","pricing_plan_id":"cebpf4jnsgd1na2vs0mg"},{"bike_id":"15d8c906-1286-4b4c-9ca3-d38c21e42dbe","system_id":"levelo_inurba_marseille","lat":43.27958,"lon":5.387,"is_reserved":false,"is_disabled":false,"rental_uris":{"android":"levelo://app?vid=15d8c906-1286-4b4c-9ca3-d38c21e42dbe","ios":"levelo://app?vid=15d8c906-1286-4b4c-9ca3-d38c21e42dbe"},"vehicle_type_id":"4","last_reported":1739200197,"current_range_meters":16000,"station_id":"ce4bhg12rcd13ifvqf80","pricing_plan_id":"cebpf4jnsgd1na2vs0mg"},{"bike_id":"4112fca7-ef57-460b-ab4e-479bd8d00484","system_id":"levelo_inurba_marseille","lat":43.2721,"lon":5.39175,"is_reserved":false,"is_disabled":false,"rental_uris":{"android":"levelo://app?vid=4112fca7-ef57-460b-ab4e-479bd8d00484","ios":"levelo://app?vid=4112fca7-ef57-460b-ab4e-479bd8d00484"},"vehicle_type_id":"4","last_reported":1739200197,"current_range_meters":6400,"station_id":"ce4bhhp2rcd13ifvqfm0","pricing_plan_id":"cebpf4jnsgd1na2vs0mg"},{"bike_id":"4310aa91-d98e-448d-8506-7cd4fe1c6560","system_id":"levelo_inurba_marseille","lat":43.24391,"lon":5.3706,"is_reserved":false,"is_disabled":false,"rental_uris":{"android":"levelo://app?vid=4310aa91-d98e-448d-8506-7cd4fe1c6560","ios":"levelo://app?vid=4310aa91-d98e-448d-8506-7cd4fe1c6560"},"vehicle_type_id":"4","last_reported":1739200197,"current_range_meters":17600,"station_id":"ce4bhhh2rcd13ifvqfk0","pricing_plan_id":"cebpf4jnsgd1na2vs0mg"},{"bike_id":"277fab29-c1dc-4fca-bdc0-afb633753197","system_id":"levelo_inurba_marseille","lat":43.24396,"lon":5.37042,"is_reserved":false,"is_disabled":false,"rental_uris":{"android":"levelo://app?vid=277fab29-c1dc-4fca-bdc0-afb633753197","ios":"levelo://app?vid=277fab29-c1dc-4fca-bdc0-afb633753197"},"vehicle_type_id":"4","last_reported":1739200197,"current_range_meters":37600,"station_id":"ce4bhhh2rcd13ifvqfk0","pricing_plan_id":"cebpf4jnsgd1na2vs0mg"},{"bike_id":"eb1c29db-6864-4fb3-bccb-28251ceb0b4c","system_id":"levelo_inurba_marseille","lat":43.26789,"lon":5.39408,"is_reserved":false,"is_disabled":false,"rental_uris":{"android":"levelo://app?vid=eb1c29db-6864-4fb3-bccb-28251ceb0b4c","ios":"levelo://app?vid=eb1c29db-6864-4fb3-bccb-28251ceb0b4c"},"vehicle_type_id":"4","last_reported":1739200197,"current_range_meters":32000,"station_id":"ce4bhh12rcd13ifvqfg0","pricing_plan_id":"cebpf4jnsgd1na2vs0mg"},{"bike_id":"210e2bb7-5eb4-4772-90ce-04bce3c5c76f","system_id":"levelo_inurba_marseille","lat":43.26031,"lon":5.37559,"is_reserved":false,"is_disabled":false,"rental_uris":{"android":"levelo://app?vid=210e2bb7-5eb4-4772-90ce-04bce3c5c76f","ios":"levelo://app?vid=210e2bb7-5eb4-4772-90ce-04bce3c5c76f"},"vehicle_type_id":"4","last_reported":1739200197,"current_range_meters":39200,"station_id":"ce4bhgh2rcd13ifvqfa0","pricing_plan_id":"cebpf4jnsgd1na2vs0mg"},{"bike_id":"d1185d7b-8f44-4617-adfe-b627b6c77cb9","system_id":"levelo_inurba_marseille","lat":43.30419,"lon":5.4128,"is_reserved":false,"is_disabled":false,"rental_uris":{"android":"levelo://app?vid=d1185d7b-8f44-4617-adfe-b627b6c77cb9","ios":"levelo://app?vid=d1185d7b-8f44-4617-adfe-b627b6c77cb9"},"vehicle_type_id":"4","last_reported":1739200197,"current_range_meters":33600,"station_id":"ce4bhop2rcd13ifvqh8g","pricing_plan_id":"cebpf4jnsgd1na2vs0mg"},