{"last_updated":1737831931,"ttl":60,"version":"2.2","data":{"bikes":[{"bike_id":"1aff60e0-6299-436a-afb4-d031acec73ea","system_id":"levelo_inurba_marseille","lat":43.31227,"lon":5.36862,"is_reserved":false,"is_disabled":false,"rental_uris":{"android":"levelo://app?vid=1aff60e0-6299-436a-afb4-d031acec73ea","ios":"levelo://app?vid=1aff60e0-6299-436a-afb4-d031acec73ea"},"vehicle_type_id":"4","last_reported":1737831931,"current_range_meters":27600,"station_id":"ce4bgl92rcd13ifvqbq0","pricing_plan_id":"cebpf4jnsgd1na2vs0mg"},{"bike_id":"03c64e80-5e01-4332-bc90-93a2fb6ac145","system_id":"levelo_inurba_marseille","lat":43.22928,"lon":5.35352,"is_reserved":false,"is_disabled":false,"rental_uris":{"android":"levelo://app?vid=03c64e80-5e01-4332-bc90-93a2fb6ac145","ios":"levelo://app?vid=03c64e80-5e01-4332-bc90-93a2fb6ac145"},"vehicle_type_id":"4","last_reported":1737831931,"current_range_meters":38800,"station_id":"cpo3532slgdg3j2ikp40","pricing_plan_id":"cebpf4jnsgd1na2vs0mg"},{"bike_id":"d2761b5d-d954-42ab-98b1-5cfb383757cf","system_id":"levelo_inurba_marseille","lat":43.3204,"lon":5.41569,"is_reserved":false,"is_disabled":false,"rental_uris":{"android":"levelo://app?vid=d2761b5d-d954-42ab-98b1-5cfb383757cf","ios":"levelo://app?vid=d2761b5d-d954-42ab-98b1-5cfb383757cf"},"vehicle_type_id":"4","last_reported":1737831931,"current_range_meters":39200,"station_id":"ce4bhq92rcd13ifvqhkg","pricing_plan_id":"cebpf4jnsgd1na2vs0mg"},{"bike_id":"7cb17210-e6bd-4f16-9d5a-6665c44a1097","system_id":"levelo_inurba_marseille","lat":43.26066,"lon":5.39379,"is_reserved":false,"is_disabled":false,"rental_uris":{"android":"levelo://app?vid=7cb17210-e6bd-4f16-9d5a-6665c44a1097","ios":"levelo://app?vid=7cb17210-e6bd-4f16-9d5a-6665c44a1097"},"vehicle_type_id":"4","last_reported":1737831931,"current_range_meters":8000,"station_id":"ce4bhh92rcd13ifvqfj0","pricing_plan_id":"cebpf4jnsgd1na2vs0mg"},{"bike_id":"22fdda07-29f7-4097-aa7c-457566d3caba","system_id":"levelo_inurba_marseille","lat":43.25079,"lon":5.39529,"is_reserved":false,"is_disabled":false,"rental_uris":{"android":"levelo://app?vid=22fdda07-29f7-4097-aa7c-457566d3caba","ios":"levelo://app?vid=22fdda07-29f7-4097-aa7c-457566d3caba"},"vehicle_type_id":"4","last_reported":1737831931,"current_range_meters":28400,"station_id":"ce4bhm12rcd13ifvqgkg","pricing_plan_id":"cebpf4jnsgd1na2vs0mg"},{"bike_id":"0f37f612-bab0-4811-95c1-da64c54e0705","system_id":"levelo_inurba_marseille","lat":43.27998,"lon":5.41665,"is_reserved":false,"is_disabled":false,"rental_uris":{"android":"levelo://app?vid=0f37f612-bab0-4811-95c1-da64c54e0705","ios":"levelo://app?vid=0f37f612-bab0-4811-95c1-da64c54e0705"},"vehicle_type_id":"4","last_reported":1737831931,"current_range_meters":38800,"station_id":"ce4bho12rcd13ifvqh1g","pricing_plan_id":"cebpf4jnsgd1na2vs0mg"},{"bike_id":"b8feea70-b73f-4e53-bfd6-f953b08cc39e","system_id":"levelo_inurba_marseille","lat":43.29904,"lon":5.38132,"is_reserved":false,"is_disabled":false,"rental_uris":{"android":"levelo://app?vid=b8feea70-b73f-4e53-bfd6-f953b08cc39e","ios":"levelo://app?vid=b8feea70-b73f-4e53-bfd6-f953b08cc39e"},"vehicle_type_id":"4","last_reported":1737831931,"current_range_meters":30000,"station_id":"ce4bgj12rcd13ifvqbc0","pricing_plan_id":"cebpf4jnsgd1na2vs0mg"},{"bike_id":"58d9e3df-28a3-4560-b2cd-4d33fefbd544","system_id":"levelo_inurba_marseille","lat":43.28337,"lon":5.38106,"is_reserved":false,"is_disabled":true,"rental_uris":{"android":"levelo://app?vid=58d9e3df-28a3-4560-b2cd-4d33fefbd544","ios":"levelo://app?vid=58d9e3df-28a3-4560-b2cd-4d33fefbd544"},"vehicle_type_id":"4","last_reported":1737831931,"current_range_meters":21600,"station_id":"ce4bh412rcd13ifvqdr0","pricing_plan_id":"cebpf4jnsgd1na2vs0mg"},{"bike_id":"4914872c-162c-4b5d-a9af-cff65f389580","system_id":"levelo_inurba_marseille","lat":43.2961,"lon":5.38079,"is_reserved":false,"is_disabled":true,"rental_uris":{"android":"levelo://app?vid=4914872c-162c-4b5d-a9af-cff65f389580","ios":"levelo://app?vid=4914872c-162c-4b5d-a9af-cff65f389580"},"vehicle_type_id":"4","last_reported":1737831931,"current_range_meters":0,"station_id":"ce4bgl12rcd13ifvqbo0","pricing_plan_id":"cebpf4jnsgd1na2vs0mg"},{"bike_id":"b23be976-85d9-4419-bd0c-ee701bf070bb","system_id":"levelo_inurba_marseille","lat":43.30956,"lon":5.3904,"is_reserved":false,"is_disabled":false,"rental_uris":{"android":"levelo://app?vid=b23be976-85d9-4419-bd0c-ee701bf070bb","ios":"levelo://app?vid=b23be976-85d9-4419-bd0c-ee701bf070bb"},"vehicle_type_id":"4","last_reported":1737831931,"current_range_meters":28400,"station_id":"ce4bgup2rcd13ifvqco0","pricing_plan_id":"cebpf4jnsgd1na2vs0mg"},{"bike_id":"a5737f99-690f-497b-be6a-8599b971b0ae","system_id":"levelo_inurba_marseille","lat":43.29166,"lon":5.37157,"is_reserved":false,"is_disabled":false,"rental_uris":{"android":"levelo://app?vid=a5737f99-690f-497b-be6a-8599b971b0ae","ios":"levelo://app?vid=a5737f99-690f-497b-be6a-8599b971b0ae"},"vehicle_type_id":"4","last_reported":1737831931,"current_range_meters":34000,"station_id":"ce4bha92rcd13ifvqeh0","pricing_plan_id":"cebpf4jnsgd1na2vs0mg"},{"bike_id":"7a948520-d35f-473f-a31c-b05cc8bdb9fc","system_id":"levelo_inurba_marseille","lat":43.26554,"lon":5.37275,"is_reserved":false,"is_disabled":false,"rental_uris":{"android":"levelo://app?vid=7a948520-d35f-473f-a31c-b05cc8bdb9fc","ios":"levelo://app?vid=7a948520-d35f-473f-a31c-b05cc8bdb9fc"},"vehicle_type_id":"4","last_reported":1737831931,"current_range_meters":21600,"station_id":"ce4bhg12rcd13ifvqf70","pricing_plan_id":"cebpf4jnsgd1na2vs0mg"},{"bike_id":"0690bf94-1c09-4e27-aca4-e61048090c31","system_id":"levelo_inurba_marseille","lat":43.32662,"lon":5.40987,"is_reserved":false,"is_disabled":false,"rental_uris":{"android":"levelo://app?vid=0690bf94-1c09-4e27-aca4-e61048090c31","ios":"levelo://app?vid=0690bf94-1c09-4e27-aca4-e61048090c31"},"vehicle_type_id":"4","last_reported":1737831931,"current_range_meters":38000,"station_id":"ce4bhpp2rcd13ifvqhgg","pricing_plan_id":"cebpf4jnsgd1na2vs0mg"},{"bike_id":"8c359e53-4823-4574-bdae-1258ac8cefd9","system_id":"levelo_inurba_marseille","lat":43.25117,"lon":5.40337,"is_reserved":false,"is_disabled":false,"rental_uris":{"android":"levelo://app?vid=8c359e53-4823-4574-bdae-1258ac8cefd9","ios":"levelo://app?vid=8c359e53-4823-4574-bdae-1258ac8cefd9"},"vehicle_type_id":"4","last_reported":1737831931,"current_range_meters":38800,"station_id":"ce4bhlh2rcd13ifvqgig","pricing_plan_id":"cebpf4jnsgd1na2vs0mg"},{"bike_id":"0723a08f-992a-4e65-abdf-b5355e9abbfc","system_id":"levelo_inurba_marseille","lat":43.30206,"lon":5.39469,"is_reserved":false,"is_disabled":false,"rental_uris":{"android":"levelo://app?vid=0723a08f-992a-4e65-abdf-b5355e9abbfc","ios":"levelo://app?vid=0723a08f-992a-4e65-abdf-b5355e9abbfc"},"vehicle_type_id":"4","last_reported":1737831931,"current_range_meters":37600,"station_id":"ce4bh0p2rcd13ifvqd70","pricing_plan_id":"cebpf4jnsgd1na2vs0mg"},{"bike_id":"457dbd0e-8f95-45e9-8ae6-40b39a5ca596","system_id":"levelo_inurba_marseille","lat":43.23191,"lon":5.35557,"is_reserved":false,"is_disabled":false,"rental_uris":{"android":"levelo://app?vid=457dbd0e-8f95-45e9-8ae6-40b39a5ca596","ios":"levelo://app?vid=457dbd0e-8f95-45e9-8ae6-40b39a5ca596"},"vehicle_type_id":"4","last_reported":1737831931,"current_range_meters":38400,"station_id":"ce4bhu92rcd13ifvqi70","pricing_plan_id":"cebpf4jnsgd1na2vs0mg"},{"bike_id":"e5a30d51-78ea-43cc-a39d-c28354fa034e","system_id":"levelo_inurba_marseille","lat":43.29915,"lon":5.38136,"is_reserved":false,"is_disabled":false,"rental_uris":{"android":"levelo://app?vid=e5a30d51-78ea-43cc-a39d-c28354fa034e","ios":"levelo://app?vid=e5a30d51-78ea-43cc-a39d-c28354fa034e"},"vehicle_type_id":"4","last_reported":1737831931,"current_range_meters":38800,"station_id":"ce4bgj12rcd13ifvqbc0","pricing_plan_id":"cebpf4jnsgd1na2vs0mg"},{"bike_id":"34fd7956-88f6-4bc0-8512-2636610900a4","system_id":"levelo_inurba_marseille","lat":43.231922,"lon":5.35555,"is_reserved":false,"is_disabled":false,"rental_uris":{"android":"levelo://app?vid=34fd7956-88f6-4bc0-8512-2636610900a4","ios":"levelo://app?vid=34fd7956-88f6-4bc0-8512-2636610900a4"},"vehicle_type_id":"4","last_reported":1737831931,"current_range_meters":38800,"station_id":"ce4bhu92rcd13ifvqi70","pricing_plan_id":"cebpf4jnsgd1na2vs0mg"},{"bike_id":"1e779943-ac6c-41e8-b2b7-803482d1a7ac","system_id":"levelo_inurba_marseille","lat":43.28356,"lon":5.38103,"is_reserved":false,"is_disabled":false,"rental_uris":{"android":"levelo://app?vid=1e779943-ac6c-41e8-b2b7-803482d1a7ac","ios":"levelo://app?vid=1e779943-ac6c-41e8-b2b7-803482d1a7ac"},"vehicle_type_id":"4","last_reported":1737831931,"current_range_meters":14800,"station_id":"ce4bh412rcd13ifvqdr0","pricing_plan_id":"cebpf4jnsgd1na2vs0mg"},{"bike_id":"4e4a5c41-6ed2-435b-9c6a-dbaeecb8e0b1","system_id":"levelo_inurba_marseille","lat":43.29896,"lon":5.43662,"is_reserved":false,"is_disabled":false,"rental_uris":{"android":"levelo://app?vid=4e4a5c41-6ed2-435b-9c6a-dbaeecb8e0b1","ios":"levelo://app?vid=4e4a5c41-6ed2-435b-9c6a-dbaeecb8e0b1"},"vehicle_type_id":"4","last_reported":1737831931,"current_range_meters":20400,"station_id":"ce4bhpp2rcd13ifvqhfg","pricing_plan_id":"cebpf4jnsgd1na2vs0mg"},{"bike_id":"d06b6dd8-7b26-4e14-8483-8f8817ba9baf","system_id":"levelo_inurba_marseille","lat":43.32067,"lon":5.41598,"is_reserved":false,"is_disabled":false,"rental_uris":{"android":"levelo://app?vid=d06b6dd8-7b26-4e14-8483-8f8817ba9baf","ios":"levelo://app?vid=d06b6dd8-7b26-4e14-8483-8f8817ba9baf"},"vehicle_type_id":"4","last_reported":1737831931,"current_range_meters":36800,"station_id":"ce4bhq92rcd13ifvqhkg","pricing_plan_id":"cebpf4jnsgd1na2vs0mg"},{"bike_id":"210624a0-0160-4ca7-abdb-10185ab00b32","system_id":"levelo_inurba_marseille","lat":43.31721,"lon":5.3776,"is_reserved":false,"is_disabled":false,"rental_uris":{"android":"levelo://app?vid=210624a0-0160-4ca7-abdb-10185ab00b32","ios":"levelo://app?vid=210624a0-0160-4ca7-abdb-10185ab00b32"},"vehicle_type_id":"4","last_reported":1737831931,"current_range_meters":8400,"station_id":"ce4bgth2rcd13ifvqch0","pricing_plan_id":"cebpf4jnsgd1na2vs0mg"},{"bike_id":"70c455dc-99d2-48a0-b677-7b7fd5797f7e","system_id":"levelo_inurba_marseille","lat":43.26943,"lon":5.40238,"is_reserved":false,"is_disabled":false,"rental_uris":{"android":"levelo://app?vid=70c455dc-99d2-48a0-b677-7b7fd5797f7e","ios":"levelo://app?vid=70c455dc-99d2-48a0-b677-7b7fd5797f7e"},"vehicle_type_id":"4","last_reported":1737831931,"current_range_meters":35600,"station_id":"cjm6bp8fraef2m0cb0m0","pricing_plan_id":"cebpf4jnsgd1na2vs0mg"},{"bike_id":"7e83737e-17a3-4dc8-b275-b52a496072fd","system_id":"levelo_inurba_marseille","lat":43.25493,"lon":5.37649,"is_reserved":false,"is_disabled":false,"rental_uris":{"android":"levelo://app?vid=7e83737e-17a3-4dc8-b275-b52a496072fd","ios":"levelo://app?vid=7e83737e-17a3-4dc8-b275-b52a496072fd"},"vehicle_type_id":"4","last_reported":1737831931,"current_range_meters":38400,"station_id":"ce4bhh12rcd13ifvqff0","pricing_plan_id":"cebpf4jnsgd1na2vs0mg"},{"bike_id":"b3d630c6-da89-48f7-b315-52b327173195","system_id":"levelo_inurba_marseille","lat":43.29267,"lon":5.38444,"is_reserved":false,"is_disabled":false,"rental_uris":{"android":"levelo://app?vid=b3d630c6-da89-48f7-b315-52b327173195","ios":"levelo://app?vid=b3d630c6-da89-48f7-b315-52b327173195"},"vehicle_type_id":"4","last_reported":1737831931,"current_range_meters":6800,"station_id":"ce4bh692rcd13ifvqea0","pricing_plan_id":"cebpf4jnsgd1na2vs0mg"},{"bike_id":"0f281060-f959-44a5-ac47-7386b99057dd","system_id":"levelo_inurba_marseille","lat":43.29309,"lon":5.37164,"is_reserved":false,"is_disabled":false,"rental_uris":{"android":"levelo://app?vid=0f281060-f959-44a5-ac47-7386b99057dd","ios":"levelo://app?vid=0f281060-f959-44a5-ac47-7386b99057dd"},"vehicle_type_id":"4","last_reported":1737831931,"current_range_meters":6800,"station_id":"ce4bgh92rcd13ifvqb40","pricing_plan_id":"cebpf4jnsgd1na2vs0mg"},{"bike_id":"e9b18d33-2c32-4c0b-bac5-aee7380b5154","system_id":"levelo_inurba_marseille","lat":43.25026,"lon":5.39589,"is_reserved":false,"is_disabled":false,"rental_uris":{"android":"levelo://app?vid=e9b18d33-2c32-4c0b-bac5-aee7380b5154","ios":"levelo://app?vid=e9b18d33-2c32-4c0b-bac5-aee7380b5154"},"vehicle_type_id":"4","last_reported":1737831931,"current_range_meters":37600,"station_id":"","pricing_plan_id":"cebpf4jnsgd1na2vs0mg"},{"bike_id":"c89ad1cf-7f3d-481f-b7fe-2e530b1f2645","system_id":"levelo_inurba_marseille","lat":43.29425,"lon":5.38624,"is_reserved":false,"is_disabled":false,"rental_uris":{"android":"levelo://app?vid=c89ad1cf-7f3d-481f-b7fe-2e530b1f2645","ios":"levelo://app?vid=c89ad1cf-7f3d-481f-b7fe-2e530b1f2645"},"vehicle_type_id":"4","last_reported":1737831931,"current_range_meters":8400,"station_id":"ce4bh2h2rcd13ifvqdh0","pricing_plan_id":"cebpf4jnsgd1na2vs0mg"},{"bike_id":"4aa1a410-b492-4f65-a8bf-cd00ee44c6e1","system_id":"levelo_inurba_marseille","lat":43.30138,"lon":5.39865,"is_reserved":false,"is_disabled":false,"rental_uris":{"android":"levelo://app?vid=4aa1a410-b492-4f65-a8bf-cd00ee44c6e1","ios":"levelo://app?vid=4aa1a410-b492-4f65-a8bf-cd00ee44c6e1"},"vehicle_type_id":"4","last_reported":1737831931,"current_range_meters":29600,"station_id":"ce4bh0h2rcd13ifvqd40","pricing_plan_id":"cebpf4jnsgd1na2vs0mg"},{"bike_id":"b8c7ac08-94bb-4c1a-be59-442ad905fc87","system_id":"levelo_inurba_marseille","lat":43.292439,"lon":5.365996,"is_reserved":false,"is_disabled":false,"rental_uris":{"android":"levelo://app?vid=b8c7ac08-94bb-4c1a-be59-442ad905fc87","ios":"levelo://app?vid=b8c7ac08-94bb-4c1a-be59-442ad905fc87"},"vehicle_type_id":"4","last_reported":1737831931,"current_range_meters":33600,"station_id":"","pricing_plan_id":"cebpf4jnsgd1na2vs0mg"},{"bike_id":"691d37ee-d127-43f1-89c7-d2deab8fd8d7","system_id":"levelo_inurba_marseille","lat":43.29743,"lon":5.36269,"is_reserved":false,"is_disabled":false,"rental_uris":{"android":"levelo://app?vid=691d37ee-d127-43f1-89c7-d2deab8fd8d7","ios":"levelo://app?vid=691d37ee-d127-43f1-89c7-d2deab8fd8d7"},"vehicle_type_id":"4","last_reported":1737831931,"current_range_meters":28000,"station_id":"","pricing_plan_id":"cebpf4jnsgd1na2vs0mg"},{"bike_id":"1261b509-8885-4cc1-a428-b6274d9a5c58","system_id":"levelo_inurba_marseille","lat":43.292749,"lon":5.368537,"is_reserved":false,"is_disabled":false,"rental_uris":{"android":"levelo://app?vid=1261b509-8885-4cc1-a428-b6274d9a5c58","ios":"levelo://app?vid=1261b509-8885-4cc1-a428-b6274d9a5c58"},"vehicle_type_id":"4","last_reported":1737831931,"current_range_meters":38400,"station_id":"ce4bhbp2rcd13ifvqesg","pricing_plan_id":"cebpf4jnsgd1na2vs0mg"},{"bike_id":"d97b23ac-1532-416d-97a4-ebdf3acd4687","system_id":"levelo_inurba_marseille","lat":43.28426,"lon":5.34983,"is_reserved":false,"is_disabled":false,"rental_uris":{"android":"levelo://app?vid=d97b23ac-1532-416d-97a4-ebdf3acd4687","ios":"levelo://app?vid=d97b23ac-1532-416d-97a4-ebdf3acd4687"},"vehicle_type_id":"4","last_reported":1737831931,"current_range_meters":24400,"station_id":"ce4bhbh2rcd13ifvqepg","pricing_plan_id":"cebpf4jnsgd1na2vs0mg"},{"bike_id":"e728db78-d9e2-4f24-98ce-995a832b69f4","system_id":"levelo_inurba_marseille","lat":43.30423,"lon":5.39756,"is_reserved":false,"is_disabled":false,"rental_uris":{"android":"levelo://app?vid=e728db78-d9e2-4f24-98ce-995a832b69f4","ios":"levelo://app?vid=e728db78-d9e2-4f24-98ce-995a832b69f4"},"vehicle_type_id":"4","last_reported":1737831931,"current_range_meters":36400,"station_id":"ce4bh092rcd13ifvqd20","pricing_plan_id":"cebpf4jnsgd1na2vs0mg"},{"bike_id":"14e3bdf8-edb8-4746-ae33-3fd0bb58107a","system_id":"levelo_inurba_marseille","lat":43.30789,"lon":5.37645,"is_reserved":false,"is_disabled":false,"rental_uris":{"android":"levelo://app?vid=14e3bdf8-edb8-4746-ae33-3fd0bb58107a","ios":"levelo://app?vid=14e3bdf8-edb8-4746-ae33-3fd0bb58107a"},"vehicle_type_id":"4","last_reported":1737831931,"current_range_meters":38000,"station_id":"ce4bgv92rcd13ifvqcq0","pricing_plan_id":"cebpf4jnsgd1na2vs0mg"},{"bike_id":"cebc5c85-d7a8-4bbb-b14e-31ef000f8a4d","system_id":"levelo_inurba_marseille","lat":43.30547,"lon":5.36533,"is_reserved":false,"is_disabled":true,"rental_uris":{"android":"levelo://app?vid=cebc5c85-d7a8-4bbb-b14e-31ef000f8a4d","ios":"levelo://app?vid=cebc5c85-d7a8-4bbb-b14e-31ef000f8a4d"},"vehicle_type_id":"4","last_reported":1737831931,"current_range_meters":0,"station_id":"ce4bgs12rcd13ifvqcag","pricing_plan_id":"cebpf4jnsgd1na2vs0mg"},{"bike_id":"d43e292a-b400-4305-a186-cf142e03ba4c","system_id":"levelo_inurba_marseille","lat":43.29869,"lon":5.39739,"is_reserved":false,"is_disabled":false,"rental_uris":{"android":"levelo://app?vid=d43e292a-b400-4305-a186-cf142e03ba4c","ios":"levelo://app?vid=d43e292a-b400-4305-a186-cf142e03ba4c"},"vehicle_type_id":"4","last_reported":1737831931,"current_range_meters":10800,"station_id":"ce4bh0h2rcd13ifvqd50","pricing_plan_id":"cebpf4jnsgd1na2vs0mg"},{"bike_id":"e4b2780c-5000-4333-be24-66f0902a8e9e","system_id":"levelo_inurba_marseille","lat":43.2952,"lon":5.37514,"is_reserved":false,"is_disabled":false,"rental_uris":{"android":"levelo://app?vid=e4b2780c-5000-4333-be24-66f0902a8e9e","ios":"levelo://app?vid=e4b2780c-5000-4333-be24-66f0902a8e9e"},"vehicle_type_id":"4","last_reported":1737831931,"current_range_meters":29600,"station_id":"ce4bgkp2rcd13ifvqbmg","pricing_plan_id":"cebpf4jnsgd1na2vs0mg"},{"bike_id":"b65403f1-bcb1-46f3-825d-abdc181605e8","system_id":"levelo_inurba_marseille","lat":43.29417,"lon":5.38632,"is_reserved":false,"is_disabled":true,"rental_uris":{"android":"levelo://app?vid=b65403f1-bcb1-46f3-825d-abdc181605e8","ios":"levelo://app?vid=b65403f1-bcb1-46f3-825d-abdc181605e8"},"vehicle_type_id":"4","last_reported":1737831931,"current_range_meters":0,"station_id":"ce4bh2h2rcd13ifvqdh0","pricing_plan_id":"cebpf4jnsgd1na2vs0mg"},{"bike_id":"8c44bd66-d013-49ad-9558-80fe29f74e0f","system_id":"levelo_inurba_marseille","lat":43.2318,"lon":5.39985,"is_reserved":false,"is_disabled":false,"rental_uris":{"android":"levelo://app?vid=8c44bd66-d013-49ad-9558-80fe29f74e0f","ios":"levelo://app?vid=8c44bd66-d013-49ad-9558-80fe29f74e0f"},"vehicle_type_id":"4","last_reported":1737831931,"current_range_meters":26800,"station_id":"ce4bhn12rcd13ifvqgqg","pricing_plan_id":"cebpf4jnsgd1na2vs0mg"},{"bike_id":"2581265e-461e-4093-96e3-176dcfa2ce51","system_id":"levelo_inurba_marseille","lat":43.24638,"lon":5.38909,"is_reserved":false,"is_disabled":false,"rental_uris":{"android":"levelo://app?vid=2581265e-461e-4093-96e3-176dcfa2ce51","ios":"levelo://app?vid=2581265e-461e-4093-96e3-176dcfa2ce51"},"vehicle_type_id":"4","last_reported":1737831931,"current_range_meters":38800,"station_id":"ce4bhg12rcd13ifvqf60","pricing_plan_id":"cebpf4jnsgd1na2vs0mg"},{"bike_id":"76712875-8193-48d3-bf96-8152817d0a40","system_id":"levelo_inurba_marseille","lat":43.2464,"lon":5.38888,"is_reserved":false,"is_disabled":false,"rental_uris":{"android":"levelo://app?vid=76712875-8193-48d3-bf96-8152817d0a40","ios":"levelo://app?vid=76712875-8193-48d3-bf96-8152817d0a40"},"vehicle_type_id":"4","last_reported":1737831931,"current_range_meters":38800,"station_id":"ce4bhg12rcd13ifvqf60","pricing_plan_id":"cebpf4jnsgd1na2vs0mg"},{"bike_id":"8255dbbf-6c45-432a-91ed-9addf8fa8ef1","system_id":"levelo_inurba_marseille","lat":43.27369,"lon":5.36255,"is_reserved":false,"is_disabled":false,"rental_uris":{"android":"levelo://app?vid=8255dbbf-6c45-432a-91ed-9addf8fa8ef1","ios":"levelo://app?vid=8255dbbf-6c45-432a-91ed-9addf8fa8ef1"},"vehicle_type_id":"4","last_reported":1737831931,"current_range_meters":28000,"station_id":"ce4bhbh2rcd13ifvqeo0","pricing_plan_id":"cebpf4jnsgd1na2vs0mg"},{"bike_id":"909a1c2e-107c-48f7-aae9-c2b5d9ac6e94","system_id":"levelo_inurba_marseille","lat":43.30939,"lon":5.36833,"is_reserved":false,"is_disabled":false,"rental_uris":{"android":"levelo://app?vid=909a1c2e-107c-48f7-aae9-c2b5d9ac6e94","ios":"levelo://app?vid=909a1c2e-107c-48f7-aae9-c2b5d9ac6e94"},"vehicle_type_id":"4","last_reported":1737831931,"current_range_meters":6400,"station_id":"ce4bgn92rcd13ifvqbvg","pricing_plan_id":"cebpf4jnsgd1na2vs0mg"},{"bike_id":"429bce8c-f4c3-46ae-9d64-0235fe5f58a6","system_id":"levelo_inurba_marseille","lat":43.2811,"lon":5.37822,"is_reserved":false,"is_disabled":false,"rental_uris":{"android":"levelo://app?vid=429bce8c-f4c3-46ae-9d64-0235fe5f58a6","ios":"levelo://app?vid=429bce8c-f4c3-46ae-9d64-0235fe5f58a6"},"vehicle_type_id":"4","last_reported":1737831931,"current_range_meters":26000,"station_id":"ce4bha12rcd13ifvqee0","pricing_plan_id":"cebpf4jnsgd1na2vs0mg"},{"bike_id":"4fa8c935-3196-45e2-8abd-8b8ddeac81ba","system_id":"levelo_inurba_marseille","lat":43.26939,"lon":5.40252,"is_reserved":false,"is_disabled":false,"rental_uris":{"android":"levelo://app?vid=4fa8c935-3196-45e2-8abd-8b8ddeac81ba","ios":"levelo://app?vid=4fa8c935-3196-45e2-8abd-8b8ddeac81ba"},"vehicle_type_id":"4","last_reported":1737831931,"current_range_meters":38400,"station_id":"cjm6bp8fraef2m0cb0m0","pricing_plan_id":"cebpf4jnsgd1na2vs0mg"},{"bike_id":"3c7f005b-8b4b-4675-a635-eb652bb8c0fd","system_id":"levelo_inurba_marseille","lat":43.258534,"lon":5.399107,"is_reserved":false,"is_disabled":true,"rental_uris":{"android":"levelo://app?vid=3c7f005b-8b4b-4675-a635-eb652bb8c0fd","ios":"levelo://app?vid=3c7f005b-8b4b-4675-a635-eb652bb8c0fd"},"vehicle_type_id":"4","last_reported":1737831931,"current_range_meters":0,"station_id":"ce4bhl92rcd13ifvqghg","pricing_plan_id":"cebpf4jnsgd1na2vs0mg"},{"bike_id":"a80a4397-82ec-4cf2-beca-a447bb1f3769","system_id":"levelo_inurba_marseille","lat":43.2952,"lon":5.39402,"is_reserved":false,"is_disabled":false,"rental_uris":{"android":"levelo://app?vid=a80a4397-82ec-4cf2-beca-a447bb1f3769","ios":"levelo://app?vid=a80a4397-82ec-4cf2-beca-a447bb1f3769"},"vehicle_type_id":"4","last_reported":1737831931,"current_range_meters":27600,"station_id":"ce4bh292rcd13ifvqdf0","pricing_plan_id":"cebpf4jnsgd1na2vs0mg"},{"bike_id":"c4334391-da17-451c-ae81-1489c65db72d","system_id":"levelo_inurba_marseille","lat":43.3046,"lon":5.37908,"is_reserved":false,"is_disabled":false,"rental_uris":{"android":"levelo://app?vid=c4334391-da17-451c-ae81-1489c65db72d","ios":"levelo://app?vid=c4334391-da17-451c-ae81-1489c65db72d"},"vehicle_type_id":"4","last_reported":1737831931,"current_range_meters":12400,"station_id":"ce4bgup2rcd13ifvqcn0","pricing_plan_id":"cebpf4jnsgd1na2vs0mg"},{"bike_id":"29537b6d-60f6-4053-b601-105bf13a2e3a","system_id":"levelo_inurba_marseille","lat":43.28466,"lon":5.38426,"is_reserved":false,"is_disabled":true,"rental_uris":{"android":"levelo://app?vid=29537b6d-60f6-4053-b601-105bf13a2e3a","ios":"levelo://app?vid=29537b6d-60f6-4053-b601-105bf13a2e3a"},"vehicle_type_id":"4","last_reported":1737831931,"current_range_meters":0,"station_id":"ce4bh512rcd13ifvqe3g","pricing_plan_id":"cebpf4jnsgd1na2vs0mg"},{"bike_id":"cb28d4df-de9a-4d38-99ba-bd6d04af6634","system_id":"levelo_inurba_marseille","lat":43.29433,"lon":5.38614,"is_reserved":false,"is_disabled":true,"rental_uris":{"android":"levelo://app?vid=cb28d4df-de9a-4d38-99ba-bd6d04af6634","ios":"levelo://app?vid=cb28d4df-de9a-4d38-99ba-bd6d04af6634"},"vehicle_type_id":"4","last_reported":1737831931,"current_range_meters":400,"station_id":"ce4bh2h2rcd13ifvqdh0","pricing_plan_id":"cebpf4jnsgd1na2vs0mg"},{"bike_id":"ee3b148a-a89e-412f-81f1-80e3d3da82a8","system_id":"levelo_inurba_marseille","lat":43.28268,"lon":5.35055,"is_reserved":false,"is_disabled":false,"rental_uris":{"android":"levelo://app?vid=ee3b148a-a89e-412f-81f1-80e3d3da82a8","ios":"levelo://app?vid=ee3b148a-a89e-412f-81f1-80e3d3da82a8"},"vehicle_type_id":"4","last_reported":1737831931,"current_range_meters":9200,"station_id":"ce4bhbp2rcd13ifvqerg","pricing_plan_id":"cebpf4jnsgd1na2vs0mg"},{"bike_id":"03df0294-1dff-4e19-ab5f-d459cba88205","system_id":"levelo_inurba_marseille","lat":43.29419,"lon":5.38623,"is_reserved":false,"is_disabled":false,"rental_uris":{"android":"levelo://app?vid=03df0294-1dff-4e19-ab5f-d459cba88205","ios":"levelo://app?vid=03df0294-1dff-4e19-ab5f-d459cba88205"},"vehicle_type_id":"4","last_reported":1737831931,"current_range_meters":18800,"station_id":"ce4bh2h2rcd13ifvqdh0","pricing_plan_id":"cebpf4jnsgd1na2vs0mg"},{"bike_id":"c54f5b2e-f783-418a-8119-a38c5ea2c0aa","system_id":"levelo_inurba_marseille","lat":43.29015,"lon":5.35604,"is_reserved":false,"is_disabled":true,"rental_uris":{"android":"levelo://app?vid=c54f5b2e-f783-418a-8119-a38c5ea2c0aa","ios":"levelo://app?vid=c54f5b2e-f783-418a-8119-a38c5ea2c0aa"},"vehicle_type_id":"4","last_reported":1737831931,"current_range_meters":8800,"station_id":"ce4bhb92rcd13ifvqen0","pricing_plan_id":"cebpf4jnsgd1na2vs0mg"},{"bike_id":"9838cc78-2b53-49d3-ae13-82df62c4fd64","system_id":"levelo_inurba_marseille","lat":43.28417,"lon":5.40933,"is_reserved":false,"is_disabled":true,"rental_uris":{"android":"levelo://app?vid=9838cc78-2b53-49d3-ae13-82df62c4fd64","ios":"levelo://app?vid=9838cc78-2b53-49d3-ae13-82df62c4fd64"},"vehicle_type_id":"4","last_reported":1737831931,"current_range_meters":0,"station_id":"","pricing_plan_id":"cebpf4jnsgd1na2vs0mg"},{"bike_id":"cd2c3e6b-4e99-4030-8f38-99ce34b03608","system_id":"levelo_inurba_marseille","lat":43.26566,"lon":5.39011,"is_reserved":false,"is_disabled":false,"rental_uris":{"android":"levelo://app?vid=cd2c3e6b-4e99-4030-8f38-99ce34b03608","ios":"levelo://app?vid=cd2c3e6b-4e99-4030-8f38-99ce34b03608"},"vehicle_type_id":"4","last_reported":1737831931,"current_range_meters":38800,"station_id":"ce4bhe12rcd13ifvqf30","pricing_plan_id":"cebpf4jnsgd1na2vs0mg"},{"bike_id":"c53bdbcf-eaf6-4122-9e64-e5a2deb02092","system_id":"levelo_inurba_marseille","lat":43.27368,"lon":5.36251,"is_reserved":false,"is_disabled":false,"rental_uris":{"android":"levelo://app?vid=c53bdbcf-eaf6-4122-9e64-e5a2deb02092","ios":"levelo://app?vid=c53bdbcf-eaf6-4122-9e64-e5a2deb02092"},"vehicle_type_id":"4","last_reported":1737831931,"current_range_meters":23200,"station_id":"ce4bhbh2rcd13ifvqeo0","pricing_plan_id":"cebpf4jnsgd1na2vs0mg"},{"bike_id":"f6b896f2-48fc-4d80-93a1-f56b278daada","system_id":"levelo_inurba_marseille","lat":43.24676,"lon":5.38145,"is_reserved":false,"is_disabled":false,"rental_uris":{"android":"levelo://app?vid=f6b896f2-48fc-4d80-93a1-f56b278daada","ios":"levelo://app?vid=f6b896f2-48fc-4d80-93a1-f56b278daada"},"vehicle_type_id":"4","last_reported":1737831931,"current_range_meters":6400,"station_id":"ce4bhih2rcd13ifvqfr0","pricing_plan_id":"cebpf4jnsgd1na2vs0mg"},{"bike_id":"b14dc2f6-1c8e-41c3-bb9c-209a240d5277","system_id":"levelo_inurba_marseille","lat":43.32546,"lon":5.41431,"is_reserved":false,"is_disabled":false,"rental_uris":{"android":"levelo://app?vid=b14dc2f6-1c8e-41c3-bb9c-209a240d5277","ios":"levelo://app?vid=b14dc2f6-1c8e-41c3-bb9c-209a240d5277"},"vehicle_type_id":"4","last_reported":1737831931,"current_range_meters":39200,"station_id":"ce4bhq12rcd13ifvqhhg","pricing_plan_id":"cebpf4jnsgd1na2vs0mg"},{"bike_id":"bf096a89-ee72-4f37-85bd-7b3cf9f0cb41","system_id":"levelo_inurba_marseille","lat":43.33731,"lon":5.39188,"is_reserved":false,"is_disabled":false,"rental_uris":{"android":"levelo://app?vid=bf096a89-ee72-4f37-85bd-7b3cf9f0cb41","ios":"levelo://app?vid=bf096a89-ee72-4f37-85bd-7b3cf9f0cb41"},"vehicle_type_id":"4","last_reported":1737831931,"current_range_meters":30400,"station_id":"ce4bhr92rcd13ifvqhsg","pricing_plan_id":"cebpf4jnsgd1na2vs0mg"},{"bike_id":"bb47c47f-aa7e-443f-8a36-a6da3462811e","system_id":"levelo_inurba_marseille","lat":43.26496,"lon":5.39544,"is_reserved":false,"is_disabled":false,"rental_uris":{"android":"levelo://app?vid=bb47c47f-aa7e-443f-8a36-a6da3462811e","ios":"levelo://app?vid=bb47c47f-aa7e-443f-8a36-a6da3462811e"},"vehicle_type_id":"4","last_reported":1737831931,"current_range_meters":39200,"station_id":"ce4bhi12rcd13ifvqfq0","pricing_plan_id":"cebpf4jnsgd1na2vs0mg"},{"bike_id":"c2378bb1-796c-4edf-bf87-198266dfa5e8","system_id":"levelo_inurba_marseille","lat":43.23187,"lon":5.35542,"is_reserved":false,"is_disabled":false,"rental_uris":{"android":"levelo://app?vid=c2378bb1-796c-4edf-bf87-198266dfa5e8","ios":"levelo://app?vid=c2378bb1-796c-4edf-bf87-198266dfa5e8"},"vehicle_type_id":"4","last_reported":1737831931,"current_range_meters":4800,"station_id":"ce4bhu92rcd13ifvqi70","pricing_plan_id":"cebpf4jnsgd1na2vs0mg"},{"bike_id":"7ccd544a-99ce-49ea-8aa8-49e7482d7561","system_id":"levelo_inurba_marseille","lat":43.28878,"lon":5.38008,"is_reserved":false,"is_disabled":false,"rental_uris":{"android":"levelo://app?vid=7ccd544a-99ce-49ea-8aa8-49e7482d7561","ios":"levelo://app?vid=7ccd544a-99ce-49ea-8aa8-49e7482d7561"},"vehicle_type_id":"4","last_reported":1737831931,"current_range_meters":36000,"station_id":"","pricing_plan_id":"cebpf4jnsgd1na2vs0mg"},{"bike_id":"d69cf1fa-59ad-4f44-a9fb-82fbbe1b6b05","system_id":"levelo_inurba_marseille","lat":43.308,"lon":5.4352,"is_reserved":false,"is_disabled":false,"rental_uris":{"android":"levelo://app?vid=d69cf1fa-59ad-4f44-a9fb-82fbbe1b6b05","ios":"levelo://app?vid=d69cf1fa-59ad-4f44-a9fb-82fbbe1b6b05"},"vehicle_type_id":"4","last_reported":1737831931,"current_range_meters":28000,"station_id":"ce4bhph2rcd13ifvqheg","pricing_plan_id":"cebpf4jnsgd1na2vs0mg"},{"bike_id":"d4995222-a487-4298-8633-83eacb0825bb","system_id":"levelo_inurba_marseille","lat":43.2924,"lon":5.38456,"is_reserved":false,"is_disabled":false,"rental_uris":{"android":"levelo://app?vid=d4995222-a487-4298-8633-83eacb0825bb","ios":"levelo://app?vid=d4995222-a487-4298-8633-83eacb0825bb"},"vehicle_type_id":"4","last_reported":1737831931,"current_range_meters":26000,"station_id":"ce4bh692rcd13ifvqea0","pricing_plan_id":"cebpf4jnsgd1na2vs0mg"},{"bike_id":"75a279de-2c52-4204-934f-ba6c1e58fbc7","system_id":"levelo_inurba_marseille","lat":43.33598,"lon":5.41029,"is_reserved":false,"is_disabled":false,"rental_uris":{"android":"levelo://app?vid=75a279de-2c52-4204-934f-ba6c1e58fbc7","ios":"levelo://app?vid=75a279de-2c52-4204-934f-ba6c1e58fbc7"},"vehicle_type_id":"4","last_reported":1737831931,"current_range_meters":23200,"station_id":"ce4bhqh2rcd13ifvqhmg","pricing_plan_id":"cebpf4jnsgd1na2vs0mg"},{"bike_id":"2e0a8b86-b457-48a0-8577-213b01080398","system_id":"levelo_inurba_marseille","lat":43.23198,"lon":5.35538,"is_reserved":false,"is_disabled":false,"rental_uris":{"android":"levelo://app?vid=2e0a8b86-b457-48a0-8577-213b01080398","ios":"levelo://app?vid=2e0a8b86-b457-48a0-8577-213b01080398"},"vehicle_type_id":"4","last_reported":1737831931,"current_range_meters":39200,"station_id":"ce4bhu92rcd13ifvqi70","pricing_plan_id":"cebpf4jnsgd1na2vs0mg"},{"bike_id":"a7cf4467-440c-4bb8-a849-e8f193507576","system_id":"levelo_inurba_marseille","lat":43.2972,"lon":5.37669,"is_reserved":false,"is_disabled":false,"rental_uris":{"android":"levelo://app?vid=a7cf4467-440c-4bb8-a849-e8f193507576","ios":"levelo://app?vid=a7cf4467-440c-4bb8-a849-e8f193507576"},"vehicle_type_id":"4","last_reported":1737831931,"current_range_meters":30800,"station_id":"ce4bgkh2rcd13ifvqbl0","pricing_plan_id":"cebpf4jnsgd1na2vs0mg"},{"bike_id":"aa0df972-55de-4184-8239-6c1734f44424","system_id":"levelo_inurba_marseille","lat":43.28727,"lon":5.36087,"is_reserved":false,"is_disabled":false,"rental_uris":{"android":"levelo://app?vid=aa0df972-55de-4184-8239-6c1734f44424","ios":"levelo://app?vid=aa0df972-55de-4184-8239-6c1734f44424"},"vehicle_type_id":"4","last_reported":1737831931,"current_range_meters":14800,"station_id":"cki0cbj6b192h4jlfktg","pricing_plan_id":"cebpf4jnsgd1na2vs0mg"},{"bike_id":"26886f27-9e44-4f9b-b027-714b5c8fecc2","system_id":"levelo_inurba_marseille","lat":43.29176,"lon":5.39306,"is_reserved":false,"is_disabled":false,"rental_uris":{"android":"levelo://app?vid=26886f27-9e44-4f9b-b027-714b5c8fecc2","ios":"levelo://app?vid=26886f27-9e44-4f9b-b027-714b5c8fecc2"},"vehicle_type_id":"4","last_reported":1737831931,"current_range_meters":13600,"station_id":"ce4bh192rcd13ifvqdd0","pricing_plan_id":"cebpf4jnsgd1na2vs0mg"},{"bike_id":"87a5bed0-aef1-423b-bd85-fe44fdeeb863","system_id":"levelo_inurba_marseille","lat":43.3373,"lon":5.39195,"is_reserved":false,"is_disabled":false,"rental_uris":{"android":"levelo://app?vid=87a5bed0-aef1-423b-bd85-fe44fdeeb863","ios":"levelo://app?vid=87a5bed0-aef1-423b-bd85-fe44fdeeb863"},"vehicle_type_id":"4","last_reported":1737831931,"current_range_meters":37600,"station_id":"ce4bhr92rcd13ifvqhsg","pricing_plan_id":"cebpf4jnsgd1na2vs0mg"},{"bike_id":"4e195046-41c8-4de0-89bb-8e64ff8624eb","system_id":"levelo_inurba_marseille","lat":43.26774,"lon":5.39421,"is_reserved":false,"is_disabled":false,"rental_uris":{"android":"levelo://app?vid=4e195046-41c8-4de0-89bb-8e64ff8624eb","ios":"levelo://app?vid=4e195046-41c8-4de0-89bb-8e64ff8624eb"},"vehicle_type_id":"4","last_reported":1737831931,"current_range_meters":38000,"station_id":"ce4bhh12rcd13ifvqfg0","pricing_plan_id":"cebpf4jnsgd1na2vs0mg"},{"bike_id":"770988d0-47fd-4d12-8823-5c1dca0d5dcb","system_id":"levelo_inurba_marseille","lat":43.27373,"lon":5.36253,"is_reserved":false,"is_disabled":false,"rental_uris":{"android":"levelo://app?vid=770988d0-47fd-4d12-8823-5c1dca0d5dcb","ios":"levelo://app?vid=770988d0-47fd-4d12-8823-5c1dca0d5dcb"},"vehicle_type_id":"4","last_reported":1737831931,"current_range_meters":38800,"station_id":"ce4bhbh2rcd13ifvqeo0","pricing_plan_id":"cebpf4jnsgd1na2vs0mg"},{"bike_id":"672498f6-2f09-4e5b-8f89-7143ebfb39c6","system_id":"levelo_inurba_marseille","lat":43.33022,"lon":5.39035,"is_reserved":false,"is_disabled":true,"rental_uris":{"android":"levelo://app?vid=672498f6-2f09-4e5b-8f89-7143ebfb39c6","ios":"levelo://app?vid=672498f6-2f09-4e5b-8f89-7143ebfb39c6"},"vehicle_type_id":"4","last_reported":1737831931,"current_range_meters":0,"station_id":"ce4bhr92rcd13ifvqhrg","pricing_plan_id":"cebpf4jnsgd1na2vs0mg"},{"bike_id":"b473fbaf-009b-47f5-8136-448f428dc1e7","system_id":"levelo_inurba_marseille","lat":43.2954,"lon":5.38542,"is_reserved":false,"is_disabled":false,"rental_uris":{"android":"levelo://app?vid=b473fbaf-009b-47f5-8136-448f428dc1e7","ios":"levelo://app?vid=b473fbaf-009b-47f5-8136-448f428dc1e7"},"vehicle_type_id":"4","last_reported":1737831931,"current_range_meters":29600,"station_id":"ce4bgih2rcd13ifvqba0","pricing_plan_id":"cebpf4jnsgd1na2vs0mg"},{"bike_id":"6aa36951-57ac-45c5-9b31-5139196cf0c0","system_id":"levelo_inurba_marseille","lat":43.26489,"lon":5.39531,"is_reserved":false,"is_disabled":false,"rental_uris":{"android":"levelo://app?vid=6aa36951-57ac-45c5-9b31-5139196cf0c0","ios":"levelo://app?vid=6aa36951-57ac-45c5-9b31-5139196cf0c0"},"vehicle_type_id":"4","last_reported":1737831931,"current_range_meters":31200,"station_id":"ce4bhi12rcd13ifvqfq0","pricing_plan_id":"cebpf4jnsgd1na2vs0mg"},{"bike_id":"58ac677e-bd2d-4595-a4e5-8d57a56cb96c","system_id":"levelo_inurba_marseille","lat":43.28153,"lon":5.42638,"is_reserved":false,"is_disabled":false,"rental_uris":{"android":"levelo://app?vid=58ac677e-bd2d-4595-a4e5-8d57a56cb96c","ios":"levelo://app?vid=58ac677e-bd2d-4595-a4e5-8d57a56cb96c"},"vehicle_type_id":"4","last_reported":1737831931,"current_range_meters":28800,"station_id":"ce4bhnh2rcd13ifvqgug","pricing_plan_id":"cebpf4jnsgd1na2vs0mg"},{"bike_id":"15f6b6b1-c918-459b-9bfe-06efb96d7e55","system_id":"levelo_inurba_marseille","lat":43.29021,"lon":5.38136,"is_reserved":false,"is_disabled":false,"rental_uris":{"android":"levelo://app?vid=15f6b6b1-c918-459b-9bfe-06efb96d7e55","ios":"levelo://app?vid=15f6b6b1-c918-459b-9bfe-06efb96d7e55"},"vehicle_type_id":"4","last_reported":1737831931,"current_range_meters":12800,"station_id":"ce4bh4p2rcd13ifvqe1g","pricing_plan_id":"cebpf4jnsgd1na2vs0mg"},{"bike_id":"aac8ada5-22a2-42c0-9b43-68987328236e","system_id":"levelo_inurba_marseille","lat":43.31277,"lon":5.40165,"is_reserved":false,"is_disabled":false,"rental_uris":{"android":"levelo://app?vid=aac8ada5-22a2-42c0-9b43-68987328236e","ios":"levelo://app?vid=aac8ada5-22a2-42c0-9b43-68987328236e"},"vehicle_type_id":"4","last_reported":1737831931,"current_range_meters":24000,"station_id":"ce4bh092rcd13ifvqd30","pricing_plan_id":"cebpf4jnsgd1na2vs0mg"},{"bike_id":"024aaa43-98dc-4f3b-bcfc-6594e26f63d6","system_id":"levelo_inurba_marseille","lat":43.33753,"lon":5.39168,"is_reserved":false,"is_disabled":false,"rental_uris":{"android":"levelo://app?vid=024aaa43-98dc-4f3b-bcfc-6594e26f63d6","ios":"levelo://app?vid=024aaa43-98dc-4f3b-bcfc-6594e26f63d6"},"vehicle_type_id":"4","last_reported":1737831931,"current_range_meters":34000,"station_id":"ce4bhr92rcd13ifvqhsg","pricing_plan_id":"cebpf4jnsgd1na2vs0mg"},{"bike_id":"474d415f-8e9e-4808-a33e-f1dacf021fce","system_id":"levelo_inurba_marseille","lat":43.29031,"lon":5.38626,"is_reserved":false,"is_disabled":false,"rental_uris":{"android":"levelo://app?vid=474d415f-8e9e-4808-a33e-f1dacf021fce","ios":"levelo://app?vid=474d415f-8e9e-4808-a33e-f1dacf021fce"},"vehicle_type_id":"4","last_reported":1737831931,"current_range_meters":38800,"station_id":"ce4bh4p2rcd13ifvqe0g","pricing_plan_id":"cebpf4jnsgd1na2vs0mg"},{"bike_id":"10c1f3bc-cf91-4d60-a99d-52721d9b6d14","system_id":"levelo_inurba_marseille","lat":43.33028,"lon":5.39036,"is_reserved":false,"is_disabled":false,"rental_uris":{"android":"levelo://app?vid=10c1f3bc-cf91-4d60-a99d-52721d9b6d14","ios":"levelo://app?vid=10c1f3bc-cf91-4d60-a99d-52721d9b6d14"},"vehicle_type_id":"4","last_reported":1737831931,"current_range_meters":18800,"station_id":"ce4bhr92rcd13ifvqhrg","pricing_plan_id":"cebpf4jnsgd1na2vs0mg"},{"bike_id":"c959572c-6974-4ed4-8889-654758c49222","system_id":"levelo_inurba_marseille","lat":43.26562,"lon":5.38999,"is_reserved":false,"is_disabled":true,"rental_uris":{"android":"levelo://app?vid=c959572c-6974-4ed4-8889-654758c49222","ios":"levelo://app?vid=c959572c-6974-4ed4-8889-654758c49222"},"vehicle_type_id":"4","last_reported":1737831931,"current_range_meters":0,"station_id":"ce4bhe12rcd13ifvqf30","pricing_plan_id":"cebpf4jnsgd1na2vs0mg"},{"bike_id":"c3bd7401-a0a1-4db6-9bf7-5d8ba49195e1","system_id":"levelo_inurba_marseille","lat":43.26504,"lon":5.3954,"is_reserved":false,"is_disabled":false,"rental_uris":{"android":"levelo://app?vid=c3bd7401-a0a1-4db6-9bf7-5d8ba49195e1","ios":"levelo://app?vid=c3bd7401-a0a1-4db6-9bf7-5d8ba49195e1"},"vehicle_type_id":"4","last_reported":1737831931,"current_range_meters":18000,"station_id":"ce4bhi12rcd13ifvqfq0","pricing_plan_id":"cebpf4jnsgd1na2vs0mg"},{"bike_id":"530da642-c57e-4418-84df-65773e1b90fb","system_id":"levelo_inurba_marseille","lat":43.25119,"lon":5.40316,"is_reserved":false,"is_disabled":false,"rental_uris":{"android":"levelo://app?vid=530da642-c57e-4418-84df-65773e1b90fb","ios":"levelo://app?vid=530da642-c57e-4418-84df-65773e1b90fb"},"vehicle_type_id":"4","last_reported":1737831931,"current_range_meters":24400,"station_id":"ce4bhlh2rcd13ifvqgig","pricing_plan_id":"cebpf4jnsgd1na2vs0mg"},{"bike_id":"0ef12574-f0a3-43d6-9ab6-974610ff0676","system_id":"levelo_inurba_marseille","lat":43.27822,"lon":5.40719,"is_reserved":false,"is_disabled":false,"rental_uris":{"android":"levelo://app?vid=0ef12574-f0a3-43d6-9ab6-974610ff0676","ios":"levelo://app?vid=0ef12574-f0a3-43d6-9ab6-974610ff0676"},"vehicle_type_id":"4","last_reported":1737831931,"current_range_meters":22400,"station_id":"ce4bhnh2rcd13ifvqgtg","pricing_plan_id":"cebpf4jnsgd1na2vs0mg"},{"bike_id":"04b27906-e668-4877-ba06-1bd8e577dbf7","system_id":"levelo_inurba_marseille","lat":43.29277,"lon":5.40114,"is_reserved":false,"is_disabled":false,"rental_uris":{"android":"levelo://app?vid=04b27906-e668-4877-ba06-1bd8e577dbf7","ios":"levelo://app?vid=04b27906-e668-4877-ba06-1bd8e577dbf7"},"vehicle_type_id":"4","last_reported":1737831931,"current_range_meters":28800,"station_id":"ce4bh312rcd13ifvqdk0","pricing_plan_id":"cebpf4jnsgd1na2vs0mg"},{"bike_id":"957f0da0-ec2b-455f-9a18-0a3f4a8aead4","system_id":"levelo_inurba_marseille","lat":43.28667,"lon":5.36349,"is_reserved":false,"is_disabled":false,"rental_uris":{"android":"levelo://app?vid=957f0da0-ec2b-455f-9a18-0a3f4a8aead4","ios":"levelo://app?vid=957f0da0-ec2b-455f-9a18-0a3f4a8aead4"},"vehicle_type_id":"4","last_reported":1737831931,"current_range_meters":24000,"station_id":"ce4bhah2rcd13ifvqej0","pricing_plan_id":"cebpf4jnsgd1na2vs0mg"},{"bike_id":"b942ba61-21e3-4cd1-b317-ebec467d46ba","system_id":"levelo_inurba_marseille","lat":43.28159,"lon":5.42659,"is_reserved":false,"is_disabled":true,"rental_uris":{"android":"levelo://app?vid=b942ba61-21e3-4cd1-b317-ebec467d46ba","ios":"levelo://app?vid=b942ba61-21e3-4cd1-b317-ebec467d46ba"},"vehicle_type_id":"4","last_reported":1737831931,"current_range_meters":1200,"station_id":"ce4bhnh2rcd13ifvqgug","pricing_plan_id":"cebpf4jnsgd1na2vs0mg"},{"bike_id":"0c3cbfee-57ce-4e44-a29f-2ecf4400d962","system_id":"levelo_inurba_marseille","lat":43.28706,"lon":5.39995,"is_reserved":false,"is_disabled":false,"rental_uris":{"android":"levelo://app?vid=0c3cbfee-57ce-4e44-a29f-2ecf4400d962","ios":"levelo://app?vid=0c3cbfee-57ce-4e44-a29f-2ecf4400d962"},"vehicle_type_id":"4","last_reported":1737831931,"current_range_meters":6000,"station_id":"ce4bho92rcd13ifvqh3g","pricing_plan_id":"cebpf4jnsgd1na2vs0mg"},{"bike_id":"0efff2f7-79c7-4011-a6d4-0010e4d39997","system_id":"levelo_inurba_marseille","lat":43.31494,"lon":5.37287,"is_reserved":false,"is_disabled":true,"rental_uris":{"android":"levelo://app?vid=0efff2f7-79c7-4011-a6d4-0010e4d39997","ios":"levelo://app?vid=0efff2f7-79c7-4011-a6d4-0010e4d39997"},"vehicle_type_id":"4","last_reported":1737831931,"current_range_meters":0,"station_id":"ce4bgt12rcd13ifvqcd0","pricing_plan_id":"cebpf4jnsgd1na2vs0mg"},{"bike_id":"22ce1abe-ec34-4e85-9d6c-a5d61477313e","system_id":"levelo_inurba_marseille","lat":43.31174,"lon":5.38698,"is_reserved":false,"is_disabled":false,"rental_uris":{"android":"levelo://app?vid=22ce1abe-ec34-4e85-9d6c-a5d61477313e","ios":"levelo://app?vid=22ce1abe-ec34-4e85-9d6c-a5d61477313e"},"vehicle_type_id":"4","last_reported":1737831931,"current_range_meters":8000,"station_id":"ce4bgv12rcd13ifvqcp0","pricing_plan_id":"cebpf4jnsgd1na2vs0mg"},{"bike_id":"2d0d2073-d710-414b-b25b-4383422beed0","system_id":"levelo_inurba_marseille","lat":43.27996,"lon":5.41661,"is_reserved":false,"is_disabled":false,"rental_uris":{"android":"levelo://app?vid=2d0d2073-d710-414b-b25b-4383422beed0","ios":"levelo://app?vid=2d0d2073-d710-414b-b25b-4383422beed0"},"vehicle_type_id":"4","last_reported":1737831931,"current_range_meters":32400,"station_id":"ce4bho12rcd13ifvqh1g","pricing_plan_id":"cebpf4jnsgd1na2vs0mg"},{"bike_id":"e9bc701b-86ce-45d6-bb9e-c295f6ce732c","system_id":"levelo_inurba_marseille","lat":43.30642,"lon":5.40085,"is_reserved":false,"is_disabled":true,"rental_uris":{"android":"levelo://app?vid=e9bc701b-86ce-45d6-bb9e-c295f6ce732c","ios":"levelo://app?vid=e9bc701b-86ce-45d6-bb9e-c295f6ce732c"},"vehicle_type_id":"4","last_reported":1737831931,"current_range_meters":37600,"station_id":"ce4bh112rcd13ifvqda0","pricing_plan_id":"cebpf4jnsgd1na2vs0mg"},{"bike_id":"ebbb6dd1-ea2a-4b9e-a0fd-f2fc38df1042","system_id":"levelo_inurba_marseille","lat":43.24989,"lon":5.38941,"is_reserved":false,"is_disabled":true,"rental_uris":{"android":"levelo://app?vid=ebbb6dd1-ea2a-4b9e-a0fd-f2fc38df1042","ios":"levelo://app?vid=ebbb6dd1-ea2a-4b9e-a0fd-f2fc38df1042"},"vehicle_type_id":"4","last_reported":1737831931,"current_range_meters":0,"station_id":"ce4bhgp2rcd13ifvqfd0","pricing_plan_id":"cebpf4jnsgd1na2vs0mg"},{"bike_id":"3cc4c2cf-0a44-458b-85c3-ba901b682e7d","system_id":"levelo_inurba_marseille","lat":43.29699,"lon":5.36595,"is_reserved":false,"is_disabled":false,"rental_uris":{"android":"levelo://app?vid=3cc4c2cf-0a44-458b-85c3-ba901b682e7d","ios":"levelo://app?vid=3cc4c2cf-0a44-458b-85c3-ba901b682e7d"},"vehicle_type_id":"4","last_reported":1737831931,"current_range_meters":39200,"station_id":"ce4bgn12rcd13ifvqbt0","pricing_plan_id":"cebpf4jnsgd1na2vs0mg"},{"bike_id":"f76a8511-1638-4bbc-81b6-3e86daf501f9","system_id":"levelo_inurba_marseille","lat":43.29231,"lon":5.36464,"is_reserved":false,"is_disabled":true,"rental_uris":{"android":"levelo://app?vid=f76a8511-1638-4bbc-81b6-3e86daf501f9","ios":"levelo://app?vid=f76a8511-1638-4bbc-81b6-3e86daf501f9"},"vehicle_type_id":"4","last_reported":1737831931,"current_range_meters":0,"station_id":"","pricing_plan_id":"cebpf4jnsgd1na2vs0mg"},{"bike_id":"1c01a65a-ed74-468f-b2fe-898f58742594","system_id":"levelo_inurba_marseille","lat":43.29196,"lon":5.39327,"is_reserved":false,"is_disabled":false,"rental_uris":{"android":"levelo://app?vid=1c01a65a-ed74-468f-b2fe-898f58742594","ios":"levelo://app?vid=1c01a65a-ed74-468f-b2fe-898f58742594"},"vehicle_type_id":"4","last_reported":1737831931,"current_range_meters":36800,"station_id":"ce4bh192rcd13ifvqdd0","pricing_plan_id":"cebpf4jnsgd1na2vs0mg"},{"bike_id":"784d372f-471f-4ee2-b3ad-2636ed3dde27","system_id":"levelo_inurba_marseille","lat":43.27812,"lon":5.40708,"is_reserved":false,"is_disabled":false,"rental_uris":{"android":"levelo://app?vid=784d372f-471f-4ee2-b3ad-2636ed3dde27","ios":"levelo://app?vid=784d372f-471f-4ee2-b3ad-2636ed3dde27"},"vehicle_type_id":"4","last_reported":1737831931,"current_range_meters":26000,"station_id":"ce4bhnh2rcd13ifvqgtg","pricing_plan_id":"cebpf4jnsgd1na2vs0mg"},{"bike_id":"70e6bfc6-c8ee-44b7-a511-3e4191b36c59","system_id":"levelo_inurba_marseille","lat":43.26064,"lon":5.39395,"is_reserved":false,"is_disabled":false,"rental_uris":{"android":"levelo://app?vid=70e6bfc6-c8ee-44b7-a511-3e4191b36c59","ios":"levelo://app?vid=70e6bfc6-c8ee-44b7-a511-3e4191b36c59"},"vehicle_type_id":"4","last_reported":1737831931,"current_range_meters":38800,"station_id":"ce4bhh92rcd13ifvqfj0","pricing_plan_id":"cebpf4jnsgd1na2vs0mg"},{"bike_id":"d30b3783-8233-407d-9dc8-76ac03b68013","system_id":"levelo_inurba_marseille","lat":43.298,"lon":5.38115,"is_reserved":false,"is_disabled":false,"rental_uris":{"android":"levelo://app?vid=d30b3783-8233-407d-9dc8-76ac03b68013","ios":"levelo://app?vid=d30b3783-8233-407d-9dc8-76ac03b68013"},"vehicle_type_id":"4","last_reported":1737831931,"current_range_meters":6800,"station_id":"ce4bgip2rcd13ifvqbb0","pricing_plan_id":"cebpf4jnsgd1na2vs0mg"},{"bike_id":"0af52f93-e2ad-4e70-93eb-a6c272fbfbe2","system_id":"levelo_inurba_marseille","lat":43.31202,"lon":5.36837,"is_reserved":false,"is_disabled":false,"rental_uris":{"android":"levelo://app?vid=0af52f93-e2ad-4e70-93eb-a6c272fbfbe2","ios":"levelo://app?vid=0af52f93-e2ad-4e70-93eb-a6c272fbfbe2"},"vehicle_type_id":"4","last_reported":1737831931,"current_range_meters":37600,"station_id":"ce4bgl92rcd13ifvqbq0","pricing_plan_id":"cebpf4jnsgd1na2vs0mg"},{"bike_id":"6f0a24e6-f18f-4ae9-be96-21eb77488e1b","system_id":"levelo_inurba_marseille","lat":43.29309,"lon":5.37184,"is_reserved":false,"is_disabled":true,"rental_uris":{"android":"levelo://app?vid=6f0a24e6-f18f-4ae9-be96-21eb77488e1b","ios":"levelo://app?vid=6f0a24e6-f18f-4ae9-be96-21eb77488e1b"},"vehicle_type_id":"4","last_reported":1737831931,"current_range_meters":0,"station_id":"ce4bgh92rcd13ifvqb40","pricing_plan_id":"cebpf4jnsgd1na2vs0mg"},{"bike_id":"26bf4424-9484-49e9-8ce4-346a151a167e","system_id":"levelo_inurba_marseille","lat":43.29022,"lon":5.3864,"is_reserved":false,"is_disabled":false,"rental_uris":{"android":"levelo://app?vid=26bf4424-9484-49e9-8ce4-346a151a167e","ios":"levelo://app?vid=26bf4424-9484-49e9-8ce4-346a151a167e"},"vehicle_type_id":"4","last_reported":1737831931,"current_range_meters":38800,"station_id":"ce4bh4p2rcd13ifvqe0g","pricing_plan_id":"cebpf4jnsgd1na2vs0mg"},{"bike_id":"18affd99-92c5-496a-ba0e-7ddb808eac8b","system_id":"levelo_inurba_marseille","lat":43.28702,"lon":5.37382,"is_reserved":false,"is_disabled":true,"rental_uris":{"android":"levelo://app?vid=18affd99-92c5-496a-ba0e-7ddb808eac8b","ios":"levelo://app?vid=18affd99-92c5-496a-ba0e-7ddb808eac8b"},"vehicle_type_id":"4","last_reported":1737831931,"current_range_meters":0,"station_id":"ce4bh3p2rcd13ifvqdq0","pricing_plan_id":"cebpf4jnsgd1na2vs0mg"},{"bike_id":"99e5a445-cdc2-4210-a04c-7608d52032be","system_id":"levelo_inurba_marseille","lat":43.31216,"lon":5.36874,"is_reserved":false,"is_disabled":true,"rental_uris":{"android":"levelo://app?vid=99e5a445-cdc2-4210-a04c-7608d52032be","ios":"levelo://app?vid=99e5a445-cdc2-4210-a04c-7608d52032be"},"vehicle_type_id":"4","last_reported":1737831931,"current_range_meters":0,"station_id":"ce4bgl92rcd13ifvqbq0","pricing_plan_id":"cebpf4jnsgd1na2vs0mg"},{"bike_id":"ac71ecbd-9f68-49bf-9ad3-87cf42252ebf","system_id":"levelo_inurba_marseille","lat":43.31376,"lon":5.38499,"is_reserved":false,"is_disabled":false,"rental_uris":{"android":"levelo://app?vid=ac71ecbd-9f68-49bf-9ad3-87cf42252ebf","ios":"levelo://app?vid=ac71ecbd-9f68-49bf-9ad3-87cf42252ebf"},"vehicle_type_id":"4","last_reported":1737831931,"current_range_meters":17200,"station_id":"ce4bgt92rcd13ifvqcf0","pricing_plan_id":"cebpf4jnsgd1na2vs0mg"},{"bike_id":"d54e7416-9133-47cb-bc55-3d590b1f98b8","system_id":"levelo_inurba_marseille","lat":43.28662,"lon":5.36327,"is_reserved":false,"is_disabled":true,"rental_uris":{"android":"levelo://app?vid=d54e7416-9133-47cb-bc55-3d590b1f98b8","ios":"levelo://app?vid=d54e7416-9133-47cb-bc55-3d590b1f98b8"},"vehicle_type_id":"4","last_reported":1737831931,"current_range_meters":0,"station_id":"ce4bhah2rcd13ifvqej0","pricing_plan_id":"cebpf4jnsgd1na2vs0mg"},{"bike_id":"739e657d-bf01-4031-a481-9ab24400ec90","system_id":"levelo_inurba_marseille","lat":43.33023,"lon":5.39045,"is_reserved":false,"is_disabled":false,"rental_uris":{"android":"levelo://app?vid=739e657d-bf01-4031-a481-9ab24400ec90","ios":"levelo://app?vid=739e657d-bf01-4031-a481-9ab24400ec90"},"vehicle_type_id":"4","last_reported":1737831931,"current_range_meters":38800,"station_id":"ce4bhr92rcd13ifvqhrg","pricing_plan_id":"cebpf4jnsgd1na2vs0mg"},{"bike_id":"8f418039-64b4-4f8b-9b93-bbb14214da89","system_id":"levelo_inurba_marseille","lat":43.31711,"lon":5.37744,"is_reserved":false,"is_disabled":false,"rental_uris":{"android":"levelo://app?vid=8f418039-64b4-4f8b-9b93-bbb14214da89","ios":"levelo://app?vid=8f418039-64b4-4f8b-9b93-bbb14214da89"},"vehicle_type_id":"4","last_reported":1737831931,"current_range_meters":15200,"station_id":"ce4bgth2rcd13ifvqch0","pricing_plan_id":"cebpf4jnsgd1na2vs0mg"},{"bike_id":"4ba17b62-67ad-47d4-ae06-50d84fbf1296","system_id":"levelo_inurba_marseille","lat":43.29893,"lon":5.43653,"is_reserved":false,"is_disabled":false,"rental_uris":{"android":"levelo://app?vid=4ba17b62-67ad-47d4-ae06-50d84fbf1296","ios":"levelo://app?vid=4ba17b62-67ad-47d4-ae06-50d84fbf1296"},"vehicle_type_id":"4","last_reported":1737831931,"current_range_meters":11600,"station_id":"ce4bhpp2rcd13ifvqhfg","pricing_plan_id":"cebpf4jnsgd1na2vs0mg"},{"bike_id":"bf136050-61de-46e4-904b-5f0c0177d5fa","system_id":"levelo_inurba_marseille","lat":43.28284,"lon":5.35089,"is_reserved":false,"is_disabled":false,"rental_uris":{"android":"levelo://app?vid=bf136050-61de-46e4-904b-5f0c0177d5fa","ios":"levelo://app?vid=bf136050-61de-46e4-904b-5f0c0177d5fa"},"vehicle_type_id":"4","last_reported":1737831931,"current_range_meters":6000,"station_id":"ce4bhbp2rcd13ifvqerg","pricing_plan_id":"cebpf4jnsgd1na2vs0mg"},{"bike_id":"843012a0-af83-4e8b-b230-27b1b0724673","system_id":"levelo_inurba_marseille","lat":43.31226,"lon":5.36852,"is_reserved":false,"is_disabled":false,"rental_uris":{"android":"levelo://app?vid=843012a0-af83-4e8b-b230-27b1b0724673","ios":"levelo://app?vid=843012a0-af83-4e8b-b230-27b1b0724673"},"vehicle_type_id":"4","last_reported":1737831931,"current_range_meters":10000,"station_id":"ce4bgl92rcd13ifvqbq0","pricing_plan_id":"cebpf4jnsgd1na2vs0mg"},{"bike_id":"1c35c755-8b1c-439e-8798-f1a001a3969d","system_id":"levelo_inurba_marseille","lat":43.281013,"lon":5.378421,"is_reserved":false,"is_disabled":true,"rental_uris":{"android":"levelo://app?vid=1c35c755-8b1c-439e-8798-f1a001a3969d","ios":"levelo://app?vid=1c35c755-8b1c-439e-8798-f1a001a3969d"},"vehicle_type_id":"4","last_reported":1737831931,"current_range_meters":0,"station_id":"ce4bha12rcd13ifvqee0","pricing_plan_id":"cebpf4jnsgd1na2vs0mg"},{"bike_id":"0c7f1c00-9283-4873-857b-2cd4e231c241","system_id":"levelo_inurba_marseille","lat":43.30934,"lon":5.4014,"is_reserved":false,"is_disabled":false,"rental_uris":{"android":"levelo://app?vid=0c7f1c00-9283-4873-857b-2cd4e231c241","ios":"levelo://app?vid=0c7f1c00-9283-4873-857b-2cd4e231c241"},"vehicle_type_id":"4","last_reported":1737831931,"current_range_meters":33200,"station_id":"ce4bgvp2rcd13ifvqct0","pricing_plan_id":"cebpf4jnsgd1na2vs0mg"},{"bike_id":"636012c7-c239-42a3-a1e4-504db4358db4","system_id":"levelo_inurba_marseille","lat":43.29024,"lon":5.38144,"is_reserved":false,"is_disabled":false,"rental_uris":{"android":"levelo://app?vid=636012c7-c239-42a3-a1e4-504db4358db4","ios":"levelo://app?vid=636012c7-c239-42a3-a1e4-504db4358db4"},"vehicle_type_id":"4","last_reported":1737831931,"current_range_meters":30800,"station_id":"ce4bh4p2rcd13ifvqe1g","pricing_plan_id":"cebpf4jnsgd1na2vs0mg"},{"bike_id":"884f4337-debb-4f4e-9ffb-854d7bf11416","system_id":"levelo_inurba_marseille","lat":43.313267,"lon":5.39682,"is_reserved":false,"is_disabled":true,"rental_uris":{"android":"levelo://app?vid=884f4337-debb-4f4e-9ffb-854d7bf11416","ios":"levelo://app?vid=884f4337-debb-4f4e-9ffb-854d7bf11416"},"vehicle_type_id":"4","last_reported":1737831931,"current_range_meters":0,"station_id":"ce4bgvp2rcd13ifvqcu0","pricing_plan_id":"cebpf4jnsgd1na2vs0mg"},{"bike_id":"dfa5087e-df5c-47cc-85b3-d7129235c7ae","system_id":"levelo_inurba_marseille","lat":43.28656,"lon":5.36365,"is_reserved":false,"is_disabled":false,"rental_uris":{"android":"levelo://app?vid=dfa5087e-df5c-47cc-85b3-d7129235c7ae","ios":"levelo://app?vid=dfa5087e-df5c-47cc-85b3-d7129235c7ae"},"vehicle_type_id":"4","last_reported":1737831931,"current_range_meters":38800,"station_id":"ce4bhah2rcd13ifvqej0","pricing_plan_id":"cebpf4jnsgd1na2vs0mg"},{"bike_id":"35d1fa35-3863-43f2-a63d-7ff780d87a9a","system_id":"levelo_inurba_marseille","lat":43.28415,"lon":5.37528,"is_reserved":false,"is_disabled":false,"rental_uris":{"android":"levelo://app?vid=35d1fa35-3863-43f2-a63d-7ff780d87a9a","ios":"levelo://app?vid=35d1fa35-3863-43f2-a63d-7ff780d87a9a"},"vehicle_type_id":"4","last_reported":1737831931,"current_range_meters":25200,"station_id":"ce4bh412rcd13ifvqds0","pricing_plan_id":"cebpf4jnsgd1na2vs0mg"},{"bike_id":"bfc75c4c-ae68-48ca-8b19-c7e6e1b535f1","system_id":"levelo_inurba_marseille","lat":43.28145,"lon":5.42648,"is_reserved":false,"is_disabled":false,"rental_uris":{"android":"levelo://app?vid=bfc75c4c-ae68-48ca-8b19-c7e6e1b535f1","ios":"levelo://app?vid=bfc75c4c-ae68-48ca-8b19-c7e6e1b535f1"},"vehicle_type_id":"4","last_reported":1737831931,"current_range_meters":6800,"station_id":"ce4bhnh2rcd13ifvqgug","pricing_plan_id":"cebpf4jnsgd1na2vs0mg"},{"bike_id":"b96c22ba-a4c6-4ca8-b881-a2a2972e9bc2","system_id":"levelo_inurba_marseille","lat":43.26027,"lon":5.37576,"is_reserved":false,"is_disabled":true,"rental_uris":{"android":"levelo://app?vid=b96c22ba-a4c6-4ca8-b881-a2a2972e9bc2","ios":"levelo://app?vid=b96c22ba-a4c6-4ca8-b881-a2a2972e9bc2"},"vehicle_type_id":"4","last_reported":1737831931,"current_range_meters":36000,"station_id":"ce4bhgh2rcd13ifvqfa0","pricing_plan_id":"cebpf4jnsgd1na2vs0mg"},{"bike_id":"7cf17179-664a-4bfb-9d35-8ef2210229a9","system_id":"levelo_inurba_marseille","lat":43.28668,"lon":5.38657,"is_reserved":false,"is_disabled":true,"rental_uris":{"android":"levelo://app?vid=7cf17179-664a-4bfb-9d35-8ef2210229a9","ios":"levelo://app?vid=7cf17179-664a-4bfb-9d35-8ef2210229a9"},"vehicle_type_id":"4","last_reported":1737831931,"current_range_meters":1200,"station_id":"ce4bh492rcd13ifvqdug","pricing_plan_id":"cebpf4jnsgd1na2vs0mg"},{"bike_id":"1346ff93-9ddb-4093-aa5d-b6cb09dfef3c","system_id":"levelo_inurba_marseille","lat":43.28466,"lon":5.36789,"is_reserved":false,"is_disabled":true,"rental_uris":{"android":"levelo://app?vid=1346ff93-9ddb-4093-aa5d-b6cb09dfef3c","ios":"levelo://app?vid=1346ff93-9ddb-4093-aa5d-b6cb09dfef3c"},"vehicle_type_id":"4","last_reported":1737831931,"current_range_meters":0,"station_id":"","pricing_plan_id":"cebpf4jnsgd1na2vs0mg"},{"bike_id":"f8767ddb-17a6-497c-a3fe-f6b41da640b1","system_id":"levelo_inurba_marseille","lat":43.29587,"lon":5.36778,"is_reserved":false,"is_disabled":false,"rental_uris":{"android":"levelo://app?vid=f8767ddb-17a6-497c-a3fe-f6b41da640b1","ios":"levelo://app?vid=f8767ddb-17a6-497c-a3fe-f6b41da640b1"},"vehicle_type_id":"4","last_reported":1737831931,"current_range_meters":36800,"station_id":"ce4bgph2rcd13ifvqc2g","pricing_plan_id":"cebpf4jnsgd1na2vs0mg"},{"bike_id":"61f48368-0924-4207-9b71-dc3cb5f9319e","system_id":"levelo_inurba_marseille","lat":43.28033,"lon":5.36951,"is_reserved":false,"is_disabled":false,"rental_uris":{"android":"levelo://app?vid=61f48368-0924-4207-9b71-dc3cb5f9319e","ios":"levelo://app?vid=61f48368-0924-4207-9b71-dc3cb5f9319e"},"vehicle_type_id":"4","last_reported":1737831931,"current_range_meters":36800,"station_id":"ce4bha12rcd13ifvqef0","pricing_plan_id":"cebpf4jnsgd1na2vs0mg"},{"bike_id":"cff6a491-5284-4b58-81b6-6f262d74c4a9","system_id":"levelo_inurba_marseille","lat":43.27823,"lon":5.40678,"is_reserved":false,"is_disabled":false,"rental_uris":{"android":"levelo://app?vid=cff6a491-5284-4b58-81b6-6f262d74c4a9","ios":"levelo://app?vid=cff6a491-5284-4b58-81b6-6f262d74c4a9"},"vehicle_type_id":"4","last_reported":1737831931,"current_range_meters":28800,"station_id":"ce4bhnh2rcd13ifvqgtg","pricing_plan_id":"cebpf4jnsgd1na2vs0mg"},{"bike_id":"d0b97dd4-6015-4f42-b5f6-8f3b6c506949","system_id":"levelo_inurba_marseille","lat":43.29549,"lon":5.42301,"is_reserved":false,"is_disabled":false,"rental_uris":{"android":"levelo://app?vid=d0b97dd4-6015-4f42-b5f6-8f3b6c506949","ios":"levelo://app?vid=d0b97dd4-6015-4f42-b5f6-8f3b6c506949"},"vehicle_type_id":"4","last_reported":1737831931,"current_range_meters":36800,"station_id":"ce4bhph2rcd13ifvqhdg","pricing_plan_id":"cebpf4jnsgd1na2vs0mg"},{"bike_id":"c6f247f0-a037-460a-90f0-2b0c901e9375","system_id":"levelo_inurba_marseille","lat":43.32108,"lon":5.36778,"is_reserved":false,"is_disabled":false,"rental_uris":{"android":"levelo://app?vid=c6f247f0-a037-460a-90f0-2b0c901e9375","ios":"levelo://app?vid=c6f247f0-a037-460a-90f0-2b0c901e9375"},"vehicle_type_id":"4","last_reported":1737831931,"current_range_meters":32000,"station_id":"ce4bhrh2rcd13ifvqhug","pricing_plan_id":"cebpf4jnsgd1na2vs0mg"},{"bike_id":"5658bf19-5e40-4edf-ac7a-3999a5207afd","system_id":"levelo_inurba_marseille","lat":43.23204,"lon":5.35534,"is_reserved":false,"is_disabled":false,"rental_uris":{"android":"levelo://app?vid=5658bf19-5e40-4edf-ac7a-3999a5207afd","ios":"levelo://app?vid=5658bf19-5e40-4edf-ac7a-3999a5207afd"},"vehicle_type_id":"4","last_reported":1737831931,"current_range_meters":6800,"station_id":"ce4bhu92rcd13ifvqi70","pricing_plan_id":"cebpf4jnsgd1na2vs0mg"},{"bike_id":"f72c9f6d-e512-4685-9320-a22e1815b3f9","system_id":"levelo_inurba_marseille","lat":43.29283,"lon":5.4012,"is_reserved":false,"is_disabled":false,"rental_uris":{"android":"levelo://app?vid=f72c9f6d-e512-4685-9320-a22e1815b3f9","ios":"levelo://app?vid=f72c9f6d-e512-4685-9320-a22e1815b3f9"},"vehicle_type_id":"4","last_reported":1737831931,"current_range_meters":15200,"station_id":"ce4bh312rcd13ifvqdk0","pricing_plan_id":"cebpf4jnsgd1na2vs0mg"},{"bike_id":"35422ebd-a2cf-42b2-9801-6e7f91d03f6b","system_id":"levelo_inurba_marseille","lat":43.28423,"lon":5.34971,"is_reserved":false,"is_disabled":true,"rental_uris":{"android":"levelo://app?vid=35422ebd-a2cf-42b2-9801-6e7f91d03f6b","ios":"levelo://app?vid=35422ebd-a2cf-42b2-9801-6e7f91d03f6b"},"vehicle_type_id":"4","last_reported":1737831931,"current_range_meters":1600,"station_id":"ce4bhbh2rcd13ifvqepg","pricing_plan_id":"cebpf4jnsgd1na2vs0mg"},{"bike_id":"c1d6ff7f-a406-49ca-aad6-93f1759d96f7","system_id":"levelo_inurba_marseille","lat":43.29865,"lon":5.3974,"is_reserved":false,"is_disabled":false,"rental_uris":{"android":"levelo://app?vid=c1d6ff7f-a406-49ca-aad6-93f1759d96f7","ios":"levelo://app?vid=c1d6ff7f-a406-49ca-aad6-93f1759d96f7"},"vehicle_type_id":"4","last_reported":1737831931,"current_range_meters":32000,"station_id":"ce4bh0h2rcd13ifvqd50","pricing_plan_id":"cebpf4jnsgd1na2vs0mg"},{"bike_id":"1ac11873-f505-4afe-8684-dc584923bcf2","system_id":"levelo_inurba_marseille","lat":43.29161,"lon":5.37152,"is_reserved":false,"is_disabled":false,"rental_uris":{"android":"levelo://app?vid=1ac11873-f505-4afe-8684-dc584923bcf2","ios":"levelo://app?vid=1ac11873-f505-4afe-8684-dc584923bcf2"},"vehicle_type_id":"4","last_reported":1737831931,"current_range_meters":38000,"station_id":"ce4bha92rcd13ifvqeh0","pricing_plan_id":"cebpf4jnsgd1na2vs0mg"},{"bike_id":"2e7656e1-960c-4d12-89d8-31a6b71661b2","system_id":"levelo_inurba_marseille","lat":43.29038,"lon":5.35917,"is_reserved":false,"is_disabled":false,"rental_uris":{"android":"levelo://app?vid=2e7656e1-960c-4d12-89d8-31a6b71661b2","ios":"levelo://app?vid=2e7656e1-960c-4d12-89d8-31a6b71661b2"},"vehicle_type_id":"4","last_reported":1737831931,"current_range_meters":39200,"station_id":"ce4bha92rcd13ifvqeg0","pricing_plan_id":"cebpf4jnsgd1na2vs0mg"},{"bike_id":"fc79826f-43c1-4702-aafc-d1a3c6212402","system_id":"levelo_inurba_marseille","lat":43.25825,"lon":5.39434,"is_reserved":false,"is_disabled":false,"rental_uris":{"android":"levelo://app?vid=fc79826f-43c1-4702-aafc-d1a3c6212402","ios":"levelo://app?vid=fc79826f-43c1-4702-aafc-d1a3c6212402"},"vehicle_type_id":"4","last_reported":1737831931,"current_range_meters":14400,"station_id":"ce4bhip2rcd13ifvqft0","pricing_plan_id":"cebpf4jnsgd1na2vs0mg"},{"bike_id":"479cb780-8c58-44a6-99d3-0353db3a07bb","system_id":"levelo_inurba_marseille","lat":43.30798,"lon":5.43518,"is_reserved":false,"is_disabled":false,"rental_uris":{"android":"levelo://app?vid=479cb780-8c58-44a6-99d3-0353db3a07bb","ios":"levelo://app?vid=479cb780-8c58-44a6-99d3-0353db3a07bb"},"vehicle_type_id":"4","last_reported":1737831931,"current_range_meters":36800,"station_id":"ce4bhph2rcd13ifvqheg","pricing_plan_id":"cebpf4jnsgd1na2vs0mg"},{"bike_id":"6df622cf-2b94-459d-83ad-09577dedd11f","system_id":"levelo_inurba_marseille","lat":43.32036,"lon":5.4148,"is_reserved":false,"is_disabled":false,"rental_uris":{"android":"levelo://app?vid=6df622cf-2b94-459d-83ad-09577dedd11f","ios":"levelo://app?vid=6df622cf-2b94-459d-83ad-09577dedd11f"},"vehicle_type_id":"4","last_reported":1737831931,"current_range_meters":36400,"station_id":"ce4bhq92rcd13ifvqhkg","pricing_plan_id":"cebpf4jnsgd1na2vs0mg"},{"bike_id":"0d6b5fe0-b37b-4b5f-a572-54fef00b675a","system_id":"levelo_inurba_marseille","lat":43.30924,"lon":5.36838,"is_reserved":false,"is_disabled":false,"rental_uris":{"android":"levelo://app?vid=0d6b5fe0-b37b-4b5f-a572-54fef00b675a","ios":"levelo://app?vid=0d6b5fe0-b37b-4b5f-a572-54fef00b675a"},"vehicle_type_id":"4","last_reported":1737831931,"current_range_meters":12000,"station_id":"ce4bgn92rcd13ifvqbvg","pricing_plan_id":"cebpf4jnsgd1na2vs0mg"},{"bike_id":"dc610946-44ab-480d-aaf9-4f08fa9d1b47","system_id":"levelo_inurba_marseille","lat":43.31513,"lon":5.38762,"is_reserved":false,"is_disabled":true,"rental_uris":{"android":"levelo://app?vid=dc610946-44ab-480d-aaf9-4f08fa9d1b47","ios":"levelo://app?vid=dc610946-44ab-480d-aaf9-4f08fa9d1b47"},"vehicle_type_id":"4","last_reported":1737831931,"current_range_meters":0,"station_id":"","pricing_plan_id":"cebpf4jnsgd1na2vs0mg"},{"bike_id":"ffff597a-37d7-49e2-9522-da0a9bac336b","system_id":"levelo_inurba_marseille","lat":43.29422,"lon":5.38612,"is_reserved":false,"is_disabled":false,"rental_uris":{"android":"levelo://app?vid=ffff597a-37d7-49e2-9522-da0a9bac336b","ios":"levelo://app?vid=ffff597a-37d7-49e2-9522-da0a9bac336b"},"vehicle_type_id":"4","last_reported":1737831931,"current_range_meters":26800,"station_id":"ce4bh2h2rcd13ifvqdh0","pricing_plan_id":"cebpf4jnsgd1na2vs0mg"},{"bike_id":"74d8d8a5-18e9-4001-bf8a-4cd63311c620","system_id":"levelo_inurba_marseille","lat":43.30322,"lon":5.40438,"is_reserved":false,"is_disabled":true,"rental_uris":{"android":"levelo://app?vid=74d8d8a5-18e9-4001-bf8a-4cd63311c620","ios":"levelo://app?vid=74d8d8a5-18e9-4001-bf8a-4cd63311c620"},"vehicle_type_id":"4","last_reported":1737831931,"current_range_meters":1200,"station_id":"ce4bh012rcd13ifvqd10","pricing_plan_id":"cebpf4jnsgd1na2vs0mg"},{"bike_id":"14549f3c-9b93-4dce-b64e-10da7e275aeb","system_id":"levelo_inurba_marseille","lat":43.315,"lon":5.37223,"is_reserved":false,"is_disabled":false,"rental_uris":{"android":"levelo://app?vid=14549f3c-9b93-4dce-b64e-10da7e275aeb","ios":"levelo://app?vid=14549f3c-9b93-4dce-b64e-10da7e275aeb"},"vehicle_type_id":"4","last_reported":1737831931,"current_range_meters":34000,"station_id":"","pricing_plan_id":"cebpf4jnsgd1na2vs0mg"},{"bike_id":"e84ea28d-d6c1-4a23-bfa5-fecf89bc2a9f","system_id":"levelo_inurba_marseille","lat":43.32463,"lon":5.36558,"is_reserved":false,"is_disabled":false,"rental_uris":{"android":"levelo://app?vid=e84ea28d-d6c1-4a23-bfa5-fecf89bc2a9f","ios":"levelo://app?vid=e84ea28d-d6c1-4a23-bfa5-fecf89bc2a9f"},"vehicle_type_id":"4","last_reported":1737831931,"current_range_meters":34800,"station_id":"ce4bhs12rcd13ifvqhvg","pricing_plan_id":"cebpf4jnsgd1na2vs0mg"},{"bike_id":"02612fa3-1004-453b-a06f-318eee6929b8","system_id":"levelo_inurba_marseille","lat":43.29025,"lon":5.38651,"is_reserved":false,"is_disabled":false,"rental_uris":{"android":"levelo://app?vid=02612fa3-1004-453b-a06f-318eee6929b8","ios":"levelo://app?vid=02612fa3-1004-453b-a06f-318eee6929b8"},"vehicle_type_id":"4","last_reported":1737831931,"current_range_meters":4800,"station_id":"ce4bh4p2rcd13ifvqe0g","pricing_plan_id":"cebpf4jnsgd1na2vs0mg"},{"bike_id":"57823e25-308b-4f11-a2b6-a7f52902c1c5","system_id":"levelo_inurba_marseille","lat":43.308,"lon":5.38141,"is_reserved":false,"is_disabled":true,"rental_uris":{"android":"levelo://app?vid=57823e25-308b-4f11-a2b6-a7f52902c1c5","ios":"levelo://app?vid=57823e25-308b-4f11-a2b6-a7f52902c1c5"},"vehicle_type_id":"4","last_reported":1737831931,"current_range_meters":28400,"station_id":"ce4bgt12rcd13ifvqce0","pricing_plan_id":"cebpf4jnsgd1na2vs0mg"},{"bike_id":"ff68af14-5554-4f8d-a3de-4549d987f602","system_id":"levelo_inurba_marseille","lat":43.29903,"lon":5.43669,"is_reserved":false,"is_disabled":false,"rental_uris":{"android":"levelo://app?vid=ff68af14-5554-4f8d-a3de-4549d987f602","ios":"levelo://app?vid=ff68af14-5554-4f8d-a3de-4549d987f602"},"vehicle_type_id":"4","last_reported":1737831931,"current_range_meters":11200,"station_id":"ce4bhpp2rcd13ifvqhfg","pricing_plan_id":"cebpf4jnsgd1na2vs0mg"},{"bike_id":"fc793649-c00c-47d5-b622-02de5283e126","system_id":"levelo_inurba_marseille","lat":43.29171,"lon":5.37155,"is_reserved":false,"is_disabled":false,"rental_uris":{"android":"levelo://app?vid=fc793649-c00c-47d5-b622-02de5283e126","ios":"levelo://app?vid=fc793649-c00c-47d5-b622-02de5283e126"},"vehicle_type_id":"4","last_reported":1737831931,"current_range_meters":36400,"station_id":"ce4bha92rcd13ifvqeh0","pricing_plan_id":"cebpf4jnsgd1na2vs0mg"},{"bike_id":"787fabc3-eb91-469a-81b6-44a6fdcc4a9b","system_id":"levelo_inurba_marseille","lat":43.23061,"lon":5.35499,"is_reserved":false,"is_disabled":false,"rental_uris":{"android":"levelo://app?vid=787fabc3-eb91-469a-81b6-44a6fdcc4a9b","ios":"levelo://app?vid=787fabc3-eb91-469a-81b6-44a6fdcc4a9b"},"vehicle_type_id":"4","last_reported":1737831931,"current_range_meters":38800,"station_id":"cpo3342slgdg3j2ifvpg","pricing_plan_id":"cebpf4jnsgd1na2vs0mg"},{"bike_id":"e78c1169-47c8-4567-972b-d01ea79ea5f0","system_id":"levelo_inurba_marseille","lat":43.324703,"lon":5.365518,"is_reserved":false,"is_disabled":false,"rental_uris":{"android":"levelo://app?vid=e78c1169-47c8-4567-972b-d01ea79ea5f0","ios":"levelo://app?vid=e78c1169-47c8-4567-972b-d01ea79ea5f0"},"vehicle_type_id":"4","last_reported":1737831931,"current_range_meters":17200,"station_id":"ce4bhs12rcd13ifvqhvg","pricing_plan_id":"cebpf4jnsgd1na2vs0mg"},{"bike_id":"59950833-3024-4145-8cb0-d2efe4d5247b","system_id":"levelo_inurba_marseille","lat":43.29444,"lon":5.39737,"is_reserved":false,"is_disabled":false,"rental_uris":{"android":"levelo://app?vid=59950833-3024-4145-8cb0-d2efe4d5247b","ios":"levelo://app?vid=59950833-3024-4145-8cb0-d2efe4d5247b"},"vehicle_type_id":"4","last_reported":1737831931,"current_range_meters":38000,"station_id":"ce4bh3h2rcd13ifvqdo0","pricing_plan_id":"cebpf4jnsgd1na2vs0mg"},{"bike_id":"1e328aaf-06e5-4767-a395-a9b21576497f","system_id":"levelo_inurba_marseille","lat":43.29795,"lon":5.37108,"is_reserved":false,"is_disabled":true,"rental_uris":{"android":"levelo://app?vid=1e328aaf-06e5-4767-a395-a9b21576497f","ios":"levelo://app?vid=1e328aaf-06e5-4767-a395-a9b21576497f"},"vehicle_type_id":"4","last_reported":1737831931,"current_range_meters":22400,"station_id":"ce4bgop2rcd13ifvqc1g","pricing_plan_id":"cebpf4jnsgd1na2vs0mg"},{"bike_id":"690e5855-16c3-435f-a043-a3b33b8b61ce","system_id":"levelo_inurba_marseille","lat":43.29526,"lon":5.38545,"is_reserved":false,"is_disabled":false,"rental_uris":{"android":"levelo://app?vid=690e5855-16c3-435f-a043-a3b33b8b61ce","ios":"levelo://app?vid=690e5855-16c3-435f-a043-a3b33b8b61ce"},"vehicle_type_id":"4","last_reported":1737831931,"current_range_meters":38800,"station_id":"ce4bgih2rcd13ifvqba0","pricing_plan_id":"cebpf4jnsgd1na2vs0mg"},{"bike_id":"7facede7-71a3-4129-a1f3-f8692190d63d","system_id":"levelo_inurba_marseille","lat":43.324844,"lon":5.365713,"is_reserved":false,"is_disabled":false,"rental_uris":{"android":"levelo://app?vid=7facede7-71a3-4129-a1f3-f8692190d63d","ios":"levelo://app?vid=7facede7-71a3-4129-a1f3-f8692190d63d"},"vehicle_type_id":"4","last_reported":1737831931,"current_range_meters":23200,"station_id":"ce4bhs12rcd13ifvqhvg","pricing_plan_id":"cebpf4jnsgd1na2vs0mg"},{"bike_id":"4e4e3261-1e8e-454c-bc50-3865a1c9b7fd","system_id":"levelo_inurba_marseille","lat":43.2848,"lon":5.38546,"is_reserved":false,"is_disabled":true,"rental_uris":{"android":"levelo://app?vid=4e4e3261-1e8e-454c-bc50-3865a1c9b7fd","ios":"levelo://app?vid=4e4e3261-1e8e-454c-bc50-3865a1c9b7fd"},"vehicle_type_id":"4","last_reported":1737831931,"current_range_meters":800,"station_id":"ce4bh8p2rcd13ifvqeb0","pricing_plan_id":"cebpf4jnsgd1na2vs0mg"},{"bike_id":"ea624404-124a-4128-9041-089ad79942c5","system_id":"levelo_inurba_marseille","lat":43.29556,"lon":5.42275,"is_reserved":false,"is_disabled":false,"rental_uris":{"android":"levelo://app?vid=ea624404-124a-4128-9041-089ad79942c5","ios":"levelo://app?vid=ea624404-124a-4128-9041-089ad79942c5"},"vehicle_type_id":"4","last_reported":1737831931,"current_range_meters":30800,"station_id":"ce4bhph2rcd13ifvqhdg","pricing_plan_id":"cebpf4jnsgd1na2vs0mg"},{"bike_id":"ad243039-16c6-42b3-baed-a49a90967726","system_id":"levelo_inurba_marseille","lat":43.29262,"lon":5.36864,"is_reserved":false,"is_disabled":false,"rental_uris":{"android":"levelo://app?vid=ad243039-16c6-42b3-baed-a49a90967726","ios":"levelo://app?vid=ad243039-16c6-42b3-baed-a49a90967726"},"vehicle_type_id":"4","last_reported":1737831931,"current_range_meters":27200,"station_id":"ce4bhbp2rcd13ifvqesg","pricing_plan_id":"cebpf4jnsgd1na2vs0mg"},{"bike_id":"662826ac-353a-4d90-b4d6-b01a8f2632b2","system_id":"levelo_inurba_marseille","lat":43.22957,"lon":5.35361,"is_reserved":false,"is_disabled":false,"rental_uris":{"android":"levelo://app?vid=662826ac-353a-4d90-b4d6-b01a8f2632b2","ios":"levelo://app?vid=662826ac-353a-4d90-b4d6-b01a8f2632b2"},"vehicle_type_id":"4","last_reported":1737831931,"current_range_meters":38000,"station_id":"cpo3532slgdg3j2ikp40","pricing_plan_id":"cebpf4jnsgd1na2vs0mg"},{"bike_id":"efc96501-0c95-4a86-a669-063687dc8f1b","system_id":"levelo_inurba_marseille","lat":43.28001,"lon":5.40006,"is_reserved":false,"is_disabled":false,"rental_uris":{"android":"levelo://app?vid=efc96501-0c95-4a86-a669-063687dc8f1b","ios":"levelo://app?vid=efc96501-0c95-4a86-a669-063687dc8f1b"},"vehicle_type_id":"4","last_reported":1737831931,"current_range_meters":2800,"station_id":"ce4bho92rcd13ifvqh4g","pricing_plan_id":"cebpf4jnsgd1na2vs0mg"},{"bike_id":"2c7747cc-817d-4112-99cb-33e890727f6b","system_id":"levelo_inurba_marseille","lat":43.30095,"lon":5.39071,"is_reserved":false,"is_disabled":false,"rental_uris":{"android":"levelo://app?vid=2c7747cc-817d-4112-99cb-33e890727f6b","ios":"levelo://app?vid=2c7747cc-817d-4112-99cb-33e890727f6b"},"vehicle_type_id":"4","last_reported":1737831931,"current_range_meters":24400,"station_id":"ce4bh192rcd13ifvqdb0","pricing_plan_id":"cebpf4jnsgd1na2vs0mg"},{"bike_id":"163b0be8-f1db-4665-a41b-823b767c63a6","system_id":"levelo_inurba_marseille","lat":43.26944,"lon":5.40256,"is_reserved":false,"is_disabled":false,"rental_uris":{"android":"levelo://app?vid=163b0be8-f1db-4665-a41b-823b767c63a6","ios":"levelo://app?vid=163b0be8-f1db-4665-a41b-823b767c63a6"},"vehicle_type_id":"4","last_reported":1737831931,"current_range_meters":36000,"station_id":"cjm6bp8fraef2m0cb0m0","pricing_plan_id":"cebpf4jnsgd1na2vs0mg"},{"bike_id":"8ae1544f-9f85-431f-ab5b-e7e8f9977a05","system_id":"levelo_inurba_marseille","lat":43.29527,"lon":5.38548,"is_reserved":false,"is_disabled":false,"rental_uris":{"android":"levelo://app?vid=8ae1544f-9f85-431f-ab5b-e7e8f9977a05","ios":"levelo://app?vid=8ae1544f-9f85-431f-ab5b-e7e8f9977a05"},"vehicle_type_id":"4","last_reported":1737831931,"current_range_meters":32000,"station_id":"ce4bgih2rcd13ifvqba0","pricing_plan_id":"cebpf4jnsgd1na2vs0mg"},{"bike_id":"1bb3ba38-a8b5-4dbe-8721-873e41a6258e","system_id":"levelo_inurba_marseille","lat":43.30087,"lon":5.39083,"is_reserved":false,"is_disabled":false,"rental_uris":{"android":"levelo://app?vid=1bb3ba38-a8b5-4dbe-8721-873e41a6258e","ios":"levelo://app?vid=1bb3ba38-a8b5-4dbe-8721-873e41a6258e"},"vehicle_type_id":"4","last_reported":1737831931,"current_range_meters":33600,"station_id":"ce4bh192rcd13ifvqdb0","pricing_plan_id":"cebpf4jnsgd1na2vs0mg"},{"bike_id":"cd639bd5-9261-4d8d-9671-4baa5027d171","system_id":"levelo_inurba_marseille","lat":43.31123,"lon":5.37758,"is_reserved":false,"is_disabled":false,"rental_uris":{"android":"levelo://app?vid=cd639bd5-9261-4d8d-9671-4baa5027d171","ios":"levelo://app?vid=cd639bd5-9261-4d8d-9671-4baa5027d171"},"vehicle_type_id":"4","last_reported":1737831931,"current_range_meters":36000,"station_id":"ce4bgt92rcd13ifvqcg0","pricing_plan_id":"cebpf4jnsgd1na2vs0mg"},{"bike_id":"edc58028-665f-4481-8b47-b2ab26d2b33a","system_id":"levelo_inurba_marseille","lat":43.29805,"lon":5.40408,"is_reserved":false,"is_disabled":false,"rental_uris":{"android":"levelo://app?vid=edc58028-665f-4481-8b47-b2ab26d2b33a","ios":"levelo://app?vid=edc58028-665f-4481-8b47-b2ab26d2b33a"},"vehicle_type_id":"4","last_reported":1737831931,"current_range_meters":38800,"station_id":"ce4bh112rcd13ifvqd90","pricing_plan_id":"cebpf4jnsgd1na2vs0mg"},{"bike_id":"57d7ae41-cd46-47e3-b836-797a6e953f68","system_id":"levelo_inurba_marseille","lat":43.29043,"lon":5.37567,"is_reserved":false,"is_disabled":false,"rental_uris":{"android":"levelo://app?vid=57d7ae41-cd46-47e3-b836-797a6e953f68","ios":"levelo://app?vid=57d7ae41-cd46-47e3-b836-797a6e953f68"},"vehicle_type_id":"4","last_reported":1737831931,"current_range_meters":36400,"station_id":"ce4bh692rcd13ifvqe90","pricing_plan_id":"cebpf4jnsgd1na2vs0mg"},{"bike_id":"4fd81f51-66cd-49c2-8173-f14e49403f39","system_id":"levelo_inurba_marseille","lat":43.281058,"lon":5.378379,"is_reserved":false,"is_disabled":false,"rental_uris":{"android":"levelo://app?vid=4fd81f51-66cd-49c2-8173-f14e49403f39","ios":"levelo://app?vid=4fd81f51-66cd-49c2-8173-f14e49403f39"},"vehicle_type_id":"4","last_reported":1737831931,"current_range_meters":35600,"station_id":"ce4bha12rcd13ifvqee0","pricing_plan_id":"cebpf4jnsgd1na2vs0mg"},{"bike_id":"03deefff-87ac-4b19-8932-093032a2512e","system_id":"levelo_inurba_marseille","lat":43.32288,"lon":5.38253,"is_reserved":false,"is_disabled":false,"rental_uris":{"android":"levelo://app?vid=03deefff-87ac-4b19-8932-093032a2512e","ios":"levelo://app?vid=03deefff-87ac-4b19-8932-093032a2512e"},"vehicle_type_id":"4","last_reported":1737831931,"current_range_meters":33600,"station_id":"ce4bhr12rcd13ifvqhqg","pricing_plan_id":"cebpf4jnsgd1na2vs0mg"},{"bike_id":"4b237394-74a6-4059-8607-138a1f4530ca","system_id":"levelo_inurba_marseille","lat":43.23942,"lon":5.36664,"is_reserved":false,"is_disabled":false,"rental_uris":{"android":"levelo://app?vid=4b237394-74a6-4059-8607-138a1f4530ca","ios":"levelo://app?vid=4b237394-74a6-4059-8607-138a1f4530ca"},"vehicle_type_id":"4","last_reported":1737831931,"current_range_meters":38800,"station_id":"ce4bhi12rcd13ifvqfp0","pricing_plan_id":"cebpf4jnsgd1na2vs0mg"},{"bike_id":"06db7b38-d368-4168-a3af-68cb37ab41ea","system_id":"levelo_inurba_marseille","lat":43.31695,"lon":5.40461,"is_reserved":false,"is_disabled":false,"rental_uris":{"android":"levelo://app?vid=06db7b38-d368-4168-a3af-68cb37ab41ea","ios":"levelo://app?vid=06db7b38-d368-4168-a3af-68cb37ab41ea"},"vehicle_type_id":"4","last_reported":1737831931,"current_range_meters":16800,"station_id":"ce4bh012rcd13ifvqd00","pricing_plan_id":"cebpf4jnsgd1na2vs0mg"},{"bike_id":"0fc6b265-2619-43e0-affd-77dce8b2d2a3","system_id":"levelo_inurba_marseille","lat":43.33606,"lon":5.41016,"is_reserved":false,"is_disabled":false,"rental_uris":{"android":"levelo://app?vid=0fc6b265-2619-43e0-affd-77dce8b2d2a3","ios":"levelo://app?vid=0fc6b265-2619-43e0-affd-77dce8b2d2a3"},"vehicle_type_id":"4","last_reported":1737831931,"current_range_meters":38400,"station_id":"ce4bhqh2rcd13ifvqhmg","pricing_plan_id":"cebpf4jnsgd1na2vs0mg"},{"bike_id":"5acd6d4c-ef87-4c68-b129-dd7f9a07b39b","system_id":"levelo_inurba_marseille","lat":43.32655,"lon":5.40988,"is_reserved":false,"is_disabled":false,"rental_uris":{"android":"levelo://app?vid=5acd6d4c-ef87-4c68-b129-dd7f9a07b39b","ios":"levelo://app?vid=5acd6d4c-ef87-4c68-b129-dd7f9a07b39b"},"vehicle_type_id":"4","last_reported":1737831931,"current_range_meters":38000,"station_id":"ce4bhpp2rcd13ifvqhgg","pricing_plan_id":"cebpf4jnsgd1na2vs0mg"},{"bike_id":"d35ef97c-9889-4275-b235-6c1a4e62d9f7","system_id":"levelo_inurba_marseille","lat":43.29217,"lon":5.3606,"is_reserved":false,"is_disabled":false,"rental_uris":{"android":"levelo://app?vid=d35ef97c-9889-4275-b235-6c1a4e62d9f7","ios":"levelo://app?vid=d35ef97c-9889-4275-b235-6c1a4e62d9f7"},"vehicle_type_id":"4","last_reported":1737831931,"current_range_meters":19600,"station_id":"ce4bhbh2rcd13ifvqeqg","pricing_plan_id":"cebpf4jnsgd1na2vs0mg"},{"bike_id":"7b7093cc-ce06-4697-9543-dcfe992f40f3","system_id":"levelo_inurba_marseille","lat":43.29607,"lon":5.38088,"is_reserved":false,"is_disabled":false,"rental_uris":{"android":"levelo://app?vid=7b7093cc-ce06-4697-9543-dcfe992f40f3","ios":"levelo://app?vid=7b7093cc-ce06-4697-9543-dcfe992f40f3"},"vehicle_type_id":"4","last_reported":1737831931,"current_range_meters":32800,"station_id":"ce4bgl12rcd13ifvqbo0","pricing_plan_id":"cebpf4jnsgd1na2vs0mg"},{"bike_id":"cc73a374-a323-4f1f-b7d3-981bc8ac3477","system_id":"levelo_inurba_marseille","lat":43.29261,"lon":5.38431,"is_reserved":false,"is_disabled":false,"rental_uris":{"android":"levelo://app?vid=cc73a374-a323-4f1f-b7d3-981bc8ac3477","ios":"levelo://app?vid=cc73a374-a323-4f1f-b7d3-981bc8ac3477"},"vehicle_type_id":"4","last_reported":1737831931,"current_range_meters":15200,"station_id":"ce4bh692rcd13ifvqea0","pricing_plan_id":"cebpf4jnsgd1na2vs0mg"},{"bike_id":"c80575cd-b6a2-48f8-ad7d-f0891cb7dddf","system_id":"levelo_inurba_marseille","lat":43.30321,"lon":5.4043,"is_reserved":false,"is_disabled":false,"rental_uris":{"android":"levelo://app?vid=c80575cd-b6a2-48f8-ad7d-f0891cb7dddf","ios":"levelo://app?vid=c80575cd-b6a2-48f8-ad7d-f0891cb7dddf"},"vehicle_type_id":"4","last_reported":1737831931,"current_range_meters":27600,"station_id":"ce4bh012rcd13ifvqd10","pricing_plan_id":"cebpf4jnsgd1na2vs0mg"},{"bike_id":"6a9e34c1-9f2c-44ed-af34-4f040d9ae6f3","system_id":"levelo_inurba_marseille","lat":43.29556,"lon":5.42264,"is_reserved":false,"is_disabled":false,"rental_uris":{"android":"levelo://app?vid=6a9e34c1-9f2c-44ed-af34-4f040d9ae6f3","ios":"levelo://app?vid=6a9e34c1-9f2c-44ed-af34-4f040d9ae6f3"},"vehicle_type_id":"4","last_reported":1737831931,"current_range_meters":21600,"station_id":"ce4bhph2rcd13ifvqhdg","pricing_plan_id":"cebpf4jnsgd1na2vs0mg"},{"bike_id":"7f94b57f-e0f8-45f0-8394-4dedd17df1a0","system_id":"levelo_inurba_marseille","lat":43.2845,"lon":5.39153,"is_reserved":false,"is_disabled":false,"rental_uris":{"android":"levelo://app?vid=7f94b57f-e0f8-45f0-8394-4dedd17df1a0","ios":"levelo://app?vid=7f94b57f-e0f8-45f0-8394-4dedd17df1a0"},"vehicle_type_id":"4","last_reported":1737831931,"current_range_meters":38800,"station_id":"ce4bhoh2rcd13ifvqh5g","pricing_plan_id":"cebpf4jnsgd1na2vs0mg"},{"bike_id":"d310d1e2-9c45-4033-ae67-5460960ae570","system_id":"levelo_inurba_marseille","lat":43.31109,"lon":5.40026,"is_reserved":false,"is_disabled":false,"rental_uris":{"android":"levelo://app?vid=d310d1e2-9c45-4033-ae67-5460960ae570","ios":"levelo://app?vid=d310d1e2-9c45-4033-ae67-5460960ae570"},"vehicle_type_id":"4","last_reported":1737831931,"current_range_meters":22800,"station_id":"","pricing_plan_id":"cebpf4jnsgd1na2vs0mg"},{"bike_id":"26d3de6a-b7db-4cd7-885c-9cb71bb28aa5","system_id":"levelo_inurba_marseille","lat":43.27365,"lon":5.36251,"is_reserved":false,"is_disabled":false,"rental_uris":{"android":"levelo://app?vid=26d3de6a-b7db-4cd7-885c-9cb71bb28aa5","ios":"levelo://app?vid=26d3de6a-b7db-4cd7-885c-9cb71bb28aa5"},"vehicle_type_id":"4","last_reported":1737831931,"current_range_meters":38400,"station_id":"ce4bhbh2rcd13ifvqeo0","pricing_plan_id":"cebpf4jnsgd1na2vs0mg"},{"bike_id":"6ee80daf-1ae7-4ea1-b967-37fa15154b1f","system_id":"levelo_inurba_marseille","lat":43.24182,"lon":5.39721,"is_reserved":false,"is_disabled":false,"rental_uris":{"android":"levelo://app?vid=6ee80daf-1ae7-4ea1-b967-37fa15154b1f","ios":"levelo://app?vid=6ee80daf-1ae7-4ea1-b967-37fa15154b1f"},"vehicle_type_id":"4","last_reported":1737831931,"current_range_meters":33600,"station_id":"ce4bhn12rcd13ifvqgpg","pricing_plan_id":"cebpf4jnsgd1na2vs0mg"},{"bike_id":"7c78a755-c7f5-4f07-a96b-621451d47948","system_id":"levelo_inurba_marseille","lat":43.29901,"lon":5.43668,"is_reserved":false,"is_disabled":false,"rental_uris":{"android":"levelo://app?vid=7c78a755-c7f5-4f07-a96b-621451d47948","ios":"levelo://app?vid=7c78a755-c7f5-4f07-a96b-621451d47948"},"vehicle_type_id":"4","last_reported":1737831931,"current_range_meters":35600,"station_id":"ce4bhpp2rcd13ifvqhfg","pricing_plan_id":"cebpf4jnsgd1na2vs0mg"},{"bike_id":"9fe340fa-045d-4db7-bf8d-67f59ab57dfc","system_id":"levelo_inurba_marseille","lat":43.29263,"lon":5.36847,"is_reserved":false,"is_disabled":false,"rental_uris":{"android":"levelo://app?vid=9fe340fa-045d-4db7-bf8d-67f59ab57dfc","ios":"levelo://app?vid=9fe340fa-045d-4db7-bf8d-67f59ab57dfc"},"vehicle_type_id":"4","last_reported":1737831931,"current_range_meters":10800,"station_id":"ce4bhbp2rcd13ifvqesg","pricing_plan_id":"cebpf4jnsgd1na2vs0mg"},{"bike_id":"c69d1b2a-5537-4cf0-8c1d-991576479533","system_id":"levelo_inurba_marseille","lat":43.29174,"lon":5.37141,"is_reserved":false,"is_disabled":false,"rental_uris":{"android":"levelo://app?vid=c69d1b2a-5537-4cf0-8c1d-991576479533","ios":"levelo://app?vid=c69d1b2a-5537-4cf0-8c1d-991576479533"},"vehicle_type_id":"4","last_reported":1737831931,"current_range_meters":38800,"station_id":"ce4bha92rcd13ifvqeh0","pricing_plan_id":"cebpf4jnsgd1na2vs0mg"},{"bike_id":"8586a018-4fea-4b1c-99a3-10529402c58c","system_id":"levelo_inurba_marseille","lat":43.29194,"lon":5.39313,"is_reserved":false,"is_disabled":false,"rental_uris":{"android":"levelo://app?vid=8586a018-4fea-4b1c-99a3-10529402c58c","ios":"levelo://app?vid=8586a018-4fea-4b1c-99a3-10529402c58c"},"vehicle_type_id":"4","last_reported":1737831931,"current_range_meters":3200,"station_id":"ce4bh192rcd13ifvqdd0","pricing_plan_id":"cebpf4jnsgd1na2vs0mg"},{"bike_id":"b88515f4-c0ae-406a-9ff9-71ba549bef06","system_id":"levelo_inurba_marseille","lat":43.23955,"lon":5.36629,"is_reserved":false,"is_disabled":false,"rental_uris":{"android":"levelo://app?vid=b88515f4-c0ae-406a-9ff9-71ba549bef06","ios":"levelo://app?vid=b88515f4-c0ae-406a-9ff9-71ba549bef06"},"vehicle_type_id":"4","last_reported":1737831931,"current_range_meters":38800,"station_id":"ce4bhi12rcd13ifvqfp0","pricing_plan_id":"cebpf4jnsgd1na2vs0mg"},{"bike_id":"a48a4fa8-387b-4ecc-bc7a-c3f07822bf47","system_id":"levelo_inurba_marseille","lat":43.27052,"lon":5.39235,"is_reserved":false,"is_disabled":true,"rental_uris":{"android":"levelo://app?vid=a48a4fa8-387b-4ecc-bc7a-c3f07822bf47","ios":"levelo://app?vid=a48a4fa8-387b-4ecc-bc7a-c3f07822bf47"},"vehicle_type_id":"4","last_reported":1737831931,"current_range_meters":0,"station_id":"","pricing_plan_id":"cebpf4jnsgd1na2vs0mg"},{"bike_id":"bae5ab30-f857-4e11-bdc0-2fe4228e33a6","system_id":"levelo_inurba_marseille","lat":43.30935,"lon":5.40144,"is_reserved":false,"is_disabled":false,"rental_uris":{"android":"levelo://app?vid=bae5ab30-f857-4e11-bdc0-2fe4228e33a6","ios":"levelo://app?vid=bae5ab30-f857-4e11-bdc0-2fe4228e33a6"},"vehicle_type_id":"4","last_reported":1737831931,"current_range_meters":6400,"station_id":"ce4bgvp2rcd13ifvqct0","pricing_plan_id":"cebpf4jnsgd1na2vs0mg"},{"bike_id":"5b059397-def6-43a8-8ac7-c9f7afbc2013","system_id":"levelo_inurba_marseille","lat":43.29047,"lon":5.3863,"is_reserved":false,"is_disabled":true,"rental_uris":{"android":"levelo://app?vid=5b059397-def6-43a8-8ac7-c9f7afbc2013","ios":"levelo://app?vid=5b059397-def6-43a8-8ac7-c9f7afbc2013"},"vehicle_type_id":"4","last_reported":1737831931,"current_range_meters":0,"station_id":"","pricing_plan_id":"cebpf4jnsgd1na2vs0mg"},{"bike_id":"44dbd9c0-b3f8-44a0-94df-41e3a299819c","system_id":"levelo_inurba_marseille","lat":43.26488,"lon":5.39545,"is_reserved":false,"is_disabled":false,"rental_uris":{"android":"levelo://app?vid=44dbd9c0-b3f8-44a0-94df-41e3a299819c","ios":"levelo://app?vid=44dbd9c0-b3f8-44a0-94df-41e3a299819c"},"vehicle_type_id":"4","last_reported":1737831931,"current_range_meters":20400,"station_id":"ce4bhi12rcd13ifvqfq0","pricing_plan_id":"cebpf4jnsgd1na2vs0mg"},{"bike_id":"8fd0082a-8558-471d-bd5c-8f2bb03de120","system_id":"levelo_inurba_marseille","lat":43.28733,"lon":5.39998,"is_reserved":false,"is_disabled":true,"rental_uris":{"android":"levelo://app?vid=8fd0082a-8558-471d-bd5c-8f2bb03de120","ios":"levelo://app?vid=8fd0082a-8558-471d-bd5c-8f2bb03de120"},"vehicle_type_id":"4","last_reported":1737831931,"current_range_meters":29600,"station_id":"ce4bho92rcd13ifvqh3g","pricing_plan_id":"cebpf4jnsgd1na2vs0mg"},{"bike_id":"d366cae2-82ff-4e64-9fca-0a14d02521b6","system_id":"levelo_inurba_marseille","lat":43.310756,"lon":5.383517,"is_reserved":false,"is_disabled":false,"rental_uris":{"android":"levelo://app?vid=d366cae2-82ff-4e64-9fca-0a14d02521b6","ios":"levelo://app?vid=d366cae2-82ff-4e64-9fca-0a14d02521b6"},"vehicle_type_id":"4","last_reported":1737831931,"current_range_meters":38800,"station_id":"ce4bgv92rcd13ifvqcr0","pricing_plan_id":"cebpf4jnsgd1na2vs0mg"},{"bike_id":"42c3f9ed-08d8-4d16-929b-d13e6ab435da","system_id":"levelo_inurba_marseille","lat":43.295795,"lon":5.375134,"is_reserved":false,"is_disabled":false,"rental_uris":{"android":"levelo://app?vid=42c3f9ed-08d8-4d16-929b-d13e6ab435da","ios":"levelo://app?vid=42c3f9ed-08d8-4d16-929b-d13e6ab435da"},"vehicle_type_id":"4","last_reported":1737831931,"current_range_meters":38800,"station_id":"ce4bgh92rcd13ifvqb50","pricing_plan_id":"cebpf4jnsgd1na2vs0mg"},{"bike_id":"001597bf-a1f7-42cb-baa4-52ce3f1a761a","system_id":"levelo_inurba_marseille","lat":43.281504,"lon":5.426442,"is_reserved":false,"is_disabled":false,"rental_uris":{"android":"levelo://app?vid=001597bf-a1f7-42cb-baa4-52ce3f1a761a","ios":"levelo://app?vid=001597bf-a1f7-42cb-baa4-52ce3f1a761a"},"vehicle_type_id":"4","last_reported":1737831931,"current_range_meters":8800,"station_id":"ce4bhnh2rcd13ifvqgug","pricing_plan_id":"cebpf4jnsgd1na2vs0mg"},{"bike_id":"3f5aa0e9-8997-4c22-96fa-40fbf39f9975","system_id":"levelo_inurba_marseille","lat":43.2978,"lon":5.39328,"is_reserved":false,"is_disabled":false,"rental_uris":{"android":"levelo://app?vid=3f5aa0e9-8997-4c22-96fa-40fbf39f9975","ios":"levelo://app?vid=3f5aa0e9-8997-4c22-96fa-40fbf39f9975"},"vehicle_type_id":"4","last_reported":1737831931,"current_range_meters":37600,"station_id":"chh1huq6cuj3fo74tm60","pricing_plan_id":"cebpf4jnsgd1na2vs0mg"},{"bike_id":"b996c87f-d903-42b5-80db-0cef1eda72fd","system_id":"levelo_inurba_marseille","lat":43.23072,"lon":5.35477,"is_reserved":false,"is_disabled":false,"rental_uris":{"android":"levelo://app?vid=b996c87f-d903-42b5-80db-0cef1eda72fd","ios":"levelo://app?vid=b996c87f-d903-42b5-80db-0cef1eda72fd"},"vehicle_type_id":"4","last_reported":1737831931,"current_range_meters":8400,"station_id":"cpo3342slgdg3j2ifvpg","pricing_plan_id":"cebpf4jnsgd1na2vs0mg"},{"bike_id":"323d4be9-bd67-43e2-8721-837d10bc21f2","system_id":"levelo_inurba_marseille","lat":43.294197,"lon":5.386187,"is_reserved":false,"is_disabled":false,"rental_uris":{"android":"levelo://app?vid=323d4be9-bd67-43e2-8721-837d10bc21f2","ios":"levelo://app?vid=323d4be9-bd67-43e2-8721-837d10bc21f2"},"vehicle_type_id":"4","last_reported":1737831931,"current_range_meters":37600,"station_id":"ce4bh2h2rcd13ifvqdh0","pricing_plan_id":"cebpf4jnsgd1na2vs0mg"},{"bike_id":"0250e458-01c1-4543-834e-ea81fb7b861c","system_id":"levelo_inurba_marseille","lat":43.30643,"lon":5.40091,"is_reserved":false,"is_disabled":false,"rental_uris":{"android":"levelo://app?vid=0250e458-01c1-4543-834e-ea81fb7b861c","ios":"levelo://app?vid=0250e458-01c1-4543-834e-ea81fb7b861c"},"vehicle_type_id":"4","last_reported":1737831931,"current_range_meters":14000,"station_id":"ce4bh112rcd13ifvqda0","pricing_plan_id":"cebpf4jnsgd1na2vs0mg"},{"bike_id":"9353a8c9-0fb0-4e94-853c-ea392ad3a4d6","system_id":"levelo_inurba_marseille","lat":43.33023,"lon":5.39046,"is_reserved":false,"is_disabled":false,"rental_uris":{"android":"levelo://app?vid=9353a8c9-0fb0-4e94-853c-ea392ad3a4d6","ios":"levelo://app?vid=9353a8c9-0fb0-4e94-853c-ea392ad3a4d6"},"vehicle_type_id":"4","last_reported":1737831931,"current_range_meters":27600,"station_id":"ce4bhr92rcd13ifvqhrg","pricing_plan_id":"cebpf4jnsgd1na2vs0mg"},{"bike_id":"882e4d97-ad36-4f32-b0ee-359384324109","system_id":"levelo_inurba_marseille","lat":43.29942,"lon":5.38144,"is_reserved":false,"is_disabled":false,"rental_uris":{"android":"levelo://app?vid=882e4d97-ad36-4f32-b0ee-359384324109","ios":"levelo://app?vid=882e4d97-ad36-4f32-b0ee-359384324109"},"vehicle_type_id":"4","last_reported":1737831931,"current_range_meters":30800,"station_id":"ce4bgj12rcd13ifvqbc0","pricing_plan_id":"cebpf4jnsgd1na2vs0mg"},{"bike_id":"16486f4d-a9ee-4966-bd88-92f8a85cde69","system_id":"levelo_inurba_marseille","lat":43.30913,"lon":5.36857,"is_reserved":false,"is_disabled":false,"rental_uris":{"android":"levelo://app?vid=16486f4d-a9ee-4966-bd88-92f8a85cde69","ios":"levelo://app?vid=16486f4d-a9ee-4966-bd88-92f8a85cde69"},"vehicle_type_id":"4","last_reported":1737831931,"current_range_meters":6400,"station_id":"ce4bgn92rcd13ifvqbvg","pricing_plan_id":"cebpf4jnsgd1na2vs0mg"},{"bike_id":"12833426-19ba-4a7b-9a6c-66b7d53735d6","system_id":"levelo_inurba_marseille","lat":43.30179,"lon":5.36612,"is_reserved":false,"is_disabled":false,"rental_uris":{"android":"levelo://app?vid=12833426-19ba-4a7b-9a6c-66b7d53735d6","ios":"levelo://app?vid=12833426-19ba-4a7b-9a6c-66b7d53735d6"},"vehicle_type_id":"4","last_reported":1737831931,"current_range_meters":38000,"station_id":"ce4bgrh2rcd13ifvqc8g","pricing_plan_id":"cebpf4jnsgd1na2vs0mg"},{"bike_id":"35b4539c-ff66-40b1-b56f-a956749f9d8a","system_id":"levelo_inurba_marseille","lat":43.32657,"lon":5.40977,"is_reserved":false,"is_disabled":false,"rental_uris":{"android":"levelo://app?vid=35b4539c-ff66-40b1-b56f-a956749f9d8a","ios":"levelo://app?vid=35b4539c-ff66-40b1-b56f-a956749f9d8a"},"vehicle_type_id":"4","last_reported":1737831931,"current_range_meters":38800,"station_id":"ce4bhpp2rcd13ifvqhgg","pricing_plan_id":"cebpf4jnsgd1na2vs0mg"},{"bike_id":"d5d932cd-00ef-4374-a2a5-9e2b3b96d9a7","system_id":"levelo_inurba_marseille","lat":43.29878,"lon":5.39751,"is_reserved":false,"is_disabled":false,"rental_uris":{"android":"levelo://app?vid=d5d932cd-00ef-4374-a2a5-9e2b3b96d9a7","ios":"levelo://app?vid=d5d932cd-00ef-4374-a2a5-9e2b3b96d9a7"},"vehicle_type_id":"4","last_reported":1737831931,"current_range_meters":39200,"station_id":"ce4bh0h2rcd13ifvqd50","pricing_plan_id":"cebpf4jnsgd1na2vs0mg"},{"bike_id":"8d4ddec4-c5b1-4949-8b22-91bcf0236bb4","system_id":"levelo_inurba_marseille","lat":43.24646,"lon":5.38877,"is_reserved":false,"is_disabled":false,"rental_uris":{"android":"levelo://app?vid=8d4ddec4-c5b1-4949-8b22-91bcf0236bb4","ios":"levelo://app?vid=8d4ddec4-c5b1-4949-8b22-91bcf0236bb4"},"vehicle_type_id":"4","last_reported":1737831931,"current_range_meters":38800,"station_id":"ce4bhg12rcd13ifvqf60","pricing_plan_id":"cebpf4jnsgd1na2vs0mg"},{"bike_id":"3d98c6ce-e80d-46e8-b577-648cd8c28632","system_id":"levelo_inurba_marseille","lat":43.30154,"lon":5.37401,"is_reserved":false,"is_disabled":false,"rental_uris":{"android":"levelo://app?vid=3d98c6ce-e80d-46e8-b577-648cd8c28632","ios":"levelo://app?vid=3d98c6ce-e80d-46e8-b577-648cd8c28632"},"vehicle_type_id":"4","last_reported":1737831931,"current_range_meters":15200,"station_id":"ce4bgs92rcd13ifvqcc0","pricing_plan_id":"cebpf4jnsgd1na2vs0mg"},{"bike_id":"86167669-87ec-46d8-942a-1b0cb002dce8","system_id":"levelo_inurba_marseille","lat":43.293913,"lon":5.401067,"is_reserved":false,"is_disabled":true,"rental_uris":{"android":"levelo://app?vid=86167669-87ec-46d8-942a-1b0cb002dce8","ios":"levelo://app?vid=86167669-87ec-46d8-942a-1b0cb002dce8"},"vehicle_type_id":"4","last_reported":1737831931,"current_range_meters":28400,"station_id":"","pricing_plan_id":"cebpf4jnsgd1na2vs0mg"},{"bike_id":"10a16e86-bffa-4f98-b4ba-0b88a73eeab1","system_id":"levelo_inurba_marseille","lat":43.2942,"lon":5.38634,"is_reserved":false,"is_disabled":false,"rental_uris":{"android":"levelo://app?vid=10a16e86-bffa-4f98-b4ba-0b88a73eeab1","ios":"levelo://app?vid=10a16e86-bffa-4f98-b4ba-0b88a73eeab1"},"vehicle_type_id":"4","last_reported":1737831931,"current_range_meters":8000,"station_id":"ce4bh2h2rcd13ifvqdh0","pricing_plan_id":"cebpf4jnsgd1na2vs0mg"},{"bike_id":"16cba4e1-cb10-44ef-b1a1-eca95385335f","system_id":"levelo_inurba_marseille","lat":43.28427,"lon":5.3496,"is_reserved":false,"is_disabled":true,"rental_uris":{"android":"levelo://app?vid=16cba4e1-cb10-44ef-b1a1-eca95385335f","ios":"levelo://app?vid=16cba4e1-cb10-44ef-b1a1-eca95385335f"},"vehicle_type_id":"4","last_reported":1737831931,"current_range_meters":16000,"station_id":"ce4bhbh2rcd13ifvqepg","pricing_plan_id":"cebpf4jnsgd1na2vs0mg"},{"bike_id":"6dc3ef72-280b-4a93-ba9c-7e9256d9cd7c","system_id":"levelo_inurba_marseille","lat":43.29034,"lon":5.38124,"is_reserved":false,"is_disabled":false,"rental_uris":{"android":"levelo://app?vid=6dc3ef72-280b-4a93-ba9c-7e9256d9cd7c","ios":"levelo://app?vid=6dc3ef72-280b-4a93-ba9c-7e9256d9cd7c"},"vehicle_type_id":"4","last_reported":1737831931,"current_range_meters":32400,"station_id":"ce4bh4p2rcd13ifvqe1g","pricing_plan_id":"cebpf4jnsgd1na2vs0mg"},{"bike_id":"951ffa10-53c0-4457-8aac-64d54073ae0b","system_id":"levelo_inurba_marseille","lat":43.33023,"lon":5.39037,"is_reserved":false,"is_disabled":false,"rental_uris":{"android":"levelo://app?vid=951ffa10-53c0-4457-8aac-64d54073ae0b","ios":"levelo://app?vid=951ffa10-53c0-4457-8aac-64d54073ae0b"},"vehicle_type_id":"4","last_reported":1737831931,"current_range_meters":2800,"station_id":"ce4bhr92rcd13ifvqhrg","pricing_plan_id":"cebpf4jnsgd1na2vs0mg"},{"bike_id":"b77efc8b-41fe-4709-b58e-05026c2b2ca6","system_id":"levelo_inurba_marseille","lat":43.30803,"lon":5.43506,"is_reserved":false,"is_disabled":false,"rental_uris":{"android":"levelo://app?vid=b77efc8b-41fe-4709-b58e-05026c2b2ca6","ios":"levelo://app?vid=b77efc8b-41fe-4709-b58e-05026c2b2ca6"},"vehicle_type_id":"4","last_reported":1737831931,"current_range_meters":20000,"station_id":"ce4bhph2rcd13ifvqheg","pricing_plan_id":"cebpf4jnsgd1na2vs0mg"},{"bike_id":"15fc30dd-6302-4ffa-a137-c42acb0467cc","system_id":"levelo_inurba_marseille","lat":43.28107,"lon":5.3783,"is_reserved":false,"is_disabled":false,"rental_uris":{"android":"levelo://app?vid=15fc30dd-6302-4ffa-a137-c42acb0467cc","ios":"levelo://app?vid=15fc30dd-6302-4ffa-a137-c42acb0467cc"},"vehicle_type_id":"4","last_reported":1737831931,"current_range_meters":4000,"station_id":"ce4bha12rcd13ifvqee0","pricing_plan_id":"cebpf4jnsgd1na2vs0mg"},{"bike_id":"8fc5f132-29ed-47c1-bff0-bf17728d82ae","system_id":"levelo_inurba_marseille","lat":43.29376,"lon":5.37839,"is_reserved":false,"is_disabled":true,"rental_uris":{"android":"levelo://app?vid=8fc5f132-29ed-47c1-bff0-bf17728d82ae","ios":"levelo://app?vid=8fc5f132-29ed-47c1-bff0-bf17728d82ae"},"vehicle_type_id":"4","last_reported":1737831931,"current_range_meters":37600,"station_id":"ce4bgjh2rcd13ifvqbf0","pricing_plan_id":"cebpf4jnsgd1na2vs0mg"},{"bike_id":"5f8ee669-dbac-4c91-b474-6f128339f560","system_id":"levelo_inurba_marseille","lat":43.29413,"lon":5.38622,"is_reserved":false,"is_disabled":false,"rental_uris":{"android":"levelo://app?vid=5f8ee669-dbac-4c91-b474-6f128339f560","ios":"levelo://app?vid=5f8ee669-dbac-4c91-b474-6f128339f560"},"vehicle_type_id":"4","last_reported":1737831931,"current_range_meters":28000,"station_id":"ce4bh2h2rcd13ifvqdh0","pricing_plan_id":"cebpf4jnsgd1na2vs0mg"},{"bike_id":"e9f8b0cf-c871-4326-b898-8a66766f0a8f","system_id":"levelo_inurba_marseille","lat":43.33037,"lon":5.39031,"is_reserved":false,"is_disabled":false,"rental_uris":{"android":"levelo://app?vid=e9f8b0cf-c871-4326-b898-8a66766f0a8f","ios":"levelo://app?vid=e9f8b0cf-c871-4326-b898-8a66766f0a8f"},"vehicle_type_id":"4","last_reported":1737831931,"current_range_meters":38000,"station_id":"ce4bhr92rcd13ifvqhrg","pricing_plan_id":"cebpf4jnsgd1na2vs0mg"},{"bike_id":"0409c418-1a87-452b-be7c-84da8e4aa35a","system_id":"levelo_inurba_marseille","lat":43.31995,"lon":5.38169,"is_reserved":false,"is_disabled":true,"rental_uris":{"android":"levelo://app?vid=0409c418-1a87-452b-be7c-84da8e4aa35a","ios":"levelo://app?vid=0409c418-1a87-452b-be7c-84da8e4aa35a"},"vehicle_type_id":"4","last_reported":1737831931,"current_range_meters":800,"station_id":"ce4bhr12rcd13ifvqhpg","pricing_plan_id":"cebpf4jnsgd1na2vs0mg"},{"bike_id":"bbdcffc9-7621-47f8-959f-9cf6c98d9b54","system_id":"levelo_inurba_marseille","lat":43.31268,"lon":5.40165,"is_reserved":false,"is_disabled":false,"rental_uris":{"android":"levelo://app?vid=bbdcffc9-7621-47f8-959f-9cf6c98d9b54","ios":"levelo://app?vid=bbdcffc9-7621-47f8-959f-9cf6c98d9b54"},"vehicle_type_id":"4","last_reported":1737831931,"current_range_meters":6000,"station_id":"ce4bh092rcd13ifvqd30","pricing_plan_id":"cebpf4jnsgd1na2vs0mg"},{"bike_id":"01f7b417-1b94-4359-9d5a-d38b0ab70ef1","system_id":"levelo_inurba_marseille","lat":43.30912,"lon":5.36847,"is_reserved":false,"is_disabled":false,"rental_uris":{"android":"levelo://app?vid=01f7b417-1b94-4359-9d5a-d38b0ab70ef1","ios":"levelo://app?vid=01f7b417-1b94-4359-9d5a-d38b0ab70ef1"},"vehicle_type_id":"4","last_reported":1737831931,"current_range_meters":38000,"station_id":"ce4bgn92rcd13ifvqbvg","pricing_plan_id":"cebpf4jnsgd1na2vs0mg"},{"bike_id":"4c2e7e43-6acf-4947-a8bb-aa5c91849636","system_id":"levelo_inurba_marseille","lat":43.31239,"lon":5.36905,"is_reserved":false,"is_disabled":true,"rental_uris":{"android":"levelo://app?vid=4c2e7e43-6acf-4947-a8bb-aa5c91849636","ios":"levelo://app?vid=4c2e7e43-6acf-4947-a8bb-aa5c91849636"},"vehicle_type_id":"4","last_reported":1737831931,"current_range_meters":2000,"station_id":"ce4bgl92rcd13ifvqbq0","pricing_plan_id":"cebpf4jnsgd1na2vs0mg"},