{"last_updated":1758733747,"ttl":60,"version":"2.2","data":{"bikes":[{"bike_id":"0dcbe474-2b6e-49ee-82a2-46df2e3bc248","system_id":"levelo_inurba_marseille","lat":43.27995,"lon":5.41664,"is_reserved":false,"is_disabled":false,"rental_uris":{"android":"levelo://app?vid=0dcbe474-2b6e-49ee-82a2-46df2e3bc248","ios":"levelo://app?vid=0dcbe474-2b6e-49ee-82a2-46df2e3bc248"},"vehicle_type_id":"4","last_reported":1758733747,"current_range_meters":2800,"station_id":"ce4bho12rcd13ifvqh1g","pricing_plan_id":"cebpf4jnsgd1na2vs0mg"},{"bike_id":"824bfa6c-2013-4133-8df8-46917a261c8c","system_id":"levelo_inurba_marseille","lat":43.28852,"lon":5.35843,"is_reserved":false,"is_disabled":false,"rental_uris":{"android":"levelo://app?vid=824bfa6c-2013-4133-8df8-46917a261c8c","ios":"levelo://app?vid=824bfa6c-2013-4133-8df8-46917a261c8c"},"vehicle_type_id":"4","last_reported":1758733747,"current_range_meters":2800,"station_id":"ce4bhb12rcd13ifvqem0","pricing_plan_id":"cebpf4jnsgd1na2vs0mg"},{"bike_id":"1c4d3977-83d5-4eee-af24-48f2a7ddf876","system_id":"levelo_inurba_marseille","lat":43.28616,"lon":5.35108,"is_reserved":false,"is_disabled":false,"rental_uris":{"android":"levelo://app?vid=1c4d3977-83d5-4eee-af24-48f2a7ddf876","ios":"levelo://app?vid=1c4d3977-83d5-4eee-af24-48f2a7ddf876"},"vehicle_type_id":"4","last_reported":1758733747,"current_range_meters":2800,"station_id":"ce4bhch2rcd13ifvqeug","pricing_plan_id":"cebpf4jnsgd1na2vs0mg"},{"bike_id":"54161fd7-44a9-44ee-ae19-f83f6b0acd57","system_id":"levelo_inurba_marseille","lat":43.31892,"lon":5.40716,"is_reserved":false,"is_disabled":false,"rental_uris":{"android":"levelo://app?vid=54161fd7-44a9-44ee-ae19-f83f6b0acd57","ios":"levelo://app?vid=54161fd7-44a9-44ee-ae19-f83f6b0acd57"},"vehicle_type_id":"4","last_reported":1758733747,"current_range_meters":2800,"station_id":"ce4bhq12rcd13ifvqhig","pricing_plan_id":"cebpf4jnsgd1na2vs0mg"},{"bike_id":"213937f4-0cd9-48b8-9d64-0b73c37bc721","system_id":"levelo_inurba_marseille","lat":43.29558,"lon":5.38174,"is_reserved":false,"is_disabled":false,"rental_uris":{"android":"levelo://app?vid=213937f4-0cd9-48b8-9d64-0b73c37bc721","ios":"levelo://app?vid=213937f4-0cd9-48b8-9d64-0b73c37bc721"},"vehicle_type_id":"4","last_reported":1758733747,"current_range_meters":2800,"station_id":"","pricing_plan_id":"cebpf4jnsgd1na2vs0mg"},{"bike_id":"37022651-72e7-47d0-8472-538c6e1f89c3","system_id":"levelo_inurba_marseille","lat":43.28615,"lon":5.35105,"is_reserved":false,"is_disabled":false,"rental_uris":{"android":"levelo://app?vid=37022651-72e7-47d0-8472-538c6e1f89c3","ios":"levelo://app?vid=37022651-72e7-47d0-8472-538c6e1f89c3"},"vehicle_type_id":"4","last_reported":1758733747,"current_range_meters":2800,"station_id":"ce4bhch2rcd13ifvqeug","pricing_plan_id":"cebpf4jnsgd1na2vs0mg"},{"bike_id":"2b144308-c024-4886-bf16-efa7a1bc1fae","system_id":"levelo_inurba_marseille","lat":43.30953,"lon":5.39048,"is_reserved":false,"is_disabled":false,"rental_uris":{"android":"levelo://app?vid=2b144308-c024-4886-bf16-efa7a1bc1fae","ios":"levelo://app?vid=2b144308-c024-4886-bf16-efa7a1bc1fae"},"vehicle_type_id":"4","last_reported":1758733747,"current_range_meters":2800,"station_id":"ce4bgup2rcd13ifvqco0","pricing_plan_id":"cebpf4jnsgd1na2vs0mg"},{"bike_id":"18a5ba0c-7226-4253-9acb-e4d3717f41aa","system_id":"levelo_inurba_marseille","lat":43.28079,"lon":5.39666,"is_reserved":false,"is_disabled":false,"rental_uris":{"android":"levelo://app?vid=18a5ba0c-7226-4253-9acb-e4d3717f41aa","ios":"levelo://app?vid=18a5ba0c-7226-4253-9acb-e4d3717f41aa"},"vehicle_type_id":"4","last_reported":1758733747,"current_range_meters":2800,"station_id":"ce4bho12rcd13ifvqh2g","pricing_plan_id":"cebpf4jnsgd1na2vs0mg"},{"bike_id":"d2d6eb2b-0752-4912-8218-5e23893b2041","system_id":"levelo_inurba_marseille","lat":43.30292,"lon":5.39217,"is_reserved":false,"is_disabled":false,"rental_uris":{"android":"levelo://app?vid=d2d6eb2b-0752-4912-8218-5e23893b2041","ios":"levelo://app?vid=d2d6eb2b-0752-4912-8218-5e23893b2041"},"vehicle_type_id":"4","last_reported":1758733747,"current_range_meters":2800,"station_id":"ce4bgkh2rcd13ifvqbk0","pricing_plan_id":"cebpf4jnsgd1na2vs0mg"},{"bike_id":"1206e9d7-d1f8-463a-b072-44c607773e8b","system_id":"levelo_inurba_marseille","lat":43.27566,"lon":5.38414,"is_reserved":false,"is_disabled":false,"rental_uris":{"android":"levelo://app?vid=1206e9d7-d1f8-463a-b072-44c607773e8b","ios":"levelo://app?vid=1206e9d7-d1f8-463a-b072-44c607773e8b"},"vehicle_type_id":"4","last_reported":1758733747,"current_range_meters":2800,"station_id":"ce4bhh92rcd13ifvqfi0","pricing_plan_id":"cebpf4jnsgd1na2vs0mg"},{"bike_id":"9eafdbde-e269-45c9-ba48-b588b00c1faa","system_id":"levelo_inurba_marseille","lat":43.2603,"lon":5.3755,"is_reserved":false,"is_disabled":false,"rental_uris":{"android":"levelo://app?vid=9eafdbde-e269-45c9-ba48-b588b00c1faa","ios":"levelo://app?vid=9eafdbde-e269-45c9-ba48-b588b00c1faa"},"vehicle_type_id":"4","last_reported":1758733747,"current_range_meters":2800,"station_id":"ce4bhgh2rcd13ifvqfa0","pricing_plan_id":"cebpf4jnsgd1na2vs0mg"},{"bike_id":"0a1ab1a5-b85e-4ac3-936e-fe171b7ebe82","system_id":"levelo_inurba_marseille","lat":43.296295,"lon":5.381289,"is_reserved":false,"is_disabled":false,"rental_uris":{"android":"levelo://app?vid=0a1ab1a5-b85e-4ac3-936e-fe171b7ebe82","ios":"levelo://app?vid=0a1ab1a5-b85e-4ac3-936e-fe171b7ebe82"},"vehicle_type_id":"4","last_reported":1758733747,"current_range_meters":3200,"station_id":"","pricing_plan_id":"cebpf4jnsgd1na2vs0mg"},{"bike_id":"f8f42267-7f14-4126-a00a-eadfde3afe57","system_id":"levelo_inurba_marseille","lat":43.29542,"lon":5.37508,"is_reserved":false,"is_disabled":false,"rental_uris":{"android":"levelo://app?vid=f8f42267-7f14-4126-a00a-eadfde3afe57","ios":"levelo://app?vid=f8f42267-7f14-4126-a00a-eadfde3afe57"},"vehicle_type_id":"4","last_reported":1758733747,"current_range_meters":3200,"station_id":"ce4bgkp2rcd13ifvqbmg","pricing_plan_id":"cebpf4jnsgd1na2vs0mg"},{"bike_id":"284b7de6-1ceb-4595-992c-7bc36fab2b4b","system_id":"levelo_inurba_marseille","lat":43.265763,"lon":5.390316,"is_reserved":false,"is_disabled":false,"rental_uris":{"android":"levelo://app?vid=284b7de6-1ceb-4595-992c-7bc36fab2b4b","ios":"levelo://app?vid=284b7de6-1ceb-4595-992c-7bc36fab2b4b"},"vehicle_type_id":"4","last_reported":1758733747,"current_range_meters":3200,"station_id":"ce4bhe12rcd13ifvqf30","pricing_plan_id":"cebpf4jnsgd1na2vs0mg"},{"bike_id":"156d6762-1825-45ea-8f58-124ca3c49c26","system_id":"levelo_inurba_marseille","lat":43.30331,"lon":5.40423,"is_reserved":false,"is_disabled":false,"rental_uris":{"android":"levelo://app?vid=156d6762-1825-45ea-8f58-124ca3c49c26","ios":"levelo://app?vid=156d6762-1825-45ea-8f58-124ca3c49c26"},"vehicle_type_id":"4","last_reported":1758733747,"current_range_meters":3200,"station_id":"ce4bh012rcd13ifvqd10","pricing_plan_id":"cebpf4jnsgd1na2vs0mg"},{"bike_id":"cc1e3ac2-e300-407c-ac37-ae4c4328f9c6","system_id":"levelo_inurba_marseille","lat":43.289389,"lon":5.366488,"is_reserved":false,"is_disabled":false,"rental_uris":{"android":"levelo://app?vid=cc1e3ac2-e300-407c-ac37-ae4c4328f9c6","ios":"levelo://app?vid=cc1e3ac2-e300-407c-ac37-ae4c4328f9c6"},"vehicle_type_id":"4","last_reported":1758733747,"current_range_meters":3200,"station_id":"ce4bhap2rcd13ifvqek0","pricing_plan_id":"cebpf4jnsgd1na2vs0mg"},{"bike_id":"5dbb2491-baba-4ee4-b181-8d164c641701","system_id":"levelo_inurba_marseille","lat":43.34138,"lon":5.40906,"is_reserved":false,"is_disabled":false,"rental_uris":{"android":"levelo://app?vid=5dbb2491-baba-4ee4-b181-8d164c641701","ios":"levelo://app?vid=5dbb2491-baba-4ee4-b181-8d164c641701"},"vehicle_type_id":"4","last_reported":1758733747,"current_range_meters":3600,"station_id":"ce4bhqh2rcd13ifvqhlg","pricing_plan_id":"cebpf4jnsgd1na2vs0mg"},{"bike_id":"cb6bf7d2-2ed1-47c4-b0a7-9c935f0ebf1a","system_id":"levelo_inurba_marseille","lat":43.26858,"lon":5.40672,"is_reserved":false,"is_disabled":false,"rental_uris":{"android":"levelo://app?vid=cb6bf7d2-2ed1-47c4-b0a7-9c935f0ebf1a","ios":"levelo://app?vid=cb6bf7d2-2ed1-47c4-b0a7-9c935f0ebf1a"},"vehicle_type_id":"4","last_reported":1758733747,"current_range_meters":4000,"station_id":"","pricing_plan_id":"cebpf4jnsgd1na2vs0mg"},{"bike_id":"9907d7b8-d00c-4467-b942-5f3030bc30ef","system_id":"levelo_inurba_marseille","lat":43.2606,"lon":5.39404,"is_reserved":false,"is_disabled":false,"rental_uris":{"android":"levelo://app?vid=9907d7b8-d00c-4467-b942-5f3030bc30ef","ios":"levelo://app?vid=9907d7b8-d00c-4467-b942-5f3030bc30ef"},"vehicle_type_id":"4","last_reported":1758733747,"current_range_meters":4000,"station_id":"ce4bhh92rcd13ifvqfj0","pricing_plan_id":"cebpf4jnsgd1na2vs0mg"},{"bike_id":"1d7db0bd-760f-4287-9951-d86c494be6cc","system_id":"levelo_inurba_marseille","lat":43.29786,"lon":5.38092,"is_reserved":false,"is_disabled":false,"rental_uris":{"android":"levelo://app?vid=1d7db0bd-760f-4287-9951-d86c494be6cc","ios":"levelo://app?vid=1d7db0bd-760f-4287-9951-d86c494be6cc"},"vehicle_type_id":"4","last_reported":1758733747,"current_range_meters":4000,"station_id":"ce4bgip2rcd13ifvqbb0","pricing_plan_id":"cebpf4jnsgd1na2vs0mg"},{"bike_id":"bad5cdcf-cc5a-476d-b8a2-448af175ac2f","system_id":"levelo_inurba_marseille","lat":43.26028,"lon":5.37553,"is_reserved":false,"is_disabled":false,"rental_uris":{"android":"levelo://app?vid=bad5cdcf-cc5a-476d-b8a2-448af175ac2f","ios":"levelo://app?vid=bad5cdcf-cc5a-476d-b8a2-448af175ac2f"},"vehicle_type_id":"4","last_reported":1758733747,"current_range_meters":4000,"station_id":"ce4bhgh2rcd13ifvqfa0","pricing_plan_id":"cebpf4jnsgd1na2vs0mg"},{"bike_id":"1efddf8d-578f-4e4c-8c3f-e3a8bd592ba4","system_id":"levelo_inurba_marseille","lat":43.29965,"lon":5.3739,"is_reserved":false,"is_disabled":false,"rental_uris":{"android":"levelo://app?vid=1efddf8d-578f-4e4c-8c3f-e3a8bd592ba4","ios":"levelo://app?vid=1efddf8d-578f-4e4c-8c3f-e3a8bd592ba4"},"vehicle_type_id":"4","last_reported":1758733747,"current_range_meters":4400,"station_id":"","pricing_plan_id":"cebpf4jnsgd1na2vs0mg"},{"bike_id":"7e5dbdf9-c7a5-407a-a7b9-3e95d9dcb45d","system_id":"levelo_inurba_marseille","lat":43.29252,"lon":5.40909,"is_reserved":false,"is_disabled":false,"rental_uris":{"android":"levelo://app?vid=7e5dbdf9-c7a5-407a-a7b9-3e95d9dcb45d","ios":"levelo://app?vid=7e5dbdf9-c7a5-407a-a7b9-3e95d9dcb45d"},"vehicle_type_id":"4","last_reported":1758733747,"current_range_meters":4400,"station_id":"ce4bh192rcd13ifvqdc0","pricing_plan_id":"cebpf4jnsgd1na2vs0mg"},{"bike_id":"3f0b7c43-f039-460c-9f33-3338bf25c677","system_id":"levelo_inurba_marseille","lat":43.29644,"lon":5.40618,"is_reserved":false,"is_disabled":false,"rental_uris":{"android":"levelo://app?vid=3f0b7c43-f039-460c-9f33-3338bf25c677","ios":"levelo://app?vid=3f0b7c43-f039-460c-9f33-3338bf25c677"},"vehicle_type_id":"4","last_reported":1758733747,"current_range_meters":4400,"station_id":"ce4bh0h2rcd13ifvqd60","pricing_plan_id":"cebpf4jnsgd1na2vs0mg"},{"bike_id":"178cf47f-9d36-414e-8296-c1a2ac8a1998","system_id":"levelo_inurba_marseille","lat":43.28952,"lon":5.3637,"is_reserved":false,"is_disabled":false,"rental_uris":{"android":"levelo://app?vid=178cf47f-9d36-414e-8296-c1a2ac8a1998","ios":"levelo://app?vid=178cf47f-9d36-414e-8296-c1a2ac8a1998"},"vehicle_type_id":"4","last_reported":1758733747,"current_range_meters":4400,"station_id":"ce4bhc92rcd13ifvqetg","pricing_plan_id":"cebpf4jnsgd1na2vs0mg"},{"bike_id":"63ddeaaa-842c-4a0c-a3a1-dd1863caf5e1","system_id":"levelo_inurba_marseille","lat":43.25575,"lon":5.38237,"is_reserved":false,"is_disabled":false,"rental_uris":{"android":"levelo://app?vid=63ddeaaa-842c-4a0c-a3a1-dd1863caf5e1","ios":"levelo://app?vid=63ddeaaa-842c-4a0c-a3a1-dd1863caf5e1"},"vehicle_type_id":"4","last_reported":1758733747,"current_range_meters":4800,"station_id":"ce4bhih2rcd13ifvqfs0","pricing_plan_id":"cebpf4jnsgd1na2vs0mg"},{"bike_id":"875fcc82-58f8-429d-bae4-ca58a91c05b5","system_id":"levelo_inurba_marseille","lat":43.29538,"lon":5.37493,"is_reserved":false,"is_disabled":false,"rental_uris":{"android":"levelo://app?vid=875fcc82-58f8-429d-bae4-ca58a91c05b5","ios":"levelo://app?vid=875fcc82-58f8-429d-bae4-ca58a91c05b5"},"vehicle_type_id":"4","last_reported":1758733747,"current_range_meters":4800,"station_id":"ce4bgkp2rcd13ifvqbmg","pricing_plan_id":"cebpf4jnsgd1na2vs0mg"},{"bike_id":"962b15bf-a341-4469-9450-c0428eb337e2","system_id":"levelo_inurba_marseille","lat":43.2315,"lon":5.43722,"is_reserved":false,"is_disabled":true,"rental_uris":{"android":"levelo://app?vid=962b15bf-a341-4469-9450-c0428eb337e2","ios":"levelo://app?vid=962b15bf-a341-4469-9450-c0428eb337e2"},"vehicle_type_id":"4","last_reported":1758733747,"current_range_meters":4800,"station_id":"ce4bhmp2rcd13ifvqgog","pricing_plan_id":"cebpf4jnsgd1na2vs0mg"},{"bike_id":"c0e09fcd-6eb3-4487-95c6-c6f132f39de3","system_id":"levelo_inurba_marseille","lat":43.22534,"lon":5.34829,"is_reserved":false,"is_disabled":false,"rental_uris":{"android":"levelo://app?vid=c0e09fcd-6eb3-4487-95c6-c6f132f39de3","ios":"levelo://app?vid=c0e09fcd-6eb3-4487-95c6-c6f132f39de3"},"vehicle_type_id":"4","last_reported":1758733747,"current_range_meters":4800,"station_id":"","pricing_plan_id":"cebpf4jnsgd1na2vs0mg"},{"bike_id":"cc7bcbed-6e4c-4940-8c68-a6d3f9c7f0fa","system_id":"levelo_inurba_marseille","lat":43.28947,"lon":5.36389,"is_reserved":false,"is_disabled":false,"rental_uris":{"android":"levelo://app?vid=cc7bcbed-6e4c-4940-8c68-a6d3f9c7f0fa","ios":"levelo://app?vid=cc7bcbed-6e4c-4940-8c68-a6d3f9c7f0fa"},"vehicle_type_id":"4","last_reported":1758733747,"current_range_meters":4800,"station_id":"ce4bhc92rcd13ifvqetg","pricing_plan_id":"cebpf4jnsgd1na2vs0mg"},{"bike_id":"59047599-4207-44cb-846d-940c893c6a00","system_id":"levelo_inurba_marseille","lat":43.27399,"lon":5.39407,"is_reserved":false,"is_disabled":false,"rental_uris":{"android":"levelo://app?vid=59047599-4207-44cb-846d-940c893c6a00","ios":"levelo://app?vid=59047599-4207-44cb-846d-940c893c6a00"},"vehicle_type_id":"4","last_reported":1758733747,"current_range_meters":4800,"station_id":"ce4bhdp2rcd13ifvqf20","pricing_plan_id":"cebpf4jnsgd1na2vs0mg"},{"bike_id":"3a8f6804-aba0-406b-ae04-475e7c120a8f","system_id":"levelo_inurba_marseille","lat":43.293294,"lon":5.371536,"is_reserved":false,"is_disabled":false,"rental_uris":{"android":"levelo://app?vid=3a8f6804-aba0-406b-ae04-475e7c120a8f","ios":"levelo://app?vid=3a8f6804-aba0-406b-ae04-475e7c120a8f"},"vehicle_type_id":"4","last_reported":1758733747,"current_range_meters":4800,"station_id":"ce4bgh92rcd13ifvqb40","pricing_plan_id":"cebpf4jnsgd1na2vs0mg"},{"bike_id":"03837abe-9e53-4786-b65e-c0cdfe81eabc","system_id":"levelo_inurba_marseille","lat":43.2731,"lon":5.39073,"is_reserved":false,"is_disabled":false,"rental_uris":{"android":"levelo://app?vid=03837abe-9e53-4786-b65e-c0cdfe81eabc","ios":"levelo://app?vid=03837abe-9e53-4786-b65e-c0cdfe81eabc"},"vehicle_type_id":"4","last_reported":1758733747,"current_range_meters":4800,"station_id":"ce4bhgp2rcd13ifvqfe0","pricing_plan_id":"cebpf4jnsgd1na2vs0mg"},{"bike_id":"39c5bb15-3f21-4f0e-8f18-4ba83d24fa09","system_id":"levelo_inurba_marseille","lat":43.2943,"lon":5.39771,"is_reserved":false,"is_disabled":false,"rental_uris":{"android":"levelo://app?vid=39c5bb15-3f21-4f0e-8f18-4ba83d24fa09","ios":"levelo://app?vid=39c5bb15-3f21-4f0e-8f18-4ba83d24fa09"},"vehicle_type_id":"4","last_reported":1758733747,"current_range_meters":5600,"station_id":"ce4bh3h2rcd13ifvqdo0","pricing_plan_id":"cebpf4jnsgd1na2vs0mg"},{"bike_id":"9a4f789d-ee60-48ec-8629-454ae46d6241","system_id":"levelo_inurba_marseille","lat":43.2885,"lon":5.3932,"is_reserved":false,"is_disabled":false,"rental_uris":{"android":"levelo://app?vid=9a4f789d-ee60-48ec-8629-454ae46d6241","ios":"levelo://app?vid=9a4f789d-ee60-48ec-8629-454ae46d6241"},"vehicle_type_id":"4","last_reported":1758733747,"current_range_meters":5600,"station_id":"ce4bh2p2rcd13ifvqdi0","pricing_plan_id":"cebpf4jnsgd1na2vs0mg"},{"bike_id":"760b302a-6662-4e3c-acdd-4266965f72b0","system_id":"levelo_inurba_marseille","lat":43.2894,"lon":5.36406,"is_reserved":false,"is_disabled":false,"rental_uris":{"android":"levelo://app?vid=760b302a-6662-4e3c-acdd-4266965f72b0","ios":"levelo://app?vid=760b302a-6662-4e3c-acdd-4266965f72b0"},"vehicle_type_id":"4","last_reported":1758733747,"current_range_meters":5600,"station_id":"ce4bhc92rcd13ifvqetg","pricing_plan_id":"cebpf4jnsgd1na2vs0mg"},{"bike_id":"2a50ea28-0d1e-4c5b-a608-1cb2f2c49d44","system_id":"levelo_inurba_marseille","lat":43.30806,"lon":5.43522,"is_reserved":false,"is_disabled":false,"rental_uris":{"android":"levelo://app?vid=2a50ea28-0d1e-4c5b-a608-1cb2f2c49d44","ios":"levelo://app?vid=2a50ea28-0d1e-4c5b-a608-1cb2f2c49d44"},"vehicle_type_id":"4","last_reported":1758733747,"current_range_meters":5600,"station_id":"ce4bhph2rcd13ifvqheg","pricing_plan_id":"cebpf4jnsgd1na2vs0mg"},{"bike_id":"37c7f1ed-8072-4021-ac4f-76d4cabb7d8d","system_id":"levelo_inurba_marseille","lat":43.33714,"lon":5.39201,"is_reserved":false,"is_disabled":false,"rental_uris":{"android":"levelo://app?vid=37c7f1ed-8072-4021-ac4f-76d4cabb7d8d","ios":"levelo://app?vid=37c7f1ed-8072-4021-ac4f-76d4cabb7d8d"},"vehicle_type_id":"4","last_reported":1758733747,"current_range_meters":6000,"station_id":"ce4bhr92rcd13ifvqhsg","pricing_plan_id":"cebpf4jnsgd1na2vs0mg"},{"bike_id":"355e741c-878f-4775-9222-3a4d87cf17a7","system_id":"levelo_inurba_marseille","lat":43.246704,"lon":5.381716,"is_reserved":false,"is_disabled":true,"rental_uris":{"android":"levelo://app?vid=355e741c-878f-4775-9222-3a4d87cf17a7","ios":"levelo://app?vid=355e741c-878f-4775-9222-3a4d87cf17a7"},"vehicle_type_id":"4","last_reported":1758733747,"current_range_meters":6000,"station_id":"ce4bhih2rcd13ifvqfr0","pricing_plan_id":"cebpf4jnsgd1na2vs0mg"},{"bike_id":"191ba075-5ae8-42b5-8990-0901a2f608e7","system_id":"levelo_inurba_marseille","lat":43.28354,"lon":5.38092,"is_reserved":false,"is_disabled":false,"rental_uris":{"android":"levelo://app?vid=191ba075-5ae8-42b5-8990-0901a2f608e7","ios":"levelo://app?vid=191ba075-5ae8-42b5-8990-0901a2f608e7"},"vehicle_type_id":"4","last_reported":1758733747,"current_range_meters":6400,"station_id":"ce4bh412rcd13ifvqdr0","pricing_plan_id":"cebpf4jnsgd1na2vs0mg"},{"bike_id":"8f4f298b-d605-4083-aaa2-44c21b6d5ff3","system_id":"levelo_inurba_marseille","lat":43.31276,"lon":5.40173,"is_reserved":false,"is_disabled":false,"rental_uris":{"android":"levelo://app?vid=8f4f298b-d605-4083-aaa2-44c21b6d5ff3","ios":"levelo://app?vid=8f4f298b-d605-4083-aaa2-44c21b6d5ff3"},"vehicle_type_id":"4","last_reported":1758733747,"current_range_meters":6400,"station_id":"ce4bh092rcd13ifvqd30","pricing_plan_id":"cebpf4jnsgd1na2vs0mg"},{"bike_id":"c95e0c05-dd94-491f-8092-9c7978400114","system_id":"levelo_inurba_marseille","lat":43.33487,"lon":5.36259,"is_reserved":false,"is_disabled":false,"rental_uris":{"android":"levelo://app?vid=c95e0c05-dd94-491f-8092-9c7978400114","ios":"levelo://app?vid=c95e0c05-dd94-491f-8092-9c7978400114"},"vehicle_type_id":"4","last_reported":1758733747,"current_range_meters":6400,"station_id":"ce4bhs12rcd13ifvqhvg","pricing_plan_id":"cebpf4jnsgd1na2vs0mg"},{"bike_id":"939538dc-20bd-4d94-8a10-8e1e0a179bc7","system_id":"levelo_inurba_marseille","lat":43.33688,"lon":5.37834,"is_reserved":false,"is_disabled":false,"rental_uris":{"android":"levelo://app?vid=939538dc-20bd-4d94-8a10-8e1e0a179bc7","ios":"levelo://app?vid=939538dc-20bd-4d94-8a10-8e1e0a179bc7"},"vehicle_type_id":"4","last_reported":1758733747,"current_range_meters":6400,"station_id":"","pricing_plan_id":"cebpf4jnsgd1na2vs0mg"},{"bike_id":"5e3021d2-5870-41be-9b57-c431dabd15a0","system_id":"levelo_inurba_marseille","lat":43.29568,"lon":5.39971,"is_reserved":false,"is_disabled":false,"rental_uris":{"android":"levelo://app?vid=5e3021d2-5870-41be-9b57-c431dabd15a0","ios":"levelo://app?vid=5e3021d2-5870-41be-9b57-c431dabd15a0"},"vehicle_type_id":"4","last_reported":1758733747,"current_range_meters":6400,"station_id":"ce4bh312rcd13ifvqdj0","pricing_plan_id":"cebpf4jnsgd1na2vs0mg"},{"bike_id":"9cf35899-01a3-43c1-9a4e-3d228c6b969d","system_id":"levelo_inurba_marseille","lat":43.29965,"lon":5.38506,"is_reserved":false,"is_disabled":false,"rental_uris":{"android":"levelo://app?vid=9cf35899-01a3-43c1-9a4e-3d228c6b969d","ios":"levelo://app?vid=9cf35899-01a3-43c1-9a4e-3d228c6b969d"},"vehicle_type_id":"4","last_reported":1758733747,"current_range_meters":6800,"station_id":"ce4bgj92rcd13ifvqbd0","pricing_plan_id":"cebpf4jnsgd1na2vs0mg"},{"bike_id":"3bbb0fde-2b9a-4df5-bfe5-19c2a38757d3","system_id":"levelo_inurba_marseille","lat":43.31363,"lon":5.38503,"is_reserved":false,"is_disabled":false,"rental_uris":{"android":"levelo://app?vid=3bbb0fde-2b9a-4df5-bfe5-19c2a38757d3","ios":"levelo://app?vid=3bbb0fde-2b9a-4df5-bfe5-19c2a38757d3"},"vehicle_type_id":"4","last_reported":1758733747,"current_range_meters":6800,"station_id":"ce4bgt92rcd13ifvqcf0","pricing_plan_id":"cebpf4jnsgd1na2vs0mg"},{"bike_id":"6632531e-930e-4f8f-9524-3719cdcff46a","system_id":"levelo_inurba_marseille","lat":43.253395,"lon":5.421682,"is_reserved":false,"is_disabled":false,"rental_uris":{"android":"levelo://app?vid=6632531e-930e-4f8f-9524-3719cdcff46a","ios":"levelo://app?vid=6632531e-930e-4f8f-9524-3719cdcff46a"},"vehicle_type_id":"4","last_reported":1758733747,"current_range_meters":6800,"station_id":"st_d2m65c5bi1j21697t3ng","pricing_plan_id":"cebpf4jnsgd1na2vs0mg"},{"bike_id":"15d0d910-6131-42da-85e7-94d7e39e54fb","system_id":"levelo_inurba_marseille","lat":43.31358,"lon":5.38494,"is_reserved":false,"is_disabled":false,"rental_uris":{"android":"levelo://app?vid=15d0d910-6131-42da-85e7-94d7e39e54fb","ios":"levelo://app?vid=15d0d910-6131-42da-85e7-94d7e39e54fb"},"vehicle_type_id":"4","last_reported":1758733747,"current_range_meters":6800,"station_id":"ce4bgt92rcd13ifvqcf0","pricing_plan_id":"cebpf4jnsgd1na2vs0mg"},{"bike_id":"ea93c4e7-0906-4128-b4fc-1b4c74a5c843","system_id":"levelo_inurba_marseille","lat":43.24812,"lon":5.374588,"is_reserved":false,"is_disabled":true,"rental_uris":{"android":"levelo://app?vid=ea93c4e7-0906-4128-b4fc-1b4c74a5c843","ios":"levelo://app?vid=ea93c4e7-0906-4128-b4fc-1b4c74a5c843"},"vehicle_type_id":"4","last_reported":1758733747,"current_range_meters":7200,"station_id":"ce4bhgh2rcd13ifvqfb0","pricing_plan_id":"cebpf4jnsgd1na2vs0mg"},{"bike_id":"958c8917-5a4c-473b-8067-e3ac7d3b0bf2","system_id":"levelo_inurba_marseille","lat":43.316792,"lon":5.404483,"is_reserved":false,"is_disabled":false,"rental_uris":{"android":"levelo://app?vid=958c8917-5a4c-473b-8067-e3ac7d3b0bf2","ios":"levelo://app?vid=958c8917-5a4c-473b-8067-e3ac7d3b0bf2"},"vehicle_type_id":"4","last_reported":1758733747,"current_range_meters":7200,"station_id":"ce4bh012rcd13ifvqd00","pricing_plan_id":"cebpf4jnsgd1na2vs0mg"},{"bike_id":"86c9d011-3e76-416a-8d5e-f46b02f340d2","system_id":"levelo_inurba_marseille","lat":43.25575,"lon":5.38243,"is_reserved":false,"is_disabled":false,"rental_uris":{"android":"levelo://app?vid=86c9d011-3e76-416a-8d5e-f46b02f340d2","ios":"levelo://app?vid=86c9d011-3e76-416a-8d5e-f46b02f340d2"},"vehicle_type_id":"4","last_reported":1758733747,"current_range_meters":7200,"station_id":"ce4bhih2rcd13ifvqfs0","pricing_plan_id":"cebpf4jnsgd1na2vs0mg"},{"bike_id":"24ed0d66-75b5-476b-8a7b-9d1540f944df","system_id":"levelo_inurba_marseille","lat":43.29621,"lon":5.37169,"is_reserved":false,"is_disabled":false,"rental_uris":{"android":"levelo://app?vid=24ed0d66-75b5-476b-8a7b-9d1540f944df","ios":"levelo://app?vid=24ed0d66-75b5-476b-8a7b-9d1540f944df"},"vehicle_type_id":"4","last_reported":1758733747,"current_range_meters":7200,"station_id":"ce4bgnh2rcd13ifvqc0g","pricing_plan_id":"cebpf4jnsgd1na2vs0mg"},{"bike_id":"1aca222a-4a50-40db-ad37-e0db36765c71","system_id":"levelo_inurba_marseille","lat":43.313629,"lon":5.384887,"is_reserved":false,"is_disabled":false,"rental_uris":{"android":"levelo://app?vid=1aca222a-4a50-40db-ad37-e0db36765c71","ios":"levelo://app?vid=1aca222a-4a50-40db-ad37-e0db36765c71"},"vehicle_type_id":"4","last_reported":1758733747,"current_range_meters":7200,"station_id":"ce4bgt92rcd13ifvqcf0","pricing_plan_id":"cebpf4jnsgd1na2vs0mg"},{"bike_id":"207f992a-acfe-4c0b-82d1-0f7fcf61aa0c","system_id":"levelo_inurba_marseille","lat":43.24174,"lon":5.397236,"is_reserved":false,"is_disabled":true,"rental_uris":{"android":"levelo://app?vid=207f992a-acfe-4c0b-82d1-0f7fcf61aa0c","ios":"levelo://app?vid=207f992a-acfe-4c0b-82d1-0f7fcf61aa0c"},"vehicle_type_id":"4","last_reported":1758733747,"current_range_meters":7200,"station_id":"ce4bhn12rcd13ifvqgpg","pricing_plan_id":"cebpf4jnsgd1na2vs0mg"},{"bike_id":"510b8b2c-015f-41be-9a84-22144389a9c2","system_id":"levelo_inurba_marseille","lat":43.3033,"lon":5.4043,"is_reserved":false,"is_disabled":false,"rental_uris":{"android":"levelo://app?vid=510b8b2c-015f-41be-9a84-22144389a9c2","ios":"levelo://app?vid=510b8b2c-015f-41be-9a84-22144389a9c2"},"vehicle_type_id":"4","last_reported":1758733747,"current_range_meters":7200,"station_id":"ce4bh012rcd13ifvqd10","pricing_plan_id":"cebpf4jnsgd1na2vs0mg"},{"bike_id":"b2c3c8f5-14ee-4535-80b3-75d0ac18a15e","system_id":"levelo_inurba_marseille","lat":43.30204,"lon":5.39484,"is_reserved":false,"is_disabled":false,"rental_uris":{"android":"levelo://app?vid=b2c3c8f5-14ee-4535-80b3-75d0ac18a15e","ios":"levelo://app?vid=b2c3c8f5-14ee-4535-80b3-75d0ac18a15e"},"vehicle_type_id":"4","last_reported":1758733747,"current_range_meters":8000,"station_id":"ce4bh0p2rcd13ifvqd70","pricing_plan_id":"cebpf4jnsgd1na2vs0mg"},{"bike_id":"47f09f67-642f-4350-9fb7-d761e61a9773","system_id":"levelo_inurba_marseille","lat":43.31359,"lon":5.38492,"is_reserved":false,"is_disabled":false,"rental_uris":{"android":"levelo://app?vid=47f09f67-642f-4350-9fb7-d761e61a9773","ios":"levelo://app?vid=47f09f67-642f-4350-9fb7-d761e61a9773"},"vehicle_type_id":"4","last_reported":1758733747,"current_range_meters":8000,"station_id":"ce4bgt92rcd13ifvqcf0","pricing_plan_id":"cebpf4jnsgd1na2vs0mg"},{"bike_id":"e96cc0e7-d445-4411-a034-fdbae9df4d3a","system_id":"levelo_inurba_marseille","lat":43.265012,"lon":5.395326,"is_reserved":false,"is_disabled":false,"rental_uris":{"android":"levelo://app?vid=e96cc0e7-d445-4411-a034-fdbae9df4d3a","ios":"levelo://app?vid=e96cc0e7-d445-4411-a034-fdbae9df4d3a"},"vehicle_type_id":"4","last_reported":1758733747,"current_range_meters":8000,"station_id":"ce4bhi12rcd13ifvqfq0","pricing_plan_id":"cebpf4jnsgd1na2vs0mg"},{"bike_id":"c214b744-ea1b-487c-aa72-9bc7d9d4923a","system_id":"levelo_inurba_marseille","lat":43.309332,"lon":5.401522,"is_reserved":false,"is_disabled":false,"rental_uris":{"android":"levelo://app?vid=c214b744-ea1b-487c-aa72-9bc7d9d4923a","ios":"levelo://app?vid=c214b744-ea1b-487c-aa72-9bc7d9d4923a"},"vehicle_type_id":"4","last_reported":1758733747,"current_range_meters":8000,"station_id":"ce4bgvp2rcd13ifvqct0","pricing_plan_id":"cebpf4jnsgd1na2vs0mg"},{"bike_id":"3ffaf525-9d0e-43b1-99e6-09484a13abbe","system_id":"levelo_inurba_marseille","lat":43.266754,"lon":5.389725,"is_reserved":false,"is_disabled":false,"rental_uris":{"android":"levelo://app?vid=3ffaf525-9d0e-43b1-99e6-09484a13abbe","ios":"levelo://app?vid=3ffaf525-9d0e-43b1-99e6-09484a13abbe"},"vehicle_type_id":"4","last_reported":1758733747,"current_range_meters":8400,"station_id":"ce4bhe12rcd13ifvqf30","pricing_plan_id":"cebpf4jnsgd1na2vs0mg"},{"bike_id":"bab0bf06-3f9c-4998-845f-f88d871727fd","system_id":"levelo_inurba_marseille","lat":43.27898,"lon":5.37997,"is_reserved":false,"is_disabled":false,"rental_uris":{"android":"levelo://app?vid=bab0bf06-3f9c-4998-845f-f88d871727fd","ios":"levelo://app?vid=bab0bf06-3f9c-4998-845f-f88d871727fd"},"vehicle_type_id":"4","last_reported":1758733747,"current_range_meters":8400,"station_id":"ce4bhf92rcd13ifvqf50","pricing_plan_id":"cebpf4jnsgd1na2vs0mg"},{"bike_id":"6be948fb-e8e2-47ec-b5a2-88c82d7d731c","system_id":"levelo_inurba_marseille","lat":43.28413,"lon":5.37527,"is_reserved":false,"is_disabled":false,"rental_uris":{"android":"levelo://app?vid=6be948fb-e8e2-47ec-b5a2-88c82d7d731c","ios":"levelo://app?vid=6be948fb-e8e2-47ec-b5a2-88c82d7d731c"},"vehicle_type_id":"4","last_reported":1758733747,"current_range_meters":8400,"station_id":"ce4bh412rcd13ifvqds0","pricing_plan_id":"cebpf4jnsgd1na2vs0mg"},{"bike_id":"24be3add-e193-40bf-9412-1e268a66be0e","system_id":"levelo_inurba_marseille","lat":43.32296,"lon":5.38269,"is_reserved":false,"is_disabled":false,"rental_uris":{"android":"levelo://app?vid=24be3add-e193-40bf-9412-1e268a66be0e","ios":"levelo://app?vid=24be3add-e193-40bf-9412-1e268a66be0e"},"vehicle_type_id":"4","last_reported":1758733747,"current_range_meters":8400,"station_id":"ce4bhr12rcd13ifvqhqg","pricing_plan_id":"cebpf4jnsgd1na2vs0mg"},{"bike_id":"e265efb8-c4f3-47b9-8533-c40829fb355e","system_id":"levelo_inurba_marseille","lat":43.29037,"lon":5.35922,"is_reserved":false,"is_disabled":false,"rental_uris":{"android":"levelo://app?vid=e265efb8-c4f3-47b9-8533-c40829fb355e","ios":"levelo://app?vid=e265efb8-c4f3-47b9-8533-c40829fb355e"},"vehicle_type_id":"4","last_reported":1758733747,"current_range_meters":8800,"station_id":"ce4bha92rcd13ifvqeg0","pricing_plan_id":"cebpf4jnsgd1na2vs0mg"},{"bike_id":"09093871-0a0c-4199-8a28-3039b45d6d63","system_id":"levelo_inurba_marseille","lat":43.24942,"lon":5.40497,"is_reserved":false,"is_disabled":false,"rental_uris":{"android":"levelo://app?vid=09093871-0a0c-4199-8a28-3039b45d6d63","ios":"levelo://app?vid=09093871-0a0c-4199-8a28-3039b45d6d63"},"vehicle_type_id":"4","last_reported":1758733747,"current_range_meters":8800,"station_id":"st_d2ngiaodas8pm72gd1h0","pricing_plan_id":"cebpf4jnsgd1na2vs0mg"},{"bike_id":"5f7a5080-e77c-4892-a096-c578510b27d0","system_id":"levelo_inurba_marseille","lat":43.279396,"lon":5.410485,"is_reserved":false,"is_disabled":true,"rental_uris":{"android":"levelo://app?vid=5f7a5080-e77c-4892-a096-c578510b27d0","ios":"levelo://app?vid=5f7a5080-e77c-4892-a096-c578510b27d0"},"vehicle_type_id":"4","last_reported":1758733747,"current_range_meters":9200,"station_id":"ce4bhnp2rcd13ifvqh0g","pricing_plan_id":"cebpf4jnsgd1na2vs0mg"},{"bike_id":"7c0482c3-9253-4d1b-b4f3-be55cdb7721d","system_id":"levelo_inurba_marseille","lat":43.33757,"lon":5.37466,"is_reserved":false,"is_disabled":false,"rental_uris":{"android":"levelo://app?vid=7c0482c3-9253-4d1b-b4f3-be55cdb7721d","ios":"levelo://app?vid=7c0482c3-9253-4d1b-b4f3-be55cdb7721d"},"vehicle_type_id":"4","last_reported":1758733747,"current_range_meters":9200,"station_id":"","pricing_plan_id":"cebpf4jnsgd1na2vs0mg"},{"bike_id":"53fcaa9e-ccb4-40b8-a673-8db45a2628dc","system_id":"levelo_inurba_marseille","lat":43.28408,"lon":5.34981,"is_reserved":false,"is_disabled":false,"rental_uris":{"android":"levelo://app?vid=53fcaa9e-ccb4-40b8-a673-8db45a2628dc","ios":"levelo://app?vid=53fcaa9e-ccb4-40b8-a673-8db45a2628dc"},"vehicle_type_id":"4","last_reported":1758733747,"current_range_meters":9200,"station_id":"ce4bhbh2rcd13ifvqepg","pricing_plan_id":"cebpf4jnsgd1na2vs0mg"},{"bike_id":"4ce67155-9f15-4130-9400-f86685d8ecda","system_id":"levelo_inurba_marseille","lat":43.29768,"lon":5.36519,"is_reserved":false,"is_disabled":false,"rental_uris":{"android":"levelo://app?vid=4ce67155-9f15-4130-9400-f86685d8ecda","ios":"levelo://app?vid=4ce67155-9f15-4130-9400-f86685d8ecda"},"vehicle_type_id":"4","last_reported":1758733747,"current_range_meters":9200,"station_id":"","pricing_plan_id":"cebpf4jnsgd1na2vs0mg"},{"bike_id":"546302c6-469a-4eff-876b-1fc84d353598","system_id":"levelo_inurba_marseille","lat":43.29907,"lon":5.3814,"is_reserved":false,"is_disabled":false,"rental_uris":{"android":"levelo://app?vid=546302c6-469a-4eff-876b-1fc84d353598","ios":"levelo://app?vid=546302c6-469a-4eff-876b-1fc84d353598"},"vehicle_type_id":"4","last_reported":1758733747,"current_range_meters":9200,"station_id":"ce4bgj12rcd13ifvqbc0","pricing_plan_id":"cebpf4jnsgd1na2vs0mg"},{"bike_id":"9c4a7bdb-c552-4dfd-8efb-40b9e0b0b147","system_id":"levelo_inurba_marseille","lat":43.30913,"lon":5.36758,"is_reserved":false,"is_disabled":false,"rental_uris":{"android":"levelo://app?vid=9c4a7bdb-c552-4dfd-8efb-40b9e0b0b147","ios":"levelo://app?vid=9c4a7bdb-c552-4dfd-8efb-40b9e0b0b147"},"vehicle_type_id":"4","last_reported":1758733747,"current_range_meters":9200,"station_id":"","pricing_plan_id":"cebpf4jnsgd1na2vs0mg"},{"bike_id":"1846e412-a89b-48c3-8a86-f911e8ea2c2e","system_id":"levelo_inurba_marseille","lat":43.21194,"lon":5.35092,"is_reserved":false,"is_disabled":false,"rental_uris":{"android":"levelo://app?vid=1846e412-a89b-48c3-8a86-f911e8ea2c2e","ios":"levelo://app?vid=1846e412-a89b-48c3-8a86-f911e8ea2c2e"},"vehicle_type_id":"4","last_reported":1758733747,"current_range_meters":9200,"station_id":"st_cvj6sg6p6f1abm77japg","pricing_plan_id":"cebpf4jnsgd1na2vs0mg"},{"bike_id":"540ef159-68c5-4334-b51c-e4a62debb460","system_id":"levelo_inurba_marseille","lat":43.29916,"lon":5.37487,"is_reserved":false,"is_disabled":false,"rental_uris":{"android":"levelo://app?vid=540ef159-68c5-4334-b51c-e4a62debb460","ios":"levelo://app?vid=540ef159-68c5-4334-b51c-e4a62debb460"},"vehicle_type_id":"4","last_reported":1758733747,"current_range_meters":9200,"station_id":"ce4bgjh2rcd13ifvqbg0","pricing_plan_id":"cebpf4jnsgd1na2vs0mg"},{"bike_id":"581e33ac-38b9-4f28-bea3-29338ea37b90","system_id":"levelo_inurba_marseille","lat":43.28256,"lon":5.35081,"is_reserved":false,"is_disabled":false,"rental_uris":{"android":"levelo://app?vid=581e33ac-38b9-4f28-bea3-29338ea37b90","ios":"levelo://app?vid=581e33ac-38b9-4f28-bea3-29338ea37b90"},"vehicle_type_id":"4","last_reported":1758733747,"current_range_meters":4000,"station_id":"ce4bhbp2rcd13ifvqerg","pricing_plan_id":"cebpf4jnsgd1na2vs0mg"},{"bike_id":"621572a3-985d-45d2-a3c9-1babfff5ac67","system_id":"levelo_inurba_marseille","lat":43.29928,"lon":5.36549,"is_reserved":false,"is_disabled":false,"rental_uris":{"android":"levelo://app?vid=621572a3-985d-45d2-a3c9-1babfff5ac67","ios":"levelo://app?vid=621572a3-985d-45d2-a3c9-1babfff5ac67"},"vehicle_type_id":"4","last_reported":1758733747,"current_range_meters":9200,"station_id":"ce4bgm92rcd13ifvqbr0","pricing_plan_id":"cebpf4jnsgd1na2vs0mg"},{"bike_id":"43d57fd4-047e-4ac8-97e5-ec9b96239472","system_id":"levelo_inurba_marseille","lat":43.33231,"lon":5.39821,"is_reserved":false,"is_disabled":false,"rental_uris":{"android":"levelo://app?vid=43d57fd4-047e-4ac8-97e5-ec9b96239472","ios":"levelo://app?vid=43d57fd4-047e-4ac8-97e5-ec9b96239472"},"vehicle_type_id":"4","last_reported":1758733747,"current_range_meters":9200,"station_id":"","pricing_plan_id":"cebpf4jnsgd1na2vs0mg"},{"bike_id":"2a2665c5-c622-47ba-ae60-6b8d0b2ac9aa","system_id":"levelo_inurba_marseille","lat":43.28419,"lon":5.34979,"is_reserved":false,"is_disabled":false,"rental_uris":{"android":"levelo://app?vid=2a2665c5-c622-47ba-ae60-6b8d0b2ac9aa","ios":"levelo://app?vid=2a2665c5-c622-47ba-ae60-6b8d0b2ac9aa"},"vehicle_type_id":"4","last_reported":1758733747,"current_range_meters":9200,"station_id":"ce4bhbh2rcd13ifvqepg","pricing_plan_id":"cebpf4jnsgd1na2vs0mg"},{"bike_id":"3b7ca484-6e89-4ccc-b6fd-bbef1b50e39e","system_id":"levelo_inurba_marseille","lat":43.28256,"lon":5.35076,"is_reserved":false,"is_disabled":false,"rental_uris":{"android":"levelo://app?vid=3b7ca484-6e89-4ccc-b6fd-bbef1b50e39e","ios":"levelo://app?vid=3b7ca484-6e89-4ccc-b6fd-bbef1b50e39e"},"vehicle_type_id":"4","last_reported":1758733747,"current_range_meters":9600,"station_id":"ce4bhbp2rcd13ifvqerg","pricing_plan_id":"cebpf4jnsgd1na2vs0mg"},{"bike_id":"7b1cacb8-b373-43de-9e58-f211149cbcb9","system_id":"levelo_inurba_marseille","lat":43.29712,"lon":5.37698,"is_reserved":false,"is_disabled":false,"rental_uris":{"android":"levelo://app?vid=7b1cacb8-b373-43de-9e58-f211149cbcb9","ios":"levelo://app?vid=7b1cacb8-b373-43de-9e58-f211149cbcb9"},"vehicle_type_id":"4","last_reported":1758733747,"current_range_meters":9600,"station_id":"ce4bgkh2rcd13ifvqbl0","pricing_plan_id":"cebpf4jnsgd1na2vs0mg"},{"bike_id":"791993e4-4a78-4947-94cc-7cd744e00c79","system_id":"levelo_inurba_marseille","lat":43.23151,"lon":5.43721,"is_reserved":false,"is_disabled":false,"rental_uris":{"android":"levelo://app?vid=791993e4-4a78-4947-94cc-7cd744e00c79","ios":"levelo://app?vid=791993e4-4a78-4947-94cc-7cd744e00c79"},"vehicle_type_id":"4","last_reported":1758733747,"current_range_meters":9200,"station_id":"ce4bhmp2rcd13ifvqgog","pricing_plan_id":"cebpf4jnsgd1na2vs0mg"},{"bike_id":"ab693ffb-adba-4ae2-9f90-7c5c6a1c44ee","system_id":"levelo_inurba_marseille","lat":43.29866,"lon":5.39751,"is_reserved":false,"is_disabled":false,"rental_uris":{"android":"levelo://app?vid=ab693ffb-adba-4ae2-9f90-7c5c6a1c44ee","ios":"levelo://app?vid=ab693ffb-adba-4ae2-9f90-7c5c6a1c44ee"},"vehicle_type_id":"4","last_reported":1758733747,"current_range_meters":9200,"station_id":"ce4bh0h2rcd13ifvqd50","pricing_plan_id":"cebpf4jnsgd1na2vs0mg"},{"bike_id":"56f4471d-0f04-4079-9970-252a28a08120","system_id":"levelo_inurba_marseille","lat":43.29024,"lon":5.38132,"is_reserved":false,"is_disabled":false,"rental_uris":{"android":"levelo://app?vid=56f4471d-0f04-4079-9970-252a28a08120","ios":"levelo://app?vid=56f4471d-0f04-4079-9970-252a28a08120"},"vehicle_type_id":"4","last_reported":1758733747,"current_range_meters":9600,"station_id":"ce4bh4p2rcd13ifvqe1g","pricing_plan_id":"cebpf4jnsgd1na2vs0mg"},{"bike_id":"47cf6546-176e-4d02-bbd9-df4e352584c0","system_id":"levelo_inurba_marseille","lat":43.304224,"lon":5.412976,"is_reserved":false,"is_disabled":false,"rental_uris":{"android":"levelo://app?vid=47cf6546-176e-4d02-bbd9-df4e352584c0","ios":"levelo://app?vid=47cf6546-176e-4d02-bbd9-df4e352584c0"},"vehicle_type_id":"4","last_reported":1758733747,"current_range_meters":9600,"station_id":"ce4bhop2rcd13ifvqh8g","pricing_plan_id":"cebpf4jnsgd1na2vs0mg"},{"bike_id":"6acdce4d-a976-48e9-b83e-59c0d2905de9","system_id":"levelo_inurba_marseille","lat":43.29,"lon":5.35622,"is_reserved":false,"is_disabled":false,"rental_uris":{"android":"levelo://app?vid=6acdce4d-a976-48e9-b83e-59c0d2905de9","ios":"levelo://app?vid=6acdce4d-a976-48e9-b83e-59c0d2905de9"},"vehicle_type_id":"4","last_reported":1758733747,"current_range_meters":9600,"station_id":"ce4bhb92rcd13ifvqen0","pricing_plan_id":"cebpf4jnsgd1na2vs0mg"},{"bike_id":"1da71b51-9e46-4142-a8f9-c279ca9e084d","system_id":"levelo_inurba_marseille","lat":43.31076,"lon":5.3835,"is_reserved":false,"is_disabled":false,"rental_uris":{"android":"levelo://app?vid=1da71b51-9e46-4142-a8f9-c279ca9e084d","ios":"levelo://app?vid=1da71b51-9e46-4142-a8f9-c279ca9e084d"},"vehicle_type_id":"4","last_reported":1758733747,"current_range_meters":9600,"station_id":"ce4bgv92rcd13ifvqcr0","pricing_plan_id":"cebpf4jnsgd1na2vs0mg"},{"bike_id":"e35dc3d8-0dfe-4bd4-87f7-5d3ca8bee4e5","system_id":"levelo_inurba_marseille","lat":43.250814,"lon":5.425774,"is_reserved":false,"is_disabled":false,"rental_uris":{"android":"levelo://app?vid=e35dc3d8-0dfe-4bd4-87f7-5d3ca8bee4e5","ios":"levelo://app?vid=e35dc3d8-0dfe-4bd4-87f7-5d3ca8bee4e5"},"vehicle_type_id":"4","last_reported":1758733747,"current_range_meters":9600,"station_id":"","pricing_plan_id":"cebpf4jnsgd1na2vs0mg"},{"bike_id":"05b147e4-e0ee-4096-9184-63482878655c","system_id":"levelo_inurba_marseille","lat":43.29784,"lon":5.39355,"is_reserved":false,"is_disabled":false,"rental_uris":{"android":"levelo://app?vid=05b147e4-e0ee-4096-9184-63482878655c","ios":"levelo://app?vid=05b147e4-e0ee-4096-9184-63482878655c"},"vehicle_type_id":"4","last_reported":1758733747,"current_range_meters":10000,"station_id":"chh1huq6cuj3fo74tm60","pricing_plan_id":"cebpf4jnsgd1na2vs0mg"},{"bike_id":"0df75e72-c8b2-4ed4-bb38-339f4f3a1611","system_id":"levelo_inurba_marseille","lat":43.27652,"lon":5.38941,"is_reserved":false,"is_disabled":true,"rental_uris":{"android":"levelo://app?vid=0df75e72-c8b2-4ed4-bb38-339f4f3a1611","ios":"levelo://app?vid=0df75e72-c8b2-4ed4-bb38-339f4f3a1611"},"vehicle_type_id":"4","last_reported":1758733747,"current_range_meters":10000,"station_id":"ce4bhi12rcd13ifvqfo0","pricing_plan_id":"cebpf4jnsgd1na2vs0mg"},{"bike_id":"02dacbed-c968-4b86-aa00-e6eaea697c26","system_id":"levelo_inurba_marseille","lat":43.29533,"lon":5.39398,"is_reserved":false,"is_disabled":false,"rental_uris":{"android":"levelo://app?vid=02dacbed-c968-4b86-aa00-e6eaea697c26","ios":"levelo://app?vid=02dacbed-c968-4b86-aa00-e6eaea697c26"},"vehicle_type_id":"4","last_reported":1758733747,"current_range_meters":10000,"station_id":"ce4bh292rcd13ifvqdf0","pricing_plan_id":"cebpf4jnsgd1na2vs0mg"},{"bike_id":"d0d8cf37-f03a-40fd-aea2-3ee9163cb934","system_id":"levelo_inurba_marseille","lat":43.28999,"lon":5.35615,"is_reserved":false,"is_disabled":false,"rental_uris":{"android":"levelo://app?vid=d0d8cf37-f03a-40fd-aea2-3ee9163cb934","ios":"levelo://app?vid=d0d8cf37-f03a-40fd-aea2-3ee9163cb934"},"vehicle_type_id":"4","last_reported":1758733747,"current_range_meters":10000,"station_id":"ce4bhb92rcd13ifvqen0","pricing_plan_id":"cebpf4jnsgd1na2vs0mg"},{"bike_id":"98c86026-8b83-473e-93ca-9c9372ef3011","system_id":"levelo_inurba_marseille","lat":43.28259,"lon":5.35069,"is_reserved":false,"is_disabled":false,"rental_uris":{"android":"levelo://app?vid=98c86026-8b83-473e-93ca-9c9372ef3011","ios":"levelo://app?vid=98c86026-8b83-473e-93ca-9c9372ef3011"},"vehicle_type_id":"4","last_reported":1758733747,"current_range_meters":10000,"station_id":"ce4bhbp2rcd13ifvqerg","pricing_plan_id":"cebpf4jnsgd1na2vs0mg"},{"bike_id":"2bcb4989-28d6-422c-a5f3-9e4a8b66d9dd","system_id":"levelo_inurba_marseille","lat":43.31163,"lon":5.386935,"is_reserved":false,"is_disabled":false,"rental_uris":{"android":"levelo://app?vid=2bcb4989-28d6-422c-a5f3-9e4a8b66d9dd","ios":"levelo://app?vid=2bcb4989-28d6-422c-a5f3-9e4a8b66d9dd"},"vehicle_type_id":"4","last_reported":1758733747,"current_range_meters":10000,"station_id":"ce4bgv12rcd13ifvqcp0","pricing_plan_id":"cebpf4jnsgd1na2vs0mg"},{"bike_id":"0d16f16e-0c7c-411c-a012-184d13faca5e","system_id":"levelo_inurba_marseille","lat":43.30255,"lon":5.40069,"is_reserved":false,"is_disabled":false,"rental_uris":{"android":"levelo://app?vid=0d16f16e-0c7c-411c-a012-184d13faca5e","ios":"levelo://app?vid=0d16f16e-0c7c-411c-a012-184d13faca5e"},"vehicle_type_id":"4","last_reported":1758733747,"current_range_meters":10800,"station_id":"ce4bgvh2rcd13ifvqcs0","pricing_plan_id":"cebpf4jnsgd1na2vs0mg"},{"bike_id":"a60abba9-f9b8-477b-8786-175fc2b6218b","system_id":"levelo_inurba_marseille","lat":43.30895,"lon":5.37168,"is_reserved":false,"is_disabled":false,"rental_uris":{"android":"levelo://app?vid=a60abba9-f9b8-477b-8786-175fc2b6218b","ios":"levelo://app?vid=a60abba9-f9b8-477b-8786-175fc2b6218b"},"vehicle_type_id":"4","last_reported":1758733747,"current_range_meters":10800,"station_id":"ce4bguh2rcd13ifvqckg","pricing_plan_id":"cebpf4jnsgd1na2vs0mg"},{"bike_id":"514b5fdb-f81d-41c3-afe2-e88866964916","system_id":"levelo_inurba_marseille","lat":43.25079,"lon":5.39521,"is_reserved":false,"is_disabled":true,"rental_uris":{"android":"levelo://app?vid=514b5fdb-f81d-41c3-afe2-e88866964916","ios":"levelo://app?vid=514b5fdb-f81d-41c3-afe2-e88866964916"},"vehicle_type_id":"4","last_reported":1758733747,"current_range_meters":10800,"station_id":"ce4bhm12rcd13ifvqgkg","pricing_plan_id":"cebpf4jnsgd1na2vs0mg"},{"bike_id":"a7fbcedc-5098-41a8-92d6-5a21e5d7501d","system_id":"levelo_inurba_marseille","lat":43.29931,"lon":5.3655,"is_reserved":false,"is_disabled":false,"rental_uris":{"android":"levelo://app?vid=a7fbcedc-5098-41a8-92d6-5a21e5d7501d","ios":"levelo://app?vid=a7fbcedc-5098-41a8-92d6-5a21e5d7501d"},"vehicle_type_id":"4","last_reported":1758733747,"current_range_meters":10800,"station_id":"ce4bgm92rcd13ifvqbr0","pricing_plan_id":"cebpf4jnsgd1na2vs0mg"},{"bike_id":"783e83c3-0a44-442c-b4a6-7fb83c3713c2","system_id":"levelo_inurba_marseille","lat":43.26565,"lon":5.39028,"is_reserved":false,"is_disabled":false,"rental_uris":{"android":"levelo://app?vid=783e83c3-0a44-442c-b4a6-7fb83c3713c2","ios":"levelo://app?vid=783e83c3-0a44-442c-b4a6-7fb83c3713c2"},"vehicle_type_id":"4","last_reported":1758733747,"current_range_meters":10800,"station_id":"ce4bhe12rcd13ifvqf30","pricing_plan_id":"cebpf4jnsgd1na2vs0mg"},{"bike_id":"9d0ea572-d8d9-422e-8550-511b657ce978","system_id":"levelo_inurba_marseille","lat":43.28703,"lon":5.37392,"is_reserved":false,"is_disabled":false,"rental_uris":{"android":"levelo://app?vid=9d0ea572-d8d9-422e-8550-511b657ce978","ios":"levelo://app?vid=9d0ea572-d8d9-422e-8550-511b657ce978"},"vehicle_type_id":"4","last_reported":1758733747,"current_range_meters":10800,"station_id":"ce4bh3p2rcd13ifvqdq0","pricing_plan_id":"cebpf4jnsgd1na2vs0mg"},{"bike_id":"883fb0f7-7a83-4082-9f15-a678921fcb1a","system_id":"levelo_inurba_marseille","lat":43.28932,"lon":5.36646,"is_reserved":false,"is_disabled":false,"rental_uris":{"android":"levelo://app?vid=883fb0f7-7a83-4082-9f15-a678921fcb1a","ios":"levelo://app?vid=883fb0f7-7a83-4082-9f15-a678921fcb1a"},"vehicle_type_id":"4","last_reported":1758733747,"current_range_meters":10800,"station_id":"ce4bhap2rcd13ifvqek0","pricing_plan_id":"cebpf4jnsgd1na2vs0mg"},{"bike_id":"64beb2e0-3d06-4723-9dd1-6eba47401cb3","system_id":"levelo_inurba_marseille","lat":43.292813,"lon":5.374652,"is_reserved":false,"is_disabled":false,"rental_uris":{"android":"levelo://app?vid=64beb2e0-3d06-4723-9dd1-6eba47401cb3","ios":"levelo://app?vid=64beb2e0-3d06-4723-9dd1-6eba47401cb3"},"vehicle_type_id":"4","last_reported":1758733747,"current_range_meters":11600,"station_id":"ce4bgi12rcd13ifvqb70","pricing_plan_id":"cebpf4jnsgd1na2vs0mg"},{"bike_id":"f051bd67-fe2f-4456-8da3-b16238fe7802","system_id":"levelo_inurba_marseille","lat":43.23182,"lon":5.39989,"is_reserved":false,"is_disabled":false,"rental_uris":{"android":"levelo://app?vid=f051bd67-fe2f-4456-8da3-b16238fe7802","ios":"levelo://app?vid=f051bd67-fe2f-4456-8da3-b16238fe7802"},"vehicle_type_id":"4","last_reported":1758733747,"current_range_meters":11600,"station_id":"ce4bhn12rcd13ifvqgqg","pricing_plan_id":"cebpf4jnsgd1na2vs0mg"},{"bike_id":"857e98b7-8f00-4aa2-9a3d-8e12533e32d7","system_id":"levelo_inurba_marseille","lat":43.289368,"lon":5.36644,"is_reserved":false,"is_disabled":false,"rental_uris":{"android":"levelo://app?vid=857e98b7-8f00-4aa2-9a3d-8e12533e32d7","ios":"levelo://app?vid=857e98b7-8f00-4aa2-9a3d-8e12533e32d7"},"vehicle_type_id":"4","last_reported":1758733747,"current_range_meters":11600,"station_id":"ce4bhap2rcd13ifvqek0","pricing_plan_id":"cebpf4jnsgd1na2vs0mg"},{"bike_id":"9feb0e0f-24fa-4463-b0f3-30472830c043","system_id":"levelo_inurba_marseille","lat":43.31757,"lon":5.39002,"is_reserved":false,"is_disabled":true,"rental_uris":{"android":"levelo://app?vid=9feb0e0f-24fa-4463-b0f3-30472830c043","ios":"levelo://app?vid=9feb0e0f-24fa-4463-b0f3-30472830c043"},"vehicle_type_id":"4","last_reported":1758733747,"current_range_meters":12000,"station_id":"ce4bhqp2rcd13ifvqhng","pricing_plan_id":"cebpf4jnsgd1na2vs0mg"},{"bike_id":"8c0227e3-55e8-4994-aa0c-9b6ee99b7e26","system_id":"levelo_inurba_marseille","lat":43.230541,"lon":5.354976,"is_reserved":false,"is_disabled":false,"rental_uris":{"android":"levelo://app?vid=8c0227e3-55e8-4994-aa0c-9b6ee99b7e26","ios":"levelo://app?vid=8c0227e3-55e8-4994-aa0c-9b6ee99b7e26"},"vehicle_type_id":"4","last_reported":1758733747,"current_range_meters":12000,"station_id":"cpo3342slgdg3j2ifvpg","pricing_plan_id":"cebpf4jnsgd1na2vs0mg"},{"bike_id":"b5097eea-9912-4be2-9cf9-14c224c5fab6","system_id":"levelo_inurba_marseille","lat":43.23191,"lon":5.35582,"is_reserved":false,"is_disabled":false,"rental_uris":{"android":"levelo://app?vid=b5097eea-9912-4be2-9cf9-14c224c5fab6","ios":"levelo://app?vid=b5097eea-9912-4be2-9cf9-14c224c5fab6"},"vehicle_type_id":"4","last_reported":1758733747,"current_range_meters":12000,"station_id":"ce4bhu92rcd13ifvqi70","pricing_plan_id":"cebpf4jnsgd1na2vs0mg"},{"bike_id":"95254af5-1a1a-44c4-bd59-e49fab883613","system_id":"levelo_inurba_marseille","lat":43.29532,"lon":5.38549,"is_reserved":false,"is_disabled":false,"rental_uris":{"android":"levelo://app?vid=95254af5-1a1a-44c4-bd59-e49fab883613","ios":"levelo://app?vid=95254af5-1a1a-44c4-bd59-e49fab883613"},"vehicle_type_id":"4","last_reported":1758733747,"current_range_meters":12000,"station_id":"ce4bgih2rcd13ifvqba0","pricing_plan_id":"cebpf4jnsgd1na2vs0mg"},{"bike_id":"ca94fb65-af34-414d-b9ea-54fe46a8afe6","system_id":"levelo_inurba_marseille","lat":43.33715,"lon":5.39196,"is_reserved":false,"is_disabled":false,"rental_uris":{"android":"levelo://app?vid=ca94fb65-af34-414d-b9ea-54fe46a8afe6","ios":"levelo://app?vid=ca94fb65-af34-414d-b9ea-54fe46a8afe6"},"vehicle_type_id":"4","last_reported":1758733747,"current_range_meters":12000,"station_id":"ce4bhr92rcd13ifvqhsg","pricing_plan_id":"cebpf4jnsgd1na2vs0mg"},{"bike_id":"2b142924-375d-48cb-93a3-16a1b9bf5e94","system_id":"levelo_inurba_marseille","lat":43.28597,"lon":5.35119,"is_reserved":false,"is_disabled":false,"rental_uris":{"android":"levelo://app?vid=2b142924-375d-48cb-93a3-16a1b9bf5e94","ios":"levelo://app?vid=2b142924-375d-48cb-93a3-16a1b9bf5e94"},"vehicle_type_id":"4","last_reported":1758733747,"current_range_meters":12000,"station_id":"ce4bhch2rcd13ifvqeug","pricing_plan_id":"cebpf4jnsgd1na2vs0mg"},{"bike_id":"a9b0ee19-731c-42a3-b00d-f6f07ea9949f","system_id":"levelo_inurba_marseille","lat":43.31356,"lon":5.38487,"is_reserved":false,"is_disabled":false,"rental_uris":{"android":"levelo://app?vid=a9b0ee19-731c-42a3-b00d-f6f07ea9949f","ios":"levelo://app?vid=a9b0ee19-731c-42a3-b00d-f6f07ea9949f"},"vehicle_type_id":"4","last_reported":1758733747,"current_range_meters":12000,"station_id":"ce4bgt92rcd13ifvqcf0","pricing_plan_id":"cebpf4jnsgd1na2vs0mg"},{"bike_id":"438ead59-de14-4fa0-a61d-03a70a4122ae","system_id":"levelo_inurba_marseille","lat":43.97269,"lon":4.89111,"is_reserved":false,"is_disabled":true,"rental_uris":{"android":"levelo://app?vid=438ead59-de14-4fa0-a61d-03a70a4122ae","ios":"levelo://app?vid=438ead59-de14-4fa0-a61d-03a70a4122ae"},"vehicle_type_id":"4","last_reported":1758733747,"current_range_meters":12000,"station_id":"","pricing_plan_id":"cebpf4jnsgd1na2vs0mg"},{"bike_id":"d810a946-3104-4875-b67c-12d9211665ea","system_id":"levelo_inurba_marseille","lat":43.258642,"lon":5.398899,"is_reserved":false,"is_disabled":false,"rental_uris":{"android":"levelo://app?vid=d810a946-3104-4875-b67c-12d9211665ea","ios":"levelo://app?vid=d810a946-3104-4875-b67c-12d9211665ea"},"vehicle_type_id":"4","last_reported":1758733747,"current_range_meters":12000,"station_id":"ce4bhl92rcd13ifvqghg","pricing_plan_id":"cebpf4jnsgd1na2vs0mg"},{"bike_id":"3d4d1dff-76c4-4e11-a3a1-9f75bd88fdd2","system_id":"levelo_inurba_marseille","lat":43.28154,"lon":5.42645,"is_reserved":false,"is_disabled":false,"rental_uris":{"android":"levelo://app?vid=3d4d1dff-76c4-4e11-a3a1-9f75bd88fdd2","ios":"levelo://app?vid=3d4d1dff-76c4-4e11-a3a1-9f75bd88fdd2"},"vehicle_type_id":"4","last_reported":1758733747,"current_range_meters":12400,"station_id":"ce4bhnh2rcd13ifvqgug","pricing_plan_id":"cebpf4jnsgd1na2vs0mg"},{"bike_id":"7981bd57-1a91-436b-8601-50130d20e8be","system_id":"levelo_inurba_marseille","lat":43.21174,"lon":5.35099,"is_reserved":false,"is_disabled":false,"rental_uris":{"android":"levelo://app?vid=7981bd57-1a91-436b-8601-50130d20e8be","ios":"levelo://app?vid=7981bd57-1a91-436b-8601-50130d20e8be"},"vehicle_type_id":"4","last_reported":1758733747,"current_range_meters":12400,"station_id":"st_cvj6sg6p6f1abm77japg","pricing_plan_id":"cebpf4jnsgd1na2vs0mg"},{"bike_id":"8c7fb638-aa89-4dc5-b652-77ceb015b905","system_id":"levelo_inurba_marseille","lat":43.24958,"lon":5.40507,"is_reserved":false,"is_disabled":false,"rental_uris":{"android":"levelo://app?vid=8c7fb638-aa89-4dc5-b652-77ceb015b905","ios":"levelo://app?vid=8c7fb638-aa89-4dc5-b652-77ceb015b905"},"vehicle_type_id":"4","last_reported":1758733747,"current_range_meters":12400,"station_id":"st_d2ngiaodas8pm72gd1h0","pricing_plan_id":"cebpf4jnsgd1na2vs0mg"},{"bike_id":"0d65c61f-55f0-470f-9891-b270083f110e","system_id":"levelo_inurba_marseille","lat":43.28421,"lon":5.35005,"is_reserved":false,"is_disabled":false,"rental_uris":{"android":"levelo://app?vid=0d65c61f-55f0-470f-9891-b270083f110e","ios":"levelo://app?vid=0d65c61f-55f0-470f-9891-b270083f110e"},"vehicle_type_id":"4","last_reported":1758733747,"current_range_meters":12400,"station_id":"ce4bhbh2rcd13ifvqepg","pricing_plan_id":"cebpf4jnsgd1na2vs0mg"},{"bike_id":"b36704e7-1b99-4f39-9f34-92a701c28c9f","system_id":"levelo_inurba_marseille","lat":43.31753,"lon":5.39025,"is_reserved":false,"is_disabled":false,"rental_uris":{"android":"levelo://app?vid=b36704e7-1b99-4f39-9f34-92a701c28c9f","ios":"levelo://app?vid=b36704e7-1b99-4f39-9f34-92a701c28c9f"},"vehicle_type_id":"4","last_reported":1758733747,"current_range_meters":12400,"station_id":"ce4bhqp2rcd13ifvqhng","pricing_plan_id":"cebpf4jnsgd1na2vs0mg"},{"bike_id":"f2fd1f0f-7e7d-4e57-8437-414e0d37c996","system_id":"levelo_inurba_marseille","lat":43.24804,"lon":5.37457,"is_reserved":false,"is_disabled":false,"rental_uris":{"android":"levelo://app?vid=f2fd1f0f-7e7d-4e57-8437-414e0d37c996","ios":"levelo://app?vid=f2fd1f0f-7e7d-4e57-8437-414e0d37c996"},"vehicle_type_id":"4","last_reported":1758733747,"current_range_meters":12400,"station_id":"ce4bhgh2rcd13ifvqfb0","pricing_plan_id":"cebpf4jnsgd1na2vs0mg"},{"bike_id":"06c10839-75c7-457b-804b-f341157fb4f3","system_id":"levelo_inurba_marseille","lat":43.25069,"lon":5.40461,"is_reserved":false,"is_disabled":false,"rental_uris":{"android":"levelo://app?vid=06c10839-75c7-457b-804b-f341157fb4f3","ios":"levelo://app?vid=06c10839-75c7-457b-804b-f341157fb4f3"},"vehicle_type_id":"4","last_reported":1758733747,"current_range_meters":12400,"station_id":"","pricing_plan_id":"cebpf4jnsgd1na2vs0mg"},{"bike_id":"c22802bd-ff90-4a6b-9003-c5058316e666","system_id":"levelo_inurba_marseille","lat":43.29041,"lon":5.35909,"is_reserved":false,"is_disabled":false,"rental_uris":{"android":"levelo://app?vid=c22802bd-ff90-4a6b-9003-c5058316e666","ios":"levelo://app?vid=c22802bd-ff90-4a6b-9003-c5058316e666"},"vehicle_type_id":"4","last_reported":1758733747,"current_range_meters":12400,"station_id":"ce4bha92rcd13ifvqeg0","pricing_plan_id":"cebpf4jnsgd1na2vs0mg"},{"bike_id":"89adce5a-7660-4555-95a9-fedf7e5f3109","system_id":"levelo_inurba_marseille","lat":43.27178,"lon":5.41011,"is_reserved":false,"is_disabled":false,"rental_uris":{"android":"levelo://app?vid=89adce5a-7660-4555-95a9-fedf7e5f3109","ios":"levelo://app?vid=89adce5a-7660-4555-95a9-fedf7e5f3109"},"vehicle_type_id":"4","last_reported":1758733747,"current_range_meters":12800,"station_id":"ce4bhl12rcd13ifvqgf0","pricing_plan_id":"cebpf4jnsgd1na2vs0mg"},{"bike_id":"0e903d02-ba09-44c0-8a32-a33014ce92be","system_id":"levelo_inurba_marseille","lat":43.26945,"lon":5.40265,"is_reserved":false,"is_disabled":false,"rental_uris":{"android":"levelo://app?vid=0e903d02-ba09-44c0-8a32-a33014ce92be","ios":"levelo://app?vid=0e903d02-ba09-44c0-8a32-a33014ce92be"},"vehicle_type_id":"4","last_reported":1758733747,"current_range_meters":12800,"station_id":"cjm6bp8fraef2m0cb0m0","pricing_plan_id":"cebpf4jnsgd1na2vs0mg"},{"bike_id":"b047061a-80fe-4f53-a37f-a97017dc2f10","system_id":"levelo_inurba_marseille","lat":43.2932,"lon":5.40801,"is_reserved":false,"is_disabled":true,"rental_uris":{"android":"levelo://app?vid=b047061a-80fe-4f53-a37f-a97017dc2f10","ios":"levelo://app?vid=b047061a-80fe-4f53-a37f-a97017dc2f10"},"vehicle_type_id":"4","last_reported":1758733747,"current_range_meters":12800,"station_id":"","pricing_plan_id":"cebpf4jnsgd1na2vs0mg"},{"bike_id":"73e8f26e-b1f8-489e-aa3d-450edc1c054c","system_id":"levelo_inurba_marseille","lat":43.28615,"lon":5.35107,"is_reserved":false,"is_disabled":false,"rental_uris":{"android":"levelo://app?vid=73e8f26e-b1f8-489e-aa3d-450edc1c054c","ios":"levelo://app?vid=73e8f26e-b1f8-489e-aa3d-450edc1c054c"},"vehicle_type_id":"4","last_reported":1758733747,"current_range_meters":12800,"station_id":"ce4bhch2rcd13ifvqeug","pricing_plan_id":"cebpf4jnsgd1na2vs0mg"},{"bike_id":"943f4a81-0a8c-43a3-b65e-eb7ef547a72c","system_id":"levelo_inurba_marseille","lat":43.2847,"lon":5.38429,"is_reserved":false,"is_disabled":true,"rental_uris":{"android":"levelo://app?vid=943f4a81-0a8c-43a3-b65e-eb7ef547a72c","ios":"levelo://app?vid=943f4a81-0a8c-43a3-b65e-eb7ef547a72c"},"vehicle_type_id":"4","last_reported":1758733747,"current_range_meters":12800,"station_id":"ce4bh512rcd13ifvqe3g","pricing_plan_id":"cebpf4jnsgd1na2vs0mg"},{"bike_id":"450844ba-2fc2-47be-9959-8fee61f07fb6","system_id":"levelo_inurba_marseille","lat":43.31741,"lon":5.39024,"is_reserved":false,"is_disabled":false,"rental_uris":{"android":"levelo://app?vid=450844ba-2fc2-47be-9959-8fee61f07fb6","ios":"levelo://app?vid=450844ba-2fc2-47be-9959-8fee61f07fb6"},"vehicle_type_id":"4","last_reported":1758733747,"current_range_meters":13600,"station_id":"ce4bhqp2rcd13ifvqhng","pricing_plan_id":"cebpf4jnsgd1na2vs0mg"},{"bike_id":"1221f52f-da48-4205-afc8-b6dd9d4b3e5e","system_id":"levelo_inurba_marseille","lat":43.25721,"lon":5.41106,"is_reserved":false,"is_disabled":true,"rental_uris":{"android":"levelo://app?vid=1221f52f-da48-4205-afc8-b6dd9d4b3e5e","ios":"levelo://app?vid=1221f52f-da48-4205-afc8-b6dd9d4b3e5e"},"vehicle_type_id":"4","last_reported":1758733747,"current_range_meters":13600,"station_id":"ce4bhkp2rcd13ifvqgd0","pricing_plan_id":"cebpf4jnsgd1na2vs0mg"},{"bike_id":"ef00c611-56e3-4d87-83a8-6fad9627913a","system_id":"levelo_inurba_marseille","lat":43.308894,"lon":5.371943,"is_reserved":false,"is_disabled":false,"rental_uris":{"android":"levelo://app?vid=ef00c611-56e3-4d87-83a8-6fad9627913a","ios":"levelo://app?vid=ef00c611-56e3-4d87-83a8-6fad9627913a"},"vehicle_type_id":"4","last_reported":1758733747,"current_range_meters":13600,"station_id":"ce4bguh2rcd13ifvqckg","pricing_plan_id":"cebpf4jnsgd1na2vs0mg"},{"bike_id":"d5748f11-c747-445a-ba16-03e2bc50ef5f","system_id":"levelo_inurba_marseille","lat":43.23185,"lon":5.39995,"is_reserved":false,"is_disabled":false,"rental_uris":{"android":"levelo://app?vid=d5748f11-c747-445a-ba16-03e2bc50ef5f","ios":"levelo://app?vid=d5748f11-c747-445a-ba16-03e2bc50ef5f"},"vehicle_type_id":"4","last_reported":1758733747,"current_range_meters":13600,"station_id":"ce4bhn12rcd13ifvqgqg","pricing_plan_id":"cebpf4jnsgd1na2vs0mg"},{"bike_id":"16d189f1-16f0-4f6e-a68e-19e9f2e9cfb9","system_id":"levelo_inurba_marseille","lat":43.31721,"lon":5.42401,"is_reserved":false,"is_disabled":false,"rental_uris":{"android":"levelo://app?vid=16d189f1-16f0-4f6e-a68e-19e9f2e9cfb9","ios":"levelo://app?vid=16d189f1-16f0-4f6e-a68e-19e9f2e9cfb9"},"vehicle_type_id":"4","last_reported":1758733747,"current_range_meters":13600,"station_id":"ce4bhp92rcd13ifvqhbg","pricing_plan_id":"cebpf4jnsgd1na2vs0mg"},{"bike_id":"4dbf695f-a09a-4cca-b281-eab8ff0ea5a9","system_id":"levelo_inurba_marseille","lat":43.31707,"lon":5.37753,"is_reserved":false,"is_disabled":false,"rental_uris":{"android":"levelo://app?vid=4dbf695f-a09a-4cca-b281-eab8ff0ea5a9","ios":"levelo://app?vid=4dbf695f-a09a-4cca-b281-eab8ff0ea5a9"},"vehicle_type_id":"4","last_reported":1758733747,"current_range_meters":13600,"station_id":"ce4bgth2rcd13ifvqch0","pricing_plan_id":"cebpf4jnsgd1na2vs0mg"},{"bike_id":"a851cae0-b395-441e-9dd1-21300baf3396","system_id":"levelo_inurba_marseille","lat":43.31529,"lon":5.38697,"is_reserved":false,"is_disabled":false,"rental_uris":{"android":"levelo://app?vid=a851cae0-b395-441e-9dd1-21300baf3396","ios":"levelo://app?vid=a851cae0-b395-441e-9dd1-21300baf3396"},"vehicle_type_id":"4","last_reported":1758733747,"current_range_meters":13600,"station_id":"","pricing_plan_id":"cebpf4jnsgd1na2vs0mg"},{"bike_id":"17f4cabe-6370-43bd-8d01-8eaf8f895cb9","system_id":"levelo_inurba_marseille","lat":43.2921,"lon":5.36046,"is_reserved":false,"is_disabled":false,"rental_uris":{"android":"levelo://app?vid=17f4cabe-6370-43bd-8d01-8eaf8f895cb9","ios":"levelo://app?vid=17f4cabe-6370-43bd-8d01-8eaf8f895cb9"},"vehicle_type_id":"4","last_reported":1758733747,"current_range_meters":13600,"station_id":"ce4bhbh2rcd13ifvqeqg","pricing_plan_id":"cebpf4jnsgd1na2vs0mg"},{"bike_id":"71c11d91-a929-47a4-9d23-ca3894d5888b","system_id":"levelo_inurba_marseille","lat":43.258241,"lon":5.39439,"is_reserved":false,"is_disabled":false,"rental_uris":{"android":"levelo://app?vid=71c11d91-a929-47a4-9d23-ca3894d5888b","ios":"levelo://app?vid=71c11d91-a929-47a4-9d23-ca3894d5888b"},"vehicle_type_id":"4","last_reported":1758733747,"current_range_meters":13600,"station_id":"ce4bhip2rcd13ifvqft0","pricing_plan_id":"cebpf4jnsgd1na2vs0mg"},{"bike_id":"36b070bb-df09-4433-b99c-aab79ada22d5","system_id":"levelo_inurba_marseille","lat":43.29287,"lon":5.3744,"is_reserved":false,"is_disabled":false,"rental_uris":{"android":"levelo://app?vid=36b070bb-df09-4433-b99c-aab79ada22d5","ios":"levelo://app?vid=36b070bb-df09-4433-b99c-aab79ada22d5"},"vehicle_type_id":"4","last_reported":1758733747,"current_range_meters":13600,"station_id":"","pricing_plan_id":"cebpf4jnsgd1na2vs0mg"},{"bike_id":"f9af076b-c426-46f0-97f6-f6a5a530c8e2","system_id":"levelo_inurba_marseille","lat":43.33738,"lon":5.37771,"is_reserved":false,"is_disabled":false,"rental_uris":{"android":"levelo://app?vid=f9af076b-c426-46f0-97f6-f6a5a530c8e2","ios":"levelo://app?vid=f9af076b-c426-46f0-97f6-f6a5a530c8e2"},"vehicle_type_id":"4","last_reported":1758733747,"current_range_meters":13600,"station_id":"","pricing_plan_id":"cebpf4jnsgd1na2vs0mg"},{"bike_id":"c6c20d77-28c0-43f2-81ac-aa7a915dcdc5","system_id":"levelo_inurba_marseille","lat":43.29029,"lon":5.386421,"is_reserved":false,"is_disabled":false,"rental_uris":{"android":"levelo://app?vid=c6c20d77-28c0-43f2-81ac-aa7a915dcdc5","ios":"levelo://app?vid=c6c20d77-28c0-43f2-81ac-aa7a915dcdc5"},"vehicle_type_id":"4","last_reported":1758733747,"current_range_meters":13600,"station_id":"ce4bh4p2rcd13ifvqe0g","pricing_plan_id":"cebpf4jnsgd1na2vs0mg"},{"bike_id":"f6793f22-c41d-4a17-ae1d-7e754188d21d","system_id":"levelo_inurba_marseille","lat":43.29565,"lon":5.39978,"is_reserved":false,"is_disabled":false,"rental_uris":{"android":"levelo://app?vid=f6793f22-c41d-4a17-ae1d-7e754188d21d","ios":"levelo://app?vid=f6793f22-c41d-4a17-ae1d-7e754188d21d"},"vehicle_type_id":"4","last_reported":1758733747,"current_range_meters":13600,"station_id":"ce4bh312rcd13ifvqdj0","pricing_plan_id":"cebpf4jnsgd1na2vs0mg"},{"bike_id":"fffe6328-6449-484c-9a88-3c0825ca541f","system_id":"levelo_inurba_marseille","lat":43.22937,"lon":5.3539,"is_reserved":false,"is_disabled":false,"rental_uris":{"android":"levelo://app?vid=fffe6328-6449-484c-9a88-3c0825ca541f","ios":"levelo://app?vid=fffe6328-6449-484c-9a88-3c0825ca541f"},"vehicle_type_id":"4","last_reported":1758733747,"current_range_meters":13600,"station_id":"cpo3532slgdg3j2ikp40","pricing_plan_id":"cebpf4jnsgd1na2vs0mg"},{"bike_id":"2d6ce3f3-cd68-44e2-a7d8-9cbe9dd3f41d","system_id":"levelo_inurba_marseille","lat":43.27959,"lon":5.38751,"is_reserved":false,"is_disabled":false,"rental_uris":{"android":"levelo://app?vid=2d6ce3f3-cd68-44e2-a7d8-9cbe9dd3f41d","ios":"levelo://app?vid=2d6ce3f3-cd68-44e2-a7d8-9cbe9dd3f41d"},"vehicle_type_id":"4","last_reported":1758733747,"current_range_meters":13600,"station_id":"ce4bhg12rcd13ifvqf80","pricing_plan_id":"cebpf4jnsgd1na2vs0mg"},{"bike_id":"e9786e00-43b0-44e7-89b7-07ba68ba4410","system_id":"levelo_inurba_marseille","lat":43.272163,"lon":5.391706,"is_reserved":false,"is_disabled":false,"rental_uris":{"android":"levelo://app?vid=e9786e00-43b0-44e7-89b7-07ba68ba4410","ios":"levelo://app?vid=e9786e00-43b0-44e7-89b7-07ba68ba4410"},"vehicle_type_id":"4","last_reported":1758733747,"current_range_meters":14000,"station_id":"","pricing_plan_id":"cebpf4jnsgd1na2vs0mg"},{"bike_id":"e3f31ecd-97a4-40e2-acc1-667007ddf35b","system_id":"levelo_inurba_marseille","lat":43.29787,"lon":5.40405,"is_reserved":false,"is_disabled":false,"rental_uris":{"android":"levelo://app?vid=e3f31ecd-97a4-40e2-acc1-667007ddf35b","ios":"levelo://app?vid=e3f31ecd-97a4-40e2-acc1-667007ddf35b"},"vehicle_type_id":"4","last_reported":1758733747,"current_range_meters":14000,"station_id":"ce4bh112rcd13ifvqd90","pricing_plan_id":"cebpf4jnsgd1na2vs0mg"},{"bike_id":"a453e3fc-8a17-4ca5-91df-a7c79ccc7a7b","system_id":"levelo_inurba_marseille","lat":43.26785,"lon":5.39416,"is_reserved":false,"is_disabled":false,"rental_uris":{"android":"levelo://app?vid=a453e3fc-8a17-4ca5-91df-a7c79ccc7a7b","ios":"levelo://app?vid=a453e3fc-8a17-4ca5-91df-a7c79ccc7a7b"},"vehicle_type_id":"4","last_reported":1758733747,"current_range_meters":14000,"station_id":"ce4bhh12rcd13ifvqfg0","pricing_plan_id":"cebpf4jnsgd1na2vs0mg"},{"bike_id":"4396e32e-5bce-460e-afc1-04705a21d047","system_id":"levelo_inurba_marseille","lat":43.2418,"lon":5.39737,"is_reserved":false,"is_disabled":false,"rental_uris":{"android":"levelo://app?vid=4396e32e-5bce-460e-afc1-04705a21d047","ios":"levelo://app?vid=4396e32e-5bce-460e-afc1-04705a21d047"},"vehicle_type_id":"4","last_reported":1758733747,"current_range_meters":14000,"station_id":"ce4bhn12rcd13ifvqgpg","pricing_plan_id":"cebpf4jnsgd1na2vs0mg"},{"bike_id":"a8261689-3c12-4571-94b2-18638cb1ea42","system_id":"levelo_inurba_marseille","lat":43.29534,"lon":5.39386,"is_reserved":false,"is_disabled":false,"rental_uris":{"android":"levelo://app?vid=a8261689-3c12-4571-94b2-18638cb1ea42","ios":"levelo://app?vid=a8261689-3c12-4571-94b2-18638cb1ea42"},"vehicle_type_id":"4","last_reported":1758733747,"current_range_meters":14000,"station_id":"ce4bh292rcd13ifvqdf0","pricing_plan_id":"cebpf4jnsgd1na2vs0mg"},{"bike_id":"072df216-54bf-4c27-b5ba-ef1384733e8b","system_id":"levelo_inurba_marseille","lat":43.2582,"lon":5.39448,"is_reserved":false,"is_disabled":false,"rental_uris":{"android":"levelo://app?vid=072df216-54bf-4c27-b5ba-ef1384733e8b","ios":"levelo://app?vid=072df216-54bf-4c27-b5ba-ef1384733e8b"},"vehicle_type_id":"4","last_reported":1758733747,"current_range_meters":14400,"station_id":"ce4bhip2rcd13ifvqft0","pricing_plan_id":"cebpf4jnsgd1na2vs0mg"},{"bike_id":"43e47591-f024-4ffd-a137-849fa8ef87bf","system_id":"levelo_inurba_marseille","lat":43.29537,"lon":5.38547,"is_reserved":false,"is_disabled":false,"rental_uris":{"android":"levelo://app?vid=43e47591-f024-4ffd-a137-849fa8ef87bf","ios":"levelo://app?vid=43e47591-f024-4ffd-a137-849fa8ef87bf"},"vehicle_type_id":"4","last_reported":1758733747,"current_range_meters":14400,"station_id":"ce4bgih2rcd13ifvqba0","pricing_plan_id":"cebpf4jnsgd1na2vs0mg"},{"bike_id":"b1777783-1412-43ab-9462-84d709462fc0","system_id":"levelo_inurba_marseille","lat":43.29196,"lon":5.35811,"is_reserved":false,"is_disabled":false,"rental_uris":{"android":"levelo://app?vid=b1777783-1412-43ab-9462-84d709462fc0","ios":"levelo://app?vid=b1777783-1412-43ab-9462-84d709462fc0"},"vehicle_type_id":"4","last_reported":1758733747,"current_range_meters":14400,"station_id":"ce4bhb12rcd13ifvqel0","pricing_plan_id":"cebpf4jnsgd1na2vs0mg"},{"bike_id":"4bd93fcc-93d8-4316-8039-aa3e062204c0","system_id":"levelo_inurba_marseille","lat":43.288564,"lon":5.35846,"is_reserved":false,"is_disabled":false,"rental_uris":{"android":"levelo://app?vid=4bd93fcc-93d8-4316-8039-aa3e062204c0","ios":"levelo://app?vid=4bd93fcc-93d8-4316-8039-aa3e062204c0"},"vehicle_type_id":"4","last_reported":1758733747,"current_range_meters":14000,"station_id":"ce4bhb12rcd13ifvqem0","pricing_plan_id":"cebpf4jnsgd1na2vs0mg"},{"bike_id":"21a23fb5-d051-4ee2-9c58-8985930c04d5","system_id":"levelo_inurba_marseille","lat":43.28413,"lon":5.37518,"is_reserved":false,"is_disabled":false,"rental_uris":{"android":"levelo://app?vid=21a23fb5-d051-4ee2-9c58-8985930c04d5","ios":"levelo://app?vid=21a23fb5-d051-4ee2-9c58-8985930c04d5"},"vehicle_type_id":"4","last_reported":1758733747,"current_range_meters":14400,"station_id":"ce4bh412rcd13ifvqds0","pricing_plan_id":"cebpf4jnsgd1na2vs0mg"},{"bike_id":"bb115cd4-e9e7-4303-9f18-b1cb214cded5","system_id":"levelo_inurba_marseille","lat":43.23963,"lon":5.36627,"is_reserved":false,"is_disabled":false,"rental_uris":{"android":"levelo://app?vid=bb115cd4-e9e7-4303-9f18-b1cb214cded5","ios":"levelo://app?vid=bb115cd4-e9e7-4303-9f18-b1cb214cded5"},"vehicle_type_id":"4","last_reported":1758733747,"current_range_meters":14400,"station_id":"ce4bhi12rcd13ifvqfp0","pricing_plan_id":"cebpf4jnsgd1na2vs0mg"},{"bike_id":"1f470be8-cb14-4907-8c4a-4e772c71123f","system_id":"levelo_inurba_marseille","lat":43.284271,"lon":5.39197,"is_reserved":false,"is_disabled":false,"rental_uris":{"android":"levelo://app?vid=1f470be8-cb14-4907-8c4a-4e772c71123f","ios":"levelo://app?vid=1f470be8-cb14-4907-8c4a-4e772c71123f"},"vehicle_type_id":"4","last_reported":1758733747,"current_range_meters":14800,"station_id":"ce4bhoh2rcd13ifvqh5g","pricing_plan_id":"cebpf4jnsgd1na2vs0mg"},{"bike_id":"fffc8e40-8006-4ff6-bb45-d05b53442d3a","system_id":"levelo_inurba_marseille","lat":43.2884,"lon":5.39312,"is_reserved":false,"is_disabled":false,"rental_uris":{"android":"levelo://app?vid=fffc8e40-8006-4ff6-bb45-d05b53442d3a","ios":"levelo://app?vid=fffc8e40-8006-4ff6-bb45-d05b53442d3a"},"vehicle_type_id":"4","last_reported":1758733747,"current_range_meters":14400,"station_id":"ce4bh2p2rcd13ifvqdi0","pricing_plan_id":"cebpf4jnsgd1na2vs0mg"},{"bike_id":"a21b1f60-d422-4070-be93-6b7e08d93542","system_id":"levelo_inurba_marseille","lat":43.3095,"lon":5.40652,"is_reserved":false,"is_disabled":false,"rental_uris":{"android":"levelo://app?vid=a21b1f60-d422-4070-be93-6b7e08d93542","ios":"levelo://app?vid=a21b1f60-d422-4070-be93-6b7e08d93542"},"vehicle_type_id":"4","last_reported":1758733747,"current_range_meters":14800,"station_id":"","pricing_plan_id":"cebpf4jnsgd1na2vs0mg"},{"bike_id":"d9e1888b-5c06-4823-924b-a03611151086","system_id":"levelo_inurba_marseille","lat":43.28623,"lon":5.35104,"is_reserved":false,"is_disabled":false,"rental_uris":{"android":"levelo://app?vid=d9e1888b-5c06-4823-924b-a03611151086","ios":"levelo://app?vid=d9e1888b-5c06-4823-924b-a03611151086"},"vehicle_type_id":"4","last_reported":1758733747,"current_range_meters":14800,"station_id":"ce4bhch2rcd13ifvqeug","pricing_plan_id":"cebpf4jnsgd1na2vs0mg"},{"bike_id":"3cb1dae7-6bcd-41e5-b1b7-c1d25c751a99","system_id":"levelo_inurba_marseille","lat":43.337594,"lon":5.374419,"is_reserved":false,"is_disabled":false,"rental_uris":{"android":"levelo://app?vid=3cb1dae7-6bcd-41e5-b1b7-c1d25c751a99","ios":"levelo://app?vid=3cb1dae7-6bcd-41e5-b1b7-c1d25c751a99"},"vehicle_type_id":"4","last_reported":1758733747,"current_range_meters":14800,"station_id":"","pricing_plan_id":"cebpf4jnsgd1na2vs0mg"},{"bike_id":"57b14c92-2a17-45b3-beb1-cbb460ef441b","system_id":"levelo_inurba_marseille","lat":43.23185,"lon":5.39998,"is_reserved":false,"is_disabled":false,"rental_uris":{"android":"levelo://app?vid=57b14c92-2a17-45b3-beb1-cbb460ef441b","ios":"levelo://app?vid=57b14c92-2a17-45b3-beb1-cbb460ef441b"},"vehicle_type_id":"4","last_reported":1758733747,"current_range_meters":14800,"station_id":"ce4bhn12rcd13ifvqgqg","pricing_plan_id":"cebpf4jnsgd1na2vs0mg"},{"bike_id":"bf1244d3-d7e7-45bd-8580-d0cbc34b36e3","system_id":"levelo_inurba_marseille","lat":43.2256,"lon":5.41638,"is_reserved":false,"is_disabled":false,"rental_uris":{"android":"levelo://app?vid=bf1244d3-d7e7-45bd-8580-d0cbc34b36e3","ios":"levelo://app?vid=bf1244d3-d7e7-45bd-8580-d0cbc34b36e3"},"vehicle_type_id":"4","last_reported":1758733747,"current_range_meters":14800,"station_id":"st_d2o4gvlbi1j2169b742g","pricing_plan_id":"cebpf4jnsgd1na2vs0mg"},{"bike_id":"e1f6ea02-3dcd-4760-958d-a4be47a2bc76","system_id":"levelo_inurba_marseille","lat":43.24649,"lon":5.38899,"is_reserved":false,"is_disabled":false,"rental_uris":{"android":"levelo://app?vid=e1f6ea02-3dcd-4760-958d-a4be47a2bc76","ios":"levelo://app?vid=e1f6ea02-3dcd-4760-958d-a4be47a2bc76"},"vehicle_type_id":"4","last_reported":1758733747,"current_range_meters":14800,"station_id":"ce4bhg12rcd13ifvqf60","pricing_plan_id":"cebpf4jnsgd1na2vs0mg"},{"bike_id":"46cc187e-9ca5-4e2b-b171-b791e38dc40f","system_id":"levelo_inurba_marseille","lat":43.30604,"lon":5.3939,"is_reserved":false,"is_disabled":false,"rental_uris":{"android":"levelo://app?vid=46cc187e-9ca5-4e2b-b171-b791e38dc40f","ios":"levelo://app?vid=46cc187e-9ca5-4e2b-b171-b791e38dc40f"},"vehicle_type_id":"4","last_reported":1758733747,"current_range_meters":14800,"station_id":"ce4bh0p2rcd13ifvqd80","pricing_plan_id":"cebpf4jnsgd1na2vs0mg"},{"bike_id":"1e45b8ac-ec94-4b58-9ff8-f13f0438c2ca","system_id":"levelo_inurba_marseille","lat":43.289358,"lon":5.38735,"is_reserved":false,"is_disabled":false,"rental_uris":{"android":"levelo://app?vid=1e45b8ac-ec94-4b58-9ff8-f13f0438c2ca","ios":"levelo://app?vid=1e45b8ac-ec94-4b58-9ff8-f13f0438c2ca"},"vehicle_type_id":"4","last_reported":1758733747,"current_range_meters":14800,"station_id":"ce4bh4p2rcd13ifvqe0g","pricing_plan_id":"cebpf4jnsgd1na2vs0mg"},{"bike_id":"1f245d0b-a243-4473-a434-d74cae53f5e3","system_id":"levelo_inurba_marseille","lat":43.32098,"lon":5.3681,"is_reserved":false,"is_disabled":false,"rental_uris":{"android":"levelo://app?vid=1f245d0b-a243-4473-a434-d74cae53f5e3","ios":"levelo://app?vid=1f245d0b-a243-4473-a434-d74cae53f5e3"},"vehicle_type_id":"4","last_reported":1758733747,"current_range_meters":14800,"station_id":"ce4bhrh2rcd13ifvqhug","pricing_plan_id":"cebpf4jnsgd1na2vs0mg"},{"bike_id":"42d22dad-0a9d-4ec1-b43e-5dfe53a5d83c","system_id":"levelo_inurba_marseille","lat":43.27148,"lon":5.40988,"is_reserved":false,"is_disabled":false,"rental_uris":{"android":"levelo://app?vid=42d22dad-0a9d-4ec1-b43e-5dfe53a5d83c","ios":"levelo://app?vid=42d22dad-0a9d-4ec1-b43e-5dfe53a5d83c"},"vehicle_type_id":"4","last_reported":1758733747,"current_range_meters":14800,"station_id":"ce4bhl12rcd13ifvqgf0","pricing_plan_id":"cebpf4jnsgd1na2vs0mg"},{"bike_id":"dfba7c26-eeb0-4e90-87df-1b9f9d9103ac","system_id":"levelo_inurba_marseille","lat":43.30209,"lon":5.3948,"is_reserved":false,"is_disabled":false,"rental_uris":{"android":"levelo://app?vid=dfba7c26-eeb0-4e90-87df-1b9f9d9103ac","ios":"levelo://app?vid=dfba7c26-eeb0-4e90-87df-1b9f9d9103ac"},"vehicle_type_id":"4","last_reported":1758733747,"current_range_meters":14800,"station_id":"ce4bh0p2rcd13ifvqd70","pricing_plan_id":"cebpf4jnsgd1na2vs0mg"},{"bike_id":"3a319be7-fef3-40df-96fe-6bdc37dc7081","system_id":"levelo_inurba_marseille","lat":43.28085,"lon":5.37864,"is_reserved":false,"is_disabled":false,"rental_uris":{"android":"levelo://app?vid=3a319be7-fef3-40df-96fe-6bdc37dc7081","ios":"levelo://app?vid=3a319be7-fef3-40df-96fe-6bdc37dc7081"},"vehicle_type_id":"4","last_reported":1758733747,"current_range_meters":14800,"station_id":"ce4bha12rcd13ifvqee0","pricing_plan_id":"cebpf4jnsgd1na2vs0mg"},{"bike_id":"e19472f1-87e0-4943-97f3-e785d2a10054","system_id":"levelo_inurba_marseille","lat":43.28862,"lon":5.42538,"is_reserved":false,"is_disabled":false,"rental_uris":{"android":"levelo://app?vid=e19472f1-87e0-4943-97f3-e785d2a10054","ios":"levelo://app?vid=e19472f1-87e0-4943-97f3-e785d2a10054"},"vehicle_type_id":"4","last_reported":1758733747,"current_range_meters":14800,"station_id":"","pricing_plan_id":"cebpf4jnsgd1na2vs0mg"},{"bike_id":"528c3ca2-6e69-4088-b13a-99bd3c7e415f","system_id":"levelo_inurba_marseille","lat":43.23179,"lon":5.39983,"is_reserved":false,"is_disabled":false,"rental_uris":{"android":"levelo://app?vid=528c3ca2-6e69-4088-b13a-99bd3c7e415f","ios":"levelo://app?vid=528c3ca2-6e69-4088-b13a-99bd3c7e415f"},"vehicle_type_id":"4","last_reported":1758733747,"current_range_meters":14800,"station_id":"ce4bhn12rcd13ifvqgqg","pricing_plan_id":"cebpf4jnsgd1na2vs0mg"},{"bike_id":"16cee2f9-0604-4f00-85ee-c5690b0410f0","system_id":"levelo_inurba_marseille","lat":43.28614,"lon":5.35129,"is_reserved":false,"is_disabled":false,"rental_uris":{"android":"levelo://app?vid=16cee2f9-0604-4f00-85ee-c5690b0410f0","ios":"levelo://app?vid=16cee2f9-0604-4f00-85ee-c5690b0410f0"},"vehicle_type_id":"4","last_reported":1758733747,"current_range_meters":14800,"station_id":"ce4bhch2rcd13ifvqeug","pricing_plan_id":"cebpf4jnsgd1na2vs0mg"},{"bike_id":"771c54fe-d561-4450-b1c7-305c8ee7a900","system_id":"levelo_inurba_marseille","lat":43.31726,"lon":5.42401,"is_reserved":false,"is_disabled":false,"rental_uris":{"android":"levelo://app?vid=771c54fe-d561-4450-b1c7-305c8ee7a900","ios":"levelo://app?vid=771c54fe-d561-4450-b1c7-305c8ee7a900"},"vehicle_type_id":"4","last_reported":1758733747,"current_range_meters":14400,"station_id":"ce4bhp92rcd13ifvqhbg","pricing_plan_id":"cebpf4jnsgd1na2vs0mg"},{"bike_id":"16114541-6286-4a1b-ab82-59b23a722078","system_id":"levelo_inurba_marseille","lat":43.26942,"lon":5.40248,"is_reserved":false,"is_disabled":false,"rental_uris":{"android":"levelo://app?vid=16114541-6286-4a1b-ab82-59b23a722078","ios":"levelo://app?vid=16114541-6286-4a1b-ab82-59b23a722078"},"vehicle_type_id":"4","last_reported":1758733747,"current_range_meters":15200,"station_id":"cjm6bp8fraef2m0cb0m0","pricing_plan_id":"cebpf4jnsgd1na2vs0mg"},{"bike_id":"fdeceffa-f1e2-41cd-a6bf-93e15f788f72","system_id":"levelo_inurba_marseille","lat":43.271734,"lon":5.409929,"is_reserved":false,"is_disabled":false,"rental_uris":{"android":"levelo://app?vid=fdeceffa-f1e2-41cd-a6bf-93e15f788f72","ios":"levelo://app?vid=fdeceffa-f1e2-41cd-a6bf-93e15f788f72"},"vehicle_type_id":"4","last_reported":1758733747,"current_range_meters":15200,"station_id":"ce4bhl12rcd13ifvqgf0","pricing_plan_id":"cebpf4jnsgd1na2vs0mg"},{"bike_id":"5fac851a-2434-4b21-9da4-fa446814fa18","system_id":"levelo_inurba_marseille","lat":43.28152,"lon":5.4265,"is_reserved":false,"is_disabled":false,"rental_uris":{"android":"levelo://app?vid=5fac851a-2434-4b21-9da4-fa446814fa18","ios":"levelo://app?vid=5fac851a-2434-4b21-9da4-fa446814fa18"},"vehicle_type_id":"4","last_reported":1758733747,"current_range_meters":15200,"station_id":"ce4bhnh2rcd13ifvqgug","pricing_plan_id":"cebpf4jnsgd1na2vs0mg"},{"bike_id":"50c03ce7-6089-4ca2-9f23-f4c8c568a597","system_id":"levelo_inurba_marseille","lat":43.33786,"lon":5.37432,"is_reserved":false,"is_disabled":false,"rental_uris":{"android":"levelo://app?vid=50c03ce7-6089-4ca2-9f23-f4c8c568a597","ios":"levelo://app?vid=50c03ce7-6089-4ca2-9f23-f4c8c568a597"},"vehicle_type_id":"4","last_reported":1758733747,"current_range_meters":15200,"station_id":"","pricing_plan_id":"cebpf4jnsgd1na2vs0mg"},{"bike_id":"531ec300-0021-4a05-959a-1f40dafbc1e3","system_id":"levelo_inurba_marseille","lat":43.23151,"lon":5.4371,"is_reserved":false,"is_disabled":false,"rental_uris":{"android":"levelo://app?vid=531ec300-0021-4a05-959a-1f40dafbc1e3","ios":"levelo://app?vid=531ec300-0021-4a05-959a-1f40dafbc1e3"},"vehicle_type_id":"4","last_reported":1758733747,"current_range_meters":15200,"station_id":"ce4bhmp2rcd13ifvqgog","pricing_plan_id":"cebpf4jnsgd1na2vs0mg"},{"bike_id":"c7f6a08b-c655-4213-b2ba-7d02e7f382fe","system_id":"levelo_inurba_marseille","lat":43.27988,"lon":5.39483,"is_reserved":false,"is_disabled":false,"rental_uris":{"android":"levelo://app?vid=c7f6a08b-c655-4213-b2ba-7d02e7f382fe","ios":"levelo://app?vid=c7f6a08b-c655-4213-b2ba-7d02e7f382fe"},"vehicle_type_id":"4","last_reported":1758733747,"current_range_meters":15200,"station_id":"","pricing_plan_id":"cebpf4jnsgd1na2vs0mg"},{"bike_id":"9c69f94f-bbc9-4a2c-bc3e-3eac571c4823","system_id":"levelo_inurba_marseille","lat":43.27952,"lon":5.36334,"is_reserved":false,"is_disabled":false,"rental_uris":{"android":"levelo://app?vid=9c69f94f-bbc9-4a2c-bc3e-3eac571c4823","ios":"levelo://app?vid=9c69f94f-bbc9-4a2c-bc3e-3eac571c4823"},"vehicle_type_id":"4","last_reported":1758733747,"current_range_meters":15200,"station_id":"","pricing_plan_id":"cebpf4jnsgd1na2vs0mg"},{"bike_id":"486abade-dd76-4cb8-828f-1a286c8b56d7","system_id":"levelo_inurba_marseille","lat":43.295772,"lon":5.367429,"is_reserved":false,"is_disabled":false,"rental_uris":{"android":"levelo://app?vid=486abade-dd76-4cb8-828f-1a286c8b56d7","ios":"levelo://app?vid=486abade-dd76-4cb8-828f-1a286c8b56d7"},"vehicle_type_id":"4","last_reported":1758733747,"current_range_meters":16000,"station_id":"","pricing_plan_id":"cebpf4jnsgd1na2vs0mg"},{"bike_id":"b30f4b50-2723-49ef-b46d-aaf286923f2e","system_id":"levelo_inurba_marseille","lat":43.29037,"lon":5.35722,"is_reserved":false,"is_disabled":false,"rental_uris":{"android":"levelo://app?vid=b30f4b50-2723-49ef-b46d-aaf286923f2e","ios":"levelo://app?vid=b30f4b50-2723-49ef-b46d-aaf286923f2e"},"vehicle_type_id":"4","last_reported":1758733747,"current_range_meters":16000,"station_id":"ce4bhb92rcd13ifvqen0","pricing_plan_id":"cebpf4jnsgd1na2vs0mg"},{"bike_id":"8eae954c-dab6-4303-94f5-569e1c483f62","system_id":"levelo_inurba_marseille","lat":43.29442,"lon":5.4074,"is_reserved":false,"is_disabled":false,"rental_uris":{"android":"levelo://app?vid=8eae954c-dab6-4303-94f5-569e1c483f62","ios":"levelo://app?vid=8eae954c-dab6-4303-94f5-569e1c483f62"},"vehicle_type_id":"4","last_reported":1758733747,"current_range_meters":16000,"station_id":"","pricing_plan_id":"cebpf4jnsgd1na2vs0mg"},{"bike_id":"0e9ca394-4351-4bf8-a641-f4e5215baf20","system_id":"levelo_inurba_marseille","lat":43.282695,"lon":5.350602,"is_reserved":false,"is_disabled":false,"rental_uris":{"android":"levelo://app?vid=0e9ca394-4351-4bf8-a641-f4e5215baf20","ios":"levelo://app?vid=0e9ca394-4351-4bf8-a641-f4e5215baf20"},"vehicle_type_id":"4","last_reported":1758733747,"current_range_meters":16000,"station_id":"ce4bhbp2rcd13ifvqerg","pricing_plan_id":"cebpf4jnsgd1na2vs0mg"},{"bike_id":"002673c7-e49b-40c2-82da-6cf2f4393eb8","system_id":"levelo_inurba_marseille","lat":43.30452,"lon":5.37922,"is_reserved":false,"is_disabled":true,"rental_uris":{"android":"levelo://app?vid=002673c7-e49b-40c2-82da-6cf2f4393eb8","ios":"levelo://app?vid=002673c7-e49b-40c2-82da-6cf2f4393eb8"},"vehicle_type_id":"4","last_reported":1758733747,"current_range_meters":16000,"station_id":"ce4bgup2rcd13ifvqcn0","pricing_plan_id":"cebpf4jnsgd1na2vs0mg"},{"bike_id":"129c8450-4cca-4e9f-b9f6-538b0080ad49","system_id":"levelo_inurba_marseille","lat":43.32551,"lon":5.38893,"is_reserved":false,"is_disabled":false,"rental_uris":{"android":"levelo://app?vid=129c8450-4cca-4e9f-b9f6-538b0080ad49","ios":"levelo://app?vid=129c8450-4cca-4e9f-b9f6-538b0080ad49"},"vehicle_type_id":"4","last_reported":1758733747,"current_range_meters":16000,"station_id":"","pricing_plan_id":"cebpf4jnsgd1na2vs0mg"},{"bike_id":"d250dc3e-3a39-47f7-9329-06e57ab49830","system_id":"levelo_inurba_marseille","lat":43.28353,"lon":5.38092,"is_reserved":false,"is_disabled":false,"rental_uris":{"android":"levelo://app?vid=d250dc3e-3a39-47f7-9329-06e57ab49830","ios":"levelo://app?vid=d250dc3e-3a39-47f7-9329-06e57ab49830"},"vehicle_type_id":"4","last_reported":1758733747,"current_range_meters":16000,"station_id":"ce4bh412rcd13ifvqdr0","pricing_plan_id":"cebpf4jnsgd1na2vs0mg"},{"bike_id":"c4a453ea-d676-481a-afd5-8d9efaa19bc5","system_id":"levelo_inurba_marseille","lat":43.29046,"lon":5.35914,"is_reserved":false,"is_disabled":false,"rental_uris":{"android":"levelo://app?vid=c4a453ea-d676-481a-afd5-8d9efaa19bc5","ios":"levelo://app?vid=c4a453ea-d676-481a-afd5-8d9efaa19bc5"},"vehicle_type_id":"4","last_reported":1758733747,"current_range_meters":16000,"station_id":"ce4bha92rcd13ifvqeg0","pricing_plan_id":"cebpf4jnsgd1na2vs0mg"},{"bike_id":"9cf59baa-602a-4911-9228-3f705e0e6c5f","system_id":"levelo_inurba_marseille","lat":43.28694,"lon":5.38671,"is_reserved":false,"is_disabled":false,"rental_uris":{"android":"levelo://app?vid=9cf59baa-602a-4911-9228-3f705e0e6c5f","ios":"levelo://app?vid=9cf59baa-602a-4911-9228-3f705e0e6c5f"},"vehicle_type_id":"4","last_reported":1758733747,"current_range_meters":16000,"station_id":"ce4bh492rcd13ifvqdug","pricing_plan_id":"cebpf4jnsgd1na2vs0mg"},{"bike_id":"f9efb42f-e0ef-4a8a-aff3-17424ca395a4","system_id":"levelo_inurba_marseille","lat":43.28248,"lon":5.35061,"is_reserved":false,"is_disabled":false,"rental_uris":{"android":"levelo://app?vid=f9efb42f-e0ef-4a8a-aff3-17424ca395a4","ios":"levelo://app?vid=f9efb42f-e0ef-4a8a-aff3-17424ca395a4"},"vehicle_type_id":"4","last_reported":1758733747,"current_range_meters":16000,"station_id":"ce4bhbp2rcd13ifvqerg","pricing_plan_id":"cebpf4jnsgd1na2vs0mg"},{"bike_id":"0334c664-c853-4f38-a46f-30751b2874a4","system_id":"levelo_inurba_marseille","lat":43.2903,"lon":5.35931,"is_reserved":false,"is_disabled":true,"rental_uris":{"android":"levelo://app?vid=0334c664-c853-4f38-a46f-30751b2874a4","ios":"levelo://app?vid=0334c664-c853-4f38-a46f-30751b2874a4"},"vehicle_type_id":"4","last_reported":1758733747,"current_range_meters":16400,"station_id":"ce4bha92rcd13ifvqeg0","pricing_plan_id":"cebpf4jnsgd1na2vs0mg"},{"bike_id":"6ce97256-6e29-4ee4-b817-ac92bdd5aea1","system_id":"levelo_inurba_marseille","lat":43.22534,"lon":5.34835,"is_reserved":false,"is_disabled":false,"rental_uris":{"android":"levelo://app?vid=6ce97256-6e29-4ee4-b817-ac92bdd5aea1","ios":"levelo://app?vid=6ce97256-6e29-4ee4-b817-ac92bdd5aea1"},"vehicle_type_id":"4","last_reported":1758733747,"current_range_meters":16400,"station_id":"","pricing_plan_id":"cebpf4jnsgd1na2vs0mg"},{"bike_id":"eaf255bc-a98b-48df-81d8-ccd161a483c4","system_id":"levelo_inurba_marseille","lat":43.31355,"lon":5.38493,"is_reserved":false,"is_disabled":false,"rental_uris":{"android":"levelo://app?vid=eaf255bc-a98b-48df-81d8-ccd161a483c4","ios":"levelo://app?vid=eaf255bc-a98b-48df-81d8-ccd161a483c4"},"vehicle_type_id":"4","last_reported":1758733747,"current_range_meters":16400,"station_id":"ce4bgt92rcd13ifvqcf0","pricing_plan_id":"cebpf4jnsgd1na2vs0mg"},{"bike_id":"d2be082e-bd73-4203-addb-18871b3a9587","system_id":"levelo_inurba_marseille","lat":43.29411,"lon":5.3748,"is_reserved":false,"is_disabled":false,"rental_uris":{"android":"levelo://app?vid=d2be082e-bd73-4203-addb-18871b3a9587","ios":"levelo://app?vid=d2be082e-bd73-4203-addb-18871b3a9587"},"vehicle_type_id":"4","last_reported":1758733747,"current_range_meters":16400,"station_id":"","pricing_plan_id":"cebpf4jnsgd1na2vs0mg"},{"bike_id":"ad9a6248-1b43-4fc5-bfba-44f7d3067aab","system_id":"levelo_inurba_marseille","lat":43.21188,"lon":5.35086,"is_reserved":false,"is_disabled":false,"rental_uris":{"android":"levelo://app?vid=ad9a6248-1b43-4fc5-bfba-44f7d3067aab","ios":"levelo://app?vid=ad9a6248-1b43-4fc5-bfba-44f7d3067aab"},"vehicle_type_id":"4","last_reported":1758733747,"current_range_meters":16400,"station_id":"st_cvj6sg6p6f1abm77japg","pricing_plan_id":"cebpf4jnsgd1na2vs0mg"},{"bike_id":"f4d76e07-0745-4487-8f28-6da9b2e4232b","system_id":"levelo_inurba_marseille","lat":43.30529,"lon":5.36561,"is_reserved":false,"is_disabled":false,"rental_uris":{"android":"levelo://app?vid=f4d76e07-0745-4487-8f28-6da9b2e4232b","ios":"levelo://app?vid=f4d76e07-0745-4487-8f28-6da9b2e4232b"},"vehicle_type_id":"4","last_reported":1758733747,"current_range_meters":16400,"station_id":"ce4bgs12rcd13ifvqcag","pricing_plan_id":"cebpf4jnsgd1na2vs0mg"},{"bike_id":"4af8966d-e081-45eb-8738-c8fceae250b5","system_id":"levelo_inurba_marseille","lat":43.31358,"lon":5.38507,"is_reserved":false,"is_disabled":false,"rental_uris":{"android":"levelo://app?vid=4af8966d-e081-45eb-8738-c8fceae250b5","ios":"levelo://app?vid=4af8966d-e081-45eb-8738-c8fceae250b5"},"vehicle_type_id":"4","last_reported":1758733747,"current_range_meters":16400,"station_id":"ce4bgt92rcd13ifvqcf0","pricing_plan_id":"cebpf4jnsgd1na2vs0mg"},{"bike_id":"2e84cfb6-5ce8-4212-847b-e4321a26cdaf","system_id":"levelo_inurba_marseille","lat":43.273958,"lon":5.39043,"is_reserved":false,"is_disabled":false,"rental_uris":{"android":"levelo://app?vid=2e84cfb6-5ce8-4212-847b-e4321a26cdaf","ios":"levelo://app?vid=2e84cfb6-5ce8-4212-847b-e4321a26cdaf"},"vehicle_type_id":"4","last_reported":1758733747,"current_range_meters":16400,"station_id":"ce4bhgp2rcd13ifvqfe0","pricing_plan_id":"cebpf4jnsgd1na2vs0mg"},{"bike_id":"d8d6f31a-c510-424a-9731-839758fd1c1d","system_id":"levelo_inurba_marseille","lat":43.2465,"lon":5.38908,"is_reserved":false,"is_disabled":false,"rental_uris":{"android":"levelo://app?vid=d8d6f31a-c510-424a-9731-839758fd1c1d","ios":"levelo://app?vid=d8d6f31a-c510-424a-9731-839758fd1c1d"},"vehicle_type_id":"4","last_reported":1758733747,"current_range_meters":16800,"station_id":"ce4bhg12rcd13ifvqf60","pricing_plan_id":"cebpf4jnsgd1na2vs0mg"},{"bike_id":"5b2e4301-8a04-44b6-bb74-5f97ee4e1633","system_id":"levelo_inurba_marseille","lat":43.27364,"lon":5.36253,"is_reserved":false,"is_disabled":false,"rental_uris":{"android":"levelo://app?vid=5b2e4301-8a04-44b6-bb74-5f97ee4e1633","ios":"levelo://app?vid=5b2e4301-8a04-44b6-bb74-5f97ee4e1633"},"vehicle_type_id":"4","last_reported":1758733747,"current_range_meters":16800,"station_id":"ce4bhbh2rcd13ifvqeo0","pricing_plan_id":"cebpf4jnsgd1na2vs0mg"},{"bike_id":"2bd2a176-8590-4e06-8b8c-a96b49b7b36a","system_id":"levelo_inurba_marseille","lat":43.262237,"lon":5.404538,"is_reserved":false,"is_disabled":false,"rental_uris":{"android":"levelo://app?vid=2bd2a176-8590-4e06-8b8c-a96b49b7b36a","ios":"levelo://app?vid=2bd2a176-8590-4e06-8b8c-a96b49b7b36a"},"vehicle_type_id":"4","last_reported":1758733747,"current_range_meters":16800,"station_id":"","pricing_plan_id":"cebpf4jnsgd1na2vs0mg"},{"bike_id":"7f26efef-5bca-4964-9649-a135cb9baf4f","system_id":"levelo_inurba_marseille","lat":43.25086,"lon":5.39524,"is_reserved":false,"is_disabled":false,"rental_uris":{"android":"levelo://app?vid=7f26efef-5bca-4964-9649-a135cb9baf4f","ios":"levelo://app?vid=7f26efef-5bca-4964-9649-a135cb9baf4f"},"vehicle_type_id":"4","last_reported":1758733747,"current_range_meters":16800,"station_id":"ce4bhm12rcd13ifvqgkg","pricing_plan_id":"cebpf4jnsgd1na2vs0mg"},{"bike_id":"a6ad0c6c-868d-42f3-ba54-573e1a175a36","system_id":"levelo_inurba_marseille","lat":43.26287,"lon":5.41308,"is_reserved":false,"is_disabled":false,"rental_uris":{"android":"levelo://app?vid=a6ad0c6c-868d-42f3-ba54-573e1a175a36","ios":"levelo://app?vid=a6ad0c6c-868d-42f3-ba54-573e1a175a36"},"vehicle_type_id":"4","last_reported":1758733747,"current_range_meters":16800,"station_id":"","pricing_plan_id":"cebpf4jnsgd1na2vs0mg"},{"bike_id":"133bba08-a787-4bcc-b092-edf9c65f377b","system_id":"levelo_inurba_marseille","lat":43.30155,"lon":5.3809,"is_reserved":false,"is_disabled":false,"rental_uris":{"android":"levelo://app?vid=133bba08-a787-4bcc-b092-edf9c65f377b","ios":"levelo://app?vid=133bba08-a787-4bcc-b092-edf9c65f377b"},"vehicle_type_id":"4","last_reported":1758733747,"current_range_meters":16800,"station_id":"ce4bgjp2rcd13ifvqbh0","pricing_plan_id":"cebpf4jnsgd1na2vs0mg"},{"bike_id":"05db40c8-0c80-4fc0-9d8f-c83a2ffa1ada","system_id":"levelo_inurba_marseille","lat":43.29784,"lon":5.39327,"is_reserved":false,"is_disabled":false,"rental_uris":{"android":"levelo://app?vid=05db40c8-0c80-4fc0-9d8f-c83a2ffa1ada","ios":"levelo://app?vid=05db40c8-0c80-4fc0-9d8f-c83a2ffa1ada"},"vehicle_type_id":"4","last_reported":1758733747,"current_range_meters":16800,"station_id":"chh1huq6cuj3fo74tm60","pricing_plan_id":"cebpf4jnsgd1na2vs0mg"},{"bike_id":"a3383983-1a81-4f66-8f19-2363b98e3729","system_id":"levelo_inurba_marseille","lat":43.2656,"lon":5.39016,"is_reserved":false,"is_disabled":true,"rental_uris":{"android":"levelo://app?vid=a3383983-1a81-4f66-8f19-2363b98e3729","ios":"levelo://app?vid=a3383983-1a81-4f66-8f19-2363b98e3729"},"vehicle_type_id":"4","last_reported":1758733747,"current_range_meters":16800,"station_id":"ce4bhe12rcd13ifvqf30","pricing_plan_id":"cebpf4jnsgd1na2vs0mg"},{"bike_id":"003515e8-8117-44bb-979d-5f47e8d50fda","system_id":"levelo_inurba_marseille","lat":43.30632,"lon":5.37568,"is_reserved":false,"is_disabled":false,"rental_uris":{"android":"levelo://app?vid=003515e8-8117-44bb-979d-5f47e8d50fda","ios":"levelo://app?vid=003515e8-8117-44bb-979d-5f47e8d50fda"},"vehicle_type_id":"4","last_reported":1758733747,"current_range_meters":17200,"station_id":"","pricing_plan_id":"cebpf4jnsgd1na2vs0mg"},{"bike_id":"429b97eb-f7cc-4d35-b219-e8e26e3f47e0","system_id":"levelo_inurba_marseille","lat":43.27378,"lon":5.36256,"is_reserved":false,"is_disabled":false,"rental_uris":{"android":"levelo://app?vid=429b97eb-f7cc-4d35-b219-e8e26e3f47e0","ios":"levelo://app?vid=429b97eb-f7cc-4d35-b219-e8e26e3f47e0"},"vehicle_type_id":"4","last_reported":1758733747,"current_range_meters":17200,"station_id":"ce4bhbh2rcd13ifvqeo0","pricing_plan_id":"cebpf4jnsgd1na2vs0mg"},{"bike_id":"29237101-5788-433a-a817-fd7db1732b5b","system_id":"levelo_inurba_marseille","lat":43.28414,"lon":5.37517,"is_reserved":false,"is_disabled":false,"rental_uris":{"android":"levelo://app?vid=29237101-5788-433a-a817-fd7db1732b5b","ios":"levelo://app?vid=29237101-5788-433a-a817-fd7db1732b5b"},"vehicle_type_id":"4","last_reported":1758733747,"current_range_meters":17200,"station_id":"ce4bh412rcd13ifvqds0","pricing_plan_id":"cebpf4jnsgd1na2vs0mg"},{"bike_id":"63b3daeb-cf1c-4aa8-97b1-d5b690f0ac49","system_id":"levelo_inurba_marseille","lat":43.28128,"lon":5.43221,"is_reserved":false,"is_disabled":false,"rental_uris":{"android":"levelo://app?vid=63b3daeb-cf1c-4aa8-97b1-d5b690f0ac49","ios":"levelo://app?vid=63b3daeb-cf1c-4aa8-97b1-d5b690f0ac49"},"vehicle_type_id":"4","last_reported":1758733747,"current_range_meters":17200,"station_id":"","pricing_plan_id":"cebpf4jnsgd1na2vs0mg"},{"bike_id":"46923300-e0d3-40c1-8c76-7dadc761100f","system_id":"levelo_inurba_marseille","lat":43.28996,"lon":5.35615,"is_reserved":false,"is_disabled":false,"rental_uris":{"android":"levelo://app?vid=46923300-e0d3-40c1-8c76-7dadc761100f","ios":"levelo://app?vid=46923300-e0d3-40c1-8c76-7dadc761100f"},"vehicle_type_id":"4","last_reported":1758733747,"current_range_meters":17200,"station_id":"ce4bhb92rcd13ifvqen0","pricing_plan_id":"cebpf4jnsgd1na2vs0mg"},{"bike_id":"212de2eb-8bbc-413c-b204-9fe1facd76e8","system_id":"levelo_inurba_marseille","lat":43.31325,"lon":5.37817,"is_reserved":false,"is_disabled":false,"rental_uris":{"android":"levelo://app?vid=212de2eb-8bbc-413c-b204-9fe1facd76e8","ios":"levelo://app?vid=212de2eb-8bbc-413c-b204-9fe1facd76e8"},"vehicle_type_id":"4","last_reported":1758733747,"current_range_meters":17200,"station_id":"","pricing_plan_id":"cebpf4jnsgd1na2vs0mg"},{"bike_id":"63984576-c962-4bf7-81d3-49877f791632","system_id":"levelo_inurba_marseille","lat":43.30591,"lon":5.39362,"is_reserved":false,"is_disabled":false,"rental_uris":{"android":"levelo://app?vid=63984576-c962-4bf7-81d3-49877f791632","ios":"levelo://app?vid=63984576-c962-4bf7-81d3-49877f791632"},"vehicle_type_id":"4","last_reported":1758733747,"current_range_meters":17200,"station_id":"ce4bh0p2rcd13ifvqd80","pricing_plan_id":"cebpf4jnsgd1na2vs0mg"},{"bike_id":"21f3b527-e5c1-4d4f-b495-a75765acc186","system_id":"levelo_inurba_marseille","lat":43.28407,"lon":5.34987,"is_reserved":false,"is_disabled":false,"rental_uris":{"android":"levelo://app?vid=21f3b527-e5c1-4d4f-b495-a75765acc186","ios":"levelo://app?vid=21f3b527-e5c1-4d4f-b495-a75765acc186"},"vehicle_type_id":"4","last_reported":1758733747,"current_range_meters":17200,"station_id":"ce4bhbh2rcd13ifvqepg","pricing_plan_id":"cebpf4jnsgd1na2vs0mg"},{"bike_id":"21cb41c9-8e59-4b7c-ad52-8c6e77dd3c3b","system_id":"levelo_inurba_marseille","lat":43.30874,"lon":5.39637,"is_reserved":false,"is_disabled":false,"rental_uris":{"android":"levelo://app?vid=21cb41c9-8e59-4b7c-ad52-8c6e77dd3c3b","ios":"levelo://app?vid=21cb41c9-8e59-4b7c-ad52-8c6e77dd3c3b"},"vehicle_type_id":"4","last_reported":1758733747,"current_range_meters":17200,"station_id":"ce4bh012rcd13ifvqcv0","pricing_plan_id":"cebpf4jnsgd1na2vs0mg"},{"bike_id":"9faa7ae5-4bb4-42ac-a66e-1c121a98a412","system_id":"levelo_inurba_marseille","lat":43.31383,"lon":5.38466,"is_reserved":false,"is_disabled":false,"rental_uris":{"android":"levelo://app?vid=9faa7ae5-4bb4-42ac-a66e-1c121a98a412","ios":"levelo://app?vid=9faa7ae5-4bb4-42ac-a66e-1c121a98a412"},"vehicle_type_id":"4","last_reported":1758733747,"current_range_meters":17600,"station_id":"ce4bgt92rcd13ifvqcf0","pricing_plan_id":"cebpf4jnsgd1na2vs0mg"},{"bike_id":"44708c2f-4b49-4733-b0e2-d9bca70058fb","system_id":"levelo_inurba_marseille","lat":43.27375,"lon":5.36257,"is_reserved":false,"is_disabled":false,"rental_uris":{"android":"levelo://app?vid=44708c2f-4b49-4733-b0e2-d9bca70058fb","ios":"levelo://app?vid=44708c2f-4b49-4733-b0e2-d9bca70058fb"},"vehicle_type_id":"4","last_reported":1758733747,"current_range_meters":17600,"station_id":"ce4bhbh2rcd13ifvqeo0","pricing_plan_id":"cebpf4jnsgd1na2vs0mg"},{"bike_id":"abbb2c72-ce38-415f-a5fa-188c38eac685","system_id":"levelo_inurba_marseille","lat":43.30922,"lon":5.40159,"is_reserved":false,"is_disabled":false,"rental_uris":{"android":"levelo://app?vid=abbb2c72-ce38-415f-a5fa-188c38eac685","ios":"levelo://app?vid=abbb2c72-ce38-415f-a5fa-188c38eac685"},"vehicle_type_id":"4","last_reported":1758733747,"current_range_meters":17600,"station_id":"ce4bgvp2rcd13ifvqct0","pricing_plan_id":"cebpf4jnsgd1na2vs0mg"},{"bike_id":"b33afcb9-323b-4b25-b34a-d7ff770bee10","system_id":"levelo_inurba_marseille","lat":43.2736,"lon":5.36265,"is_reserved":false,"is_disabled":false,"rental_uris":{"android":"levelo://app?vid=b33afcb9-323b-4b25-b34a-d7ff770bee10","ios":"levelo://app?vid=b33afcb9-323b-4b25-b34a-d7ff770bee10"},"vehicle_type_id":"4","last_reported":1758733747,"current_range_meters":17600,"station_id":"ce4bhbh2rcd13ifvqeo0","pricing_plan_id":"cebpf4jnsgd1na2vs0mg"},{"bike_id":"4e073514-91b2-43e0-b341-3dd60aa16890","system_id":"levelo_inurba_marseille","lat":43.29006,"lon":5.35607,"is_reserved":false,"is_disabled":false,"rental_uris":{"android":"levelo://app?vid=4e073514-91b2-43e0-b341-3dd60aa16890","ios":"levelo://app?vid=4e073514-91b2-43e0-b341-3dd60aa16890"},"vehicle_type_id":"4","last_reported":1758733747,"current_range_meters":17600,"station_id":"ce4bhb92rcd13ifvqen0","pricing_plan_id":"cebpf4jnsgd1na2vs0mg"},{"bike_id":"fbdc1489-36c5-4d44-a970-e306317ed11d","system_id":"levelo_inurba_marseille","lat":43.239999,"lon":5.366381,"is_reserved":false,"is_disabled":false,"rental_uris":{"android":"levelo://app?vid=fbdc1489-36c5-4d44-a970-e306317ed11d","ios":"levelo://app?vid=fbdc1489-36c5-4d44-a970-e306317ed11d"},"vehicle_type_id":"4","last_reported":1758733747,"current_range_meters":17600,"station_id":"ce4bhi12rcd13ifvqfp0","pricing_plan_id":"cebpf4jnsgd1na2vs0mg"},{"bike_id":"c886f811-a9b9-4959-b5ff-6e8858dcf5a4","system_id":"levelo_inurba_marseille","lat":43.23194,"lon":5.35565,"is_reserved":false,"is_disabled":false,"rental_uris":{"android":"levelo://app?vid=c886f811-a9b9-4959-b5ff-6e8858dcf5a4","ios":"levelo://app?vid=c886f811-a9b9-4959-b5ff-6e8858dcf5a4"},"vehicle_type_id":"4","last_reported":1758733747,"current_range_meters":17600,"station_id":"ce4bhu92rcd13ifvqi70","pricing_plan_id":"cebpf4jnsgd1na2vs0mg"},{"bike_id":"7490d0f9-a3b1-4e32-8e4b-05d367f07d8a","system_id":"levelo_inurba_marseille","lat":43.30131,"lon":5.3986,"is_reserved":false,"is_disabled":true,"rental_uris":{"android":"levelo://app?vid=7490d0f9-a3b1-4e32-8e4b-05d367f07d8a","ios":"levelo://app?vid=7490d0f9-a3b1-4e32-8e4b-05d367f07d8a"},"vehicle_type_id":"4","last_reported":1758733747,"current_range_meters":17600,"station_id":"ce4bh0h2rcd13ifvqd40","pricing_plan_id":"cebpf4jnsgd1na2vs0mg"},{"bike_id":"62f9da51-b5bd-4047-9c18-90538397a011","system_id":"levelo_inurba_marseille","lat":43.240629,"lon":5.377799,"is_reserved":false,"is_disabled":false,"rental_uris":{"android":"levelo://app?vid=62f9da51-b5bd-4047-9c18-90538397a011","ios":"levelo://app?vid=62f9da51-b5bd-4047-9c18-90538397a011"},"vehicle_type_id":"4","last_reported":1758733747,"current_range_meters":17600,"station_id":"ce4bhnp2rcd13ifvqgvg","pricing_plan_id":"cebpf4jnsgd1na2vs0mg"},{"bike_id":"327c041e-5c9e-4b0d-a97c-a2dbaab036ae","system_id":"levelo_inurba_marseille","lat":43.32818,"lon":5.41145,"is_reserved":false,"is_disabled":false,"rental_uris":{"android":"levelo://app?vid=327c041e-5c9e-4b0d-a97c-a2dbaab036ae","ios":"levelo://app?vid=327c041e-5c9e-4b0d-a97c-a2dbaab036ae"},"vehicle_type_id":"4","last_reported":1758733747,"current_range_meters":18000,"station_id":"","pricing_plan_id":"cebpf4jnsgd1na2vs0mg"},