{"last_updated":1735791095,"ttl":60,"version":"2.2","data":{"bikes":[{"bike_id":"6921c701-675b-4411-b28e-a56903e4b8b7","system_id":"levelo_inurba_marseille","lat":43.280845,"lon":5.396515,"is_reserved":false,"is_disabled":false,"rental_uris":{"android":"levelo://app?vid=6921c701-675b-4411-b28e-a56903e4b8b7","ios":"levelo://app?vid=6921c701-675b-4411-b28e-a56903e4b8b7"},"vehicle_type_id":"4","last_reported":1735791095,"current_range_meters":30400,"station_id":"ce4bho12rcd13ifvqh2g","pricing_plan_id":"cebpf4jnsgd1na2vs0mg"},{"bike_id":"5ee06d1f-f474-4883-9d52-622f82f42531","system_id":"levelo_inurba_marseille","lat":43.325413,"lon":5.414525,"is_reserved":false,"is_disabled":false,"rental_uris":{"android":"levelo://app?vid=5ee06d1f-f474-4883-9d52-622f82f42531","ios":"levelo://app?vid=5ee06d1f-f474-4883-9d52-622f82f42531"},"vehicle_type_id":"4","last_reported":1735791095,"current_range_meters":38800,"station_id":"ce4bhq12rcd13ifvqhhg","pricing_plan_id":"cebpf4jnsgd1na2vs0mg"},{"bike_id":"172ccd61-d49f-41ee-9d70-c90aa70835fe","system_id":"levelo_inurba_marseille","lat":43.27469,"lon":5.39487,"is_reserved":false,"is_disabled":false,"rental_uris":{"android":"levelo://app?vid=172ccd61-d49f-41ee-9d70-c90aa70835fe","ios":"levelo://app?vid=172ccd61-d49f-41ee-9d70-c90aa70835fe"},"vehicle_type_id":"4","last_reported":1735791095,"current_range_meters":36000,"station_id":"ce4bhdp2rcd13ifvqf20","pricing_plan_id":"cebpf4jnsgd1na2vs0mg"},{"bike_id":"0750d2f4-8afa-40ed-9c4c-32e22a33c267","system_id":"levelo_inurba_marseille","lat":43.26811,"lon":5.40248,"is_reserved":false,"is_disabled":true,"rental_uris":{"android":"levelo://app?vid=0750d2f4-8afa-40ed-9c4c-32e22a33c267","ios":"levelo://app?vid=0750d2f4-8afa-40ed-9c4c-32e22a33c267"},"vehicle_type_id":"4","last_reported":1735791095,"current_range_meters":33600,"station_id":"ce501612rcd8frsf0b60","pricing_plan_id":"cebpf4jnsgd1na2vs0mg"},{"bike_id":"9f53e4dc-a826-426b-9ca9-adccc5d43e1f","system_id":"levelo_inurba_marseille","lat":43.259326,"lon":5.409131,"is_reserved":false,"is_disabled":false,"rental_uris":{"android":"levelo://app?vid=9f53e4dc-a826-426b-9ca9-adccc5d43e1f","ios":"levelo://app?vid=9f53e4dc-a826-426b-9ca9-adccc5d43e1f"},"vehicle_type_id":"4","last_reported":1735791095,"current_range_meters":27600,"station_id":"ce4bhm92rcd13ifvqglg","pricing_plan_id":"cebpf4jnsgd1na2vs0mg"},{"bike_id":"bc774450-9e82-4b77-bec0-9757df77a13c","system_id":"levelo_inurba_marseille","lat":43.26484,"lon":5.39551,"is_reserved":false,"is_disabled":false,"rental_uris":{"android":"levelo://app?vid=bc774450-9e82-4b77-bec0-9757df77a13c","ios":"levelo://app?vid=bc774450-9e82-4b77-bec0-9757df77a13c"},"vehicle_type_id":"4","last_reported":1735791095,"current_range_meters":38800,"station_id":"ce4bhi12rcd13ifvqfq0","pricing_plan_id":"cebpf4jnsgd1na2vs0mg"},{"bike_id":"30675ccc-9ef1-40b1-963e-228cee2b4741","system_id":"levelo_inurba_marseille","lat":43.27947,"lon":5.4104,"is_reserved":false,"is_disabled":true,"rental_uris":{"android":"levelo://app?vid=30675ccc-9ef1-40b1-963e-228cee2b4741","ios":"levelo://app?vid=30675ccc-9ef1-40b1-963e-228cee2b4741"},"vehicle_type_id":"4","last_reported":1735791095,"current_range_meters":17200,"station_id":"ce4bhnp2rcd13ifvqh0g","pricing_plan_id":"cebpf4jnsgd1na2vs0mg"},{"bike_id":"cec5c0fc-e772-4040-9404-4cb004601c12","system_id":"levelo_inurba_marseille","lat":43.28364,"lon":5.38616,"is_reserved":false,"is_disabled":false,"rental_uris":{"android":"levelo://app?vid=cec5c0fc-e772-4040-9404-4cb004601c12","ios":"levelo://app?vid=cec5c0fc-e772-4040-9404-4cb004601c12"},"vehicle_type_id":"4","last_reported":1735791095,"current_range_meters":38400,"station_id":"ce4bh492rcd13ifvqdvg","pricing_plan_id":"cebpf4jnsgd1na2vs0mg"},{"bike_id":"4077cc85-8393-40ca-8990-d61361ed7fe5","system_id":"levelo_inurba_marseille","lat":43.312746,"lon":5.394147,"is_reserved":false,"is_disabled":false,"rental_uris":{"android":"levelo://app?vid=4077cc85-8393-40ca-8990-d61361ed7fe5","ios":"levelo://app?vid=4077cc85-8393-40ca-8990-d61361ed7fe5"},"vehicle_type_id":"4","last_reported":1735791095,"current_range_meters":22800,"station_id":"","pricing_plan_id":"cebpf4jnsgd1na2vs0mg"},{"bike_id":"259412ae-a9bb-43fa-89b0-91ce274ab21d","system_id":"levelo_inurba_marseille","lat":43.25723,"lon":5.41108,"is_reserved":false,"is_disabled":false,"rental_uris":{"android":"levelo://app?vid=259412ae-a9bb-43fa-89b0-91ce274ab21d","ios":"levelo://app?vid=259412ae-a9bb-43fa-89b0-91ce274ab21d"},"vehicle_type_id":"4","last_reported":1735791095,"current_range_meters":38800,"station_id":"ce4bhkp2rcd13ifvqgd0","pricing_plan_id":"cebpf4jnsgd1na2vs0mg"},{"bike_id":"fac1a9db-3d14-402b-97be-9d776351f485","system_id":"levelo_inurba_marseille","lat":43.31254,"lon":5.40148,"is_reserved":false,"is_disabled":false,"rental_uris":{"android":"levelo://app?vid=fac1a9db-3d14-402b-97be-9d776351f485","ios":"levelo://app?vid=fac1a9db-3d14-402b-97be-9d776351f485"},"vehicle_type_id":"4","last_reported":1735791095,"current_range_meters":38800,"station_id":"ce4bh092rcd13ifvqd30","pricing_plan_id":"cebpf4jnsgd1na2vs0mg"},{"bike_id":"20659d93-4d73-4c77-bdf3-5a50208f850c","system_id":"levelo_inurba_marseille","lat":43.24657,"lon":5.3817,"is_reserved":false,"is_disabled":false,"rental_uris":{"android":"levelo://app?vid=20659d93-4d73-4c77-bdf3-5a50208f850c","ios":"levelo://app?vid=20659d93-4d73-4c77-bdf3-5a50208f850c"},"vehicle_type_id":"4","last_reported":1735791095,"current_range_meters":27600,"station_id":"ce4bhih2rcd13ifvqfr0","pricing_plan_id":"cebpf4jnsgd1na2vs0mg"},{"bike_id":"4937a075-f19a-4dd2-ad27-ee8a180f6239","system_id":"levelo_inurba_marseille","lat":43.23187,"lon":5.39991,"is_reserved":false,"is_disabled":false,"rental_uris":{"android":"levelo://app?vid=4937a075-f19a-4dd2-ad27-ee8a180f6239","ios":"levelo://app?vid=4937a075-f19a-4dd2-ad27-ee8a180f6239"},"vehicle_type_id":"4","last_reported":1735791095,"current_range_meters":30000,"station_id":"ce4bhn12rcd13ifvqgqg","pricing_plan_id":"cebpf4jnsgd1na2vs0mg"},{"bike_id":"0ee7dbed-7540-4de9-94e5-dcf46398860b","system_id":"levelo_inurba_marseille","lat":43.26218,"lon":5.37456,"is_reserved":false,"is_disabled":false,"rental_uris":{"android":"levelo://app?vid=0ee7dbed-7540-4de9-94e5-dcf46398860b","ios":"levelo://app?vid=0ee7dbed-7540-4de9-94e5-dcf46398860b"},"vehicle_type_id":"4","last_reported":1735791095,"current_range_meters":28000,"station_id":"ce4bhgp2rcd13ifvqfc0","pricing_plan_id":"cebpf4jnsgd1na2vs0mg"},{"bike_id":"894955ae-53f5-4dd8-be6e-7b65b17c33af","system_id":"levelo_inurba_marseille","lat":43.29411,"lon":5.39761,"is_reserved":false,"is_disabled":false,"rental_uris":{"android":"levelo://app?vid=894955ae-53f5-4dd8-be6e-7b65b17c33af","ios":"levelo://app?vid=894955ae-53f5-4dd8-be6e-7b65b17c33af"},"vehicle_type_id":"4","last_reported":1735791095,"current_range_meters":36800,"station_id":"ce4bh3h2rcd13ifvqdo0","pricing_plan_id":"cebpf4jnsgd1na2vs0mg"},{"bike_id":"8ad09b60-3a79-4fc1-9f8d-63dc687108f3","system_id":"levelo_inurba_marseille","lat":43.33746,"lon":5.37452,"is_reserved":false,"is_disabled":false,"rental_uris":{"android":"levelo://app?vid=8ad09b60-3a79-4fc1-9f8d-63dc687108f3","ios":"levelo://app?vid=8ad09b60-3a79-4fc1-9f8d-63dc687108f3"},"vehicle_type_id":"4","last_reported":1735791095,"current_range_meters":35200,"station_id":"","pricing_plan_id":"cebpf4jnsgd1na2vs0mg"},{"bike_id":"116f92ae-65b4-4f7c-a23b-1117c0a69b33","system_id":"levelo_inurba_marseille","lat":43.28625,"lon":5.351004,"is_reserved":false,"is_disabled":false,"rental_uris":{"android":"levelo://app?vid=116f92ae-65b4-4f7c-a23b-1117c0a69b33","ios":"levelo://app?vid=116f92ae-65b4-4f7c-a23b-1117c0a69b33"},"vehicle_type_id":"4","last_reported":1735791095,"current_range_meters":32800,"station_id":"ce4bhch2rcd13ifvqeug","pricing_plan_id":"cebpf4jnsgd1na2vs0mg"},{"bike_id":"e423629e-caf1-4427-8702-b30357fe9b81","system_id":"levelo_inurba_marseille","lat":43.24998,"lon":5.38923,"is_reserved":false,"is_disabled":false,"rental_uris":{"android":"levelo://app?vid=e423629e-caf1-4427-8702-b30357fe9b81","ios":"levelo://app?vid=e423629e-caf1-4427-8702-b30357fe9b81"},"vehicle_type_id":"4","last_reported":1735791095,"current_range_meters":17600,"station_id":"ce4bhgp2rcd13ifvqfd0","pricing_plan_id":"cebpf4jnsgd1na2vs0mg"},{"bike_id":"5430a545-a0f1-45ad-a500-b4193006fdcf","system_id":"levelo_inurba_marseille","lat":43.23197,"lon":5.35553,"is_reserved":false,"is_disabled":false,"rental_uris":{"android":"levelo://app?vid=5430a545-a0f1-45ad-a500-b4193006fdcf","ios":"levelo://app?vid=5430a545-a0f1-45ad-a500-b4193006fdcf"},"vehicle_type_id":"4","last_reported":1735791095,"current_range_meters":22800,"station_id":"ce4bhu92rcd13ifvqi70","pricing_plan_id":"cebpf4jnsgd1na2vs0mg"},{"bike_id":"18391261-2da5-4823-915a-3973b5de088e","system_id":"levelo_inurba_marseille","lat":43.28702,"lon":5.37393,"is_reserved":false,"is_disabled":false,"rental_uris":{"android":"levelo://app?vid=18391261-2da5-4823-915a-3973b5de088e","ios":"levelo://app?vid=18391261-2da5-4823-915a-3973b5de088e"},"vehicle_type_id":"4","last_reported":1735791095,"current_range_meters":25200,"station_id":"ce4bh3p2rcd13ifvqdq0","pricing_plan_id":"cebpf4jnsgd1na2vs0mg"},{"bike_id":"ebb56956-e2e2-4f51-8f7a-80ccc26c078c","system_id":"levelo_inurba_marseille","lat":43.28176,"lon":5.42689,"is_reserved":false,"is_disabled":false,"rental_uris":{"android":"levelo://app?vid=ebb56956-e2e2-4f51-8f7a-80ccc26c078c","ios":"levelo://app?vid=ebb56956-e2e2-4f51-8f7a-80ccc26c078c"},"vehicle_type_id":"4","last_reported":1735791095,"current_range_meters":36400,"station_id":"ce4bhnh2rcd13ifvqgug","pricing_plan_id":"cebpf4jnsgd1na2vs0mg"},{"bike_id":"231101e3-5552-421b-ad79-40d05dd09ca1","system_id":"levelo_inurba_marseille","lat":43.33758,"lon":5.39247,"is_reserved":false,"is_disabled":false,"rental_uris":{"android":"levelo://app?vid=231101e3-5552-421b-ad79-40d05dd09ca1","ios":"levelo://app?vid=231101e3-5552-421b-ad79-40d05dd09ca1"},"vehicle_type_id":"4","last_reported":1735791095,"current_range_meters":39200,"station_id":"ce4bhr92rcd13ifvqhsg","pricing_plan_id":"cebpf4jnsgd1na2vs0mg"},{"bike_id":"2da7d987-63ba-478c-8e6c-84247b4e60a0","system_id":"levelo_inurba_marseille","lat":43.30868,"lon":5.39649,"is_reserved":false,"is_disabled":false,"rental_uris":{"android":"levelo://app?vid=2da7d987-63ba-478c-8e6c-84247b4e60a0","ios":"levelo://app?vid=2da7d987-63ba-478c-8e6c-84247b4e60a0"},"vehicle_type_id":"4","last_reported":1735791095,"current_range_meters":38800,"station_id":"ce4bh012rcd13ifvqcv0","pricing_plan_id":"cebpf4jnsgd1na2vs0mg"},{"bike_id":"6255dfcf-141c-4dfd-833c-c3fe06aa3c33","system_id":"levelo_inurba_marseille","lat":43.28695,"lon":5.37921,"is_reserved":false,"is_disabled":false,"rental_uris":{"android":"levelo://app?vid=6255dfcf-141c-4dfd-833c-c3fe06aa3c33","ios":"levelo://app?vid=6255dfcf-141c-4dfd-833c-c3fe06aa3c33"},"vehicle_type_id":"4","last_reported":1735791095,"current_range_meters":36800,"station_id":"ce4bh9p2rcd13ifvqec0","pricing_plan_id":"cebpf4jnsgd1na2vs0mg"},{"bike_id":"406c72fc-c815-4840-861a-36d7f7f2fd01","system_id":"levelo_inurba_marseille","lat":43.23209,"lon":5.35548,"is_reserved":false,"is_disabled":false,"rental_uris":{"android":"levelo://app?vid=406c72fc-c815-4840-861a-36d7f7f2fd01","ios":"levelo://app?vid=406c72fc-c815-4840-861a-36d7f7f2fd01"},"vehicle_type_id":"4","last_reported":1735791095,"current_range_meters":39200,"station_id":"ce4bhu92rcd13ifvqi70","pricing_plan_id":"cebpf4jnsgd1na2vs0mg"},{"bike_id":"89dcc7b2-6e83-481a-8d85-32a7e16b5a26","system_id":"levelo_inurba_marseille","lat":43.295664,"lon":5.399739,"is_reserved":false,"is_disabled":false,"rental_uris":{"android":"levelo://app?vid=89dcc7b2-6e83-481a-8d85-32a7e16b5a26","ios":"levelo://app?vid=89dcc7b2-6e83-481a-8d85-32a7e16b5a26"},"vehicle_type_id":"4","last_reported":1735791095,"current_range_meters":30800,"station_id":"ce4bh312rcd13ifvqdj0","pricing_plan_id":"cebpf4jnsgd1na2vs0mg"},{"bike_id":"a1897298-635d-40f7-ad90-6dea8f3551fd","system_id":"levelo_inurba_marseille","lat":43.28345,"lon":5.38119,"is_reserved":false,"is_disabled":false,"rental_uris":{"android":"levelo://app?vid=a1897298-635d-40f7-ad90-6dea8f3551fd","ios":"levelo://app?vid=a1897298-635d-40f7-ad90-6dea8f3551fd"},"vehicle_type_id":"4","last_reported":1735791095,"current_range_meters":38800,"station_id":"ce4bh412rcd13ifvqdr0","pricing_plan_id":"cebpf4jnsgd1na2vs0mg"},{"bike_id":"832967be-0882-40d1-8642-5973b9ea3bdd","system_id":"levelo_inurba_marseille","lat":43.30635,"lon":5.39296,"is_reserved":false,"is_disabled":false,"rental_uris":{"android":"levelo://app?vid=832967be-0882-40d1-8642-5973b9ea3bdd","ios":"levelo://app?vid=832967be-0882-40d1-8642-5973b9ea3bdd"},"vehicle_type_id":"4","last_reported":1735791095,"current_range_meters":38800,"station_id":"ce4bh0p2rcd13ifvqd80","pricing_plan_id":"cebpf4jnsgd1na2vs0mg"},{"bike_id":"60475e0a-d1c3-44df-b176-7da1081e7d78","system_id":"levelo_inurba_marseille","lat":43.30282,"lon":5.3922,"is_reserved":false,"is_disabled":false,"rental_uris":{"android":"levelo://app?vid=60475e0a-d1c3-44df-b176-7da1081e7d78","ios":"levelo://app?vid=60475e0a-d1c3-44df-b176-7da1081e7d78"},"vehicle_type_id":"4","last_reported":1735791095,"current_range_meters":32000,"station_id":"ce4bgkh2rcd13ifvqbk0","pricing_plan_id":"cebpf4jnsgd1na2vs0mg"},{"bike_id":"a3517146-3a38-485e-9b65-46f28f14e1c6","system_id":"levelo_inurba_marseille","lat":43.26941,"lon":5.38922,"is_reserved":false,"is_disabled":false,"rental_uris":{"android":"levelo://app?vid=a3517146-3a38-485e-9b65-46f28f14e1c6","ios":"levelo://app?vid=a3517146-3a38-485e-9b65-46f28f14e1c6"},"vehicle_type_id":"4","last_reported":1735791095,"current_range_meters":28400,"station_id":"ce4bhhh2rcd13ifvqfl0","pricing_plan_id":"cebpf4jnsgd1na2vs0mg"},{"bike_id":"6d3379aa-0f1b-4ef6-a7dc-b0f6d379d543","system_id":"levelo_inurba_marseille","lat":43.25869,"lon":5.39905,"is_reserved":false,"is_disabled":false,"rental_uris":{"android":"levelo://app?vid=6d3379aa-0f1b-4ef6-a7dc-b0f6d379d543","ios":"levelo://app?vid=6d3379aa-0f1b-4ef6-a7dc-b0f6d379d543"},"vehicle_type_id":"4","last_reported":1735791095,"current_range_meters":38000,"station_id":"ce4bhl92rcd13ifvqghg","pricing_plan_id":"cebpf4jnsgd1na2vs0mg"},{"bike_id":"1bc86929-a7c5-4532-aa73-e694188946da","system_id":"levelo_inurba_marseille","lat":43.28657,"lon":5.36358,"is_reserved":false,"is_disabled":false,"rental_uris":{"android":"levelo://app?vid=1bc86929-a7c5-4532-aa73-e694188946da","ios":"levelo://app?vid=1bc86929-a7c5-4532-aa73-e694188946da"},"vehicle_type_id":"4","last_reported":1735791095,"current_range_meters":39200,"station_id":"ce4bhah2rcd13ifvqej0","pricing_plan_id":"cebpf4jnsgd1na2vs0mg"},{"bike_id":"3faa5f67-9ab8-49fd-993d-b05fd97f6cd5","system_id":"levelo_inurba_marseille","lat":43.286971,"lon":5.386417,"is_reserved":false,"is_disabled":false,"rental_uris":{"android":"levelo://app?vid=3faa5f67-9ab8-49fd-993d-b05fd97f6cd5","ios":"levelo://app?vid=3faa5f67-9ab8-49fd-993d-b05fd97f6cd5"},"vehicle_type_id":"4","last_reported":1735791095,"current_range_meters":38800,"station_id":"ce4bh492rcd13ifvqdug","pricing_plan_id":"cebpf4jnsgd1na2vs0mg"},{"bike_id":"0414a468-1219-4f8e-a750-d9badae394df","system_id":"levelo_inurba_marseille","lat":43.280841,"lon":5.396457,"is_reserved":false,"is_disabled":false,"rental_uris":{"android":"levelo://app?vid=0414a468-1219-4f8e-a750-d9badae394df","ios":"levelo://app?vid=0414a468-1219-4f8e-a750-d9badae394df"},"vehicle_type_id":"4","last_reported":1735791095,"current_range_meters":39200,"station_id":"ce4bho12rcd13ifvqh2g","pricing_plan_id":"cebpf4jnsgd1na2vs0mg"},{"bike_id":"63897349-1a46-416c-accd-1549bc376970","system_id":"levelo_inurba_marseille","lat":43.25823,"lon":5.3944,"is_reserved":false,"is_disabled":false,"rental_uris":{"android":"levelo://app?vid=63897349-1a46-416c-accd-1549bc376970","ios":"levelo://app?vid=63897349-1a46-416c-accd-1549bc376970"},"vehicle_type_id":"4","last_reported":1735791095,"current_range_meters":37600,"station_id":"ce4bhip2rcd13ifvqft0","pricing_plan_id":"cebpf4jnsgd1na2vs0mg"},{"bike_id":"ff49d49a-53c3-499a-b296-89a67f332a8a","system_id":"levelo_inurba_marseille","lat":43.24165,"lon":5.3643,"is_reserved":false,"is_disabled":false,"rental_uris":{"android":"levelo://app?vid=ff49d49a-53c3-499a-b296-89a67f332a8a","ios":"levelo://app?vid=ff49d49a-53c3-499a-b296-89a67f332a8a"},"vehicle_type_id":"4","last_reported":1735791095,"current_range_meters":29600,"station_id":"cpo36qri1sfpv3e86is0","pricing_plan_id":"cebpf4jnsgd1na2vs0mg"},{"bike_id":"9bda046f-4b0f-48f1-b8cf-fc74125c4d91","system_id":"levelo_inurba_marseille","lat":43.3133,"lon":5.39696,"is_reserved":false,"is_disabled":false,"rental_uris":{"android":"levelo://app?vid=9bda046f-4b0f-48f1-b8cf-fc74125c4d91","ios":"levelo://app?vid=9bda046f-4b0f-48f1-b8cf-fc74125c4d91"},"vehicle_type_id":"4","last_reported":1735791095,"current_range_meters":38800,"station_id":"ce4bgvp2rcd13ifvqcu0","pricing_plan_id":"cebpf4jnsgd1na2vs0mg"},{"bike_id":"be0e0304-336c-4d8e-ada3-33a38d0dd544","system_id":"levelo_inurba_marseille","lat":43.31308,"lon":5.36847,"is_reserved":false,"is_disabled":true,"rental_uris":{"android":"levelo://app?vid=be0e0304-336c-4d8e-ada3-33a38d0dd544","ios":"levelo://app?vid=be0e0304-336c-4d8e-ada3-33a38d0dd544"},"vehicle_type_id":"4","last_reported":1735791095,"current_range_meters":27200,"station_id":"","pricing_plan_id":"cebpf4jnsgd1na2vs0mg"},{"bike_id":"bcc47b98-405a-4d86-8e5f-bbe262abbd0d","system_id":"levelo_inurba_marseille","lat":43.32122,"lon":5.36794,"is_reserved":false,"is_disabled":false,"rental_uris":{"android":"levelo://app?vid=bcc47b98-405a-4d86-8e5f-bbe262abbd0d","ios":"levelo://app?vid=bcc47b98-405a-4d86-8e5f-bbe262abbd0d"},"vehicle_type_id":"4","last_reported":1735791095,"current_range_meters":31200,"station_id":"ce4bhrh2rcd13ifvqhug","pricing_plan_id":"cebpf4jnsgd1na2vs0mg"},{"bike_id":"fe2ed51f-6871-400c-b411-213d0c0c4c0b","system_id":"levelo_inurba_marseille","lat":43.28431,"lon":5.39184,"is_reserved":false,"is_disabled":false,"rental_uris":{"android":"levelo://app?vid=fe2ed51f-6871-400c-b411-213d0c0c4c0b","ios":"levelo://app?vid=fe2ed51f-6871-400c-b411-213d0c0c4c0b"},"vehicle_type_id":"4","last_reported":1735791095,"current_range_meters":38800,"station_id":"ce4bhoh2rcd13ifvqh5g","pricing_plan_id":"cebpf4jnsgd1na2vs0mg"},{"bike_id":"ec687720-4efc-448d-9ce8-fcfe4d3a5f30","system_id":"levelo_inurba_marseille","lat":43.272092,"lon":5.392015,"is_reserved":false,"is_disabled":true,"rental_uris":{"android":"levelo://app?vid=ec687720-4efc-448d-9ce8-fcfe4d3a5f30","ios":"levelo://app?vid=ec687720-4efc-448d-9ce8-fcfe4d3a5f30"},"vehicle_type_id":"4","last_reported":1735791095,"current_range_meters":24800,"station_id":"ce4bhhp2rcd13ifvqfm0","pricing_plan_id":"cebpf4jnsgd1na2vs0mg"},{"bike_id":"027085de-3c06-4c90-8099-b9537f78e863","system_id":"levelo_inurba_marseille","lat":43.23188,"lon":5.43704,"is_reserved":false,"is_disabled":false,"rental_uris":{"android":"levelo://app?vid=027085de-3c06-4c90-8099-b9537f78e863","ios":"levelo://app?vid=027085de-3c06-4c90-8099-b9537f78e863"},"vehicle_type_id":"4","last_reported":1735791095,"current_range_meters":32000,"station_id":"ce4bhmp2rcd13ifvqgog","pricing_plan_id":"cebpf4jnsgd1na2vs0mg"},{"bike_id":"7d79c402-dbee-4da9-b745-6b34728fd29a","system_id":"levelo_inurba_marseille","lat":43.29217,"lon":5.36066,"is_reserved":false,"is_disabled":false,"rental_uris":{"android":"levelo://app?vid=7d79c402-dbee-4da9-b745-6b34728fd29a","ios":"levelo://app?vid=7d79c402-dbee-4da9-b745-6b34728fd29a"},"vehicle_type_id":"4","last_reported":1735791095,"current_range_meters":21600,"station_id":"ce4bhbh2rcd13ifvqeqg","pricing_plan_id":"cebpf4jnsgd1na2vs0mg"},{"bike_id":"f585701f-ce56-4599-8126-d7d811fe7259","system_id":"levelo_inurba_marseille","lat":43.28574,"lon":5.39487,"is_reserved":false,"is_disabled":false,"rental_uris":{"android":"levelo://app?vid=f585701f-ce56-4599-8126-d7d811fe7259","ios":"levelo://app?vid=f585701f-ce56-4599-8126-d7d811fe7259"},"vehicle_type_id":"4","last_reported":1735791095,"current_range_meters":23200,"station_id":"ce4bh292rcd13ifvqdg0","pricing_plan_id":"cebpf4jnsgd1na2vs0mg"},{"bike_id":"204e5735-df2b-4b54-be8c-61c7e4984ec7","system_id":"levelo_inurba_marseille","lat":43.27979,"lon":5.3875,"is_reserved":false,"is_disabled":false,"rental_uris":{"android":"levelo://app?vid=204e5735-df2b-4b54-be8c-61c7e4984ec7","ios":"levelo://app?vid=204e5735-df2b-4b54-be8c-61c7e4984ec7"},"vehicle_type_id":"4","last_reported":1735791095,"current_range_meters":38800,"station_id":"ce4bhg12rcd13ifvqf80","pricing_plan_id":"cebpf4jnsgd1na2vs0mg"},{"bike_id":"e11f23ec-1018-471e-b1ae-f860bd8b1ebc","system_id":"levelo_inurba_marseille","lat":43.29651,"lon":5.37811,"is_reserved":false,"is_disabled":false,"rental_uris":{"android":"levelo://app?vid=e11f23ec-1018-471e-b1ae-f860bd8b1ebc","ios":"levelo://app?vid=e11f23ec-1018-471e-b1ae-f860bd8b1ebc"},"vehicle_type_id":"4","last_reported":1735791095,"current_range_meters":25200,"station_id":"","pricing_plan_id":"cebpf4jnsgd1na2vs0mg"},{"bike_id":"e7774da4-c308-4bfa-aba8-31efca07b3a0","system_id":"levelo_inurba_marseille","lat":43.33741,"lon":5.37467,"is_reserved":false,"is_disabled":true,"rental_uris":{"android":"levelo://app?vid=e7774da4-c308-4bfa-aba8-31efca07b3a0","ios":"levelo://app?vid=e7774da4-c308-4bfa-aba8-31efca07b3a0"},"vehicle_type_id":"4","last_reported":1735791095,"current_range_meters":5600,"station_id":"","pricing_plan_id":"cebpf4jnsgd1na2vs0mg"},{"bike_id":"9b5916a1-20b4-45b5-ae28-a04ea7106c34","system_id":"levelo_inurba_marseille","lat":43.27568,"lon":5.38414,"is_reserved":false,"is_disabled":false,"rental_uris":{"android":"levelo://app?vid=9b5916a1-20b4-45b5-ae28-a04ea7106c34","ios":"levelo://app?vid=9b5916a1-20b4-45b5-ae28-a04ea7106c34"},"vehicle_type_id":"4","last_reported":1735791095,"current_range_meters":27600,"station_id":"ce4bhh92rcd13ifvqfi0","pricing_plan_id":"cebpf4jnsgd1na2vs0mg"},{"bike_id":"97aca867-c718-4f34-8fc1-44caf790d5fc","system_id":"levelo_inurba_marseille","lat":43.314852,"lon":5.372928,"is_reserved":false,"is_disabled":false,"rental_uris":{"android":"levelo://app?vid=97aca867-c718-4f34-8fc1-44caf790d5fc","ios":"levelo://app?vid=97aca867-c718-4f34-8fc1-44caf790d5fc"},"vehicle_type_id":"4","last_reported":1735791095,"current_range_meters":38400,"station_id":"ce4bgt12rcd13ifvqcd0","pricing_plan_id":"cebpf4jnsgd1na2vs0mg"},{"bike_id":"ad09079b-2a66-443a-a13d-b1f84ab569d5","system_id":"levelo_inurba_marseille","lat":43.25007,"lon":5.38928,"is_reserved":false,"is_disabled":false,"rental_uris":{"android":"levelo://app?vid=ad09079b-2a66-443a-a13d-b1f84ab569d5","ios":"levelo://app?vid=ad09079b-2a66-443a-a13d-b1f84ab569d5"},"vehicle_type_id":"4","last_reported":1735791095,"current_range_meters":36400,"station_id":"ce4bhgp2rcd13ifvqfd0","pricing_plan_id":"cebpf4jnsgd1na2vs0mg"},{"bike_id":"3c7472a4-a45c-4f46-a692-aa44ebf92f21","system_id":"levelo_inurba_marseille","lat":43.27426,"lon":5.39427,"is_reserved":false,"is_disabled":false,"rental_uris":{"android":"levelo://app?vid=3c7472a4-a45c-4f46-a692-aa44ebf92f21","ios":"levelo://app?vid=3c7472a4-a45c-4f46-a692-aa44ebf92f21"},"vehicle_type_id":"4","last_reported":1735791095,"current_range_meters":37600,"station_id":"ce4bhdp2rcd13ifvqf20","pricing_plan_id":"cebpf4jnsgd1na2vs0mg"},{"bike_id":"1b9666de-703f-4874-9b63-e9d42533848b","system_id":"levelo_inurba_marseille","lat":43.31879,"lon":5.40737,"is_reserved":false,"is_disabled":false,"rental_uris":{"android":"levelo://app?vid=1b9666de-703f-4874-9b63-e9d42533848b","ios":"levelo://app?vid=1b9666de-703f-4874-9b63-e9d42533848b"},"vehicle_type_id":"4","last_reported":1735791095,"current_range_meters":38800,"station_id":"ce4bhq12rcd13ifvqhig","pricing_plan_id":"cebpf4jnsgd1na2vs0mg"},{"bike_id":"fd28cb97-d49b-47cd-90a5-b1241e2dac1b","system_id":"levelo_inurba_marseille","lat":43.29976,"lon":5.37187,"is_reserved":false,"is_disabled":false,"rental_uris":{"android":"levelo://app?vid=fd28cb97-d49b-47cd-90a5-b1241e2dac1b","ios":"levelo://app?vid=fd28cb97-d49b-47cd-90a5-b1241e2dac1b"},"vehicle_type_id":"4","last_reported":1735791095,"current_range_meters":28800,"station_id":"ce4bgr92rcd13ifvqc7g","pricing_plan_id":"cebpf4jnsgd1na2vs0mg"},{"bike_id":"43b505ed-60be-483e-9629-146a396cb391","system_id":"levelo_inurba_marseille","lat":43.291885,"lon":5.393206,"is_reserved":false,"is_disabled":false,"rental_uris":{"android":"levelo://app?vid=43b505ed-60be-483e-9629-146a396cb391","ios":"levelo://app?vid=43b505ed-60be-483e-9629-146a396cb391"},"vehicle_type_id":"4","last_reported":1735791095,"current_range_meters":30000,"station_id":"ce4bh192rcd13ifvqdd0","pricing_plan_id":"cebpf4jnsgd1na2vs0mg"},{"bike_id":"461a91f7-abbd-4490-b359-539df559ba7b","system_id":"levelo_inurba_marseille","lat":43.262196,"lon":5.374361,"is_reserved":false,"is_disabled":false,"rental_uris":{"android":"levelo://app?vid=461a91f7-abbd-4490-b359-539df559ba7b","ios":"levelo://app?vid=461a91f7-abbd-4490-b359-539df559ba7b"},"vehicle_type_id":"4","last_reported":1735791095,"current_range_meters":32000,"station_id":"ce4bhgp2rcd13ifvqfc0","pricing_plan_id":"cebpf4jnsgd1na2vs0mg"},{"bike_id":"4b9b3c02-7773-410b-a74d-2537aad0fdc1","system_id":"levelo_inurba_marseille","lat":43.28378,"lon":5.37528,"is_reserved":false,"is_disabled":false,"rental_uris":{"android":"levelo://app?vid=4b9b3c02-7773-410b-a74d-2537aad0fdc1","ios":"levelo://app?vid=4b9b3c02-7773-410b-a74d-2537aad0fdc1"},"vehicle_type_id":"4","last_reported":1735791095,"current_range_meters":28400,"station_id":"ce4bh412rcd13ifvqds0","pricing_plan_id":"cebpf4jnsgd1na2vs0mg"},{"bike_id":"04c2476a-74d1-4af1-84e5-1a1934809c35","system_id":"levelo_inurba_marseille","lat":43.28712,"lon":5.37937,"is_reserved":false,"is_disabled":false,"rental_uris":{"android":"levelo://app?vid=04c2476a-74d1-4af1-84e5-1a1934809c35","ios":"levelo://app?vid=04c2476a-74d1-4af1-84e5-1a1934809c35"},"vehicle_type_id":"4","last_reported":1735791095,"current_range_meters":22400,"station_id":"ce4bh9p2rcd13ifvqec0","pricing_plan_id":"cebpf4jnsgd1na2vs0mg"},{"bike_id":"54f409ab-82fa-46b7-9531-9fdab74bf367","system_id":"levelo_inurba_marseille","lat":43.25645,"lon":5.37633,"is_reserved":false,"is_disabled":false,"rental_uris":{"android":"levelo://app?vid=54f409ab-82fa-46b7-9531-9fdab74bf367","ios":"levelo://app?vid=54f409ab-82fa-46b7-9531-9fdab74bf367"},"vehicle_type_id":"4","last_reported":1735791095,"current_range_meters":17600,"station_id":"","pricing_plan_id":"cebpf4jnsgd1na2vs0mg"},{"bike_id":"da3075ee-8070-42f9-8350-58e475a60c82","system_id":"levelo_inurba_marseille","lat":43.27563,"lon":5.38421,"is_reserved":false,"is_disabled":false,"rental_uris":{"android":"levelo://app?vid=da3075ee-8070-42f9-8350-58e475a60c82","ios":"levelo://app?vid=da3075ee-8070-42f9-8350-58e475a60c82"},"vehicle_type_id":"4","last_reported":1735791095,"current_range_meters":39200,"station_id":"ce4bhh92rcd13ifvqfi0","pricing_plan_id":"cebpf4jnsgd1na2vs0mg"},{"bike_id":"64892e48-5ccd-45a4-9b85-2f1946606be6","system_id":"levelo_inurba_marseille","lat":43.31753,"lon":5.39027,"is_reserved":false,"is_disabled":false,"rental_uris":{"android":"levelo://app?vid=64892e48-5ccd-45a4-9b85-2f1946606be6","ios":"levelo://app?vid=64892e48-5ccd-45a4-9b85-2f1946606be6"},"vehicle_type_id":"4","last_reported":1735791095,"current_range_meters":35200,"station_id":"ce4bhqp2rcd13ifvqhng","pricing_plan_id":"cebpf4jnsgd1na2vs0mg"},{"bike_id":"f4e21194-bae0-47dd-9943-53bf3035cc9f","system_id":"levelo_inurba_marseille","lat":43.24629,"lon":5.38915,"is_reserved":false,"is_disabled":false,"rental_uris":{"android":"levelo://app?vid=f4e21194-bae0-47dd-9943-53bf3035cc9f","ios":"levelo://app?vid=f4e21194-bae0-47dd-9943-53bf3035cc9f"},"vehicle_type_id":"4","last_reported":1735791095,"current_range_meters":38800,"station_id":"ce4bhg12rcd13ifvqf60","pricing_plan_id":"cebpf4jnsgd1na2vs0mg"},{"bike_id":"edef67d7-5c40-4f54-afb7-0b1514203358","system_id":"levelo_inurba_marseille","lat":43.23187,"lon":5.39968,"is_reserved":false,"is_disabled":true,"rental_uris":{"android":"levelo://app?vid=edef67d7-5c40-4f54-afb7-0b1514203358","ios":"levelo://app?vid=edef67d7-5c40-4f54-afb7-0b1514203358"},"vehicle_type_id":"4","last_reported":1735791095,"current_range_meters":400,"station_id":"ce4bhn12rcd13ifvqgqg","pricing_plan_id":"cebpf4jnsgd1na2vs0mg"},{"bike_id":"7a175331-ff50-4a4a-be13-e325e80880c8","system_id":"levelo_inurba_marseille","lat":43.29901,"lon":5.39754,"is_reserved":false,"is_disabled":false,"rental_uris":{"android":"levelo://app?vid=7a175331-ff50-4a4a-be13-e325e80880c8","ios":"levelo://app?vid=7a175331-ff50-4a4a-be13-e325e80880c8"},"vehicle_type_id":"4","last_reported":1735791095,"current_range_meters":38400,"station_id":"ce4bh0h2rcd13ifvqd50","pricing_plan_id":"cebpf4jnsgd1na2vs0mg"},{"bike_id":"c9f46086-3a76-4058-8003-877bd36a7ff4","system_id":"levelo_inurba_marseille","lat":43.286868,"lon":5.386523,"is_reserved":false,"is_disabled":false,"rental_uris":{"android":"levelo://app?vid=c9f46086-3a76-4058-8003-877bd36a7ff4","ios":"levelo://app?vid=c9f46086-3a76-4058-8003-877bd36a7ff4"},"vehicle_type_id":"4","last_reported":1735791095,"current_range_meters":39200,"station_id":"ce4bh492rcd13ifvqdug","pricing_plan_id":"cebpf4jnsgd1na2vs0mg"},{"bike_id":"e5fc90b8-f4d7-48fe-9b1b-e04042412667","system_id":"levelo_inurba_marseille","lat":43.31996,"lon":5.38144,"is_reserved":false,"is_disabled":false,"rental_uris":{"android":"levelo://app?vid=e5fc90b8-f4d7-48fe-9b1b-e04042412667","ios":"levelo://app?vid=e5fc90b8-f4d7-48fe-9b1b-e04042412667"},"vehicle_type_id":"4","last_reported":1735791095,"current_range_meters":39200,"station_id":"ce4bhr12rcd13ifvqhpg","pricing_plan_id":"cebpf4jnsgd1na2vs0mg"},{"bike_id":"c089ea91-0aba-49e4-a6c2-8630e2d71f03","system_id":"levelo_inurba_marseille","lat":43.3029,"lon":5.3921,"is_reserved":false,"is_disabled":false,"rental_uris":{"android":"levelo://app?vid=c089ea91-0aba-49e4-a6c2-8630e2d71f03","ios":"levelo://app?vid=c089ea91-0aba-49e4-a6c2-8630e2d71f03"},"vehicle_type_id":"4","last_reported":1735791095,"current_range_meters":17200,"station_id":"ce4bgkh2rcd13ifvqbk0","pricing_plan_id":"cebpf4jnsgd1na2vs0mg"},{"bike_id":"fa339e12-8405-4f84-8580-3f43033745d7","system_id":"levelo_inurba_marseille","lat":43.27844,"lon":5.39212,"is_reserved":false,"is_disabled":false,"rental_uris":{"android":"levelo://app?vid=fa339e12-8405-4f84-8580-3f43033745d7","ios":"levelo://app?vid=fa339e12-8405-4f84-8580-3f43033745d7"},"vehicle_type_id":"4","last_reported":1735791095,"current_range_meters":34800,"station_id":"ce4bhjp2rcd13ifvqga0","pricing_plan_id":"cebpf4jnsgd1na2vs0mg"},{"bike_id":"d0137bba-5489-4449-9aa6-55a5ebb92ac7","system_id":"levelo_inurba_marseille","lat":43.28276,"lon":5.35074,"is_reserved":false,"is_disabled":false,"rental_uris":{"android":"levelo://app?vid=d0137bba-5489-4449-9aa6-55a5ebb92ac7","ios":"levelo://app?vid=d0137bba-5489-4449-9aa6-55a5ebb92ac7"},"vehicle_type_id":"4","last_reported":1735791095,"current_range_meters":34000,"station_id":"ce4bhbp2rcd13ifvqerg","pricing_plan_id":"cebpf4jnsgd1na2vs0mg"},{"bike_id":"f0039e3d-c9f7-45d9-8d8f-4c3b22cd867c","system_id":"levelo_inurba_marseille","lat":43.280861,"lon":5.396537,"is_reserved":false,"is_disabled":false,"rental_uris":{"android":"levelo://app?vid=f0039e3d-c9f7-45d9-8d8f-4c3b22cd867c","ios":"levelo://app?vid=f0039e3d-c9f7-45d9-8d8f-4c3b22cd867c"},"vehicle_type_id":"4","last_reported":1735791095,"current_range_meters":34000,"station_id":"ce4bho12rcd13ifvqh2g","pricing_plan_id":"cebpf4jnsgd1na2vs0mg"},{"bike_id":"2aad78ba-299b-4eaa-8cb9-c6eb0e0e8b85","system_id":"levelo_inurba_marseille","lat":43.308035,"lon":5.381548,"is_reserved":false,"is_disabled":false,"rental_uris":{"android":"levelo://app?vid=2aad78ba-299b-4eaa-8cb9-c6eb0e0e8b85","ios":"levelo://app?vid=2aad78ba-299b-4eaa-8cb9-c6eb0e0e8b85"},"vehicle_type_id":"4","last_reported":1735791095,"current_range_meters":7200,"station_id":"ce4bgt12rcd13ifvqce0","pricing_plan_id":"cebpf4jnsgd1na2vs0mg"},{"bike_id":"ea5d599e-d5d0-4166-be46-e65550957f69","system_id":"levelo_inurba_marseille","lat":43.3019,"lon":5.366,"is_reserved":false,"is_disabled":false,"rental_uris":{"android":"levelo://app?vid=ea5d599e-d5d0-4166-be46-e65550957f69","ios":"levelo://app?vid=ea5d599e-d5d0-4166-be46-e65550957f69"},"vehicle_type_id":"4","last_reported":1735791095,"current_range_meters":20000,"station_id":"ce4bgrh2rcd13ifvqc8g","pricing_plan_id":"cebpf4jnsgd1na2vs0mg"},{"bike_id":"37fd69aa-45fe-4af6-b217-bec10957aebd","system_id":"levelo_inurba_marseille","lat":43.30801,"lon":5.38163,"is_reserved":false,"is_disabled":true,"rental_uris":{"android":"levelo://app?vid=37fd69aa-45fe-4af6-b217-bec10957aebd","ios":"levelo://app?vid=37fd69aa-45fe-4af6-b217-bec10957aebd"},"vehicle_type_id":"4","last_reported":1735791095,"current_range_meters":38400,"station_id":"ce4bgt12rcd13ifvqce0","pricing_plan_id":"cebpf4jnsgd1na2vs0mg"},{"bike_id":"c439bec9-a494-4591-bd88-09758b82fe1e","system_id":"levelo_inurba_marseille","lat":43.28534,"lon":5.39499,"is_reserved":false,"is_disabled":false,"rental_uris":{"android":"levelo://app?vid=c439bec9-a494-4591-bd88-09758b82fe1e","ios":"levelo://app?vid=c439bec9-a494-4591-bd88-09758b82fe1e"},"vehicle_type_id":"4","last_reported":1735791095,"current_range_meters":16400,"station_id":"ce4bh292rcd13ifvqdg0","pricing_plan_id":"cebpf4jnsgd1na2vs0mg"},{"bike_id":"da9895f2-e09a-40e4-a1b6-9c5c87623f1b","system_id":"levelo_inurba_marseille","lat":43.250849,"lon":5.395165,"is_reserved":false,"is_disabled":false,"rental_uris":{"android":"levelo://app?vid=da9895f2-e09a-40e4-a1b6-9c5c87623f1b","ios":"levelo://app?vid=da9895f2-e09a-40e4-a1b6-9c5c87623f1b"},"vehicle_type_id":"4","last_reported":1735791095,"current_range_meters":38800,"station_id":"ce4bhm12rcd13ifvqgkg","pricing_plan_id":"cebpf4jnsgd1na2vs0mg"},{"bike_id":"67a6b95c-958b-4f02-8856-a5b2a8d5cdf1","system_id":"levelo_inurba_marseille","lat":43.31367,"lon":5.384951,"is_reserved":false,"is_disabled":false,"rental_uris":{"android":"levelo://app?vid=67a6b95c-958b-4f02-8856-a5b2a8d5cdf1","ios":"levelo://app?vid=67a6b95c-958b-4f02-8856-a5b2a8d5cdf1"},"vehicle_type_id":"4","last_reported":1735791095,"current_range_meters":33600,"station_id":"ce4bgt92rcd13ifvqcf0","pricing_plan_id":"cebpf4jnsgd1na2vs0mg"},{"bike_id":"1178abd7-1ce2-46a1-bf34-3a3def530804","system_id":"levelo_inurba_marseille","lat":43.303013,"lon":5.39214,"is_reserved":false,"is_disabled":false,"rental_uris":{"android":"levelo://app?vid=1178abd7-1ce2-46a1-bf34-3a3def530804","ios":"levelo://app?vid=1178abd7-1ce2-46a1-bf34-3a3def530804"},"vehicle_type_id":"4","last_reported":1735791095,"current_range_meters":38800,"station_id":"ce4bgkh2rcd13ifvqbk0","pricing_plan_id":"cebpf4jnsgd1na2vs0mg"},{"bike_id":"a1c87532-6196-402b-916e-8ad945b95f72","system_id":"levelo_inurba_marseille","lat":43.25111,"lon":5.40319,"is_reserved":false,"is_disabled":false,"rental_uris":{"android":"levelo://app?vid=a1c87532-6196-402b-916e-8ad945b95f72","ios":"levelo://app?vid=a1c87532-6196-402b-916e-8ad945b95f72"},"vehicle_type_id":"4","last_reported":1735791095,"current_range_meters":15200,"station_id":"ce4bhlh2rcd13ifvqgig","pricing_plan_id":"cebpf4jnsgd1na2vs0mg"},{"bike_id":"4ce38f45-b3ef-4ce1-84b1-8cf7c7ee4592","system_id":"levelo_inurba_marseille","lat":43.27908,"lon":5.41058,"is_reserved":false,"is_disabled":false,"rental_uris":{"android":"levelo://app?vid=4ce38f45-b3ef-4ce1-84b1-8cf7c7ee4592","ios":"levelo://app?vid=4ce38f45-b3ef-4ce1-84b1-8cf7c7ee4592"},"vehicle_type_id":"4","last_reported":1735791095,"current_range_meters":35600,"station_id":"ce4bhnp2rcd13ifvqh0g","pricing_plan_id":"cebpf4jnsgd1na2vs0mg"},{"bike_id":"86eec8e7-8fb4-4114-aa18-b387b8a21c2e","system_id":"levelo_inurba_marseille","lat":43.31263,"lon":5.39325,"is_reserved":false,"is_disabled":false,"rental_uris":{"android":"levelo://app?vid=86eec8e7-8fb4-4114-aa18-b387b8a21c2e","ios":"levelo://app?vid=86eec8e7-8fb4-4114-aa18-b387b8a21c2e"},"vehicle_type_id":"4","last_reported":1735791095,"current_range_meters":28000,"station_id":"","pricing_plan_id":"cebpf4jnsgd1na2vs0mg"},{"bike_id":"849f7cfd-3f7e-49b1-9d6e-57047fbe1612","system_id":"levelo_inurba_marseille","lat":43.2814,"lon":5.4267,"is_reserved":false,"is_disabled":false,"rental_uris":{"android":"levelo://app?vid=849f7cfd-3f7e-49b1-9d6e-57047fbe1612","ios":"levelo://app?vid=849f7cfd-3f7e-49b1-9d6e-57047fbe1612"},"vehicle_type_id":"4","last_reported":1735791095,"current_range_meters":39200,"station_id":"ce4bhnh2rcd13ifvqgug","pricing_plan_id":"cebpf4jnsgd1na2vs0mg"},{"bike_id":"ff321ead-cf20-4067-9f63-792f0b8ff09d","system_id":"levelo_inurba_marseille","lat":43.30531,"lon":5.36549,"is_reserved":false,"is_disabled":false,"rental_uris":{"android":"levelo://app?vid=ff321ead-cf20-4067-9f63-792f0b8ff09d","ios":"levelo://app?vid=ff321ead-cf20-4067-9f63-792f0b8ff09d"},"vehicle_type_id":"4","last_reported":1735791095,"current_range_meters":26800,"station_id":"ce4bgs12rcd13ifvqcag","pricing_plan_id":"cebpf4jnsgd1na2vs0mg"},{"bike_id":"71f17d20-fc5b-4b1b-bd24-42b8f7d7a201","system_id":"levelo_inurba_marseille","lat":43.29522,"lon":5.39037,"is_reserved":false,"is_disabled":false,"rental_uris":{"android":"levelo://app?vid=71f17d20-fc5b-4b1b-bd24-42b8f7d7a201","ios":"levelo://app?vid=71f17d20-fc5b-4b1b-bd24-42b8f7d7a201"},"vehicle_type_id":"4","last_reported":1735791095,"current_range_meters":39200,"station_id":"ce4bh3p2rcd13ifvqdp0","pricing_plan_id":"cebpf4jnsgd1na2vs0mg"},{"bike_id":"7bcbc76f-7d82-4a12-a9a9-15ae6600bb07","system_id":"levelo_inurba_marseille","lat":43.31488,"lon":5.37312,"is_reserved":false,"is_disabled":false,"rental_uris":{"android":"levelo://app?vid=7bcbc76f-7d82-4a12-a9a9-15ae6600bb07","ios":"levelo://app?vid=7bcbc76f-7d82-4a12-a9a9-15ae6600bb07"},"vehicle_type_id":"4","last_reported":1735791095,"current_range_meters":14000,"station_id":"ce4bgt12rcd13ifvqcd0","pricing_plan_id":"cebpf4jnsgd1na2vs0mg"},{"bike_id":"cb347289-eac0-449e-a1bc-34d1cde2eb07","system_id":"levelo_inurba_marseille","lat":43.258645,"lon":5.399047,"is_reserved":false,"is_disabled":false,"rental_uris":{"android":"levelo://app?vid=cb347289-eac0-449e-a1bc-34d1cde2eb07","ios":"levelo://app?vid=cb347289-eac0-449e-a1bc-34d1cde2eb07"},"vehicle_type_id":"4","last_reported":1735791095,"current_range_meters":22400,"station_id":"ce4bhl92rcd13ifvqghg","pricing_plan_id":"cebpf4jnsgd1na2vs0mg"},{"bike_id":"8ffa9f95-c4c2-43df-b231-947b5b813238","system_id":"levelo_inurba_marseille","lat":43.298812,"lon":5.397374,"is_reserved":false,"is_disabled":false,"rental_uris":{"android":"levelo://app?vid=8ffa9f95-c4c2-43df-b231-947b5b813238","ios":"levelo://app?vid=8ffa9f95-c4c2-43df-b231-947b5b813238"},"vehicle_type_id":"4","last_reported":1735791095,"current_range_meters":37600,"station_id":"ce4bh0h2rcd13ifvqd50","pricing_plan_id":"cebpf4jnsgd1na2vs0mg"},{"bike_id":"1b33b6d0-5a72-4a65-8926-f2cdeae6e3e3","system_id":"levelo_inurba_marseille","lat":43.31357,"lon":5.384988,"is_reserved":false,"is_disabled":true,"rental_uris":{"android":"levelo://app?vid=1b33b6d0-5a72-4a65-8926-f2cdeae6e3e3","ios":"levelo://app?vid=1b33b6d0-5a72-4a65-8926-f2cdeae6e3e3"},"vehicle_type_id":"4","last_reported":1735791095,"current_range_meters":22800,"station_id":"ce4bgt92rcd13ifvqcf0","pricing_plan_id":"cebpf4jnsgd1na2vs0mg"},{"bike_id":"8e43fa85-9764-4a8e-9f3b-20e1a8b81057","system_id":"levelo_inurba_marseille","lat":43.33831,"lon":5.42295,"is_reserved":false,"is_disabled":false,"rental_uris":{"android":"levelo://app?vid=8e43fa85-9764-4a8e-9f3b-20e1a8b81057","ios":"levelo://app?vid=8e43fa85-9764-4a8e-9f3b-20e1a8b81057"},"vehicle_type_id":"4","last_reported":1735791095,"current_range_meters":6800,"station_id":"","pricing_plan_id":"cebpf4jnsgd1na2vs0mg"},{"bike_id":"3adaba7d-6f33-4e53-b455-57669998eef5","system_id":"levelo_inurba_marseille","lat":43.27662,"lon":5.38916,"is_reserved":false,"is_disabled":false,"rental_uris":{"android":"levelo://app?vid=3adaba7d-6f33-4e53-b455-57669998eef5","ios":"levelo://app?vid=3adaba7d-6f33-4e53-b455-57669998eef5"},"vehicle_type_id":"4","last_reported":1735791095,"current_range_meters":38400,"station_id":"ce4bhi12rcd13ifvqfo0","pricing_plan_id":"cebpf4jnsgd1na2vs0mg"},{"bike_id":"544f1707-8cee-4515-8c4e-024e8c5531e8","system_id":"levelo_inurba_marseille","lat":43.32539,"lon":5.36443,"is_reserved":false,"is_disabled":false,"rental_uris":{"android":"levelo://app?vid=544f1707-8cee-4515-8c4e-024e8c5531e8","ios":"levelo://app?vid=544f1707-8cee-4515-8c4e-024e8c5531e8"},"vehicle_type_id":"4","last_reported":1735791095,"current_range_meters":12400,"station_id":"","pricing_plan_id":"cebpf4jnsgd1na2vs0mg"},{"bike_id":"94657e78-df48-49dc-b1ba-58dd71b2ca0e","system_id":"levelo_inurba_marseille","lat":43.265531,"lon":5.372921,"is_reserved":false,"is_disabled":false,"rental_uris":{"android":"levelo://app?vid=94657e78-df48-49dc-b1ba-58dd71b2ca0e","ios":"levelo://app?vid=94657e78-df48-49dc-b1ba-58dd71b2ca0e"},"vehicle_type_id":"4","last_reported":1735791095,"current_range_meters":38800,"station_id":"ce4bhg12rcd13ifvqf70","pricing_plan_id":"cebpf4jnsgd1na2vs0mg"},{"bike_id":"a77cb61b-7bf4-4634-bc34-29d17b6073d0","system_id":"levelo_inurba_marseille","lat":43.24388,"lon":5.37036,"is_reserved":false,"is_disabled":false,"rental_uris":{"android":"levelo://app?vid=a77cb61b-7bf4-4634-bc34-29d17b6073d0","ios":"levelo://app?vid=a77cb61b-7bf4-4634-bc34-29d17b6073d0"},"vehicle_type_id":"4","last_reported":1735791095,"current_range_meters":38800,"station_id":"ce4bhhh2rcd13ifvqfk0","pricing_plan_id":"cebpf4jnsgd1na2vs0mg"},{"bike_id":"1c767333-f70f-4718-bcc9-6de55d631ae5","system_id":"levelo_inurba_marseille","lat":43.26809,"lon":5.40248,"is_reserved":false,"is_disabled":false,"rental_uris":{"android":"levelo://app?vid=1c767333-f70f-4718-bcc9-6de55d631ae5","ios":"levelo://app?vid=1c767333-f70f-4718-bcc9-6de55d631ae5"},"vehicle_type_id":"4","last_reported":1735791095,"current_range_meters":24800,"station_id":"ce501612rcd8frsf0b60","pricing_plan_id":"cebpf4jnsgd1na2vs0mg"},{"bike_id":"aec77826-2911-461c-95af-eb9adf8a9770","system_id":"levelo_inurba_marseille","lat":43.27556,"lon":5.38456,"is_reserved":false,"is_disabled":true,"rental_uris":{"android":"levelo://app?vid=aec77826-2911-461c-95af-eb9adf8a9770","ios":"levelo://app?vid=aec77826-2911-461c-95af-eb9adf8a9770"},"vehicle_type_id":"4","last_reported":1735791095,"current_range_meters":0,"station_id":"ce4bhh92rcd13ifvqfi0","pricing_plan_id":"cebpf4jnsgd1na2vs0mg"},{"bike_id":"55f092de-def1-4c6f-ae8a-e62832d8ed12","system_id":"levelo_inurba_marseille","lat":43.28347,"lon":5.38107,"is_reserved":false,"is_disabled":false,"rental_uris":{"android":"levelo://app?vid=55f092de-def1-4c6f-ae8a-e62832d8ed12","ios":"levelo://app?vid=55f092de-def1-4c6f-ae8a-e62832d8ed12"},"vehicle_type_id":"4","last_reported":1735791095,"current_range_meters":30400,"station_id":"ce4bh412rcd13ifvqdr0","pricing_plan_id":"cebpf4jnsgd1na2vs0mg"},{"bike_id":"19ffc8a9-5597-40c4-9942-7ed734cd3ec7","system_id":"levelo_inurba_marseille","lat":43.23145,"lon":5.43695,"is_reserved":false,"is_disabled":false,"rental_uris":{"android":"levelo://app?vid=19ffc8a9-5597-40c4-9942-7ed734cd3ec7","ios":"levelo://app?vid=19ffc8a9-5597-40c4-9942-7ed734cd3ec7"},"vehicle_type_id":"4","last_reported":1735791095,"current_range_meters":39200,"station_id":"ce4bhmp2rcd13ifvqgog","pricing_plan_id":"cebpf4jnsgd1na2vs0mg"},{"bike_id":"cd74a333-9a1d-4930-b287-4902bed467c1","system_id":"levelo_inurba_marseille","lat":43.30888,"lon":5.38086,"is_reserved":false,"is_disabled":false,"rental_uris":{"android":"levelo://app?vid=cd74a333-9a1d-4930-b287-4902bed467c1","ios":"levelo://app?vid=cd74a333-9a1d-4930-b287-4902bed467c1"},"vehicle_type_id":"4","last_reported":1735791095,"current_range_meters":37600,"station_id":"","pricing_plan_id":"cebpf4jnsgd1na2vs0mg"},{"bike_id":"85578774-6fa4-4df0-93d9-e107d4c8bc8c","system_id":"levelo_inurba_marseille","lat":43.299705,"lon":5.385005,"is_reserved":false,"is_disabled":false,"rental_uris":{"android":"levelo://app?vid=85578774-6fa4-4df0-93d9-e107d4c8bc8c","ios":"levelo://app?vid=85578774-6fa4-4df0-93d9-e107d4c8bc8c"},"vehicle_type_id":"4","last_reported":1735791095,"current_range_meters":25200,"station_id":"ce4bgj92rcd13ifvqbd0","pricing_plan_id":"cebpf4jnsgd1na2vs0mg"},{"bike_id":"f92b4c1b-74f3-4e25-b1d4-d64461a0dd40","system_id":"levelo_inurba_marseille","lat":43.28343,"lon":5.38102,"is_reserved":false,"is_disabled":false,"rental_uris":{"android":"levelo://app?vid=f92b4c1b-74f3-4e25-b1d4-d64461a0dd40","ios":"levelo://app?vid=f92b4c1b-74f3-4e25-b1d4-d64461a0dd40"},"vehicle_type_id":"4","last_reported":1735791095,"current_range_meters":22000,"station_id":"ce4bh412rcd13ifvqdr0","pricing_plan_id":"cebpf4jnsgd1na2vs0mg"},{"bike_id":"c45e2261-bf08-4e91-9bc5-e0e48b416ff2","system_id":"levelo_inurba_marseille","lat":43.26568,"lon":5.39025,"is_reserved":false,"is_disabled":false,"rental_uris":{"android":"levelo://app?vid=c45e2261-bf08-4e91-9bc5-e0e48b416ff2","ios":"levelo://app?vid=c45e2261-bf08-4e91-9bc5-e0e48b416ff2"},"vehicle_type_id":"4","last_reported":1735791095,"current_range_meters":30800,"station_id":"ce4bhe12rcd13ifvqf30","pricing_plan_id":"cebpf4jnsgd1na2vs0mg"},{"bike_id":"71c8f6c4-4b62-4d76-a891-350fccb2f3ce","system_id":"levelo_inurba_marseille","lat":43.28417,"lon":5.35,"is_reserved":false,"is_disabled":false,"rental_uris":{"android":"levelo://app?vid=71c8f6c4-4b62-4d76-a891-350fccb2f3ce","ios":"levelo://app?vid=71c8f6c4-4b62-4d76-a891-350fccb2f3ce"},"vehicle_type_id":"4","last_reported":1735791095,"current_range_meters":11600,"station_id":"ce4bhbh2rcd13ifvqepg","pricing_plan_id":"cebpf4jnsgd1na2vs0mg"},{"bike_id":"33222a83-c2ee-4ce9-9d22-f317d19bc547","system_id":"levelo_inurba_marseille","lat":43.302979,"lon":5.392088,"is_reserved":false,"is_disabled":false,"rental_uris":{"android":"levelo://app?vid=33222a83-c2ee-4ce9-9d22-f317d19bc547","ios":"levelo://app?vid=33222a83-c2ee-4ce9-9d22-f317d19bc547"},"vehicle_type_id":"4","last_reported":1735791095,"current_range_meters":38800,"station_id":"ce4bgkh2rcd13ifvqbk0","pricing_plan_id":"cebpf4jnsgd1na2vs0mg"},{"bike_id":"9f9baf82-ccc3-4af6-a9ba-b1f658ca83af","system_id":"levelo_inurba_marseille","lat":43.241752,"lon":5.397245,"is_reserved":false,"is_disabled":false,"rental_uris":{"android":"levelo://app?vid=9f9baf82-ccc3-4af6-a9ba-b1f658ca83af","ios":"levelo://app?vid=9f9baf82-ccc3-4af6-a9ba-b1f658ca83af"},"vehicle_type_id":"4","last_reported":1735791095,"current_range_meters":14000,"station_id":"ce4bhn12rcd13ifvqgpg","pricing_plan_id":"cebpf4jnsgd1na2vs0mg"},{"bike_id":"9296373e-a8da-4ff9-a488-98089ece75a4","system_id":"levelo_inurba_marseille","lat":43.28411,"lon":5.34992,"is_reserved":false,"is_disabled":false,"rental_uris":{"android":"levelo://app?vid=9296373e-a8da-4ff9-a488-98089ece75a4","ios":"levelo://app?vid=9296373e-a8da-4ff9-a488-98089ece75a4"},"vehicle_type_id":"4","last_reported":1735791095,"current_range_meters":34000,"station_id":"ce4bhbh2rcd13ifvqepg","pricing_plan_id":"cebpf4jnsgd1na2vs0mg"},{"bike_id":"e74c2f84-4812-4630-a239-a229eeb6af30","system_id":"levelo_inurba_marseille","lat":43.287299,"lon":5.360876,"is_reserved":false,"is_disabled":false,"rental_uris":{"android":"levelo://app?vid=e74c2f84-4812-4630-a239-a229eeb6af30","ios":"levelo://app?vid=e74c2f84-4812-4630-a239-a229eeb6af30"},"vehicle_type_id":"4","last_reported":1735791095,"current_range_meters":37600,"station_id":"cki0cbj6b192h4jlfktg","pricing_plan_id":"cebpf4jnsgd1na2vs0mg"},{"bike_id":"b774f9e2-8d0b-464a-b4fd-25edae1fdbb0","system_id":"levelo_inurba_marseille","lat":43.31213,"lon":5.36922,"is_reserved":false,"is_disabled":false,"rental_uris":{"android":"levelo://app?vid=b774f9e2-8d0b-464a-b4fd-25edae1fdbb0","ios":"levelo://app?vid=b774f9e2-8d0b-464a-b4fd-25edae1fdbb0"},"vehicle_type_id":"4","last_reported":1735791095,"current_range_meters":30800,"station_id":"","pricing_plan_id":"cebpf4jnsgd1na2vs0mg"},{"bike_id":"d2e7c051-6db7-4786-ab4b-44e6a6530b6c","system_id":"levelo_inurba_marseille","lat":43.30146,"lon":5.37394,"is_reserved":false,"is_disabled":false,"rental_uris":{"android":"levelo://app?vid=d2e7c051-6db7-4786-ab4b-44e6a6530b6c","ios":"levelo://app?vid=d2e7c051-6db7-4786-ab4b-44e6a6530b6c"},"vehicle_type_id":"4","last_reported":1735791095,"current_range_meters":14000,"station_id":"ce4bgs92rcd13ifvqcc0","pricing_plan_id":"cebpf4jnsgd1na2vs0mg"},{"bike_id":"5becd014-2ea4-4e6e-af75-6157a5a38862","system_id":"levelo_inurba_marseille","lat":43.29929,"lon":5.37483,"is_reserved":false,"is_disabled":false,"rental_uris":{"android":"levelo://app?vid=5becd014-2ea4-4e6e-af75-6157a5a38862","ios":"levelo://app?vid=5becd014-2ea4-4e6e-af75-6157a5a38862"},"vehicle_type_id":"4","last_reported":1735791095,"current_range_meters":38800,"station_id":"ce4bgjh2rcd13ifvqbg0","pricing_plan_id":"cebpf4jnsgd1na2vs0mg"},{"bike_id":"90e1f615-1924-4a68-8d16-660dc12c721e","system_id":"levelo_inurba_marseille","lat":43.28116,"lon":5.37838,"is_reserved":false,"is_disabled":false,"rental_uris":{"android":"levelo://app?vid=90e1f615-1924-4a68-8d16-660dc12c721e","ios":"levelo://app?vid=90e1f615-1924-4a68-8d16-660dc12c721e"},"vehicle_type_id":"4","last_reported":1735791095,"current_range_meters":38800,"station_id":"ce4bha12rcd13ifvqee0","pricing_plan_id":"cebpf4jnsgd1na2vs0mg"},{"bike_id":"0d22c007-f5b2-4481-9b21-08f35f061702","system_id":"levelo_inurba_marseille","lat":43.29755,"lon":5.37284,"is_reserved":false,"is_disabled":true,"rental_uris":{"android":"levelo://app?vid=0d22c007-f5b2-4481-9b21-08f35f061702","ios":"levelo://app?vid=0d22c007-f5b2-4481-9b21-08f35f061702"},"vehicle_type_id":"4","last_reported":1735791095,"current_range_meters":0,"station_id":"","pricing_plan_id":"cebpf4jnsgd1na2vs0mg"},{"bike_id":"062bd3e7-a1b0-4a7b-be3e-67845610f912","system_id":"levelo_inurba_marseille","lat":43.31283,"lon":5.40129,"is_reserved":false,"is_disabled":false,"rental_uris":{"android":"levelo://app?vid=062bd3e7-a1b0-4a7b-be3e-67845610f912","ios":"levelo://app?vid=062bd3e7-a1b0-4a7b-be3e-67845610f912"},"vehicle_type_id":"4","last_reported":1735791095,"current_range_meters":27200,"station_id":"ce4bh092rcd13ifvqd30","pricing_plan_id":"cebpf4jnsgd1na2vs0mg"},{"bike_id":"b65446bf-e8cd-42c0-a605-66d7275adaf9","system_id":"levelo_inurba_marseille","lat":43.24071,"lon":5.37755,"is_reserved":false,"is_disabled":false,"rental_uris":{"android":"levelo://app?vid=b65446bf-e8cd-42c0-a605-66d7275adaf9","ios":"levelo://app?vid=b65446bf-e8cd-42c0-a605-66d7275adaf9"},"vehicle_type_id":"4","last_reported":1735791095,"current_range_meters":24000,"station_id":"ce4bhnp2rcd13ifvqgvg","pricing_plan_id":"cebpf4jnsgd1na2vs0mg"},{"bike_id":"65de1a48-837c-4d3e-8090-e3b21b858f34","system_id":"levelo_inurba_marseille","lat":43.280769,"lon":5.396458,"is_reserved":false,"is_disabled":false,"rental_uris":{"android":"levelo://app?vid=65de1a48-837c-4d3e-8090-e3b21b858f34","ios":"levelo://app?vid=65de1a48-837c-4d3e-8090-e3b21b858f34"},"vehicle_type_id":"4","last_reported":1735791095,"current_range_meters":38800,"station_id":"ce4bho12rcd13ifvqh2g","pricing_plan_id":"cebpf4jnsgd1na2vs0mg"},{"bike_id":"ddb487b9-8adc-4c65-a4da-ed1e737c5e1d","system_id":"levelo_inurba_marseille","lat":43.28858,"lon":5.39299,"is_reserved":false,"is_disabled":false,"rental_uris":{"android":"levelo://app?vid=ddb487b9-8adc-4c65-a4da-ed1e737c5e1d","ios":"levelo://app?vid=ddb487b9-8adc-4c65-a4da-ed1e737c5e1d"},"vehicle_type_id":"4","last_reported":1735791095,"current_range_meters":38800,"station_id":"ce4bh2p2rcd13ifvqdi0","pricing_plan_id":"cebpf4jnsgd1na2vs0mg"},{"bike_id":"42d9687b-df97-4218-b4aa-bb5d351494d7","system_id":"levelo_inurba_marseille","lat":43.28149,"lon":5.42644,"is_reserved":false,"is_disabled":false,"rental_uris":{"android":"levelo://app?vid=42d9687b-df97-4218-b4aa-bb5d351494d7","ios":"levelo://app?vid=42d9687b-df97-4218-b4aa-bb5d351494d7"},"vehicle_type_id":"4","last_reported":1735791095,"current_range_meters":11200,"station_id":"ce4bhnh2rcd13ifvqgug","pricing_plan_id":"cebpf4jnsgd1na2vs0mg"},{"bike_id":"6ef39cf2-9335-427d-88a0-a018f070fb57","system_id":"levelo_inurba_marseille","lat":43.31748,"lon":5.39019,"is_reserved":false,"is_disabled":false,"rental_uris":{"android":"levelo://app?vid=6ef39cf2-9335-427d-88a0-a018f070fb57","ios":"levelo://app?vid=6ef39cf2-9335-427d-88a0-a018f070fb57"},"vehicle_type_id":"4","last_reported":1735791095,"current_range_meters":24400,"station_id":"ce4bhqp2rcd13ifvqhng","pricing_plan_id":"cebpf4jnsgd1na2vs0mg"},{"bike_id":"4fbcaf20-cf0a-4c4c-92d5-e96f1d04da7c","system_id":"levelo_inurba_marseille","lat":43.25001,"lon":5.38944,"is_reserved":false,"is_disabled":false,"rental_uris":{"android":"levelo://app?vid=4fbcaf20-cf0a-4c4c-92d5-e96f1d04da7c","ios":"levelo://app?vid=4fbcaf20-cf0a-4c4c-92d5-e96f1d04da7c"},"vehicle_type_id":"4","last_reported":1735791095,"current_range_meters":8000,"station_id":"ce4bhgp2rcd13ifvqfd0","pricing_plan_id":"cebpf4jnsgd1na2vs0mg"},{"bike_id":"b3dc9ac6-d5fd-4462-b3a0-7552cc8666a3","system_id":"levelo_inurba_marseille","lat":43.28848,"lon":5.39306,"is_reserved":false,"is_disabled":false,"rental_uris":{"android":"levelo://app?vid=b3dc9ac6-d5fd-4462-b3a0-7552cc8666a3","ios":"levelo://app?vid=b3dc9ac6-d5fd-4462-b3a0-7552cc8666a3"},"vehicle_type_id":"4","last_reported":1735791095,"current_range_meters":38800,"station_id":"ce4bh2p2rcd13ifvqdi0","pricing_plan_id":"cebpf4jnsgd1na2vs0mg"},{"bike_id":"d9039fb6-1526-43a5-ab47-bf6c74051347","system_id":"levelo_inurba_marseille","lat":43.28191,"lon":5.42689,"is_reserved":false,"is_disabled":false,"rental_uris":{"android":"levelo://app?vid=d9039fb6-1526-43a5-ab47-bf6c74051347","ios":"levelo://app?vid=d9039fb6-1526-43a5-ab47-bf6c74051347"},"vehicle_type_id":"4","last_reported":1735791095,"current_range_meters":4000,"station_id":"","pricing_plan_id":"cebpf4jnsgd1na2vs0mg"},{"bike_id":"b5e3865b-10bc-4c4f-ad14-18834fa7a270","system_id":"levelo_inurba_marseille","lat":43.30315,"lon":5.36898,"is_reserved":false,"is_disabled":false,"rental_uris":{"android":"levelo://app?vid=b5e3865b-10bc-4c4f-ad14-18834fa7a270","ios":"levelo://app?vid=b5e3865b-10bc-4c4f-ad14-18834fa7a270"},"vehicle_type_id":"4","last_reported":1735791095,"current_range_meters":39200,"station_id":"ce4bgqh2rcd13ifvqc5g","pricing_plan_id":"cebpf4jnsgd1na2vs0mg"},{"bike_id":"e77527e0-f4e0-411c-8181-1b680125df7a","system_id":"levelo_inurba_marseille","lat":43.3081,"lon":5.38182,"is_reserved":false,"is_disabled":false,"rental_uris":{"android":"levelo://app?vid=e77527e0-f4e0-411c-8181-1b680125df7a","ios":"levelo://app?vid=e77527e0-f4e0-411c-8181-1b680125df7a"},"vehicle_type_id":"4","last_reported":1735791095,"current_range_meters":36400,"station_id":"ce4bgt12rcd13ifvqce0","pricing_plan_id":"cebpf4jnsgd1na2vs0mg"},{"bike_id":"29e74cc3-01c5-4c68-9cf1-710cc057bc39","system_id":"levelo_inurba_marseille","lat":43.28611,"lon":5.35102,"is_reserved":false,"is_disabled":false,"rental_uris":{"android":"levelo://app?vid=29e74cc3-01c5-4c68-9cf1-710cc057bc39","ios":"levelo://app?vid=29e74cc3-01c5-4c68-9cf1-710cc057bc39"},"vehicle_type_id":"4","last_reported":1735791095,"current_range_meters":20000,"station_id":"ce4bhch2rcd13ifvqeug","pricing_plan_id":"cebpf4jnsgd1na2vs0mg"},{"bike_id":"022d826a-d31d-48ef-b07e-f8dd0ceaa746","system_id":"levelo_inurba_marseille","lat":43.24996,"lon":5.38935,"is_reserved":false,"is_disabled":false,"rental_uris":{"android":"levelo://app?vid=022d826a-d31d-48ef-b07e-f8dd0ceaa746","ios":"levelo://app?vid=022d826a-d31d-48ef-b07e-f8dd0ceaa746"},"vehicle_type_id":"4","last_reported":1735791095,"current_range_meters":29600,"station_id":"ce4bhgp2rcd13ifvqfd0","pricing_plan_id":"cebpf4jnsgd1na2vs0mg"},{"bike_id":"a20a7c6b-5d25-4b6b-b14e-de0632342600","system_id":"levelo_inurba_marseille","lat":43.31169,"lon":5.38707,"is_reserved":false,"is_disabled":false,"rental_uris":{"android":"levelo://app?vid=a20a7c6b-5d25-4b6b-b14e-de0632342600","ios":"levelo://app?vid=a20a7c6b-5d25-4b6b-b14e-de0632342600"},"vehicle_type_id":"4","last_reported":1735791095,"current_range_meters":32800,"station_id":"ce4bgv12rcd13ifvqcp0","pricing_plan_id":"cebpf4jnsgd1na2vs0mg"},{"bike_id":"041eaa06-215e-4794-95db-78a75b634189","system_id":"levelo_inurba_marseille","lat":43.28844,"lon":5.35846,"is_reserved":false,"is_disabled":false,"rental_uris":{"android":"levelo://app?vid=041eaa06-215e-4794-95db-78a75b634189","ios":"levelo://app?vid=041eaa06-215e-4794-95db-78a75b634189"},"vehicle_type_id":"4","last_reported":1735791095,"current_range_meters":30400,"station_id":"ce4bhb12rcd13ifvqem0","pricing_plan_id":"cebpf4jnsgd1na2vs0mg"},{"bike_id":"e5bb4a6c-dc1b-473c-941d-102c4ae9a6a7","system_id":"levelo_inurba_marseille","lat":43.29275,"lon":5.40124,"is_reserved":false,"is_disabled":false,"rental_uris":{"android":"levelo://app?vid=e5bb4a6c-dc1b-473c-941d-102c4ae9a6a7","ios":"levelo://app?vid=e5bb4a6c-dc1b-473c-941d-102c4ae9a6a7"},"vehicle_type_id":"4","last_reported":1735791095,"current_range_meters":3600,"station_id":"ce4bh312rcd13ifvqdk0","pricing_plan_id":"cebpf4jnsgd1na2vs0mg"},{"bike_id":"a723ce28-f7d0-48b7-8af4-639e73a4245c","system_id":"levelo_inurba_marseille","lat":43.29502,"lon":5.43849,"is_reserved":false,"is_disabled":false,"rental_uris":{"android":"levelo://app?vid=a723ce28-f7d0-48b7-8af4-639e73a4245c","ios":"levelo://app?vid=a723ce28-f7d0-48b7-8af4-639e73a4245c"},"vehicle_type_id":"4","last_reported":1735791095,"current_range_meters":16400,"station_id":"","pricing_plan_id":"cebpf4jnsgd1na2vs0mg"},{"bike_id":"7a8367d5-40de-4267-891e-98a0618690eb","system_id":"levelo_inurba_marseille","lat":43.29569,"lon":5.39969,"is_reserved":false,"is_disabled":false,"rental_uris":{"android":"levelo://app?vid=7a8367d5-40de-4267-891e-98a0618690eb","ios":"levelo://app?vid=7a8367d5-40de-4267-891e-98a0618690eb"},"vehicle_type_id":"4","last_reported":1735791095,"current_range_meters":38400,"station_id":"ce4bh312rcd13ifvqdj0","pricing_plan_id":"cebpf4jnsgd1na2vs0mg"},{"bike_id":"16fa307c-bc46-4c6c-be6d-9d204a724375","system_id":"levelo_inurba_marseille","lat":43.286173,"lon":5.350928,"is_reserved":false,"is_disabled":true,"rental_uris":{"android":"levelo://app?vid=16fa307c-bc46-4c6c-be6d-9d204a724375","ios":"levelo://app?vid=16fa307c-bc46-4c6c-be6d-9d204a724375"},"vehicle_type_id":"4","last_reported":1735791095,"current_range_meters":8400,"station_id":"ce4bhch2rcd13ifvqeug","pricing_plan_id":"cebpf4jnsgd1na2vs0mg"},{"bike_id":"872a5f8a-e316-4a83-8267-2ab61a7c2736","system_id":"levelo_inurba_marseille","lat":43.308841,"lon":5.396392,"is_reserved":false,"is_disabled":false,"rental_uris":{"android":"levelo://app?vid=872a5f8a-e316-4a83-8267-2ab61a7c2736","ios":"levelo://app?vid=872a5f8a-e316-4a83-8267-2ab61a7c2736"},"vehicle_type_id":"4","last_reported":1735791095,"current_range_meters":29600,"station_id":"ce4bh012rcd13ifvqcv0","pricing_plan_id":"cebpf4jnsgd1na2vs0mg"},{"bike_id":"d159ce9e-4f2b-48e8-a8d3-449bfc5f8fd4","system_id":"levelo_inurba_marseille","lat":43.31304,"lon":5.39703,"is_reserved":false,"is_disabled":false,"rental_uris":{"android":"levelo://app?vid=d159ce9e-4f2b-48e8-a8d3-449bfc5f8fd4","ios":"levelo://app?vid=d159ce9e-4f2b-48e8-a8d3-449bfc5f8fd4"},"vehicle_type_id":"4","last_reported":1735791095,"current_range_meters":20400,"station_id":"ce4bgvp2rcd13ifvqcu0","pricing_plan_id":"cebpf4jnsgd1na2vs0mg"},{"bike_id":"50a1fe59-6de3-4565-8a2d-95a47c1519c3","system_id":"levelo_inurba_marseille","lat":43.279222,"lon":5.395864,"is_reserved":false,"is_disabled":false,"rental_uris":{"android":"levelo://app?vid=50a1fe59-6de3-4565-8a2d-95a47c1519c3","ios":"levelo://app?vid=50a1fe59-6de3-4565-8a2d-95a47c1519c3"},"vehicle_type_id":"4","last_reported":1735791095,"current_range_meters":19200,"station_id":"ce4bhf92rcd13ifvqf40","pricing_plan_id":"cebpf4jnsgd1na2vs0mg"},{"bike_id":"4fddba13-1e7b-4cbb-a7ff-2b7342e1322f","system_id":"levelo_inurba_marseille","lat":43.26206,"lon":5.3745,"is_reserved":false,"is_disabled":false,"rental_uris":{"android":"levelo://app?vid=4fddba13-1e7b-4cbb-a7ff-2b7342e1322f","ios":"levelo://app?vid=4fddba13-1e7b-4cbb-a7ff-2b7342e1322f"},"vehicle_type_id":"4","last_reported":1735791095,"current_range_meters":14800,"station_id":"ce4bhgp2rcd13ifvqfc0","pricing_plan_id":"cebpf4jnsgd1na2vs0mg"},{"bike_id":"44d177c7-eea4-4936-8fb2-f4e78401eb94","system_id":"levelo_inurba_marseille","lat":43.25934,"lon":5.40887,"is_reserved":false,"is_disabled":false,"rental_uris":{"android":"levelo://app?vid=44d177c7-eea4-4936-8fb2-f4e78401eb94","ios":"levelo://app?vid=44d177c7-eea4-4936-8fb2-f4e78401eb94"},"vehicle_type_id":"4","last_reported":1735791095,"current_range_meters":38800,"station_id":"ce4bhm92rcd13ifvqglg","pricing_plan_id":"cebpf4jnsgd1na2vs0mg"},{"bike_id":"189d832f-528f-4b42-a3f9-2aa8c8b4f686","system_id":"levelo_inurba_marseille","lat":43.298876,"lon":5.436683,"is_reserved":false,"is_disabled":false,"rental_uris":{"android":"levelo://app?vid=189d832f-528f-4b42-a3f9-2aa8c8b4f686","ios":"levelo://app?vid=189d832f-528f-4b42-a3f9-2aa8c8b4f686"},"vehicle_type_id":"4","last_reported":1735791095,"current_range_meters":38800,"station_id":"ce4bhpp2rcd13ifvqhfg","pricing_plan_id":"cebpf4jnsgd1na2vs0mg"},{"bike_id":"0d1ff5cf-b7b0-4046-9349-217de0019d60","system_id":"levelo_inurba_marseille","lat":43.2816,"lon":5.42639,"is_reserved":false,"is_disabled":false,"rental_uris":{"android":"levelo://app?vid=0d1ff5cf-b7b0-4046-9349-217de0019d60","ios":"levelo://app?vid=0d1ff5cf-b7b0-4046-9349-217de0019d60"},"vehicle_type_id":"4","last_reported":1735791095,"current_range_meters":10800,"station_id":"ce4bhnh2rcd13ifvqgug","pricing_plan_id":"cebpf4jnsgd1na2vs0mg"},{"bike_id":"3e2d2a49-0077-463d-9fa6-7a3d56d6a5a9","system_id":"levelo_inurba_marseille","lat":43.27978,"lon":5.41647,"is_reserved":false,"is_disabled":false,"rental_uris":{"android":"levelo://app?vid=3e2d2a49-0077-463d-9fa6-7a3d56d6a5a9","ios":"levelo://app?vid=3e2d2a49-0077-463d-9fa6-7a3d56d6a5a9"},"vehicle_type_id":"4","last_reported":1735791095,"current_range_meters":38000,"station_id":"ce4bho12rcd13ifvqh1g","pricing_plan_id":"cebpf4jnsgd1na2vs0mg"},{"bike_id":"d9cdd14d-5b0e-4826-8b35-bdbc6fc9eceb","system_id":"levelo_inurba_marseille","lat":43.292163,"lon":5.360615,"is_reserved":false,"is_disabled":false,"rental_uris":{"android":"levelo://app?vid=d9cdd14d-5b0e-4826-8b35-bdbc6fc9eceb","ios":"levelo://app?vid=d9cdd14d-5b0e-4826-8b35-bdbc6fc9eceb"},"vehicle_type_id":"4","last_reported":1735791095,"current_range_meters":37600,"station_id":"ce4bhbh2rcd13ifvqeqg","pricing_plan_id":"cebpf4jnsgd1na2vs0mg"},{"bike_id":"624a8e59-ef43-45a6-803a-3aa15936b2ff","system_id":"levelo_inurba_marseille","lat":43.25085,"lon":5.39525,"is_reserved":false,"is_disabled":true,"rental_uris":{"android":"levelo://app?vid=624a8e59-ef43-45a6-803a-3aa15936b2ff","ios":"levelo://app?vid=624a8e59-ef43-45a6-803a-3aa15936b2ff"},"vehicle_type_id":"4","last_reported":1735791095,"current_range_meters":38800,"station_id":"ce4bhm12rcd13ifvqgkg","pricing_plan_id":"cebpf4jnsgd1na2vs0mg"},{"bike_id":"529d56a8-b2ac-446f-a54e-467a117abe09","system_id":"levelo_inurba_marseille","lat":43.292755,"lon":5.401375,"is_reserved":false,"is_disabled":false,"rental_uris":{"android":"levelo://app?vid=529d56a8-b2ac-446f-a54e-467a117abe09","ios":"levelo://app?vid=529d56a8-b2ac-446f-a54e-467a117abe09"},"vehicle_type_id":"4","last_reported":1735791095,"current_range_meters":4800,"station_id":"ce4bh312rcd13ifvqdk0","pricing_plan_id":"cebpf4jnsgd1na2vs0mg"},{"bike_id":"e388de8f-2bbc-46ed-9079-a8c55aa21c47","system_id":"levelo_inurba_marseille","lat":43.3095,"lon":5.39058,"is_reserved":false,"is_disabled":false,"rental_uris":{"android":"levelo://app?vid=e388de8f-2bbc-46ed-9079-a8c55aa21c47","ios":"levelo://app?vid=e388de8f-2bbc-46ed-9079-a8c55aa21c47"},"vehicle_type_id":"4","last_reported":1735791095,"current_range_meters":38800,"station_id":"ce4bgup2rcd13ifvqco0","pricing_plan_id":"cebpf4jnsgd1na2vs0mg"},{"bike_id":"875ddf3d-2cfd-49c8-bd8d-f51a9265e541","system_id":"levelo_inurba_marseille","lat":43.26707,"lon":5.38259,"is_reserved":false,"is_disabled":false,"rental_uris":{"android":"levelo://app?vid=875ddf3d-2cfd-49c8-bd8d-f51a9265e541","ios":"levelo://app?vid=875ddf3d-2cfd-49c8-bd8d-f51a9265e541"},"vehicle_type_id":"4","last_reported":1735791095,"current_range_meters":25600,"station_id":"ce4bhg92rcd13ifvqf90","pricing_plan_id":"cebpf4jnsgd1na2vs0mg"},{"bike_id":"e7f232e6-9751-45f4-a24f-005b95d10947","system_id":"levelo_inurba_marseille","lat":43.296048,"lon":5.377012,"is_reserved":false,"is_disabled":true,"rental_uris":{"android":"levelo://app?vid=e7f232e6-9751-45f4-a24f-005b95d10947","ios":"levelo://app?vid=e7f232e6-9751-45f4-a24f-005b95d10947"},"vehicle_type_id":"4","last_reported":1735791095,"current_range_meters":4800,"station_id":"ce4bgi92rcd13ifvqb90","pricing_plan_id":"cebpf4jnsgd1na2vs0mg"},{"bike_id":"2124bfc2-7041-4239-86d3-4b503152cb3b","system_id":"levelo_inurba_marseille","lat":43.28844,"lon":5.3585,"is_reserved":false,"is_disabled":false,"rental_uris":{"android":"levelo://app?vid=2124bfc2-7041-4239-86d3-4b503152cb3b","ios":"levelo://app?vid=2124bfc2-7041-4239-86d3-4b503152cb3b"},"vehicle_type_id":"4","last_reported":1735791095,"current_range_meters":28800,"station_id":"ce4bhb12rcd13ifvqem0","pricing_plan_id":"cebpf4jnsgd1na2vs0mg"},{"bike_id":"f3998a04-3b93-4948-8eb7-aa16047370fd","system_id":"levelo_inurba_marseille","lat":43.279579,"lon":5.410446,"is_reserved":false,"is_disabled":false,"rental_uris":{"android":"levelo://app?vid=f3998a04-3b93-4948-8eb7-aa16047370fd","ios":"levelo://app?vid=f3998a04-3b93-4948-8eb7-aa16047370fd"},"vehicle_type_id":"4","last_reported":1735791095,"current_range_meters":24800,"station_id":"ce4bhnp2rcd13ifvqh0g","pricing_plan_id":"cebpf4jnsgd1na2vs0mg"},{"bike_id":"2654fdf8-b2db-47d2-91cd-285786082534","system_id":"levelo_inurba_marseille","lat":43.30897,"lon":5.3717,"is_reserved":false,"is_disabled":false,"rental_uris":{"android":"levelo://app?vid=2654fdf8-b2db-47d2-91cd-285786082534","ios":"levelo://app?vid=2654fdf8-b2db-47d2-91cd-285786082534"},"vehicle_type_id":"4","last_reported":1735791095,"current_range_meters":38800,"station_id":"ce4bguh2rcd13ifvqckg","pricing_plan_id":"cebpf4jnsgd1na2vs0mg"},{"bike_id":"4e5ddd94-96b7-43d6-9911-f47ef0293625","system_id":"levelo_inurba_marseille","lat":43.303564,"lon":5.418666,"is_reserved":false,"is_disabled":false,"rental_uris":{"android":"levelo://app?vid=4e5ddd94-96b7-43d6-9911-f47ef0293625","ios":"levelo://app?vid=4e5ddd94-96b7-43d6-9911-f47ef0293625"},"vehicle_type_id":"4","last_reported":1735791095,"current_range_meters":38400,"station_id":"ce4bhop2rcd13ifvqh7g","pricing_plan_id":"cebpf4jnsgd1na2vs0mg"},{"bike_id":"454e635a-fe63-4370-ba83-5de3ae3da3e0","system_id":"levelo_inurba_marseille","lat":43.2839,"lon":5.37523,"is_reserved":false,"is_disabled":true,"rental_uris":{"android":"levelo://app?vid=454e635a-fe63-4370-ba83-5de3ae3da3e0","ios":"levelo://app?vid=454e635a-fe63-4370-ba83-5de3ae3da3e0"},"vehicle_type_id":"4","last_reported":1735791095,"current_range_meters":33600,"station_id":"ce4bh412rcd13ifvqds0","pricing_plan_id":"cebpf4jnsgd1na2vs0mg"},{"bike_id":"8ead7e35-2ddd-4db1-b525-2dbe32578065","system_id":"levelo_inurba_marseille","lat":43.303137,"lon":5.369043,"is_reserved":false,"is_disabled":true,"rental_uris":{"android":"levelo://app?vid=8ead7e35-2ddd-4db1-b525-2dbe32578065","ios":"levelo://app?vid=8ead7e35-2ddd-4db1-b525-2dbe32578065"},"vehicle_type_id":"4","last_reported":1735791095,"current_range_meters":32000,"station_id":"ce4bgqh2rcd13ifvqc5g","pricing_plan_id":"cebpf4jnsgd1na2vs0mg"},{"bike_id":"0dee81bc-eac7-4dd6-99bf-630930df9c0b","system_id":"levelo_inurba_marseille","lat":43.31166,"lon":5.3871,"is_reserved":false,"is_disabled":false,"rental_uris":{"android":"levelo://app?vid=0dee81bc-eac7-4dd6-99bf-630930df9c0b","ios":"levelo://app?vid=0dee81bc-eac7-4dd6-99bf-630930df9c0b"},"vehicle_type_id":"4","last_reported":1735791095,"current_range_meters":35200,"station_id":"ce4bgv12rcd13ifvqcp0","pricing_plan_id":"cebpf4jnsgd1na2vs0mg"},{"bike_id":"e157af35-862f-4ff3-a971-0cec14143385","system_id":"levelo_inurba_marseille","lat":43.279516,"lon":5.410394,"is_reserved":false,"is_disabled":false,"rental_uris":{"android":"levelo://app?vid=e157af35-862f-4ff3-a971-0cec14143385","ios":"levelo://app?vid=e157af35-862f-4ff3-a971-0cec14143385"},"vehicle_type_id":"4","last_reported":1735791095,"current_range_meters":30000,"station_id":"ce4bhnp2rcd13ifvqh0g","pricing_plan_id":"cebpf4jnsgd1na2vs0mg"},{"bike_id":"d81935cc-c2d8-41f1-87a6-1c6b256db8e0","system_id":"levelo_inurba_marseille","lat":43.32363,"lon":5.38897,"is_reserved":false,"is_disabled":false,"rental_uris":{"android":"levelo://app?vid=d81935cc-c2d8-41f1-87a6-1c6b256db8e0","ios":"levelo://app?vid=d81935cc-c2d8-41f1-87a6-1c6b256db8e0"},"vehicle_type_id":"4","last_reported":1735791095,"current_range_meters":28800,"station_id":"ce4bhqp2rcd13ifvqhog","pricing_plan_id":"cebpf4jnsgd1na2vs0mg"},{"bike_id":"703d0d5e-415c-49c6-943d-859388f28cf6","system_id":"levelo_inurba_marseille","lat":43.27243,"lon":5.40952,"is_reserved":false,"is_disabled":false,"rental_uris":{"android":"levelo://app?vid=703d0d5e-415c-49c6-943d-859388f28cf6","ios":"levelo://app?vid=703d0d5e-415c-49c6-943d-859388f28cf6"},"vehicle_type_id":"4","last_reported":1735791095,"current_range_meters":39200,"station_id":"ce4bhl12rcd13ifvqgf0","pricing_plan_id":"cebpf4jnsgd1na2vs0mg"},{"bike_id":"f5997a88-606e-48c9-933e-041b10894cea","system_id":"levelo_inurba_marseille","lat":43.270664,"lon":5.422769,"is_reserved":false,"is_disabled":false,"rental_uris":{"android":"levelo://app?vid=f5997a88-606e-48c9-933e-041b10894cea","ios":"levelo://app?vid=f5997a88-606e-48c9-933e-041b10894cea"},"vehicle_type_id":"4","last_reported":1735791095,"current_range_meters":16000,"station_id":"ce4bhk92rcd13ifvqgb0","pricing_plan_id":"cebpf4jnsgd1na2vs0mg"},{"bike_id":"311a57b6-ee6a-440d-800d-01c5b040ddaf","system_id":"levelo_inurba_marseille","lat":43.311157,"lon":5.377726,"is_reserved":false,"is_disabled":false,"rental_uris":{"android":"levelo://app?vid=311a57b6-ee6a-440d-800d-01c5b040ddaf","ios":"levelo://app?vid=311a57b6-ee6a-440d-800d-01c5b040ddaf"},"vehicle_type_id":"4","last_reported":1735791095,"current_range_meters":30000,"station_id":"ce4bgt92rcd13ifvqcg0","pricing_plan_id":"cebpf4jnsgd1na2vs0mg"},{"bike_id":"b2efc2c9-4c50-4ae0-9f7a-2ebbe60214c1","system_id":"levelo_inurba_marseille","lat":43.2511,"lon":5.4033,"is_reserved":false,"is_disabled":false,"rental_uris":{"android":"levelo://app?vid=b2efc2c9-4c50-4ae0-9f7a-2ebbe60214c1","ios":"levelo://app?vid=b2efc2c9-4c50-4ae0-9f7a-2ebbe60214c1"},"vehicle_type_id":"4","last_reported":1735791095,"current_range_meters":38400,"station_id":"ce4bhlh2rcd13ifvqgig","pricing_plan_id":"cebpf4jnsgd1na2vs0mg"},{"bike_id":"02b9e2b7-c456-4117-99f8-a5a1cc0170b4","system_id":"levelo_inurba_marseille","lat":43.317596,"lon":5.390091,"is_reserved":false,"is_disabled":false,"rental_uris":{"android":"levelo://app?vid=02b9e2b7-c456-4117-99f8-a5a1cc0170b4","ios":"levelo://app?vid=02b9e2b7-c456-4117-99f8-a5a1cc0170b4"},"vehicle_type_id":"4","last_reported":1735791095,"current_range_meters":35200,"station_id":"ce4bhqp2rcd13ifvqhng","pricing_plan_id":"cebpf4jnsgd1na2vs0mg"},{"bike_id":"96aa68ac-c7d0-4549-9fad-cd9958e2dfc7","system_id":"levelo_inurba_marseille","lat":43.294446,"lon":5.397518,"is_reserved":false,"is_disabled":false,"rental_uris":{"android":"levelo://app?vid=96aa68ac-c7d0-4549-9fad-cd9958e2dfc7","ios":"levelo://app?vid=96aa68ac-c7d0-4549-9fad-cd9958e2dfc7"},"vehicle_type_id":"4","last_reported":1735791095,"current_range_meters":38000,"station_id":"ce4bh3h2rcd13ifvqdo0","pricing_plan_id":"cebpf4jnsgd1na2vs0mg"},{"bike_id":"54a0f462-5615-4e56-ad72-7f076a7c39fe","system_id":"levelo_inurba_marseille","lat":43.28655,"lon":5.36375,"is_reserved":false,"is_disabled":false,"rental_uris":{"android":"levelo://app?vid=54a0f462-5615-4e56-ad72-7f076a7c39fe","ios":"levelo://app?vid=54a0f462-5615-4e56-ad72-7f076a7c39fe"},"vehicle_type_id":"4","last_reported":1735791095,"current_range_meters":38800,"station_id":"ce4bhah2rcd13ifvqej0","pricing_plan_id":"cebpf4jnsgd1na2vs0mg"},{"bike_id":"1758e404-548a-4b20-87fe-a9470e99ef0f","system_id":"levelo_inurba_marseille","lat":43.28368,"lon":5.38613,"is_reserved":false,"is_disabled":false,"rental_uris":{"android":"levelo://app?vid=1758e404-548a-4b20-87fe-a9470e99ef0f","ios":"levelo://app?vid=1758e404-548a-4b20-87fe-a9470e99ef0f"},"vehicle_type_id":"4","last_reported":1735791095,"current_range_meters":38800,"station_id":"ce4bh492rcd13ifvqdvg","pricing_plan_id":"cebpf4jnsgd1na2vs0mg"},{"bike_id":"df93091a-5353-4b8e-9967-10a9cea49786","system_id":"levelo_inurba_marseille","lat":43.305988,"lon":5.393529,"is_reserved":false,"is_disabled":false,"rental_uris":{"android":"levelo://app?vid=df93091a-5353-4b8e-9967-10a9cea49786","ios":"levelo://app?vid=df93091a-5353-4b8e-9967-10a9cea49786"},"vehicle_type_id":"4","last_reported":1735791095,"current_range_meters":24400,"station_id":"ce4bh0p2rcd13ifvqd80","pricing_plan_id":"cebpf4jnsgd1na2vs0mg"},{"bike_id":"bcd20683-a7d2-4d73-b9c6-b696fde50e59","system_id":"levelo_inurba_marseille","lat":43.27061,"lon":5.42277,"is_reserved":false,"is_disabled":true,"rental_uris":{"android":"levelo://app?vid=bcd20683-a7d2-4d73-b9c6-b696fde50e59","ios":"levelo://app?vid=bcd20683-a7d2-4d73-b9c6-b696fde50e59"},"vehicle_type_id":"4","last_reported":1735791095,"current_range_meters":9200,"station_id":"ce4bhk92rcd13ifvqgb0","pricing_plan_id":"cebpf4jnsgd1na2vs0mg"},{"bike_id":"313a9a0d-cbde-465d-8a65-140655419224","system_id":"levelo_inurba_marseille","lat":43.254979,"lon":5.376483,"is_reserved":false,"is_disabled":false,"rental_uris":{"android":"levelo://app?vid=313a9a0d-cbde-465d-8a65-140655419224","ios":"levelo://app?vid=313a9a0d-cbde-465d-8a65-140655419224"},"vehicle_type_id":"4","last_reported":1735791095,"current_range_meters":38800,"station_id":"ce4bhh12rcd13ifvqff0","pricing_plan_id":"cebpf4jnsgd1na2vs0mg"},{"bike_id":"660aed1d-cdeb-4a3c-a6d4-d19ef9a2563b","system_id":"levelo_inurba_marseille","lat":43.29866,"lon":5.43628,"is_reserved":false,"is_disabled":false,"rental_uris":{"android":"levelo://app?vid=660aed1d-cdeb-4a3c-a6d4-d19ef9a2563b","ios":"levelo://app?vid=660aed1d-cdeb-4a3c-a6d4-d19ef9a2563b"},"vehicle_type_id":"4","last_reported":1735791095,"current_range_meters":21600,"station_id":"ce4bhpp2rcd13ifvqhfg","pricing_plan_id":"cebpf4jnsgd1na2vs0mg"},{"bike_id":"7d44431e-ed83-438c-86a7-892d7e053d01","system_id":"levelo_inurba_marseille","lat":43.32045,"lon":5.41516,"is_reserved":false,"is_disabled":false,"rental_uris":{"android":"levelo://app?vid=7d44431e-ed83-438c-86a7-892d7e053d01","ios":"levelo://app?vid=7d44431e-ed83-438c-86a7-892d7e053d01"},"vehicle_type_id":"4","last_reported":1735791095,"current_range_meters":38800,"station_id":"ce4bhq92rcd13ifvqhkg","pricing_plan_id":"cebpf4jnsgd1na2vs0mg"},{"bike_id":"84ff672c-254b-42d1-ad81-4f7d674dca47","system_id":"levelo_inurba_marseille","lat":43.24395,"lon":5.37065,"is_reserved":false,"is_disabled":false,"rental_uris":{"android":"levelo://app?vid=84ff672c-254b-42d1-ad81-4f7d674dca47","ios":"levelo://app?vid=84ff672c-254b-42d1-ad81-4f7d674dca47"},"vehicle_type_id":"4","last_reported":1735791095,"current_range_meters":38800,"station_id":"ce4bhhh2rcd13ifvqfk0","pricing_plan_id":"cebpf4jnsgd1na2vs0mg"},{"bike_id":"d1cc6b6d-73e2-4169-a036-4b8f55f5040c","system_id":"levelo_inurba_marseille","lat":43.31735,"lon":5.3782,"is_reserved":false,"is_disabled":false,"rental_uris":{"android":"levelo://app?vid=d1cc6b6d-73e2-4169-a036-4b8f55f5040c","ios":"levelo://app?vid=d1cc6b6d-73e2-4169-a036-4b8f55f5040c"},"vehicle_type_id":"4","last_reported":1735791095,"current_range_meters":38000,"station_id":"ce4bgth2rcd13ifvqch0","pricing_plan_id":"cebpf4jnsgd1na2vs0mg"},{"bike_id":"84574380-5e63-4a67-bbf0-475b0a817486","system_id":"levelo_inurba_marseille","lat":43.27674,"lon":5.38924,"is_reserved":false,"is_disabled":false,"rental_uris":{"android":"levelo://app?vid=84574380-5e63-4a67-bbf0-475b0a817486","ios":"levelo://app?vid=84574380-5e63-4a67-bbf0-475b0a817486"},"vehicle_type_id":"4","last_reported":1735791095,"current_range_meters":38800,"station_id":"ce4bhi12rcd13ifvqfo0","pricing_plan_id":"cebpf4jnsgd1na2vs0mg"},{"bike_id":"4774beea-a13e-41a7-88d9-b5b577030a1d","system_id":"levelo_inurba_marseille","lat":43.295689,"lon":5.399738,"is_reserved":false,"is_disabled":false,"rental_uris":{"android":"levelo://app?vid=4774beea-a13e-41a7-88d9-b5b577030a1d","ios":"levelo://app?vid=4774beea-a13e-41a7-88d9-b5b577030a1d"},"vehicle_type_id":"4","last_reported":1735791095,"current_range_meters":38800,"station_id":"ce4bh312rcd13ifvqdj0","pricing_plan_id":"cebpf4jnsgd1na2vs0mg"},{"bike_id":"cf71aac8-1e52-435d-bf91-cac39ef804d5","system_id":"levelo_inurba_marseille","lat":43.34154,"lon":5.4088,"is_reserved":false,"is_disabled":false,"rental_uris":{"android":"levelo://app?vid=cf71aac8-1e52-435d-bf91-cac39ef804d5","ios":"levelo://app?vid=cf71aac8-1e52-435d-bf91-cac39ef804d5"},"vehicle_type_id":"4","last_reported":1735791095,"current_range_meters":36400,"station_id":"ce4bhqh2rcd13ifvqhlg","pricing_plan_id":"cebpf4jnsgd1na2vs0mg"},{"bike_id":"145ea73e-8190-48e4-8331-13a1a1cfe545","system_id":"levelo_inurba_marseille","lat":43.33714,"lon":5.39176,"is_reserved":false,"is_disabled":false,"rental_uris":{"android":"levelo://app?vid=145ea73e-8190-48e4-8331-13a1a1cfe545","ios":"levelo://app?vid=145ea73e-8190-48e4-8331-13a1a1cfe545"},"vehicle_type_id":"4","last_reported":1735791095,"current_range_meters":38800,"station_id":"ce4bhr92rcd13ifvqhsg","pricing_plan_id":"cebpf4jnsgd1na2vs0mg"},{"bike_id":"594be97a-e1af-44d9-b33f-28de40fe66bb","system_id":"levelo_inurba_marseille","lat":43.279021,"lon":5.380064,"is_reserved":false,"is_disabled":false,"rental_uris":{"android":"levelo://app?vid=594be97a-e1af-44d9-b33f-28de40fe66bb","ios":"levelo://app?vid=594be97a-e1af-44d9-b33f-28de40fe66bb"},"vehicle_type_id":"4","last_reported":1735791095,"current_range_meters":38800,"station_id":"ce4bhf92rcd13ifvqf50","pricing_plan_id":"cebpf4jnsgd1na2vs0mg"},{"bike_id":"0592da46-8016-4994-825f-ac1fa6a47e92","system_id":"levelo_inurba_marseille","lat":43.32499,"lon":5.36555,"is_reserved":false,"is_disabled":false,"rental_uris":{"android":"levelo://app?vid=0592da46-8016-4994-825f-ac1fa6a47e92","ios":"levelo://app?vid=0592da46-8016-4994-825f-ac1fa6a47e92"},"vehicle_type_id":"4","last_reported":1735791095,"current_range_meters":38000,"station_id":"ce4bhs12rcd13ifvqhvg","pricing_plan_id":"cebpf4jnsgd1na2vs0mg"},{"bike_id":"80918c45-89b7-4fd7-996f-c047d892f254","system_id":"levelo_inurba_marseille","lat":43.28397,"lon":5.35012,"is_reserved":false,"is_disabled":false,"rental_uris":{"android":"levelo://app?vid=80918c45-89b7-4fd7-996f-c047d892f254","ios":"levelo://app?vid=80918c45-89b7-4fd7-996f-c047d892f254"},"vehicle_type_id":"4","last_reported":1735791095,"current_range_meters":28000,"station_id":"ce4bhbh2rcd13ifvqepg","pricing_plan_id":"cebpf4jnsgd1na2vs0mg"},{"bike_id":"d502592a-d2f4-462b-a981-e532ff6a3185","system_id":"levelo_inurba_marseille","lat":43.28923,"lon":5.39634,"is_reserved":false,"is_disabled":false,"rental_uris":{"android":"levelo://app?vid=d502592a-d2f4-462b-a981-e532ff6a3185","ios":"levelo://app?vid=d502592a-d2f4-462b-a981-e532ff6a3185"},"vehicle_type_id":"4","last_reported":1735791095,"current_range_meters":38000,"station_id":"ce4bh3h2rcd13ifvqdn0","pricing_plan_id":"cebpf4jnsgd1na2vs0mg"},{"bike_id":"6ee7489a-d923-4bd5-83e0-c2114046ebb8","system_id":"levelo_inurba_marseille","lat":43.3116,"lon":5.38736,"is_reserved":false,"is_disabled":false,"rental_uris":{"android":"levelo://app?vid=6ee7489a-d923-4bd5-83e0-c2114046ebb8","ios":"levelo://app?vid=6ee7489a-d923-4bd5-83e0-c2114046ebb8"},"vehicle_type_id":"4","last_reported":1735791095,"current_range_meters":37600,"station_id":"ce4bgv12rcd13ifvqcp0","pricing_plan_id":"cebpf4jnsgd1na2vs0mg"},{"bike_id":"4e2e926a-cc62-4529-8b24-3abbcf0f0be2","system_id":"levelo_inurba_marseille","lat":43.23164,"lon":5.35602,"is_reserved":false,"is_disabled":false,"rental_uris":{"android":"levelo://app?vid=4e2e926a-cc62-4529-8b24-3abbcf0f0be2","ios":"levelo://app?vid=4e2e926a-cc62-4529-8b24-3abbcf0f0be2"},"vehicle_type_id":"4","last_reported":1735791095,"current_range_meters":38400,"station_id":"","pricing_plan_id":"cebpf4jnsgd1na2vs0mg"},{"bike_id":"576c3c6b-bcf6-433f-9d79-5f33ae917960","system_id":"levelo_inurba_marseille","lat":43.29557,"lon":5.42309,"is_reserved":false,"is_disabled":false,"rental_uris":{"android":"levelo://app?vid=576c3c6b-bcf6-433f-9d79-5f33ae917960","ios":"levelo://app?vid=576c3c6b-bcf6-433f-9d79-5f33ae917960"},"vehicle_type_id":"4","last_reported":1735791095,"current_range_meters":38800,"station_id":"ce4bhph2rcd13ifvqhdg","pricing_plan_id":"cebpf4jnsgd1na2vs0mg"},{"bike_id":"5251a20e-25ee-4b23-be4c-b33060c57a4e","system_id":"levelo_inurba_marseille","lat":43.303,"lon":5.39238,"is_reserved":false,"is_disabled":false,"rental_uris":{"android":"levelo://app?vid=5251a20e-25ee-4b23-be4c-b33060c57a4e","ios":"levelo://app?vid=5251a20e-25ee-4b23-be4c-b33060c57a4e"},"vehicle_type_id":"4","last_reported":1735791095,"current_range_meters":38800,"station_id":"ce4bgkh2rcd13ifvqbk0","pricing_plan_id":"cebpf4jnsgd1na2vs0mg"},{"bike_id":"c9bf4b20-cf8c-4e15-a218-0c2230fa420c","system_id":"levelo_inurba_marseille","lat":43.28094,"lon":5.37854,"is_reserved":false,"is_disabled":false,"rental_uris":{"android":"levelo://app?vid=c9bf4b20-cf8c-4e15-a218-0c2230fa420c","ios":"levelo://app?vid=c9bf4b20-cf8c-4e15-a218-0c2230fa420c"},"vehicle_type_id":"4","last_reported":1735791095,"current_range_meters":38800,"station_id":"ce4bha12rcd13ifvqee0","pricing_plan_id":"cebpf4jnsgd1na2vs0mg"},{"bike_id":"376806c9-42bf-4b79-847b-ff6ccf9014a8","system_id":"levelo_inurba_marseille","lat":43.29894,"lon":5.38141,"is_reserved":false,"is_disabled":false,"rental_uris":{"android":"levelo://app?vid=376806c9-42bf-4b79-847b-ff6ccf9014a8","ios":"levelo://app?vid=376806c9-42bf-4b79-847b-ff6ccf9014a8"},"vehicle_type_id":"4","last_reported":1735791095,"current_range_meters":11200,"station_id":"ce4bgj12rcd13ifvqbc0","pricing_plan_id":"cebpf4jnsgd1na2vs0mg"},{"bike_id":"e8bfb197-6499-4133-851b-4f477e31e3f9","system_id":"levelo_inurba_marseille","lat":43.33709,"lon":5.39198,"is_reserved":false,"is_disabled":false,"rental_uris":{"android":"levelo://app?vid=e8bfb197-6499-4133-851b-4f477e31e3f9","ios":"levelo://app?vid=e8bfb197-6499-4133-851b-4f477e31e3f9"},"vehicle_type_id":"4","last_reported":1735791095,"current_range_meters":30800,"station_id":"ce4bhr92rcd13ifvqhsg","pricing_plan_id":"cebpf4jnsgd1na2vs0mg"},{"bike_id":"c282168f-23b6-4bd5-b753-7f36e51f87d4","system_id":"levelo_inurba_marseille","lat":43.24081,"lon":5.3774,"is_reserved":false,"is_disabled":false,"rental_uris":{"android":"levelo://app?vid=c282168f-23b6-4bd5-b753-7f36e51f87d4","ios":"levelo://app?vid=c282168f-23b6-4bd5-b753-7f36e51f87d4"},"vehicle_type_id":"4","last_reported":1735791095,"current_range_meters":27200,"station_id":"ce4bhnp2rcd13ifvqgvg","pricing_plan_id":"cebpf4jnsgd1na2vs0mg"},{"bike_id":"5395315d-9fd0-4a43-a38d-2086ce86bcae","system_id":"levelo_inurba_marseille","lat":43.32799,"lon":5.36708,"is_reserved":false,"is_disabled":false,"rental_uris":{"android":"levelo://app?vid=5395315d-9fd0-4a43-a38d-2086ce86bcae","ios":"levelo://app?vid=5395315d-9fd0-4a43-a38d-2086ce86bcae"},"vehicle_type_id":"4","last_reported":1735791095,"current_range_meters":30400,"station_id":"","pricing_plan_id":"cebpf4jnsgd1na2vs0mg"},{"bike_id":"2f71d5d0-4248-4fd8-90b9-7615dc7e3077","system_id":"levelo_inurba_marseille","lat":43.251209,"lon":5.403176,"is_reserved":false,"is_disabled":false,"rental_uris":{"android":"levelo://app?vid=2f71d5d0-4248-4fd8-90b9-7615dc7e3077","ios":"levelo://app?vid=2f71d5d0-4248-4fd8-90b9-7615dc7e3077"},"vehicle_type_id":"4","last_reported":1735791095,"current_range_meters":38800,"station_id":"ce4bhlh2rcd13ifvqgig","pricing_plan_id":"cebpf4jnsgd1na2vs0mg"},{"bike_id":"f46bd378-e30f-485c-b539-9d29fba578aa","system_id":"levelo_inurba_marseille","lat":43.34153,"lon":5.409,"is_reserved":false,"is_disabled":false,"rental_uris":{"android":"levelo://app?vid=f46bd378-e30f-485c-b539-9d29fba578aa","ios":"levelo://app?vid=f46bd378-e30f-485c-b539-9d29fba578aa"},"vehicle_type_id":"4","last_reported":1735791095,"current_range_meters":38800,"station_id":"ce4bhqh2rcd13ifvqhlg","pricing_plan_id":"cebpf4jnsgd1na2vs0mg"},{"bike_id":"583adf00-139d-403f-8366-744378ddbd7e","system_id":"levelo_inurba_marseille","lat":43.283663,"lon":5.386233,"is_reserved":false,"is_disabled":false,"rental_uris":{"android":"levelo://app?vid=583adf00-139d-403f-8366-744378ddbd7e","ios":"levelo://app?vid=583adf00-139d-403f-8366-744378ddbd7e"},"vehicle_type_id":"4","last_reported":1735791095,"current_range_meters":38000,"station_id":"ce4bh492rcd13ifvqdvg","pricing_plan_id":"cebpf4jnsgd1na2vs0mg"},{"bike_id":"198aa1dc-d73c-4de6-aee9-bd9c6a1a5f7e","system_id":"levelo_inurba_marseille","lat":43.3059,"lon":5.39362,"is_reserved":false,"is_disabled":false,"rental_uris":{"android":"levelo://app?vid=198aa1dc-d73c-4de6-aee9-bd9c6a1a5f7e","ios":"levelo://app?vid=198aa1dc-d73c-4de6-aee9-bd9c6a1a5f7e"},"vehicle_type_id":"4","last_reported":1735791095,"current_range_meters":38800,"station_id":"ce4bh0p2rcd13ifvqd80","pricing_plan_id":"cebpf4jnsgd1na2vs0mg"},{"bike_id":"0220cb40-9055-40be-ab3e-23298fd9d352","system_id":"levelo_inurba_marseille","lat":43.28966,"lon":5.37832,"is_reserved":false,"is_disabled":false,"rental_uris":{"android":"levelo://app?vid=0220cb40-9055-40be-ab3e-23298fd9d352","ios":"levelo://app?vid=0220cb40-9055-40be-ab3e-23298fd9d352"},"vehicle_type_id":"4","last_reported":1735791095,"current_range_meters":38400,"station_id":"ce4bh9p2rcd13ifvqed0","pricing_plan_id":"cebpf4jnsgd1na2vs0mg"},{"bike_id":"df334d50-4421-42a5-a762-fb7f39807cc1","system_id":"levelo_inurba_marseille","lat":43.33755,"lon":5.37428,"is_reserved":false,"is_disabled":false,"rental_uris":{"android":"levelo://app?vid=df334d50-4421-42a5-a762-fb7f39807cc1","ios":"levelo://app?vid=df334d50-4421-42a5-a762-fb7f39807cc1"},"vehicle_type_id":"4","last_reported":1735791095,"current_range_meters":33600,"station_id":"","pricing_plan_id":"cebpf4jnsgd1na2vs0mg"},{"bike_id":"87b9a921-e93d-4ee9-818f-18845bfae0db","system_id":"levelo_inurba_marseille","lat":43.25001,"lon":5.38955,"is_reserved":false,"is_disabled":false,"rental_uris":{"android":"levelo://app?vid=87b9a921-e93d-4ee9-818f-18845bfae0db","ios":"levelo://app?vid=87b9a921-e93d-4ee9-818f-18845bfae0db"},"vehicle_type_id":"4","last_reported":1735791095,"current_range_meters":19600,"station_id":"ce4bhgp2rcd13ifvqfd0","pricing_plan_id":"cebpf4jnsgd1na2vs0mg"},{"bike_id":"35d7b981-f2f8-4e1f-bf58-6f3547d4e1f6","system_id":"levelo_inurba_marseille","lat":43.3031,"lon":5.36893,"is_reserved":false,"is_disabled":true,"rental_uris":{"android":"levelo://app?vid=35d7b981-f2f8-4e1f-bf58-6f3547d4e1f6","ios":"levelo://app?vid=35d7b981-f2f8-4e1f-bf58-6f3547d4e1f6"},"vehicle_type_id":"4","last_reported":1735791095,"current_range_meters":20400,"station_id":"ce4bgqh2rcd13ifvqc5g","pricing_plan_id":"cebpf4jnsgd1na2vs0mg"},{"bike_id":"176dc94c-6fa3-4dff-84cb-4c4762966efe","system_id":"levelo_inurba_marseille","lat":43.27448,"lon":5.39392,"is_reserved":false,"is_disabled":false,"rental_uris":{"android":"levelo://app?vid=176dc94c-6fa3-4dff-84cb-4c4762966efe","ios":"levelo://app?vid=176dc94c-6fa3-4dff-84cb-4c4762966efe"},"vehicle_type_id":"4","last_reported":1735791095,"current_range_meters":34000,"station_id":"ce4bhdp2rcd13ifvqf20","pricing_plan_id":"cebpf4jnsgd1na2vs0mg"},{"bike_id":"d6b7bffe-8f80-427e-946d-3914bf2c39b8","system_id":"levelo_inurba_marseille","lat":43.27917,"lon":5.39574,"is_reserved":false,"is_disabled":false,"rental_uris":{"android":"levelo://app?vid=d6b7bffe-8f80-427e-946d-3914bf2c39b8","ios":"levelo://app?vid=d6b7bffe-8f80-427e-946d-3914bf2c39b8"},"vehicle_type_id":"4","last_reported":1735791095,"current_range_meters":36400,"station_id":"ce4bhf92rcd13ifvqf40","pricing_plan_id":"cebpf4jnsgd1na2vs0mg"},{"bike_id":"a9ff90c3-d757-4e04-8d1b-899fc1735178","system_id":"levelo_inurba_marseille","lat":43.28461,"lon":5.358799,"is_reserved":false,"is_disabled":false,"rental_uris":{"android":"levelo://app?vid=a9ff90c3-d757-4e04-8d1b-899fc1735178","ios":"levelo://app?vid=a9ff90c3-d757-4e04-8d1b-899fc1735178"},"vehicle_type_id":"4","last_reported":1735791095,"current_range_meters":34000,"station_id":"ce4bhah2rcd13ifvqei0","pricing_plan_id":"cebpf4jnsgd1na2vs0mg"},{"bike_id":"5367a292-5564-4681-91cd-97babb89fc00","system_id":"levelo_inurba_marseille","lat":43.2293,"lon":5.35409,"is_reserved":false,"is_disabled":false,"rental_uris":{"android":"levelo://app?vid=5367a292-5564-4681-91cd-97babb89fc00","ios":"levelo://app?vid=5367a292-5564-4681-91cd-97babb89fc00"},"vehicle_type_id":"4","last_reported":1735791095,"current_range_meters":19600,"station_id":"cpo3532slgdg3j2ikp40","pricing_plan_id":"cebpf4jnsgd1na2vs0mg"},{"bike_id":"1d5543c4-1c87-4447-ad2e-0cc64903ea75","system_id":"levelo_inurba_marseille","lat":43.258636,"lon":5.399107,"is_reserved":false,"is_disabled":false,"rental_uris":{"android":"levelo://app?vid=1d5543c4-1c87-4447-ad2e-0cc64903ea75","ios":"levelo://app?vid=1d5543c4-1c87-4447-ad2e-0cc64903ea75"},"vehicle_type_id":"4","last_reported":1735791095,"current_range_meters":39200,"station_id":"ce4bhl92rcd13ifvqghg","pricing_plan_id":"cebpf4jnsgd1na2vs0mg"},{"bike_id":"0483d5a5-12c2-4b90-8e6c-47d6d5a4b82c","system_id":"levelo_inurba_marseille","lat":43.25825,"lon":5.39436,"is_reserved":false,"is_disabled":false,"rental_uris":{"android":"levelo://app?vid=0483d5a5-12c2-4b90-8e6c-47d6d5a4b82c","ios":"levelo://app?vid=0483d5a5-12c2-4b90-8e6c-47d6d5a4b82c"},"vehicle_type_id":"4","last_reported":1735791095,"current_range_meters":39200,"station_id":"ce4bhip2rcd13ifvqft0","pricing_plan_id":"cebpf4jnsgd1na2vs0mg"},{"bike_id":"fda9f2f4-c30f-4888-900c-81ed4e869059","system_id":"levelo_inurba_marseille","lat":43.30298,"lon":5.39209,"is_reserved":false,"is_disabled":false,"rental_uris":{"android":"levelo://app?vid=fda9f2f4-c30f-4888-900c-81ed4e869059","ios":"levelo://app?vid=fda9f2f4-c30f-4888-900c-81ed4e869059"},"vehicle_type_id":"4","last_reported":1735791095,"current_range_meters":38000,"station_id":"ce4bgkh2rcd13ifvqbk0","pricing_plan_id":"cebpf4jnsgd1na2vs0mg"},{"bike_id":"f98fde69-1f61-4a82-80ea-97f37f2d8cf7","system_id":"levelo_inurba_marseille","lat":43.30201,"lon":5.36615,"is_reserved":false,"is_disabled":false,"rental_uris":{"android":"levelo://app?vid=f98fde69-1f61-4a82-80ea-97f37f2d8cf7","ios":"levelo://app?vid=f98fde69-1f61-4a82-80ea-97f37f2d8cf7"},"vehicle_type_id":"4","last_reported":1735791095,"current_range_meters":37600,"station_id":"ce4bgrh2rcd13ifvqc8g","pricing_plan_id":"cebpf4jnsgd1na2vs0mg"},{"bike_id":"9320d020-4c62-4fe4-ac9b-ff56a3eaad5a","system_id":"levelo_inurba_marseille","lat":43.2603,"lon":5.37556,"is_reserved":false,"is_disabled":false,"rental_uris":{"android":"levelo://app?vid=9320d020-4c62-4fe4-ac9b-ff56a3eaad5a","ios":"levelo://app?vid=9320d020-4c62-4fe4-ac9b-ff56a3eaad5a"},"vehicle_type_id":"4","last_reported":1735791095,"current_range_meters":38400,"station_id":"ce4bhgh2rcd13ifvqfa0","pricing_plan_id":"cebpf4jnsgd1na2vs0mg"},{"bike_id":"5805dd1a-e108-430b-8b6a-b20a2cc619b1","system_id":"levelo_inurba_marseille","lat":43.29574,"lon":5.39978,"is_reserved":false,"is_disabled":false,"rental_uris":{"android":"levelo://app?vid=5805dd1a-e108-430b-8b6a-b20a2cc619b1","ios":"levelo://app?vid=5805dd1a-e108-430b-8b6a-b20a2cc619b1"},"vehicle_type_id":"4","last_reported":1735791095,"current_range_meters":38400,"station_id":"ce4bh312rcd13ifvqdj0","pricing_plan_id":"cebpf4jnsgd1na2vs0mg"},{"bike_id":"addd4f10-99f5-4e98-a77b-9d17d1d03a73","system_id":"levelo_inurba_marseille","lat":43.27383,"lon":5.36223,"is_reserved":false,"is_disabled":false,"rental_uris":{"android":"levelo://app?vid=addd4f10-99f5-4e98-a77b-9d17d1d03a73","ios":"levelo://app?vid=addd4f10-99f5-4e98-a77b-9d17d1d03a73"},"vehicle_type_id":"4","last_reported":1735791095,"current_range_meters":24800,"station_id":"ce4bhbh2rcd13ifvqeo0","pricing_plan_id":"cebpf4jnsgd1na2vs0mg"},{"bike_id":"62076514-d312-4a15-ad75-f85cfe6d3f46","system_id":"levelo_inurba_marseille","lat":43.22931,"lon":5.35379,"is_reserved":false,"is_disabled":false,"rental_uris":{"android":"levelo://app?vid=62076514-d312-4a15-ad75-f85cfe6d3f46","ios":"levelo://app?vid=62076514-d312-4a15-ad75-f85cfe6d3f46"},"vehicle_type_id":"4","last_reported":1735791095,"current_range_meters":17600,"station_id":"cpo3532slgdg3j2ikp40","pricing_plan_id":"cebpf4jnsgd1na2vs0mg"},{"bike_id":"921c161c-81a9-4f62-88c9-fa7031ed1ea4","system_id":"levelo_inurba_marseille","lat":43.30176,"lon":5.36612,"is_reserved":false,"is_disabled":false,"rental_uris":{"android":"levelo://app?vid=921c161c-81a9-4f62-88c9-fa7031ed1ea4","ios":"levelo://app?vid=921c161c-81a9-4f62-88c9-fa7031ed1ea4"},"vehicle_type_id":"4","last_reported":1735791095,"current_range_meters":38800,"station_id":"ce4bgrh2rcd13ifvqc8g","pricing_plan_id":"cebpf4jnsgd1na2vs0mg"},{"bike_id":"d3c3ecb6-59dd-4313-8afe-88cdbe30cb5c","system_id":"levelo_inurba_marseille","lat":43.24793,"lon":5.37439,"is_reserved":false,"is_disabled":false,"rental_uris":{"android":"levelo://app?vid=d3c3ecb6-59dd-4313-8afe-88cdbe30cb5c","ios":"levelo://app?vid=d3c3ecb6-59dd-4313-8afe-88cdbe30cb5c"},"vehicle_type_id":"4","last_reported":1735791095,"current_range_meters":38400,"station_id":"ce4bhgh2rcd13ifvqfb0","pricing_plan_id":"cebpf4jnsgd1na2vs0mg"},{"bike_id":"3e6b1c3b-cf11-4303-b4d7-0ec5c145e60f","system_id":"levelo_inurba_marseille","lat":43.28028,"lon":5.36949,"is_reserved":false,"is_disabled":false,"rental_uris":{"android":"levelo://app?vid=3e6b1c3b-cf11-4303-b4d7-0ec5c145e60f","ios":"levelo://app?vid=3e6b1c3b-cf11-4303-b4d7-0ec5c145e60f"},"vehicle_type_id":"4","last_reported":1735791095,"current_range_meters":22800,"station_id":"ce4bha12rcd13ifvqef0","pricing_plan_id":"cebpf4jnsgd1na2vs0mg"},{"bike_id":"b3afc75c-abdc-4e55-84d0-a16da508bd99","system_id":"levelo_inurba_marseille","lat":43.28881,"lon":5.3819,"is_reserved":false,"is_disabled":false,"rental_uris":{"android":"levelo://app?vid=b3afc75c-abdc-4e55-84d0-a16da508bd99","ios":"levelo://app?vid=b3afc75c-abdc-4e55-84d0-a16da508bd99"},"vehicle_type_id":"4","last_reported":1735791095,"current_range_meters":6800,"station_id":"","pricing_plan_id":"cebpf4jnsgd1na2vs0mg"},{"bike_id":"33776a3e-0ae4-4083-a373-770263a139d9","system_id":"levelo_inurba_marseille","lat":43.290056,"lon":5.35609,"is_reserved":false,"is_disabled":false,"rental_uris":{"android":"levelo://app?vid=33776a3e-0ae4-4083-a373-770263a139d9","ios":"levelo://app?vid=33776a3e-0ae4-4083-a373-770263a139d9"},"vehicle_type_id":"4","last_reported":1735791095,"current_range_meters":38800,"station_id":"ce4bhb92rcd13ifvqen0","pricing_plan_id":"cebpf4jnsgd1na2vs0mg"},{"bike_id":"515e64d3-2742-40a4-9cbd-08e53c8330a3","system_id":"levelo_inurba_marseille","lat":43.28846,"lon":5.39314,"is_reserved":false,"is_disabled":false,"rental_uris":{"android":"levelo://app?vid=515e64d3-2742-40a4-9cbd-08e53c8330a3","ios":"levelo://app?vid=515e64d3-2742-40a4-9cbd-08e53c8330a3"},"vehicle_type_id":"4","last_reported":1735791095,"current_range_meters":38800,"station_id":"ce4bh2p2rcd13ifvqdi0","pricing_plan_id":"cebpf4jnsgd1na2vs0mg"},{"bike_id":"bbfc5010-5ad1-478a-9bf0-def17e142c1c","system_id":"levelo_inurba_marseille","lat":43.28024,"lon":5.3695,"is_reserved":false,"is_disabled":false,"rental_uris":{"android":"levelo://app?vid=bbfc5010-5ad1-478a-9bf0-def17e142c1c","ios":"levelo://app?vid=bbfc5010-5ad1-478a-9bf0-def17e142c1c"},"vehicle_type_id":"4","last_reported":1735791095,"current_range_meters":38800,"station_id":"ce4bha12rcd13ifvqef0","pricing_plan_id":"cebpf4jnsgd1na2vs0mg"},{"bike_id":"e9be51a1-ef71-4ae5-8ab2-1ac8e1634659","system_id":"levelo_inurba_marseille","lat":43.306,"lon":5.393447,"is_reserved":false,"is_disabled":false,"rental_uris":{"android":"levelo://app?vid=e9be51a1-ef71-4ae5-8ab2-1ac8e1634659","ios":"levelo://app?vid=e9be51a1-ef71-4ae5-8ab2-1ac8e1634659"},"vehicle_type_id":"4","last_reported":1735791095,"current_range_meters":16400,"station_id":"ce4bgjp2rcd13ifvqbh0","pricing_plan_id":"cebpf4jnsgd1na2vs0mg"},{"bike_id":"eae183bb-740d-44fe-b089-1da9a9715607","system_id":"levelo_inurba_marseille","lat":43.284761,"lon":5.384154,"is_reserved":false,"is_disabled":false,"rental_uris":{"android":"levelo://app?vid=eae183bb-740d-44fe-b089-1da9a9715607","ios":"levelo://app?vid=eae183bb-740d-44fe-b089-1da9a9715607"},"vehicle_type_id":"4","last_reported":1735791095,"current_range_meters":39200,"station_id":"ce4bh512rcd13ifvqe3g","pricing_plan_id":"cebpf4jnsgd1na2vs0mg"},{"bike_id":"a3597e2d-fb98-407b-9432-8b4a2b613bde","system_id":"levelo_inurba_marseille","lat":43.30352,"lon":5.41883,"is_reserved":false,"is_disabled":false,"rental_uris":{"android":"levelo://app?vid=a3597e2d-fb98-407b-9432-8b4a2b613bde","ios":"levelo://app?vid=a3597e2d-fb98-407b-9432-8b4a2b613bde"},"vehicle_type_id":"4","last_reported":1735791095,"current_range_meters":38800,"station_id":"ce4bhop2rcd13ifvqh7g","pricing_plan_id":"cebpf4jnsgd1na2vs0mg"},{"bike_id":"9fc11948-a0d1-4b39-8d46-5ede6d39db06","system_id":"levelo_inurba_marseille","lat":43.269894,"lon":5.365771,"is_reserved":false,"is_disabled":false,"rental_uris":{"android":"levelo://app?vid=9fc11948-a0d1-4b39-8d46-5ede6d39db06","ios":"levelo://app?vid=9fc11948-a0d1-4b39-8d46-5ede6d39db06"},"vehicle_type_id":"4","last_reported":1735791095,"current_range_meters":5600,"station_id":"","pricing_plan_id":"cebpf4jnsgd1na2vs0mg"},{"bike_id":"dac94ecf-3203-4c89-acc0-21c14e979588","system_id":"levelo_inurba_marseille","lat":43.266889,"lon":5.382717,"is_reserved":false,"is_disabled":false,"rental_uris":{"android":"levelo://app?vid=dac94ecf-3203-4c89-acc0-21c14e979588","ios":"levelo://app?vid=dac94ecf-3203-4c89-acc0-21c14e979588"},"vehicle_type_id":"4","last_reported":1735791095,"current_range_meters":6800,"station_id":"ce4bhg92rcd13ifvqf90","pricing_plan_id":"cebpf4jnsgd1na2vs0mg"},{"bike_id":"9489e3c9-2bef-4e30-8edd-86890257135c","system_id":"levelo_inurba_marseille","lat":43.24536,"lon":5.39529,"is_reserved":false,"is_disabled":false,"rental_uris":{"android":"levelo://app?vid=9489e3c9-2bef-4e30-8edd-86890257135c","ios":"levelo://app?vid=9489e3c9-2bef-4e30-8edd-86890257135c"},"vehicle_type_id":"4","last_reported":1735791095,"current_range_meters":38000,"station_id":"ce4bhlp2rcd13ifvqgjg","pricing_plan_id":"cebpf4jnsgd1na2vs0mg"},{"bike_id":"4802f4cf-bdb4-4c46-ab2a-8cf4b2f0b54e","system_id":"levelo_inurba_marseille","lat":43.32361,"lon":5.3889,"is_reserved":false,"is_disabled":false,"rental_uris":{"android":"levelo://app?vid=4802f4cf-bdb4-4c46-ab2a-8cf4b2f0b54e","ios":"levelo://app?vid=4802f4cf-bdb4-4c46-ab2a-8cf4b2f0b54e"},"vehicle_type_id":"4","last_reported":1735791095,"current_range_meters":14800,"station_id":"ce4bhqp2rcd13ifvqhog","pricing_plan_id":"cebpf4jnsgd1na2vs0mg"},{"bike_id":"9c42c59a-a990-48ee-91ac-32ebebcaabf5","system_id":"levelo_inurba_marseille","lat":43.27554,"lon":5.38432,"is_reserved":false,"is_disabled":false,"rental_uris":{"android":"levelo://app?vid=9c42c59a-a990-48ee-91ac-32ebebcaabf5","ios":"levelo://app?vid=9c42c59a-a990-48ee-91ac-32ebebcaabf5"},"vehicle_type_id":"4","last_reported":1735791095,"current_range_meters":39200,"station_id":"ce4bhh92rcd13ifvqfi0","pricing_plan_id":"cebpf4jnsgd1na2vs0mg"},{"bike_id":"8718220a-6a37-41be-b92a-7cc1a59fedb2","system_id":"levelo_inurba_marseille","lat":43.27547,"lon":5.38434,"is_reserved":false,"is_disabled":false,"rental_uris":{"android":"levelo://app?vid=8718220a-6a37-41be-b92a-7cc1a59fedb2","ios":"levelo://app?vid=8718220a-6a37-41be-b92a-7cc1a59fedb2"},"vehicle_type_id":"4","last_reported":1735791095,"current_range_meters":8800,"station_id":"ce4bhh92rcd13ifvqfi0","pricing_plan_id":"cebpf4jnsgd1na2vs0mg"},