{"last_updated":1761063232,"ttl":60,"version":"2.2","data":{"bikes":[{"bike_id":"d8a0f4f8-3964-402e-924c-3470748785aa","system_id":"levelo_inurba_marseille","lat":43.337444,"lon":5.374475,"is_reserved":false,"is_disabled":false,"rental_uris":{"android":"levelo://app?vid=d8a0f4f8-3964-402e-924c-3470748785aa","ios":"levelo://app?vid=d8a0f4f8-3964-402e-924c-3470748785aa"},"vehicle_type_id":"4","last_reported":1761063232,"current_range_meters":0,"station_id":"","pricing_plan_id":"cebpf4jnsgd1na2vs0mg"},{"bike_id":"64993ee3-87b9-4a8a-988c-d2b06599ac89","system_id":"levelo_inurba_marseille","lat":43.24799,"lon":5.37458,"is_reserved":false,"is_disabled":false,"rental_uris":{"android":"levelo://app?vid=64993ee3-87b9-4a8a-988c-d2b06599ac89","ios":"levelo://app?vid=64993ee3-87b9-4a8a-988c-d2b06599ac89"},"vehicle_type_id":"4","last_reported":1761063232,"current_range_meters":2800,"station_id":"ce4bhgh2rcd13ifvqfb0","pricing_plan_id":"cebpf4jnsgd1na2vs0mg"},{"bike_id":"5ba2024b-14d6-4b37-82e9-2cd39e8a185f","system_id":"levelo_inurba_marseille","lat":43.29976,"lon":5.37186,"is_reserved":false,"is_disabled":false,"rental_uris":{"android":"levelo://app?vid=5ba2024b-14d6-4b37-82e9-2cd39e8a185f","ios":"levelo://app?vid=5ba2024b-14d6-4b37-82e9-2cd39e8a185f"},"vehicle_type_id":"4","last_reported":1761063232,"current_range_meters":2800,"station_id":"ce4bgr92rcd13ifvqc7g","pricing_plan_id":"cebpf4jnsgd1na2vs0mg"},{"bike_id":"c7aaeb5f-1d9c-436b-990a-454527496ca9","system_id":"levelo_inurba_marseille","lat":43.29505,"lon":5.394,"is_reserved":false,"is_disabled":false,"rental_uris":{"android":"levelo://app?vid=c7aaeb5f-1d9c-436b-990a-454527496ca9","ios":"levelo://app?vid=c7aaeb5f-1d9c-436b-990a-454527496ca9"},"vehicle_type_id":"4","last_reported":1761063232,"current_range_meters":3200,"station_id":"ce4bh292rcd13ifvqdf0","pricing_plan_id":"cebpf4jnsgd1na2vs0mg"},{"bike_id":"bab220a2-99a6-49fb-8ef8-bfe5125a28ae","system_id":"levelo_inurba_marseille","lat":43.296064,"lon":5.381043,"is_reserved":false,"is_disabled":false,"rental_uris":{"android":"levelo://app?vid=bab220a2-99a6-49fb-8ef8-bfe5125a28ae","ios":"levelo://app?vid=bab220a2-99a6-49fb-8ef8-bfe5125a28ae"},"vehicle_type_id":"4","last_reported":1761063232,"current_range_meters":3200,"station_id":"ce4bgl12rcd13ifvqbo0","pricing_plan_id":"cebpf4jnsgd1na2vs0mg"},{"bike_id":"f1684e0d-abcb-487b-93d4-5c0b3155f16b","system_id":"levelo_inurba_marseille","lat":43.29967,"lon":5.38503,"is_reserved":false,"is_disabled":false,"rental_uris":{"android":"levelo://app?vid=f1684e0d-abcb-487b-93d4-5c0b3155f16b","ios":"levelo://app?vid=f1684e0d-abcb-487b-93d4-5c0b3155f16b"},"vehicle_type_id":"4","last_reported":1761063232,"current_range_meters":3200,"station_id":"ce4bgj92rcd13ifvqbd0","pricing_plan_id":"cebpf4jnsgd1na2vs0mg"},{"bike_id":"aecdb0ff-530e-4a0a-9857-ce2eb441ada0","system_id":"levelo_inurba_marseille","lat":43.25726,"lon":5.41105,"is_reserved":false,"is_disabled":false,"rental_uris":{"android":"levelo://app?vid=aecdb0ff-530e-4a0a-9857-ce2eb441ada0","ios":"levelo://app?vid=aecdb0ff-530e-4a0a-9857-ce2eb441ada0"},"vehicle_type_id":"4","last_reported":1761063232,"current_range_meters":3200,"station_id":"ce4bhkp2rcd13ifvqgd0","pricing_plan_id":"cebpf4jnsgd1na2vs0mg"},{"bike_id":"fbd7f20a-1cd0-4d53-bc63-e18a79fbb4c1","system_id":"levelo_inurba_marseille","lat":43.27888,"lon":5.40959,"is_reserved":false,"is_disabled":false,"rental_uris":{"android":"levelo://app?vid=fbd7f20a-1cd0-4d53-bc63-e18a79fbb4c1","ios":"levelo://app?vid=fbd7f20a-1cd0-4d53-bc63-e18a79fbb4c1"},"vehicle_type_id":"4","last_reported":1761063232,"current_range_meters":3200,"station_id":"","pricing_plan_id":"cebpf4jnsgd1na2vs0mg"},{"bike_id":"a0925ecc-ae04-4a7d-8550-d8cf3630703b","system_id":"levelo_inurba_marseille","lat":43.26682,"lon":5.38274,"is_reserved":false,"is_disabled":false,"rental_uris":{"android":"levelo://app?vid=a0925ecc-ae04-4a7d-8550-d8cf3630703b","ios":"levelo://app?vid=a0925ecc-ae04-4a7d-8550-d8cf3630703b"},"vehicle_type_id":"4","last_reported":1761063232,"current_range_meters":3600,"station_id":"ce4bhg92rcd13ifvqf90","pricing_plan_id":"cebpf4jnsgd1na2vs0mg"},{"bike_id":"782dcdf3-a9ba-4150-8299-00fb0a6dec0c","system_id":"levelo_inurba_marseille","lat":43.28869,"lon":5.38316,"is_reserved":false,"is_disabled":false,"rental_uris":{"android":"levelo://app?vid=782dcdf3-a9ba-4150-8299-00fb0a6dec0c","ios":"levelo://app?vid=782dcdf3-a9ba-4150-8299-00fb0a6dec0c"},"vehicle_type_id":"4","last_reported":1761063232,"current_range_meters":3600,"station_id":"","pricing_plan_id":"cebpf4jnsgd1na2vs0mg"},{"bike_id":"aba84ad2-22c8-4ebf-a705-e191a428c084","system_id":"levelo_inurba_marseille","lat":43.26205,"lon":5.37438,"is_reserved":false,"is_disabled":false,"rental_uris":{"android":"levelo://app?vid=aba84ad2-22c8-4ebf-a705-e191a428c084","ios":"levelo://app?vid=aba84ad2-22c8-4ebf-a705-e191a428c084"},"vehicle_type_id":"4","last_reported":1761063232,"current_range_meters":3600,"station_id":"ce4bhgp2rcd13ifvqfc0","pricing_plan_id":"cebpf4jnsgd1na2vs0mg"},{"bike_id":"18c7888d-4ca7-45c6-ac82-896ebe5697d9","system_id":"levelo_inurba_marseille","lat":43.297841,"lon":5.393461,"is_reserved":false,"is_disabled":false,"rental_uris":{"android":"levelo://app?vid=18c7888d-4ca7-45c6-ac82-896ebe5697d9","ios":"levelo://app?vid=18c7888d-4ca7-45c6-ac82-896ebe5697d9"},"vehicle_type_id":"4","last_reported":1761063232,"current_range_meters":3600,"station_id":"chh1huq6cuj3fo74tm60","pricing_plan_id":"cebpf4jnsgd1na2vs0mg"},{"bike_id":"91f69060-3543-4e34-b988-d49287b314e8","system_id":"levelo_inurba_marseille","lat":43.28865,"lon":5.42532,"is_reserved":false,"is_disabled":false,"rental_uris":{"android":"levelo://app?vid=91f69060-3543-4e34-b988-d49287b314e8","ios":"levelo://app?vid=91f69060-3543-4e34-b988-d49287b314e8"},"vehicle_type_id":"4","last_reported":1761063232,"current_range_meters":3600,"station_id":"st_d3b462108ojc7389ooeg","pricing_plan_id":"cebpf4jnsgd1na2vs0mg"},{"bike_id":"fbb75000-48f5-4dbe-aa37-aa4a8d769d08","system_id":"levelo_inurba_marseille","lat":43.21175,"lon":5.35102,"is_reserved":false,"is_disabled":false,"rental_uris":{"android":"levelo://app?vid=fbb75000-48f5-4dbe-aa37-aa4a8d769d08","ios":"levelo://app?vid=fbb75000-48f5-4dbe-aa37-aa4a8d769d08"},"vehicle_type_id":"4","last_reported":1761063232,"current_range_meters":4000,"station_id":"st_cvj6sg6p6f1abm77japg","pricing_plan_id":"cebpf4jnsgd1na2vs0mg"},{"bike_id":"aa253f48-0628-4abe-bcea-fff896de820d","system_id":"levelo_inurba_marseille","lat":43.30149,"lon":5.39855,"is_reserved":false,"is_disabled":false,"rental_uris":{"android":"levelo://app?vid=aa253f48-0628-4abe-bcea-fff896de820d","ios":"levelo://app?vid=aa253f48-0628-4abe-bcea-fff896de820d"},"vehicle_type_id":"4","last_reported":1761063232,"current_range_meters":4000,"station_id":"ce4bh0h2rcd13ifvqd40","pricing_plan_id":"cebpf4jnsgd1na2vs0mg"},{"bike_id":"78a0dc8b-3b9d-41f7-a3a3-18ec054e3617","system_id":"levelo_inurba_marseille","lat":43.30968,"lon":5.3812,"is_reserved":false,"is_disabled":false,"rental_uris":{"android":"levelo://app?vid=78a0dc8b-3b9d-41f7-a3a3-18ec054e3617","ios":"levelo://app?vid=78a0dc8b-3b9d-41f7-a3a3-18ec054e3617"},"vehicle_type_id":"4","last_reported":1761063232,"current_range_meters":4000,"station_id":"","pricing_plan_id":"cebpf4jnsgd1na2vs0mg"},{"bike_id":"7dd0a29b-cb5f-4526-96bb-48d09254cad1","system_id":"levelo_inurba_marseille","lat":43.30154,"lon":5.38082,"is_reserved":false,"is_disabled":false,"rental_uris":{"android":"levelo://app?vid=7dd0a29b-cb5f-4526-96bb-48d09254cad1","ios":"levelo://app?vid=7dd0a29b-cb5f-4526-96bb-48d09254cad1"},"vehicle_type_id":"4","last_reported":1761063232,"current_range_meters":4000,"station_id":"ce4bgjp2rcd13ifvqbh0","pricing_plan_id":"cebpf4jnsgd1na2vs0mg"},{"bike_id":"3c4bb10f-c6cf-4920-801d-adb41b3b4137","system_id":"levelo_inurba_marseille","lat":43.229348,"lon":5.353749,"is_reserved":false,"is_disabled":false,"rental_uris":{"android":"levelo://app?vid=3c4bb10f-c6cf-4920-801d-adb41b3b4137","ios":"levelo://app?vid=3c4bb10f-c6cf-4920-801d-adb41b3b4137"},"vehicle_type_id":"4","last_reported":1761063232,"current_range_meters":4000,"station_id":"cpo3532slgdg3j2ikp40","pricing_plan_id":"cebpf4jnsgd1na2vs0mg"},{"bike_id":"6dda31ac-2b1f-4a4e-91ea-ced8629aa74b","system_id":"levelo_inurba_marseille","lat":43.287163,"lon":5.37385,"is_reserved":false,"is_disabled":false,"rental_uris":{"android":"levelo://app?vid=6dda31ac-2b1f-4a4e-91ea-ced8629aa74b","ios":"levelo://app?vid=6dda31ac-2b1f-4a4e-91ea-ced8629aa74b"},"vehicle_type_id":"4","last_reported":1761063232,"current_range_meters":4400,"station_id":"ce4bh3p2rcd13ifvqdq0","pricing_plan_id":"cebpf4jnsgd1na2vs0mg"},{"bike_id":"487e1a83-f54b-43e5-9e89-b7a9c6d97f8e","system_id":"levelo_inurba_marseille","lat":43.29274,"lon":5.40105,"is_reserved":false,"is_disabled":false,"rental_uris":{"android":"levelo://app?vid=487e1a83-f54b-43e5-9e89-b7a9c6d97f8e","ios":"levelo://app?vid=487e1a83-f54b-43e5-9e89-b7a9c6d97f8e"},"vehicle_type_id":"4","last_reported":1761063232,"current_range_meters":4400,"station_id":"ce4bh312rcd13ifvqdk0","pricing_plan_id":"cebpf4jnsgd1na2vs0mg"},{"bike_id":"46b65e38-6443-4f19-aa5c-2d79f8c60b50","system_id":"levelo_inurba_marseille","lat":43.28724,"lon":5.36094,"is_reserved":false,"is_disabled":false,"rental_uris":{"android":"levelo://app?vid=46b65e38-6443-4f19-aa5c-2d79f8c60b50","ios":"levelo://app?vid=46b65e38-6443-4f19-aa5c-2d79f8c60b50"},"vehicle_type_id":"4","last_reported":1761063232,"current_range_meters":4400,"station_id":"cki0cbj6b192h4jlfktg","pricing_plan_id":"cebpf4jnsgd1na2vs0mg"},{"bike_id":"cd98264f-76e6-42f5-9285-92bc7fec2983","system_id":"levelo_inurba_marseille","lat":43.32481,"lon":5.36571,"is_reserved":false,"is_disabled":false,"rental_uris":{"android":"levelo://app?vid=cd98264f-76e6-42f5-9285-92bc7fec2983","ios":"levelo://app?vid=cd98264f-76e6-42f5-9285-92bc7fec2983"},"vehicle_type_id":"4","last_reported":1761063232,"current_range_meters":4800,"station_id":"ce4bhs12rcd13ifvqhvg","pricing_plan_id":"cebpf4jnsgd1na2vs0mg"},{"bike_id":"5a88e71b-c60a-4b8c-a37f-3353e4e598a9","system_id":"levelo_inurba_marseille","lat":43.315891,"lon":5.396736,"is_reserved":false,"is_disabled":false,"rental_uris":{"android":"levelo://app?vid=5a88e71b-c60a-4b8c-a37f-3353e4e598a9","ios":"levelo://app?vid=5a88e71b-c60a-4b8c-a37f-3353e4e598a9"},"vehicle_type_id":"4","last_reported":1761063232,"current_range_meters":4800,"station_id":"ce4bgvp2rcd13ifvqcu0","pricing_plan_id":"cebpf4jnsgd1na2vs0mg"},{"bike_id":"f9efdeab-f593-42c0-b305-004d6b009640","system_id":"levelo_inurba_marseille","lat":43.27945,"lon":5.41044,"is_reserved":false,"is_disabled":false,"rental_uris":{"android":"levelo://app?vid=f9efdeab-f593-42c0-b305-004d6b009640","ios":"levelo://app?vid=f9efdeab-f593-42c0-b305-004d6b009640"},"vehicle_type_id":"4","last_reported":1761063232,"current_range_meters":4800,"station_id":"ce4bhnp2rcd13ifvqh0g","pricing_plan_id":"cebpf4jnsgd1na2vs0mg"},{"bike_id":"18fbc236-0318-45c8-b064-8114c08a80c8","system_id":"levelo_inurba_marseille","lat":43.282654,"lon":5.350626,"is_reserved":false,"is_disabled":false,"rental_uris":{"android":"levelo://app?vid=18fbc236-0318-45c8-b064-8114c08a80c8","ios":"levelo://app?vid=18fbc236-0318-45c8-b064-8114c08a80c8"},"vehicle_type_id":"4","last_reported":1761063232,"current_range_meters":4800,"station_id":"ce4bhbp2rcd13ifvqerg","pricing_plan_id":"cebpf4jnsgd1na2vs0mg"},{"bike_id":"212a9329-66c4-44b3-8186-4a3357c4630e","system_id":"levelo_inurba_marseille","lat":43.29204,"lon":5.38082,"is_reserved":false,"is_disabled":false,"rental_uris":{"android":"levelo://app?vid=212a9329-66c4-44b3-8186-4a3357c4630e","ios":"levelo://app?vid=212a9329-66c4-44b3-8186-4a3357c4630e"},"vehicle_type_id":"4","last_reported":1761063232,"current_range_meters":5600,"station_id":"","pricing_plan_id":"cebpf4jnsgd1na2vs0mg"},{"bike_id":"3b7fc33c-82a7-4a55-86f8-999abc017243","system_id":"levelo_inurba_marseille","lat":43.27946,"lon":5.41034,"is_reserved":false,"is_disabled":false,"rental_uris":{"android":"levelo://app?vid=3b7fc33c-82a7-4a55-86f8-999abc017243","ios":"levelo://app?vid=3b7fc33c-82a7-4a55-86f8-999abc017243"},"vehicle_type_id":"4","last_reported":1761063232,"current_range_meters":5600,"station_id":"ce4bhnp2rcd13ifvqh0g","pricing_plan_id":"cebpf4jnsgd1na2vs0mg"},{"bike_id":"0b867865-8fec-4861-a97f-214091df1358","system_id":"levelo_inurba_marseille","lat":43.25869,"lon":5.39896,"is_reserved":false,"is_disabled":false,"rental_uris":{"android":"levelo://app?vid=0b867865-8fec-4861-a97f-214091df1358","ios":"levelo://app?vid=0b867865-8fec-4861-a97f-214091df1358"},"vehicle_type_id":"4","last_reported":1761063232,"current_range_meters":5600,"station_id":"ce4bhl92rcd13ifvqghg","pricing_plan_id":"cebpf4jnsgd1na2vs0mg"},{"bike_id":"b44cc812-75af-4f4e-8f67-4129080f39d1","system_id":"levelo_inurba_marseille","lat":43.247916,"lon":5.374459,"is_reserved":false,"is_disabled":false,"rental_uris":{"android":"levelo://app?vid=b44cc812-75af-4f4e-8f67-4129080f39d1","ios":"levelo://app?vid=b44cc812-75af-4f4e-8f67-4129080f39d1"},"vehicle_type_id":"4","last_reported":1761063232,"current_range_meters":5600,"station_id":"ce4bhgh2rcd13ifvqfb0","pricing_plan_id":"cebpf4jnsgd1na2vs0mg"},{"bike_id":"4a504869-b4e0-488d-9a14-31157a162f58","system_id":"levelo_inurba_marseille","lat":43.28003,"lon":5.4001,"is_reserved":false,"is_disabled":false,"rental_uris":{"android":"levelo://app?vid=4a504869-b4e0-488d-9a14-31157a162f58","ios":"levelo://app?vid=4a504869-b4e0-488d-9a14-31157a162f58"},"vehicle_type_id":"4","last_reported":1761063232,"current_range_meters":5600,"station_id":"ce4bho92rcd13ifvqh4g","pricing_plan_id":"cebpf4jnsgd1na2vs0mg"},{"bike_id":"8a830d4f-ddab-46b9-9d0f-77194401daa1","system_id":"levelo_inurba_marseille","lat":43.34725,"lon":5.36613,"is_reserved":false,"is_disabled":false,"rental_uris":{"android":"levelo://app?vid=8a830d4f-ddab-46b9-9d0f-77194401daa1","ios":"levelo://app?vid=8a830d4f-ddab-46b9-9d0f-77194401daa1"},"vehicle_type_id":"4","last_reported":1761063232,"current_range_meters":6000,"station_id":"","pricing_plan_id":"cebpf4jnsgd1na2vs0mg"},{"bike_id":"8e663546-24ad-482f-9a20-1fbac16b2c68","system_id":"levelo_inurba_marseille","lat":43.300936,"lon":5.370578,"is_reserved":false,"is_disabled":false,"rental_uris":{"android":"levelo://app?vid=8e663546-24ad-482f-9a20-1fbac16b2c68","ios":"levelo://app?vid=8e663546-24ad-482f-9a20-1fbac16b2c68"},"vehicle_type_id":"4","last_reported":1761063232,"current_range_meters":6000,"station_id":"ce4bgr92rcd13ifvqc7g","pricing_plan_id":"cebpf4jnsgd1na2vs0mg"},{"bike_id":"07400bae-6660-48e7-b291-4f4876e146d8","system_id":"levelo_inurba_marseille","lat":43.310742,"lon":5.424341,"is_reserved":false,"is_disabled":true,"rental_uris":{"android":"levelo://app?vid=07400bae-6660-48e7-b291-4f4876e146d8","ios":"levelo://app?vid=07400bae-6660-48e7-b291-4f4876e146d8"},"vehicle_type_id":"4","last_reported":1761063232,"current_range_meters":6000,"station_id":"","pricing_plan_id":"cebpf4jnsgd1na2vs0mg"},{"bike_id":"5a247d9e-7c47-4423-b244-bdb16776017c","system_id":"levelo_inurba_marseille","lat":43.29708,"lon":5.36609,"is_reserved":false,"is_disabled":false,"rental_uris":{"android":"levelo://app?vid=5a247d9e-7c47-4423-b244-bdb16776017c","ios":"levelo://app?vid=5a247d9e-7c47-4423-b244-bdb16776017c"},"vehicle_type_id":"4","last_reported":1761063232,"current_range_meters":6000,"station_id":"ce4bgn12rcd13ifvqbt0","pricing_plan_id":"cebpf4jnsgd1na2vs0mg"},{"bike_id":"e7090ac3-156e-4ca3-b797-cd25fceb1145","system_id":"levelo_inurba_marseille","lat":43.27207,"lon":5.39186,"is_reserved":false,"is_disabled":false,"rental_uris":{"android":"levelo://app?vid=e7090ac3-156e-4ca3-b797-cd25fceb1145","ios":"levelo://app?vid=e7090ac3-156e-4ca3-b797-cd25fceb1145"},"vehicle_type_id":"4","last_reported":1761063232,"current_range_meters":6000,"station_id":"ce4bhhp2rcd13ifvqfm0","pricing_plan_id":"cebpf4jnsgd1na2vs0mg"},{"bike_id":"8bae98a1-760f-4b2d-8185-a83c2b693539","system_id":"levelo_inurba_marseille","lat":43.296009,"lon":5.380951,"is_reserved":false,"is_disabled":false,"rental_uris":{"android":"levelo://app?vid=8bae98a1-760f-4b2d-8185-a83c2b693539","ios":"levelo://app?vid=8bae98a1-760f-4b2d-8185-a83c2b693539"},"vehicle_type_id":"4","last_reported":1761063232,"current_range_meters":6400,"station_id":"ce4bgl12rcd13ifvqbo0","pricing_plan_id":"cebpf4jnsgd1na2vs0mg"},{"bike_id":"084fa347-b924-46a8-964b-43f29b1c4a18","system_id":"levelo_inurba_marseille","lat":43.297859,"lon":5.393372,"is_reserved":false,"is_disabled":false,"rental_uris":{"android":"levelo://app?vid=084fa347-b924-46a8-964b-43f29b1c4a18","ios":"levelo://app?vid=084fa347-b924-46a8-964b-43f29b1c4a18"},"vehicle_type_id":"4","last_reported":1761063232,"current_range_meters":6400,"station_id":"chh1huq6cuj3fo74tm60","pricing_plan_id":"cebpf4jnsgd1na2vs0mg"},{"bike_id":"f8b5faf4-0a69-45d5-97ed-2b79a6ae1413","system_id":"levelo_inurba_marseille","lat":43.27831,"lon":5.39213,"is_reserved":false,"is_disabled":false,"rental_uris":{"android":"levelo://app?vid=f8b5faf4-0a69-45d5-97ed-2b79a6ae1413","ios":"levelo://app?vid=f8b5faf4-0a69-45d5-97ed-2b79a6ae1413"},"vehicle_type_id":"4","last_reported":1761063232,"current_range_meters":6400,"station_id":"ce4bhjp2rcd13ifvqga0","pricing_plan_id":"cebpf4jnsgd1na2vs0mg"},{"bike_id":"262e8629-4ada-49e0-9b92-960275a55dad","system_id":"levelo_inurba_marseille","lat":43.296295,"lon":5.405943,"is_reserved":false,"is_disabled":false,"rental_uris":{"android":"levelo://app?vid=262e8629-4ada-49e0-9b92-960275a55dad","ios":"levelo://app?vid=262e8629-4ada-49e0-9b92-960275a55dad"},"vehicle_type_id":"4","last_reported":1761063232,"current_range_meters":6400,"station_id":"ce4bh0h2rcd13ifvqd60","pricing_plan_id":"cebpf4jnsgd1na2vs0mg"},{"bike_id":"7caedf13-0e6c-4e85-89b1-5b84714fee23","system_id":"levelo_inurba_marseille","lat":43.286087,"lon":5.370657,"is_reserved":false,"is_disabled":false,"rental_uris":{"android":"levelo://app?vid=7caedf13-0e6c-4e85-89b1-5b84714fee23","ios":"levelo://app?vid=7caedf13-0e6c-4e85-89b1-5b84714fee23"},"vehicle_type_id":"4","last_reported":1761063232,"current_range_meters":6400,"station_id":"ce4bht12rcd13ifvqi60","pricing_plan_id":"cebpf4jnsgd1na2vs0mg"},{"bike_id":"e2934bcd-edea-4607-a647-8dbb7cee60d5","system_id":"levelo_inurba_marseille","lat":43.29526,"lon":5.39025,"is_reserved":false,"is_disabled":false,"rental_uris":{"android":"levelo://app?vid=e2934bcd-edea-4607-a647-8dbb7cee60d5","ios":"levelo://app?vid=e2934bcd-edea-4607-a647-8dbb7cee60d5"},"vehicle_type_id":"4","last_reported":1761063232,"current_range_meters":6400,"station_id":"ce4bh3p2rcd13ifvqdp0","pricing_plan_id":"cebpf4jnsgd1na2vs0mg"},{"bike_id":"a5a8eef3-9a3f-419c-a020-528c109175d8","system_id":"levelo_inurba_marseille","lat":43.29974,"lon":5.38494,"is_reserved":false,"is_disabled":false,"rental_uris":{"android":"levelo://app?vid=a5a8eef3-9a3f-419c-a020-528c109175d8","ios":"levelo://app?vid=a5a8eef3-9a3f-419c-a020-528c109175d8"},"vehicle_type_id":"4","last_reported":1761063232,"current_range_meters":6800,"station_id":"ce4bgj92rcd13ifvqbd0","pricing_plan_id":"cebpf4jnsgd1na2vs0mg"},{"bike_id":"c037874f-e454-4d1e-9f03-b485b4dbd4f2","system_id":"levelo_inurba_marseille","lat":43.29182,"lon":5.370596,"is_reserved":false,"is_disabled":false,"rental_uris":{"android":"levelo://app?vid=c037874f-e454-4d1e-9f03-b485b4dbd4f2","ios":"levelo://app?vid=c037874f-e454-4d1e-9f03-b485b4dbd4f2"},"vehicle_type_id":"4","last_reported":1761063232,"current_range_meters":6800,"station_id":"","pricing_plan_id":"cebpf4jnsgd1na2vs0mg"},{"bike_id":"23d2e327-9a1c-43f9-a1d7-2fca27e96f84","system_id":"levelo_inurba_marseille","lat":43.273507,"lon":5.415088,"is_reserved":false,"is_disabled":false,"rental_uris":{"android":"levelo://app?vid=23d2e327-9a1c-43f9-a1d7-2fca27e96f84","ios":"levelo://app?vid=23d2e327-9a1c-43f9-a1d7-2fca27e96f84"},"vehicle_type_id":"4","last_reported":1761063232,"current_range_meters":6800,"station_id":"","pricing_plan_id":"cebpf4jnsgd1na2vs0mg"},{"bike_id":"fcf1a632-63e3-4e8a-8092-7f19431ab74f","system_id":"levelo_inurba_marseille","lat":43.31318,"lon":5.39699,"is_reserved":false,"is_disabled":false,"rental_uris":{"android":"levelo://app?vid=fcf1a632-63e3-4e8a-8092-7f19431ab74f","ios":"levelo://app?vid=fcf1a632-63e3-4e8a-8092-7f19431ab74f"},"vehicle_type_id":"4","last_reported":1761063232,"current_range_meters":6800,"station_id":"ce4bgvp2rcd13ifvqcu0","pricing_plan_id":"cebpf4jnsgd1na2vs0mg"},{"bike_id":"95a979ed-d455-4054-aac2-5ba3097e045b","system_id":"levelo_inurba_marseille","lat":43.26197,"lon":5.37449,"is_reserved":false,"is_disabled":false,"rental_uris":{"android":"levelo://app?vid=95a979ed-d455-4054-aac2-5ba3097e045b","ios":"levelo://app?vid=95a979ed-d455-4054-aac2-5ba3097e045b"},"vehicle_type_id":"4","last_reported":1761063232,"current_range_meters":6800,"station_id":"ce4bhgp2rcd13ifvqfc0","pricing_plan_id":"cebpf4jnsgd1na2vs0mg"},{"bike_id":"98490d11-db71-4361-ab96-f0addd49d050","system_id":"levelo_inurba_marseille","lat":43.30001,"lon":5.37356,"is_reserved":false,"is_disabled":false,"rental_uris":{"android":"levelo://app?vid=98490d11-db71-4361-ab96-f0addd49d050","ios":"levelo://app?vid=98490d11-db71-4361-ab96-f0addd49d050"},"vehicle_type_id":"4","last_reported":1761063232,"current_range_meters":6800,"station_id":"","pricing_plan_id":"cebpf4jnsgd1na2vs0mg"},{"bike_id":"56bf4059-64b2-4bdb-ac1e-d634fda9578c","system_id":"levelo_inurba_marseille","lat":43.2962,"lon":5.37153,"is_reserved":false,"is_disabled":false,"rental_uris":{"android":"levelo://app?vid=56bf4059-64b2-4bdb-ac1e-d634fda9578c","ios":"levelo://app?vid=56bf4059-64b2-4bdb-ac1e-d634fda9578c"},"vehicle_type_id":"4","last_reported":1761063232,"current_range_meters":7200,"station_id":"ce4bgnh2rcd13ifvqc0g","pricing_plan_id":"cebpf4jnsgd1na2vs0mg"},{"bike_id":"0a51bf15-9648-4fd6-83ed-99384de13197","system_id":"levelo_inurba_marseille","lat":43.29893,"lon":5.38166,"is_reserved":false,"is_disabled":false,"rental_uris":{"android":"levelo://app?vid=0a51bf15-9648-4fd6-83ed-99384de13197","ios":"levelo://app?vid=0a51bf15-9648-4fd6-83ed-99384de13197"},"vehicle_type_id":"4","last_reported":1761063232,"current_range_meters":7200,"station_id":"ce4bgj12rcd13ifvqbc0","pricing_plan_id":"cebpf4jnsgd1na2vs0mg"},{"bike_id":"8952652d-181d-4647-99e0-dd7c8dc8f72d","system_id":"levelo_inurba_marseille","lat":43.28535,"lon":5.44099,"is_reserved":false,"is_disabled":false,"rental_uris":{"android":"levelo://app?vid=8952652d-181d-4647-99e0-dd7c8dc8f72d","ios":"levelo://app?vid=8952652d-181d-4647-99e0-dd7c8dc8f72d"},"vehicle_type_id":"4","last_reported":1761063232,"current_range_meters":7200,"station_id":"st_d3j3df2ikq2c7380ej80","pricing_plan_id":"cebpf4jnsgd1na2vs0mg"},{"bike_id":"3dce95df-7659-446e-9010-516137ea4310","system_id":"levelo_inurba_marseille","lat":43.30953,"lon":5.39032,"is_reserved":false,"is_disabled":true,"rental_uris":{"android":"levelo://app?vid=3dce95df-7659-446e-9010-516137ea4310","ios":"levelo://app?vid=3dce95df-7659-446e-9010-516137ea4310"},"vehicle_type_id":"4","last_reported":1761063232,"current_range_meters":7200,"station_id":"ce4bgup2rcd13ifvqco0","pricing_plan_id":"cebpf4jnsgd1na2vs0mg"},{"bike_id":"7cd73de1-e7ea-4c5b-a53c-6cd0c5619dfc","system_id":"levelo_inurba_marseille","lat":43.3014,"lon":5.39856,"is_reserved":false,"is_disabled":false,"rental_uris":{"android":"levelo://app?vid=7cd73de1-e7ea-4c5b-a53c-6cd0c5619dfc","ios":"levelo://app?vid=7cd73de1-e7ea-4c5b-a53c-6cd0c5619dfc"},"vehicle_type_id":"4","last_reported":1761063232,"current_range_meters":7200,"station_id":"ce4bh0h2rcd13ifvqd40","pricing_plan_id":"cebpf4jnsgd1na2vs0mg"},{"bike_id":"04018adf-9b7e-4f75-95a6-f2dca1881420","system_id":"levelo_inurba_marseille","lat":43.21757,"lon":5.3459,"is_reserved":false,"is_disabled":true,"rental_uris":{"android":"levelo://app?vid=04018adf-9b7e-4f75-95a6-f2dca1881420","ios":"levelo://app?vid=04018adf-9b7e-4f75-95a6-f2dca1881420"},"vehicle_type_id":"4","last_reported":1761063232,"current_range_meters":7200,"station_id":"st_cvj6r9ubvosntc0bgbag","pricing_plan_id":"cebpf4jnsgd1na2vs0mg"},{"bike_id":"6d8da19b-0143-43ba-a2b6-b774a32597d4","system_id":"levelo_inurba_marseille","lat":43.28147,"lon":5.34783,"is_reserved":false,"is_disabled":false,"rental_uris":{"android":"levelo://app?vid=6d8da19b-0143-43ba-a2b6-b774a32597d4","ios":"levelo://app?vid=6d8da19b-0143-43ba-a2b6-b774a32597d4"},"vehicle_type_id":"4","last_reported":1761063232,"current_range_meters":8000,"station_id":"","pricing_plan_id":"cebpf4jnsgd1na2vs0mg"},{"bike_id":"1ab73efe-883a-463c-94a7-3f29ba7887c8","system_id":"levelo_inurba_marseille","lat":43.2996,"lon":5.38549,"is_reserved":false,"is_disabled":false,"rental_uris":{"android":"levelo://app?vid=1ab73efe-883a-463c-94a7-3f29ba7887c8","ios":"levelo://app?vid=1ab73efe-883a-463c-94a7-3f29ba7887c8"},"vehicle_type_id":"4","last_reported":1761063232,"current_range_meters":8000,"station_id":"","pricing_plan_id":"cebpf4jnsgd1na2vs0mg"},{"bike_id":"bf8ec125-d0e1-4669-93ef-7d5ad0ddea3a","system_id":"levelo_inurba_marseille","lat":43.27233,"lon":5.40076,"is_reserved":false,"is_disabled":false,"rental_uris":{"android":"levelo://app?vid=bf8ec125-d0e1-4669-93ef-7d5ad0ddea3a","ios":"levelo://app?vid=bf8ec125-d0e1-4669-93ef-7d5ad0ddea3a"},"vehicle_type_id":"4","last_reported":1761063232,"current_range_meters":8400,"station_id":"","pricing_plan_id":"cebpf4jnsgd1na2vs0mg"},{"bike_id":"727390e4-f3e4-43cd-8b68-138bd26c44ec","system_id":"levelo_inurba_marseille","lat":43.287079,"lon":5.400034,"is_reserved":false,"is_disabled":false,"rental_uris":{"android":"levelo://app?vid=727390e4-f3e4-43cd-8b68-138bd26c44ec","ios":"levelo://app?vid=727390e4-f3e4-43cd-8b68-138bd26c44ec"},"vehicle_type_id":"4","last_reported":1761063232,"current_range_meters":8400,"station_id":"ce4bho92rcd13ifvqh3g","pricing_plan_id":"cebpf4jnsgd1na2vs0mg"},{"bike_id":"e7cb61d9-84d9-41c0-8427-00fc6a9e436b","system_id":"levelo_inurba_marseille","lat":43.310731,"lon":5.37557,"is_reserved":false,"is_disabled":false,"rental_uris":{"android":"levelo://app?vid=e7cb61d9-84d9-41c0-8427-00fc6a9e436b","ios":"levelo://app?vid=e7cb61d9-84d9-41c0-8427-00fc6a9e436b"},"vehicle_type_id":"4","last_reported":1761063232,"current_range_meters":8400,"station_id":"","pricing_plan_id":"cebpf4jnsgd1na2vs0mg"},{"bike_id":"2e25bc97-b9f5-4f97-a493-c2d3c04c9f6d","system_id":"levelo_inurba_marseille","lat":43.29595,"lon":5.38097,"is_reserved":false,"is_disabled":false,"rental_uris":{"android":"levelo://app?vid=2e25bc97-b9f5-4f97-a493-c2d3c04c9f6d","ios":"levelo://app?vid=2e25bc97-b9f5-4f97-a493-c2d3c04c9f6d"},"vehicle_type_id":"4","last_reported":1761063232,"current_range_meters":8800,"station_id":"ce4bgl12rcd13ifvqbo0","pricing_plan_id":"cebpf4jnsgd1na2vs0mg"},{"bike_id":"faafaab3-2765-4e63-92f5-e8aca18c08f2","system_id":"levelo_inurba_marseille","lat":43.320936,"lon":5.367577,"is_reserved":false,"is_disabled":true,"rental_uris":{"android":"levelo://app?vid=faafaab3-2765-4e63-92f5-e8aca18c08f2","ios":"levelo://app?vid=faafaab3-2765-4e63-92f5-e8aca18c08f2"},"vehicle_type_id":"4","last_reported":1761063232,"current_range_meters":8800,"station_id":"ce4bhrh2rcd13ifvqhug","pricing_plan_id":"cebpf4jnsgd1na2vs0mg"},{"bike_id":"c4432b73-0adb-475d-83b3-18f6e7bba483","system_id":"levelo_inurba_marseille","lat":43.33065,"lon":5.39978,"is_reserved":false,"is_disabled":false,"rental_uris":{"android":"levelo://app?vid=c4432b73-0adb-475d-83b3-18f6e7bba483","ios":"levelo://app?vid=c4432b73-0adb-475d-83b3-18f6e7bba483"},"vehicle_type_id":"4","last_reported":1761063232,"current_range_meters":8800,"station_id":"","pricing_plan_id":"cebpf4jnsgd1na2vs0mg"},{"bike_id":"e0b2a497-9bd4-4c0a-8fab-d2739f808190","system_id":"levelo_inurba_marseille","lat":43.239679,"lon":5.366313,"is_reserved":false,"is_disabled":false,"rental_uris":{"android":"levelo://app?vid=e0b2a497-9bd4-4c0a-8fab-d2739f808190","ios":"levelo://app?vid=e0b2a497-9bd4-4c0a-8fab-d2739f808190"},"vehicle_type_id":"4","last_reported":1761063232,"current_range_meters":9200,"station_id":"ce4bhi12rcd13ifvqfp0","pricing_plan_id":"cebpf4jnsgd1na2vs0mg"},{"bike_id":"bfb70734-c2bb-47f5-b13c-14a568ab9cd8","system_id":"levelo_inurba_marseille","lat":43.2817,"lon":5.42626,"is_reserved":false,"is_disabled":false,"rental_uris":{"android":"levelo://app?vid=bfb70734-c2bb-47f5-b13c-14a568ab9cd8","ios":"levelo://app?vid=bfb70734-c2bb-47f5-b13c-14a568ab9cd8"},"vehicle_type_id":"4","last_reported":1761063232,"current_range_meters":9200,"station_id":"ce4bhnh2rcd13ifvqgug","pricing_plan_id":"cebpf4jnsgd1na2vs0mg"},{"bike_id":"79c51b69-0679-4128-b28a-491a52cfc149","system_id":"levelo_inurba_marseille","lat":43.304308,"lon":5.405861,"is_reserved":false,"is_disabled":false,"rental_uris":{"android":"levelo://app?vid=79c51b69-0679-4128-b28a-491a52cfc149","ios":"levelo://app?vid=79c51b69-0679-4128-b28a-491a52cfc149"},"vehicle_type_id":"4","last_reported":1761063232,"current_range_meters":9200,"station_id":"","pricing_plan_id":"cebpf4jnsgd1na2vs0mg"},{"bike_id":"a2e131f8-3c9f-478a-b394-6a9db5f46a7a","system_id":"levelo_inurba_marseille","lat":43.30131,"lon":5.37428,"is_reserved":false,"is_disabled":true,"rental_uris":{"android":"levelo://app?vid=a2e131f8-3c9f-478a-b394-6a9db5f46a7a","ios":"levelo://app?vid=a2e131f8-3c9f-478a-b394-6a9db5f46a7a"},"vehicle_type_id":"4","last_reported":1761063232,"current_range_meters":9200,"station_id":"ce4bgs92rcd13ifvqcc0","pricing_plan_id":"cebpf4jnsgd1na2vs0mg"},{"bike_id":"f2ff0ade-5361-46d8-ab78-69bd403c3483","system_id":"levelo_inurba_marseille","lat":43.282106,"lon":5.349894,"is_reserved":false,"is_disabled":false,"rental_uris":{"android":"levelo://app?vid=f2ff0ade-5361-46d8-ab78-69bd403c3483","ios":"levelo://app?vid=f2ff0ade-5361-46d8-ab78-69bd403c3483"},"vehicle_type_id":"4","last_reported":1761063232,"current_range_meters":9200,"station_id":"","pricing_plan_id":"cebpf4jnsgd1na2vs0mg"},{"bike_id":"bedab86a-a42b-4d3b-a255-7e555fb6da4b","system_id":"levelo_inurba_marseille","lat":43.28826,"lon":5.45171,"is_reserved":false,"is_disabled":false,"rental_uris":{"android":"levelo://app?vid=bedab86a-a42b-4d3b-a255-7e555fb6da4b","ios":"levelo://app?vid=bedab86a-a42b-4d3b-a255-7e555fb6da4b"},"vehicle_type_id":"4","last_reported":1761063232,"current_range_meters":9600,"station_id":"","pricing_plan_id":"cebpf4jnsgd1na2vs0mg"},{"bike_id":"32cc0069-c75d-48ed-9d1a-fc3ec90ce6cb","system_id":"levelo_inurba_marseille","lat":43.32474,"lon":5.36562,"is_reserved":false,"is_disabled":false,"rental_uris":{"android":"levelo://app?vid=32cc0069-c75d-48ed-9d1a-fc3ec90ce6cb","ios":"levelo://app?vid=32cc0069-c75d-48ed-9d1a-fc3ec90ce6cb"},"vehicle_type_id":"4","last_reported":1761063232,"current_range_meters":9600,"station_id":"ce4bhs12rcd13ifvqhvg","pricing_plan_id":"cebpf4jnsgd1na2vs0mg"},{"bike_id":"b6993b0c-04ac-4c79-9cbb-b188f3ff8a42","system_id":"levelo_inurba_marseille","lat":43.28152,"lon":5.42641,"is_reserved":false,"is_disabled":false,"rental_uris":{"android":"levelo://app?vid=b6993b0c-04ac-4c79-9cbb-b188f3ff8a42","ios":"levelo://app?vid=b6993b0c-04ac-4c79-9cbb-b188f3ff8a42"},"vehicle_type_id":"4","last_reported":1761063232,"current_range_meters":9600,"station_id":"ce4bhnh2rcd13ifvqgug","pricing_plan_id":"cebpf4jnsgd1na2vs0mg"},{"bike_id":"adb6da43-a790-4bbe-8cdb-8fa1e5d17796","system_id":"levelo_inurba_marseille","lat":43.3175,"lon":5.38585,"is_reserved":false,"is_disabled":true,"rental_uris":{"android":"levelo://app?vid=adb6da43-a790-4bbe-8cdb-8fa1e5d17796","ios":"levelo://app?vid=adb6da43-a790-4bbe-8cdb-8fa1e5d17796"},"vehicle_type_id":"4","last_reported":1761063232,"current_range_meters":9600,"station_id":"","pricing_plan_id":"cebpf4jnsgd1na2vs0mg"},{"bike_id":"c47fe97f-e90c-4bd5-bd39-ffc6338d92d8","system_id":"levelo_inurba_marseille","lat":43.29574,"lon":5.39982,"is_reserved":false,"is_disabled":false,"rental_uris":{"android":"levelo://app?vid=c47fe97f-e90c-4bd5-bd39-ffc6338d92d8","ios":"levelo://app?vid=c47fe97f-e90c-4bd5-bd39-ffc6338d92d8"},"vehicle_type_id":"4","last_reported":1761063232,"current_range_meters":10000,"station_id":"ce4bh312rcd13ifvqdj0","pricing_plan_id":"cebpf4jnsgd1na2vs0mg"},{"bike_id":"4154d683-e72a-4592-9e60-2a3872848698","system_id":"levelo_inurba_marseille","lat":43.28474,"lon":5.48393,"is_reserved":false,"is_disabled":false,"rental_uris":{"android":"levelo://app?vid=4154d683-e72a-4592-9e60-2a3872848698","ios":"levelo://app?vid=4154d683-e72a-4592-9e60-2a3872848698"},"vehicle_type_id":"4","last_reported":1761063232,"current_range_meters":10000,"station_id":"st_d3jp68qikq2c7381ktn0","pricing_plan_id":"cebpf4jnsgd1na2vs0mg"},{"bike_id":"2f2cd53b-bf8d-472a-8c70-97638c6ae795","system_id":"levelo_inurba_marseille","lat":43.318752,"lon":5.399876,"is_reserved":false,"is_disabled":false,"rental_uris":{"android":"levelo://app?vid=2f2cd53b-bf8d-472a-8c70-97638c6ae795","ios":"levelo://app?vid=2f2cd53b-bf8d-472a-8c70-97638c6ae795"},"vehicle_type_id":"4","last_reported":1761063232,"current_range_meters":10000,"station_id":"","pricing_plan_id":"cebpf4jnsgd1na2vs0mg"},{"bike_id":"1e9bfffa-fe46-4cca-8d70-a5ba74081670","system_id":"levelo_inurba_marseille","lat":43.31236,"lon":5.36851,"is_reserved":false,"is_disabled":true,"rental_uris":{"android":"levelo://app?vid=1e9bfffa-fe46-4cca-8d70-a5ba74081670","ios":"levelo://app?vid=1e9bfffa-fe46-4cca-8d70-a5ba74081670"},"vehicle_type_id":"4","last_reported":1761063232,"current_range_meters":10000,"station_id":"ce4bgl92rcd13ifvqbq0","pricing_plan_id":"cebpf4jnsgd1na2vs0mg"},{"bike_id":"3d068a7d-8c2c-4f97-8d7d-54140fa95800","system_id":"levelo_inurba_marseille","lat":43.27349,"lon":5.39875,"is_reserved":false,"is_disabled":false,"rental_uris":{"android":"levelo://app?vid=3d068a7d-8c2c-4f97-8d7d-54140fa95800","ios":"levelo://app?vid=3d068a7d-8c2c-4f97-8d7d-54140fa95800"},"vehicle_type_id":"4","last_reported":1761063232,"current_range_meters":10000,"station_id":"","pricing_plan_id":"cebpf4jnsgd1na2vs0mg"},{"bike_id":"b3368da1-faef-43a4-ada4-73d0de7687c7","system_id":"levelo_inurba_marseille","lat":43.31571,"lon":5.38755,"is_reserved":false,"is_disabled":true,"rental_uris":{"android":"levelo://app?vid=b3368da1-faef-43a4-ada4-73d0de7687c7","ios":"levelo://app?vid=b3368da1-faef-43a4-ada4-73d0de7687c7"},"vehicle_type_id":"4","last_reported":1761063232,"current_range_meters":10000,"station_id":"","pricing_plan_id":"cebpf4jnsgd1na2vs0mg"},{"bike_id":"4ea9ee66-3b42-4f35-aef4-9a7e2a13b3aa","system_id":"levelo_inurba_marseille","lat":43.27996,"lon":5.41668,"is_reserved":false,"is_disabled":false,"rental_uris":{"android":"levelo://app?vid=4ea9ee66-3b42-4f35-aef4-9a7e2a13b3aa","ios":"levelo://app?vid=4ea9ee66-3b42-4f35-aef4-9a7e2a13b3aa"},"vehicle_type_id":"4","last_reported":1761063232,"current_range_meters":10800,"station_id":"ce4bho12rcd13ifvqh1g","pricing_plan_id":"cebpf4jnsgd1na2vs0mg"},{"bike_id":"b7e41c34-cad5-468c-aadc-3ef8a1845b5a","system_id":"levelo_inurba_marseille","lat":43.28157,"lon":5.36125,"is_reserved":false,"is_disabled":false,"rental_uris":{"android":"levelo://app?vid=b7e41c34-cad5-468c-aadc-3ef8a1845b5a","ios":"levelo://app?vid=b7e41c34-cad5-468c-aadc-3ef8a1845b5a"},"vehicle_type_id":"4","last_reported":1761063232,"current_range_meters":10800,"station_id":"","pricing_plan_id":"cebpf4jnsgd1na2vs0mg"},{"bike_id":"fe998b17-9d85-477f-b92c-87f6ebb6e1b3","system_id":"levelo_inurba_marseille","lat":43.2447,"lon":5.36944,"is_reserved":false,"is_disabled":false,"rental_uris":{"android":"levelo://app?vid=fe998b17-9d85-477f-b92c-87f6ebb6e1b3","ios":"levelo://app?vid=fe998b17-9d85-477f-b92c-87f6ebb6e1b3"},"vehicle_type_id":"4","last_reported":1761063232,"current_range_meters":10800,"station_id":"","pricing_plan_id":"cebpf4jnsgd1na2vs0mg"},{"bike_id":"a145089b-e99d-4070-9191-7c8fa0dcb309","system_id":"levelo_inurba_marseille","lat":43.21192,"lon":5.35079,"is_reserved":false,"is_disabled":false,"rental_uris":{"android":"levelo://app?vid=a145089b-e99d-4070-9191-7c8fa0dcb309","ios":"levelo://app?vid=a145089b-e99d-4070-9191-7c8fa0dcb309"},"vehicle_type_id":"4","last_reported":1761063232,"current_range_meters":10800,"station_id":"","pricing_plan_id":"cebpf4jnsgd1na2vs0mg"},{"bike_id":"54a7471e-8675-4b3b-a7a5-316aa76bbcbc","system_id":"levelo_inurba_marseille","lat":43.27921,"lon":5.40444,"is_reserved":false,"is_disabled":false,"rental_uris":{"android":"levelo://app?vid=54a7471e-8675-4b3b-a7a5-316aa76bbcbc","ios":"levelo://app?vid=54a7471e-8675-4b3b-a7a5-316aa76bbcbc"},"vehicle_type_id":"4","last_reported":1761063232,"current_range_meters":10800,"station_id":"","pricing_plan_id":"cebpf4jnsgd1na2vs0mg"},{"bike_id":"609e8845-7ae3-4c4f-97f5-856dd3a8b490","system_id":"levelo_inurba_marseille","lat":43.288642,"lon":5.425133,"is_reserved":false,"is_disabled":false,"rental_uris":{"android":"levelo://app?vid=609e8845-7ae3-4c4f-97f5-856dd3a8b490","ios":"levelo://app?vid=609e8845-7ae3-4c4f-97f5-856dd3a8b490"},"vehicle_type_id":"4","last_reported":1761063232,"current_range_meters":11200,"station_id":"st_d3b462108ojc7389ooeg","pricing_plan_id":"cebpf4jnsgd1na2vs0mg"},{"bike_id":"b19e090c-4d4a-4e5d-a936-71d7885d88f6","system_id":"levelo_inurba_marseille","lat":43.21747,"lon":5.34606,"is_reserved":false,"is_disabled":false,"rental_uris":{"android":"levelo://app?vid=b19e090c-4d4a-4e5d-a936-71d7885d88f6","ios":"levelo://app?vid=b19e090c-4d4a-4e5d-a936-71d7885d88f6"},"vehicle_type_id":"4","last_reported":1761063232,"current_range_meters":11200,"station_id":"st_cvj6r9ubvosntc0bgbag","pricing_plan_id":"cebpf4jnsgd1na2vs0mg"},{"bike_id":"da3c5d5d-639d-4a11-88e1-f7b9c2ad220a","system_id":"levelo_inurba_marseille","lat":43.3169,"lon":5.377544,"is_reserved":false,"is_disabled":true,"rental_uris":{"android":"levelo://app?vid=da3c5d5d-639d-4a11-88e1-f7b9c2ad220a","ios":"levelo://app?vid=da3c5d5d-639d-4a11-88e1-f7b9c2ad220a"},"vehicle_type_id":"4","last_reported":1761063232,"current_range_meters":11200,"station_id":"ce4bgth2rcd13ifvqch0","pricing_plan_id":"cebpf4jnsgd1na2vs0mg"},{"bike_id":"f434a13c-41b9-41a3-8212-055ca998b49b","system_id":"levelo_inurba_marseille","lat":43.286302,"lon":5.407339,"is_reserved":false,"is_disabled":false,"rental_uris":{"android":"levelo://app?vid=f434a13c-41b9-41a3-8212-055ca998b49b","ios":"levelo://app?vid=f434a13c-41b9-41a3-8212-055ca998b49b"},"vehicle_type_id":"4","last_reported":1761063232,"current_range_meters":11200,"station_id":"","pricing_plan_id":"cebpf4jnsgd1na2vs0mg"},{"bike_id":"62962384-b58e-44d1-9d45-62942540f5c9","system_id":"levelo_inurba_marseille","lat":43.24948,"lon":5.40494,"is_reserved":false,"is_disabled":false,"rental_uris":{"android":"levelo://app?vid=62962384-b58e-44d1-9d45-62942540f5c9","ios":"levelo://app?vid=62962384-b58e-44d1-9d45-62942540f5c9"},"vehicle_type_id":"4","last_reported":1761063232,"current_range_meters":11200,"station_id":"st_d2ngiaodas8pm72gd1h0","pricing_plan_id":"cebpf4jnsgd1na2vs0mg"},{"bike_id":"205b1473-d545-40a3-928a-5906ceaad67a","system_id":"levelo_inurba_marseille","lat":43.32072,"lon":5.40889,"is_reserved":false,"is_disabled":false,"rental_uris":{"android":"levelo://app?vid=205b1473-d545-40a3-928a-5906ceaad67a","ios":"levelo://app?vid=205b1473-d545-40a3-928a-5906ceaad67a"},"vehicle_type_id":"4","last_reported":1761063232,"current_range_meters":11200,"station_id":"","pricing_plan_id":"cebpf4jnsgd1na2vs0mg"},{"bike_id":"19840955-f9d6-49c1-86e8-b7616b7da32c","system_id":"levelo_inurba_marseille","lat":43.33145,"lon":5.38954,"is_reserved":false,"is_disabled":true,"rental_uris":{"android":"levelo://app?vid=19840955-f9d6-49c1-86e8-b7616b7da32c","ios":"levelo://app?vid=19840955-f9d6-49c1-86e8-b7616b7da32c"},"vehicle_type_id":"4","last_reported":1761063232,"current_range_meters":11200,"station_id":"","pricing_plan_id":"cebpf4jnsgd1na2vs0mg"},{"bike_id":"66bec76d-d7e9-4a1e-a715-39e56334bf96","system_id":"levelo_inurba_marseille","lat":43.28294,"lon":5.39659,"is_reserved":false,"is_disabled":false,"rental_uris":{"android":"levelo://app?vid=66bec76d-d7e9-4a1e-a715-39e56334bf96","ios":"levelo://app?vid=66bec76d-d7e9-4a1e-a715-39e56334bf96"},"vehicle_type_id":"4","last_reported":1761063232,"current_range_meters":11600,"station_id":"","pricing_plan_id":"cebpf4jnsgd1na2vs0mg"},{"bike_id":"0d67f67c-2a4a-418a-a385-e544b1652988","system_id":"levelo_inurba_marseille","lat":43.2781,"lon":5.40708,"is_reserved":false,"is_disabled":false,"rental_uris":{"android":"levelo://app?vid=0d67f67c-2a4a-418a-a385-e544b1652988","ios":"levelo://app?vid=0d67f67c-2a4a-418a-a385-e544b1652988"},"vehicle_type_id":"4","last_reported":1761063232,"current_range_meters":11600,"station_id":"ce4bhnh2rcd13ifvqgtg","pricing_plan_id":"cebpf4jnsgd1na2vs0mg"},{"bike_id":"b8b4e8ef-f8b2-49df-a53a-42c0d8729fae","system_id":"levelo_inurba_marseille","lat":43.269652,"lon":5.401946,"is_reserved":false,"is_disabled":false,"rental_uris":{"android":"levelo://app?vid=b8b4e8ef-f8b2-49df-a53a-42c0d8729fae","ios":"levelo://app?vid=b8b4e8ef-f8b2-49df-a53a-42c0d8729fae"},"vehicle_type_id":"4","last_reported":1761063232,"current_range_meters":11600,"station_id":"cjm6bp8fraef2m0cb0m0","pricing_plan_id":"cebpf4jnsgd1na2vs0mg"},{"bike_id":"9abd226c-7be3-49b3-8d49-fb4faf6f00e6","system_id":"levelo_inurba_marseille","lat":43.27073,"lon":5.4228,"is_reserved":false,"is_disabled":false,"rental_uris":{"android":"levelo://app?vid=9abd226c-7be3-49b3-8d49-fb4faf6f00e6","ios":"levelo://app?vid=9abd226c-7be3-49b3-8d49-fb4faf6f00e6"},"vehicle_type_id":"4","last_reported":1761063232,"current_range_meters":11600,"station_id":"ce4bhk92rcd13ifvqgb0","pricing_plan_id":"cebpf4jnsgd1na2vs0mg"},{"bike_id":"5e66fe51-27dd-404f-bae2-ee5e1e9d10bb","system_id":"levelo_inurba_marseille","lat":43.26557,"lon":5.37283,"is_reserved":false,"is_disabled":false,"rental_uris":{"android":"levelo://app?vid=5e66fe51-27dd-404f-bae2-ee5e1e9d10bb","ios":"levelo://app?vid=5e66fe51-27dd-404f-bae2-ee5e1e9d10bb"},"vehicle_type_id":"4","last_reported":1761063232,"current_range_meters":11600,"station_id":"ce4bhg12rcd13ifvqf70","pricing_plan_id":"cebpf4jnsgd1na2vs0mg"},{"bike_id":"f5cfed3c-e6d3-4af1-afe1-b406cad5e218","system_id":"levelo_inurba_marseille","lat":43.2919,"lon":5.35812,"is_reserved":false,"is_disabled":false,"rental_uris":{"android":"levelo://app?vid=f5cfed3c-e6d3-4af1-afe1-b406cad5e218","ios":"levelo://app?vid=f5cfed3c-e6d3-4af1-afe1-b406cad5e218"},"vehicle_type_id":"4","last_reported":1761063232,"current_range_meters":12000,"station_id":"ce4bhb12rcd13ifvqel0","pricing_plan_id":"cebpf4jnsgd1na2vs0mg"},{"bike_id":"c4d17d81-19cf-4697-a9b1-d780d189ed78","system_id":"levelo_inurba_marseille","lat":43.25128,"lon":5.40345,"is_reserved":false,"is_disabled":true,"rental_uris":{"android":"levelo://app?vid=c4d17d81-19cf-4697-a9b1-d780d189ed78","ios":"levelo://app?vid=c4d17d81-19cf-4697-a9b1-d780d189ed78"},"vehicle_type_id":"4","last_reported":1761063232,"current_range_meters":12000,"station_id":"ce4bhlh2rcd13ifvqgig","pricing_plan_id":"cebpf4jnsgd1na2vs0mg"},{"bike_id":"604a452e-3136-498c-ae80-1ec86a805643","system_id":"levelo_inurba_marseille","lat":43.29003,"lon":5.35612,"is_reserved":false,"is_disabled":false,"rental_uris":{"android":"levelo://app?vid=604a452e-3136-498c-ae80-1ec86a805643","ios":"levelo://app?vid=604a452e-3136-498c-ae80-1ec86a805643"},"vehicle_type_id":"4","last_reported":1761063232,"current_range_meters":12000,"station_id":"ce4bhb92rcd13ifvqen0","pricing_plan_id":"cebpf4jnsgd1na2vs0mg"},{"bike_id":"f5f775ca-36db-456b-bb2b-542a0e9d3db2","system_id":"levelo_inurba_marseille","lat":43.28039,"lon":5.36937,"is_reserved":false,"is_disabled":false,"rental_uris":{"android":"levelo://app?vid=f5f775ca-36db-456b-bb2b-542a0e9d3db2","ios":"levelo://app?vid=f5f775ca-36db-456b-bb2b-542a0e9d3db2"},"vehicle_type_id":"4","last_reported":1761063232,"current_range_meters":12000,"station_id":"ce4bha12rcd13ifvqef0","pricing_plan_id":"cebpf4jnsgd1na2vs0mg"},{"bike_id":"2f09c01d-689c-4521-97af-b4ef07cad168","system_id":"levelo_inurba_marseille","lat":43.22574,"lon":5.41615,"is_reserved":false,"is_disabled":false,"rental_uris":{"android":"levelo://app?vid=2f09c01d-689c-4521-97af-b4ef07cad168","ios":"levelo://app?vid=2f09c01d-689c-4521-97af-b4ef07cad168"},"vehicle_type_id":"4","last_reported":1761063232,"current_range_meters":12000,"station_id":"st_d2o4gvlbi1j2169b742g","pricing_plan_id":"cebpf4jnsgd1na2vs0mg"},{"bike_id":"f1e3cb11-f8b1-4098-9a9a-de8fa2bbee28","system_id":"levelo_inurba_marseille","lat":43.29033,"lon":5.39968,"is_reserved":false,"is_disabled":false,"rental_uris":{"android":"levelo://app?vid=f1e3cb11-f8b1-4098-9a9a-de8fa2bbee28","ios":"levelo://app?vid=f1e3cb11-f8b1-4098-9a9a-de8fa2bbee28"},"vehicle_type_id":"4","last_reported":1761063232,"current_range_meters":12400,"station_id":"ce4bh392rcd13ifvqdm0","pricing_plan_id":"cebpf4jnsgd1na2vs0mg"},{"bike_id":"e6f107ef-554f-4a02-9907-6d80b8b4c7ee","system_id":"levelo_inurba_marseille","lat":43.32547,"lon":5.42422,"is_reserved":false,"is_disabled":false,"rental_uris":{"android":"levelo://app?vid=e6f107ef-554f-4a02-9907-6d80b8b4c7ee","ios":"levelo://app?vid=e6f107ef-554f-4a02-9907-6d80b8b4c7ee"},"vehicle_type_id":"4","last_reported":1761063232,"current_range_meters":12400,"station_id":"","pricing_plan_id":"cebpf4jnsgd1na2vs0mg"},{"bike_id":"887f2052-87a4-4162-b824-77735a6d68f5","system_id":"levelo_inurba_marseille","lat":43.2979,"lon":5.39347,"is_reserved":false,"is_disabled":false,"rental_uris":{"android":"levelo://app?vid=887f2052-87a4-4162-b824-77735a6d68f5","ios":"levelo://app?vid=887f2052-87a4-4162-b824-77735a6d68f5"},"vehicle_type_id":"4","last_reported":1761063232,"current_range_meters":12400,"station_id":"chh1huq6cuj3fo74tm60","pricing_plan_id":"cebpf4jnsgd1na2vs0mg"},{"bike_id":"b8457e49-45d1-4539-8d31-1eb0283df508","system_id":"levelo_inurba_marseille","lat":43.33162,"lon":5.35497,"is_reserved":false,"is_disabled":false,"rental_uris":{"android":"levelo://app?vid=b8457e49-45d1-4539-8d31-1eb0283df508","ios":"levelo://app?vid=b8457e49-45d1-4539-8d31-1eb0283df508"},"vehicle_type_id":"4","last_reported":1761063232,"current_range_meters":12800,"station_id":"","pricing_plan_id":"cebpf4jnsgd1na2vs0mg"},{"bike_id":"de40891e-3417-435a-a159-52f2a8eb2589","system_id":"levelo_inurba_marseille","lat":43.26059,"lon":5.39401,"is_reserved":false,"is_disabled":false,"rental_uris":{"android":"levelo://app?vid=de40891e-3417-435a-a159-52f2a8eb2589","ios":"levelo://app?vid=de40891e-3417-435a-a159-52f2a8eb2589"},"vehicle_type_id":"4","last_reported":1761063232,"current_range_meters":12800,"station_id":"ce4bhh92rcd13ifvqfj0","pricing_plan_id":"cebpf4jnsgd1na2vs0mg"},{"bike_id":"51e37719-bee4-473c-af63-1f16ae8d3213","system_id":"levelo_inurba_marseille","lat":43.29051,"lon":5.35928,"is_reserved":false,"is_disabled":false,"rental_uris":{"android":"levelo://app?vid=51e37719-bee4-473c-af63-1f16ae8d3213","ios":"levelo://app?vid=51e37719-bee4-473c-af63-1f16ae8d3213"},"vehicle_type_id":"4","last_reported":1761063232,"current_range_meters":12800,"station_id":"ce4bha92rcd13ifvqeg0","pricing_plan_id":"cebpf4jnsgd1na2vs0mg"},{"bike_id":"d0e5bfe1-0d12-411e-bc0b-4d2411cd5f59","system_id":"levelo_inurba_marseille","lat":43.21192,"lon":5.35074,"is_reserved":false,"is_disabled":false,"rental_uris":{"android":"levelo://app?vid=d0e5bfe1-0d12-411e-bc0b-4d2411cd5f59","ios":"levelo://app?vid=d0e5bfe1-0d12-411e-bc0b-4d2411cd5f59"},"vehicle_type_id":"4","last_reported":1761063232,"current_range_meters":13600,"station_id":"","pricing_plan_id":"cebpf4jnsgd1na2vs0mg"},{"bike_id":"4c0a5d73-60b7-4822-a290-6e489f4a946f","system_id":"levelo_inurba_marseille","lat":43.284702,"lon":5.385408,"is_reserved":false,"is_disabled":true,"rental_uris":{"android":"levelo://app?vid=4c0a5d73-60b7-4822-a290-6e489f4a946f","ios":"levelo://app?vid=4c0a5d73-60b7-4822-a290-6e489f4a946f"},"vehicle_type_id":"4","last_reported":1761063232,"current_range_meters":13600,"station_id":"ce4bh8p2rcd13ifvqeb0","pricing_plan_id":"cebpf4jnsgd1na2vs0mg"},{"bike_id":"5abdff45-e3b2-4306-8743-0926727f2070","system_id":"levelo_inurba_marseille","lat":43.28407,"lon":5.34997,"is_reserved":false,"is_disabled":false,"rental_uris":{"android":"levelo://app?vid=5abdff45-e3b2-4306-8743-0926727f2070","ios":"levelo://app?vid=5abdff45-e3b2-4306-8743-0926727f2070"},"vehicle_type_id":"4","last_reported":1761063232,"current_range_meters":13600,"station_id":"ce4bhbh2rcd13ifvqepg","pricing_plan_id":"cebpf4jnsgd1na2vs0mg"},{"bike_id":"69f507b3-5550-4a77-8801-ba1ee7dd9ea9","system_id":"levelo_inurba_marseille","lat":43.271734,"lon":5.409996,"is_reserved":false,"is_disabled":false,"rental_uris":{"android":"levelo://app?vid=69f507b3-5550-4a77-8801-ba1ee7dd9ea9","ios":"levelo://app?vid=69f507b3-5550-4a77-8801-ba1ee7dd9ea9"},"vehicle_type_id":"4","last_reported":1761063232,"current_range_meters":13600,"station_id":"ce4bhl12rcd13ifvqgf0","pricing_plan_id":"cebpf4jnsgd1na2vs0mg"},{"bike_id":"7e2d3bdb-ea67-4aef-8d9d-40b2cb942bac","system_id":"levelo_inurba_marseille","lat":43.29509,"lon":5.37514,"is_reserved":false,"is_disabled":false,"rental_uris":{"android":"levelo://app?vid=7e2d3bdb-ea67-4aef-8d9d-40b2cb942bac","ios":"levelo://app?vid=7e2d3bdb-ea67-4aef-8d9d-40b2cb942bac"},"vehicle_type_id":"4","last_reported":1761063232,"current_range_meters":14000,"station_id":"ce4bgkp2rcd13ifvqbmg","pricing_plan_id":"cebpf4jnsgd1na2vs0mg"},{"bike_id":"bf3b13ef-0bdd-4eba-bc5b-536b2fde6a46","system_id":"levelo_inurba_marseille","lat":43.2827,"lon":5.35065,"is_reserved":false,"is_disabled":false,"rental_uris":{"android":"levelo://app?vid=bf3b13ef-0bdd-4eba-bc5b-536b2fde6a46","ios":"levelo://app?vid=bf3b13ef-0bdd-4eba-bc5b-536b2fde6a46"},"vehicle_type_id":"4","last_reported":1761063232,"current_range_meters":14000,"station_id":"ce4bhbp2rcd13ifvqerg","pricing_plan_id":"cebpf4jnsgd1na2vs0mg"},{"bike_id":"e1a1fee8-4123-4e97-b08f-ad67e4be48f2","system_id":"levelo_inurba_marseille","lat":43.254958,"lon":5.376497,"is_reserved":false,"is_disabled":false,"rental_uris":{"android":"levelo://app?vid=e1a1fee8-4123-4e97-b08f-ad67e4be48f2","ios":"levelo://app?vid=e1a1fee8-4123-4e97-b08f-ad67e4be48f2"},"vehicle_type_id":"4","last_reported":1761063232,"current_range_meters":14000,"station_id":"ce4bhh12rcd13ifvqff0","pricing_plan_id":"cebpf4jnsgd1na2vs0mg"},{"bike_id":"3d4849ed-d3ca-4ad0-ab71-99fd7d83a2d9","system_id":"levelo_inurba_marseille","lat":43.27035,"lon":5.42333,"is_reserved":false,"is_disabled":false,"rental_uris":{"android":"levelo://app?vid=3d4849ed-d3ca-4ad0-ab71-99fd7d83a2d9","ios":"levelo://app?vid=3d4849ed-d3ca-4ad0-ab71-99fd7d83a2d9"},"vehicle_type_id":"4","last_reported":1761063232,"current_range_meters":14000,"station_id":"","pricing_plan_id":"cebpf4jnsgd1na2vs0mg"},{"bike_id":"b6a18ae6-359d-44d6-a72d-2bd5b0cfb08d","system_id":"levelo_inurba_marseille","lat":43.29282,"lon":5.40114,"is_reserved":false,"is_disabled":false,"rental_uris":{"android":"levelo://app?vid=b6a18ae6-359d-44d6-a72d-2bd5b0cfb08d","ios":"levelo://app?vid=b6a18ae6-359d-44d6-a72d-2bd5b0cfb08d"},"vehicle_type_id":"4","last_reported":1761063232,"current_range_meters":14000,"station_id":"ce4bh312rcd13ifvqdk0","pricing_plan_id":"cebpf4jnsgd1na2vs0mg"},{"bike_id":"df1cf366-426f-46ad-9ac9-5dee933e06ed","system_id":"levelo_inurba_marseille","lat":43.313315,"lon":5.396895,"is_reserved":false,"is_disabled":false,"rental_uris":{"android":"levelo://app?vid=df1cf366-426f-46ad-9ac9-5dee933e06ed","ios":"levelo://app?vid=df1cf366-426f-46ad-9ac9-5dee933e06ed"},"vehicle_type_id":"4","last_reported":1761063232,"current_range_meters":14400,"station_id":"ce4bgvp2rcd13ifvqcu0","pricing_plan_id":"cebpf4jnsgd1na2vs0mg"},{"bike_id":"22c660ad-ddf4-4958-a393-4acd861a2ace","system_id":"levelo_inurba_marseille","lat":43.280975,"lon":5.377941,"is_reserved":false,"is_disabled":false,"rental_uris":{"android":"levelo://app?vid=22c660ad-ddf4-4958-a393-4acd861a2ace","ios":"levelo://app?vid=22c660ad-ddf4-4958-a393-4acd861a2ace"},"vehicle_type_id":"4","last_reported":1761063232,"current_range_meters":14400,"station_id":"ce4bha12rcd13ifvqee0","pricing_plan_id":"cebpf4jnsgd1na2vs0mg"},{"bike_id":"84d7063d-32f6-4b50-80cc-3369a601fe07","system_id":"levelo_inurba_marseille","lat":43.29628,"lon":5.37717,"is_reserved":false,"is_disabled":false,"rental_uris":{"android":"levelo://app?vid=84d7063d-32f6-4b50-80cc-3369a601fe07","ios":"levelo://app?vid=84d7063d-32f6-4b50-80cc-3369a601fe07"},"vehicle_type_id":"4","last_reported":1761063232,"current_range_meters":14400,"station_id":"ce4bgi92rcd13ifvqb90","pricing_plan_id":"cebpf4jnsgd1na2vs0mg"},{"bike_id":"acf3006a-1f2e-472b-a3ec-690e0b97587d","system_id":"levelo_inurba_marseille","lat":43.24647,"lon":5.38918,"is_reserved":false,"is_disabled":false,"rental_uris":{"android":"levelo://app?vid=acf3006a-1f2e-472b-a3ec-690e0b97587d","ios":"levelo://app?vid=acf3006a-1f2e-472b-a3ec-690e0b97587d"},"vehicle_type_id":"4","last_reported":1761063232,"current_range_meters":14400,"station_id":"ce4bhg12rcd13ifvqf60","pricing_plan_id":"cebpf4jnsgd1na2vs0mg"},{"bike_id":"8b8f8537-33bb-4d54-bcac-6bd4c7d62942","system_id":"levelo_inurba_marseille","lat":43.31686,"lon":5.40476,"is_reserved":false,"is_disabled":false,"rental_uris":{"android":"levelo://app?vid=8b8f8537-33bb-4d54-bcac-6bd4c7d62942","ios":"levelo://app?vid=8b8f8537-33bb-4d54-bcac-6bd4c7d62942"},"vehicle_type_id":"4","last_reported":1761063232,"current_range_meters":14400,"station_id":"ce4bh012rcd13ifvqd00","pricing_plan_id":"cebpf4jnsgd1na2vs0mg"},{"bike_id":"34f635d3-2019-4291-b5f3-96bd69d45113","system_id":"levelo_inurba_marseille","lat":43.28918,"lon":5.384123,"is_reserved":false,"is_disabled":false,"rental_uris":{"android":"levelo://app?vid=34f635d3-2019-4291-b5f3-96bd69d45113","ios":"levelo://app?vid=34f635d3-2019-4291-b5f3-96bd69d45113"},"vehicle_type_id":"4","last_reported":1761063232,"current_range_meters":14800,"station_id":"ce4bh612rcd13ifvqe6g","pricing_plan_id":"cebpf4jnsgd1na2vs0mg"},{"bike_id":"b62e6137-d220-47d7-9ebb-c950ffe16bbe","system_id":"levelo_inurba_marseille","lat":43.29263,"lon":5.40905,"is_reserved":false,"is_disabled":false,"rental_uris":{"android":"levelo://app?vid=b62e6137-d220-47d7-9ebb-c950ffe16bbe","ios":"levelo://app?vid=b62e6137-d220-47d7-9ebb-c950ffe16bbe"},"vehicle_type_id":"4","last_reported":1761063232,"current_range_meters":14800,"station_id":"ce4bh192rcd13ifvqdc0","pricing_plan_id":"cebpf4jnsgd1na2vs0mg"},{"bike_id":"e0679170-8843-4528-bc78-b5441e0824b8","system_id":"levelo_inurba_marseille","lat":43.29261,"lon":5.38433,"is_reserved":false,"is_disabled":false,"rental_uris":{"android":"levelo://app?vid=e0679170-8843-4528-bc78-b5441e0824b8","ios":"levelo://app?vid=e0679170-8843-4528-bc78-b5441e0824b8"},"vehicle_type_id":"4","last_reported":1761063232,"current_range_meters":14800,"station_id":"ce4bh692rcd13ifvqea0","pricing_plan_id":"cebpf4jnsgd1na2vs0mg"},{"bike_id":"3201e625-69d5-420e-838c-f4c3f44666ef","system_id":"levelo_inurba_marseille","lat":43.33796,"lon":5.37435,"is_reserved":false,"is_disabled":false,"rental_uris":{"android":"levelo://app?vid=3201e625-69d5-420e-838c-f4c3f44666ef","ios":"levelo://app?vid=3201e625-69d5-420e-838c-f4c3f44666ef"},"vehicle_type_id":"4","last_reported":1761063232,"current_range_meters":14800,"station_id":"","pricing_plan_id":"cebpf4jnsgd1na2vs0mg"},{"bike_id":"33fe6a64-75e8-4fd1-adcd-963c4e928c65","system_id":"levelo_inurba_marseille","lat":43.29012,"lon":5.38138,"is_reserved":false,"is_disabled":false,"rental_uris":{"android":"levelo://app?vid=33fe6a64-75e8-4fd1-adcd-963c4e928c65","ios":"levelo://app?vid=33fe6a64-75e8-4fd1-adcd-963c4e928c65"},"vehicle_type_id":"4","last_reported":1761063232,"current_range_meters":14800,"station_id":"ce4bh4p2rcd13ifvqe1g","pricing_plan_id":"cebpf4jnsgd1na2vs0mg"},{"bike_id":"02f7835e-8895-43db-bc46-dc0659a292d5","system_id":"levelo_inurba_marseille","lat":43.29331,"lon":5.3707,"is_reserved":false,"is_disabled":false,"rental_uris":{"android":"levelo://app?vid=02f7835e-8895-43db-bc46-dc0659a292d5","ios":"levelo://app?vid=02f7835e-8895-43db-bc46-dc0659a292d5"},"vehicle_type_id":"4","last_reported":1761063232,"current_range_meters":14800,"station_id":"","pricing_plan_id":"cebpf4jnsgd1na2vs0mg"},{"bike_id":"ec15c4f8-84a9-4a2b-a4a2-b5e8e4318905","system_id":"levelo_inurba_marseille","lat":43.29624,"lon":5.37723,"is_reserved":false,"is_disabled":false,"rental_uris":{"android":"levelo://app?vid=ec15c4f8-84a9-4a2b-a4a2-b5e8e4318905","ios":"levelo://app?vid=ec15c4f8-84a9-4a2b-a4a2-b5e8e4318905"},"vehicle_type_id":"4","last_reported":1761063232,"current_range_meters":14800,"station_id":"ce4bgi92rcd13ifvqb90","pricing_plan_id":"cebpf4jnsgd1na2vs0mg"},{"bike_id":"dce57db9-3ed7-472b-b5c8-20615a74adb0","system_id":"levelo_inurba_marseille","lat":43.28436,"lon":5.39205,"is_reserved":false,"is_disabled":false,"rental_uris":{"android":"levelo://app?vid=dce57db9-3ed7-472b-b5c8-20615a74adb0","ios":"levelo://app?vid=dce57db9-3ed7-472b-b5c8-20615a74adb0"},"vehicle_type_id":"4","last_reported":1761063232,"current_range_meters":15200,"station_id":"ce4bhoh2rcd13ifvqh5g","pricing_plan_id":"cebpf4jnsgd1na2vs0mg"},{"bike_id":"d38bb17a-4ac6-4da6-829b-fc2ffe260364","system_id":"levelo_inurba_marseille","lat":43.31896,"lon":5.40742,"is_reserved":false,"is_disabled":true,"rental_uris":{"android":"levelo://app?vid=d38bb17a-4ac6-4da6-829b-fc2ffe260364","ios":"levelo://app?vid=d38bb17a-4ac6-4da6-829b-fc2ffe260364"},"vehicle_type_id":"4","last_reported":1761063232,"current_range_meters":15200,"station_id":"ce4bhq12rcd13ifvqhig","pricing_plan_id":"cebpf4jnsgd1na2vs0mg"},{"bike_id":"bfb49ac8-7cd7-4abf-87fe-e5eac64a56b2","system_id":"levelo_inurba_marseille","lat":43.239645,"lon":5.366362,"is_reserved":false,"is_disabled":false,"rental_uris":{"android":"levelo://app?vid=bfb49ac8-7cd7-4abf-87fe-e5eac64a56b2","ios":"levelo://app?vid=bfb49ac8-7cd7-4abf-87fe-e5eac64a56b2"},"vehicle_type_id":"4","last_reported":1761063232,"current_range_meters":15200,"station_id":"ce4bhi12rcd13ifvqfp0","pricing_plan_id":"cebpf4jnsgd1na2vs0mg"},{"bike_id":"6745ae26-e094-4623-bb8a-d0d03bfda6e5","system_id":"levelo_inurba_marseille","lat":43.31135,"lon":5.37748,"is_reserved":false,"is_disabled":false,"rental_uris":{"android":"levelo://app?vid=6745ae26-e094-4623-bb8a-d0d03bfda6e5","ios":"levelo://app?vid=6745ae26-e094-4623-bb8a-d0d03bfda6e5"},"vehicle_type_id":"4","last_reported":1761063232,"current_range_meters":15200,"station_id":"ce4bgt92rcd13ifvqcg0","pricing_plan_id":"cebpf4jnsgd1na2vs0mg"},{"bike_id":"d83ba3b5-f05f-4b3f-995a-05ad1a505367","system_id":"levelo_inurba_marseille","lat":43.317177,"lon":5.423961,"is_reserved":false,"is_disabled":false,"rental_uris":{"android":"levelo://app?vid=d83ba3b5-f05f-4b3f-995a-05ad1a505367","ios":"levelo://app?vid=d83ba3b5-f05f-4b3f-995a-05ad1a505367"},"vehicle_type_id":"4","last_reported":1761063232,"current_range_meters":16000,"station_id":"ce4bhp92rcd13ifvqhbg","pricing_plan_id":"cebpf4jnsgd1na2vs0mg"},{"bike_id":"89dd87c4-c8d0-4de7-8902-2b0447e67475","system_id":"levelo_inurba_marseille","lat":43.31232,"lon":5.36877,"is_reserved":false,"is_disabled":false,"rental_uris":{"android":"levelo://app?vid=89dd87c4-c8d0-4de7-8902-2b0447e67475","ios":"levelo://app?vid=89dd87c4-c8d0-4de7-8902-2b0447e67475"},"vehicle_type_id":"4","last_reported":1761063232,"current_range_meters":16000,"station_id":"","pricing_plan_id":"cebpf4jnsgd1na2vs0mg"},{"bike_id":"17e122cf-ac9a-4da7-81fb-7ca2a8cd8045","system_id":"levelo_inurba_marseille","lat":43.28605,"lon":5.3512,"is_reserved":false,"is_disabled":false,"rental_uris":{"android":"levelo://app?vid=17e122cf-ac9a-4da7-81fb-7ca2a8cd8045","ios":"levelo://app?vid=17e122cf-ac9a-4da7-81fb-7ca2a8cd8045"},"vehicle_type_id":"4","last_reported":1761063232,"current_range_meters":16000,"station_id":"ce4bhch2rcd13ifvqeug","pricing_plan_id":"cebpf4jnsgd1na2vs0mg"},{"bike_id":"ca84a29b-f084-4199-a59f-9793698a3d35","system_id":"levelo_inurba_marseille","lat":43.25334,"lon":5.42176,"is_reserved":false,"is_disabled":false,"rental_uris":{"android":"levelo://app?vid=ca84a29b-f084-4199-a59f-9793698a3d35","ios":"levelo://app?vid=ca84a29b-f084-4199-a59f-9793698a3d35"},"vehicle_type_id":"4","last_reported":1761063232,"current_range_meters":16000,"station_id":"st_d2m65c5bi1j21697t3ng","pricing_plan_id":"cebpf4jnsgd1na2vs0mg"},{"bike_id":"44a48b24-3585-47c4-a3a2-c52d64abab20","system_id":"levelo_inurba_marseille","lat":43.2926,"lon":5.40895,"is_reserved":false,"is_disabled":false,"rental_uris":{"android":"levelo://app?vid=44a48b24-3585-47c4-a3a2-c52d64abab20","ios":"levelo://app?vid=44a48b24-3585-47c4-a3a2-c52d64abab20"},"vehicle_type_id":"4","last_reported":1761063232,"current_range_meters":16400,"station_id":"ce4bh192rcd13ifvqdc0","pricing_plan_id":"cebpf4jnsgd1na2vs0mg"},{"bike_id":"7f336ebd-11fc-40ab-adb6-e1394e3c3969","system_id":"levelo_inurba_marseille","lat":43.301182,"lon":5.431225,"is_reserved":false,"is_disabled":false,"rental_uris":{"android":"levelo://app?vid=7f336ebd-11fc-40ab-adb6-e1394e3c3969","ios":"levelo://app?vid=7f336ebd-11fc-40ab-adb6-e1394e3c3969"},"vehicle_type_id":"4","last_reported":1761063232,"current_range_meters":16400,"station_id":"st_d3js3co5814s73ftftug","pricing_plan_id":"cebpf4jnsgd1na2vs0mg"},{"bike_id":"9d7f3a6e-0b4c-41cd-9b1c-7b029025d66d","system_id":"levelo_inurba_marseille","lat":43.281495,"lon":5.426587,"is_reserved":false,"is_disabled":false,"rental_uris":{"android":"levelo://app?vid=9d7f3a6e-0b4c-41cd-9b1c-7b029025d66d","ios":"levelo://app?vid=9d7f3a6e-0b4c-41cd-9b1c-7b029025d66d"},"vehicle_type_id":"4","last_reported":1761063232,"current_range_meters":16400,"station_id":"ce4bhnh2rcd13ifvqgug","pricing_plan_id":"cebpf4jnsgd1na2vs0mg"},{"bike_id":"6a0425da-171c-45ae-a3aa-99256da5979a","system_id":"levelo_inurba_marseille","lat":43.29756,"lon":5.42778,"is_reserved":false,"is_disabled":false,"rental_uris":{"android":"levelo://app?vid=6a0425da-171c-45ae-a3aa-99256da5979a","ios":"levelo://app?vid=6a0425da-171c-45ae-a3aa-99256da5979a"},"vehicle_type_id":"4","last_reported":1761063232,"current_range_meters":16400,"station_id":"st_d3md5207bmas73dh9klg","pricing_plan_id":"cebpf4jnsgd1na2vs0mg"},{"bike_id":"64d9e813-4fd3-4955-9199-a35ddf1a26f6","system_id":"levelo_inurba_marseille","lat":43.24158,"lon":5.36407,"is_reserved":false,"is_disabled":false,"rental_uris":{"android":"levelo://app?vid=64d9e813-4fd3-4955-9199-a35ddf1a26f6","ios":"levelo://app?vid=64d9e813-4fd3-4955-9199-a35ddf1a26f6"},"vehicle_type_id":"4","last_reported":1761063232,"current_range_meters":16400,"station_id":"cpo36qri1sfpv3e86is0","pricing_plan_id":"cebpf4jnsgd1na2vs0mg"},{"bike_id":"197aca6c-07ff-4cc6-97eb-2bdb88d086ec","system_id":"levelo_inurba_marseille","lat":43.284979,"lon":5.35006,"is_reserved":false,"is_disabled":false,"rental_uris":{"android":"levelo://app?vid=197aca6c-07ff-4cc6-97eb-2bdb88d086ec","ios":"levelo://app?vid=197aca6c-07ff-4cc6-97eb-2bdb88d086ec"},"vehicle_type_id":"4","last_reported":1761063232,"current_range_meters":16400,"station_id":"ce4bhbh2rcd13ifvqepg","pricing_plan_id":"cebpf4jnsgd1na2vs0mg"},{"bike_id":"d72f9db8-3692-4505-88d2-21d25fd9e8d7","system_id":"levelo_inurba_marseille","lat":43.28159,"lon":5.42637,"is_reserved":false,"is_disabled":false,"rental_uris":{"android":"levelo://app?vid=d72f9db8-3692-4505-88d2-21d25fd9e8d7","ios":"levelo://app?vid=d72f9db8-3692-4505-88d2-21d25fd9e8d7"},"vehicle_type_id":"4","last_reported":1761063232,"current_range_meters":16400,"station_id":"ce4bhnh2rcd13ifvqgug","pricing_plan_id":"cebpf4jnsgd1na2vs0mg"},{"bike_id":"1224e3c6-dcb6-4280-b1d0-92f48e35f83a","system_id":"levelo_inurba_marseille","lat":43.27373,"lon":5.36258,"is_reserved":false,"is_disabled":false,"rental_uris":{"android":"levelo://app?vid=1224e3c6-dcb6-4280-b1d0-92f48e35f83a","ios":"levelo://app?vid=1224e3c6-dcb6-4280-b1d0-92f48e35f83a"},"vehicle_type_id":"4","last_reported":1761063232,"current_range_meters":16400,"station_id":"ce4bhbh2rcd13ifvqeo0","pricing_plan_id":"cebpf4jnsgd1na2vs0mg"},{"bike_id":"540adc77-8555-4cb6-b0e3-028f9090ded7","system_id":"levelo_inurba_marseille","lat":43.30876,"lon":5.3965,"is_reserved":false,"is_disabled":false,"rental_uris":{"android":"levelo://app?vid=540adc77-8555-4cb6-b0e3-028f9090ded7","ios":"levelo://app?vid=540adc77-8555-4cb6-b0e3-028f9090ded7"},"vehicle_type_id":"4","last_reported":1761063232,"current_range_meters":16800,"station_id":"ce4bh012rcd13ifvqcv0","pricing_plan_id":"cebpf4jnsgd1na2vs0mg"},{"bike_id":"bcac21ff-5f96-434a-bbd3-f15b93d38d84","system_id":"levelo_inurba_marseille","lat":43.280642,"lon":5.352788,"is_reserved":false,"is_disabled":false,"rental_uris":{"android":"levelo://app?vid=bcac21ff-5f96-434a-bbd3-f15b93d38d84","ios":"levelo://app?vid=bcac21ff-5f96-434a-bbd3-f15b93d38d84"},"vehicle_type_id":"4","last_reported":1761063232,"current_range_meters":16800,"station_id":"","pricing_plan_id":"cebpf4jnsgd1na2vs0mg"},{"bike_id":"a630ed88-3f05-4926-bbab-8387ab6b6a28","system_id":"levelo_inurba_marseille","lat":43.23142,"lon":5.43718,"is_reserved":false,"is_disabled":true,"rental_uris":{"android":"levelo://app?vid=a630ed88-3f05-4926-bbab-8387ab6b6a28","ios":"levelo://app?vid=a630ed88-3f05-4926-bbab-8387ab6b6a28"},"vehicle_type_id":"4","last_reported":1761063232,"current_range_meters":16800,"station_id":"ce4bhmp2rcd13ifvqgog","pricing_plan_id":"cebpf4jnsgd1na2vs0mg"},{"bike_id":"4e7e8f57-06ea-4923-b3c1-ea91802d5920","system_id":"levelo_inurba_marseille","lat":43.27981,"lon":5.41637,"is_reserved":false,"is_disabled":false,"rental_uris":{"android":"levelo://app?vid=4e7e8f57-06ea-4923-b3c1-ea91802d5920","ios":"levelo://app?vid=4e7e8f57-06ea-4923-b3c1-ea91802d5920"},"vehicle_type_id":"4","last_reported":1761063232,"current_range_meters":16800,"station_id":"ce4bho12rcd13ifvqh1g","pricing_plan_id":"cebpf4jnsgd1na2vs0mg"},{"bike_id":"37d01fc8-4b4d-4652-a489-1254eb9d4c80","system_id":"levelo_inurba_marseille","lat":43.34076,"lon":5.40411,"is_reserved":false,"is_disabled":false,"rental_uris":{"android":"levelo://app?vid=37d01fc8-4b4d-4652-a489-1254eb9d4c80","ios":"levelo://app?vid=37d01fc8-4b4d-4652-a489-1254eb9d4c80"},"vehicle_type_id":"4","last_reported":1761063232,"current_range_meters":16800,"station_id":"","pricing_plan_id":"cebpf4jnsgd1na2vs0mg"},{"bike_id":"97a34ceb-9c77-4952-b4ce-91e3aa59d54e","system_id":"levelo_inurba_marseille","lat":43.304133,"lon":5.388403,"is_reserved":false,"is_disabled":false,"rental_uris":{"android":"levelo://app?vid=97a34ceb-9c77-4952-b4ce-91e3aa59d54e","ios":"levelo://app?vid=97a34ceb-9c77-4952-b4ce-91e3aa59d54e"},"vehicle_type_id":"4","last_reported":1761063232,"current_range_meters":16800,"station_id":"ce4bgk12rcd13ifvqbi0","pricing_plan_id":"cebpf4jnsgd1na2vs0mg"},{"bike_id":"5f0c4e6e-8342-4b95-87f4-4062bdcd73ed","system_id":"levelo_inurba_marseille","lat":43.2942,"lon":5.38662,"is_reserved":false,"is_disabled":false,"rental_uris":{"android":"levelo://app?vid=5f0c4e6e-8342-4b95-87f4-4062bdcd73ed","ios":"levelo://app?vid=5f0c4e6e-8342-4b95-87f4-4062bdcd73ed"},"vehicle_type_id":"4","last_reported":1761063232,"current_range_meters":16800,"station_id":"","pricing_plan_id":"cebpf4jnsgd1na2vs0mg"},{"bike_id":"d776efd1-9b7c-4605-994d-aa7c647d0cf3","system_id":"levelo_inurba_marseille","lat":43.29906,"lon":5.38147,"is_reserved":false,"is_disabled":false,"rental_uris":{"android":"levelo://app?vid=d776efd1-9b7c-4605-994d-aa7c647d0cf3","ios":"levelo://app?vid=d776efd1-9b7c-4605-994d-aa7c647d0cf3"},"vehicle_type_id":"4","last_reported":1761063232,"current_range_meters":17200,"station_id":"ce4bgj12rcd13ifvqbc0","pricing_plan_id":"cebpf4jnsgd1na2vs0mg"},{"bike_id":"b60d1fef-19a9-4374-9579-85b35b56483a","system_id":"levelo_inurba_marseille","lat":43.26788,"lon":5.39412,"is_reserved":false,"is_disabled":false,"rental_uris":{"android":"levelo://app?vid=b60d1fef-19a9-4374-9579-85b35b56483a","ios":"levelo://app?vid=b60d1fef-19a9-4374-9579-85b35b56483a"},"vehicle_type_id":"4","last_reported":1761063232,"current_range_meters":17200,"station_id":"ce4bhh12rcd13ifvqfg0","pricing_plan_id":"cebpf4jnsgd1na2vs0mg"},{"bike_id":"6692e090-9792-45dd-b639-89e41212fa24","system_id":"levelo_inurba_marseille","lat":43.31301,"lon":5.39677,"is_reserved":false,"is_disabled":true,"rental_uris":{"android":"levelo://app?vid=6692e090-9792-45dd-b639-89e41212fa24","ios":"levelo://app?vid=6692e090-9792-45dd-b639-89e41212fa24"},"vehicle_type_id":"4","last_reported":1761063232,"current_range_meters":17200,"station_id":"ce4bgvp2rcd13ifvqcu0","pricing_plan_id":"cebpf4jnsgd1na2vs0mg"},{"bike_id":"396aaa55-c35f-41fc-8337-93bac25c9dde","system_id":"levelo_inurba_marseille","lat":43.29236,"lon":5.35609,"is_reserved":false,"is_disabled":false,"rental_uris":{"android":"levelo://app?vid=396aaa55-c35f-41fc-8337-93bac25c9dde","ios":"levelo://app?vid=396aaa55-c35f-41fc-8337-93bac25c9dde"},"vehicle_type_id":"4","last_reported":1761063232,"current_range_meters":17200,"station_id":"","pricing_plan_id":"cebpf4jnsgd1na2vs0mg"},{"bike_id":"d181e56b-f4d9-404f-82be-c40d3cc980cd","system_id":"levelo_inurba_marseille","lat":43.284923,"lon":5.384148,"is_reserved":false,"is_disabled":false,"rental_uris":{"android":"levelo://app?vid=d181e56b-f4d9-404f-82be-c40d3cc980cd","ios":"levelo://app?vid=d181e56b-f4d9-404f-82be-c40d3cc980cd"},"vehicle_type_id":"4","last_reported":1761063232,"current_range_meters":17200,"station_id":"ce4bh512rcd13ifvqe3g","pricing_plan_id":"cebpf4jnsgd1na2vs0mg"},{"bike_id":"04326bd5-7e4e-4ca5-877d-b118357159a5","system_id":"levelo_inurba_marseille","lat":43.2962,"lon":5.37157,"is_reserved":false,"is_disabled":false,"rental_uris":{"android":"levelo://app?vid=04326bd5-7e4e-4ca5-877d-b118357159a5","ios":"levelo://app?vid=04326bd5-7e4e-4ca5-877d-b118357159a5"},"vehicle_type_id":"4","last_reported":1761063232,"current_range_meters":17600,"station_id":"ce4bgnh2rcd13ifvqc0g","pricing_plan_id":"cebpf4jnsgd1na2vs0mg"},{"bike_id":"e97fdad0-6b2d-4ae0-8462-b73762c6c8da","system_id":"levelo_inurba_marseille","lat":43.24664,"lon":5.38149,"is_reserved":false,"is_disabled":false,"rental_uris":{"android":"levelo://app?vid=e97fdad0-6b2d-4ae0-8462-b73762c6c8da","ios":"levelo://app?vid=e97fdad0-6b2d-4ae0-8462-b73762c6c8da"},"vehicle_type_id":"4","last_reported":1761063232,"current_range_meters":17600,"station_id":"ce4bhih2rcd13ifvqfr0","pricing_plan_id":"cebpf4jnsgd1na2vs0mg"},{"bike_id":"46f8eb4f-9684-4ab6-802f-0aa7397bbb21","system_id":"levelo_inurba_marseille","lat":43.30297,"lon":5.37625,"is_reserved":false,"is_disabled":false,"rental_uris":{"android":"levelo://app?vid=46f8eb4f-9684-4ab6-802f-0aa7397bbb21","ios":"levelo://app?vid=46f8eb4f-9684-4ab6-802f-0aa7397bbb21"},"vehicle_type_id":"4","last_reported":1761063232,"current_range_meters":17600,"station_id":"","pricing_plan_id":"cebpf4jnsgd1na2vs0mg"},{"bike_id":"5fcd2074-1c32-4e14-b841-243fc89d9f55","system_id":"levelo_inurba_marseille","lat":43.252185,"lon":5.402587,"is_reserved":false,"is_disabled":false,"rental_uris":{"android":"levelo://app?vid=5fcd2074-1c32-4e14-b841-243fc89d9f55","ios":"levelo://app?vid=5fcd2074-1c32-4e14-b841-243fc89d9f55"},"vehicle_type_id":"4","last_reported":1761063232,"current_range_meters":17600,"station_id":"ce4bhlh2rcd13ifvqgig","pricing_plan_id":"cebpf4jnsgd1na2vs0mg"},{"bike_id":"6384c04c-dfcb-4d8c-b768-c9b20d789597","system_id":"levelo_inurba_marseille","lat":43.27182,"lon":5.40995,"is_reserved":false,"is_disabled":false,"rental_uris":{"android":"levelo://app?vid=6384c04c-dfcb-4d8c-b768-c9b20d789597","ios":"levelo://app?vid=6384c04c-dfcb-4d8c-b768-c9b20d789597"},"vehicle_type_id":"4","last_reported":1761063232,"current_range_meters":17600,"station_id":"ce4bhl12rcd13ifvqgf0","pricing_plan_id":"cebpf4jnsgd1na2vs0mg"},{"bike_id":"cb17fd28-0b5e-4e87-bc8c-b381606e8147","system_id":"levelo_inurba_marseille","lat":43.24386,"lon":5.37049,"is_reserved":false,"is_disabled":false,"rental_uris":{"android":"levelo://app?vid=cb17fd28-0b5e-4e87-bc8c-b381606e8147","ios":"levelo://app?vid=cb17fd28-0b5e-4e87-bc8c-b381606e8147"},"vehicle_type_id":"4","last_reported":1761063232,"current_range_meters":17600,"station_id":"ce4bhhh2rcd13ifvqfk0","pricing_plan_id":"cebpf4jnsgd1na2vs0mg"},{"bike_id":"c3ea6a13-2909-4818-a4ac-ba6b4120ef87","system_id":"levelo_inurba_marseille","lat":43.295281,"lon":5.385363,"is_reserved":false,"is_disabled":false,"rental_uris":{"android":"levelo://app?vid=c3ea6a13-2909-4818-a4ac-ba6b4120ef87","ios":"levelo://app?vid=c3ea6a13-2909-4818-a4ac-ba6b4120ef87"},"vehicle_type_id":"4","last_reported":1761063232,"current_range_meters":18000,"station_id":"ce4bgih2rcd13ifvqba0","pricing_plan_id":"cebpf4jnsgd1na2vs0mg"},{"bike_id":"5b2fb394-b654-4cda-abea-19d87e1a4938","system_id":"levelo_inurba_marseille","lat":43.240822,"lon":5.377519,"is_reserved":false,"is_disabled":false,"rental_uris":{"android":"levelo://app?vid=5b2fb394-b654-4cda-abea-19d87e1a4938","ios":"levelo://app?vid=5b2fb394-b654-4cda-abea-19d87e1a4938"},"vehicle_type_id":"4","last_reported":1761063232,"current_range_meters":18000,"station_id":"ce4bhnp2rcd13ifvqgvg","pricing_plan_id":"cebpf4jnsgd1na2vs0mg"},{"bike_id":"464bd8a3-6573-4884-b980-774e68ad4ab1","system_id":"levelo_inurba_marseille","lat":43.271791,"lon":5.409859,"is_reserved":false,"is_disabled":false,"rental_uris":{"android":"levelo://app?vid=464bd8a3-6573-4884-b980-774e68ad4ab1","ios":"levelo://app?vid=464bd8a3-6573-4884-b980-774e68ad4ab1"},"vehicle_type_id":"4","last_reported":1761063232,"current_range_meters":18000,"station_id":"ce4bhl12rcd13ifvqgf0","pricing_plan_id":"cebpf4jnsgd1na2vs0mg"},{"bike_id":"12453b5d-25e0-42fa-841d-aeeca9757011","system_id":"levelo_inurba_marseille","lat":43.293091,"lon":5.374568,"is_reserved":false,"is_disabled":false,"rental_uris":{"android":"levelo://app?vid=12453b5d-25e0-42fa-841d-aeeca9757011","ios":"levelo://app?vid=12453b5d-25e0-42fa-841d-aeeca9757011"},"vehicle_type_id":"4","last_reported":1761063232,"current_range_meters":18000,"station_id":"","pricing_plan_id":"cebpf4jnsgd1na2vs0mg"},{"bike_id":"7dd24093-99ff-4dc6-a175-b4dfed0ce07a","system_id":"levelo_inurba_marseille","lat":43.27817,"lon":5.39217,"is_reserved":false,"is_disabled":false,"rental_uris":{"android":"levelo://app?vid=7dd24093-99ff-4dc6-a175-b4dfed0ce07a","ios":"levelo://app?vid=7dd24093-99ff-4dc6-a175-b4dfed0ce07a"},"vehicle_type_id":"4","last_reported":1761063232,"current_range_meters":18000,"station_id":"ce4bhjp2rcd13ifvqga0","pricing_plan_id":"cebpf4jnsgd1na2vs0mg"},{"bike_id":"b924ccf6-003e-4820-94d1-085258c17e1f","system_id":"levelo_inurba_marseille","lat":43.29517,"lon":5.39408,"is_reserved":false,"is_disabled":false,"rental_uris":{"android":"levelo://app?vid=b924ccf6-003e-4820-94d1-085258c17e1f","ios":"levelo://app?vid=b924ccf6-003e-4820-94d1-085258c17e1f"},"vehicle_type_id":"4","last_reported":1761063232,"current_range_meters":18800,"station_id":"ce4bh292rcd13ifvqdf0","pricing_plan_id":"cebpf4jnsgd1na2vs0mg"},{"bike_id":"92fb0336-8362-49cc-8811-3e50d376cc52","system_id":"levelo_inurba_marseille","lat":43.285065,"lon":5.350121,"is_reserved":false,"is_disabled":false,"rental_uris":{"android":"levelo://app?vid=92fb0336-8362-49cc-8811-3e50d376cc52","ios":"levelo://app?vid=92fb0336-8362-49cc-8811-3e50d376cc52"},"vehicle_type_id":"4","last_reported":1761063232,"current_range_meters":18800,"station_id":"ce4bhbh2rcd13ifvqepg","pricing_plan_id":"cebpf4jnsgd1na2vs0mg"},{"bike_id":"a89e38a8-8680-46ea-ae3a-521cb2ea64e1","system_id":"levelo_inurba_marseille","lat":43.27058,"lon":5.42279,"is_reserved":false,"is_disabled":false,"rental_uris":{"android":"levelo://app?vid=a89e38a8-8680-46ea-ae3a-521cb2ea64e1","ios":"levelo://app?vid=a89e38a8-8680-46ea-ae3a-521cb2ea64e1"},"vehicle_type_id":"4","last_reported":1761063232,"current_range_meters":18800,"station_id":"ce4bhk92rcd13ifvqgb0","pricing_plan_id":"cebpf4jnsgd1na2vs0mg"},{"bike_id":"4f8a5ce1-4ba3-4837-a235-fa37d090e874","system_id":"levelo_inurba_marseille","lat":43.28645,"lon":5.38672,"is_reserved":false,"is_disabled":false,"rental_uris":{"android":"levelo://app?vid=4f8a5ce1-4ba3-4837-a235-fa37d090e874","ios":"levelo://app?vid=4f8a5ce1-4ba3-4837-a235-fa37d090e874"},"vehicle_type_id":"4","last_reported":1761063232,"current_range_meters":18800,"station_id":"ce4bh492rcd13ifvqdug","pricing_plan_id":"cebpf4jnsgd1na2vs0mg"},{"bike_id":"d9684318-7cf9-4107-ade8-bf78adc8f7b1","system_id":"levelo_inurba_marseille","lat":43.28608,"lon":5.35122,"is_reserved":false,"is_disabled":false,"rental_uris":{"android":"levelo://app?vid=d9684318-7cf9-4107-ade8-bf78adc8f7b1","ios":"levelo://app?vid=d9684318-7cf9-4107-ade8-bf78adc8f7b1"},"vehicle_type_id":"4","last_reported":1761063232,"current_range_meters":18800,"station_id":"ce4bhch2rcd13ifvqeug","pricing_plan_id":"cebpf4jnsgd1na2vs0mg"},{"bike_id":"4f818d11-6af8-4152-b6fe-25144a8beee7","system_id":"levelo_inurba_marseille","lat":43.30318,"lon":5.40447,"is_reserved":false,"is_disabled":false,"rental_uris":{"android":"levelo://app?vid=4f818d11-6af8-4152-b6fe-25144a8beee7","ios":"levelo://app?vid=4f818d11-6af8-4152-b6fe-25144a8beee7"},"vehicle_type_id":"4","last_reported":1761063232,"current_range_meters":18800,"station_id":"ce4bh012rcd13ifvqd10","pricing_plan_id":"cebpf4jnsgd1na2vs0mg"},{"bike_id":"07e992db-48e1-481b-a50e-3b491cfc1455","system_id":"levelo_inurba_marseille","lat":43.31991,"lon":5.41291,"is_reserved":false,"is_disabled":false,"rental_uris":{"android":"levelo://app?vid=07e992db-48e1-481b-a50e-3b491cfc1455","ios":"levelo://app?vid=07e992db-48e1-481b-a50e-3b491cfc1455"},"vehicle_type_id":"4","last_reported":1761063232,"current_range_meters":18800,"station_id":"","pricing_plan_id":"cebpf4jnsgd1na2vs0mg"},{"bike_id":"fc4065f4-71c5-4e1f-8803-00ccd66dbc77","system_id":"levelo_inurba_marseille","lat":43.31165,"lon":5.38724,"is_reserved":false,"is_disabled":false,"rental_uris":{"android":"levelo://app?vid=fc4065f4-71c5-4e1f-8803-00ccd66dbc77","ios":"levelo://app?vid=fc4065f4-71c5-4e1f-8803-00ccd66dbc77"},"vehicle_type_id":"4","last_reported":1761063232,"current_range_meters":18800,"station_id":"ce4bgv12rcd13ifvqcp0","pricing_plan_id":"cebpf4jnsgd1na2vs0mg"},{"bike_id":"ca498723-62eb-45dc-ab99-296054179b59","system_id":"levelo_inurba_marseille","lat":43.294711,"lon":5.391019,"is_reserved":false,"is_disabled":false,"rental_uris":{"android":"levelo://app?vid=ca498723-62eb-45dc-ab99-296054179b59","ios":"levelo://app?vid=ca498723-62eb-45dc-ab99-296054179b59"},"vehicle_type_id":"4","last_reported":1761063232,"current_range_meters":18800,"station_id":"ce4bh192rcd13ifvqdd0","pricing_plan_id":"cebpf4jnsgd1na2vs0mg"},{"bike_id":"32a33d2e-9d70-43b5-82bb-d901dc6532f3","system_id":"levelo_inurba_marseille","lat":43.28076,"lon":5.37816,"is_reserved":false,"is_disabled":false,"rental_uris":{"android":"levelo://app?vid=32a33d2e-9d70-43b5-82bb-d901dc6532f3","ios":"levelo://app?vid=32a33d2e-9d70-43b5-82bb-d901dc6532f3"},"vehicle_type_id":"4","last_reported":1761063232,"current_range_meters":18800,"station_id":"ce4bha12rcd13ifvqee0","pricing_plan_id":"cebpf4jnsgd1na2vs0mg"},{"bike_id":"87cba492-4cba-4bfb-a052-a48f15a77fb3","system_id":"levelo_inurba_marseille","lat":43.29782,"lon":5.39344,"is_reserved":false,"is_disabled":false,"rental_uris":{"android":"levelo://app?vid=87cba492-4cba-4bfb-a052-a48f15a77fb3","ios":"levelo://app?vid=87cba492-4cba-4bfb-a052-a48f15a77fb3"},"vehicle_type_id":"4","last_reported":1761063232,"current_range_meters":19200,"station_id":"chh1huq6cuj3fo74tm60","pricing_plan_id":"cebpf4jnsgd1na2vs0mg"},{"bike_id":"3fe1574b-9bfc-4ff8-80dd-fb3d7bfe2927","system_id":"levelo_inurba_marseille","lat":43.29272,"lon":5.36846,"is_reserved":false,"is_disabled":false,"rental_uris":{"android":"levelo://app?vid=3fe1574b-9bfc-4ff8-80dd-fb3d7bfe2927","ios":"levelo://app?vid=3fe1574b-9bfc-4ff8-80dd-fb3d7bfe2927"},"vehicle_type_id":"4","last_reported":1761063232,"current_range_meters":19200,"station_id":"ce4bhbp2rcd13ifvqesg","pricing_plan_id":"cebpf4jnsgd1na2vs0mg"},{"bike_id":"a09d408c-fc08-41f6-a7cc-68aad1463d35","system_id":"levelo_inurba_marseille","lat":43.29235,"lon":5.38447,"is_reserved":false,"is_disabled":false,"rental_uris":{"android":"levelo://app?vid=a09d408c-fc08-41f6-a7cc-68aad1463d35","ios":"levelo://app?vid=a09d408c-fc08-41f6-a7cc-68aad1463d35"},"vehicle_type_id":"4","last_reported":1761063232,"current_range_meters":19200,"station_id":"ce4bh692rcd13ifvqea0","pricing_plan_id":"cebpf4jnsgd1na2vs0mg"},{"bike_id":"ced26543-8163-4d02-bba7-53b47e1f25a5","system_id":"levelo_inurba_marseille","lat":43.308985,"lon":5.371898,"is_reserved":false,"is_disabled":false,"rental_uris":{"android":"levelo://app?vid=ced26543-8163-4d02-bba7-53b47e1f25a5","ios":"levelo://app?vid=ced26543-8163-4d02-bba7-53b47e1f25a5"},"vehicle_type_id":"4","last_reported":1761063232,"current_range_meters":19200,"station_id":"ce4bguh2rcd13ifvqckg","pricing_plan_id":"cebpf4jnsgd1na2vs0mg"},{"bike_id":"56902e98-74f9-4cb2-bb73-f446d8ff729a","system_id":"levelo_inurba_marseille","lat":43.29618,"lon":5.37728,"is_reserved":false,"is_disabled":false,"rental_uris":{"android":"levelo://app?vid=56902e98-74f9-4cb2-bb73-f446d8ff729a","ios":"levelo://app?vid=56902e98-74f9-4cb2-bb73-f446d8ff729a"},"vehicle_type_id":"4","last_reported":1761063232,"current_range_meters":19200,"station_id":"ce4bgi92rcd13ifvqb90","pricing_plan_id":"cebpf4jnsgd1na2vs0mg"},{"bike_id":"30f46c13-b405-43ad-a54b-3c34e831e5ba","system_id":"levelo_inurba_marseille","lat":43.30635,"lon":5.400585,"is_reserved":false,"is_disabled":false,"rental_uris":{"android":"levelo://app?vid=30f46c13-b405-43ad-a54b-3c34e831e5ba","ios":"levelo://app?vid=30f46c13-b405-43ad-a54b-3c34e831e5ba"},"vehicle_type_id":"4","last_reported":1761063232,"current_range_meters":19200,"station_id":"ce4bh112rcd13ifvqda0","pricing_plan_id":"cebpf4jnsgd1na2vs0mg"},{"bike_id":"02d34f94-d158-4fa8-8506-852422a02a86","system_id":"levelo_inurba_marseille","lat":43.262314,"lon":5.374502,"is_reserved":false,"is_disabled":false,"rental_uris":{"android":"levelo://app?vid=02d34f94-d158-4fa8-8506-852422a02a86","ios":"levelo://app?vid=02d34f94-d158-4fa8-8506-852422a02a86"},"vehicle_type_id":"4","last_reported":1761063232,"current_range_meters":19200,"station_id":"ce4bhh92rcd13ifvqfi0","pricing_plan_id":"cebpf4jnsgd1na2vs0mg"},{"bike_id":"85d5b8dc-49fa-469e-9e2c-08338edd5341","system_id":"levelo_inurba_marseille","lat":43.27977,"lon":5.38738,"is_reserved":false,"is_disabled":false,"rental_uris":{"android":"levelo://app?vid=85d5b8dc-49fa-469e-9e2c-08338edd5341","ios":"levelo://app?vid=85d5b8dc-49fa-469e-9e2c-08338edd5341"},"vehicle_type_id":"4","last_reported":1761063232,"current_range_meters":19200,"station_id":"ce4bhg12rcd13ifvqf80","pricing_plan_id":"cebpf4jnsgd1na2vs0mg"},{"bike_id":"07178bcc-49a8-4a44-82b8-5777c3f58b18","system_id":"levelo_inurba_marseille","lat":43.29537,"lon":5.37499,"is_reserved":false,"is_disabled":false,"rental_uris":{"android":"levelo://app?vid=07178bcc-49a8-4a44-82b8-5777c3f58b18","ios":"levelo://app?vid=07178bcc-49a8-4a44-82b8-5777c3f58b18"},"vehicle_type_id":"4","last_reported":1761063232,"current_range_meters":19200,"station_id":"ce4bgkp2rcd13ifvqbmg","pricing_plan_id":"cebpf4jnsgd1na2vs0mg"},{"bike_id":"14d373f6-10d3-4bd9-a6d5-f30e66fd7fd3","system_id":"levelo_inurba_marseille","lat":43.2846,"lon":5.35896,"is_reserved":false,"is_disabled":false,"rental_uris":{"android":"levelo://app?vid=14d373f6-10d3-4bd9-a6d5-f30e66fd7fd3","ios":"levelo://app?vid=14d373f6-10d3-4bd9-a6d5-f30e66fd7fd3"},"vehicle_type_id":"4","last_reported":1761063232,"current_range_meters":19600,"station_id":"ce4bhah2rcd13ifvqei0","pricing_plan_id":"cebpf4jnsgd1na2vs0mg"},{"bike_id":"930ae2b2-b8c3-48b8-ab2e-686488d6030f","system_id":"levelo_inurba_marseille","lat":43.24649,"lon":5.38893,"is_reserved":false,"is_disabled":false,"rental_uris":{"android":"levelo://app?vid=930ae2b2-b8c3-48b8-ab2e-686488d6030f","ios":"levelo://app?vid=930ae2b2-b8c3-48b8-ab2e-686488d6030f"},"vehicle_type_id":"4","last_reported":1761063232,"current_range_meters":19600,"station_id":"ce4bhg12rcd13ifvqf60","pricing_plan_id":"cebpf4jnsgd1na2vs0mg"},{"bike_id":"fabe01e6-e39a-42c6-bb68-6378fe2a2d01","system_id":"levelo_inurba_marseille","lat":43.27945,"lon":5.41054,"is_reserved":false,"is_disabled":false,"rental_uris":{"android":"levelo://app?vid=fabe01e6-e39a-42c6-bb68-6378fe2a2d01","ios":"levelo://app?vid=fabe01e6-e39a-42c6-bb68-6378fe2a2d01"},"vehicle_type_id":"4","last_reported":1761063232,"current_range_meters":19600,"station_id":"ce4bhnp2rcd13ifvqh0g","pricing_plan_id":"cebpf4jnsgd1na2vs0mg"},{"bike_id":"1ec4ea27-26fd-429c-b56a-d2a6e0a1fbaa","system_id":"levelo_inurba_marseille","lat":43.28417,"lon":5.34993,"is_reserved":false,"is_disabled":false,"rental_uris":{"android":"levelo://app?vid=1ec4ea27-26fd-429c-b56a-d2a6e0a1fbaa","ios":"levelo://app?vid=1ec4ea27-26fd-429c-b56a-d2a6e0a1fbaa"},"vehicle_type_id":"4","last_reported":1761063232,"current_range_meters":19600,"station_id":"ce4bhbh2rcd13ifvqepg","pricing_plan_id":"cebpf4jnsgd1na2vs0mg"},{"bike_id":"bbd08cf4-31da-4d68-b46e-697f80190f23","system_id":"levelo_inurba_marseille","lat":43.27173,"lon":5.40998,"is_reserved":false,"is_disabled":false,"rental_uris":{"android":"levelo://app?vid=bbd08cf4-31da-4d68-b46e-697f80190f23","ios":"levelo://app?vid=bbd08cf4-31da-4d68-b46e-697f80190f23"},"vehicle_type_id":"4","last_reported":1761063232,"current_range_meters":19600,"station_id":"ce4bhl12rcd13ifvqgf0","pricing_plan_id":"cebpf4jnsgd1na2vs0mg"},{"bike_id":"082ab86a-70a1-47eb-990d-949703747c2a","system_id":"levelo_inurba_marseille","lat":43.31535,"lon":5.38036,"is_reserved":false,"is_disabled":false,"rental_uris":{"android":"levelo://app?vid=082ab86a-70a1-47eb-990d-949703747c2a","ios":"levelo://app?vid=082ab86a-70a1-47eb-990d-949703747c2a"},"vehicle_type_id":"4","last_reported":1761063232,"current_range_meters":19600,"station_id":"ce4bhsp2rcd13ifvqi50","pricing_plan_id":"cebpf4jnsgd1na2vs0mg"},{"bike_id":"0289d540-3ab2-4058-8d5f-f384081982dd","system_id":"levelo_inurba_marseille","lat":43.29525,"lon":5.38545,"is_reserved":false,"is_disabled":false,"rental_uris":{"android":"levelo://app?vid=0289d540-3ab2-4058-8d5f-f384081982dd","ios":"levelo://app?vid=0289d540-3ab2-4058-8d5f-f384081982dd"},"vehicle_type_id":"4","last_reported":1761063232,"current_range_meters":19600,"station_id":"","pricing_plan_id":"cebpf4jnsgd1na2vs0mg"},{"bike_id":"db105df6-eb61-4d4a-815a-ba1742bf4fab","system_id":"levelo_inurba_marseille","lat":43.28471,"lon":5.39103,"is_reserved":false,"is_disabled":false,"rental_uris":{"android":"levelo://app?vid=db105df6-eb61-4d4a-815a-ba1742bf4fab","ios":"levelo://app?vid=db105df6-eb61-4d4a-815a-ba1742bf4fab"},"vehicle_type_id":"4","last_reported":1761063232,"current_range_meters":19600,"station_id":"","pricing_plan_id":"cebpf4jnsgd1na2vs0mg"},{"bike_id":"72ab6615-e6b4-49a7-8f28-2d2b4bc2f194","system_id":"levelo_inurba_marseille","lat":43.293725,"lon":5.37856,"is_reserved":false,"is_disabled":false,"rental_uris":{"android":"levelo://app?vid=72ab6615-e6b4-49a7-8f28-2d2b4bc2f194","ios":"levelo://app?vid=72ab6615-e6b4-49a7-8f28-2d2b4bc2f194"},"vehicle_type_id":"4","last_reported":1761063232,"current_range_meters":19600,"station_id":"ce4bgi12rcd13ifvqb70","pricing_plan_id":"cebpf4jnsgd1na2vs0mg"},{"bike_id":"ef7d8ad5-f770-49bd-88ca-3b7fc8651b07","system_id":"levelo_inurba_marseille","lat":43.27371,"lon":5.36261,"is_reserved":false,"is_disabled":false,"rental_uris":{"android":"levelo://app?vid=ef7d8ad5-f770-49bd-88ca-3b7fc8651b07","ios":"levelo://app?vid=ef7d8ad5-f770-49bd-88ca-3b7fc8651b07"},"vehicle_type_id":"4","last_reported":1761063232,"current_range_meters":19600,"station_id":"ce4bhbh2rcd13ifvqeo0","pricing_plan_id":"cebpf4jnsgd1na2vs0mg"},{"bike_id":"8486921b-7234-4526-9552-86b7e115561a","system_id":"levelo_inurba_marseille","lat":43.304291,"lon":5.388807,"is_reserved":false,"is_disabled":false,"rental_uris":{"android":"levelo://app?vid=8486921b-7234-4526-9552-86b7e115561a","ios":"levelo://app?vid=8486921b-7234-4526-9552-86b7e115561a"},"vehicle_type_id":"4","last_reported":1761063232,"current_range_meters":19600,"station_id":"ce4bgk12rcd13ifvqbi0","pricing_plan_id":"cebpf4jnsgd1na2vs0mg"},{"bike_id":"8a87d0c7-803e-4295-b511-aad79edd5bf5","system_id":"levelo_inurba_marseille","lat":43.29021,"lon":5.3865,"is_reserved":false,"is_disabled":false,"rental_uris":{"android":"levelo://app?vid=8a87d0c7-803e-4295-b511-aad79edd5bf5","ios":"levelo://app?vid=8a87d0c7-803e-4295-b511-aad79edd5bf5"},"vehicle_type_id":"4","last_reported":1761063232,"current_range_meters":19600,"station_id":"ce4bh4p2rcd13ifvqe0g","pricing_plan_id":"cebpf4jnsgd1na2vs0mg"},{"bike_id":"510c5475-0a28-4de3-b4f3-0de9ba3a311c","system_id":"levelo_inurba_marseille","lat":43.28689,"lon":5.37397,"is_reserved":false,"is_disabled":false,"rental_uris":{"android":"levelo://app?vid=510c5475-0a28-4de3-b4f3-0de9ba3a311c","ios":"levelo://app?vid=510c5475-0a28-4de3-b4f3-0de9ba3a311c"},"vehicle_type_id":"4","last_reported":1761063232,"current_range_meters":19600,"station_id":"ce4bh3p2rcd13ifvqdq0","pricing_plan_id":"cebpf4jnsgd1na2vs0mg"},{"bike_id":"f2b380b4-2a3b-43ad-ab92-b6219a11c825","system_id":"levelo_inurba_marseille","lat":43.22935,"lon":5.35376,"is_reserved":false,"is_disabled":false,"rental_uris":{"android":"levelo://app?vid=f2b380b4-2a3b-43ad-ab92-b6219a11c825","ios":"levelo://app?vid=f2b380b4-2a3b-43ad-ab92-b6219a11c825"},"vehicle_type_id":"4","last_reported":1761063232,"current_range_meters":19600,"station_id":"cpo3532slgdg3j2ikp40","pricing_plan_id":"cebpf4jnsgd1na2vs0mg"},{"bike_id":"9870a68d-ae62-4bec-82c3-a7443a850bdc","system_id":"levelo_inurba_marseille","lat":43.31288,"lon":5.37785,"is_reserved":false,"is_disabled":false,"rental_uris":{"android":"levelo://app?vid=9870a68d-ae62-4bec-82c3-a7443a850bdc","ios":"levelo://app?vid=9870a68d-ae62-4bec-82c3-a7443a850bdc"},"vehicle_type_id":"4","last_reported":1761063232,"current_range_meters":20000,"station_id":"","pricing_plan_id":"cebpf4jnsgd1na2vs0mg"},{"bike_id":"c66c7425-7323-4515-8b31-df9cfad13899","system_id":"levelo_inurba_marseille","lat":43.29522,"lon":5.37512,"is_reserved":false,"is_disabled":false,"rental_uris":{"android":"levelo://app?vid=c66c7425-7323-4515-8b31-df9cfad13899","ios":"levelo://app?vid=c66c7425-7323-4515-8b31-df9cfad13899"},"vehicle_type_id":"4","last_reported":1761063232,"current_range_meters":20000,"station_id":"ce4bgkp2rcd13ifvqbmg","pricing_plan_id":"cebpf4jnsgd1na2vs0mg"},{"bike_id":"7e7b47b2-57e6-45f5-9ba1-37493d7aa34a","system_id":"levelo_inurba_marseille","lat":43.29249,"lon":5.38427,"is_reserved":false,"is_disabled":false,"rental_uris":{"android":"levelo://app?vid=7e7b47b2-57e6-45f5-9ba1-37493d7aa34a","ios":"levelo://app?vid=7e7b47b2-57e6-45f5-9ba1-37493d7aa34a"},"vehicle_type_id":"4","last_reported":1761063232,"current_range_meters":20000,"station_id":"ce4bh692rcd13ifvqea0","pricing_plan_id":"cebpf4jnsgd1na2vs0mg"},{"bike_id":"e01c0407-9fea-4afc-844a-8e1d738fcda5","system_id":"levelo_inurba_marseille","lat":43.24161,"lon":5.36416,"is_reserved":false,"is_disabled":false,"rental_uris":{"android":"levelo://app?vid=e01c0407-9fea-4afc-844a-8e1d738fcda5","ios":"levelo://app?vid=e01c0407-9fea-4afc-844a-8e1d738fcda5"},"vehicle_type_id":"4","last_reported":1761063232,"current_range_meters":20000,"station_id":"cpo36qri1sfpv3e86is0","pricing_plan_id":"cebpf4jnsgd1na2vs0mg"},{"bike_id":"618a9c44-e479-45b6-b144-58d3228e3132","system_id":"levelo_inurba_marseille","lat":43.24634,"lon":5.38908,"is_reserved":false,"is_disabled":false,"rental_uris":{"android":"levelo://app?vid=618a9c44-e479-45b6-b144-58d3228e3132","ios":"levelo://app?vid=618a9c44-e479-45b6-b144-58d3228e3132"},"vehicle_type_id":"4","last_reported":1761063232,"current_range_meters":20000,"station_id":"ce4bhg12rcd13ifvqf60","pricing_plan_id":"cebpf4jnsgd1na2vs0mg"},{"bike_id":"57851809-b840-4b8e-ae9b-7f4c2fd1c8e9","system_id":"levelo_inurba_marseille","lat":43.284221,"lon":5.34992,"is_reserved":false,"is_disabled":false,"rental_uris":{"android":"levelo://app?vid=57851809-b840-4b8e-ae9b-7f4c2fd1c8e9","ios":"levelo://app?vid=57851809-b840-4b8e-ae9b-7f4c2fd1c8e9"},"vehicle_type_id":"4","last_reported":1761063232,"current_range_meters":20000,"station_id":"ce4bhbh2rcd13ifvqepg","pricing_plan_id":"cebpf4jnsgd1na2vs0mg"},{"bike_id":"9d8bcd8e-8ecf-425f-98ef-b7c9398172e2","system_id":"levelo_inurba_marseille","lat":43.323688,"lon":5.367508,"is_reserved":false,"is_disabled":false,"rental_uris":{"android":"levelo://app?vid=9d8bcd8e-8ecf-425f-98ef-b7c9398172e2","ios":"levelo://app?vid=9d8bcd8e-8ecf-425f-98ef-b7c9398172e2"},"vehicle_type_id":"4","last_reported":1761063232,"current_range_meters":20000,"station_id":"ce4bhsh2rcd13ifvqi2g","pricing_plan_id":"cebpf4jnsgd1na2vs0mg"},{"bike_id":"17fa462d-372b-4fbe-87aa-8e5a82049168","system_id":"levelo_inurba_marseille","lat":43.29705,"lon":5.37683,"is_reserved":false,"is_disabled":false,"rental_uris":{"android":"levelo://app?vid=17fa462d-372b-4fbe-87aa-8e5a82049168","ios":"levelo://app?vid=17fa462d-372b-4fbe-87aa-8e5a82049168"},"vehicle_type_id":"4","last_reported":1761063232,"current_range_meters":20400,"station_id":"ce4bgkh2rcd13ifvqbl0","pricing_plan_id":"cebpf4jnsgd1na2vs0mg"},{"bike_id":"3d7013be-dfe4-430a-97e8-197a834810ee","system_id":"levelo_inurba_marseille","lat":43.246454,"lon":5.389014,"is_reserved":false,"is_disabled":false,"rental_uris":{"android":"levelo://app?vid=3d7013be-dfe4-430a-97e8-197a834810ee","ios":"levelo://app?vid=3d7013be-dfe4-430a-97e8-197a834810ee"},"vehicle_type_id":"4","last_reported":1761063232,"current_range_meters":20400,"station_id":"ce4bhg12rcd13ifvqf60","pricing_plan_id":"cebpf4jnsgd1na2vs0mg"},{"bike_id":"a7852824-e2a4-479b-99b4-cb953138df6f","system_id":"levelo_inurba_marseille","lat":43.2293,"lon":5.35393,"is_reserved":false,"is_disabled":false,"rental_uris":{"android":"levelo://app?vid=a7852824-e2a4-479b-99b4-cb953138df6f","ios":"levelo://app?vid=a7852824-e2a4-479b-99b4-cb953138df6f"},"vehicle_type_id":"4","last_reported":1761063232,"current_range_meters":20400,"station_id":"cpo3532slgdg3j2ikp40","pricing_plan_id":"cebpf4jnsgd1na2vs0mg"},{"bike_id":"e5ded6a9-0a8f-488f-af43-371b10d13361","system_id":"levelo_inurba_marseille","lat":43.29264,"lon":5.40895,"is_reserved":false,"is_disabled":false,"rental_uris":{"android":"levelo://app?vid=e5ded6a9-0a8f-488f-af43-371b10d13361","ios":"levelo://app?vid=e5ded6a9-0a8f-488f-af43-371b10d13361"},"vehicle_type_id":"4","last_reported":1761063232,"current_range_meters":20400,"station_id":"ce4bh192rcd13ifvqdc0","pricing_plan_id":"cebpf4jnsgd1na2vs0mg"},{"bike_id":"56a0cc6f-39bd-41de-944c-6195e3a2e12f","system_id":"levelo_inurba_marseille","lat":43.32356,"lon":5.36778,"is_reserved":false,"is_disabled":false,"rental_uris":{"android":"levelo://app?vid=56a0cc6f-39bd-41de-944c-6195e3a2e12f","ios":"levelo://app?vid=56a0cc6f-39bd-41de-944c-6195e3a2e12f"},"vehicle_type_id":"4","last_reported":1761063232,"current_range_meters":20400,"station_id":"ce4bhsh2rcd13ifvqi2g","pricing_plan_id":"cebpf4jnsgd1na2vs0mg"},{"bike_id":"8a4cd335-0c14-4819-b798-4906400c9e23","system_id":"levelo_inurba_marseille","lat":43.3012,"lon":5.43124,"is_reserved":false,"is_disabled":false,"rental_uris":{"android":"levelo://app?vid=8a4cd335-0c14-4819-b798-4906400c9e23","ios":"levelo://app?vid=8a4cd335-0c14-4819-b798-4906400c9e23"},"vehicle_type_id":"4","last_reported":1761063232,"current_range_meters":20400,"station_id":"st_d3js3co5814s73ftftug","pricing_plan_id":"cebpf4jnsgd1na2vs0mg"},{"bike_id":"8b57b0a4-f547-495a-a1d9-03a63d6ea6a6","system_id":"levelo_inurba_marseille","lat":43.23157,"lon":5.43702,"is_reserved":false,"is_disabled":false,"rental_uris":{"android":"levelo://app?vid=8b57b0a4-f547-495a-a1d9-03a63d6ea6a6","ios":"levelo://app?vid=8b57b0a4-f547-495a-a1d9-03a63d6ea6a6"},"vehicle_type_id":"4","last_reported":1761063232,"current_range_meters":20400,"station_id":"ce4bhmp2rcd13ifvqgog","pricing_plan_id":"cebpf4jnsgd1na2vs0mg"},{"bike_id":"a3660484-7d6a-474f-b5f6-b8fcbef70778","system_id":"levelo_inurba_marseille","lat":43.2827,"lon":5.35056,"is_reserved":false,"is_disabled":false,"rental_uris":{"android":"levelo://app?vid=a3660484-7d6a-474f-b5f6-b8fcbef70778","ios":"levelo://app?vid=a3660484-7d6a-474f-b5f6-b8fcbef70778"},"vehicle_type_id":"4","last_reported":1761063232,"current_range_meters":20400,"station_id":"ce4bhbp2rcd13ifvqerg","pricing_plan_id":"cebpf4jnsgd1na2vs0mg"},{"bike_id":"67415575-cae0-4072-8bbb-716e69bc4fe8","system_id":"levelo_inurba_marseille","lat":43.31264,"lon":5.40175,"is_reserved":false,"is_disabled":false,"rental_uris":{"android":"levelo://app?vid=67415575-cae0-4072-8bbb-716e69bc4fe8","ios":"levelo://app?vid=67415575-cae0-4072-8bbb-716e69bc4fe8"},"vehicle_type_id":"4","last_reported":1761063232,"current_range_meters":20400,"station_id":"ce4bh092rcd13ifvqd30","pricing_plan_id":"cebpf4jnsgd1na2vs0mg"},{"bike_id":"4c3a499c-290e-4af5-a3e9-c7a08d283b69","system_id":"levelo_inurba_marseille","lat":43.26201,"lon":5.37934,"is_reserved":false,"is_disabled":false,"rental_uris":{"android":"levelo://app?vid=4c3a499c-290e-4af5-a3e9-c7a08d283b69","ios":"levelo://app?vid=4c3a499c-290e-4af5-a3e9-c7a08d283b69"},"vehicle_type_id":"4","last_reported":1761063232,"current_range_meters":20800,"station_id":"ce4bhjp2rcd13ifvqg90","pricing_plan_id":"cebpf4jnsgd1na2vs0mg"},{"bike_id":"42a4cdbc-a02c-40d9-810a-388e805e4e3f","system_id":"levelo_inurba_marseille","lat":43.293,"lon":5.37451,"is_reserved":false,"is_disabled":false,"rental_uris":{"android":"levelo://app?vid=42a4cdbc-a02c-40d9-810a-388e805e4e3f","ios":"levelo://app?vid=42a4cdbc-a02c-40d9-810a-388e805e4e3f"},"vehicle_type_id":"4","last_reported":1761063232,"current_range_meters":20800,"station_id":"ce4bgi12rcd13ifvqb70","pricing_plan_id":"cebpf4jnsgd1na2vs0mg"},{"bike_id":"f943f823-d9e2-4f69-9794-8ee1bed89cda","system_id":"levelo_inurba_marseille","lat":43.241699,"lon":5.36401,"is_reserved":false,"is_disabled":false,"rental_uris":{"android":"levelo://app?vid=f943f823-d9e2-4f69-9794-8ee1bed89cda","ios":"levelo://app?vid=f943f823-d9e2-4f69-9794-8ee1bed89cda"},"vehicle_type_id":"4","last_reported":1761063232,"current_range_meters":20800,"station_id":"cpo36qri1sfpv3e86is0","pricing_plan_id":"cebpf4jnsgd1na2vs0mg"},{"bike_id":"b3b13e92-d401-45af-ad84-a41c7bbeb5fe","system_id":"levelo_inurba_marseille","lat":43.30965,"lon":5.37519,"is_reserved":false,"is_disabled":false,"rental_uris":{"android":"levelo://app?vid=b3b13e92-d401-45af-ad84-a41c7bbeb5fe","ios":"levelo://app?vid=b3b13e92-d401-45af-ad84-a41c7bbeb5fe"},"vehicle_type_id":"4","last_reported":1761063232,"current_range_meters":20800,"station_id":"","pricing_plan_id":"cebpf4jnsgd1na2vs0mg"},{"bike_id":"f4617002-8bfb-4fce-aefa-26c7f48e8716","system_id":"levelo_inurba_marseille","lat":43.31326,"lon":5.39693,"is_reserved":false,"is_disabled":false,"rental_uris":{"android":"levelo://app?vid=f4617002-8bfb-4fce-aefa-26c7f48e8716","ios":"levelo://app?vid=f4617002-8bfb-4fce-aefa-26c7f48e8716"},"vehicle_type_id":"4","last_reported":1761063232,"current_range_meters":20800,"station_id":"ce4bgvp2rcd13ifvqcu0","pricing_plan_id":"cebpf4jnsgd1na2vs0mg"},{"bike_id":"7232bb60-2fbd-40fd-9d41-97ab2f0d9f37","system_id":"levelo_inurba_marseille","lat":43.24086,"lon":5.4139,"is_reserved":false,"is_disabled":false,"rental_uris":{"android":"levelo://app?vid=7232bb60-2fbd-40fd-9d41-97ab2f0d9f37","ios":"levelo://app?vid=7232bb60-2fbd-40fd-9d41-97ab2f0d9f37"},"vehicle_type_id":"4","last_reported":1761063232,"current_range_meters":21600,"station_id":"","pricing_plan_id":"cebpf4jnsgd1na2vs0mg"},{"bike_id":"6cb13ad7-4051-45ec-99f1-4c86765e0ca5","system_id":"levelo_inurba_marseille","lat":43.298023,"lon":5.381016,"is_reserved":false,"is_disabled":false,"rental_uris":{"android":"levelo://app?vid=6cb13ad7-4051-45ec-99f1-4c86765e0ca5","ios":"levelo://app?vid=6cb13ad7-4051-45ec-99f1-4c86765e0ca5"},"vehicle_type_id":"4","last_reported":1761063232,"current_range_meters":21600,"station_id":"ce4bgip2rcd13ifvqbb0","pricing_plan_id":"cebpf4jnsgd1na2vs0mg"},{"bike_id":"c8c0fa58-a519-4343-9887-b0c694f93aef","system_id":"levelo_inurba_marseille","lat":43.28872,"lon":5.42527,"is_reserved":false,"is_disabled":false,"rental_uris":{"android":"levelo://app?vid=c8c0fa58-a519-4343-9887-b0c694f93aef","ios":"levelo://app?vid=c8c0fa58-a519-4343-9887-b0c694f93aef"},