{"last_updated":1702292795,"ttl":30,"version":"2.2","data":{"bikes":[{"bike_id":"af115bc0-0c1b-4a35-af11-e2be8c394adc","system_id":"levelo_inurba_marseille","lat":43.31343,"lon":5.36715,"is_reserved":false,"is_disabled":false,"rental_uris":{"android":"levelo://app?vid=af115bc0-0c1b-4a35-af11-e2be8c394adc","ios":"levelo://app?vid=af115bc0-0c1b-4a35-af11-e2be8c394adc"},"vehicle_type_id":"4","last_reported":1702292795,"current_range_meters":17200,"station_id":"ce4bgr92rcd13ifvqc6g","pricing_plan_id":"free"},{"bike_id":"055d2ef5-9139-4356-9d69-cd322234ae4b","system_id":"levelo_inurba_marseille","lat":43.31341,"lon":5.367098,"is_reserved":false,"is_disabled":false,"rental_uris":{"android":"levelo://app?vid=055d2ef5-9139-4356-9d69-cd322234ae4b","ios":"levelo://app?vid=055d2ef5-9139-4356-9d69-cd322234ae4b"},"vehicle_type_id":"4","last_reported":1702292795,"current_range_meters":20400,"station_id":"ce4bgr92rcd13ifvqc6g","pricing_plan_id":"free"},{"bike_id":"bc58274e-d2d6-448d-ac09-facbdfbc86e7","system_id":"levelo_inurba_marseille","lat":43.31341,"lon":5.367098,"is_reserved":false,"is_disabled":false,"rental_uris":{"android":"levelo://app?vid=bc58274e-d2d6-448d-ac09-facbdfbc86e7","ios":"levelo://app?vid=bc58274e-d2d6-448d-ac09-facbdfbc86e7"},"vehicle_type_id":"4","last_reported":1702292795,"current_range_meters":18000,"station_id":"ce4bgr92rcd13ifvqc6g","pricing_plan_id":"free"},{"bike_id":"8dead90f-577d-4d9f-9331-28e8ecb446e2","system_id":"levelo_inurba_marseille","lat":43.31341,"lon":5.367098,"is_reserved":false,"is_disabled":false,"rental_uris":{"android":"levelo://app?vid=8dead90f-577d-4d9f-9331-28e8ecb446e2","ios":"levelo://app?vid=8dead90f-577d-4d9f-9331-28e8ecb446e2"},"vehicle_type_id":"4","last_reported":1702292795,"current_range_meters":13600,"station_id":"ce4bgr92rcd13ifvqc6g","pricing_plan_id":"free"},{"bike_id":"9a20de14-4f88-4427-ab20-c27a8d5f06d1","system_id":"levelo_inurba_marseille","lat":43.313519,"lon":5.367108,"is_reserved":false,"is_disabled":false,"rental_uris":{"android":"levelo://app?vid=9a20de14-4f88-4427-ab20-c27a8d5f06d1","ios":"levelo://app?vid=9a20de14-4f88-4427-ab20-c27a8d5f06d1"},"vehicle_type_id":"4","last_reported":1702292795,"current_range_meters":0,"station_id":"ce4bgr92rcd13ifvqc6g","pricing_plan_id":"free"},{"bike_id":"fdaf4ab5-a9d9-4192-aa17-96757f60edc3","system_id":"levelo_inurba_marseille","lat":43.313391,"lon":5.36706,"is_reserved":false,"is_disabled":false,"rental_uris":{"android":"levelo://app?vid=fdaf4ab5-a9d9-4192-aa17-96757f60edc3","ios":"levelo://app?vid=fdaf4ab5-a9d9-4192-aa17-96757f60edc3"},"vehicle_type_id":"4","last_reported":1702292795,"current_range_meters":31200,"station_id":"ce4bgr92rcd13ifvqc6g","pricing_plan_id":"free"},{"bike_id":"cae15194-13d0-47b9-b8ad-026da81b6fe4","system_id":"levelo_inurba_marseille","lat":43.31341,"lon":5.367098,"is_reserved":false,"is_disabled":false,"rental_uris":{"android":"levelo://app?vid=cae15194-13d0-47b9-b8ad-026da81b6fe4","ios":"levelo://app?vid=cae15194-13d0-47b9-b8ad-026da81b6fe4"},"vehicle_type_id":"4","last_reported":1702292795,"current_range_meters":5200,"station_id":"ce4bgr92rcd13ifvqc6g","pricing_plan_id":"free"},{"bike_id":"22f592ed-7213-4141-b405-b53acc01ff6c","system_id":"levelo_inurba_marseille","lat":43.313391,"lon":5.36706,"is_reserved":false,"is_disabled":false,"rental_uris":{"android":"levelo://app?vid=22f592ed-7213-4141-b405-b53acc01ff6c","ios":"levelo://app?vid=22f592ed-7213-4141-b405-b53acc01ff6c"},"vehicle_type_id":"4","last_reported":1702292795,"current_range_meters":10000,"station_id":"ce4bgr92rcd13ifvqc6g","pricing_plan_id":"free"},{"bike_id":"6b9d7cd0-b11e-47a2-b2cb-d94eba6f8c81","system_id":"levelo_inurba_marseille","lat":43.309076,"lon":5.368465,"is_reserved":false,"is_disabled":false,"rental_uris":{"android":"levelo://app?vid=6b9d7cd0-b11e-47a2-b2cb-d94eba6f8c81","ios":"levelo://app?vid=6b9d7cd0-b11e-47a2-b2cb-d94eba6f8c81"},"vehicle_type_id":"4","last_reported":1702292795,"current_range_meters":26400,"station_id":"ce4bgn92rcd13ifvqbvg","pricing_plan_id":"free"},{"bike_id":"7d54a54f-1ed4-4054-bd39-74b70c1cf8ab","system_id":"levelo_inurba_marseille","lat":43.309076,"lon":5.368465,"is_reserved":false,"is_disabled":false,"rental_uris":{"android":"levelo://app?vid=7d54a54f-1ed4-4054-bd39-74b70c1cf8ab","ios":"levelo://app?vid=7d54a54f-1ed4-4054-bd39-74b70c1cf8ab"},"vehicle_type_id":"4","last_reported":1702292795,"current_range_meters":16400,"station_id":"ce4bgn92rcd13ifvqbvg","pricing_plan_id":"free"},{"bike_id":"569c08b3-dc9b-4aa6-ae98-ea1387a91f61","system_id":"levelo_inurba_marseille","lat":43.309076,"lon":5.368465,"is_reserved":false,"is_disabled":false,"rental_uris":{"android":"levelo://app?vid=569c08b3-dc9b-4aa6-ae98-ea1387a91f61","ios":"levelo://app?vid=569c08b3-dc9b-4aa6-ae98-ea1387a91f61"},"vehicle_type_id":"4","last_reported":1702292795,"current_range_meters":12400,"station_id":"ce4bgn92rcd13ifvqbvg","pricing_plan_id":"free"},{"bike_id":"5c5d885d-3a80-4972-a0a7-75d6086b9f07","system_id":"levelo_inurba_marseille","lat":43.309076,"lon":5.368465,"is_reserved":false,"is_disabled":false,"rental_uris":{"android":"levelo://app?vid=5c5d885d-3a80-4972-a0a7-75d6086b9f07","ios":"levelo://app?vid=5c5d885d-3a80-4972-a0a7-75d6086b9f07"},"vehicle_type_id":"4","last_reported":1702292795,"current_range_meters":31200,"station_id":"ce4bgn92rcd13ifvqbvg","pricing_plan_id":"free"},{"bike_id":"5631c8f0-2d02-473f-b0c0-85e9c529d1d0","system_id":"levelo_inurba_marseille","lat":43.31384,"lon":5.376368,"is_reserved":false,"is_disabled":false,"rental_uris":{"android":"levelo://app?vid=5631c8f0-2d02-473f-b0c0-85e9c529d1d0","ios":"levelo://app?vid=5631c8f0-2d02-473f-b0c0-85e9c529d1d0"},"vehicle_type_id":"4","last_reported":1702292795,"current_range_meters":9200,"station_id":"","pricing_plan_id":"free"},{"bike_id":"4db13260-b8d3-44cc-8200-438470ed9027","system_id":"levelo_inurba_marseille","lat":43.305712,"lon":5.365641,"is_reserved":false,"is_disabled":false,"rental_uris":{"android":"levelo://app?vid=4db13260-b8d3-44cc-8200-438470ed9027","ios":"levelo://app?vid=4db13260-b8d3-44cc-8200-438470ed9027"},"vehicle_type_id":"4","last_reported":1702292795,"current_range_meters":28400,"station_id":"ce4bgs12rcd13ifvqcag","pricing_plan_id":"free"},{"bike_id":"8f991687-24d5-403c-8b66-db9c07e90445","system_id":"levelo_inurba_marseille","lat":43.305413,"lon":5.36696,"is_reserved":false,"is_disabled":false,"rental_uris":{"android":"levelo://app?vid=8f991687-24d5-403c-8b66-db9c07e90445","ios":"levelo://app?vid=8f991687-24d5-403c-8b66-db9c07e90445"},"vehicle_type_id":"4","last_reported":1702292795,"current_range_meters":0,"station_id":"ce4bgrp2rcd13ifvqc9g","pricing_plan_id":"free"},{"bike_id":"448f2668-db92-4ab0-8e8b-974868a0524d","system_id":"levelo_inurba_marseille","lat":43.305368,"lon":5.367343,"is_reserved":false,"is_disabled":false,"rental_uris":{"android":"levelo://app?vid=448f2668-db92-4ab0-8e8b-974868a0524d","ios":"levelo://app?vid=448f2668-db92-4ab0-8e8b-974868a0524d"},"vehicle_type_id":"4","last_reported":1702292795,"current_range_meters":6800,"station_id":"ce4bgrp2rcd13ifvqc9g","pricing_plan_id":"free"},{"bike_id":"dbf4d6b2-8ea9-4697-aab2-b88d5cce7023","system_id":"levelo_inurba_marseille","lat":43.305714,"lon":5.365633,"is_reserved":false,"is_disabled":false,"rental_uris":{"android":"levelo://app?vid=dbf4d6b2-8ea9-4697-aab2-b88d5cce7023","ios":"levelo://app?vid=dbf4d6b2-8ea9-4697-aab2-b88d5cce7023"},"vehicle_type_id":"4","last_reported":1702292795,"current_range_meters":17600,"station_id":"ce4bgs12rcd13ifvqcag","pricing_plan_id":"free"},{"bike_id":"dbcb3c49-52d9-4aa8-a1ff-649bd3459ae6","system_id":"levelo_inurba_marseille","lat":43.305714,"lon":5.365633,"is_reserved":false,"is_disabled":false,"rental_uris":{"android":"levelo://app?vid=dbcb3c49-52d9-4aa8-a1ff-649bd3459ae6","ios":"levelo://app?vid=dbcb3c49-52d9-4aa8-a1ff-649bd3459ae6"},"vehicle_type_id":"4","last_reported":1702292795,"current_range_meters":20800,"station_id":"ce4bgs12rcd13ifvqcag","pricing_plan_id":"free"},{"bike_id":"fa86253f-b3b4-44f1-8c3d-cc0d2f54cd90","system_id":"levelo_inurba_marseille","lat":43.305706,"lon":5.365654,"is_reserved":false,"is_disabled":false,"rental_uris":{"android":"levelo://app?vid=fa86253f-b3b4-44f1-8c3d-cc0d2f54cd90","ios":"levelo://app?vid=fa86253f-b3b4-44f1-8c3d-cc0d2f54cd90"},"vehicle_type_id":"4","last_reported":1702292795,"current_range_meters":31600,"station_id":"ce4bgs12rcd13ifvqcag","pricing_plan_id":"free"},{"bike_id":"9745a796-a930-4e60-980a-72238f197532","system_id":"levelo_inurba_marseille","lat":43.305714,"lon":5.365633,"is_reserved":false,"is_disabled":false,"rental_uris":{"android":"levelo://app?vid=9745a796-a930-4e60-980a-72238f197532","ios":"levelo://app?vid=9745a796-a930-4e60-980a-72238f197532"},"vehicle_type_id":"4","last_reported":1702292795,"current_range_meters":25200,"station_id":"ce4bgs12rcd13ifvqcag","pricing_plan_id":"free"},{"bike_id":"5d1e08d7-0a65-4e1f-ab18-dc1887fe88e9","system_id":"levelo_inurba_marseille","lat":43.305706,"lon":5.365654,"is_reserved":false,"is_disabled":false,"rental_uris":{"android":"levelo://app?vid=5d1e08d7-0a65-4e1f-ab18-dc1887fe88e9","ios":"levelo://app?vid=5d1e08d7-0a65-4e1f-ab18-dc1887fe88e9"},"vehicle_type_id":"4","last_reported":1702292795,"current_range_meters":27600,"station_id":"ce4bgs12rcd13ifvqcag","pricing_plan_id":"free"},{"bike_id":"027a25f5-db8d-4e00-be80-b260487d0c7c","system_id":"levelo_inurba_marseille","lat":43.305989,"lon":5.37225,"is_reserved":false,"is_disabled":false,"rental_uris":{"android":"levelo://app?vid=027a25f5-db8d-4e00-be80-b260487d0c7c","ios":"levelo://app?vid=027a25f5-db8d-4e00-be80-b260487d0c7c"},"vehicle_type_id":"4","last_reported":1702292795,"current_range_meters":25200,"station_id":"ce4bgqh2rcd13ifvqc4g","pricing_plan_id":"free"},{"bike_id":"1e9c6a8d-b9e2-4176-bb39-f407c964baa9","system_id":"levelo_inurba_marseille","lat":43.305989,"lon":5.37225,"is_reserved":false,"is_disabled":false,"rental_uris":{"android":"levelo://app?vid=1e9c6a8d-b9e2-4176-bb39-f407c964baa9","ios":"levelo://app?vid=1e9c6a8d-b9e2-4176-bb39-f407c964baa9"},"vehicle_type_id":"4","last_reported":1702292795,"current_range_meters":21200,"station_id":"ce4bgqh2rcd13ifvqc4g","pricing_plan_id":"free"},{"bike_id":"a70e5e03-b15a-4465-af1e-1dbf84f55f81","system_id":"levelo_inurba_marseille","lat":43.309038,"lon":5.396546,"is_reserved":false,"is_disabled":false,"rental_uris":{"android":"levelo://app?vid=a70e5e03-b15a-4465-af1e-1dbf84f55f81","ios":"levelo://app?vid=a70e5e03-b15a-4465-af1e-1dbf84f55f81"},"vehicle_type_id":"4","last_reported":1702292795,"current_range_meters":8400,"station_id":"ce4bh012rcd13ifvqcv0","pricing_plan_id":"free"},{"bike_id":"d507dc20-f3f0-485a-b520-e5ecd0effbe5","system_id":"levelo_inurba_marseille","lat":43.319935,"lon":5.381699,"is_reserved":false,"is_disabled":false,"rental_uris":{"android":"levelo://app?vid=d507dc20-f3f0-485a-b520-e5ecd0effbe5","ios":"levelo://app?vid=d507dc20-f3f0-485a-b520-e5ecd0effbe5"},"vehicle_type_id":"4","last_reported":1702292795,"current_range_meters":19200,"station_id":"ce4bhr12rcd13ifvqhpg","pricing_plan_id":"free"},{"bike_id":"2b7f7a37-391a-4eb2-b1a1-ddc45a522eff","system_id":"levelo_inurba_marseille","lat":43.31992,"lon":5.38145,"is_reserved":false,"is_disabled":false,"rental_uris":{"android":"levelo://app?vid=2b7f7a37-391a-4eb2-b1a1-ddc45a522eff","ios":"levelo://app?vid=2b7f7a37-391a-4eb2-b1a1-ddc45a522eff"},"vehicle_type_id":"4","last_reported":1702292795,"current_range_meters":27600,"station_id":"ce4bhr12rcd13ifvqhpg","pricing_plan_id":"free"},{"bike_id":"c03d9904-ff88-41c6-bced-ea0d273dc803","system_id":"levelo_inurba_marseille","lat":43.313571,"lon":5.384829,"is_reserved":false,"is_disabled":false,"rental_uris":{"android":"levelo://app?vid=c03d9904-ff88-41c6-bced-ea0d273dc803","ios":"levelo://app?vid=c03d9904-ff88-41c6-bced-ea0d273dc803"},"vehicle_type_id":"4","last_reported":1702292795,"current_range_meters":15200,"station_id":"ce4bgt92rcd13ifvqcf0","pricing_plan_id":"free"},{"bike_id":"f5dc87db-1627-40f9-8d4d-6dfa629a504a","system_id":"levelo_inurba_marseille","lat":43.31356,"lon":5.38493,"is_reserved":false,"is_disabled":false,"rental_uris":{"android":"levelo://app?vid=f5dc87db-1627-40f9-8d4d-6dfa629a504a","ios":"levelo://app?vid=f5dc87db-1627-40f9-8d4d-6dfa629a504a"},"vehicle_type_id":"4","last_reported":1702292795,"current_range_meters":16800,"station_id":"ce4bgt92rcd13ifvqcf0","pricing_plan_id":"free"},{"bike_id":"3b4fb326-acc7-4766-9ed3-e3685ac41ad8","system_id":"levelo_inurba_marseille","lat":43.303046,"lon":5.368981,"is_reserved":false,"is_disabled":false,"rental_uris":{"android":"levelo://app?vid=3b4fb326-acc7-4766-9ed3-e3685ac41ad8","ios":"levelo://app?vid=3b4fb326-acc7-4766-9ed3-e3685ac41ad8"},"vehicle_type_id":"4","last_reported":1702292795,"current_range_meters":26800,"station_id":"ce4bgqh2rcd13ifvqc5g","pricing_plan_id":"free"},{"bike_id":"3a3cb859-95ee-4795-aba1-353a2168612d","system_id":"levelo_inurba_marseille","lat":43.298433,"lon":5.362774,"is_reserved":false,"is_disabled":false,"rental_uris":{"android":"levelo://app?vid=3a3cb859-95ee-4795-aba1-353a2168612d","ios":"levelo://app?vid=3a3cb859-95ee-4795-aba1-353a2168612d"},"vehicle_type_id":"4","last_reported":1702292795,"current_range_meters":22400,"station_id":"ce4bgpp2rcd13ifvqc3g","pricing_plan_id":"free"},{"bike_id":"8d1a07cb-160b-41e5-9ef6-aa20372c6a91","system_id":"levelo_inurba_marseille","lat":43.298433,"lon":5.362774,"is_reserved":false,"is_disabled":false,"rental_uris":{"android":"levelo://app?vid=8d1a07cb-160b-41e5-9ef6-aa20372c6a91","ios":"levelo://app?vid=8d1a07cb-160b-41e5-9ef6-aa20372c6a91"},"vehicle_type_id":"4","last_reported":1702292795,"current_range_meters":24800,"station_id":"ce4bgpp2rcd13ifvqc3g","pricing_plan_id":"free"},{"bike_id":"45c65e6a-7cc2-4761-911e-57dd47d42185","system_id":"levelo_inurba_marseille","lat":43.299243,"lon":5.374807,"is_reserved":false,"is_disabled":false,"rental_uris":{"android":"levelo://app?vid=45c65e6a-7cc2-4761-911e-57dd47d42185","ios":"levelo://app?vid=45c65e6a-7cc2-4761-911e-57dd47d42185"},"vehicle_type_id":"4","last_reported":1702292795,"current_range_meters":16800,"station_id":"ce4bgjh2rcd13ifvqbg0","pricing_plan_id":"free"},{"bike_id":"744c7b29-e0b3-498a-b0e8-d3004aceb3e5","system_id":"levelo_inurba_marseille","lat":43.29843,"lon":5.36261,"is_reserved":false,"is_disabled":false,"rental_uris":{"android":"levelo://app?vid=744c7b29-e0b3-498a-b0e8-d3004aceb3e5","ios":"levelo://app?vid=744c7b29-e0b3-498a-b0e8-d3004aceb3e5"},"vehicle_type_id":"4","last_reported":1702292795,"current_range_meters":31200,"station_id":"ce4bgpp2rcd13ifvqc3g","pricing_plan_id":"free"},{"bike_id":"855da1e0-b9a0-428b-bd73-d89ad0b8504b","system_id":"levelo_inurba_marseille","lat":43.29839,"lon":5.36265,"is_reserved":false,"is_disabled":false,"rental_uris":{"android":"levelo://app?vid=855da1e0-b9a0-428b-bd73-d89ad0b8504b","ios":"levelo://app?vid=855da1e0-b9a0-428b-bd73-d89ad0b8504b"},"vehicle_type_id":"4","last_reported":1702292795,"current_range_meters":20400,"station_id":"ce4bgpp2rcd13ifvqc3g","pricing_plan_id":"free"},{"bike_id":"e445088b-ea85-4a39-915c-fe076c5e8f64","system_id":"levelo_inurba_marseille","lat":43.328371,"lon":5.366909,"is_reserved":false,"is_disabled":false,"rental_uris":{"android":"levelo://app?vid=e445088b-ea85-4a39-915c-fe076c5e8f64","ios":"levelo://app?vid=e445088b-ea85-4a39-915c-fe076c5e8f64"},"vehicle_type_id":"4","last_reported":1702292795,"current_range_meters":400,"station_id":"ce4bhs92rcd13ifvqi0g","pricing_plan_id":"free"},{"bike_id":"6ac675f1-e0be-498c-ad2f-b742a949d4b0","system_id":"levelo_inurba_marseille","lat":43.298218,"lon":5.374416,"is_reserved":false,"is_disabled":false,"rental_uris":{"android":"levelo://app?vid=6ac675f1-e0be-498c-ad2f-b742a949d4b0","ios":"levelo://app?vid=6ac675f1-e0be-498c-ad2f-b742a949d4b0"},"vehicle_type_id":"4","last_reported":1702292795,"current_range_meters":0,"station_id":"","pricing_plan_id":"free"},{"bike_id":"9b0409c8-952e-43cd-8929-2c98668b8e00","system_id":"levelo_inurba_marseille","lat":43.32827,"lon":5.36669,"is_reserved":false,"is_disabled":false,"rental_uris":{"android":"levelo://app?vid=9b0409c8-952e-43cd-8929-2c98668b8e00","ios":"levelo://app?vid=9b0409c8-952e-43cd-8929-2c98668b8e00"},"vehicle_type_id":"4","last_reported":1702292795,"current_range_meters":14400,"station_id":"ce4bhs92rcd13ifvqi0g","pricing_plan_id":"free"},{"bike_id":"52d8b7ba-7505-413c-b898-efb75f14c13c","system_id":"levelo_inurba_marseille","lat":43.328371,"lon":5.366909,"is_reserved":false,"is_disabled":false,"rental_uris":{"android":"levelo://app?vid=52d8b7ba-7505-413c-b898-efb75f14c13c","ios":"levelo://app?vid=52d8b7ba-7505-413c-b898-efb75f14c13c"},"vehicle_type_id":"4","last_reported":1702292795,"current_range_meters":18000,"station_id":"ce4bhs92rcd13ifvqi0g","pricing_plan_id":"free"},{"bike_id":"a5589e38-f15a-46fe-9b37-27cf16ba9de2","system_id":"levelo_inurba_marseille","lat":43.328348,"lon":5.366695,"is_reserved":false,"is_disabled":false,"rental_uris":{"android":"levelo://app?vid=a5589e38-f15a-46fe-9b37-27cf16ba9de2","ios":"levelo://app?vid=a5589e38-f15a-46fe-9b37-27cf16ba9de2"},"vehicle_type_id":"4","last_reported":1702292795,"current_range_meters":20000,"station_id":"ce4bhs92rcd13ifvqi0g","pricing_plan_id":"free"},{"bike_id":"833c16a5-4c30-4d32-992d-082a1818bcbb","system_id":"levelo_inurba_marseille","lat":43.29573,"lon":5.367355,"is_reserved":false,"is_disabled":false,"rental_uris":{"android":"levelo://app?vid=833c16a5-4c30-4d32-992d-082a1818bcbb","ios":"levelo://app?vid=833c16a5-4c30-4d32-992d-082a1818bcbb"},"vehicle_type_id":"4","last_reported":1702292795,"current_range_meters":24800,"station_id":"ce4bgph2rcd13ifvqc2g","pricing_plan_id":"free"},{"bike_id":"8e03d08a-4d9f-46c0-a34d-05108af124cf","system_id":"levelo_inurba_marseille","lat":43.296921,"lon":5.376579,"is_reserved":false,"is_disabled":false,"rental_uris":{"android":"levelo://app?vid=8e03d08a-4d9f-46c0-a34d-05108af124cf","ios":"levelo://app?vid=8e03d08a-4d9f-46c0-a34d-05108af124cf"},"vehicle_type_id":"4","last_reported":1702292795,"current_range_meters":26000,"station_id":"ce4bgkh2rcd13ifvqbl0","pricing_plan_id":"free"},{"bike_id":"c32cf2c8-a7d6-4781-b9aa-3806c4661d9c","system_id":"levelo_inurba_marseille","lat":43.296935,"lon":5.376544,"is_reserved":false,"is_disabled":false,"rental_uris":{"android":"levelo://app?vid=c32cf2c8-a7d6-4781-b9aa-3806c4661d9c","ios":"levelo://app?vid=c32cf2c8-a7d6-4781-b9aa-3806c4661d9c"},"vehicle_type_id":"4","last_reported":1702292795,"current_range_meters":26000,"station_id":"ce4bgkh2rcd13ifvqbl0","pricing_plan_id":"free"},{"bike_id":"ab3761fd-f97d-489d-9359-fff0da935d61","system_id":"levelo_inurba_marseille","lat":43.296935,"lon":5.376544,"is_reserved":false,"is_disabled":false,"rental_uris":{"android":"levelo://app?vid=ab3761fd-f97d-489d-9359-fff0da935d61","ios":"levelo://app?vid=ab3761fd-f97d-489d-9359-fff0da935d61"},"vehicle_type_id":"4","last_reported":1702292795,"current_range_meters":26400,"station_id":"ce4bgkh2rcd13ifvqbl0","pricing_plan_id":"free"},{"bike_id":"0fbbe5f7-4fdd-402d-8503-a75e3bc446a5","system_id":"levelo_inurba_marseille","lat":43.299028,"lon":5.381509,"is_reserved":false,"is_disabled":false,"rental_uris":{"android":"levelo://app?vid=0fbbe5f7-4fdd-402d-8503-a75e3bc446a5","ios":"levelo://app?vid=0fbbe5f7-4fdd-402d-8503-a75e3bc446a5"},"vehicle_type_id":"4","last_reported":1702292795,"current_range_meters":5200,"station_id":"ce4bgj12rcd13ifvqbc0","pricing_plan_id":"free"},{"bike_id":"4d696036-c563-4147-801d-79cefcf6bbbe","system_id":"levelo_inurba_marseille","lat":43.317557,"lon":5.390173,"is_reserved":false,"is_disabled":false,"rental_uris":{"android":"levelo://app?vid=4d696036-c563-4147-801d-79cefcf6bbbe","ios":"levelo://app?vid=4d696036-c563-4147-801d-79cefcf6bbbe"},"vehicle_type_id":"4","last_reported":1702292795,"current_range_meters":15600,"station_id":"ce4bhqp2rcd13ifvqhng","pricing_plan_id":"free"},{"bike_id":"880ed342-2cb4-4c30-ae18-d73c9b09ba80","system_id":"levelo_inurba_marseille","lat":43.298037,"lon":5.381066,"is_reserved":false,"is_disabled":false,"rental_uris":{"android":"levelo://app?vid=880ed342-2cb4-4c30-ae18-d73c9b09ba80","ios":"levelo://app?vid=880ed342-2cb4-4c30-ae18-d73c9b09ba80"},"vehicle_type_id":"4","last_reported":1702292795,"current_range_meters":0,"station_id":"ce4bgip2rcd13ifvqbb0","pricing_plan_id":"free"},{"bike_id":"b26b32b2-c8cd-44d7-bf58-a7691267ad87","system_id":"levelo_inurba_marseille","lat":43.298037,"lon":5.381066,"is_reserved":false,"is_disabled":false,"rental_uris":{"android":"levelo://app?vid=b26b32b2-c8cd-44d7-bf58-a7691267ad87","ios":"levelo://app?vid=b26b32b2-c8cd-44d7-bf58-a7691267ad87"},"vehicle_type_id":"4","last_reported":1702292795,"current_range_meters":22800,"station_id":"ce4bgip2rcd13ifvqbb0","pricing_plan_id":"free"},{"bike_id":"a75314e7-722b-41cb-85b1-ca696bf024fb","system_id":"levelo_inurba_marseille","lat":43.304274,"lon":5.388873,"is_reserved":false,"is_disabled":false,"rental_uris":{"android":"levelo://app?vid=a75314e7-722b-41cb-85b1-ca696bf024fb","ios":"levelo://app?vid=a75314e7-722b-41cb-85b1-ca696bf024fb"},"vehicle_type_id":"4","last_reported":1702292795,"current_range_meters":4400,"station_id":"ce4bgk12rcd13ifvqbi0","pricing_plan_id":"free"},{"bike_id":"b627c08a-2be5-4f65-ad35-f9336940996e","system_id":"levelo_inurba_marseille","lat":43.304278,"lon":5.388868,"is_reserved":false,"is_disabled":false,"rental_uris":{"android":"levelo://app?vid=b627c08a-2be5-4f65-ad35-f9336940996e","ios":"levelo://app?vid=b627c08a-2be5-4f65-ad35-f9336940996e"},"vehicle_type_id":"4","last_reported":1702292795,"current_range_meters":19600,"station_id":"ce4bgk12rcd13ifvqbi0","pricing_plan_id":"free"},{"bike_id":"8e48775e-6897-4037-9a3e-31a20daa74a0","system_id":"levelo_inurba_marseille","lat":43.296263,"lon":5.377094,"is_reserved":false,"is_disabled":false,"rental_uris":{"android":"levelo://app?vid=8e48775e-6897-4037-9a3e-31a20daa74a0","ios":"levelo://app?vid=8e48775e-6897-4037-9a3e-31a20daa74a0"},"vehicle_type_id":"4","last_reported":1702292795,"current_range_meters":23200,"station_id":"ce4bgi92rcd13ifvqb90","pricing_plan_id":"free"},{"bike_id":"4be0279e-604e-43f1-97a8-adecd641c09a","system_id":"levelo_inurba_marseille","lat":43.299724,"lon":5.384848,"is_reserved":false,"is_disabled":false,"rental_uris":{"android":"levelo://app?vid=4be0279e-604e-43f1-97a8-adecd641c09a","ios":"levelo://app?vid=4be0279e-604e-43f1-97a8-adecd641c09a"},"vehicle_type_id":"4","last_reported":1702292795,"current_range_meters":6800,"station_id":"ce4bgj92rcd13ifvqbd0","pricing_plan_id":"free"},{"bike_id":"77a6c46d-d898-4e4f-8846-efa91689c7f0","system_id":"levelo_inurba_marseille","lat":43.295506,"lon":5.379284,"is_reserved":false,"is_disabled":false,"rental_uris":{"android":"levelo://app?vid=77a6c46d-d898-4e4f-8846-efa91689c7f0","ios":"levelo://app?vid=77a6c46d-d898-4e4f-8846-efa91689c7f0"},"vehicle_type_id":"4","last_reported":1702292795,"current_range_meters":0,"station_id":"","pricing_plan_id":"free"},{"bike_id":"839c236c-7839-4198-b229-e4a43c5e12e9","system_id":"levelo_inurba_marseille","lat":43.29601,"lon":5.381084,"is_reserved":false,"is_disabled":false,"rental_uris":{"android":"levelo://app?vid=839c236c-7839-4198-b229-e4a43c5e12e9","ios":"levelo://app?vid=839c236c-7839-4198-b229-e4a43c5e12e9"},"vehicle_type_id":"4","last_reported":1702292795,"current_range_meters":8800,"station_id":"ce4bgl12rcd13ifvqbo0","pricing_plan_id":"free"},{"bike_id":"9f665d60-7a92-46c4-b866-6737da718d7b","system_id":"levelo_inurba_marseille","lat":43.29599,"lon":5.38095,"is_reserved":false,"is_disabled":false,"rental_uris":{"android":"levelo://app?vid=9f665d60-7a92-46c4-b866-6737da718d7b","ios":"levelo://app?vid=9f665d60-7a92-46c4-b866-6737da718d7b"},"vehicle_type_id":"4","last_reported":1702292795,"current_range_meters":29600,"station_id":"ce4bgl12rcd13ifvqbo0","pricing_plan_id":"free"},{"bike_id":"214898c3-7b09-4c47-8260-5c152888851f","system_id":"levelo_inurba_marseille","lat":43.293249,"lon":5.371578,"is_reserved":false,"is_disabled":false,"rental_uris":{"android":"levelo://app?vid=214898c3-7b09-4c47-8260-5c152888851f","ios":"levelo://app?vid=214898c3-7b09-4c47-8260-5c152888851f"},"vehicle_type_id":"4","last_reported":1702292795,"current_range_meters":10000,"station_id":"ce4bgh92rcd13ifvqb40","pricing_plan_id":"free"},{"bike_id":"a07a72aa-2828-4031-982e-2e599da64b89","system_id":"levelo_inurba_marseille","lat":43.293009,"lon":5.374584,"is_reserved":false,"is_disabled":false,"rental_uris":{"android":"levelo://app?vid=a07a72aa-2828-4031-982e-2e599da64b89","ios":"levelo://app?vid=a07a72aa-2828-4031-982e-2e599da64b89"},"vehicle_type_id":"4","last_reported":1702292795,"current_range_meters":20800,"station_id":"ce4bgi12rcd13ifvqb70","pricing_plan_id":"free"},{"bike_id":"3b552f33-1477-446a-b98b-af44f54c8d3b","system_id":"levelo_inurba_marseille","lat":43.2936,"lon":5.37835,"is_reserved":false,"is_disabled":false,"rental_uris":{"android":"levelo://app?vid=3b552f33-1477-446a-b98b-af44f54c8d3b","ios":"levelo://app?vid=3b552f33-1477-446a-b98b-af44f54c8d3b"},"vehicle_type_id":"4","last_reported":1702292795,"current_range_meters":22800,"station_id":"ce4bgjh2rcd13ifvqbf0","pricing_plan_id":"free"},{"bike_id":"c7e4b11c-f66e-4c79-9bdf-c9135e0a789a","system_id":"levelo_inurba_marseille","lat":43.292663,"lon":5.376394,"is_reserved":false,"is_disabled":false,"rental_uris":{"android":"levelo://app?vid=c7e4b11c-f66e-4c79-9bdf-c9135e0a789a","ios":"levelo://app?vid=c7e4b11c-f66e-4c79-9bdf-c9135e0a789a"},"vehicle_type_id":"4","last_reported":1702292795,"current_range_meters":23600,"station_id":"ce4bgi12rcd13ifvqb80","pricing_plan_id":"free"},{"bike_id":"1a161261-db0b-472d-bbe1-1760442014a5","system_id":"levelo_inurba_marseille","lat":43.313291,"lon":5.396838,"is_reserved":false,"is_disabled":false,"rental_uris":{"android":"levelo://app?vid=1a161261-db0b-472d-bbe1-1760442014a5","ios":"levelo://app?vid=1a161261-db0b-472d-bbe1-1760442014a5"},"vehicle_type_id":"4","last_reported":1702292795,"current_range_meters":19600,"station_id":"ce4bgvp2rcd13ifvqcu0","pricing_plan_id":"free"},{"bike_id":"129dd813-5396-46dd-8481-c1faa65d5343","system_id":"levelo_inurba_marseille","lat":43.313291,"lon":5.396838,"is_reserved":false,"is_disabled":false,"rental_uris":{"android":"levelo://app?vid=129dd813-5396-46dd-8481-c1faa65d5343","ios":"levelo://app?vid=129dd813-5396-46dd-8481-c1faa65d5343"},"vehicle_type_id":"4","last_reported":1702292795,"current_range_meters":12000,"station_id":"ce4bgvp2rcd13ifvqcu0","pricing_plan_id":"free"},{"bike_id":"b5d8f28a-4787-4252-94e7-b1002453cc1d","system_id":"levelo_inurba_marseille","lat":43.302008,"lon":5.394694,"is_reserved":false,"is_disabled":false,"rental_uris":{"android":"levelo://app?vid=b5d8f28a-4787-4252-94e7-b1002453cc1d","ios":"levelo://app?vid=b5d8f28a-4787-4252-94e7-b1002453cc1d"},"vehicle_type_id":"4","last_reported":1702292795,"current_range_meters":14400,"station_id":"ce4bh0p2rcd13ifvqd70","pricing_plan_id":"free"},{"bike_id":"1301be43-cefa-4f13-ad20-5fa8f15bf9a8","system_id":"levelo_inurba_marseille","lat":43.290161,"lon":5.375651,"is_reserved":false,"is_disabled":false,"rental_uris":{"android":"levelo://app?vid=1301be43-cefa-4f13-ad20-5fa8f15bf9a8","ios":"levelo://app?vid=1301be43-cefa-4f13-ad20-5fa8f15bf9a8"},"vehicle_type_id":"4","last_reported":1702292795,"current_range_meters":6000,"station_id":"","pricing_plan_id":"free"},{"bike_id":"a02a1b20-1fb1-4951-988a-77389649024d","system_id":"levelo_inurba_marseille","lat":43.289259,"lon":5.366364,"is_reserved":false,"is_disabled":false,"rental_uris":{"android":"levelo://app?vid=a02a1b20-1fb1-4951-988a-77389649024d","ios":"levelo://app?vid=a02a1b20-1fb1-4951-988a-77389649024d"},"vehicle_type_id":"4","last_reported":1702292795,"current_range_meters":4800,"station_id":"","pricing_plan_id":"free"},{"bike_id":"17d8c0d2-e4b7-4a0a-bca0-f092022b5243","system_id":"levelo_inurba_marseille","lat":43.292644,"lon":5.384257,"is_reserved":false,"is_disabled":false,"rental_uris":{"android":"levelo://app?vid=17d8c0d2-e4b7-4a0a-bca0-f092022b5243","ios":"levelo://app?vid=17d8c0d2-e4b7-4a0a-bca0-f092022b5243"},"vehicle_type_id":"4","last_reported":1702292795,"current_range_meters":22000,"station_id":"ce4bh692rcd13ifvqea0","pricing_plan_id":"free"},{"bike_id":"0173f7ec-a89a-4756-8a9f-24a74aa9ab3b","system_id":"levelo_inurba_marseille","lat":43.290995,"lon":5.381361,"is_reserved":false,"is_disabled":false,"rental_uris":{"android":"levelo://app?vid=0173f7ec-a89a-4756-8a9f-24a74aa9ab3b","ios":"levelo://app?vid=0173f7ec-a89a-4756-8a9f-24a74aa9ab3b"},"vehicle_type_id":"4","last_reported":1702292795,"current_range_meters":28000,"station_id":"ce4bh512rcd13ifvqe2g","pricing_plan_id":"free"},{"bike_id":"18a50aa9-7620-4925-8522-860ad31e8df8","system_id":"levelo_inurba_marseille","lat":43.29519,"lon":5.39032,"is_reserved":false,"is_disabled":false,"rental_uris":{"android":"levelo://app?vid=18a50aa9-7620-4925-8522-860ad31e8df8","ios":"levelo://app?vid=18a50aa9-7620-4925-8522-860ad31e8df8"},"vehicle_type_id":"4","last_reported":1702292795,"current_range_meters":0,"station_id":"ce4bh3p2rcd13ifvqdp0","pricing_plan_id":"free"},{"bike_id":"4a24d11c-6a4f-4e1c-a52f-cc44e9b2f459","system_id":"levelo_inurba_marseille","lat":43.295169,"lon":5.390426,"is_reserved":false,"is_disabled":false,"rental_uris":{"android":"levelo://app?vid=4a24d11c-6a4f-4e1c-a52f-cc44e9b2f459","ios":"levelo://app?vid=4a24d11c-6a4f-4e1c-a52f-cc44e9b2f459"},"vehicle_type_id":"4","last_reported":1702292795,"current_range_meters":23600,"station_id":"ce4bh3p2rcd13ifvqdp0","pricing_plan_id":"free"},{"bike_id":"6568f984-7c2d-4bcc-8db7-69ff95afd0eb","system_id":"levelo_inurba_marseille","lat":43.29022,"lon":5.38132,"is_reserved":false,"is_disabled":false,"rental_uris":{"android":"levelo://app?vid=6568f984-7c2d-4bcc-8db7-69ff95afd0eb","ios":"levelo://app?vid=6568f984-7c2d-4bcc-8db7-69ff95afd0eb"},"vehicle_type_id":"4","last_reported":1702292795,"current_range_meters":0,"station_id":"ce4bh4p2rcd13ifvqe1g","pricing_plan_id":"free"},{"bike_id":"b720fe71-fe93-49eb-8aad-1ade1647272e","system_id":"levelo_inurba_marseille","lat":43.28814,"lon":5.37264,"is_reserved":false,"is_disabled":false,"rental_uris":{"android":"levelo://app?vid=b720fe71-fe93-49eb-8aad-1ade1647272e","ios":"levelo://app?vid=b720fe71-fe93-49eb-8aad-1ade1647272e"},"vehicle_type_id":"4","last_reported":1702292795,"current_range_meters":14800,"station_id":"","pricing_plan_id":"free"},{"bike_id":"63abfeb0-a716-43d7-9f2a-4f6c385d9395","system_id":"levelo_inurba_marseille","lat":43.301117,"lon":5.398795,"is_reserved":false,"is_disabled":false,"rental_uris":{"android":"levelo://app?vid=63abfeb0-a716-43d7-9f2a-4f6c385d9395","ios":"levelo://app?vid=63abfeb0-a716-43d7-9f2a-4f6c385d9395"},"vehicle_type_id":"4","last_reported":1702292795,"current_range_meters":7600,"station_id":"ce4bh0h2rcd13ifvqd40","pricing_plan_id":"free"},{"bike_id":"105bbdb2-5a6f-493b-9afa-e0f7aa39c295","system_id":"levelo_inurba_marseille","lat":43.301117,"lon":5.398795,"is_reserved":false,"is_disabled":false,"rental_uris":{"android":"levelo://app?vid=105bbdb2-5a6f-493b-9afa-e0f7aa39c295","ios":"levelo://app?vid=105bbdb2-5a6f-493b-9afa-e0f7aa39c295"},"vehicle_type_id":"4","last_reported":1702292795,"current_range_meters":30400,"station_id":"ce4bh0h2rcd13ifvqd40","pricing_plan_id":"free"},{"bike_id":"694b444c-3f86-45d9-8979-98dbc7918844","system_id":"levelo_inurba_marseille","lat":43.286593,"lon":5.363346,"is_reserved":false,"is_disabled":false,"rental_uris":{"android":"levelo://app?vid=694b444c-3f86-45d9-8979-98dbc7918844","ios":"levelo://app?vid=694b444c-3f86-45d9-8979-98dbc7918844"},"vehicle_type_id":"4","last_reported":1702292795,"current_range_meters":28800,"station_id":"ce4bhah2rcd13ifvqej0","pricing_plan_id":"free"},{"bike_id":"88b769d4-0a18-41af-8de4-1313c3cc568d","system_id":"levelo_inurba_marseille","lat":43.286961,"lon":5.373785,"is_reserved":false,"is_disabled":false,"rental_uris":{"android":"levelo://app?vid=88b769d4-0a18-41af-8de4-1313c3cc568d","ios":"levelo://app?vid=88b769d4-0a18-41af-8de4-1313c3cc568d"},"vehicle_type_id":"4","last_reported":1702292795,"current_range_meters":30400,"station_id":"ce4bh3p2rcd13ifvqdq0","pricing_plan_id":"free"},{"bike_id":"d74ad75e-e7f5-4982-a214-c5c6de111cbf","system_id":"levelo_inurba_marseille","lat":43.295196,"lon":5.39397,"is_reserved":false,"is_disabled":false,"rental_uris":{"android":"levelo://app?vid=d74ad75e-e7f5-4982-a214-c5c6de111cbf","ios":"levelo://app?vid=d74ad75e-e7f5-4982-a214-c5c6de111cbf"},"vehicle_type_id":"4","last_reported":1702292795,"current_range_meters":11200,"station_id":"ce4bh292rcd13ifvqdf0","pricing_plan_id":"free"},{"bike_id":"75cbde5e-abe0-4223-92b2-e72d0c75dd91","system_id":"levelo_inurba_marseille","lat":43.295194,"lon":5.39397,"is_reserved":false,"is_disabled":false,"rental_uris":{"android":"levelo://app?vid=75cbde5e-abe0-4223-92b2-e72d0c75dd91","ios":"levelo://app?vid=75cbde5e-abe0-4223-92b2-e72d0c75dd91"},"vehicle_type_id":"4","last_reported":1702292795,"current_range_meters":10800,"station_id":"ce4bh292rcd13ifvqdf0","pricing_plan_id":"free"},{"bike_id":"120903fb-a34f-47b4-9e65-530be0c90306","system_id":"levelo_inurba_marseille","lat":43.29193,"lon":5.39331,"is_reserved":false,"is_disabled":false,"rental_uris":{"android":"levelo://app?vid=120903fb-a34f-47b4-9e65-530be0c90306","ios":"levelo://app?vid=120903fb-a34f-47b4-9e65-530be0c90306"},"vehicle_type_id":"4","last_reported":1702292795,"current_range_meters":16800,"station_id":"ce4bh192rcd13ifvqdd0","pricing_plan_id":"free"},{"bike_id":"1914d242-ea88-483f-b52c-cd64af8790ed","system_id":"levelo_inurba_marseille","lat":43.284538,"lon":5.358657,"is_reserved":false,"is_disabled":false,"rental_uris":{"android":"levelo://app?vid=1914d242-ea88-483f-b52c-cd64af8790ed","ios":"levelo://app?vid=1914d242-ea88-483f-b52c-cd64af8790ed"},"vehicle_type_id":"4","last_reported":1702292795,"current_range_meters":26000,"station_id":"ce4bhah2rcd13ifvqei0","pricing_plan_id":"free"},{"bike_id":"cafaf996-a16b-4be3-99d6-6acff99c86a0","system_id":"levelo_inurba_marseille","lat":43.319179,"lon":5.407725,"is_reserved":false,"is_disabled":false,"rental_uris":{"android":"levelo://app?vid=cafaf996-a16b-4be3-99d6-6acff99c86a0","ios":"levelo://app?vid=cafaf996-a16b-4be3-99d6-6acff99c86a0"},"vehicle_type_id":"4","last_reported":1702292795,"current_range_meters":0,"station_id":"ce4bhq12rcd13ifvqhig","pricing_plan_id":"free"},{"bike_id":"e75b927e-f780-40af-b788-2e93d6217478","system_id":"levelo_inurba_marseille","lat":43.284787,"lon":5.384116,"is_reserved":false,"is_disabled":false,"rental_uris":{"android":"levelo://app?vid=e75b927e-f780-40af-b788-2e93d6217478","ios":"levelo://app?vid=e75b927e-f780-40af-b788-2e93d6217478"},"vehicle_type_id":"4","last_reported":1702292795,"current_range_meters":26000,"station_id":"ce4bh512rcd13ifvqe3g","pricing_plan_id":"free"},{"bike_id":"372ec93b-5cb9-4bfb-a8e9-35da4926a686","system_id":"levelo_inurba_marseille","lat":43.297946,"lon":5.404063,"is_reserved":false,"is_disabled":false,"rental_uris":{"android":"levelo://app?vid=372ec93b-5cb9-4bfb-a8e9-35da4926a686","ios":"levelo://app?vid=372ec93b-5cb9-4bfb-a8e9-35da4926a686"},"vehicle_type_id":"4","last_reported":1702292795,"current_range_meters":13200,"station_id":"ce4bh112rcd13ifvqd90","pricing_plan_id":"free"},{"bike_id":"c43cafe4-b47a-46c6-bdaf-fdb70b755aa1","system_id":"levelo_inurba_marseille","lat":43.28852,"lon":5.39333,"is_reserved":false,"is_disabled":false,"rental_uris":{"android":"levelo://app?vid=c43cafe4-b47a-46c6-bdaf-fdb70b755aa1","ios":"levelo://app?vid=c43cafe4-b47a-46c6-bdaf-fdb70b755aa1"},"vehicle_type_id":"4","last_reported":1702292795,"current_range_meters":26400,"station_id":"ce4bh2p2rcd13ifvqdi0","pricing_plan_id":"free"},{"bike_id":"fff859c8-2d40-43b9-97ee-5dabfdf8099a","system_id":"levelo_inurba_marseille","lat":43.281044,"lon":5.378308,"is_reserved":false,"is_disabled":false,"rental_uris":{"android":"levelo://app?vid=fff859c8-2d40-43b9-97ee-5dabfdf8099a","ios":"levelo://app?vid=fff859c8-2d40-43b9-97ee-5dabfdf8099a"},"vehicle_type_id":"4","last_reported":1702292795,"current_range_meters":6800,"station_id":"ce4bha12rcd13ifvqee0","pricing_plan_id":"free"},{"bike_id":"6b295224-c536-41c1-bc34-4f70a3ade482","system_id":"levelo_inurba_marseille","lat":43.281044,"lon":5.378308,"is_reserved":false,"is_disabled":false,"rental_uris":{"android":"levelo://app?vid=6b295224-c536-41c1-bc34-4f70a3ade482","ios":"levelo://app?vid=6b295224-c536-41c1-bc34-4f70a3ade482"},"vehicle_type_id":"4","last_reported":1702292795,"current_range_meters":6400,"station_id":"ce4bha12rcd13ifvqee0","pricing_plan_id":"free"},{"bike_id":"781ed005-ba8c-48c6-98d2-4293c11a7145","system_id":"levelo_inurba_marseille","lat":43.296263,"lon":5.40601,"is_reserved":false,"is_disabled":false,"rental_uris":{"android":"levelo://app?vid=781ed005-ba8c-48c6-98d2-4293c11a7145","ios":"levelo://app?vid=781ed005-ba8c-48c6-98d2-4293c11a7145"},"vehicle_type_id":"4","last_reported":1702292795,"current_range_meters":24000,"station_id":"ce4bh0h2rcd13ifvqd60","pricing_plan_id":"free"},{"bike_id":"3f6852e7-0892-4646-a55b-36902e5df3e3","system_id":"levelo_inurba_marseille","lat":43.284462,"lon":5.392121,"is_reserved":false,"is_disabled":false,"rental_uris":{"android":"levelo://app?vid=3f6852e7-0892-4646-a55b-36902e5df3e3","ios":"levelo://app?vid=3f6852e7-0892-4646-a55b-36902e5df3e3"},"vehicle_type_id":"4","last_reported":1702292795,"current_range_meters":30000,"station_id":"ce4bhoh2rcd13ifvqh5g","pricing_plan_id":"free"},{"bike_id":"7a892f6d-96e4-4f5e-bc87-7e050d77ab47","system_id":"levelo_inurba_marseille","lat":43.28573,"lon":5.394992,"is_reserved":false,"is_disabled":false,"rental_uris":{"android":"levelo://app?vid=7a892f6d-96e4-4f5e-bc87-7e050d77ab47","ios":"levelo://app?vid=7a892f6d-96e4-4f5e-bc87-7e050d77ab47"},"vehicle_type_id":"4","last_reported":1702292795,"current_range_meters":2800,"station_id":"ce4bh292rcd13ifvqdg0","pricing_plan_id":"free"},{"bike_id":"2ea78c36-de2a-47af-8df7-7dd3f467c02b","system_id":"levelo_inurba_marseille","lat":43.320045,"lon":5.415046,"is_reserved":false,"is_disabled":false,"rental_uris":{"android":"levelo://app?vid=2ea78c36-de2a-47af-8df7-7dd3f467c02b","ios":"levelo://app?vid=2ea78c36-de2a-47af-8df7-7dd3f467c02b"},"vehicle_type_id":"4","last_reported":1702292795,"current_range_meters":8400,"station_id":"ce4bhq92rcd13ifvqhkg","pricing_plan_id":"free"},{"bike_id":"83046fc6-7622-4ded-b898-f05077013c5a","system_id":"levelo_inurba_marseille","lat":43.320045,"lon":5.415046,"is_reserved":false,"is_disabled":false,"rental_uris":{"android":"levelo://app?vid=83046fc6-7622-4ded-b898-f05077013c5a","ios":"levelo://app?vid=83046fc6-7622-4ded-b898-f05077013c5a"},"vehicle_type_id":"4","last_reported":1702292795,"current_range_meters":26400,"station_id":"ce4bhq92rcd13ifvqhkg","pricing_plan_id":"free"},{"bike_id":"c3c9af5b-4671-4064-8067-d2cdd8271060","system_id":"levelo_inurba_marseille","lat":43.27621,"lon":5.36099,"is_reserved":false,"is_disabled":false,"rental_uris":{"android":"levelo://app?vid=c3c9af5b-4671-4064-8067-d2cdd8271060","ios":"levelo://app?vid=c3c9af5b-4671-4064-8067-d2cdd8271060"},"vehicle_type_id":"4","last_reported":1702292795,"current_range_meters":26800,"station_id":"","pricing_plan_id":"free"},{"bike_id":"20f997ed-6738-4b4b-92c8-af1d150e8337","system_id":"levelo_inurba_marseille","lat":43.303837,"lon":5.418724,"is_reserved":false,"is_disabled":false,"rental_uris":{"android":"levelo://app?vid=20f997ed-6738-4b4b-92c8-af1d150e8337","ios":"levelo://app?vid=20f997ed-6738-4b4b-92c8-af1d150e8337"},"vehicle_type_id":"4","last_reported":1702292795,"current_range_meters":31200,"station_id":"ce4bhop2rcd13ifvqh7g","pricing_plan_id":"free"},{"bike_id":"3c02ac1d-513a-4816-9b08-9c1b4099cd9a","system_id":"levelo_inurba_marseille","lat":43.303837,"lon":5.418724,"is_reserved":false,"is_disabled":false,"rental_uris":{"android":"levelo://app?vid=3c02ac1d-513a-4816-9b08-9c1b4099cd9a","ios":"levelo://app?vid=3c02ac1d-513a-4816-9b08-9c1b4099cd9a"},"vehicle_type_id":"4","last_reported":1702292795,"current_range_meters":31600,"station_id":"ce4bhop2rcd13ifvqh7g","pricing_plan_id":"free"},{"bike_id":"b0cc7a84-2039-42ee-86ae-9b38d5a56a70","system_id":"levelo_inurba_marseille","lat":43.303837,"lon":5.418724,"is_reserved":false,"is_disabled":false,"rental_uris":{"android":"levelo://app?vid=b0cc7a84-2039-42ee-86ae-9b38d5a56a70","ios":"levelo://app?vid=b0cc7a84-2039-42ee-86ae-9b38d5a56a70"},"vehicle_type_id":"4","last_reported":1702292795,"current_range_meters":11600,"station_id":"ce4bhop2rcd13ifvqh7g","pricing_plan_id":"free"},{"bike_id":"baf6acd6-9a31-467e-9f05-0af554abea82","system_id":"levelo_inurba_marseille","lat":43.303837,"lon":5.418724,"is_reserved":false,"is_disabled":false,"rental_uris":{"android":"levelo://app?vid=baf6acd6-9a31-467e-9f05-0af554abea82","ios":"levelo://app?vid=baf6acd6-9a31-467e-9f05-0af554abea82"},"vehicle_type_id":"4","last_reported":1702292795,"current_range_meters":21200,"station_id":"ce4bhop2rcd13ifvqh7g","pricing_plan_id":"free"},{"bike_id":"1500bf86-9326-4d9d-85b1-9226e9f542d0","system_id":"levelo_inurba_marseille","lat":43.273609,"lon":5.362708,"is_reserved":false,"is_disabled":false,"rental_uris":{"android":"levelo://app?vid=1500bf86-9326-4d9d-85b1-9226e9f542d0","ios":"levelo://app?vid=1500bf86-9326-4d9d-85b1-9226e9f542d0"},"vehicle_type_id":"4","last_reported":1702292795,"current_range_meters":16000,"station_id":"ce4bhbh2rcd13ifvqeo0","pricing_plan_id":"free"},{"bike_id":"f37cef48-ab19-4e94-9013-b47c90546d34","system_id":"levelo_inurba_marseille","lat":43.279952,"lon":5.400085,"is_reserved":false,"is_disabled":false,"rental_uris":{"android":"levelo://app?vid=f37cef48-ab19-4e94-9013-b47c90546d34","ios":"levelo://app?vid=f37cef48-ab19-4e94-9013-b47c90546d34"},"vehicle_type_id":"4","last_reported":1702292795,"current_range_meters":29200,"station_id":"ce4bho92rcd13ifvqh4g","pricing_plan_id":"free"},{"bike_id":"b49195d1-5252-4b63-9ddd-c39017071e00","system_id":"levelo_inurba_marseille","lat":43.27639,"lon":5.39485,"is_reserved":false,"is_disabled":false,"rental_uris":{"android":"levelo://app?vid=b49195d1-5252-4b63-9ddd-c39017071e00","ios":"levelo://app?vid=b49195d1-5252-4b63-9ddd-c39017071e00"},"vehicle_type_id":"4","last_reported":1702292795,"current_range_meters":13600,"station_id":"","pricing_plan_id":"free"},{"bike_id":"ad235382-e941-4cb1-91eb-24c4c771637d","system_id":"levelo_inurba_marseille","lat":43.310785,"lon":5.424305,"is_reserved":false,"is_disabled":false,"rental_uris":{"android":"levelo://app?vid=ad235382-e941-4cb1-91eb-24c4c771637d","ios":"levelo://app?vid=ad235382-e941-4cb1-91eb-24c4c771637d"},"vehicle_type_id":"4","last_reported":1702292795,"current_range_meters":27600,"station_id":"ce4bhp92rcd13ifvqhag","pricing_plan_id":"free"},{"bike_id":"91342207-93b5-4854-8160-d128f56d1c12","system_id":"levelo_inurba_marseille","lat":43.310785,"lon":5.424305,"is_reserved":false,"is_disabled":false,"rental_uris":{"android":"levelo://app?vid=91342207-93b5-4854-8160-d128f56d1c12","ios":"levelo://app?vid=91342207-93b5-4854-8160-d128f56d1c12"},"vehicle_type_id":"4","last_reported":1702292795,"current_range_meters":30000,"station_id":"ce4bhp92rcd13ifvqhag","pricing_plan_id":"free"},{"bike_id":"ebe88bc4-4dfe-4631-b98a-840334e7fcdb","system_id":"levelo_inurba_marseille","lat":43.31723,"lon":5.42405,"is_reserved":false,"is_disabled":false,"rental_uris":{"android":"levelo://app?vid=ebe88bc4-4dfe-4631-b98a-840334e7fcdb","ios":"levelo://app?vid=ebe88bc4-4dfe-4631-b98a-840334e7fcdb"},"vehicle_type_id":"4","last_reported":1702292795,"current_range_meters":10000,"station_id":"ce4bhp92rcd13ifvqhbg","pricing_plan_id":"free"},{"bike_id":"2aaa2228-397b-4795-ae59-091fa73e41a6","system_id":"levelo_inurba_marseille","lat":43.340804,"lon":5.410219,"is_reserved":false,"is_disabled":false,"rental_uris":{"android":"levelo://app?vid=2aaa2228-397b-4795-ae59-091fa73e41a6","ios":"levelo://app?vid=2aaa2228-397b-4795-ae59-091fa73e41a6"},"vehicle_type_id":"4","last_reported":1702292795,"current_range_meters":26000,"station_id":"ce4bhqh2rcd13ifvqhlg","pricing_plan_id":"free"},{"bike_id":"63b8ae6a-5760-4cec-8c20-ed81dd721aaa","system_id":"levelo_inurba_marseille","lat":43.273125,"lon":5.390731,"is_reserved":false,"is_disabled":false,"rental_uris":{"android":"levelo://app?vid=63b8ae6a-5760-4cec-8c20-ed81dd721aaa","ios":"levelo://app?vid=63b8ae6a-5760-4cec-8c20-ed81dd721aaa"},"vehicle_type_id":"4","last_reported":1702292795,"current_range_meters":14800,"station_id":"ce4bhgp2rcd13ifvqfe0","pricing_plan_id":"free"},{"bike_id":"47c25ca4-7986-4c81-b15c-e6532d19a717","system_id":"levelo_inurba_marseille","lat":43.274103,"lon":5.394016,"is_reserved":false,"is_disabled":false,"rental_uris":{"android":"levelo://app?vid=47c25ca4-7986-4c81-b15c-e6532d19a717","ios":"levelo://app?vid=47c25ca4-7986-4c81-b15c-e6532d19a717"},"vehicle_type_id":"4","last_reported":1702292795,"current_range_meters":28400,"station_id":"ce4bhdp2rcd13ifvqf20","pricing_plan_id":"free"},{"bike_id":"1fc6b9ca-860e-40cf-8369-5e3eaa72f1cb","system_id":"levelo_inurba_marseille","lat":43.274099,"lon":5.394019,"is_reserved":false,"is_disabled":false,"rental_uris":{"android":"levelo://app?vid=1fc6b9ca-860e-40cf-8369-5e3eaa72f1cb","ios":"levelo://app?vid=1fc6b9ca-860e-40cf-8369-5e3eaa72f1cb"},"vehicle_type_id":"4","last_reported":1702292795,"current_range_meters":2400,"station_id":"ce4bhdp2rcd13ifvqf20","pricing_plan_id":"free"},{"bike_id":"dd292555-ff77-4fd3-9720-e2aae6c3bb86","system_id":"levelo_inurba_marseille","lat":43.27204,"lon":5.3918,"is_reserved":false,"is_disabled":false,"rental_uris":{"android":"levelo://app?vid=dd292555-ff77-4fd3-9720-e2aae6c3bb86","ios":"levelo://app?vid=dd292555-ff77-4fd3-9720-e2aae6c3bb86"},"vehicle_type_id":"4","last_reported":1702292795,"current_range_meters":3200,"station_id":"ce4bhhp2rcd13ifvqfm0","pricing_plan_id":"free"},{"bike_id":"7c8f0013-9816-4cf4-ba83-47d0c95cb437","system_id":"levelo_inurba_marseille","lat":43.27204,"lon":5.39182,"is_reserved":false,"is_disabled":false,"rental_uris":{"android":"levelo://app?vid=7c8f0013-9816-4cf4-ba83-47d0c95cb437","ios":"levelo://app?vid=7c8f0013-9816-4cf4-ba83-47d0c95cb437"},"vehicle_type_id":"4","last_reported":1702292795,"current_range_meters":23200,"station_id":"ce4bhhp2rcd13ifvqfm0","pricing_plan_id":"free"},{"bike_id":"474b8cec-a86e-4cd9-8073-90a653baa0bb","system_id":"levelo_inurba_marseille","lat":43.278128,"lon":5.407195,"is_reserved":false,"is_disabled":false,"rental_uris":{"android":"levelo://app?vid=474b8cec-a86e-4cd9-8073-90a653baa0bb","ios":"levelo://app?vid=474b8cec-a86e-4cd9-8073-90a653baa0bb"},"vehicle_type_id":"4","last_reported":1702292795,"current_range_meters":27200,"station_id":"ce4bhnh2rcd13ifvqgtg","pricing_plan_id":"free"},{"bike_id":"8952a070-c814-4c51-8528-2cc93f16c2ec","system_id":"levelo_inurba_marseille","lat":43.269467,"lon":5.386439,"is_reserved":false,"is_disabled":false,"rental_uris":{"android":"levelo://app?vid=8952a070-c814-4c51-8528-2cc93f16c2ec","ios":"levelo://app?vid=8952a070-c814-4c51-8528-2cc93f16c2ec"},"vehicle_type_id":"4","last_reported":1702292795,"current_range_meters":24800,"station_id":"ce4bhh92rcd13ifvqfh0","pricing_plan_id":"free"},{"bike_id":"4acd31cd-0aa7-42b1-9a99-03662c6bd7db","system_id":"levelo_inurba_marseille","lat":43.279465,"lon":5.410561,"is_reserved":false,"is_disabled":false,"rental_uris":{"android":"levelo://app?vid=4acd31cd-0aa7-42b1-9a99-03662c6bd7db","ios":"levelo://app?vid=4acd31cd-0aa7-42b1-9a99-03662c6bd7db"},"vehicle_type_id":"4","last_reported":1702292795,"current_range_meters":5600,"station_id":"ce4bhnp2rcd13ifvqh0g","pricing_plan_id":"free"},{"bike_id":"eaf5936c-ab18-4a7a-9d1f-0736eb9cbe78","system_id":"levelo_inurba_marseille","lat":43.26681,"lon":5.382694,"is_reserved":false,"is_disabled":false,"rental_uris":{"android":"levelo://app?vid=eaf5936c-ab18-4a7a-9d1f-0736eb9cbe78","ios":"levelo://app?vid=eaf5936c-ab18-4a7a-9d1f-0736eb9cbe78"},"vehicle_type_id":"4","last_reported":1702292795,"current_range_meters":25600,"station_id":"ce4bhg92rcd13ifvqf90","pricing_plan_id":"free"},{"bike_id":"c639dfa5-99a2-4ae5-bf54-1b1c96687262","system_id":"levelo_inurba_marseille","lat":43.32544,"lon":5.429537,"is_reserved":false,"is_disabled":false,"rental_uris":{"android":"levelo://app?vid=c639dfa5-99a2-4ae5-bf54-1b1c96687262","ios":"levelo://app?vid=c639dfa5-99a2-4ae5-bf54-1b1c96687262"},"vehicle_type_id":"4","last_reported":1702292795,"current_range_meters":2400,"station_id":"","pricing_plan_id":"free"},{"bike_id":"91abda3c-c817-4e27-afad-9042cda3d690","system_id":"levelo_inurba_marseille","lat":43.27996,"lon":5.416624,"is_reserved":false,"is_disabled":false,"rental_uris":{"android":"levelo://app?vid=91abda3c-c817-4e27-afad-9042cda3d690","ios":"levelo://app?vid=91abda3c-c817-4e27-afad-9042cda3d690"},"vehicle_type_id":"4","last_reported":1702292795,"current_range_meters":12000,"station_id":"ce4bho12rcd13ifvqh1g","pricing_plan_id":"free"},{"bike_id":"6c9a7769-40d4-42dc-9b48-47769de74c91","system_id":"levelo_inurba_marseille","lat":43.2633,"lon":5.37675,"is_reserved":false,"is_disabled":false,"rental_uris":{"android":"levelo://app?vid=6c9a7769-40d4-42dc-9b48-47769de74c91","ios":"levelo://app?vid=6c9a7769-40d4-42dc-9b48-47769de74c91"},"vehicle_type_id":"4","last_reported":1702292795,"current_range_meters":13600,"station_id":"","pricing_plan_id":"free"},{"bike_id":"5daa2b9f-86d2-475d-8b92-d91842bd9bd9","system_id":"levelo_inurba_marseille","lat":43.265569,"lon":5.390047,"is_reserved":false,"is_disabled":false,"rental_uris":{"android":"levelo://app?vid=5daa2b9f-86d2-475d-8b92-d91842bd9bd9","ios":"levelo://app?vid=5daa2b9f-86d2-475d-8b92-d91842bd9bd9"},"vehicle_type_id":"4","last_reported":1702292795,"current_range_meters":800,"station_id":"ce4bhe12rcd13ifvqf30","pricing_plan_id":"free"},{"bike_id":"4772c68d-96aa-4182-b657-19bf1d0de341","system_id":"levelo_inurba_marseille","lat":43.284462,"lon":5.392121,"is_reserved":false,"is_disabled":false,"rental_uris":{"android":"levelo://app?vid=4772c68d-96aa-4182-b657-19bf1d0de341","ios":"levelo://app?vid=4772c68d-96aa-4182-b657-19bf1d0de341"},"vehicle_type_id":"4","last_reported":1702292795,"current_range_meters":18400,"station_id":"ce4bhoh2rcd13ifvqh5g","pricing_plan_id":"free"},{"bike_id":"dcb90651-ba2b-4155-91bc-94e8dc104dad","system_id":"levelo_inurba_marseille","lat":43.26949,"lon":5.40262,"is_reserved":false,"is_disabled":false,"rental_uris":{"android":"levelo://app?vid=dcb90651-ba2b-4155-91bc-94e8dc104dad","ios":"levelo://app?vid=dcb90651-ba2b-4155-91bc-94e8dc104dad"},"vehicle_type_id":"4","last_reported":1702292795,"current_range_meters":400,"station_id":"cjm6bp8fraef2m0cb0m0","pricing_plan_id":"free"},{"bike_id":"287e9254-f263-4a4d-afd9-500f2b256a68","system_id":"levelo_inurba_marseille","lat":43.261782,"lon":5.374515,"is_reserved":false,"is_disabled":false,"rental_uris":{"android":"levelo://app?vid=287e9254-f263-4a4d-afd9-500f2b256a68","ios":"levelo://app?vid=287e9254-f263-4a4d-afd9-500f2b256a68"},"vehicle_type_id":"4","last_reported":1702292795,"current_range_meters":24000,"station_id":"ce4bhgp2rcd13ifvqfc0","pricing_plan_id":"free"},{"bike_id":"7ef0e874-4d14-4db6-97d3-23537a85b219","system_id":"levelo_inurba_marseille","lat":43.298768,"lon":5.43643,"is_reserved":false,"is_disabled":false,"rental_uris":{"android":"levelo://app?vid=7ef0e874-4d14-4db6-97d3-23537a85b219","ios":"levelo://app?vid=7ef0e874-4d14-4db6-97d3-23537a85b219"},"vehicle_type_id":"4","last_reported":1702292795,"current_range_meters":20400,"station_id":"ce4bhpp2rcd13ifvqhfg","pricing_plan_id":"free"},{"bike_id":"326187b7-c618-447b-a1f4-93941f43eae5","system_id":"levelo_inurba_marseille","lat":43.26681,"lon":5.382694,"is_reserved":false,"is_disabled":false,"rental_uris":{"android":"levelo://app?vid=326187b7-c618-447b-a1f4-93941f43eae5","ios":"levelo://app?vid=326187b7-c618-447b-a1f4-93941f43eae5"},"vehicle_type_id":"4","last_reported":1702292795,"current_range_meters":28800,"station_id":"ce4bhg92rcd13ifvqf90","pricing_plan_id":"free"},{"bike_id":"b37d935b-f1f0-4279-8c0a-2ee13ef10f3d","system_id":"levelo_inurba_marseille","lat":43.2607,"lon":5.393983,"is_reserved":false,"is_disabled":false,"rental_uris":{"android":"levelo://app?vid=b37d935b-f1f0-4279-8c0a-2ee13ef10f3d","ios":"levelo://app?vid=b37d935b-f1f0-4279-8c0a-2ee13ef10f3d"},"vehicle_type_id":"4","last_reported":1702292795,"current_range_meters":20800,"station_id":"ce4bhh92rcd13ifvqfj0","pricing_plan_id":"free"},{"bike_id":"fe655108-02f0-4138-9abf-33a3ee587e47","system_id":"levelo_inurba_marseille","lat":43.2607,"lon":5.393983,"is_reserved":false,"is_disabled":false,"rental_uris":{"android":"levelo://app?vid=fe655108-02f0-4138-9abf-33a3ee587e47","ios":"levelo://app?vid=fe655108-02f0-4138-9abf-33a3ee587e47"},"vehicle_type_id":"4","last_reported":1702292795,"current_range_meters":20800,"station_id":"ce4bhh92rcd13ifvqfj0","pricing_plan_id":"free"},{"bike_id":"67e78388-594e-4582-a591-dcffae218042","system_id":"levelo_inurba_marseille","lat":43.2607,"lon":5.393983,"is_reserved":false,"is_disabled":false,"rental_uris":{"android":"levelo://app?vid=67e78388-594e-4582-a591-dcffae218042","ios":"levelo://app?vid=67e78388-594e-4582-a591-dcffae218042"},"vehicle_type_id":"4","last_reported":1702292795,"current_range_meters":28400,"station_id":"ce4bhh92rcd13ifvqfj0","pricing_plan_id":"free"},{"bike_id":"008691f6-234a-4534-ae3a-200143d2c64c","system_id":"levelo_inurba_marseille","lat":43.254947,"lon":5.376454,"is_reserved":false,"is_disabled":false,"rental_uris":{"android":"levelo://app?vid=008691f6-234a-4534-ae3a-200143d2c64c","ios":"levelo://app?vid=008691f6-234a-4534-ae3a-200143d2c64c"},"vehicle_type_id":"4","last_reported":1702292795,"current_range_meters":27600,"station_id":"ce4bhh12rcd13ifvqff0","pricing_plan_id":"free"},{"bike_id":"741cbace-340a-4c4b-9a81-47976ee1ab69","system_id":"levelo_inurba_marseille","lat":43.259013,"lon":5.409301,"is_reserved":false,"is_disabled":false,"rental_uris":{"android":"levelo://app?vid=741cbace-340a-4c4b-9a81-47976ee1ab69","ios":"levelo://app?vid=741cbace-340a-4c4b-9a81-47976ee1ab69"},"vehicle_type_id":"4","last_reported":1702292795,"current_range_meters":22000,"station_id":"ce4bhm92rcd13ifvqglg","pricing_plan_id":"free"},{"bike_id":"d30e68c4-80e5-4190-b49e-6652180bc6fd","system_id":"levelo_inurba_marseille","lat":43.259341,"lon":5.40909,"is_reserved":false,"is_disabled":false,"rental_uris":{"android":"levelo://app?vid=d30e68c4-80e5-4190-b49e-6652180bc6fd","ios":"levelo://app?vid=d30e68c4-80e5-4190-b49e-6652180bc6fd"},"vehicle_type_id":"4","last_reported":1702292795,"current_range_meters":25200,"station_id":"ce4bhm92rcd13ifvqglg","pricing_plan_id":"free"},{"bike_id":"fb852c99-3dc2-4225-9168-d0df35f37256","system_id":"levelo_inurba_marseille","lat":43.259009,"lon":5.40929,"is_reserved":false,"is_disabled":false,"rental_uris":{"android":"levelo://app?vid=fb852c99-3dc2-4225-9168-d0df35f37256","ios":"levelo://app?vid=fb852c99-3dc2-4225-9168-d0df35f37256"},"vehicle_type_id":"4","last_reported":1702292795,"current_range_meters":20000,"station_id":"ce4bhm92rcd13ifvqglg","pricing_plan_id":"free"},{"bike_id":"8c7abb6e-331e-4e60-82ae-a192159b793d","system_id":"levelo_inurba_marseille","lat":43.257079,"lon":5.411051,"is_reserved":false,"is_disabled":false,"rental_uris":{"android":"levelo://app?vid=8c7abb6e-331e-4e60-82ae-a192159b793d","ios":"levelo://app?vid=8c7abb6e-331e-4e60-82ae-a192159b793d"},"vehicle_type_id":"4","last_reported":1702292795,"current_range_meters":26000,"station_id":"ce4bhkp2rcd13ifvqgd0","pricing_plan_id":"free"},{"bike_id":"074aa8e2-7db8-4adb-82e0-1401504031c0","system_id":"levelo_inurba_marseille","lat":43.250023,"lon":5.38919,"is_reserved":false,"is_disabled":false,"rental_uris":{"android":"levelo://app?vid=074aa8e2-7db8-4adb-82e0-1401504031c0","ios":"levelo://app?vid=074aa8e2-7db8-4adb-82e0-1401504031c0"},"vehicle_type_id":"4","last_reported":1702292795,"current_range_meters":11600,"station_id":"ce4bhgp2rcd13ifvqfd0","pricing_plan_id":"free"},{"bike_id":"bd92a6c7-afd8-4f09-90d8-ec8b6dee83f3","system_id":"levelo_inurba_marseille","lat":43.2479,"lon":5.374457,"is_reserved":false,"is_disabled":false,"rental_uris":{"android":"levelo://app?vid=bd92a6c7-afd8-4f09-90d8-ec8b6dee83f3","ios":"levelo://app?vid=bd92a6c7-afd8-4f09-90d8-ec8b6dee83f3"},"vehicle_type_id":"4","last_reported":1702292795,"current_range_meters":15200,"station_id":"ce4bhgh2rcd13ifvqfb0","pricing_plan_id":"free"},{"bike_id":"4d636ef6-7ada-46c1-b1e1-689a87a2953d","system_id":"levelo_inurba_marseille","lat":43.2479,"lon":5.374457,"is_reserved":false,"is_disabled":false,"rental_uris":{"android":"levelo://app?vid=4d636ef6-7ada-46c1-b1e1-689a87a2953d","ios":"levelo://app?vid=4d636ef6-7ada-46c1-b1e1-689a87a2953d"},"vehicle_type_id":"4","last_reported":1702292795,"current_range_meters":28800,"station_id":"ce4bhgh2rcd13ifvqfb0","pricing_plan_id":"free"},{"bike_id":"bba5fce4-3dbe-4b83-ba69-18cb502c496d","system_id":"levelo_inurba_marseille","lat":43.25102,"lon":5.403214,"is_reserved":false,"is_disabled":false,"rental_uris":{"android":"levelo://app?vid=bba5fce4-3dbe-4b83-ba69-18cb502c496d","ios":"levelo://app?vid=bba5fce4-3dbe-4b83-ba69-18cb502c496d"},"vehicle_type_id":"4","last_reported":1702292795,"current_range_meters":26000,"station_id":"ce4bhlh2rcd13ifvqgig","pricing_plan_id":"free"},{"bike_id":"85660c55-db11-439f-997e-630394c4bffa","system_id":"levelo_inurba_marseille","lat":43.25102,"lon":5.403214,"is_reserved":false,"is_disabled":false,"rental_uris":{"android":"levelo://app?vid=85660c55-db11-439f-997e-630394c4bffa","ios":"levelo://app?vid=85660c55-db11-439f-997e-630394c4bffa"},"vehicle_type_id":"4","last_reported":1702292795,"current_range_meters":27200,"station_id":"ce4bhlh2rcd13ifvqgig","pricing_plan_id":"free"},{"bike_id":"dba29574-080d-49b8-9794-c9ad3c8fd495","system_id":"levelo_inurba_marseille","lat":43.24544,"lon":5.39519,"is_reserved":false,"is_disabled":false,"rental_uris":{"android":"levelo://app?vid=dba29574-080d-49b8-9794-c9ad3c8fd495","ios":"levelo://app?vid=dba29574-080d-49b8-9794-c9ad3c8fd495"},"vehicle_type_id":"4","last_reported":1702292795,"current_range_meters":29200,"station_id":"ce4bhlp2rcd13ifvqgjg","pricing_plan_id":"free"},{"bike_id":"fac9e5c4-49e3-41d3-9b55-1cf26368ea07","system_id":"levelo_inurba_marseille","lat":43.239588,"lon":5.366238,"is_reserved":false,"is_disabled":false,"rental_uris":{"android":"levelo://app?vid=fac9e5c4-49e3-41d3-9b55-1cf26368ea07","ios":"levelo://app?vid=fac9e5c4-49e3-41d3-9b55-1cf26368ea07"},"vehicle_type_id":"4","last_reported":1702292795,"current_range_meters":6800,"station_id":"ce4bhi12rcd13ifvqfp0","pricing_plan_id":"free"},{"bike_id":"fc2f990c-f12a-4d49-b078-90e208fbd693","system_id":"levelo_inurba_marseille","lat":43.239588,"lon":5.366238,"is_reserved":false,"is_disabled":false,"rental_uris":{"android":"levelo://app?vid=fc2f990c-f12a-4d49-b078-90e208fbd693","ios":"levelo://app?vid=fc2f990c-f12a-4d49-b078-90e208fbd693"},"vehicle_type_id":"4","last_reported":1702292795,"current_range_meters":24400,"station_id":"ce4bhi12rcd13ifvqfp0","pricing_plan_id":"free"},{"bike_id":"5b462ee7-2fe7-4f4d-b8aa-050a965a940d","system_id":"levelo_inurba_marseille","lat":43.241782,"lon":5.397261,"is_reserved":false,"is_disabled":false,"rental_uris":{"android":"levelo://app?vid=5b462ee7-2fe7-4f4d-b8aa-050a965a940d","ios":"levelo://app?vid=5b462ee7-2fe7-4f4d-b8aa-050a965a940d"},"vehicle_type_id":"4","last_reported":1702292795,"current_range_meters":24400,"station_id":"ce4bhn12rcd13ifvqgpg","pricing_plan_id":"free"},{"bike_id":"e1e5e300-1b67-4a5a-83ce-da9c7b2e7139","system_id":"levelo_inurba_marseille","lat":43.23195,"lon":5.35556,"is_reserved":false,"is_disabled":false,"rental_uris":{"android":"levelo://app?vid=e1e5e300-1b67-4a5a-83ce-da9c7b2e7139","ios":"levelo://app?vid=e1e5e300-1b67-4a5a-83ce-da9c7b2e7139"},"vehicle_type_id":"4","last_reported":1702292795,"current_range_meters":12400,"station_id":"ce4bhu92rcd13ifvqi70","pricing_plan_id":"free"},{"bike_id":"ff3311be-0e5d-4347-bfab-118723a2b76e","system_id":"levelo_inurba_marseille","lat":43.231919,"lon":5.355532,"is_reserved":false,"is_disabled":false,"rental_uris":{"android":"levelo://app?vid=ff3311be-0e5d-4347-bfab-118723a2b76e","ios":"levelo://app?vid=ff3311be-0e5d-4347-bfab-118723a2b76e"},"vehicle_type_id":"4","last_reported":1702292795,"current_range_meters":29200,"station_id":"ce4bhu92rcd13ifvqi70","pricing_plan_id":"free"},{"bike_id":"e445b7e6-35f6-4b5c-a6cd-2957185a5f0b","system_id":"levelo_inurba_marseille","lat":43.23193,"lon":5.35554,"is_reserved":false,"is_disabled":false,"rental_uris":{"android":"levelo://app?vid=e445b7e6-35f6-4b5c-a6cd-2957185a5f0b","ios":"levelo://app?vid=e445b7e6-35f6-4b5c-a6cd-2957185a5f0b"},"vehicle_type_id":"4","last_reported":1702292795,"current_range_meters":11600,"station_id":"ce4bhu92rcd13ifvqi70","pricing_plan_id":"free"},{"bike_id":"ee81ef4e-a1bb-4d6a-b3d1-997cc1fadc87","system_id":"levelo_inurba_marseille","lat":43.231919,"lon":5.355532,"is_reserved":false,"is_disabled":false,"rental_uris":{"android":"levelo://app?vid=ee81ef4e-a1bb-4d6a-b3d1-997cc1fadc87","ios":"levelo://app?vid=ee81ef4e-a1bb-4d6a-b3d1-997cc1fadc87"},"vehicle_type_id":"4","last_reported":1702292795,"current_range_meters":6800,"station_id":"ce4bhu92rcd13ifvqi70","pricing_plan_id":"free"},{"bike_id":"75333984-121f-487d-adf0-09f219a5e920","system_id":"levelo_inurba_marseille","lat":43.231794,"lon":5.400052,"is_reserved":false,"is_disabled":false,"rental_uris":{"android":"levelo://app?vid=75333984-121f-487d-adf0-09f219a5e920","ios":"levelo://app?vid=75333984-121f-487d-adf0-09f219a5e920"},"vehicle_type_id":"4","last_reported":1702292795,"current_range_meters":18800,"station_id":"ce4bhn12rcd13ifvqgqg","pricing_plan_id":"free"},{"bike_id":"ccf0478d-68d6-4a4d-8547-6c39a69c61fd","system_id":"levelo_inurba_marseille","lat":43.231793,"lon":5.400044,"is_reserved":false,"is_disabled":false,"rental_uris":{"android":"levelo://app?vid=ccf0478d-68d6-4a4d-8547-6c39a69c61fd","ios":"levelo://app?vid=ccf0478d-68d6-4a4d-8547-6c39a69c61fd"},"vehicle_type_id":"4","last_reported":1702292795,"current_range_meters":28800,"station_id":"ce4bhn12rcd13ifvqgqg","pricing_plan_id":"free"},{"bike_id":"952c250c-bda4-4d17-96dc-ecba0e8c6df2","system_id":"levelo_inurba_marseille","lat":43.231562,"lon":5.436933,"is_reserved":false,"is_disabled":false,"rental_uris":{"android":"levelo://app?vid=952c250c-bda4-4d17-96dc-ecba0e8c6df2","ios":"levelo://app?vid=952c250c-bda4-4d17-96dc-ecba0e8c6df2"},"vehicle_type_id":"4","last_reported":1702292795,"current_range_meters":26800,"station_id":"ce4bhmp2rcd13ifvqgog","pricing_plan_id":"free"},{"bike_id":"04309115-d373-402b-ba36-b1c5f3db9ad3","system_id":"levelo_inurba_marseille","lat":43.231562,"lon":5.436933,"is_reserved":false,"is_disabled":false,"rental_uris":{"android":"levelo://app?vid=04309115-d373-402b-ba36-b1c5f3db9ad3","ios":"levelo://app?vid=04309115-d373-402b-ba36-b1c5f3db9ad3"},"vehicle_type_id":"4","last_reported":1702292795,"current_range_meters":22400,"station_id":"ce4bhmp2rcd13ifvqgog","pricing_plan_id":"free"},{"bike_id":"8b922f65-7569-406d-9136-f131d02c9b36","system_id":"levelo_inurba_marseille","lat":43.231562,"lon":5.436933,"is_reserved":false,"is_disabled":false,"rental_uris":{"android":"levelo://app?vid=8b922f65-7569-406d-9136-f131d02c9b36","ios":"levelo://app?vid=8b922f65-7569-406d-9136-f131d02c9b36"},"vehicle_type_id":"4","last_reported":1702292795,"current_range_meters":18400,"station_id":"ce4bhmp2rcd13ifvqgog","pricing_plan_id":"free"},{"bike_id":"9ddde34d-4107-4cfa-8a63-238e5af26a57","system_id":"levelo_inurba_marseille","lat":43.231562,"lon":5.436933,"is_reserved":false,"is_disabled":false,"rental_uris":{"android":"levelo://app?vid=9ddde34d-4107-4cfa-8a63-238e5af26a57","ios":"levelo://app?vid=9ddde34d-4107-4cfa-8a63-238e5af26a57"},"vehicle_type_id":"4","last_reported":1702292795,"current_range_meters":24800,"station_id":"ce4bhmp2rcd13ifvqgog","pricing_plan_id":"free"},{"bike_id":"e867c508-1925-4372-8551-8e22a3a5630e","system_id":"levelo_inurba_marseille","lat":43.231562,"lon":5.436933,"is_reserved":false,"is_disabled":false,"rental_uris":{"android":"levelo://app?vid=e867c508-1925-4372-8551-8e22a3a5630e","ios":"levelo://app?vid=e867c508-1925-4372-8551-8e22a3a5630e"},"vehicle_type_id":"4","last_reported":1702292795,"current_range_meters":6400,"station_id":"ce4bhmp2rcd13ifvqgog","pricing_plan_id":"free"},{"bike_id":"3602b3ff-c912-4d30-a6ee-11ac9a6debb0","system_id":"levelo_inurba_marseille","lat":43.231562,"lon":5.436933,"is_reserved":false,"is_disabled":false,"rental_uris":{"android":"levelo://app?vid=3602b3ff-c912-4d30-a6ee-11ac9a6debb0","ios":"levelo://app?vid=3602b3ff-c912-4d30-a6ee-11ac9a6debb0"},"vehicle_type_id":"4","last_reported":1702292795,"current_range_meters":5200,"station_id":"ce4bhmp2rcd13ifvqgog","pricing_plan_id":"free"},{"bike_id":"1aae6cdc-e4e2-4912-a240-f90a945937f8","system_id":"levelo_inurba_marseille","lat":43.231562,"lon":5.436933,"is_reserved":false,"is_disabled":false,"rental_uris":{"android":"levelo://app?vid=1aae6cdc-e4e2-4912-a240-f90a945937f8","ios":"levelo://app?vid=1aae6cdc-e4e2-4912-a240-f90a945937f8"},"vehicle_type_id":"4","last_reported":1702292795,"current_range_meters":31200,"station_id":"ce4bhmp2rcd13ifvqgog","pricing_plan_id":"free"},{"bike_id":"73df023e-aee5-4f12-b4d3-a37a3d2b60f3","system_id":"levelo_inurba_marseille","lat":43.231562,"lon":5.436933,"is_reserved":false,"is_disabled":false,"rental_uris":{"android":"levelo://app?vid=73df023e-aee5-4f12-b4d3-a37a3d2b60f3","ios":"levelo://app?vid=73df023e-aee5-4f12-b4d3-a37a3d2b60f3"},"vehicle_type_id":"4","last_reported":1702292795,"current_range_meters":1200,"station_id":"ce4bhmp2rcd13ifvqgog","pricing_plan_id":"free"}]}}