{"last_updated":1746385687,"ttl":60,"version":"2.2","data":{"bikes":[{"bike_id":"2f400e75-7c89-400b-9aaa-091bebe7c15c","system_id":"levelo_inurba_marseille","lat":43.310781,"lon":5.383547,"is_reserved":false,"is_disabled":true,"rental_uris":{"android":"levelo://app?vid=2f400e75-7c89-400b-9aaa-091bebe7c15c","ios":"levelo://app?vid=2f400e75-7c89-400b-9aaa-091bebe7c15c"},"vehicle_type_id":"4","last_reported":1746385687,"current_range_meters":2800,"station_id":"ce4bgv92rcd13ifvqcr0","pricing_plan_id":"cebpf4jnsgd1na2vs0mg"},{"bike_id":"a62c4081-0a00-4338-a99f-b605c981f909","system_id":"levelo_inurba_marseille","lat":43.21179,"lon":5.3507,"is_reserved":false,"is_disabled":false,"rental_uris":{"android":"levelo://app?vid=a62c4081-0a00-4338-a99f-b605c981f909","ios":"levelo://app?vid=a62c4081-0a00-4338-a99f-b605c981f909"},"vehicle_type_id":"4","last_reported":1746385687,"current_range_meters":2800,"station_id":"st_cvj6sg6p6f1abm77japg","pricing_plan_id":"cebpf4jnsgd1na2vs0mg"},{"bike_id":"570b486c-50df-4f1f-97df-caa86c0d419e","system_id":"levelo_inurba_marseille","lat":43.3369,"lon":5.35593,"is_reserved":false,"is_disabled":false,"rental_uris":{"android":"levelo://app?vid=570b486c-50df-4f1f-97df-caa86c0d419e","ios":"levelo://app?vid=570b486c-50df-4f1f-97df-caa86c0d419e"},"vehicle_type_id":"4","last_reported":1746385687,"current_range_meters":2800,"station_id":"","pricing_plan_id":"cebpf4jnsgd1na2vs0mg"},{"bike_id":"fefd08ec-5881-4aed-9781-2a8173dd5fb9","system_id":"levelo_inurba_marseille","lat":43.29457,"lon":5.38257,"is_reserved":false,"is_disabled":false,"rental_uris":{"android":"levelo://app?vid=fefd08ec-5881-4aed-9781-2a8173dd5fb9","ios":"levelo://app?vid=fefd08ec-5881-4aed-9781-2a8173dd5fb9"},"vehicle_type_id":"4","last_reported":1746385687,"current_range_meters":2800,"station_id":"","pricing_plan_id":"cebpf4jnsgd1na2vs0mg"},{"bike_id":"441771cd-0001-4237-b26e-f2e1502d0768","system_id":"levelo_inurba_marseille","lat":43.23641,"lon":5.3661,"is_reserved":false,"is_disabled":false,"rental_uris":{"android":"levelo://app?vid=441771cd-0001-4237-b26e-f2e1502d0768","ios":"levelo://app?vid=441771cd-0001-4237-b26e-f2e1502d0768"},"vehicle_type_id":"4","last_reported":1746385687,"current_range_meters":2800,"station_id":"","pricing_plan_id":"cebpf4jnsgd1na2vs0mg"},{"bike_id":"91efcf00-ff66-4522-ba5b-f3d07c8f94de","system_id":"levelo_inurba_marseille","lat":43.286922,"lon":5.400315,"is_reserved":false,"is_disabled":false,"rental_uris":{"android":"levelo://app?vid=91efcf00-ff66-4522-ba5b-f3d07c8f94de","ios":"levelo://app?vid=91efcf00-ff66-4522-ba5b-f3d07c8f94de"},"vehicle_type_id":"4","last_reported":1746385687,"current_range_meters":3200,"station_id":"ce4bh312rcd13ifvqdk0","pricing_plan_id":"cebpf4jnsgd1na2vs0mg"},{"bike_id":"ed102320-f60e-4809-9c9e-2e96bfde39b6","system_id":"levelo_inurba_marseille","lat":43.35251,"lon":5.4376,"is_reserved":false,"is_disabled":false,"rental_uris":{"android":"levelo://app?vid=ed102320-f60e-4809-9c9e-2e96bfde39b6","ios":"levelo://app?vid=ed102320-f60e-4809-9c9e-2e96bfde39b6"},"vehicle_type_id":"4","last_reported":1746385687,"current_range_meters":4000,"station_id":"","pricing_plan_id":"cebpf4jnsgd1na2vs0mg"},{"bike_id":"c010ea55-adf7-4af9-a6ba-93a5ea670fa7","system_id":"levelo_inurba_marseille","lat":43.29101,"lon":5.36955,"is_reserved":false,"is_disabled":false,"rental_uris":{"android":"levelo://app?vid=c010ea55-adf7-4af9-a6ba-93a5ea670fa7","ios":"levelo://app?vid=c010ea55-adf7-4af9-a6ba-93a5ea670fa7"},"vehicle_type_id":"4","last_reported":1746385687,"current_range_meters":3600,"station_id":"","pricing_plan_id":"cebpf4jnsgd1na2vs0mg"},{"bike_id":"35145cef-b32c-4327-8f54-2c039278b0f6","system_id":"levelo_inurba_marseille","lat":43.21801,"lon":5.34581,"is_reserved":false,"is_disabled":false,"rental_uris":{"android":"levelo://app?vid=35145cef-b32c-4327-8f54-2c039278b0f6","ios":"levelo://app?vid=35145cef-b32c-4327-8f54-2c039278b0f6"},"vehicle_type_id":"4","last_reported":1746385687,"current_range_meters":3600,"station_id":"","pricing_plan_id":"cebpf4jnsgd1na2vs0mg"},{"bike_id":"c4e8df52-6e60-4f98-ac79-dc6e5de8f376","system_id":"levelo_inurba_marseille","lat":43.25122,"lon":5.40323,"is_reserved":false,"is_disabled":false,"rental_uris":{"android":"levelo://app?vid=c4e8df52-6e60-4f98-ac79-dc6e5de8f376","ios":"levelo://app?vid=c4e8df52-6e60-4f98-ac79-dc6e5de8f376"},"vehicle_type_id":"4","last_reported":1746385687,"current_range_meters":3600,"station_id":"ce4bhlh2rcd13ifvqgig","pricing_plan_id":"cebpf4jnsgd1na2vs0mg"},{"bike_id":"488fbaec-377c-4e4c-b038-26af7519d5cb","system_id":"levelo_inurba_marseille","lat":43.32293,"lon":5.38272,"is_reserved":false,"is_disabled":false,"rental_uris":{"android":"levelo://app?vid=488fbaec-377c-4e4c-b038-26af7519d5cb","ios":"levelo://app?vid=488fbaec-377c-4e4c-b038-26af7519d5cb"},"vehicle_type_id":"4","last_reported":1746385687,"current_range_meters":4000,"station_id":"ce4bhr12rcd13ifvqhqg","pricing_plan_id":"cebpf4jnsgd1na2vs0mg"},{"bike_id":"f9759920-99a4-431c-bfd6-2336544c23fc","system_id":"levelo_inurba_marseille","lat":43.23973,"lon":5.36617,"is_reserved":false,"is_disabled":false,"rental_uris":{"android":"levelo://app?vid=f9759920-99a4-431c-bfd6-2336544c23fc","ios":"levelo://app?vid=f9759920-99a4-431c-bfd6-2336544c23fc"},"vehicle_type_id":"4","last_reported":1746385687,"current_range_meters":4400,"station_id":"ce4bhi12rcd13ifvqfp0","pricing_plan_id":"cebpf4jnsgd1na2vs0mg"},{"bike_id":"c767ab0f-da00-4444-82d7-b209e7afb97c","system_id":"levelo_inurba_marseille","lat":43.2954,"lon":5.39403,"is_reserved":false,"is_disabled":false,"rental_uris":{"android":"levelo://app?vid=c767ab0f-da00-4444-82d7-b209e7afb97c","ios":"levelo://app?vid=c767ab0f-da00-4444-82d7-b209e7afb97c"},"vehicle_type_id":"4","last_reported":1746385687,"current_range_meters":4400,"station_id":"ce4bh292rcd13ifvqdf0","pricing_plan_id":"cebpf4jnsgd1na2vs0mg"},{"bike_id":"be9042c4-716a-416e-af52-c92d47776467","system_id":"levelo_inurba_marseille","lat":43.30901,"lon":5.40191,"is_reserved":false,"is_disabled":true,"rental_uris":{"android":"levelo://app?vid=be9042c4-716a-416e-af52-c92d47776467","ios":"levelo://app?vid=be9042c4-716a-416e-af52-c92d47776467"},"vehicle_type_id":"4","last_reported":1746385687,"current_range_meters":4800,"station_id":"ce4bgvp2rcd13ifvqct0","pricing_plan_id":"cebpf4jnsgd1na2vs0mg"},{"bike_id":"dfb3396e-96f5-457c-af11-f6f27dad33e9","system_id":"levelo_inurba_marseille","lat":43.27205,"lon":5.36468,"is_reserved":false,"is_disabled":false,"rental_uris":{"android":"levelo://app?vid=dfb3396e-96f5-457c-af11-f6f27dad33e9","ios":"levelo://app?vid=dfb3396e-96f5-457c-af11-f6f27dad33e9"},"vehicle_type_id":"4","last_reported":1746385687,"current_range_meters":5600,"station_id":"","pricing_plan_id":"cebpf4jnsgd1na2vs0mg"},{"bike_id":"8a434448-fbd0-46f2-b96c-c2c5d4008a42","system_id":"levelo_inurba_marseille","lat":43.24661,"lon":5.38162,"is_reserved":false,"is_disabled":false,"rental_uris":{"android":"levelo://app?vid=8a434448-fbd0-46f2-b96c-c2c5d4008a42","ios":"levelo://app?vid=8a434448-fbd0-46f2-b96c-c2c5d4008a42"},"vehicle_type_id":"4","last_reported":1746385687,"current_range_meters":5600,"station_id":"ce4bhih2rcd13ifvqfr0","pricing_plan_id":"cebpf4jnsgd1na2vs0mg"},{"bike_id":"8df6e310-0880-40a9-a691-cd475dfa3928","system_id":"levelo_inurba_marseille","lat":43.2858,"lon":5.442421,"is_reserved":false,"is_disabled":false,"rental_uris":{"android":"levelo://app?vid=8df6e310-0880-40a9-a691-cd475dfa3928","ios":"levelo://app?vid=8df6e310-0880-40a9-a691-cd475dfa3928"},"vehicle_type_id":"4","last_reported":1746385687,"current_range_meters":5600,"station_id":"","pricing_plan_id":"cebpf4jnsgd1na2vs0mg"},{"bike_id":"8df37787-a611-4ce6-9e65-032cb168f59b","system_id":"levelo_inurba_marseille","lat":43.21207,"lon":5.35077,"is_reserved":false,"is_disabled":false,"rental_uris":{"android":"levelo://app?vid=8df37787-a611-4ce6-9e65-032cb168f59b","ios":"levelo://app?vid=8df37787-a611-4ce6-9e65-032cb168f59b"},"vehicle_type_id":"4","last_reported":1746385687,"current_range_meters":5600,"station_id":"st_cvj6sg6p6f1abm77japg","pricing_plan_id":"cebpf4jnsgd1na2vs0mg"},{"bike_id":"b4c7d5c3-4b91-45d4-b189-fca521967565","system_id":"levelo_inurba_marseille","lat":43.328921,"lon":5.366382,"is_reserved":false,"is_disabled":false,"rental_uris":{"android":"levelo://app?vid=b4c7d5c3-4b91-45d4-b189-fca521967565","ios":"levelo://app?vid=b4c7d5c3-4b91-45d4-b189-fca521967565"},"vehicle_type_id":"4","last_reported":1746385687,"current_range_meters":6000,"station_id":"","pricing_plan_id":"cebpf4jnsgd1na2vs0mg"},{"bike_id":"1610f9d1-d7eb-47b8-895a-46523487617f","system_id":"levelo_inurba_marseille","lat":43.295191,"lon":5.390461,"is_reserved":false,"is_disabled":false,"rental_uris":{"android":"levelo://app?vid=1610f9d1-d7eb-47b8-895a-46523487617f","ios":"levelo://app?vid=1610f9d1-d7eb-47b8-895a-46523487617f"},"vehicle_type_id":"4","last_reported":1746385687,"current_range_meters":6000,"station_id":"ce4bh3p2rcd13ifvqdp0","pricing_plan_id":"cebpf4jnsgd1na2vs0mg"},{"bike_id":"2a6795fc-682f-471c-834a-9f0464403cb3","system_id":"levelo_inurba_marseille","lat":43.26957,"lon":5.38629,"is_reserved":false,"is_disabled":false,"rental_uris":{"android":"levelo://app?vid=2a6795fc-682f-471c-834a-9f0464403cb3","ios":"levelo://app?vid=2a6795fc-682f-471c-834a-9f0464403cb3"},"vehicle_type_id":"4","last_reported":1746385687,"current_range_meters":6000,"station_id":"ce4bhh92rcd13ifvqfh0","pricing_plan_id":"cebpf4jnsgd1na2vs0mg"},{"bike_id":"cbdb70de-4897-4510-8267-3440f3623dc1","system_id":"levelo_inurba_marseille","lat":43.24181,"lon":5.39735,"is_reserved":false,"is_disabled":false,"rental_uris":{"android":"levelo://app?vid=cbdb70de-4897-4510-8267-3440f3623dc1","ios":"levelo://app?vid=cbdb70de-4897-4510-8267-3440f3623dc1"},"vehicle_type_id":"4","last_reported":1746385687,"current_range_meters":6400,"station_id":"ce4bhn12rcd13ifvqgpg","pricing_plan_id":"cebpf4jnsgd1na2vs0mg"},{"bike_id":"0e0be7bc-20e5-424a-89ff-1b6d292738ac","system_id":"levelo_inurba_marseille","lat":43.21763,"lon":5.3461,"is_reserved":false,"is_disabled":false,"rental_uris":{"android":"levelo://app?vid=0e0be7bc-20e5-424a-89ff-1b6d292738ac","ios":"levelo://app?vid=0e0be7bc-20e5-424a-89ff-1b6d292738ac"},"vehicle_type_id":"4","last_reported":1746385687,"current_range_meters":6400,"station_id":"st_cvj6r9ubvosntc0bgbag","pricing_plan_id":"cebpf4jnsgd1na2vs0mg"},{"bike_id":"3ab3c86e-8d2f-4e36-8bad-85bca3eb2e34","system_id":"levelo_inurba_marseille","lat":43.2177,"lon":5.34595,"is_reserved":false,"is_disabled":true,"rental_uris":{"android":"levelo://app?vid=3ab3c86e-8d2f-4e36-8bad-85bca3eb2e34","ios":"levelo://app?vid=3ab3c86e-8d2f-4e36-8bad-85bca3eb2e34"},"vehicle_type_id":"4","last_reported":1746385687,"current_range_meters":6400,"station_id":"st_cvj6r9ubvosntc0bgbag","pricing_plan_id":"cebpf4jnsgd1na2vs0mg"},{"bike_id":"bd0db06a-3f15-4f0d-9a27-f6b93177e1eb","system_id":"levelo_inurba_marseille","lat":43.27809,"lon":5.40736,"is_reserved":false,"is_disabled":false,"rental_uris":{"android":"levelo://app?vid=bd0db06a-3f15-4f0d-9a27-f6b93177e1eb","ios":"levelo://app?vid=bd0db06a-3f15-4f0d-9a27-f6b93177e1eb"},"vehicle_type_id":"4","last_reported":1746385687,"current_range_meters":6400,"station_id":"ce4bhnh2rcd13ifvqgtg","pricing_plan_id":"cebpf4jnsgd1na2vs0mg"},{"bike_id":"0ecfd02f-f853-4362-9dcd-e959b1ad8321","system_id":"levelo_inurba_marseille","lat":43.241841,"lon":5.397286,"is_reserved":false,"is_disabled":false,"rental_uris":{"android":"levelo://app?vid=0ecfd02f-f853-4362-9dcd-e959b1ad8321","ios":"levelo://app?vid=0ecfd02f-f853-4362-9dcd-e959b1ad8321"},"vehicle_type_id":"4","last_reported":1746385687,"current_range_meters":6400,"station_id":"ce4bhn12rcd13ifvqgpg","pricing_plan_id":"cebpf4jnsgd1na2vs0mg"},{"bike_id":"4009a77b-fe27-4d0e-82d7-e7e29be4a9e9","system_id":"levelo_inurba_marseille","lat":43.242191,"lon":5.367354,"is_reserved":false,"is_disabled":false,"rental_uris":{"android":"levelo://app?vid=4009a77b-fe27-4d0e-82d7-e7e29be4a9e9","ios":"levelo://app?vid=4009a77b-fe27-4d0e-82d7-e7e29be4a9e9"},"vehicle_type_id":"4","last_reported":1746385687,"current_range_meters":6400,"station_id":"","pricing_plan_id":"cebpf4jnsgd1na2vs0mg"},{"bike_id":"17cd42e0-f3d6-4b5d-a7a7-aae4daea5f81","system_id":"levelo_inurba_marseille","lat":43.212,"lon":5.35061,"is_reserved":false,"is_disabled":false,"rental_uris":{"android":"levelo://app?vid=17cd42e0-f3d6-4b5d-a7a7-aae4daea5f81","ios":"levelo://app?vid=17cd42e0-f3d6-4b5d-a7a7-aae4daea5f81"},"vehicle_type_id":"4","last_reported":1746385687,"current_range_meters":6400,"station_id":"","pricing_plan_id":"cebpf4jnsgd1na2vs0mg"},{"bike_id":"6ae9068b-8534-47e2-832a-cb0e5255371d","system_id":"levelo_inurba_marseille","lat":43.337444,"lon":5.374475,"is_reserved":false,"is_disabled":false,"rental_uris":{"android":"levelo://app?vid=6ae9068b-8534-47e2-832a-cb0e5255371d","ios":"levelo://app?vid=6ae9068b-8534-47e2-832a-cb0e5255371d"},"vehicle_type_id":"4","last_reported":1746385687,"current_range_meters":6800,"station_id":"ce4bgvp2rcd13ifvqct0","pricing_plan_id":"cebpf4jnsgd1na2vs0mg"},{"bike_id":"a9e81389-04bf-4a2a-ad52-b64e50e776c4","system_id":"levelo_inurba_marseille","lat":43.2513,"lon":5.40321,"is_reserved":false,"is_disabled":false,"rental_uris":{"android":"levelo://app?vid=a9e81389-04bf-4a2a-ad52-b64e50e776c4","ios":"levelo://app?vid=a9e81389-04bf-4a2a-ad52-b64e50e776c4"},"vehicle_type_id":"4","last_reported":1746385687,"current_range_meters":6800,"station_id":"ce4bhlh2rcd13ifvqgig","pricing_plan_id":"cebpf4jnsgd1na2vs0mg"},{"bike_id":"fb582505-15b6-40c6-97cc-2feebea7d568","system_id":"levelo_inurba_marseille","lat":43.30415,"lon":5.39753,"is_reserved":false,"is_disabled":true,"rental_uris":{"android":"levelo://app?vid=fb582505-15b6-40c6-97cc-2feebea7d568","ios":"levelo://app?vid=fb582505-15b6-40c6-97cc-2feebea7d568"},"vehicle_type_id":"4","last_reported":1746385687,"current_range_meters":7200,"station_id":"ce4bh092rcd13ifvqd20","pricing_plan_id":"cebpf4jnsgd1na2vs0mg"},{"bike_id":"dcf54ab5-765b-4f53-a5bb-67c40c5eefc6","system_id":"levelo_inurba_marseille","lat":43.31489,"lon":5.37308,"is_reserved":false,"is_disabled":false,"rental_uris":{"android":"levelo://app?vid=dcf54ab5-765b-4f53-a5bb-67c40c5eefc6","ios":"levelo://app?vid=dcf54ab5-765b-4f53-a5bb-67c40c5eefc6"},"vehicle_type_id":"4","last_reported":1746385687,"current_range_meters":7200,"station_id":"ce4bgt12rcd13ifvqcd0","pricing_plan_id":"cebpf4jnsgd1na2vs0mg"},{"bike_id":"6b60ae94-bbd3-482a-9e84-be58caf56bd8","system_id":"levelo_inurba_marseille","lat":43.2782,"lon":5.40712,"is_reserved":false,"is_disabled":false,"rental_uris":{"android":"levelo://app?vid=6b60ae94-bbd3-482a-9e84-be58caf56bd8","ios":"levelo://app?vid=6b60ae94-bbd3-482a-9e84-be58caf56bd8"},"vehicle_type_id":"4","last_reported":1746385687,"current_range_meters":7200,"station_id":"ce4bhnh2rcd13ifvqgtg","pricing_plan_id":"cebpf4jnsgd1na2vs0mg"},{"bike_id":"f06c4667-9ef9-4dc2-8fda-8d26a990386f","system_id":"levelo_inurba_marseille","lat":43.2816,"lon":5.42655,"is_reserved":false,"is_disabled":false,"rental_uris":{"android":"levelo://app?vid=f06c4667-9ef9-4dc2-8fda-8d26a990386f","ios":"levelo://app?vid=f06c4667-9ef9-4dc2-8fda-8d26a990386f"},"vehicle_type_id":"4","last_reported":1746385687,"current_range_meters":7200,"station_id":"ce4bhnh2rcd13ifvqgug","pricing_plan_id":"cebpf4jnsgd1na2vs0mg"},{"bike_id":"f0259f55-382d-4317-a5a3-c63365a0d76b","system_id":"levelo_inurba_marseille","lat":43.2553,"lon":5.41796,"is_reserved":false,"is_disabled":false,"rental_uris":{"android":"levelo://app?vid=f0259f55-382d-4317-a5a3-c63365a0d76b","ios":"levelo://app?vid=f0259f55-382d-4317-a5a3-c63365a0d76b"},"vehicle_type_id":"4","last_reported":1746385687,"current_range_meters":8000,"station_id":"","pricing_plan_id":"cebpf4jnsgd1na2vs0mg"},{"bike_id":"c6cb0a4f-43b7-41b2-9c4b-4e8e3c2ae7a6","system_id":"levelo_inurba_marseille","lat":43.298095,"lon":5.382168,"is_reserved":false,"is_disabled":false,"rental_uris":{"android":"levelo://app?vid=c6cb0a4f-43b7-41b2-9c4b-4e8e3c2ae7a6","ios":"levelo://app?vid=c6cb0a4f-43b7-41b2-9c4b-4e8e3c2ae7a6"},"vehicle_type_id":"4","last_reported":1746385687,"current_range_meters":8000,"station_id":"ce4bh012rcd13ifvqd10","pricing_plan_id":"cebpf4jnsgd1na2vs0mg"},{"bike_id":"e9c24f3d-2135-45ef-8f3e-49aaf01d2847","system_id":"levelo_inurba_marseille","lat":43.26218,"lon":5.37511,"is_reserved":false,"is_disabled":true,"rental_uris":{"android":"levelo://app?vid=e9c24f3d-2135-45ef-8f3e-49aaf01d2847","ios":"levelo://app?vid=e9c24f3d-2135-45ef-8f3e-49aaf01d2847"},"vehicle_type_id":"4","last_reported":1746385687,"current_range_meters":8000,"station_id":"","pricing_plan_id":"cebpf4jnsgd1na2vs0mg"},{"bike_id":"4d9c785a-6a14-4f60-8bcb-eb74d56c9262","system_id":"levelo_inurba_marseille","lat":43.27134,"lon":5.42226,"is_reserved":false,"is_disabled":false,"rental_uris":{"android":"levelo://app?vid=4d9c785a-6a14-4f60-8bcb-eb74d56c9262","ios":"levelo://app?vid=4d9c785a-6a14-4f60-8bcb-eb74d56c9262"},"vehicle_type_id":"4","last_reported":1746385687,"current_range_meters":8000,"station_id":"","pricing_plan_id":"cebpf4jnsgd1na2vs0mg"},{"bike_id":"6f8dd7c8-5eff-4509-9853-53af8780b6d6","system_id":"levelo_inurba_marseille","lat":43.245484,"lon":5.395281,"is_reserved":false,"is_disabled":false,"rental_uris":{"android":"levelo://app?vid=6f8dd7c8-5eff-4509-9853-53af8780b6d6","ios":"levelo://app?vid=6f8dd7c8-5eff-4509-9853-53af8780b6d6"},"vehicle_type_id":"4","last_reported":1746385687,"current_range_meters":8000,"station_id":"ce4bhlp2rcd13ifvqgjg","pricing_plan_id":"cebpf4jnsgd1na2vs0mg"},{"bike_id":"3a3b5ccf-db25-43cb-b3b0-1b438725671a","system_id":"levelo_inurba_marseille","lat":43.24542,"lon":5.39529,"is_reserved":false,"is_disabled":false,"rental_uris":{"android":"levelo://app?vid=3a3b5ccf-db25-43cb-b3b0-1b438725671a","ios":"levelo://app?vid=3a3b5ccf-db25-43cb-b3b0-1b438725671a"},"vehicle_type_id":"4","last_reported":1746385687,"current_range_meters":8000,"station_id":"ce4bhlp2rcd13ifvqgjg","pricing_plan_id":"cebpf4jnsgd1na2vs0mg"},{"bike_id":"7c9f302f-84ec-4062-ae0c-5788a6786ad9","system_id":"levelo_inurba_marseille","lat":43.21763,"lon":5.34603,"is_reserved":false,"is_disabled":false,"rental_uris":{"android":"levelo://app?vid=7c9f302f-84ec-4062-ae0c-5788a6786ad9","ios":"levelo://app?vid=7c9f302f-84ec-4062-ae0c-5788a6786ad9"},"vehicle_type_id":"4","last_reported":1746385687,"current_range_meters":8400,"station_id":"st_cvj6r9ubvosntc0bgbag","pricing_plan_id":"cebpf4jnsgd1na2vs0mg"},{"bike_id":"e4856e11-0139-477e-a022-4b979369719b","system_id":"levelo_inurba_marseille","lat":43.23963,"lon":5.36634,"is_reserved":false,"is_disabled":false,"rental_uris":{"android":"levelo://app?vid=e4856e11-0139-477e-a022-4b979369719b","ios":"levelo://app?vid=e4856e11-0139-477e-a022-4b979369719b"},"vehicle_type_id":"4","last_reported":1746385687,"current_range_meters":8400,"station_id":"ce4bhi12rcd13ifvqfp0","pricing_plan_id":"cebpf4jnsgd1na2vs0mg"},{"bike_id":"0f87a10d-25e9-43f6-8e71-e93b8a7151e7","system_id":"levelo_inurba_marseille","lat":43.30884,"lon":5.39655,"is_reserved":false,"is_disabled":false,"rental_uris":{"android":"levelo://app?vid=0f87a10d-25e9-43f6-8e71-e93b8a7151e7","ios":"levelo://app?vid=0f87a10d-25e9-43f6-8e71-e93b8a7151e7"},"vehicle_type_id":"4","last_reported":1746385687,"current_range_meters":8400,"station_id":"ce4bh012rcd13ifvqcv0","pricing_plan_id":"cebpf4jnsgd1na2vs0mg"},{"bike_id":"484e30fa-005c-450e-898d-f32682d7f1bf","system_id":"levelo_inurba_marseille","lat":43.27496,"lon":5.42463,"is_reserved":false,"is_disabled":false,"rental_uris":{"android":"levelo://app?vid=484e30fa-005c-450e-898d-f32682d7f1bf","ios":"levelo://app?vid=484e30fa-005c-450e-898d-f32682d7f1bf"},"vehicle_type_id":"4","last_reported":1746385687,"current_range_meters":8400,"station_id":"ce4bhn92rcd13ifvqgrg","pricing_plan_id":"cebpf4jnsgd1na2vs0mg"},{"bike_id":"05cdd6da-e920-4d7e-851a-954d203bf00a","system_id":"levelo_inurba_marseille","lat":43.23192,"lon":5.39987,"is_reserved":false,"is_disabled":false,"rental_uris":{"android":"levelo://app?vid=05cdd6da-e920-4d7e-851a-954d203bf00a","ios":"levelo://app?vid=05cdd6da-e920-4d7e-851a-954d203bf00a"},"vehicle_type_id":"4","last_reported":1746385687,"current_range_meters":8400,"station_id":"ce4bhn12rcd13ifvqgqg","pricing_plan_id":"cebpf4jnsgd1na2vs0mg"},{"bike_id":"e26ad76c-4e0d-44e8-931c-a9e544c88880","system_id":"levelo_inurba_marseille","lat":43.30738,"lon":5.42434,"is_reserved":false,"is_disabled":false,"rental_uris":{"android":"levelo://app?vid=e26ad76c-4e0d-44e8-931c-a9e544c88880","ios":"levelo://app?vid=e26ad76c-4e0d-44e8-931c-a9e544c88880"},"vehicle_type_id":"4","last_reported":1746385687,"current_range_meters":8400,"station_id":"st_cvj6ca6bvosntc0bfgr0","pricing_plan_id":"cebpf4jnsgd1na2vs0mg"},{"bike_id":"fd2c3c67-23a6-4380-b7ca-8f23c8f78921","system_id":"levelo_inurba_marseille","lat":43.323691,"lon":5.367455,"is_reserved":false,"is_disabled":false,"rental_uris":{"android":"levelo://app?vid=fd2c3c67-23a6-4380-b7ca-8f23c8f78921","ios":"levelo://app?vid=fd2c3c67-23a6-4380-b7ca-8f23c8f78921"},"vehicle_type_id":"4","last_reported":1746385687,"current_range_meters":8400,"station_id":"ce4bhsh2rcd13ifvqi2g","pricing_plan_id":"cebpf4jnsgd1na2vs0mg"},{"bike_id":"a7cd7cac-5a32-4d14-92f2-2738618b7e69","system_id":"levelo_inurba_marseille","lat":43.25939,"lon":5.40894,"is_reserved":false,"is_disabled":false,"rental_uris":{"android":"levelo://app?vid=a7cd7cac-5a32-4d14-92f2-2738618b7e69","ios":"levelo://app?vid=a7cd7cac-5a32-4d14-92f2-2738618b7e69"},"vehicle_type_id":"4","last_reported":1746385687,"current_range_meters":8400,"station_id":"ce4bhm92rcd13ifvqglg","pricing_plan_id":"cebpf4jnsgd1na2vs0mg"},{"bike_id":"d55c8237-2304-4efd-993e-dc727f0f1b6a","system_id":"levelo_inurba_marseille","lat":43.22511,"lon":5.34782,"is_reserved":false,"is_disabled":false,"rental_uris":{"android":"levelo://app?vid=d55c8237-2304-4efd-993e-dc727f0f1b6a","ios":"levelo://app?vid=d55c8237-2304-4efd-993e-dc727f0f1b6a"},"vehicle_type_id":"4","last_reported":1746385687,"current_range_meters":8800,"station_id":"st_cvj5dfep6f1abm77gieg","pricing_plan_id":"cebpf4jnsgd1na2vs0mg"},{"bike_id":"1d59b5c9-cca4-43f9-a7f4-1bb7ebcfb8ae","system_id":"levelo_inurba_marseille","lat":43.27373,"lon":5.362545,"is_reserved":false,"is_disabled":true,"rental_uris":{"android":"levelo://app?vid=1d59b5c9-cca4-43f9-a7f4-1bb7ebcfb8ae","ios":"levelo://app?vid=1d59b5c9-cca4-43f9-a7f4-1bb7ebcfb8ae"},"vehicle_type_id":"4","last_reported":1746385687,"current_range_meters":8800,"station_id":"","pricing_plan_id":"cebpf4jnsgd1na2vs0mg"},{"bike_id":"1a369a16-f22b-45b2-8393-0c77973b6f32","system_id":"levelo_inurba_marseille","lat":43.27421,"lon":5.39421,"is_reserved":false,"is_disabled":false,"rental_uris":{"android":"levelo://app?vid=1a369a16-f22b-45b2-8393-0c77973b6f32","ios":"levelo://app?vid=1a369a16-f22b-45b2-8393-0c77973b6f32"},"vehicle_type_id":"4","last_reported":1746385687,"current_range_meters":13600,"station_id":"ce4bhdp2rcd13ifvqf20","pricing_plan_id":"cebpf4jnsgd1na2vs0mg"},{"bike_id":"274ad913-cb5d-44ea-8484-26eae07424ea","system_id":"levelo_inurba_marseille","lat":43.25761,"lon":5.39976,"is_reserved":false,"is_disabled":true,"rental_uris":{"android":"levelo://app?vid=274ad913-cb5d-44ea-8484-26eae07424ea","ios":"levelo://app?vid=274ad913-cb5d-44ea-8484-26eae07424ea"},"vehicle_type_id":"4","last_reported":1746385687,"current_range_meters":8800,"station_id":"ce4bhl92rcd13ifvqghg","pricing_plan_id":"cebpf4jnsgd1na2vs0mg"},{"bike_id":"16443d41-e8d9-4b4b-8c5c-03eae9eab9d7","system_id":"levelo_inurba_marseille","lat":43.3303,"lon":5.39039,"is_reserved":false,"is_disabled":false,"rental_uris":{"android":"levelo://app?vid=16443d41-e8d9-4b4b-8c5c-03eae9eab9d7","ios":"levelo://app?vid=16443d41-e8d9-4b4b-8c5c-03eae9eab9d7"},"vehicle_type_id":"4","last_reported":1746385687,"current_range_meters":8800,"station_id":"ce4bhr92rcd13ifvqhrg","pricing_plan_id":"cebpf4jnsgd1na2vs0mg"},{"bike_id":"89c5a075-7c7e-4ffe-b42c-f3bda787ff75","system_id":"levelo_inurba_marseille","lat":43.32246,"lon":5.37474,"is_reserved":false,"is_disabled":false,"rental_uris":{"android":"levelo://app?vid=89c5a075-7c7e-4ffe-b42c-f3bda787ff75","ios":"levelo://app?vid=89c5a075-7c7e-4ffe-b42c-f3bda787ff75"},"vehicle_type_id":"4","last_reported":1746385687,"current_range_meters":8800,"station_id":"","pricing_plan_id":"cebpf4jnsgd1na2vs0mg"},{"bike_id":"029d1da9-ddaa-4b16-929e-555a1ebde3de","system_id":"levelo_inurba_marseille","lat":43.31069,"lon":5.42442,"is_reserved":false,"is_disabled":false,"rental_uris":{"android":"levelo://app?vid=029d1da9-ddaa-4b16-929e-555a1ebde3de","ios":"levelo://app?vid=029d1da9-ddaa-4b16-929e-555a1ebde3de"},"vehicle_type_id":"4","last_reported":1746385687,"current_range_meters":8800,"station_id":"ce4bhp92rcd13ifvqhag","pricing_plan_id":"cebpf4jnsgd1na2vs0mg"},{"bike_id":"69ec15a2-3ebc-4db4-98b3-930d8b0a32ec","system_id":"levelo_inurba_marseille","lat":43.28355,"lon":5.38102,"is_reserved":false,"is_disabled":false,"rental_uris":{"android":"levelo://app?vid=69ec15a2-3ebc-4db4-98b3-930d8b0a32ec","ios":"levelo://app?vid=69ec15a2-3ebc-4db4-98b3-930d8b0a32ec"},"vehicle_type_id":"4","last_reported":1746385687,"current_range_meters":8800,"station_id":"ce4bh412rcd13ifvqdr0","pricing_plan_id":"cebpf4jnsgd1na2vs0mg"},{"bike_id":"51e137dc-06d4-4721-8a2f-24e002c6d5d0","system_id":"levelo_inurba_marseille","lat":43.24072,"lon":5.37752,"is_reserved":false,"is_disabled":false,"rental_uris":{"android":"levelo://app?vid=51e137dc-06d4-4721-8a2f-24e002c6d5d0","ios":"levelo://app?vid=51e137dc-06d4-4721-8a2f-24e002c6d5d0"},"vehicle_type_id":"4","last_reported":1746385687,"current_range_meters":8800,"station_id":"ce4bhnp2rcd13ifvqgvg","pricing_plan_id":"cebpf4jnsgd1na2vs0mg"},{"bike_id":"4e5c6a13-8cb1-425d-be39-aef9c3f519ef","system_id":"levelo_inurba_marseille","lat":43.29696,"lon":5.37295,"is_reserved":false,"is_disabled":false,"rental_uris":{"android":"levelo://app?vid=4e5c6a13-8cb1-425d-be39-aef9c3f519ef","ios":"levelo://app?vid=4e5c6a13-8cb1-425d-be39-aef9c3f519ef"},"vehicle_type_id":"4","last_reported":1746385687,"current_range_meters":9200,"station_id":"ce4bgk12rcd13ifvqbj0","pricing_plan_id":"cebpf4jnsgd1na2vs0mg"},{"bike_id":"1c53114f-12ea-4131-9a1b-7fbb80d9df57","system_id":"levelo_inurba_marseille","lat":43.27063,"lon":5.42266,"is_reserved":false,"is_disabled":false,"rental_uris":{"android":"levelo://app?vid=1c53114f-12ea-4131-9a1b-7fbb80d9df57","ios":"levelo://app?vid=1c53114f-12ea-4131-9a1b-7fbb80d9df57"},"vehicle_type_id":"4","last_reported":1746385687,"current_range_meters":9200,"station_id":"ce4bhk92rcd13ifvqgb0","pricing_plan_id":"cebpf4jnsgd1na2vs0mg"},{"bike_id":"404da817-f031-4950-ba8b-2104a38b67fb","system_id":"levelo_inurba_marseille","lat":43.27158,"lon":5.40993,"is_reserved":false,"is_disabled":false,"rental_uris":{"android":"levelo://app?vid=404da817-f031-4950-ba8b-2104a38b67fb","ios":"levelo://app?vid=404da817-f031-4950-ba8b-2104a38b67fb"},"vehicle_type_id":"4","last_reported":1746385687,"current_range_meters":9200,"station_id":"ce4bhl12rcd13ifvqgf0","pricing_plan_id":"cebpf4jnsgd1na2vs0mg"},{"bike_id":"2ece3a38-de26-4944-bcc3-6ff3fb5982f7","system_id":"levelo_inurba_marseille","lat":43.30253,"lon":5.40082,"is_reserved":false,"is_disabled":false,"rental_uris":{"android":"levelo://app?vid=2ece3a38-de26-4944-bcc3-6ff3fb5982f7","ios":"levelo://app?vid=2ece3a38-de26-4944-bcc3-6ff3fb5982f7"},"vehicle_type_id":"4","last_reported":1746385687,"current_range_meters":9200,"station_id":"ce4bgvh2rcd13ifvqcs0","pricing_plan_id":"cebpf4jnsgd1na2vs0mg"},{"bike_id":"f2f259d1-36b8-4370-b79f-1e8086cc6d08","system_id":"levelo_inurba_marseille","lat":43.27066,"lon":5.42279,"is_reserved":false,"is_disabled":false,"rental_uris":{"android":"levelo://app?vid=f2f259d1-36b8-4370-b79f-1e8086cc6d08","ios":"levelo://app?vid=f2f259d1-36b8-4370-b79f-1e8086cc6d08"},"vehicle_type_id":"4","last_reported":1746385687,"current_range_meters":9200,"station_id":"ce4bhk92rcd13ifvqgb0","pricing_plan_id":"cebpf4jnsgd1na2vs0mg"},{"bike_id":"4b7982fc-f60c-45eb-9387-488516a5a88d","system_id":"levelo_inurba_marseille","lat":43.31384,"lon":5.38509,"is_reserved":false,"is_disabled":false,"rental_uris":{"android":"levelo://app?vid=4b7982fc-f60c-45eb-9387-488516a5a88d","ios":"levelo://app?vid=4b7982fc-f60c-45eb-9387-488516a5a88d"},"vehicle_type_id":"4","last_reported":1746385687,"current_range_meters":9200,"station_id":"ce4bgt92rcd13ifvqcf0","pricing_plan_id":"cebpf4jnsgd1na2vs0mg"},{"bike_id":"0f17940a-3ae7-4a9c-8586-7dee61857100","system_id":"levelo_inurba_marseille","lat":43.28988,"lon":5.37833,"is_reserved":false,"is_disabled":false,"rental_uris":{"android":"levelo://app?vid=0f17940a-3ae7-4a9c-8586-7dee61857100","ios":"levelo://app?vid=0f17940a-3ae7-4a9c-8586-7dee61857100"},"vehicle_type_id":"4","last_reported":1746385687,"current_range_meters":6400,"station_id":"ce4bh9p2rcd13ifvqed0","pricing_plan_id":"cebpf4jnsgd1na2vs0mg"},{"bike_id":"81a51316-261c-49b8-9713-c824970c48da","system_id":"levelo_inurba_marseille","lat":43.29979,"lon":5.37175,"is_reserved":false,"is_disabled":false,"rental_uris":{"android":"levelo://app?vid=81a51316-261c-49b8-9713-c824970c48da","ios":"levelo://app?vid=81a51316-261c-49b8-9713-c824970c48da"},"vehicle_type_id":"4","last_reported":1746385687,"current_range_meters":9200,"station_id":"ce4bgr92rcd13ifvqc7g","pricing_plan_id":"cebpf4jnsgd1na2vs0mg"},{"bike_id":"3501e4a5-c24c-48b0-9ed6-de4a58bc47f7","system_id":"levelo_inurba_marseille","lat":43.31373,"lon":5.38501,"is_reserved":false,"is_disabled":false,"rental_uris":{"android":"levelo://app?vid=3501e4a5-c24c-48b0-9ed6-de4a58bc47f7","ios":"levelo://app?vid=3501e4a5-c24c-48b0-9ed6-de4a58bc47f7"},"vehicle_type_id":"4","last_reported":1746385687,"current_range_meters":9600,"station_id":"ce4bgt92rcd13ifvqcf0","pricing_plan_id":"cebpf4jnsgd1na2vs0mg"},{"bike_id":"8678a427-4a48-447b-9afd-0e0b4e181a44","system_id":"levelo_inurba_marseille","lat":43.29076,"lon":5.36556,"is_reserved":false,"is_disabled":false,"rental_uris":{"android":"levelo://app?vid=8678a427-4a48-447b-9afd-0e0b4e181a44","ios":"levelo://app?vid=8678a427-4a48-447b-9afd-0e0b4e181a44"},"vehicle_type_id":"4","last_reported":1746385687,"current_range_meters":9600,"station_id":"","pricing_plan_id":"cebpf4jnsgd1na2vs0mg"},{"bike_id":"c59dd5c1-a195-4870-b3d7-afb523598e23","system_id":"levelo_inurba_marseille","lat":43.30793,"lon":5.43541,"is_reserved":false,"is_disabled":false,"rental_uris":{"android":"levelo://app?vid=c59dd5c1-a195-4870-b3d7-afb523598e23","ios":"levelo://app?vid=c59dd5c1-a195-4870-b3d7-afb523598e23"},"vehicle_type_id":"4","last_reported":1746385687,"current_range_meters":9600,"station_id":"ce4bhph2rcd13ifvqheg","pricing_plan_id":"cebpf4jnsgd1na2vs0mg"},{"bike_id":"aedf206f-89f3-4f30-9da6-56fb7ff8915b","system_id":"levelo_inurba_marseille","lat":43.281132,"lon":5.403996,"is_reserved":false,"is_disabled":false,"rental_uris":{"android":"levelo://app?vid=aedf206f-89f3-4f30-9da6-56fb7ff8915b","ios":"levelo://app?vid=aedf206f-89f3-4f30-9da6-56fb7ff8915b"},"vehicle_type_id":"4","last_reported":1746385687,"current_range_meters":9600,"station_id":"","pricing_plan_id":"cebpf4jnsgd1na2vs0mg"},{"bike_id":"0397570e-b83d-4017-8742-c3d74b4e8593","system_id":"levelo_inurba_marseille","lat":43.28802,"lon":5.38837,"is_reserved":false,"is_disabled":true,"rental_uris":{"android":"levelo://app?vid=0397570e-b83d-4017-8742-c3d74b4e8593","ios":"levelo://app?vid=0397570e-b83d-4017-8742-c3d74b4e8593"},"vehicle_type_id":"4","last_reported":1746385687,"current_range_meters":9600,"station_id":"","pricing_plan_id":"cebpf4jnsgd1na2vs0mg"},{"bike_id":"3dee4ac3-68e2-4ae9-8484-8af4d8ebb4c5","system_id":"levelo_inurba_marseille","lat":43.27943,"lon":5.41047,"is_reserved":false,"is_disabled":false,"rental_uris":{"android":"levelo://app?vid=3dee4ac3-68e2-4ae9-8484-8af4d8ebb4c5","ios":"levelo://app?vid=3dee4ac3-68e2-4ae9-8484-8af4d8ebb4c5"},"vehicle_type_id":"4","last_reported":1746385687,"current_range_meters":9600,"station_id":"ce4bhnp2rcd13ifvqh0g","pricing_plan_id":"cebpf4jnsgd1na2vs0mg"},{"bike_id":"0fcf575b-fef3-4c9d-a132-31fcfd35ca83","system_id":"levelo_inurba_marseille","lat":43.312729,"lon":5.401683,"is_reserved":false,"is_disabled":false,"rental_uris":{"android":"levelo://app?vid=0fcf575b-fef3-4c9d-a132-31fcfd35ca83","ios":"levelo://app?vid=0fcf575b-fef3-4c9d-a132-31fcfd35ca83"},"vehicle_type_id":"4","last_reported":1746385687,"current_range_meters":10000,"station_id":"ce4bh092rcd13ifvqd30","pricing_plan_id":"cebpf4jnsgd1na2vs0mg"},{"bike_id":"77e5fc0c-8247-4eae-976e-b65c5c479c47","system_id":"levelo_inurba_marseille","lat":43.2439,"lon":5.37063,"is_reserved":false,"is_disabled":false,"rental_uris":{"android":"levelo://app?vid=77e5fc0c-8247-4eae-976e-b65c5c479c47","ios":"levelo://app?vid=77e5fc0c-8247-4eae-976e-b65c5c479c47"},"vehicle_type_id":"4","last_reported":1746385687,"current_range_meters":10000,"station_id":"ce4bhhh2rcd13ifvqfk0","pricing_plan_id":"cebpf4jnsgd1na2vs0mg"},{"bike_id":"e0f477fa-43e0-437f-aa44-25c8d96e5853","system_id":"levelo_inurba_marseille","lat":43.31087,"lon":5.42428,"is_reserved":false,"is_disabled":false,"rental_uris":{"android":"levelo://app?vid=e0f477fa-43e0-437f-aa44-25c8d96e5853","ios":"levelo://app?vid=e0f477fa-43e0-437f-aa44-25c8d96e5853"},"vehicle_type_id":"4","last_reported":1746385687,"current_range_meters":10000,"station_id":"ce4bhp92rcd13ifvqhag","pricing_plan_id":"cebpf4jnsgd1na2vs0mg"},{"bike_id":"d335b66c-9453-4734-80a4-9394202d3732","system_id":"levelo_inurba_marseille","lat":43.29035,"lon":5.37567,"is_reserved":false,"is_disabled":false,"rental_uris":{"android":"levelo://app?vid=d335b66c-9453-4734-80a4-9394202d3732","ios":"levelo://app?vid=d335b66c-9453-4734-80a4-9394202d3732"},"vehicle_type_id":"4","last_reported":1746385687,"current_range_meters":12000,"station_id":"ce4bh692rcd13ifvqe90","pricing_plan_id":"cebpf4jnsgd1na2vs0mg"},{"bike_id":"49f2e8ef-3e8a-4844-b0f1-9077a212950a","system_id":"levelo_inurba_marseille","lat":43.31267,"lon":5.37151,"is_reserved":false,"is_disabled":false,"rental_uris":{"android":"levelo://app?vid=49f2e8ef-3e8a-4844-b0f1-9077a212950a","ios":"levelo://app?vid=49f2e8ef-3e8a-4844-b0f1-9077a212950a"},"vehicle_type_id":"4","last_reported":1746385687,"current_range_meters":10800,"station_id":"","pricing_plan_id":"cebpf4jnsgd1na2vs0mg"},{"bike_id":"11e449b2-acad-4b2b-b811-47bd1346b7a8","system_id":"levelo_inurba_marseille","lat":43.24392,"lon":5.37053,"is_reserved":false,"is_disabled":false,"rental_uris":{"android":"levelo://app?vid=11e449b2-acad-4b2b-b811-47bd1346b7a8","ios":"levelo://app?vid=11e449b2-acad-4b2b-b811-47bd1346b7a8"},"vehicle_type_id":"4","last_reported":1746385687,"current_range_meters":10800,"station_id":"ce4bhhh2rcd13ifvqfk0","pricing_plan_id":"cebpf4jnsgd1na2vs0mg"},{"bike_id":"b40d0f45-204d-41a0-9150-aaf815e5c314","system_id":"levelo_inurba_marseille","lat":43.31482,"lon":5.37304,"is_reserved":false,"is_disabled":false,"rental_uris":{"android":"levelo://app?vid=b40d0f45-204d-41a0-9150-aaf815e5c314","ios":"levelo://app?vid=b40d0f45-204d-41a0-9150-aaf815e5c314"},"vehicle_type_id":"4","last_reported":1746385687,"current_range_meters":10800,"station_id":"ce4bgt12rcd13ifvqcd0","pricing_plan_id":"cebpf4jnsgd1na2vs0mg"},{"bike_id":"b6435d66-c6e9-4634-8453-482c1826ffcc","system_id":"levelo_inurba_marseille","lat":43.29561,"lon":5.42281,"is_reserved":false,"is_disabled":false,"rental_uris":{"android":"levelo://app?vid=b6435d66-c6e9-4634-8453-482c1826ffcc","ios":"levelo://app?vid=b6435d66-c6e9-4634-8453-482c1826ffcc"},"vehicle_type_id":"4","last_reported":1746385687,"current_range_meters":10800,"station_id":"ce4bhph2rcd13ifvqhdg","pricing_plan_id":"cebpf4jnsgd1na2vs0mg"},{"bike_id":"f28f6892-6b8e-4bb4-bd97-24bcbf7f6f01","system_id":"levelo_inurba_marseille","lat":43.23194,"lon":5.39988,"is_reserved":false,"is_disabled":false,"rental_uris":{"android":"levelo://app?vid=f28f6892-6b8e-4bb4-bd97-24bcbf7f6f01","ios":"levelo://app?vid=f28f6892-6b8e-4bb4-bd97-24bcbf7f6f01"},"vehicle_type_id":"4","last_reported":1746385687,"current_range_meters":11200,"station_id":"ce4bhn12rcd13ifvqgqg","pricing_plan_id":"cebpf4jnsgd1na2vs0mg"},{"bike_id":"2d16e439-da44-4543-be07-7b56f633fac7","system_id":"levelo_inurba_marseille","lat":43.28148,"lon":5.42644,"is_reserved":false,"is_disabled":false,"rental_uris":{"android":"levelo://app?vid=2d16e439-da44-4543-be07-7b56f633fac7","ios":"levelo://app?vid=2d16e439-da44-4543-be07-7b56f633fac7"},"vehicle_type_id":"4","last_reported":1746385687,"current_range_meters":11200,"station_id":"ce4bhnh2rcd13ifvqgug","pricing_plan_id":"cebpf4jnsgd1na2vs0mg"},{"bike_id":"c041e647-a532-4271-ab4c-b8d07e0d410f","system_id":"levelo_inurba_marseille","lat":43.24555,"lon":5.39527,"is_reserved":false,"is_disabled":false,"rental_uris":{"android":"levelo://app?vid=c041e647-a532-4271-ab4c-b8d07e0d410f","ios":"levelo://app?vid=c041e647-a532-4271-ab4c-b8d07e0d410f"},"vehicle_type_id":"4","last_reported":1746385687,"current_range_meters":11200,"station_id":"ce4bhlp2rcd13ifvqgjg","pricing_plan_id":"cebpf4jnsgd1na2vs0mg"},{"bike_id":"1289b118-18ac-49c9-9878-4479fd6a84e6","system_id":"levelo_inurba_marseille","lat":43.29243,"lon":5.3764,"is_reserved":false,"is_disabled":false,"rental_uris":{"android":"levelo://app?vid=1289b118-18ac-49c9-9878-4479fd6a84e6","ios":"levelo://app?vid=1289b118-18ac-49c9-9878-4479fd6a84e6"},"vehicle_type_id":"4","last_reported":1746385687,"current_range_meters":11200,"station_id":"ce4bgi12rcd13ifvqb80","pricing_plan_id":"cebpf4jnsgd1na2vs0mg"},{"bike_id":"89455097-817a-4b31-a8ff-8e176abe0e32","system_id":"levelo_inurba_marseille","lat":43.29419,"lon":5.38632,"is_reserved":false,"is_disabled":false,"rental_uris":{"android":"levelo://app?vid=89455097-817a-4b31-a8ff-8e176abe0e32","ios":"levelo://app?vid=89455097-817a-4b31-a8ff-8e176abe0e32"},"vehicle_type_id":"4","last_reported":1746385687,"current_range_meters":11600,"station_id":"ce4bh2h2rcd13ifvqdh0","pricing_plan_id":"cebpf4jnsgd1na2vs0mg"},{"bike_id":"4b521072-a449-41c7-b214-27a4c7b43215","system_id":"levelo_inurba_marseille","lat":43.33144,"lon":5.38172,"is_reserved":false,"is_disabled":false,"rental_uris":{"android":"levelo://app?vid=4b521072-a449-41c7-b214-27a4c7b43215","ios":"levelo://app?vid=4b521072-a449-41c7-b214-27a4c7b43215"},"vehicle_type_id":"4","last_reported":1746385687,"current_range_meters":11600,"station_id":"","pricing_plan_id":"cebpf4jnsgd1na2vs0mg"},{"bike_id":"d422fe2a-60e1-4d8d-9db1-507ef376f863","system_id":"levelo_inurba_marseille","lat":43.29783,"lon":5.39345,"is_reserved":false,"is_disabled":false,"rental_uris":{"android":"levelo://app?vid=d422fe2a-60e1-4d8d-9db1-507ef376f863","ios":"levelo://app?vid=d422fe2a-60e1-4d8d-9db1-507ef376f863"},"vehicle_type_id":"4","last_reported":1746385687,"current_range_meters":11600,"station_id":"chh1huq6cuj3fo74tm60","pricing_plan_id":"cebpf4jnsgd1na2vs0mg"},{"bike_id":"d7bfff70-924c-48d4-adb6-2de8b2b08303","system_id":"levelo_inurba_marseille","lat":43.28109,"lon":5.37837,"is_reserved":false,"is_disabled":false,"rental_uris":{"android":"levelo://app?vid=d7bfff70-924c-48d4-adb6-2de8b2b08303","ios":"levelo://app?vid=d7bfff70-924c-48d4-adb6-2de8b2b08303"},"vehicle_type_id":"4","last_reported":1746385687,"current_range_meters":11600,"station_id":"ce4bha12rcd13ifvqee0","pricing_plan_id":"cebpf4jnsgd1na2vs0mg"},{"bike_id":"a354048a-c0cf-4e22-87be-61381a3596f3","system_id":"levelo_inurba_marseille","lat":43.28619,"lon":5.35111,"is_reserved":false,"is_disabled":false,"rental_uris":{"android":"levelo://app?vid=a354048a-c0cf-4e22-87be-61381a3596f3","ios":"levelo://app?vid=a354048a-c0cf-4e22-87be-61381a3596f3"},"vehicle_type_id":"4","last_reported":1746385687,"current_range_meters":12000,"station_id":"ce4bhch2rcd13ifvqeug","pricing_plan_id":"cebpf4jnsgd1na2vs0mg"},{"bike_id":"aba17947-ff24-4b0e-9878-1f93887c8796","system_id":"levelo_inurba_marseille","lat":43.29599,"lon":5.38102,"is_reserved":false,"is_disabled":false,"rental_uris":{"android":"levelo://app?vid=aba17947-ff24-4b0e-9878-1f93887c8796","ios":"levelo://app?vid=aba17947-ff24-4b0e-9878-1f93887c8796"},"vehicle_type_id":"4","last_reported":1746385687,"current_range_meters":12000,"station_id":"ce4bgl12rcd13ifvqbo0","pricing_plan_id":"cebpf4jnsgd1na2vs0mg"},{"bike_id":"420a20cf-d116-4dbe-ba51-55466b367314","system_id":"levelo_inurba_marseille","lat":43.299713,"lon":5.384826,"is_reserved":false,"is_disabled":false,"rental_uris":{"android":"levelo://app?vid=420a20cf-d116-4dbe-ba51-55466b367314","ios":"levelo://app?vid=420a20cf-d116-4dbe-ba51-55466b367314"},"vehicle_type_id":"4","last_reported":1746385687,"current_range_meters":12000,"station_id":"","pricing_plan_id":"cebpf4jnsgd1na2vs0mg"},{"bike_id":"d4b1fc0f-b255-4882-b147-3d2e4a152b5f","system_id":"levelo_inurba_marseille","lat":43.281694,"lon":5.391457,"is_reserved":false,"is_disabled":false,"rental_uris":{"android":"levelo://app?vid=d4b1fc0f-b255-4882-b147-3d2e4a152b5f","ios":"levelo://app?vid=d4b1fc0f-b255-4882-b147-3d2e4a152b5f"},"vehicle_type_id":"4","last_reported":1746385687,"current_range_meters":12000,"station_id":"ce4bh2p2rcd13ifvqdi0","pricing_plan_id":"cebpf4jnsgd1na2vs0mg"},{"bike_id":"e234c9c4-65cf-42bc-b2d9-38acc77199c3","system_id":"levelo_inurba_marseille","lat":43.37399,"lon":5.43788,"is_reserved":false,"is_disabled":false,"rental_uris":{"android":"levelo://app?vid=e234c9c4-65cf-42bc-b2d9-38acc77199c3","ios":"levelo://app?vid=e234c9c4-65cf-42bc-b2d9-38acc77199c3"},"vehicle_type_id":"4","last_reported":1746385687,"current_range_meters":12000,"station_id":"","pricing_plan_id":"cebpf4jnsgd1na2vs0mg"},{"bike_id":"59030acf-725f-465f-8606-c7944860be01","system_id":"levelo_inurba_marseille","lat":43.28098,"lon":5.37855,"is_reserved":false,"is_disabled":false,"rental_uris":{"android":"levelo://app?vid=59030acf-725f-465f-8606-c7944860be01","ios":"levelo://app?vid=59030acf-725f-465f-8606-c7944860be01"},"vehicle_type_id":"4","last_reported":1746385687,"current_range_meters":12000,"station_id":"ce4bha12rcd13ifvqee0","pricing_plan_id":"cebpf4jnsgd1na2vs0mg"},{"bike_id":"c74884bc-a366-4823-ac5c-7fbb449628ef","system_id":"levelo_inurba_marseille","lat":43.2318,"lon":5.39986,"is_reserved":false,"is_disabled":false,"rental_uris":{"android":"levelo://app?vid=c74884bc-a366-4823-ac5c-7fbb449628ef","ios":"levelo://app?vid=c74884bc-a366-4823-ac5c-7fbb449628ef"},"vehicle_type_id":"4","last_reported":1746385687,"current_range_meters":12400,"station_id":"ce4bhn12rcd13ifvqgqg","pricing_plan_id":"cebpf4jnsgd1na2vs0mg"},{"bike_id":"b1e94ec2-c124-4b45-af28-71d37328dcf1","system_id":"levelo_inurba_marseille","lat":43.21752,"lon":5.34628,"is_reserved":false,"is_disabled":false,"rental_uris":{"android":"levelo://app?vid=b1e94ec2-c124-4b45-af28-71d37328dcf1","ios":"levelo://app?vid=b1e94ec2-c124-4b45-af28-71d37328dcf1"},"vehicle_type_id":"4","last_reported":1746385687,"current_range_meters":12400,"station_id":"st_cvj6r9ubvosntc0bgbag","pricing_plan_id":"cebpf4jnsgd1na2vs0mg"},{"bike_id":"01d67fd8-ff6a-49d8-b9b8-a97ee824ce65","system_id":"levelo_inurba_marseille","lat":43.28041,"lon":5.36946,"is_reserved":false,"is_disabled":false,"rental_uris":{"android":"levelo://app?vid=01d67fd8-ff6a-49d8-b9b8-a97ee824ce65","ios":"levelo://app?vid=01d67fd8-ff6a-49d8-b9b8-a97ee824ce65"},"vehicle_type_id":"4","last_reported":1746385687,"current_range_meters":14400,"station_id":"ce4bha12rcd13ifvqef0","pricing_plan_id":"cebpf4jnsgd1na2vs0mg"},{"bike_id":"187b1cce-b313-4853-9c77-2db995d3331c","system_id":"levelo_inurba_marseille","lat":43.29411,"lon":5.38628,"is_reserved":false,"is_disabled":false,"rental_uris":{"android":"levelo://app?vid=187b1cce-b313-4853-9c77-2db995d3331c","ios":"levelo://app?vid=187b1cce-b313-4853-9c77-2db995d3331c"},"vehicle_type_id":"4","last_reported":1746385687,"current_range_meters":12400,"station_id":"ce4bh2h2rcd13ifvqdh0","pricing_plan_id":"cebpf4jnsgd1na2vs0mg"},{"bike_id":"6fa37660-dd23-4a8f-8ac3-f6c97ec4896d","system_id":"levelo_inurba_marseille","lat":43.26815,"lon":5.4026,"is_reserved":false,"is_disabled":false,"rental_uris":{"android":"levelo://app?vid=6fa37660-dd23-4a8f-8ac3-f6c97ec4896d","ios":"levelo://app?vid=6fa37660-dd23-4a8f-8ac3-f6c97ec4896d"},"vehicle_type_id":"4","last_reported":1746385687,"current_range_meters":12400,"station_id":"ce501612rcd8frsf0b60","pricing_plan_id":"cebpf4jnsgd1na2vs0mg"},{"bike_id":"610f5703-5c7a-4e92-bb0e-da46bb15c29e","system_id":"levelo_inurba_marseille","lat":43.3074,"lon":5.42449,"is_reserved":false,"is_disabled":false,"rental_uris":{"android":"levelo://app?vid=610f5703-5c7a-4e92-bb0e-da46bb15c29e","ios":"levelo://app?vid=610f5703-5c7a-4e92-bb0e-da46bb15c29e"},"vehicle_type_id":"4","last_reported":1746385687,"current_range_meters":12800,"station_id":"st_cvj6ca6bvosntc0bfgr0","pricing_plan_id":"cebpf4jnsgd1na2vs0mg"},{"bike_id":"3c83177b-89b8-493c-a1f4-3a2f3dd3d8f9","system_id":"levelo_inurba_marseille","lat":43.27557,"lon":5.38425,"is_reserved":false,"is_disabled":false,"rental_uris":{"android":"levelo://app?vid=3c83177b-89b8-493c-a1f4-3a2f3dd3d8f9","ios":"levelo://app?vid=3c83177b-89b8-493c-a1f4-3a2f3dd3d8f9"},"vehicle_type_id":"4","last_reported":1746385687,"current_range_meters":12800,"station_id":"ce4bhh92rcd13ifvqfi0","pricing_plan_id":"cebpf4jnsgd1na2vs0mg"},{"bike_id":"e84eee43-7ebe-4b56-a08b-27d6e58561fd","system_id":"levelo_inurba_marseille","lat":43.24181,"lon":5.39725,"is_reserved":false,"is_disabled":false,"rental_uris":{"android":"levelo://app?vid=e84eee43-7ebe-4b56-a08b-27d6e58561fd","ios":"levelo://app?vid=e84eee43-7ebe-4b56-a08b-27d6e58561fd"},"vehicle_type_id":"4","last_reported":1746385687,"current_range_meters":12800,"station_id":"ce4bhn12rcd13ifvqgpg","pricing_plan_id":"cebpf4jnsgd1na2vs0mg"},{"bike_id":"b18ea672-ee33-41b8-8a68-e02fbf2692e9","system_id":"levelo_inurba_marseille","lat":43.29563,"lon":5.42287,"is_reserved":false,"is_disabled":false,"rental_uris":{"android":"levelo://app?vid=b18ea672-ee33-41b8-8a68-e02fbf2692e9","ios":"levelo://app?vid=b18ea672-ee33-41b8-8a68-e02fbf2692e9"},"vehicle_type_id":"4","last_reported":1746385687,"current_range_meters":12800,"station_id":"ce4bhph2rcd13ifvqhdg","pricing_plan_id":"cebpf4jnsgd1na2vs0mg"},{"bike_id":"43f220ab-0408-46b3-abe5-60437ce3bc1e","system_id":"levelo_inurba_marseille","lat":43.231889,"lon":5.355589,"is_reserved":false,"is_disabled":false,"rental_uris":{"android":"levelo://app?vid=43f220ab-0408-46b3-abe5-60437ce3bc1e","ios":"levelo://app?vid=43f220ab-0408-46b3-abe5-60437ce3bc1e"},"vehicle_type_id":"4","last_reported":1746385687,"current_range_meters":13600,"station_id":"ce4bhu92rcd13ifvqi70","pricing_plan_id":"cebpf4jnsgd1na2vs0mg"},{"bike_id":"fdef9e55-be0f-41e0-8526-8e8fa7260880","system_id":"levelo_inurba_marseille","lat":43.31288,"lon":5.37386,"is_reserved":false,"is_disabled":false,"rental_uris":{"android":"levelo://app?vid=fdef9e55-be0f-41e0-8526-8e8fa7260880","ios":"levelo://app?vid=fdef9e55-be0f-41e0-8526-8e8fa7260880"},"vehicle_type_id":"4","last_reported":1746385687,"current_range_meters":13600,"station_id":"","pricing_plan_id":"cebpf4jnsgd1na2vs0mg"},{"bike_id":"c1433ce3-c302-4d9c-89e8-03a0d20c737a","system_id":"levelo_inurba_marseille","lat":43.26956,"lon":5.38634,"is_reserved":false,"is_disabled":true,"rental_uris":{"android":"levelo://app?vid=c1433ce3-c302-4d9c-89e8-03a0d20c737a","ios":"levelo://app?vid=c1433ce3-c302-4d9c-89e8-03a0d20c737a"},"vehicle_type_id":"4","last_reported":1746385687,"current_range_meters":13600,"station_id":"ce4bhh92rcd13ifvqfh0","pricing_plan_id":"cebpf4jnsgd1na2vs0mg"},{"bike_id":"1dd5f6d8-00ae-45a5-9763-200e2daa7250","system_id":"levelo_inurba_marseille","lat":43.24074,"lon":5.37764,"is_reserved":false,"is_disabled":false,"rental_uris":{"android":"levelo://app?vid=1dd5f6d8-00ae-45a5-9763-200e2daa7250","ios":"levelo://app?vid=1dd5f6d8-00ae-45a5-9763-200e2daa7250"},"vehicle_type_id":"4","last_reported":1746385687,"current_range_meters":13600,"station_id":"ce4bhnp2rcd13ifvqgvg","pricing_plan_id":"cebpf4jnsgd1na2vs0mg"},{"bike_id":"36b7f77f-f175-4df6-b247-c1f3e04a158c","system_id":"levelo_inurba_marseille","lat":43.29874,"lon":5.39732,"is_reserved":false,"is_disabled":false,"rental_uris":{"android":"levelo://app?vid=36b7f77f-f175-4df6-b247-c1f3e04a158c","ios":"levelo://app?vid=36b7f77f-f175-4df6-b247-c1f3e04a158c"},"vehicle_type_id":"4","last_reported":1746385687,"current_range_meters":14000,"station_id":"ce4bh0h2rcd13ifvqd50","pricing_plan_id":"cebpf4jnsgd1na2vs0mg"},{"bike_id":"3b5e5bd4-77bc-46bf-a3f7-1a2080d4e5ab","system_id":"levelo_inurba_marseille","lat":43.30352,"lon":5.4188,"is_reserved":false,"is_disabled":false,"rental_uris":{"android":"levelo://app?vid=3b5e5bd4-77bc-46bf-a3f7-1a2080d4e5ab","ios":"levelo://app?vid=3b5e5bd4-77bc-46bf-a3f7-1a2080d4e5ab"},"vehicle_type_id":"4","last_reported":1746385687,"current_range_meters":14000,"station_id":"ce4bhop2rcd13ifvqh7g","pricing_plan_id":"cebpf4jnsgd1na2vs0mg"},{"bike_id":"b51df47d-9efa-43ba-bfc6-2e1ebb2534c4","system_id":"levelo_inurba_marseille","lat":43.29535,"lon":5.4228,"is_reserved":false,"is_disabled":false,"rental_uris":{"android":"levelo://app?vid=b51df47d-9efa-43ba-bfc6-2e1ebb2534c4","ios":"levelo://app?vid=b51df47d-9efa-43ba-bfc6-2e1ebb2534c4"},"vehicle_type_id":"4","last_reported":1746385687,"current_range_meters":14400,"station_id":"ce4bhph2rcd13ifvqhdg","pricing_plan_id":"cebpf4jnsgd1na2vs0mg"},{"bike_id":"0dc88917-dd7b-44eb-adcb-88df2d65fe05","system_id":"levelo_inurba_marseille","lat":43.33031,"lon":5.39039,"is_reserved":false,"is_disabled":false,"rental_uris":{"android":"levelo://app?vid=0dc88917-dd7b-44eb-adcb-88df2d65fe05","ios":"levelo://app?vid=0dc88917-dd7b-44eb-adcb-88df2d65fe05"},"vehicle_type_id":"4","last_reported":1746385687,"current_range_meters":14800,"station_id":"ce4bhr92rcd13ifvqhrg","pricing_plan_id":"cebpf4jnsgd1na2vs0mg"},{"bike_id":"578732df-51ae-47a2-8d9a-a3a489ba150f","system_id":"levelo_inurba_marseille","lat":43.29557,"lon":5.42281,"is_reserved":false,"is_disabled":true,"rental_uris":{"android":"levelo://app?vid=578732df-51ae-47a2-8d9a-a3a489ba150f","ios":"levelo://app?vid=578732df-51ae-47a2-8d9a-a3a489ba150f"},"vehicle_type_id":"4","last_reported":1746385687,"current_range_meters":14800,"station_id":"ce4bhph2rcd13ifvqhdg","pricing_plan_id":"cebpf4jnsgd1na2vs0mg"},{"bike_id":"95fbbc25-7ee6-44b2-b1a6-bbc55e06c687","system_id":"levelo_inurba_marseille","lat":43.28847,"lon":5.39308,"is_reserved":false,"is_disabled":false,"rental_uris":{"android":"levelo://app?vid=95fbbc25-7ee6-44b2-b1a6-bbc55e06c687","ios":"levelo://app?vid=95fbbc25-7ee6-44b2-b1a6-bbc55e06c687"},"vehicle_type_id":"4","last_reported":1746385687,"current_range_meters":15200,"station_id":"ce4bh2p2rcd13ifvqdi0","pricing_plan_id":"cebpf4jnsgd1na2vs0mg"},{"bike_id":"68460419-620e-49ae-bf13-6d9b1bcea99e","system_id":"levelo_inurba_marseille","lat":43.25126,"lon":5.40392,"is_reserved":false,"is_disabled":false,"rental_uris":{"android":"levelo://app?vid=68460419-620e-49ae-bf13-6d9b1bcea99e","ios":"levelo://app?vid=68460419-620e-49ae-bf13-6d9b1bcea99e"},"vehicle_type_id":"4","last_reported":1746385687,"current_range_meters":14800,"station_id":"","pricing_plan_id":"cebpf4jnsgd1na2vs0mg"},{"bike_id":"3c929388-cd4c-4edf-afa0-19a012868aa0","system_id":"levelo_inurba_marseille","lat":43.2927,"lon":5.36843,"is_reserved":false,"is_disabled":true,"rental_uris":{"android":"levelo://app?vid=3c929388-cd4c-4edf-afa0-19a012868aa0","ios":"levelo://app?vid=3c929388-cd4c-4edf-afa0-19a012868aa0"},"vehicle_type_id":"4","last_reported":1746385687,"current_range_meters":15200,"station_id":"ce4bhbp2rcd13ifvqesg","pricing_plan_id":"cebpf4jnsgd1na2vs0mg"},{"bike_id":"6541fd63-6c6b-4f6b-b5ad-83b6829727f2","system_id":"levelo_inurba_marseille","lat":43.27502,"lon":5.42448,"is_reserved":false,"is_disabled":false,"rental_uris":{"android":"levelo://app?vid=6541fd63-6c6b-4f6b-b5ad-83b6829727f2","ios":"levelo://app?vid=6541fd63-6c6b-4f6b-b5ad-83b6829727f2"},"vehicle_type_id":"4","last_reported":1746385687,"current_range_meters":15200,"station_id":"ce4bhn92rcd13ifvqgrg","pricing_plan_id":"cebpf4jnsgd1na2vs0mg"},{"bike_id":"06288a3d-b370-47ae-8fe2-3746e183dddf","system_id":"levelo_inurba_marseille","lat":43.29275,"lon":5.40121,"is_reserved":false,"is_disabled":false,"rental_uris":{"android":"levelo://app?vid=06288a3d-b370-47ae-8fe2-3746e183dddf","ios":"levelo://app?vid=06288a3d-b370-47ae-8fe2-3746e183dddf"},"vehicle_type_id":"4","last_reported":1746385687,"current_range_meters":15200,"station_id":"ce4bh312rcd13ifvqdk0","pricing_plan_id":"cebpf4jnsgd1na2vs0mg"},{"bike_id":"c934a038-999c-4097-b244-e68883d621e3","system_id":"levelo_inurba_marseille","lat":43.3056,"lon":5.36538,"is_reserved":false,"is_disabled":true,"rental_uris":{"android":"levelo://app?vid=c934a038-999c-4097-b244-e68883d621e3","ios":"levelo://app?vid=c934a038-999c-4097-b244-e68883d621e3"},"vehicle_type_id":"4","last_reported":1746385687,"current_range_meters":15200,"station_id":"ce4bgs12rcd13ifvqcag","pricing_plan_id":"cebpf4jnsgd1na2vs0mg"},{"bike_id":"d2b5b530-b376-4129-9ab7-4e79f889119f","system_id":"levelo_inurba_marseille","lat":43.28419,"lon":5.35004,"is_reserved":false,"is_disabled":false,"rental_uris":{"android":"levelo://app?vid=d2b5b530-b376-4129-9ab7-4e79f889119f","ios":"levelo://app?vid=d2b5b530-b376-4129-9ab7-4e79f889119f"},"vehicle_type_id":"4","last_reported":1746385687,"current_range_meters":15200,"station_id":"ce4bhbh2rcd13ifvqepg","pricing_plan_id":"cebpf4jnsgd1na2vs0mg"},{"bike_id":"8ab46f99-9644-474c-9745-b78357bd9ec9","system_id":"levelo_inurba_marseille","lat":43.374076,"lon":5.437939,"is_reserved":false,"is_disabled":false,"rental_uris":{"android":"levelo://app?vid=8ab46f99-9644-474c-9745-b78357bd9ec9","ios":"levelo://app?vid=8ab46f99-9644-474c-9745-b78357bd9ec9"},"vehicle_type_id":"4","last_reported":1746385687,"current_range_meters":15200,"station_id":"","pricing_plan_id":"cebpf4jnsgd1na2vs0mg"},{"bike_id":"fb80c1da-d845-467b-9c3b-2f591f4d56ae","system_id":"levelo_inurba_marseille","lat":43.323406,"lon":5.37422,"is_reserved":false,"is_disabled":false,"rental_uris":{"android":"levelo://app?vid=fb80c1da-d845-467b-9c3b-2f591f4d56ae","ios":"levelo://app?vid=fb80c1da-d845-467b-9c3b-2f591f4d56ae"},"vehicle_type_id":"4","last_reported":1746385687,"current_range_meters":16000,"station_id":"","pricing_plan_id":"cebpf4jnsgd1na2vs0mg"},{"bike_id":"6cebaf4a-3c4d-4f0a-b98f-e9c5b4472b4e","system_id":"levelo_inurba_marseille","lat":43.29222,"lon":5.360403,"is_reserved":false,"is_disabled":false,"rental_uris":{"android":"levelo://app?vid=6cebaf4a-3c4d-4f0a-b98f-e9c5b4472b4e","ios":"levelo://app?vid=6cebaf4a-3c4d-4f0a-b98f-e9c5b4472b4e"},"vehicle_type_id":"4","last_reported":1746385687,"current_range_meters":16000,"station_id":"ce4bhbh2rcd13ifvqeqg","pricing_plan_id":"cebpf4jnsgd1na2vs0mg"},{"bike_id":"3cfd85b4-3289-457b-aa94-ad4d8784794f","system_id":"levelo_inurba_marseille","lat":43.275605,"lon":5.384305,"is_reserved":false,"is_disabled":false,"rental_uris":{"android":"levelo://app?vid=3cfd85b4-3289-457b-aa94-ad4d8784794f","ios":"levelo://app?vid=3cfd85b4-3289-457b-aa94-ad4d8784794f"},"vehicle_type_id":"4","last_reported":1746385687,"current_range_meters":16000,"station_id":"ce4bhh92rcd13ifvqfi0","pricing_plan_id":"cebpf4jnsgd1na2vs0mg"},{"bike_id":"9f9ecf83-c628-4afc-b9ec-58af89127a46","system_id":"levelo_inurba_marseille","lat":43.295959,"lon":5.381078,"is_reserved":false,"is_disabled":false,"rental_uris":{"android":"levelo://app?vid=9f9ecf83-c628-4afc-b9ec-58af89127a46","ios":"levelo://app?vid=9f9ecf83-c628-4afc-b9ec-58af89127a46"},"vehicle_type_id":"4","last_reported":1746385687,"current_range_meters":16400,"station_id":"ce4bgl12rcd13ifvqbo0","pricing_plan_id":"cebpf4jnsgd1na2vs0mg"},{"bike_id":"e56f6494-ed1b-4c64-8276-3a721b7cfa65","system_id":"levelo_inurba_marseille","lat":43.29037,"lon":5.3996,"is_reserved":false,"is_disabled":false,"rental_uris":{"android":"levelo://app?vid=e56f6494-ed1b-4c64-8276-3a721b7cfa65","ios":"levelo://app?vid=e56f6494-ed1b-4c64-8276-3a721b7cfa65"},"vehicle_type_id":"4","last_reported":1746385687,"current_range_meters":16400,"station_id":"ce4bh392rcd13ifvqdm0","pricing_plan_id":"cebpf4jnsgd1na2vs0mg"},{"bike_id":"e2e3db7d-13cc-4992-9a60-12066a6178a7","system_id":"levelo_inurba_marseille","lat":43.28073,"lon":5.3966,"is_reserved":false,"is_disabled":false,"rental_uris":{"android":"levelo://app?vid=e2e3db7d-13cc-4992-9a60-12066a6178a7","ios":"levelo://app?vid=e2e3db7d-13cc-4992-9a60-12066a6178a7"},"vehicle_type_id":"4","last_reported":1746385687,"current_range_meters":16400,"station_id":"ce4bho12rcd13ifvqh2g","pricing_plan_id":"cebpf4jnsgd1na2vs0mg"},{"bike_id":"c0ea9409-16e1-42da-81e6-bdf219e83be6","system_id":"levelo_inurba_marseille","lat":43.25863,"lon":5.39917,"is_reserved":false,"is_disabled":false,"rental_uris":{"android":"levelo://app?vid=c0ea9409-16e1-42da-81e6-bdf219e83be6","ios":"levelo://app?vid=c0ea9409-16e1-42da-81e6-bdf219e83be6"},"vehicle_type_id":"4","last_reported":1746385687,"current_range_meters":16400,"station_id":"ce4bhl92rcd13ifvqghg","pricing_plan_id":"cebpf4jnsgd1na2vs0mg"},{"bike_id":"cb0a7ff5-b4ff-4d3e-8306-c149ade4bdfb","system_id":"levelo_inurba_marseille","lat":43.27196,"lon":5.39225,"is_reserved":false,"is_disabled":true,"rental_uris":{"android":"levelo://app?vid=cb0a7ff5-b4ff-4d3e-8306-c149ade4bdfb","ios":"levelo://app?vid=cb0a7ff5-b4ff-4d3e-8306-c149ade4bdfb"},"vehicle_type_id":"4","last_reported":1746385687,"current_range_meters":16400,"station_id":"ce4bhhp2rcd13ifvqfm0","pricing_plan_id":"cebpf4jnsgd1na2vs0mg"},{"bike_id":"37c6684c-8b36-4fd4-9901-e8ae133092d9","system_id":"levelo_inurba_marseille","lat":43.28032,"lon":5.36949,"is_reserved":false,"is_disabled":false,"rental_uris":{"android":"levelo://app?vid=37c6684c-8b36-4fd4-9901-e8ae133092d9","ios":"levelo://app?vid=37c6684c-8b36-4fd4-9901-e8ae133092d9"},"vehicle_type_id":"4","last_reported":1746385687,"current_range_meters":16400,"station_id":"ce4bha12rcd13ifvqef0","pricing_plan_id":"cebpf4jnsgd1na2vs0mg"},{"bike_id":"0a0ece37-539d-4aa3-b235-deb8a4daf593","system_id":"levelo_inurba_marseille","lat":43.3307,"lon":5.40848,"is_reserved":false,"is_disabled":false,"rental_uris":{"android":"levelo://app?vid=0a0ece37-539d-4aa3-b235-deb8a4daf593","ios":"levelo://app?vid=0a0ece37-539d-4aa3-b235-deb8a4daf593"},"vehicle_type_id":"4","last_reported":1746385687,"current_range_meters":16400,"station_id":"","pricing_plan_id":"cebpf4jnsgd1na2vs0mg"},{"bike_id":"6f1882db-a6b7-4b53-bae0-69b1cb472c90","system_id":"levelo_inurba_marseille","lat":43.30306,"lon":5.39214,"is_reserved":false,"is_disabled":false,"rental_uris":{"android":"levelo://app?vid=6f1882db-a6b7-4b53-bae0-69b1cb472c90","ios":"levelo://app?vid=6f1882db-a6b7-4b53-bae0-69b1cb472c90"},"vehicle_type_id":"4","last_reported":1746385687,"current_range_meters":16800,"station_id":"ce4bgkh2rcd13ifvqbk0","pricing_plan_id":"cebpf4jnsgd1na2vs0mg"},{"bike_id":"cf91e37a-42cb-40a8-9a27-071c7ed6b022","system_id":"levelo_inurba_marseille","lat":43.29017,"lon":5.35619,"is_reserved":false,"is_disabled":true,"rental_uris":{"android":"levelo://app?vid=cf91e37a-42cb-40a8-9a27-071c7ed6b022","ios":"levelo://app?vid=cf91e37a-42cb-40a8-9a27-071c7ed6b022"},"vehicle_type_id":"4","last_reported":1746385687,"current_range_meters":16800,"station_id":"ce4bhb92rcd13ifvqen0","pricing_plan_id":"cebpf4jnsgd1na2vs0mg"},{"bike_id":"1885e4e4-787e-4399-a182-13afb5671e8f","system_id":"levelo_inurba_marseille","lat":43.31771,"lon":5.39006,"is_reserved":false,"is_disabled":false,"rental_uris":{"android":"levelo://app?vid=1885e4e4-787e-4399-a182-13afb5671e8f","ios":"levelo://app?vid=1885e4e4-787e-4399-a182-13afb5671e8f"},"vehicle_type_id":"4","last_reported":1746385687,"current_range_meters":16800,"station_id":"ce4bhqp2rcd13ifvqhng","pricing_plan_id":"cebpf4jnsgd1na2vs0mg"},{"bike_id":"336c6afb-1b51-4cba-a855-ea7fe0b45e0a","system_id":"levelo_inurba_marseille","lat":43.29266,"lon":5.3764,"is_reserved":false,"is_disabled":false,"rental_uris":{"android":"levelo://app?vid=336c6afb-1b51-4cba-a855-ea7fe0b45e0a","ios":"levelo://app?vid=336c6afb-1b51-4cba-a855-ea7fe0b45e0a"},"vehicle_type_id":"4","last_reported":1746385687,"current_range_meters":16800,"station_id":"ce4bgi12rcd13ifvqb80","pricing_plan_id":"cebpf4jnsgd1na2vs0mg"},{"bike_id":"832d3a9c-4468-49ed-84f9-12dc996c9277","system_id":"levelo_inurba_marseille","lat":43.29572,"lon":5.37521,"is_reserved":false,"is_disabled":false,"rental_uris":{"android":"levelo://app?vid=832d3a9c-4468-49ed-84f9-12dc996c9277","ios":"levelo://app?vid=832d3a9c-4468-49ed-84f9-12dc996c9277"},"vehicle_type_id":"4","last_reported":1746385687,"current_range_meters":16800,"station_id":"ce4bgh92rcd13ifvqb50","pricing_plan_id":"cebpf4jnsgd1na2vs0mg"},{"bike_id":"b3cbb21e-793f-478c-9965-8205d52774c6","system_id":"levelo_inurba_marseille","lat":43.307331,"lon":5.424353,"is_reserved":false,"is_disabled":false,"rental_uris":{"android":"levelo://app?vid=b3cbb21e-793f-478c-9965-8205d52774c6","ios":"levelo://app?vid=b3cbb21e-793f-478c-9965-8205d52774c6"},"vehicle_type_id":"4","last_reported":1746385687,"current_range_meters":16800,"station_id":"st_cvj6ca6bvosntc0bfgr0","pricing_plan_id":"cebpf4jnsgd1na2vs0mg"},{"bike_id":"db87035f-2a4e-45d5-846c-2dfa457a5388","system_id":"levelo_inurba_marseille","lat":43.30594,"lon":5.39359,"is_reserved":false,"is_disabled":false,"rental_uris":{"android":"levelo://app?vid=db87035f-2a4e-45d5-846c-2dfa457a5388","ios":"levelo://app?vid=db87035f-2a4e-45d5-846c-2dfa457a5388"},"vehicle_type_id":"4","last_reported":1746385687,"current_range_meters":16800,"station_id":"ce4bh0p2rcd13ifvqd80","pricing_plan_id":"cebpf4jnsgd1na2vs0mg"},{"bike_id":"cd0f5b67-d590-4e7c-9bf2-7d7bda51a442","system_id":"levelo_inurba_marseille","lat":43.29605,"lon":5.38117,"is_reserved":false,"is_disabled":false,"rental_uris":{"android":"levelo://app?vid=cd0f5b67-d590-4e7c-9bf2-7d7bda51a442","ios":"levelo://app?vid=cd0f5b67-d590-4e7c-9bf2-7d7bda51a442"},"vehicle_type_id":"4","last_reported":1746385687,"current_range_meters":16800,"station_id":"ce4bgl12rcd13ifvqbo0","pricing_plan_id":"cebpf4jnsgd1na2vs0mg"},{"bike_id":"8c7ddfaf-ebd5-4bef-8d34-fba4e36cc46a","system_id":"levelo_inurba_marseille","lat":43.31999,"lon":5.38162,"is_reserved":false,"is_disabled":false,"rental_uris":{"android":"levelo://app?vid=8c7ddfaf-ebd5-4bef-8d34-fba4e36cc46a","ios":"levelo://app?vid=8c7ddfaf-ebd5-4bef-8d34-fba4e36cc46a"},"vehicle_type_id":"4","last_reported":1746385687,"current_range_meters":17200,"station_id":"ce4bhr12rcd13ifvqhpg","pricing_plan_id":"cebpf4jnsgd1na2vs0mg"},{"bike_id":"89c1c22e-4deb-4a12-b25d-9d0f09a1f79b","system_id":"levelo_inurba_marseille","lat":43.21752,"lon":5.34601,"is_reserved":false,"is_disabled":false,"rental_uris":{"android":"levelo://app?vid=89c1c22e-4deb-4a12-b25d-9d0f09a1f79b","ios":"levelo://app?vid=89c1c22e-4deb-4a12-b25d-9d0f09a1f79b"},"vehicle_type_id":"4","last_reported":1746385687,"current_range_meters":17200,"station_id":"st_cvj6r9ubvosntc0bgbag","pricing_plan_id":"cebpf4jnsgd1na2vs0mg"},{"bike_id":"3ff1331f-d2b9-4db6-9af0-17b5a04341a5","system_id":"levelo_inurba_marseille","lat":43.24324,"lon":5.38017,"is_reserved":false,"is_disabled":false,"rental_uris":{"android":"levelo://app?vid=3ff1331f-d2b9-4db6-9af0-17b5a04341a5","ios":"levelo://app?vid=3ff1331f-d2b9-4db6-9af0-17b5a04341a5"},"vehicle_type_id":"4","last_reported":1746385687,"current_range_meters":17200,"station_id":"","pricing_plan_id":"cebpf4jnsgd1na2vs0mg"},{"bike_id":"d252a272-7b85-44ee-b117-a17b072d1a91","system_id":"levelo_inurba_marseille","lat":43.21757,"lon":5.34597,"is_reserved":false,"is_disabled":false,"rental_uris":{"android":"levelo://app?vid=d252a272-7b85-44ee-b117-a17b072d1a91","ios":"levelo://app?vid=d252a272-7b85-44ee-b117-a17b072d1a91"},"vehicle_type_id":"4","last_reported":1746385687,"current_range_meters":17200,"station_id":"st_cvj6r9ubvosntc0bgbag","pricing_plan_id":"cebpf4jnsgd1na2vs0mg"},{"bike_id":"12e8f0e2-48a3-4865-bb8c-a620f19384c3","system_id":"levelo_inurba_marseille","lat":43.2901,"lon":5.35628,"is_reserved":false,"is_disabled":true,"rental_uris":{"android":"levelo://app?vid=12e8f0e2-48a3-4865-bb8c-a620f19384c3","ios":"levelo://app?vid=12e8f0e2-48a3-4865-bb8c-a620f19384c3"},"vehicle_type_id":"4","last_reported":1746385687,"current_range_meters":17200,"station_id":"ce4bhb92rcd13ifvqen0","pricing_plan_id":"cebpf4jnsgd1na2vs0mg"},{"bike_id":"cea2d1ab-0369-443b-a0dd-65b1bace6938","system_id":"levelo_inurba_marseille","lat":43.29973,"lon":5.38483,"is_reserved":false,"is_disabled":false,"rental_uris":{"android":"levelo://app?vid=cea2d1ab-0369-443b-a0dd-65b1bace6938","ios":"levelo://app?vid=cea2d1ab-0369-443b-a0dd-65b1bace6938"},"vehicle_type_id":"4","last_reported":1746385687,"current_range_meters":17200,"station_id":"ce4bgj92rcd13ifvqbd0","pricing_plan_id":"cebpf4jnsgd1na2vs0mg"},{"bike_id":"5a6f8d73-db15-49dc-a2f9-998d5fa40d01","system_id":"levelo_inurba_marseille","lat":43.31357,"lon":5.38489,"is_reserved":false,"is_disabled":false,"rental_uris":{"android":"levelo://app?vid=5a6f8d73-db15-49dc-a2f9-998d5fa40d01","ios":"levelo://app?vid=5a6f8d73-db15-49dc-a2f9-998d5fa40d01"},"vehicle_type_id":"4","last_reported":1746385687,"current_range_meters":17200,"station_id":"ce4bgt92rcd13ifvqcf0","pricing_plan_id":"cebpf4jnsgd1na2vs0mg"},{"bike_id":"c9394fbd-97a4-4e15-a477-2051d3730e75","system_id":"levelo_inurba_marseille","lat":43.33609,"lon":5.41038,"is_reserved":false,"is_disabled":false,"rental_uris":{"android":"levelo://app?vid=c9394fbd-97a4-4e15-a477-2051d3730e75","ios":"levelo://app?vid=c9394fbd-97a4-4e15-a477-2051d3730e75"},"vehicle_type_id":"4","last_reported":1746385687,"current_range_meters":18800,"station_id":"ce4bhqh2rcd13ifvqhmg","pricing_plan_id":"cebpf4jnsgd1na2vs0mg"},{"bike_id":"7ad04c1b-fc26-4c94-a72f-89c6e3ca5c32","system_id":"levelo_inurba_marseille","lat":43.31191,"lon":5.40765,"is_reserved":false,"is_disabled":false,"rental_uris":{"android":"levelo://app?vid=7ad04c1b-fc26-4c94-a72f-89c6e3ca5c32","ios":"levelo://app?vid=7ad04c1b-fc26-4c94-a72f-89c6e3ca5c32"},"vehicle_type_id":"4","last_reported":1746385687,"current_range_meters":17600,"station_id":"","pricing_plan_id":"cebpf4jnsgd1na2vs0mg"},{"bike_id":"a7393548-1ca4-426f-bec8-e094325f844e","system_id":"levelo_inurba_marseille","lat":43.26305,"lon":5.37423,"is_reserved":false,"is_disabled":false,"rental_uris":{"android":"levelo://app?vid=a7393548-1ca4-426f-bec8-e094325f844e","ios":"levelo://app?vid=a7393548-1ca4-426f-bec8-e094325f844e"},"vehicle_type_id":"4","last_reported":1746385687,"current_range_meters":17600,"station_id":"","pricing_plan_id":"cebpf4jnsgd1na2vs0mg"},{"bike_id":"9f28a669-d18b-420b-964c-ac94e6fdf85f","system_id":"levelo_inurba_marseille","lat":43.21747,"lon":5.34604,"is_reserved":false,"is_disabled":false,"rental_uris":{"android":"levelo://app?vid=9f28a669-d18b-420b-964c-ac94e6fdf85f","ios":"levelo://app?vid=9f28a669-d18b-420b-964c-ac94e6fdf85f"},"vehicle_type_id":"4","last_reported":1746385687,"current_range_meters":17600,"station_id":"","pricing_plan_id":"cebpf4jnsgd1na2vs0mg"},{"bike_id":"65808fbe-2959-42e9-a56a-88f03257b471","system_id":"levelo_inurba_marseille","lat":43.31999,"lon":5.38165,"is_reserved":false,"is_disabled":false,"rental_uris":{"android":"levelo://app?vid=65808fbe-2959-42e9-a56a-88f03257b471","ios":"levelo://app?vid=65808fbe-2959-42e9-a56a-88f03257b471"},"vehicle_type_id":"4","last_reported":1746385687,"current_range_meters":17600,"station_id":"ce4bhr12rcd13ifvqhpg","pricing_plan_id":"cebpf4jnsgd1na2vs0mg"},{"bike_id":"e9055692-0f04-4a8d-a93f-32236ce45be9","system_id":"levelo_inurba_marseille","lat":43.30306,"lon":5.39215,"is_reserved":false,"is_disabled":false,"rental_uris":{"android":"levelo://app?vid=e9055692-0f04-4a8d-a93f-32236ce45be9","ios":"levelo://app?vid=e9055692-0f04-4a8d-a93f-32236ce45be9"},"vehicle_type_id":"4","last_reported":1746385687,"current_range_meters":17600,"station_id":"ce4bgkh2rcd13ifvqbk0","pricing_plan_id":"cebpf4jnsgd1na2vs0mg"},{"bike_id":"8e69649f-d5a0-4ead-b212-c5b5612beda7","system_id":"levelo_inurba_marseille","lat":43.2549,"lon":5.37678,"is_reserved":false,"is_disabled":true,"rental_uris":{"android":"levelo://app?vid=8e69649f-d5a0-4ead-b212-c5b5612beda7","ios":"levelo://app?vid=8e69649f-d5a0-4ead-b212-c5b5612beda7"},"vehicle_type_id":"4","last_reported":1746385687,"current_range_meters":17600,"station_id":"ce4bhh12rcd13ifvqff0","pricing_plan_id":"cebpf4jnsgd1na2vs0mg"},{"bike_id":"70e9687d-37a5-413d-8f31-7b67ff3c21fb","system_id":"levelo_inurba_marseille","lat":43.23176,"lon":5.39986,"is_reserved":false,"is_disabled":false,"rental_uris":{"android":"levelo://app?vid=70e9687d-37a5-413d-8f31-7b67ff3c21fb","ios":"levelo://app?vid=70e9687d-37a5-413d-8f31-7b67ff3c21fb"},"vehicle_type_id":"4","last_reported":1746385687,"current_range_meters":18000,"station_id":"ce4bhn12rcd13ifvqgqg","pricing_plan_id":"cebpf4jnsgd1na2vs0mg"},{"bike_id":"f589fc42-057a-43b9-81ad-55c2a575aecf","system_id":"levelo_inurba_marseille","lat":43.31066,"lon":5.38352,"is_reserved":false,"is_disabled":true,"rental_uris":{"android":"levelo://app?vid=f589fc42-057a-43b9-81ad-55c2a575aecf","ios":"levelo://app?vid=f589fc42-057a-43b9-81ad-55c2a575aecf"},"vehicle_type_id":"4","last_reported":1746385687,"current_range_meters":18000,"station_id":"ce4bgv92rcd13ifvqcr0","pricing_plan_id":"cebpf4jnsgd1na2vs0mg"},{"bike_id":"8c287204-c645-441d-a2bb-d4c71ca69bc4","system_id":"levelo_inurba_marseille","lat":43.31165,"lon":5.38723,"is_reserved":false,"is_disabled":false,"rental_uris":{"android":"levelo://app?vid=8c287204-c645-441d-a2bb-d4c71ca69bc4","ios":"levelo://app?vid=8c287204-c645-441d-a2bb-d4c71ca69bc4"},"vehicle_type_id":"4","last_reported":1746385687,"current_range_meters":18000,"station_id":"ce4bgv12rcd13ifvqcp0","pricing_plan_id":"cebpf4jnsgd1na2vs0mg"},{"bike_id":"a8a5d03d-9153-4179-835f-415d347401e8","system_id":"levelo_inurba_marseille","lat":43.29588,"lon":5.42245,"is_reserved":false,"is_disabled":false,"rental_uris":{"android":"levelo://app?vid=a8a5d03d-9153-4179-835f-415d347401e8","ios":"levelo://app?vid=a8a5d03d-9153-4179-835f-415d347401e8"},"vehicle_type_id":"4","last_reported":1746385687,"current_range_meters":18000,"station_id":"","pricing_plan_id":"cebpf4jnsgd1na2vs0mg"},{"bike_id":"6100dd84-caa6-4dde-9be0-3f5453c6b6a7","system_id":"levelo_inurba_marseille","lat":43.31536,"lon":5.38078,"is_reserved":false,"is_disabled":false,"rental_uris":{"android":"levelo://app?vid=6100dd84-caa6-4dde-9be0-3f5453c6b6a7","ios":"levelo://app?vid=6100dd84-caa6-4dde-9be0-3f5453c6b6a7"},"vehicle_type_id":"4","last_reported":1746385687,"current_range_meters":18000,"station_id":"ce4bhsp2rcd13ifvqi50","pricing_plan_id":"cebpf4jnsgd1na2vs0mg"},{"bike_id":"f662e7cd-b4d2-4ab5-9419-ae14f3c0e84b","system_id":"levelo_inurba_marseille","lat":43.29261,"lon":5.37629,"is_reserved":false,"is_disabled":false,"rental_uris":{"android":"levelo://app?vid=f662e7cd-b4d2-4ab5-9419-ae14f3c0e84b","ios":"levelo://app?vid=f662e7cd-b4d2-4ab5-9419-ae14f3c0e84b"},"vehicle_type_id":"4","last_reported":1746385687,"current_range_meters":18000,"station_id":"ce4bgi12rcd13ifvqb80","pricing_plan_id":"cebpf4jnsgd1na2vs0mg"},{"bike_id":"0fbca609-5b9e-40ef-9a93-5ffd1b8d9899","system_id":"levelo_inurba_marseille","lat":43.31068,"lon":5.38643,"is_reserved":false,"is_disabled":false,"rental_uris":{"android":"levelo://app?vid=0fbca609-5b9e-40ef-9a93-5ffd1b8d9899","ios":"levelo://app?vid=0fbca609-5b9e-40ef-9a93-5ffd1b8d9899"},"vehicle_type_id":"4","last_reported":1746385687,"current_range_meters":18000,"station_id":"","pricing_plan_id":"cebpf4jnsgd1na2vs0mg"},{"bike_id":"742bc1c7-bf86-452a-ae39-39d21f2ac124","system_id":"levelo_inurba_marseille","lat":43.24177,"lon":5.36387,"is_reserved":false,"is_disabled":false,"rental_uris":{"android":"levelo://app?vid=742bc1c7-bf86-452a-ae39-39d21f2ac124","ios":"levelo://app?vid=742bc1c7-bf86-452a-ae39-39d21f2ac124"},"vehicle_type_id":"4","last_reported":1746385687,"current_range_meters":18000,"station_id":"cpo36qri1sfpv3e86is0","pricing_plan_id":"cebpf4jnsgd1na2vs0mg"},{"bike_id":"2dbfb6b4-7a0a-4c32-98d0-f7f1885a68c2","system_id":"levelo_inurba_marseille","lat":43.294216,"lon":5.386222,"is_reserved":false,"is_disabled":false,"rental_uris":{"android":"levelo://app?vid=2dbfb6b4-7a0a-4c32-98d0-f7f1885a68c2","ios":"levelo://app?vid=2dbfb6b4-7a0a-4c32-98d0-f7f1885a68c2"},"vehicle_type_id":"4","last_reported":1746385687,"current_range_meters":18000,"station_id":"ce4bh2h2rcd13ifvqdh0","pricing_plan_id":"cebpf4jnsgd1na2vs0mg"},{"bike_id":"320834c3-0b91-4c40-9f98-67bfe2450ea4","system_id":"levelo_inurba_marseille","lat":43.29576,"lon":5.38095,"is_reserved":false,"is_disabled":false,"rental_uris":{"android":"levelo://app?vid=320834c3-0b91-4c40-9f98-67bfe2450ea4","ios":"levelo://app?vid=320834c3-0b91-4c40-9f98-67bfe2450ea4"},"vehicle_type_id":"4","last_reported":1746385687,"current_range_meters":18000,"station_id":"ce4bgl12rcd13ifvqbo0","pricing_plan_id":"cebpf4jnsgd1na2vs0mg"},{"bike_id":"bbba4a42-41f1-4d4c-a0ec-15062e1d6496","system_id":"levelo_inurba_marseille","lat":43.30808,"lon":5.43514,"is_reserved":false,"is_disabled":false,"rental_uris":{"android":"levelo://app?vid=bbba4a42-41f1-4d4c-a0ec-15062e1d6496","ios":"levelo://app?vid=bbba4a42-41f1-4d4c-a0ec-15062e1d6496"},"vehicle_type_id":"4","last_reported":1746385687,"current_range_meters":18800,"station_id":"ce4bhph2rcd13ifvqheg","pricing_plan_id":"cebpf4jnsgd1na2vs0mg"},{"bike_id":"61d20fe5-7130-4d3d-bceb-a637547ea361","system_id":"levelo_inurba_marseille","lat":43.28168,"lon":5.42634,"is_reserved":false,"is_disabled":false,"rental_uris":{"android":"levelo://app?vid=61d20fe5-7130-4d3d-bceb-a637547ea361","ios":"levelo://app?vid=61d20fe5-7130-4d3d-bceb-a637547ea361"},"vehicle_type_id":"4","last_reported":1746385687,"current_range_meters":18800,"station_id":"ce4bhnh2rcd13ifvqgug","pricing_plan_id":"cebpf4jnsgd1na2vs0mg"},{"bike_id":"574f9534-6b0b-43b3-a942-c6870095631b","system_id":"levelo_inurba_marseille","lat":43.28608,"lon":5.37062,"is_reserved":false,"is_disabled":true,"rental_uris":{"android":"levelo://app?vid=574f9534-6b0b-43b3-a942-c6870095631b","ios":"levelo://app?vid=574f9534-6b0b-43b3-a942-c6870095631b"},"vehicle_type_id":"4","last_reported":1746385687,"current_range_meters":18800,"station_id":"","pricing_plan_id":"cebpf4jnsgd1na2vs0mg"},{"bike_id":"db0e0ddb-0230-4f44-ba3e-6dcb98b952cd","system_id":"levelo_inurba_marseille","lat":43.23198,"lon":5.35539,"is_reserved":false,"is_disabled":true,"rental_uris":{"android":"levelo://app?vid=db0e0ddb-0230-4f44-ba3e-6dcb98b952cd","ios":"levelo://app?vid=db0e0ddb-0230-4f44-ba3e-6dcb98b952cd"},"vehicle_type_id":"4","last_reported":1746385687,"current_range_meters":18800,"station_id":"ce4bhu92rcd13ifvqi70","pricing_plan_id":"cebpf4jnsgd1na2vs0mg"},{"bike_id":"a97cbda7-00d9-4765-a695-ace3386260e7","system_id":"levelo_inurba_marseille","lat":43.2743,"lon":5.39418,"is_reserved":false,"is_disabled":false,"rental_uris":{"android":"levelo://app?vid=a97cbda7-00d9-4765-a695-ace3386260e7","ios":"levelo://app?vid=a97cbda7-00d9-4765-a695-ace3386260e7"},"vehicle_type_id":"4","last_reported":1746385687,"current_range_meters":18800,"station_id":"ce4bhdp2rcd13ifvqf20","pricing_plan_id":"cebpf4jnsgd1na2vs0mg"},{"bike_id":"5a566878-9c0c-4341-873f-c9dd3e9f33d7","system_id":"levelo_inurba_marseille","lat":43.250703,"lon":5.395126,"is_reserved":false,"is_disabled":false,"rental_uris":{"android":"levelo://app?vid=5a566878-9c0c-4341-873f-c9dd3e9f33d7","ios":"levelo://app?vid=5a566878-9c0c-4341-873f-c9dd3e9f33d7"},"vehicle_type_id":"4","last_reported":1746385687,"current_range_meters":18800,"station_id":"ce4bhm12rcd13ifvqgkg","pricing_plan_id":"cebpf4jnsgd1na2vs0mg"},{"bike_id":"891a748b-bb8a-41ba-acea-b9e8a952878f","system_id":"levelo_inurba_marseille","lat":43.28402,"lon":5.37539,"is_reserved":false,"is_disabled":true,"rental_uris":{"android":"levelo://app?vid=891a748b-bb8a-41ba-acea-b9e8a952878f","ios":"levelo://app?vid=891a748b-bb8a-41ba-acea-b9e8a952878f"},"vehicle_type_id":"4","last_reported":1746385687,"current_range_meters":18800,"station_id":"ce4bh412rcd13ifvqds0","pricing_plan_id":"cebpf4jnsgd1na2vs0mg"},{"bike_id":"3bf96f6c-1138-425e-99d5-253ba6181d5e","system_id":"levelo_inurba_marseille","lat":43.30428,"lon":5.39849,"is_reserved":false,"is_disabled":true,"rental_uris":{"android":"levelo://app?vid=3bf96f6c-1138-425e-99d5-253ba6181d5e","ios":"levelo://app?vid=3bf96f6c-1138-425e-99d5-253ba6181d5e"},"vehicle_type_id":"4","last_reported":1746385687,"current_range_meters":19200,"station_id":"","pricing_plan_id":"cebpf4jnsgd1na2vs0mg"},{"bike_id":"246435ac-b00f-4f52-8876-4463ebe7068b","system_id":"levelo_inurba_marseille","lat":43.29617,"lon":5.38424,"is_reserved":false,"is_disabled":false,"rental_uris":{"android":"levelo://app?vid=246435ac-b00f-4f52-8876-4463ebe7068b","ios":"levelo://app?vid=246435ac-b00f-4f52-8876-4463ebe7068b"},"vehicle_type_id":"4","last_reported":1746385687,"current_range_meters":19200,"station_id":"","pricing_plan_id":"cebpf4jnsgd1na2vs0mg"},{"bike_id":"9fa4dbac-ad09-473f-8c9f-dc555535dd4a","system_id":"levelo_inurba_marseille","lat":43.31716,"lon":5.3776,"is_reserved":false,"is_disabled":true,"rental_uris":{"android":"levelo://app?vid=9fa4dbac-ad09-473f-8c9f-dc555535dd4a","ios":"levelo://app?vid=9fa4dbac-ad09-473f-8c9f-dc555535dd4a"},"vehicle_type_id":"4","last_reported":1746385687,"current_range_meters":19200,"station_id":"ce4bgth2rcd13ifvqch0","pricing_plan_id":"cebpf4jnsgd1na2vs0mg"},{"bike_id":"585502e4-3dd6-4351-87ec-b283f02cf6fe","system_id":"levelo_inurba_marseille","lat":43.26196,"lon":5.37449,"is_reserved":false,"is_disabled":false,"rental_uris":{"android":"levelo://app?vid=585502e4-3dd6-4351-87ec-b283f02cf6fe","ios":"levelo://app?vid=585502e4-3dd6-4351-87ec-b283f02cf6fe"},"vehicle_type_id":"4","last_reported":1746385687,"current_range_meters":19200,"station_id":"ce4bhgp2rcd13ifvqfc0","pricing_plan_id":"cebpf4jnsgd1na2vs0mg"},{"bike_id":"ef7522cc-8014-40bc-9598-b978ef8d62ed","system_id":"levelo_inurba_marseille","lat":43.30232,"lon":5.40074,"is_reserved":false,"is_disabled":true,"rental_uris":{"android":"levelo://app?vid=ef7522cc-8014-40bc-9598-b978ef8d62ed","ios":"levelo://app?vid=ef7522cc-8014-40bc-9598-b978ef8d62ed"},"vehicle_type_id":"4","last_reported":1746385687,"current_range_meters":19200,"station_id":"ce4bgvh2rcd13ifvqcs0","pricing_plan_id":"cebpf4jnsgd1na2vs0mg"},{"bike_id":"1bc89dec-24f6-4cf3-9a07-0634e2bc1366","system_id":"levelo_inurba_marseille","lat":43.231864,"lon":5.39989,"is_reserved":false,"is_disabled":false,"rental_uris":{"android":"levelo://app?vid=1bc89dec-24f6-4cf3-9a07-0634e2bc1366","ios":"levelo://app?vid=1bc89dec-24f6-4cf3-9a07-0634e2bc1366"},"vehicle_type_id":"4","last_reported":1746385687,"current_range_meters":19200,"station_id":"ce4bhn12rcd13ifvqgqg","pricing_plan_id":"cebpf4jnsgd1na2vs0mg"},{"bike_id":"4d4b6c1c-0bf9-41e9-a94a-8d185d7d37f3","system_id":"levelo_inurba_marseille","lat":43.30247,"lon":5.40089,"is_reserved":false,"is_disabled":false,"rental_uris":{"android":"levelo://app?vid=4d4b6c1c-0bf9-41e9-a94a-8d185d7d37f3","ios":"levelo://app?vid=4d4b6c1c-0bf9-41e9-a94a-8d185d7d37f3"},"vehicle_type_id":"4","last_reported":1746385687,"current_range_meters":19200,"station_id":"ce4bgvh2rcd13ifvqcs0","pricing_plan_id":"cebpf4jnsgd1na2vs0mg"},{"bike_id":"0a0a6079-47ca-4582-8ee5-7da92c23e6f7","system_id":"levelo_inurba_marseille","lat":43.23187,"lon":5.39994,"is_reserved":false,"is_disabled":false,"rental_uris":{"android":"levelo://app?vid=0a0a6079-47ca-4582-8ee5-7da92c23e6f7","ios":"levelo://app?vid=0a0a6079-47ca-4582-8ee5-7da92c23e6f7"},"vehicle_type_id":"4","last_reported":1746385687,"current_range_meters":19200,"station_id":"ce4bhn12rcd13ifvqgqg","pricing_plan_id":"cebpf4jnsgd1na2vs0mg"},{"bike_id":"f6990bbf-7200-4595-9d3c-805bae17a99e","system_id":"levelo_inurba_marseille","lat":43.22495,"lon":5.34779,"is_reserved":false,"is_disabled":false,"rental_uris":{"android":"levelo://app?vid=f6990bbf-7200-4595-9d3c-805bae17a99e","ios":"levelo://app?vid=f6990bbf-7200-4595-9d3c-805bae17a99e"},"vehicle_type_id":"4","last_reported":1746385687,"current_range_meters":19200,"station_id":"","pricing_plan_id":"cebpf4jnsgd1na2vs0mg"},{"bike_id":"a3eccdb9-63c9-4af7-a546-62ce7eea30d4","system_id":"levelo_inurba_marseille","lat":43.290674,"lon":5.371537,"is_reserved":false,"is_disabled":true,"rental_uris":{"android":"levelo://app?vid=a3eccdb9-63c9-4af7-a546-62ce7eea30d4","ios":"levelo://app?vid=a3eccdb9-63c9-4af7-a546-62ce7eea30d4"},"vehicle_type_id":"4","last_reported":1746385687,"current_range_meters":19200,"station_id":"ce4bh5p2rcd13ifvqe4g","pricing_plan_id":"cebpf4jnsgd1na2vs0mg"},{"bike_id":"be08d0c5-8233-46ce-a16a-10ba0e6ee589","system_id":"levelo_inurba_marseille","lat":43.26904,"lon":5.38688,"is_reserved":false,"is_disabled":true,"rental_uris":{"android":"levelo://app?vid=be08d0c5-8233-46ce-a16a-10ba0e6ee589","ios":"levelo://app?vid=be08d0c5-8233-46ce-a16a-10ba0e6ee589"},"vehicle_type_id":"4","last_reported":1746385687,"current_range_meters":19600,"station_id":"","pricing_plan_id":"cebpf4jnsgd1na2vs0mg"},{"bike_id":"4fcf4a37-714c-4157-8e65-c52b6cb2fd93","system_id":"levelo_inurba_marseille","lat":43.296173,"lon":5.37155,"is_reserved":false,"is_disabled":false,"rental_uris":{"android":"levelo://app?vid=4fcf4a37-714c-4157-8e65-c52b6cb2fd93","ios":"levelo://app?vid=4fcf4a37-714c-4157-8e65-c52b6cb2fd93"},"vehicle_type_id":"4","last_reported":1746385687,"current_range_meters":19200,"station_id":"ce4bgnh2rcd13ifvqc0g","pricing_plan_id":"cebpf4jnsgd1na2vs0mg"},{"bike_id":"5ea3604c-085b-4c50-95e6-92da2061d02f","system_id":"levelo_inurba_marseille","lat":43.29422,"lon":5.38606,"is_reserved":false,"is_disabled":true,"rental_uris":{"android":"levelo://app?vid=5ea3604c-085b-4c50-95e6-92da2061d02f","ios":"levelo://app?vid=5ea3604c-085b-4c50-95e6-92da2061d02f"},"vehicle_type_id":"4","last_reported":1746385687,"current_range_meters":19600,"station_id":"ce4bh2h2rcd13ifvqdh0","pricing_plan_id":"cebpf4jnsgd1na2vs0mg"},{"bike_id":"55dd58d4-05e5-4e36-9316-3220f2e285ea","system_id":"levelo_inurba_marseille","lat":43.29521,"lon":5.37521,"is_reserved":false,"is_disabled":false,"rental_uris":{"android":"levelo://app?vid=55dd58d4-05e5-4e36-9316-3220f2e285ea","ios":"levelo://app?vid=55dd58d4-05e5-4e36-9316-3220f2e285ea"},"vehicle_type_id":"4","last_reported":1746385687,"current_range_meters":19600,"station_id":"ce4bgkp2rcd13ifvqbmg","pricing_plan_id":"cebpf4jnsgd1na2vs0mg"},{"bike_id":"8cb94fb9-5d52-4240-ad0f-ad09b33d2153","system_id":"levelo_inurba_marseille","lat":43.32491,"lon":5.3657,"is_reserved":false,"is_disabled":false,"rental_uris":{"android":"levelo://app?vid=8cb94fb9-5d52-4240-ad0f-ad09b33d2153","ios":"levelo://app?vid=8cb94fb9-5d52-4240-ad0f-ad09b33d2153"},"vehicle_type_id":"4","last_reported":1746385687,"current_range_meters":19600,"station_id":"ce4bhs12rcd13ifvqhvg","pricing_plan_id":"cebpf4jnsgd1na2vs0mg"},{"bike_id":"f97a292d-fae5-47b4-b8f9-f74f89430c24","system_id":"levelo_inurba_marseille","lat":43.28939,"lon":5.36634,"is_reserved":false,"is_disabled":false,"rental_uris":{"android":"levelo://app?vid=f97a292d-fae5-47b4-b8f9-f74f89430c24","ios":"levelo://app?vid=f97a292d-fae5-47b4-b8f9-f74f89430c24"},"vehicle_type_id":"4","last_reported":1746385687,"current_range_meters":19600,"station_id":"ce4bhap2rcd13ifvqek0","pricing_plan_id":"cebpf4jnsgd1na2vs0mg"},{"bike_id":"3d96eddd-e1f1-4206-b603-39b382728bc8","system_id":"levelo_inurba_marseille","lat":43.29371,"lon":5.37847,"is_reserved":false,"is_disabled":false,"rental_uris":{"android":"levelo://app?vid=3d96eddd-e1f1-4206-b603-39b382728bc8","ios":"levelo://app?vid=3d96eddd-e1f1-4206-b603-39b382728bc8"},"vehicle_type_id":"4","last_reported":1746385687,"current_range_meters":20000,"station_id":"ce4bgjh2rcd13ifvqbf0","pricing_plan_id":"cebpf4jnsgd1na2vs0mg"},{"bike_id":"470a3fb8-de16-4052-bf4a-2e933beb2c29","system_id":"levelo_inurba_marseille","lat":43.31263,"lon":5.40169,"is_reserved":false,"is_disabled":false,"rental_uris":{"android":"levelo://app?vid=470a3fb8-de16-4052-bf4a-2e933beb2c29","ios":"levelo://app?vid=470a3fb8-de16-4052-bf4a-2e933beb2c29"},"vehicle_type_id":"4","last_reported":1746385687,"current_range_meters":20000,"station_id":"ce4bh092rcd13ifvqd30","pricing_plan_id":"cebpf4jnsgd1na2vs0mg"},{"bike_id":"2ba00107-06a1-4ade-b208-ad3fec11bce3","system_id":"levelo_inurba_marseille","lat":43.29575,"lon":5.37499,"is_reserved":false,"is_disabled":false,"rental_uris":{"android":"levelo://app?vid=2ba00107-06a1-4ade-b208-ad3fec11bce3","ios":"levelo://app?vid=2ba00107-06a1-4ade-b208-ad3fec11bce3"},"vehicle_type_id":"4","last_reported":1746385687,"current_range_meters":20000,"station_id":"ce4bgh92rcd13ifvqb50","pricing_plan_id":"cebpf4jnsgd1na2vs0mg"},{"bike_id":"ad97e322-59f4-4d71-afd5-a55ae9e2e57c","system_id":"levelo_inurba_marseille","lat":43.28451,"lon":5.39206,"is_reserved":false,"is_disabled":false,"rental_uris":{"android":"levelo://app?vid=ad97e322-59f4-4d71-afd5-a55ae9e2e57c","ios":"levelo://app?vid=ad97e322-59f4-4d71-afd5-a55ae9e2e57c"},"vehicle_type_id":"4","last_reported":1746385687,"current_range_meters":20000,"station_id":"ce4bhoh2rcd13ifvqh5g","pricing_plan_id":"cebpf4jnsgd1na2vs0mg"},{"bike_id":"2f89a931-ee8f-4073-bc3e-f941014360aa","system_id":"levelo_inurba_marseille","lat":43.29415,"lon":5.38626,"is_reserved":false,"is_disabled":false,"rental_uris":{"android":"levelo://app?vid=2f89a931-ee8f-4073-bc3e-f941014360aa","ios":"levelo://app?vid=2f89a931-ee8f-4073-bc3e-f941014360aa"},"vehicle_type_id":"4","last_reported":1746385687,"current_range_meters":20000,"station_id":"ce4bh2h2rcd13ifvqdh0","pricing_plan_id":"cebpf4jnsgd1na2vs0mg"},{"bike_id":"2dce38cf-a8d4-49cd-9fcf-ef494d90a125","system_id":"levelo_inurba_marseille","lat":43.27135,"lon":5.36358,"is_reserved":false,"is_disabled":false,"rental_uris":{"android":"levelo://app?vid=2dce38cf-a8d4-49cd-9fcf-ef494d90a125","ios":"levelo://app?vid=2dce38cf-a8d4-49cd-9fcf-ef494d90a125"},"vehicle_type_id":"4","last_reported":1746385687,"current_range_meters":20000,"station_id":"","pricing_plan_id":"cebpf4jnsgd1na2vs0mg"},{"bike_id":"3f9fddb3-4d57-4ad0-8fd2-61341dad0fd3","system_id":"levelo_inurba_marseille","lat":43.29626,"lon":5.38096,"is_reserved":false,"is_disabled":true,"rental_uris":{"android":"levelo://app?vid=3f9fddb3-4d57-4ad0-8fd2-61341dad0fd3","ios":"levelo://app?vid=3f9fddb3-4d57-4ad0-8fd2-61341dad0fd3"},"vehicle_type_id":"4","last_reported":1746385687,"current_range_meters":20000,"station_id":"ce4bgl12rcd13ifvqbo0","pricing_plan_id":"cebpf4jnsgd1na2vs0mg"},{"bike_id":"ce7dbab7-9310-4b7e-bf0c-465a151ac403","system_id":"levelo_inurba_marseille","lat":43.35248,"lon":5.43777,"is_reserved":false,"is_disabled":false,"rental_uris":{"android":"levelo://app?vid=ce7dbab7-9310-4b7e-bf0c-465a151ac403","ios":"levelo://app?vid=ce7dbab7-9310-4b7e-bf0c-465a151ac403"},"vehicle_type_id":"4","last_reported":1746385687,"current_range_meters":20000,"station_id":"","pricing_plan_id":"cebpf4jnsgd1na2vs0mg"},{"bike_id":"18330993-12e5-4955-8451-3908f202c646","system_id":"levelo_inurba_marseille","lat":43.284851,"lon":5.395087,"is_reserved":false,"is_disabled":false,"rental_uris":{"android":"levelo://app?vid=18330993-12e5-4955-8451-3908f202c646","ios":"levelo://app?vid=18330993-12e5-4955-8451-3908f202c646"},"vehicle_type_id":"4","last_reported":1746385687,"current_range_meters":20800,"station_id":"ce4bh292rcd13ifvqdg0","pricing_plan_id":"cebpf4jnsgd1na2vs0mg"},{"bike_id":"fedc619d-d7cc-4df1-a967-c5d0953b5b95","system_id":"levelo_inurba_marseille","lat":43.246042,"lon":5.408348,"is_reserved":false,"is_disabled":false,"rental_uris":{"android":"levelo://app?vid=fedc619d-d7cc-4df1-a967-c5d0953b5b95","ios":"levelo://app?vid=fedc619d-d7cc-4df1-a967-c5d0953b5b95"},"vehicle_type_id":"4","last_reported":1746385687,"current_range_meters":20400,"station_id":"","pricing_plan_id":"cebpf4jnsgd1na2vs0mg"},{"bike_id":"81c52b87-b187-493f-8ec3-9588588b09b3","system_id":"levelo_inurba_marseille","lat":43.29496,"lon":5.37519,"is_reserved":false,"is_disabled":false,"rental_uris":{"android":"levelo://app?vid=81c52b87-b187-493f-8ec3-9588588b09b3","ios":"levelo://app?vid=81c52b87-b187-493f-8ec3-9588588b09b3"},"vehicle_type_id":"4","last_reported":1746385687,"current_range_meters":20400,"station_id":"ce4bgkp2rcd13ifvqbmg","pricing_plan_id":"cebpf4jnsgd1na2vs0mg"},{"bike_id":"fe9dd916-194e-45d5-988a-cedb56aedf29","system_id":"levelo_inurba_marseille","lat":43.29704,"lon":5.41993,"is_reserved":false,"is_disabled":false,"rental_uris":{"android":"levelo://app?vid=fe9dd916-194e-45d5-988a-cedb56aedf29","ios":"levelo://app?vid=fe9dd916-194e-45d5-988a-cedb56aedf29"},"vehicle_type_id":"4","last_reported":1746385687,"current_range_meters":20400,"station_id":"","pricing_plan_id":"cebpf4jnsgd1na2vs0mg"},{"bike_id":"55e2365c-b270-4dfe-a830-699a54b79cdb","system_id":"levelo_inurba_marseille","lat":43.25557,"lon":5.42089,"is_reserved":false,"is_disabled":false,"rental_uris":{"android":"levelo://app?vid=55e2365c-b270-4dfe-a830-699a54b79cdb","ios":"levelo://app?vid=55e2365c-b270-4dfe-a830-699a54b79cdb"},"vehicle_type_id":"4","last_reported":1746385687,"current_range_meters":20400,"station_id":"","pricing_plan_id":"cebpf4jnsgd1na2vs0mg"},{"bike_id":"de3f76b1-58ea-42d0-99f1-347daf91f0b4","system_id":"levelo_inurba_marseille","lat":43.21192,"lon":5.35074,"is_reserved":false,"is_disabled":false,"rental_uris":{"android":"levelo://app?vid=de3f76b1-58ea-42d0-99f1-347daf91f0b4","ios":"levelo://app?vid=de3f76b1-58ea-42d0-99f1-347daf91f0b4"},"vehicle_type_id":"4","last_reported":1746385687,"current_range_meters":20400,"station_id":"st_cvj6sg6p6f1abm77japg","pricing_plan_id":"cebpf4jnsgd1na2vs0mg"},{"bike_id":"68edd8a7-0ad1-44a6-a2de-19b37ce35902","system_id":"levelo_inurba_marseille","lat":43.2693,"lon":5.38917,"is_reserved":false,"is_disabled":false,"rental_uris":{"android":"levelo://app?vid=68edd8a7-0ad1-44a6-a2de-19b37ce35902","ios":"levelo://app?vid=68edd8a7-0ad1-44a6-a2de-19b37ce35902"},"vehicle_type_id":"4","last_reported":1746385687,"current_range_meters":20400,"station_id":"ce4bhhh2rcd13ifvqfl0","pricing_plan_id":"cebpf4jnsgd1na2vs0mg"},{"bike_id":"5953f4f1-8bd1-42b7-bfdd-dc3096cf891b","system_id":"levelo_inurba_marseille","lat":43.30306,"lon":5.39212,"is_reserved":false,"is_disabled":false,"rental_uris":{"android":"levelo://app?vid=5953f4f1-8bd1-42b7-bfdd-dc3096cf891b","ios":"levelo://app?vid=5953f4f1-8bd1-42b7-bfdd-dc3096cf891b"},"vehicle_type_id":"4","last_reported":1746385687,"current_range_meters":22000,"station_id":"ce4bgkh2rcd13ifvqbk0","pricing_plan_id":"cebpf4jnsgd1na2vs0mg"},{"bike_id":"628b4e06-f43c-47cc-bee8-5f0858357e76","system_id":"levelo_inurba_marseille","lat":43.29905,"lon":5.43673,"is_reserved":false,"is_disabled":false,"rental_uris":{"android":"levelo://app?vid=628b4e06-f43c-47cc-bee8-5f0858357e76","ios":"levelo://app?vid=628b4e06-f43c-47cc-bee8-5f0858357e76"},"vehicle_type_id":"4","last_reported":1746385687,"current_range_meters":20800,"station_id":"ce4bhpp2rcd13ifvqhfg","pricing_plan_id":"cebpf4jnsgd1na2vs0mg"},{"bike_id":"4e949d95-4fc6-4981-833e-7f1e7801aa8a","system_id":"levelo_inurba_marseille","lat":43.29763,"lon":5.37097,"is_reserved":false,"is_disabled":false,"rental_uris":{"android":"levelo://app?vid=4e949d95-4fc6-4981-833e-7f1e7801aa8a","ios":"levelo://app?vid=4e949d95-4fc6-4981-833e-7f1e7801aa8a"},"vehicle_type_id":"4","last_reported":1746385687,"current_range_meters":20800,"station_id":"ce4bgop2rcd13ifvqc1g","pricing_plan_id":"cebpf4jnsgd1na2vs0mg"},{"bike_id":"0cdf18f7-acd7-4c32-bd78-96ff79b6a3da","system_id":"levelo_inurba_marseille","lat":43.24082,"lon":5.37739,"is_reserved":false,"is_disabled":false,"rental_uris":{"android":"levelo://app?vid=0cdf18f7-acd7-4c32-bd78-96ff79b6a3da","ios":"levelo://app?vid=0cdf18f7-acd7-4c32-bd78-96ff79b6a3da"},"vehicle_type_id":"4","last_reported":1746385687,"current_range_meters":20800,"station_id":"ce4bhnp2rcd13ifvqgvg","pricing_plan_id":"cebpf4jnsgd1na2vs0mg"},{"bike_id":"bf0097a7-b1ed-4c12-9139-890be21d5bbc","system_id":"levelo_inurba_marseille","lat":43.31884,"lon":5.40746,"is_reserved":false,"is_disabled":false,"rental_uris":{"android":"levelo://app?vid=bf0097a7-b1ed-4c12-9139-890be21d5bbc","ios":"levelo://app?vid=bf0097a7-b1ed-4c12-9139-890be21d5bbc"},"vehicle_type_id":"4","last_reported":1746385687,"current_range_meters":20800,"station_id":"ce4bhq12rcd13ifvqhig","pricing_plan_id":"cebpf4jnsgd1na2vs0mg"},{"bike_id":"99caa5c9-73c6-4674-850e-ae7cd663deab","system_id":"levelo_inurba_marseille","lat":43.21186,"lon":5.35074,"is_reserved":false,"is_disabled":false,"rental_uris":{"android":"levelo://app?vid=99caa5c9-73c6-4674-850e-ae7cd663deab","ios":"levelo://app?vid=99caa5c9-73c6-4674-850e-ae7cd663deab"},"vehicle_type_id":"4","last_reported":1746385687,"current_range_meters":20800,"station_id":"st_cvj6sg6p6f1abm77japg","pricing_plan_id":"cebpf4jnsgd1na2vs0mg"},{"bike_id":"bcbae83b-9c22-4d12-8cff-b49f5d9e4747","system_id":"levelo_inurba_marseille","lat":43.217454,"lon":5.346046,"is_reserved":false,"is_disabled":true,"rental_uris":{"android":"levelo://app?vid=bcbae83b-9c22-4d12-8cff-b49f5d9e4747","ios":"levelo://app?vid=bcbae83b-9c22-4d12-8cff-b49f5d9e4747"},"vehicle_type_id":"4","last_reported":1746385687,"current_range_meters":20800,"station_id":"","pricing_plan_id":"cebpf4jnsgd1na2vs0mg"},{"bike_id":"a7af80b7-ee16-4834-aa52-5a952e396de1","system_id":"levelo_inurba_marseille","lat":43.25107,"lon":5.40323,"is_reserved":false,"is_disabled":false,"rental_uris":{"android":"levelo://app?vid=a7af80b7-ee16-4834-aa52-5a952e396de1","ios":"levelo://app?vid=a7af80b7-ee16-4834-aa52-5a952e396de1"},"vehicle_type_id":"4","last_reported":1746385687,"current_range_meters":20800,"station_id":"ce4bhlh2rcd13ifvqgig","pricing_plan_id":"cebpf4jnsgd1na2vs0mg"},{"bike_id":"1351d2e1-4507-44f6-9645-e85ad7214f49","system_id":"levelo_inurba_marseille","lat":43.2406,"lon":5.37734,"is_reserved":false,"is_disabled":false,"rental_uris":{"android":"levelo://app?vid=1351d2e1-4507-44f6-9645-e85ad7214f49","ios":"levelo://app?vid=1351d2e1-4507-44f6-9645-e85ad7214f49"},"vehicle_type_id":"4","last_reported":1746385687,"current_range_meters":21600,"station_id":"ce4bhnp2rcd13ifvqgvg","pricing_plan_id":"cebpf4jnsgd1na2vs0mg"},{"bike_id":"d1ec814b-7128-4cb1-a05f-d59b2ec94248","system_id":"levelo_inurba_marseille","lat":43.22665,"lon":5.34819,"is_reserved":false,"is_disabled":false,"rental_uris":{"android":"levelo://app?vid=d1ec814b-7128-4cb1-a05f-d59b2ec94248","ios":"levelo://app?vid=d1ec814b-7128-4cb1-a05f-d59b2ec94248"},"vehicle_type_id":"4","last_reported":1746385687,"current_range_meters":21600,"station_id":"","pricing_plan_id":"cebpf4jnsgd1na2vs0mg"},{"bike_id":"a1dc243a-e22d-45e3-8731-18ce1f4c5d40","system_id":"levelo_inurba_marseille","lat":43.23979,"lon":5.36622,"is_reserved":false,"is_disabled":false,"rental_uris":{"android":"levelo://app?vid=a1dc243a-e22d-45e3-8731-18ce1f4c5d40","ios":"levelo://app?vid=a1dc243a-e22d-45e3-8731-18ce1f4c5d40"},"vehicle_type_id":"4","last_reported":1746385687,"current_range_meters":21600,"station_id":"ce4bhi12rcd13ifvqfp0","pricing_plan_id":"cebpf4jnsgd1na2vs0mg"},{"bike_id":"d19e7bf3-7486-4888-b6bc-635f2a240b48","system_id":"levelo_inurba_marseille","lat":43.3093,"lon":5.40148,"is_reserved":false,"is_disabled":false,"rental_uris":{"android":"levelo://app?vid=d19e7bf3-7486-4888-b6bc-635f2a240b48","ios":"levelo://app?vid=d19e7bf3-7486-4888-b6bc-635f2a240b48"},"vehicle_type_id":"4","last_reported":1746385687,"current_range_meters":21600,"station_id":"ce4bgvp2rcd13ifvqct0","pricing_plan_id":"cebpf4jnsgd1na2vs0mg"},{"bike_id":"9ac9a44f-6abe-4743-a6fe-974f0f86c6c4","system_id":"levelo_inurba_marseille","lat":43.239584,"lon":5.366281,"is_reserved":false,"is_disabled":true,"rental_uris":{"android":"levelo://app?vid=9ac9a44f-6abe-4743-a6fe-974f0f86c6c4","ios":"levelo://app?vid=9ac9a44f-6abe-4743-a6fe-974f0f86c6c4"},"vehicle_type_id":"4","last_reported":1746385687,"current_range_meters":21600,"station_id":"ce4bhi12rcd13ifvqfp0","pricing_plan_id":"cebpf4jnsgd1na2vs0mg"},{"bike_id":"e64e9364-4375-44a2-8a5b-8c951c68c571","system_id":"levelo_inurba_marseille","lat":43.25578,"lon":5.3823,"is_reserved":false,"is_disabled":false,"rental_uris":{"android":"levelo://app?vid=e64e9364-4375-44a2-8a5b-8c951c68c571","ios":"levelo://app?vid=e64e9364-4375-44a2-8a5b-8c951c68c571"},"vehicle_type_id":"4","last_reported":1746385687,"current_range_meters":22400,"station_id":"ce4bhih2rcd13ifvqfs0","pricing_plan_id":"cebpf4jnsgd1na2vs0mg"},{"bike_id":"e799b1af-beca-4a0e-829f-456f0f2cf007","system_id":"levelo_inurba_marseille","lat":43.30785,"lon":5.38173,"is_reserved":false,"is_disabled":false,"rental_uris":{"android":"levelo://app?vid=e799b1af-beca-4a0e-829f-456f0f2cf007","ios":"levelo://app?vid=e799b1af-beca-4a0e-829f-456f0f2cf007"},"vehicle_type_id":"4","last_reported":1746385687,"current_range_meters":22400,"station_id":"ce4bgt12rcd13ifvqce0","pricing_plan_id":"cebpf4jnsgd1na2vs0mg"},{"bike_id":"1edd79ec-71cc-47e6-8f88-520edb4bbaae","system_id":"levelo_inurba_marseille","lat":43.29811,"lon":5.38105,"is_reserved":false,"is_disabled":true,"rental_uris":{"android":"levelo://app?vid=1edd79ec-71cc-47e6-8f88-520edb4bbaae","ios":"levelo://app?vid=1edd79ec-71cc-47e6-8f88-520edb4bbaae"},"vehicle_type_id":"4","last_reported":1746385687,"current_range_meters":21600,"station_id":"ce4bgip2rcd13ifvqbb0","pricing_plan_id":"cebpf4jnsgd1na2vs0mg"},{"bike_id":"521d3531-2dd1-4da9-9582-b2882863f64f","system_id":"levelo_inurba_marseille","lat":43.28461,"lon":5.35887,"is_reserved":false,"is_disabled":true,"rental_uris":{"android":"levelo://app?vid=521d3531-2dd1-4da9-9582-b2882863f64f","ios":"levelo://app?vid=521d3531-2dd1-4da9-9582-b2882863f64f"},"vehicle_type_id":"4","last_reported":1746385687,"current_range_meters":21600,"station_id":"ce4bhah2rcd13ifvqei0","pricing_plan_id":"cebpf4jnsgd1na2vs0mg"},{"bike_id":"4a265d53-8062-4c16-b5ef-3d21375eab3f","system_id":"levelo_inurba_marseille","lat":43.32,"lon":5.38146,"is_reserved":false,"is_disabled":true,"rental_uris":{"android":"levelo://app?vid=4a265d53-8062-4c16-b5ef-3d21375eab3f","ios":"levelo://app?vid=4a265d53-8062-4c16-b5ef-3d21375eab3f"},"vehicle_type_id":"4","last_reported":1746385687,"current_range_meters":21600,"station_id":"ce4bhr12rcd13ifvqhpg","pricing_plan_id":"cebpf4jnsgd1na2vs0mg"},{"bike_id":"5e1a6c5b-a63d-4790-b3ee-54259acfeb37","system_id":"levelo_inurba_marseille","lat":43.30874,"lon":5.39629,"is_reserved":false,"is_disabled":false,"rental_uris":{"android":"levelo://app?vid=5e1a6c5b-a63d-4790-b3ee-54259acfeb37","ios":"levelo://app?vid=5e1a6c5b-a63d-4790-b3ee-54259acfeb37"},"vehicle_type_id":"4","last_reported":1746385687,"current_range_meters":22000,"station_id":"ce4bh012rcd13ifvqcv0","pricing_plan_id":"cebpf4jnsgd1na2vs0mg"},{"bike_id":"7d777a9e-fa3c-448e-985f-c701c1694453","system_id":"levelo_inurba_marseille","lat":43.28854,"lon":5.39298,"is_reserved":false,"is_disabled":false,"rental_uris":{"android":"levelo://app?vid=7d777a9e-fa3c-448e-985f-c701c1694453","ios":"levelo://app?vid=7d777a9e-fa3c-448e-985f-c701c1694453"},"vehicle_type_id":"4","last_reported":1746385687,"current_range_meters":22000,"station_id":"ce4bh2p2rcd13ifvqdi0","pricing_plan_id":"cebpf4jnsgd1na2vs0mg"},{"bike_id":"21a4b78c-5f0d-4732-914a-f21e5d98f8f2","system_id":"levelo_inurba_marseille","lat":43.309038,"lon":5.368482,"is_reserved":false,"is_disabled":false,"rental_uris":{"android":"levelo://app?vid=21a4b78c-5f0d-4732-914a-f21e5d98f8f2","ios":"levelo://app?vid=21a4b78c-5f0d-4732-914a-f21e5d98f8f2"},"vehicle_type_id":"4","last_reported":1746385687,"current_range_meters":22000,"station_id":"ce4bgn92rcd13ifvqbvg","pricing_plan_id":"cebpf4jnsgd1na2vs0mg"},{"bike_id":"a5e82a94-0ce1-4812-9a0a-57137f8b18a9","system_id":"levelo_inurba_marseille","lat":43.30415,"lon":5.41291,"is_reserved":false,"is_disabled":false,"rental_uris":{"android":"levelo://app?vid=a5e82a94-0ce1-4812-9a0a-57137f8b18a9","ios":"levelo://app?vid=a5e82a94-0ce1-4812-9a0a-57137f8b18a9"},