{"last_updated":1734041377,"ttl":60,"version":"2.2","data":{"bikes":[{"bike_id":"2fbe8e9a-d054-43f7-a514-7a4743e90500","system_id":"levelo_inurba_marseille","lat":43.24831,"lon":5.37401,"is_reserved":false,"is_disabled":false,"rental_uris":{"android":"levelo://app?vid=2fbe8e9a-d054-43f7-a514-7a4743e90500","ios":"levelo://app?vid=2fbe8e9a-d054-43f7-a514-7a4743e90500"},"vehicle_type_id":"4","last_reported":1734041377,"current_range_meters":38800,"station_id":"ce4bhgh2rcd13ifvqfb0","pricing_plan_id":"cebpf4jnsgd1na2vs0mg"},{"bike_id":"907fec12-a848-4864-ae30-c2b590a6dd5f","system_id":"levelo_inurba_marseille","lat":43.26235,"lon":5.37428,"is_reserved":false,"is_disabled":true,"rental_uris":{"android":"levelo://app?vid=907fec12-a848-4864-ae30-c2b590a6dd5f","ios":"levelo://app?vid=907fec12-a848-4864-ae30-c2b590a6dd5f"},"vehicle_type_id":"4","last_reported":1734041377,"current_range_meters":0,"station_id":"","pricing_plan_id":"cebpf4jnsgd1na2vs0mg"},{"bike_id":"60e9ed68-c2d5-4fcc-b1fe-df98992a2ea5","system_id":"levelo_inurba_marseille","lat":43.30764,"lon":5.36837,"is_reserved":false,"is_disabled":true,"rental_uris":{"android":"levelo://app?vid=60e9ed68-c2d5-4fcc-b1fe-df98992a2ea5","ios":"levelo://app?vid=60e9ed68-c2d5-4fcc-b1fe-df98992a2ea5"},"vehicle_type_id":"4","last_reported":1734041377,"current_range_meters":0,"station_id":"","pricing_plan_id":"cebpf4jnsgd1na2vs0mg"},{"bike_id":"bc04aebb-7b5e-4107-acf4-072d1fb0aaa3","system_id":"levelo_inurba_marseille","lat":43.24828,"lon":5.38946,"is_reserved":false,"is_disabled":false,"rental_uris":{"android":"levelo://app?vid=bc04aebb-7b5e-4107-acf4-072d1fb0aaa3","ios":"levelo://app?vid=bc04aebb-7b5e-4107-acf4-072d1fb0aaa3"},"vehicle_type_id":"4","last_reported":1734041377,"current_range_meters":10800,"station_id":"","pricing_plan_id":"cebpf4jnsgd1na2vs0mg"},{"bike_id":"b9147903-fe2d-4d97-a95f-309f5c06e674","system_id":"levelo_inurba_marseille","lat":43.31885,"lon":5.40733,"is_reserved":false,"is_disabled":false,"rental_uris":{"android":"levelo://app?vid=b9147903-fe2d-4d97-a95f-309f5c06e674","ios":"levelo://app?vid=b9147903-fe2d-4d97-a95f-309f5c06e674"},"vehicle_type_id":"4","last_reported":1734041377,"current_range_meters":38400,"station_id":"ce4bhq12rcd13ifvqhig","pricing_plan_id":"cebpf4jnsgd1na2vs0mg"},{"bike_id":"32fade33-734c-4cbf-b948-5cef477a8f70","system_id":"levelo_inurba_marseille","lat":43.29529,"lon":5.39027,"is_reserved":false,"is_disabled":true,"rental_uris":{"android":"levelo://app?vid=32fade33-734c-4cbf-b948-5cef477a8f70","ios":"levelo://app?vid=32fade33-734c-4cbf-b948-5cef477a8f70"},"vehicle_type_id":"4","last_reported":1734041377,"current_range_meters":28800,"station_id":"ce4bh3p2rcd13ifvqdp0","pricing_plan_id":"cebpf4jnsgd1na2vs0mg"},{"bike_id":"508efb86-56c5-4f49-9957-ebb36dff7a2a","system_id":"levelo_inurba_marseille","lat":43.27904,"lon":5.38009,"is_reserved":false,"is_disabled":false,"rental_uris":{"android":"levelo://app?vid=508efb86-56c5-4f49-9957-ebb36dff7a2a","ios":"levelo://app?vid=508efb86-56c5-4f49-9957-ebb36dff7a2a"},"vehicle_type_id":"4","last_reported":1734041377,"current_range_meters":26000,"station_id":"ce4bhf92rcd13ifvqf50","pricing_plan_id":"cebpf4jnsgd1na2vs0mg"},{"bike_id":"9895f6d3-3e90-4d41-8b6f-3b0e731d3542","system_id":"levelo_inurba_marseille","lat":43.27986,"lon":5.40039,"is_reserved":false,"is_disabled":false,"rental_uris":{"android":"levelo://app?vid=9895f6d3-3e90-4d41-8b6f-3b0e731d3542","ios":"levelo://app?vid=9895f6d3-3e90-4d41-8b6f-3b0e731d3542"},"vehicle_type_id":"4","last_reported":1734041377,"current_range_meters":38800,"station_id":"ce4bho92rcd13ifvqh4g","pricing_plan_id":"cebpf4jnsgd1na2vs0mg"},{"bike_id":"fdc7f69f-0262-4094-a948-3b247c5ce866","system_id":"levelo_inurba_marseille","lat":43.28103,"lon":5.3784,"is_reserved":false,"is_disabled":false,"rental_uris":{"android":"levelo://app?vid=fdc7f69f-0262-4094-a948-3b247c5ce866","ios":"levelo://app?vid=fdc7f69f-0262-4094-a948-3b247c5ce866"},"vehicle_type_id":"4","last_reported":1734041377,"current_range_meters":24800,"station_id":"ce4bha12rcd13ifvqee0","pricing_plan_id":"cebpf4jnsgd1na2vs0mg"},{"bike_id":"9ae439b8-a36b-4c5c-a089-b19fbba0b397","system_id":"levelo_inurba_marseille","lat":43.297885,"lon":5.393243,"is_reserved":false,"is_disabled":false,"rental_uris":{"android":"levelo://app?vid=9ae439b8-a36b-4c5c-a089-b19fbba0b397","ios":"levelo://app?vid=9ae439b8-a36b-4c5c-a089-b19fbba0b397"},"vehicle_type_id":"4","last_reported":1734041377,"current_range_meters":39200,"station_id":"chh1huq6cuj3fo74tm60","pricing_plan_id":"cebpf4jnsgd1na2vs0mg"},{"bike_id":"f53a51f1-6db0-4716-9c45-7ac4c7fcd208","system_id":"levelo_inurba_marseille","lat":43.32283,"lon":5.38278,"is_reserved":false,"is_disabled":false,"rental_uris":{"android":"levelo://app?vid=f53a51f1-6db0-4716-9c45-7ac4c7fcd208","ios":"levelo://app?vid=f53a51f1-6db0-4716-9c45-7ac4c7fcd208"},"vehicle_type_id":"4","last_reported":1734041377,"current_range_meters":38800,"station_id":"ce4bhr12rcd13ifvqhqg","pricing_plan_id":"cebpf4jnsgd1na2vs0mg"},{"bike_id":"980f96eb-32c9-4906-98f6-c44dbf4c84a1","system_id":"levelo_inurba_marseille","lat":43.27455,"lon":5.40073,"is_reserved":false,"is_disabled":true,"rental_uris":{"android":"levelo://app?vid=980f96eb-32c9-4906-98f6-c44dbf4c84a1","ios":"levelo://app?vid=980f96eb-32c9-4906-98f6-c44dbf4c84a1"},"vehicle_type_id":"4","last_reported":1734041377,"current_range_meters":0,"station_id":"","pricing_plan_id":"cebpf4jnsgd1na2vs0mg"},{"bike_id":"434904ce-b56f-46e8-b68c-4378c799dacd","system_id":"levelo_inurba_marseille","lat":43.29029,"lon":5.38633,"is_reserved":false,"is_disabled":false,"rental_uris":{"android":"levelo://app?vid=434904ce-b56f-46e8-b68c-4378c799dacd","ios":"levelo://app?vid=434904ce-b56f-46e8-b68c-4378c799dacd"},"vehicle_type_id":"4","last_reported":1734041377,"current_range_meters":28000,"station_id":"ce4bh4p2rcd13ifvqe0g","pricing_plan_id":"cebpf4jnsgd1na2vs0mg"},{"bike_id":"8eb40f25-fc14-4288-9dd7-aae13b0a9b04","system_id":"levelo_inurba_marseille","lat":43.269449,"lon":5.402391,"is_reserved":false,"is_disabled":true,"rental_uris":{"android":"levelo://app?vid=8eb40f25-fc14-4288-9dd7-aae13b0a9b04","ios":"levelo://app?vid=8eb40f25-fc14-4288-9dd7-aae13b0a9b04"},"vehicle_type_id":"4","last_reported":1734041377,"current_range_meters":32800,"station_id":"cjm6bp8fraef2m0cb0m0","pricing_plan_id":"cebpf4jnsgd1na2vs0mg"},{"bike_id":"b8a7d334-6701-48cb-b976-cf4c708773bc","system_id":"levelo_inurba_marseille","lat":43.29707,"lon":5.36617,"is_reserved":false,"is_disabled":false,"rental_uris":{"android":"levelo://app?vid=b8a7d334-6701-48cb-b976-cf4c708773bc","ios":"levelo://app?vid=b8a7d334-6701-48cb-b976-cf4c708773bc"},"vehicle_type_id":"4","last_reported":1734041377,"current_range_meters":15200,"station_id":"ce4bgn12rcd13ifvqbt0","pricing_plan_id":"cebpf4jnsgd1na2vs0mg"},{"bike_id":"24d1dd30-e6fd-4cf7-8825-633bcd92df8c","system_id":"levelo_inurba_marseille","lat":43.2656,"lon":5.3901,"is_reserved":false,"is_disabled":false,"rental_uris":{"android":"levelo://app?vid=24d1dd30-e6fd-4cf7-8825-633bcd92df8c","ios":"levelo://app?vid=24d1dd30-e6fd-4cf7-8825-633bcd92df8c"},"vehicle_type_id":"4","last_reported":1734041377,"current_range_meters":34000,"station_id":"ce4bhe12rcd13ifvqf30","pricing_plan_id":"cebpf4jnsgd1na2vs0mg"},{"bike_id":"f3a40a5d-cef7-4614-9a73-c675fabca9fa","system_id":"levelo_inurba_marseille","lat":43.24802,"lon":5.37456,"is_reserved":false,"is_disabled":false,"rental_uris":{"android":"levelo://app?vid=f3a40a5d-cef7-4614-9a73-c675fabca9fa","ios":"levelo://app?vid=f3a40a5d-cef7-4614-9a73-c675fabca9fa"},"vehicle_type_id":"4","last_reported":1734041377,"current_range_meters":38400,"station_id":"ce4bhgh2rcd13ifvqfb0","pricing_plan_id":"cebpf4jnsgd1na2vs0mg"},{"bike_id":"ce4c7390-3de8-4776-bab7-8b30799fdcc8","system_id":"levelo_inurba_marseille","lat":43.29192,"lon":5.35799,"is_reserved":false,"is_disabled":true,"rental_uris":{"android":"levelo://app?vid=ce4c7390-3de8-4776-bab7-8b30799fdcc8","ios":"levelo://app?vid=ce4c7390-3de8-4776-bab7-8b30799fdcc8"},"vehicle_type_id":"4","last_reported":1734041377,"current_range_meters":33600,"station_id":"ce4bhb12rcd13ifvqel0","pricing_plan_id":"cebpf4jnsgd1na2vs0mg"},{"bike_id":"6f6e49bd-6ca3-4a81-9cdc-f0cbfe5f8aa3","system_id":"levelo_inurba_marseille","lat":43.30281,"lon":5.3772,"is_reserved":false,"is_disabled":false,"rental_uris":{"android":"levelo://app?vid=6f6e49bd-6ca3-4a81-9cdc-f0cbfe5f8aa3","ios":"levelo://app?vid=6f6e49bd-6ca3-4a81-9cdc-f0cbfe5f8aa3"},"vehicle_type_id":"4","last_reported":1734041377,"current_range_meters":22800,"station_id":"ce4bguh2rcd13ifvqcj0","pricing_plan_id":"cebpf4jnsgd1na2vs0mg"},{"bike_id":"976e1536-7249-425f-8cfa-22b5b9a9e0e3","system_id":"levelo_inurba_marseille","lat":43.28079,"lon":5.39669,"is_reserved":false,"is_disabled":false,"rental_uris":{"android":"levelo://app?vid=976e1536-7249-425f-8cfa-22b5b9a9e0e3","ios":"levelo://app?vid=976e1536-7249-425f-8cfa-22b5b9a9e0e3"},"vehicle_type_id":"4","last_reported":1734041377,"current_range_meters":38800,"station_id":"ce4bho12rcd13ifvqh2g","pricing_plan_id":"cebpf4jnsgd1na2vs0mg"},{"bike_id":"fe87f8f2-6e97-4611-93da-1318a830eb3c","system_id":"levelo_inurba_marseille","lat":43.27995,"lon":5.41657,"is_reserved":false,"is_disabled":true,"rental_uris":{"android":"levelo://app?vid=fe87f8f2-6e97-4611-93da-1318a830eb3c","ios":"levelo://app?vid=fe87f8f2-6e97-4611-93da-1318a830eb3c"},"vehicle_type_id":"4","last_reported":1734041377,"current_range_meters":38800,"station_id":"ce4bho12rcd13ifvqh1g","pricing_plan_id":"cebpf4jnsgd1na2vs0mg"},{"bike_id":"d85c7280-47fa-443b-b32c-9feaf3f4a62c","system_id":"levelo_inurba_marseille","lat":43.28724,"lon":5.36096,"is_reserved":false,"is_disabled":false,"rental_uris":{"android":"levelo://app?vid=d85c7280-47fa-443b-b32c-9feaf3f4a62c","ios":"levelo://app?vid=d85c7280-47fa-443b-b32c-9feaf3f4a62c"},"vehicle_type_id":"4","last_reported":1734041377,"current_range_meters":22800,"station_id":"cki0cbj6b192h4jlfktg","pricing_plan_id":"cebpf4jnsgd1na2vs0mg"},{"bike_id":"eaf4fa88-93af-42c4-ac71-6681b6449c9d","system_id":"levelo_inurba_marseille","lat":43.27178,"lon":5.40983,"is_reserved":false,"is_disabled":false,"rental_uris":{"android":"levelo://app?vid=eaf4fa88-93af-42c4-ac71-6681b6449c9d","ios":"levelo://app?vid=eaf4fa88-93af-42c4-ac71-6681b6449c9d"},"vehicle_type_id":"4","last_reported":1734041377,"current_range_meters":38800,"station_id":"ce4bhl12rcd13ifvqgf0","pricing_plan_id":"cebpf4jnsgd1na2vs0mg"},{"bike_id":"ae0493d2-fc14-4b2b-ad47-ce5682f1e916","system_id":"levelo_inurba_marseille","lat":43.29556,"lon":5.4229,"is_reserved":false,"is_disabled":true,"rental_uris":{"android":"levelo://app?vid=ae0493d2-fc14-4b2b-ad47-ce5682f1e916","ios":"levelo://app?vid=ae0493d2-fc14-4b2b-ad47-ce5682f1e916"},"vehicle_type_id":"4","last_reported":1734041377,"current_range_meters":6400,"station_id":"ce4bhph2rcd13ifvqhdg","pricing_plan_id":"cebpf4jnsgd1na2vs0mg"},{"bike_id":"199f7d63-3a72-40c5-8716-507ac0e9e64b","system_id":"levelo_inurba_marseille","lat":43.31529,"lon":5.38029,"is_reserved":false,"is_disabled":false,"rental_uris":{"android":"levelo://app?vid=199f7d63-3a72-40c5-8716-507ac0e9e64b","ios":"levelo://app?vid=199f7d63-3a72-40c5-8716-507ac0e9e64b"},"vehicle_type_id":"4","last_reported":1734041377,"current_range_meters":37600,"station_id":"ce4bhsp2rcd13ifvqi50","pricing_plan_id":"cebpf4jnsgd1na2vs0mg"},{"bike_id":"d5c89c1f-3bad-4af2-9449-e04c277a4696","system_id":"levelo_inurba_marseille","lat":43.29959,"lon":5.41324,"is_reserved":false,"is_disabled":false,"rental_uris":{"android":"levelo://app?vid=d5c89c1f-3bad-4af2-9449-e04c277a4696","ios":"levelo://app?vid=d5c89c1f-3bad-4af2-9449-e04c277a4696"},"vehicle_type_id":"4","last_reported":1734041377,"current_range_meters":36800,"station_id":"ce4bhp12rcd13ifvqh9g","pricing_plan_id":"cebpf4jnsgd1na2vs0mg"},{"bike_id":"7728fdce-b39b-492a-b76d-af2e495b1f87","system_id":"levelo_inurba_marseille","lat":43.28462,"lon":5.35882,"is_reserved":false,"is_disabled":false,"rental_uris":{"android":"levelo://app?vid=7728fdce-b39b-492a-b76d-af2e495b1f87","ios":"levelo://app?vid=7728fdce-b39b-492a-b76d-af2e495b1f87"},"vehicle_type_id":"4","last_reported":1734041377,"current_range_meters":12000,"station_id":"ce4bhah2rcd13ifvqei0","pricing_plan_id":"cebpf4jnsgd1na2vs0mg"},{"bike_id":"0c3dd50b-c3e5-4af5-9cb3-0d200d12a110","system_id":"levelo_inurba_marseille","lat":43.23186,"lon":5.39988,"is_reserved":false,"is_disabled":false,"rental_uris":{"android":"levelo://app?vid=0c3dd50b-c3e5-4af5-9cb3-0d200d12a110","ios":"levelo://app?vid=0c3dd50b-c3e5-4af5-9cb3-0d200d12a110"},"vehicle_type_id":"4","last_reported":1734041377,"current_range_meters":19600,"station_id":"ce4bhn12rcd13ifvqgqg","pricing_plan_id":"cebpf4jnsgd1na2vs0mg"},{"bike_id":"8a4d7f78-d49b-4e09-bd84-6b0edf92f97f","system_id":"levelo_inurba_marseille","lat":43.28731,"lon":5.36077,"is_reserved":false,"is_disabled":false,"rental_uris":{"android":"levelo://app?vid=8a4d7f78-d49b-4e09-bd84-6b0edf92f97f","ios":"levelo://app?vid=8a4d7f78-d49b-4e09-bd84-6b0edf92f97f"},"vehicle_type_id":"4","last_reported":1734041377,"current_range_meters":39200,"station_id":"cki0cbj6b192h4jlfktg","pricing_plan_id":"cebpf4jnsgd1na2vs0mg"},{"bike_id":"38eb172d-a077-4ca7-9a48-d1565bc55b20","system_id":"levelo_inurba_marseille","lat":43.32281,"lon":5.38275,"is_reserved":false,"is_disabled":false,"rental_uris":{"android":"levelo://app?vid=38eb172d-a077-4ca7-9a48-d1565bc55b20","ios":"levelo://app?vid=38eb172d-a077-4ca7-9a48-d1565bc55b20"},"vehicle_type_id":"4","last_reported":1734041377,"current_range_meters":38800,"station_id":"ce4bhr12rcd13ifvqhqg","pricing_plan_id":"cebpf4jnsgd1na2vs0mg"},{"bike_id":"23b203e2-b068-4fc8-9a12-e11cba490e91","system_id":"levelo_inurba_marseille","lat":43.25575,"lon":5.38243,"is_reserved":false,"is_disabled":false,"rental_uris":{"android":"levelo://app?vid=23b203e2-b068-4fc8-9a12-e11cba490e91","ios":"levelo://app?vid=23b203e2-b068-4fc8-9a12-e11cba490e91"},"vehicle_type_id":"4","last_reported":1734041377,"current_range_meters":38800,"station_id":"ce4bhih2rcd13ifvqfs0","pricing_plan_id":"cebpf4jnsgd1na2vs0mg"},{"bike_id":"516bcbce-8b75-4610-9ee5-df08b7034853","system_id":"levelo_inurba_marseille","lat":43.26771,"lon":5.39426,"is_reserved":false,"is_disabled":false,"rental_uris":{"android":"levelo://app?vid=516bcbce-8b75-4610-9ee5-df08b7034853","ios":"levelo://app?vid=516bcbce-8b75-4610-9ee5-df08b7034853"},"vehicle_type_id":"4","last_reported":1734041377,"current_range_meters":38800,"station_id":"ce4bhh12rcd13ifvqfg0","pricing_plan_id":"cebpf4jnsgd1na2vs0mg"},{"bike_id":"08bd48cb-ffe2-4001-bcae-3f4f6ea76c9f","system_id":"levelo_inurba_marseille","lat":43.30803,"lon":5.43523,"is_reserved":false,"is_disabled":false,"rental_uris":{"android":"levelo://app?vid=08bd48cb-ffe2-4001-bcae-3f4f6ea76c9f","ios":"levelo://app?vid=08bd48cb-ffe2-4001-bcae-3f4f6ea76c9f"},"vehicle_type_id":"4","last_reported":1734041377,"current_range_meters":13600,"station_id":"ce4bhph2rcd13ifvqheg","pricing_plan_id":"cebpf4jnsgd1na2vs0mg"},{"bike_id":"80f66b82-54aa-4843-b64e-91d3afce4948","system_id":"levelo_inurba_marseille","lat":43.30791,"lon":5.37299,"is_reserved":false,"is_disabled":true,"rental_uris":{"android":"levelo://app?vid=80f66b82-54aa-4843-b64e-91d3afce4948","ios":"levelo://app?vid=80f66b82-54aa-4843-b64e-91d3afce4948"},"vehicle_type_id":"4","last_reported":1734041377,"current_range_meters":25600,"station_id":"","pricing_plan_id":"cebpf4jnsgd1na2vs0mg"},{"bike_id":"a63958b5-e1f7-4b1a-9554-85840167b0f7","system_id":"levelo_inurba_marseille","lat":43.23193,"lon":5.39977,"is_reserved":false,"is_disabled":false,"rental_uris":{"android":"levelo://app?vid=a63958b5-e1f7-4b1a-9554-85840167b0f7","ios":"levelo://app?vid=a63958b5-e1f7-4b1a-9554-85840167b0f7"},"vehicle_type_id":"4","last_reported":1734041377,"current_range_meters":38800,"station_id":"ce4bhn12rcd13ifvqgqg","pricing_plan_id":"cebpf4jnsgd1na2vs0mg"},{"bike_id":"ef0d26bb-50de-4ba1-8aca-a5c35d766f16","system_id":"levelo_inurba_marseille","lat":43.30883,"lon":5.37191,"is_reserved":false,"is_disabled":false,"rental_uris":{"android":"levelo://app?vid=ef0d26bb-50de-4ba1-8aca-a5c35d766f16","ios":"levelo://app?vid=ef0d26bb-50de-4ba1-8aca-a5c35d766f16"},"vehicle_type_id":"4","last_reported":1734041377,"current_range_meters":20400,"station_id":"ce4bguh2rcd13ifvqckg","pricing_plan_id":"cebpf4jnsgd1na2vs0mg"},{"bike_id":"87fce182-3296-4aa0-bc7c-a2decdf4c36c","system_id":"levelo_inurba_marseille","lat":43.28404,"lon":5.37506,"is_reserved":false,"is_disabled":false,"rental_uris":{"android":"levelo://app?vid=87fce182-3296-4aa0-bc7c-a2decdf4c36c","ios":"levelo://app?vid=87fce182-3296-4aa0-bc7c-a2decdf4c36c"},"vehicle_type_id":"4","last_reported":1734041377,"current_range_meters":16000,"station_id":"ce4bh412rcd13ifvqds0","pricing_plan_id":"cebpf4jnsgd1na2vs0mg"},{"bike_id":"3a56946e-b571-4f0a-89c3-228266a44430","system_id":"levelo_inurba_marseille","lat":43.26597,"lon":5.38971,"is_reserved":false,"is_disabled":true,"rental_uris":{"android":"levelo://app?vid=3a56946e-b571-4f0a-89c3-228266a44430","ios":"levelo://app?vid=3a56946e-b571-4f0a-89c3-228266a44430"},"vehicle_type_id":"4","last_reported":1734041377,"current_range_meters":1600,"station_id":"","pricing_plan_id":"cebpf4jnsgd1na2vs0mg"},{"bike_id":"05825c92-f0d6-456c-bae7-11f44a9e1090","system_id":"levelo_inurba_marseille","lat":43.30647,"lon":5.4008,"is_reserved":false,"is_disabled":false,"rental_uris":{"android":"levelo://app?vid=05825c92-f0d6-456c-bae7-11f44a9e1090","ios":"levelo://app?vid=05825c92-f0d6-456c-bae7-11f44a9e1090"},"vehicle_type_id":"4","last_reported":1734041377,"current_range_meters":10800,"station_id":"ce4bh112rcd13ifvqda0","pricing_plan_id":"cebpf4jnsgd1na2vs0mg"},{"bike_id":"5da35048-365f-4c26-b899-7414eb3a70fd","system_id":"levelo_inurba_marseille","lat":43.30931,"lon":5.40144,"is_reserved":false,"is_disabled":true,"rental_uris":{"android":"levelo://app?vid=5da35048-365f-4c26-b899-7414eb3a70fd","ios":"levelo://app?vid=5da35048-365f-4c26-b899-7414eb3a70fd"},"vehicle_type_id":"4","last_reported":1734041377,"current_range_meters":0,"station_id":"ce4bgvp2rcd13ifvqct0","pricing_plan_id":"cebpf4jnsgd1na2vs0mg"},{"bike_id":"3ea1724b-cceb-4cf7-893e-08ded22dd304","system_id":"levelo_inurba_marseille","lat":43.27813,"lon":5.40714,"is_reserved":false,"is_disabled":false,"rental_uris":{"android":"levelo://app?vid=3ea1724b-cceb-4cf7-893e-08ded22dd304","ios":"levelo://app?vid=3ea1724b-cceb-4cf7-893e-08ded22dd304"},"vehicle_type_id":"4","last_reported":1734041377,"current_range_meters":20000,"station_id":"ce4bhnh2rcd13ifvqgtg","pricing_plan_id":"cebpf4jnsgd1na2vs0mg"},{"bike_id":"0773bf56-d3d1-4643-83a2-bc5164e71155","system_id":"levelo_inurba_marseille","lat":43.28353,"lon":5.38101,"is_reserved":false,"is_disabled":false,"rental_uris":{"android":"levelo://app?vid=0773bf56-d3d1-4643-83a2-bc5164e71155","ios":"levelo://app?vid=0773bf56-d3d1-4643-83a2-bc5164e71155"},"vehicle_type_id":"4","last_reported":1734041377,"current_range_meters":36400,"station_id":"ce4bh412rcd13ifvqdr0","pricing_plan_id":"cebpf4jnsgd1na2vs0mg"},{"bike_id":"80fab31f-5a7f-4066-a73a-38bcb14e9247","system_id":"levelo_inurba_marseille","lat":43.281,"lon":5.37834,"is_reserved":false,"is_disabled":false,"rental_uris":{"android":"levelo://app?vid=80fab31f-5a7f-4066-a73a-38bcb14e9247","ios":"levelo://app?vid=80fab31f-5a7f-4066-a73a-38bcb14e9247"},"vehicle_type_id":"4","last_reported":1734041377,"current_range_meters":36400,"station_id":"ce4bha12rcd13ifvqee0","pricing_plan_id":"cebpf4jnsgd1na2vs0mg"},{"bike_id":"48f89538-caef-48c0-b76c-a236ac0f81eb","system_id":"levelo_inurba_marseille","lat":43.2953,"lon":5.38538,"is_reserved":false,"is_disabled":true,"rental_uris":{"android":"levelo://app?vid=48f89538-caef-48c0-b76c-a236ac0f81eb","ios":"levelo://app?vid=48f89538-caef-48c0-b76c-a236ac0f81eb"},"vehicle_type_id":"4","last_reported":1734041377,"current_range_meters":24400,"station_id":"ce4bgih2rcd13ifvqba0","pricing_plan_id":"cebpf4jnsgd1na2vs0mg"},{"bike_id":"edaea664-24e0-4d6c-aa7a-497f5c5f88f6","system_id":"levelo_inurba_marseille","lat":43.27005,"lon":5.39141,"is_reserved":false,"is_disabled":true,"rental_uris":{"android":"levelo://app?vid=edaea664-24e0-4d6c-aa7a-497f5c5f88f6","ios":"levelo://app?vid=edaea664-24e0-4d6c-aa7a-497f5c5f88f6"},"vehicle_type_id":"4","last_reported":1734041377,"current_range_meters":400,"station_id":"","pricing_plan_id":"cebpf4jnsgd1na2vs0mg"},{"bike_id":"b13f7988-892d-489e-89d4-b900be8b8ffb","system_id":"levelo_inurba_marseille","lat":43.29686,"lon":5.37278,"is_reserved":false,"is_disabled":true,"rental_uris":{"android":"levelo://app?vid=b13f7988-892d-489e-89d4-b900be8b8ffb","ios":"levelo://app?vid=b13f7988-892d-489e-89d4-b900be8b8ffb"},"vehicle_type_id":"4","last_reported":1734041377,"current_range_meters":38400,"station_id":"ce4bgk12rcd13ifvqbj0","pricing_plan_id":"cebpf4jnsgd1na2vs0mg"},{"bike_id":"aa06cd65-ffd0-4327-a82e-3e69bda75dc1","system_id":"levelo_inurba_marseille","lat":43.26577,"lon":5.39001,"is_reserved":false,"is_disabled":false,"rental_uris":{"android":"levelo://app?vid=aa06cd65-ffd0-4327-a82e-3e69bda75dc1","ios":"levelo://app?vid=aa06cd65-ffd0-4327-a82e-3e69bda75dc1"},"vehicle_type_id":"4","last_reported":1734041377,"current_range_meters":20800,"station_id":"ce4bhe12rcd13ifvqf30","pricing_plan_id":"cebpf4jnsgd1na2vs0mg"},{"bike_id":"fa80a090-93c5-4bce-a42d-cb4edc9dbe5a","system_id":"levelo_inurba_marseille","lat":43.30087,"lon":5.39073,"is_reserved":false,"is_disabled":false,"rental_uris":{"android":"levelo://app?vid=fa80a090-93c5-4bce-a42d-cb4edc9dbe5a","ios":"levelo://app?vid=fa80a090-93c5-4bce-a42d-cb4edc9dbe5a"},"vehicle_type_id":"4","last_reported":1734041377,"current_range_meters":36800,"station_id":"ce4bh192rcd13ifvqdb0","pricing_plan_id":"cebpf4jnsgd1na2vs0mg"},{"bike_id":"acd467f1-d44f-47da-a00c-619ab570f071","system_id":"levelo_inurba_marseille","lat":43.29579,"lon":5.36739,"is_reserved":false,"is_disabled":false,"rental_uris":{"android":"levelo://app?vid=acd467f1-d44f-47da-a00c-619ab570f071","ios":"levelo://app?vid=acd467f1-d44f-47da-a00c-619ab570f071"},"vehicle_type_id":"4","last_reported":1734041377,"current_range_meters":37600,"station_id":"ce4bgph2rcd13ifvqc2g","pricing_plan_id":"cebpf4jnsgd1na2vs0mg"},{"bike_id":"11933e04-d81a-4d25-aa83-cc295172b3a1","system_id":"levelo_inurba_marseille","lat":43.25409,"lon":5.3828,"is_reserved":false,"is_disabled":true,"rental_uris":{"android":"levelo://app?vid=11933e04-d81a-4d25-aa83-cc295172b3a1","ios":"levelo://app?vid=11933e04-d81a-4d25-aa83-cc295172b3a1"},"vehicle_type_id":"4","last_reported":1734041377,"current_range_meters":28000,"station_id":"","pricing_plan_id":"cebpf4jnsgd1na2vs0mg"},{"bike_id":"6501d5cd-4dd5-4a19-afdb-ab2df9095f1a","system_id":"levelo_inurba_marseille","lat":43.29279,"lon":5.40119,"is_reserved":false,"is_disabled":false,"rental_uris":{"android":"levelo://app?vid=6501d5cd-4dd5-4a19-afdb-ab2df9095f1a","ios":"levelo://app?vid=6501d5cd-4dd5-4a19-afdb-ab2df9095f1a"},"vehicle_type_id":"4","last_reported":1734041377,"current_range_meters":38800,"station_id":"ce4bh312rcd13ifvqdk0","pricing_plan_id":"cebpf4jnsgd1na2vs0mg"},{"bike_id":"af421752-864f-47fc-8e61-6d0e3cbe0087","system_id":"levelo_inurba_marseille","lat":43.28,"lon":5.40011,"is_reserved":false,"is_disabled":false,"rental_uris":{"android":"levelo://app?vid=af421752-864f-47fc-8e61-6d0e3cbe0087","ios":"levelo://app?vid=af421752-864f-47fc-8e61-6d0e3cbe0087"},"vehicle_type_id":"4","last_reported":1734041377,"current_range_meters":7200,"station_id":"ce4bho92rcd13ifvqh4g","pricing_plan_id":"cebpf4jnsgd1na2vs0mg"},{"bike_id":"d256483c-f1ba-4eec-b427-5b2aeb560d85","system_id":"levelo_inurba_marseille","lat":43.30931,"lon":5.4015,"is_reserved":false,"is_disabled":false,"rental_uris":{"android":"levelo://app?vid=d256483c-f1ba-4eec-b427-5b2aeb560d85","ios":"levelo://app?vid=d256483c-f1ba-4eec-b427-5b2aeb560d85"},"vehicle_type_id":"4","last_reported":1734041377,"current_range_meters":39200,"station_id":"ce4bgvp2rcd13ifvqct0","pricing_plan_id":"cebpf4jnsgd1na2vs0mg"},{"bike_id":"dd3e4971-9413-415d-93c3-6370a68db7cb","system_id":"levelo_inurba_marseille","lat":43.24392,"lon":5.37054,"is_reserved":false,"is_disabled":false,"rental_uris":{"android":"levelo://app?vid=dd3e4971-9413-415d-93c3-6370a68db7cb","ios":"levelo://app?vid=dd3e4971-9413-415d-93c3-6370a68db7cb"},"vehicle_type_id":"4","last_reported":1734041377,"current_range_meters":12400,"station_id":"ce4bhhh2rcd13ifvqfk0","pricing_plan_id":"cebpf4jnsgd1na2vs0mg"},{"bike_id":"44043e74-3bb0-47c4-bd3e-6ee7a2f22137","system_id":"levelo_inurba_marseille","lat":43.28858,"lon":5.39308,"is_reserved":false,"is_disabled":false,"rental_uris":{"android":"levelo://app?vid=44043e74-3bb0-47c4-bd3e-6ee7a2f22137","ios":"levelo://app?vid=44043e74-3bb0-47c4-bd3e-6ee7a2f22137"},"vehicle_type_id":"4","last_reported":1734041377,"current_range_meters":31200,"station_id":"ce4bh2p2rcd13ifvqdi0","pricing_plan_id":"cebpf4jnsgd1na2vs0mg"},{"bike_id":"30b7f7b0-cffb-44e8-9e23-86428fe1183d","system_id":"levelo_inurba_marseille","lat":43.23069,"lon":5.35487,"is_reserved":false,"is_disabled":false,"rental_uris":{"android":"levelo://app?vid=30b7f7b0-cffb-44e8-9e23-86428fe1183d","ios":"levelo://app?vid=30b7f7b0-cffb-44e8-9e23-86428fe1183d"},"vehicle_type_id":"4","last_reported":1734041377,"current_range_meters":6400,"station_id":"cpo3342slgdg3j2ifvpg","pricing_plan_id":"cebpf4jnsgd1na2vs0mg"},{"bike_id":"cdee45cd-2c85-49c5-ad4f-3d1f26b7f88f","system_id":"levelo_inurba_marseille","lat":43.3135,"lon":5.39689,"is_reserved":false,"is_disabled":false,"rental_uris":{"android":"levelo://app?vid=cdee45cd-2c85-49c5-ad4f-3d1f26b7f88f","ios":"levelo://app?vid=cdee45cd-2c85-49c5-ad4f-3d1f26b7f88f"},"vehicle_type_id":"4","last_reported":1734041377,"current_range_meters":24000,"station_id":"ce4bgvp2rcd13ifvqcu0","pricing_plan_id":"cebpf4jnsgd1na2vs0mg"},{"bike_id":"6f6d1104-7a7d-4855-bd0a-2d1f2d0c4331","system_id":"levelo_inurba_marseille","lat":43.30925,"lon":5.40143,"is_reserved":false,"is_disabled":false,"rental_uris":{"android":"levelo://app?vid=6f6d1104-7a7d-4855-bd0a-2d1f2d0c4331","ios":"levelo://app?vid=6f6d1104-7a7d-4855-bd0a-2d1f2d0c4331"},"vehicle_type_id":"4","last_reported":1734041377,"current_range_meters":22400,"station_id":"ce4bgvp2rcd13ifvqct0","pricing_plan_id":"cebpf4jnsgd1na2vs0mg"},{"bike_id":"c962957d-ec10-4997-96e1-a869343f922e","system_id":"levelo_inurba_marseille","lat":43.32665,"lon":5.36082,"is_reserved":false,"is_disabled":false,"rental_uris":{"android":"levelo://app?vid=c962957d-ec10-4997-96e1-a869343f922e","ios":"levelo://app?vid=c962957d-ec10-4997-96e1-a869343f922e"},"vehicle_type_id":"4","last_reported":1734041377,"current_range_meters":8400,"station_id":"","pricing_plan_id":"cebpf4jnsgd1na2vs0mg"},{"bike_id":"32a767c5-f0ae-4b08-b2a9-56fb3e20cf9b","system_id":"levelo_inurba_marseille","lat":43.29557,"lon":5.42327,"is_reserved":false,"is_disabled":false,"rental_uris":{"android":"levelo://app?vid=32a767c5-f0ae-4b08-b2a9-56fb3e20cf9b","ios":"levelo://app?vid=32a767c5-f0ae-4b08-b2a9-56fb3e20cf9b"},"vehicle_type_id":"4","last_reported":1734041377,"current_range_meters":19600,"station_id":"ce4bhph2rcd13ifvqhdg","pricing_plan_id":"cebpf4jnsgd1na2vs0mg"},{"bike_id":"80e7d90a-8050-4fc6-8802-63867dac5ff2","system_id":"levelo_inurba_marseille","lat":43.287,"lon":5.37385,"is_reserved":false,"is_disabled":true,"rental_uris":{"android":"levelo://app?vid=80e7d90a-8050-4fc6-8802-63867dac5ff2","ios":"levelo://app?vid=80e7d90a-8050-4fc6-8802-63867dac5ff2"},"vehicle_type_id":"4","last_reported":1734041377,"current_range_meters":36400,"station_id":"ce4bh3p2rcd13ifvqdq0","pricing_plan_id":"cebpf4jnsgd1na2vs0mg"},{"bike_id":"089f9ec9-a1f3-4d1e-a526-91033663c250","system_id":"levelo_inurba_marseille","lat":43.30985,"lon":5.41728,"is_reserved":false,"is_disabled":false,"rental_uris":{"android":"levelo://app?vid=089f9ec9-a1f3-4d1e-a526-91033663c250","ios":"levelo://app?vid=089f9ec9-a1f3-4d1e-a526-91033663c250"},"vehicle_type_id":"4","last_reported":1734041377,"current_range_meters":28000,"station_id":"","pricing_plan_id":"cebpf4jnsgd1na2vs0mg"},{"bike_id":"8fba4877-2b0f-496e-8baf-7d6a9a2670f0","system_id":"levelo_inurba_marseille","lat":43.26056,"lon":5.39399,"is_reserved":false,"is_disabled":false,"rental_uris":{"android":"levelo://app?vid=8fba4877-2b0f-496e-8baf-7d6a9a2670f0","ios":"levelo://app?vid=8fba4877-2b0f-496e-8baf-7d6a9a2670f0"},"vehicle_type_id":"4","last_reported":1734041377,"current_range_meters":38800,"station_id":"ce4bhh92rcd13ifvqfj0","pricing_plan_id":"cebpf4jnsgd1na2vs0mg"},{"bike_id":"5766f064-b4c1-48e2-b1f3-156d167a6835","system_id":"levelo_inurba_marseille","lat":43.27912,"lon":5.39581,"is_reserved":false,"is_disabled":false,"rental_uris":{"android":"levelo://app?vid=5766f064-b4c1-48e2-b1f3-156d167a6835","ios":"levelo://app?vid=5766f064-b4c1-48e2-b1f3-156d167a6835"},"vehicle_type_id":"4","last_reported":1734041377,"current_range_meters":31200,"station_id":"ce4bhf92rcd13ifvqf40","pricing_plan_id":"cebpf4jnsgd1na2vs0mg"},{"bike_id":"3cc49aec-0146-4bd6-8ced-13dc2b354f47","system_id":"levelo_inurba_marseille","lat":43.231894,"lon":5.399679,"is_reserved":false,"is_disabled":false,"rental_uris":{"android":"levelo://app?vid=3cc49aec-0146-4bd6-8ced-13dc2b354f47","ios":"levelo://app?vid=3cc49aec-0146-4bd6-8ced-13dc2b354f47"},"vehicle_type_id":"4","last_reported":1734041377,"current_range_meters":38800,"station_id":"ce4bhn12rcd13ifvqgqg","pricing_plan_id":"cebpf4jnsgd1na2vs0mg"},{"bike_id":"55fbbd02-1f66-4fd5-8c15-6b8c29178e1a","system_id":"levelo_inurba_marseille","lat":43.301806,"lon":5.387777,"is_reserved":false,"is_disabled":false,"rental_uris":{"android":"levelo://app?vid=55fbbd02-1f66-4fd5-8c15-6b8c29178e1a","ios":"levelo://app?vid=55fbbd02-1f66-4fd5-8c15-6b8c29178e1a"},"vehicle_type_id":"4","last_reported":1734041377,"current_range_meters":38800,"station_id":"ce4bhoh2rcd13ifvqh6g","pricing_plan_id":"cebpf4jnsgd1na2vs0mg"},{"bike_id":"e79247d7-f349-4d85-b8cc-75ca92971f51","system_id":"levelo_inurba_marseille","lat":43.33019,"lon":5.39038,"is_reserved":false,"is_disabled":false,"rental_uris":{"android":"levelo://app?vid=e79247d7-f349-4d85-b8cc-75ca92971f51","ios":"levelo://app?vid=e79247d7-f349-4d85-b8cc-75ca92971f51"},"vehicle_type_id":"4","last_reported":1734041377,"current_range_meters":38800,"station_id":"ce4bhr92rcd13ifvqhrg","pricing_plan_id":"cebpf4jnsgd1na2vs0mg"},{"bike_id":"b773f0c7-24dd-42e5-8c06-4f4f47ee5974","system_id":"levelo_inurba_marseille","lat":43.2587,"lon":5.39904,"is_reserved":false,"is_disabled":false,"rental_uris":{"android":"levelo://app?vid=b773f0c7-24dd-42e5-8c06-4f4f47ee5974","ios":"levelo://app?vid=b773f0c7-24dd-42e5-8c06-4f4f47ee5974"},"vehicle_type_id":"4","last_reported":1734041377,"current_range_meters":39200,"station_id":"ce4bhl92rcd13ifvqghg","pricing_plan_id":"cebpf4jnsgd1na2vs0mg"},{"bike_id":"4cc774ee-ae5a-4146-919f-2e8715c09683","system_id":"levelo_inurba_marseille","lat":43.33605,"lon":5.4103,"is_reserved":false,"is_disabled":false,"rental_uris":{"android":"levelo://app?vid=4cc774ee-ae5a-4146-919f-2e8715c09683","ios":"levelo://app?vid=4cc774ee-ae5a-4146-919f-2e8715c09683"},"vehicle_type_id":"4","last_reported":1734041377,"current_range_meters":32000,"station_id":"ce4bhqh2rcd13ifvqhmg","pricing_plan_id":"cebpf4jnsgd1na2vs0mg"},{"bike_id":"827f827a-fb9e-4362-8ba9-5f798c726299","system_id":"levelo_inurba_marseille","lat":43.28707,"lon":5.37925,"is_reserved":false,"is_disabled":false,"rental_uris":{"android":"levelo://app?vid=827f827a-fb9e-4362-8ba9-5f798c726299","ios":"levelo://app?vid=827f827a-fb9e-4362-8ba9-5f798c726299"},"vehicle_type_id":"4","last_reported":1734041377,"current_range_meters":38800,"station_id":"ce4bh9p2rcd13ifvqec0","pricing_plan_id":"cebpf4jnsgd1na2vs0mg"},{"bike_id":"2ea29fc9-e634-44f7-98ab-3e530021a09d","system_id":"levelo_inurba_marseille","lat":43.30928,"lon":5.40141,"is_reserved":false,"is_disabled":false,"rental_uris":{"android":"levelo://app?vid=2ea29fc9-e634-44f7-98ab-3e530021a09d","ios":"levelo://app?vid=2ea29fc9-e634-44f7-98ab-3e530021a09d"},"vehicle_type_id":"4","last_reported":1734041377,"current_range_meters":20800,"station_id":"ce4bgvp2rcd13ifvqct0","pricing_plan_id":"cebpf4jnsgd1na2vs0mg"},{"bike_id":"eb01c2c1-238a-4baf-bf6a-4933c4215456","system_id":"levelo_inurba_marseille","lat":43.30428,"lon":5.39757,"is_reserved":false,"is_disabled":false,"rental_uris":{"android":"levelo://app?vid=eb01c2c1-238a-4baf-bf6a-4933c4215456","ios":"levelo://app?vid=eb01c2c1-238a-4baf-bf6a-4933c4215456"},"vehicle_type_id":"4","last_reported":1734041377,"current_range_meters":34800,"station_id":"ce4bh092rcd13ifvqd20","pricing_plan_id":"cebpf4jnsgd1na2vs0mg"},{"bike_id":"e6a36072-a399-485e-a1d6-06b393c73379","system_id":"levelo_inurba_marseille","lat":43.29557,"lon":5.42281,"is_reserved":false,"is_disabled":false,"rental_uris":{"android":"levelo://app?vid=e6a36072-a399-485e-a1d6-06b393c73379","ios":"levelo://app?vid=e6a36072-a399-485e-a1d6-06b393c73379"},"vehicle_type_id":"4","last_reported":1734041377,"current_range_meters":34800,"station_id":"ce4bhph2rcd13ifvqhdg","pricing_plan_id":"cebpf4jnsgd1na2vs0mg"},{"bike_id":"e43eb1f6-3ba6-4ad6-96a6-9bab6d7b3199","system_id":"levelo_inurba_marseille","lat":43.27044,"lon":5.40311,"is_reserved":false,"is_disabled":true,"rental_uris":{"android":"levelo://app?vid=e43eb1f6-3ba6-4ad6-96a6-9bab6d7b3199","ios":"levelo://app?vid=e43eb1f6-3ba6-4ad6-96a6-9bab6d7b3199"},"vehicle_type_id":"4","last_reported":1734041377,"current_range_meters":36000,"station_id":"ce4bhk92rcd13ifvqgc0","pricing_plan_id":"cebpf4jnsgd1na2vs0mg"},{"bike_id":"d2a98a1f-64a2-40e5-aa0b-ffab91cc3d62","system_id":"levelo_inurba_marseille","lat":43.29007,"lon":5.38145,"is_reserved":false,"is_disabled":true,"rental_uris":{"android":"levelo://app?vid=d2a98a1f-64a2-40e5-aa0b-ffab91cc3d62","ios":"levelo://app?vid=d2a98a1f-64a2-40e5-aa0b-ffab91cc3d62"},"vehicle_type_id":"4","last_reported":1734041377,"current_range_meters":24400,"station_id":"ce4bh4p2rcd13ifvqe1g","pricing_plan_id":"cebpf4jnsgd1na2vs0mg"},{"bike_id":"65958426-57e3-40aa-a16a-cd3fda870fea","system_id":"levelo_inurba_marseille","lat":43.31326,"lon":5.39691,"is_reserved":false,"is_disabled":false,"rental_uris":{"android":"levelo://app?vid=65958426-57e3-40aa-a16a-cd3fda870fea","ios":"levelo://app?vid=65958426-57e3-40aa-a16a-cd3fda870fea"},"vehicle_type_id":"4","last_reported":1734041377,"current_range_meters":6000,"station_id":"ce4bgvp2rcd13ifvqcu0","pricing_plan_id":"cebpf4jnsgd1na2vs0mg"},{"bike_id":"af67ac53-ba21-4ff0-8334-95679e9ff2cc","system_id":"levelo_inurba_marseille","lat":43.278805,"lon":5.388003,"is_reserved":false,"is_disabled":true,"rental_uris":{"android":"levelo://app?vid=af67ac53-ba21-4ff0-8334-95679e9ff2cc","ios":"levelo://app?vid=af67ac53-ba21-4ff0-8334-95679e9ff2cc"},"vehicle_type_id":"4","last_reported":1734041377,"current_range_meters":9200,"station_id":"","pricing_plan_id":"cebpf4jnsgd1na2vs0mg"},{"bike_id":"ade66eb7-5111-4a1a-adb9-998c08093abb","system_id":"levelo_inurba_marseille","lat":43.31755,"lon":5.39034,"is_reserved":false,"is_disabled":false,"rental_uris":{"android":"levelo://app?vid=ade66eb7-5111-4a1a-adb9-998c08093abb","ios":"levelo://app?vid=ade66eb7-5111-4a1a-adb9-998c08093abb"},"vehicle_type_id":"4","last_reported":1734041377,"current_range_meters":10000,"station_id":"ce4bhqp2rcd13ifvqhng","pricing_plan_id":"cebpf4jnsgd1na2vs0mg"},{"bike_id":"84778a4f-c0f4-4ce5-be03-9b3429bc22cb","system_id":"levelo_inurba_marseille","lat":43.28701,"lon":5.37402,"is_reserved":false,"is_disabled":false,"rental_uris":{"android":"levelo://app?vid=84778a4f-c0f4-4ce5-be03-9b3429bc22cb","ios":"levelo://app?vid=84778a4f-c0f4-4ce5-be03-9b3429bc22cb"},"vehicle_type_id":"4","last_reported":1734041377,"current_range_meters":10000,"station_id":"ce4bh3p2rcd13ifvqdq0","pricing_plan_id":"cebpf4jnsgd1na2vs0mg"},{"bike_id":"f77c0910-6be8-437c-9b37-31678d5bf201","system_id":"levelo_inurba_marseille","lat":43.308855,"lon":5.396488,"is_reserved":false,"is_disabled":false,"rental_uris":{"android":"levelo://app?vid=f77c0910-6be8-437c-9b37-31678d5bf201","ios":"levelo://app?vid=f77c0910-6be8-437c-9b37-31678d5bf201"},"vehicle_type_id":"4","last_reported":1734041377,"current_range_meters":28400,"station_id":"ce4bh012rcd13ifvqcv0","pricing_plan_id":"cebpf4jnsgd1na2vs0mg"},{"bike_id":"a8952a43-ed45-4b45-98c8-1bb60ae3ae5a","system_id":"levelo_inurba_marseille","lat":43.30788,"lon":5.37644,"is_reserved":false,"is_disabled":true,"rental_uris":{"android":"levelo://app?vid=a8952a43-ed45-4b45-98c8-1bb60ae3ae5a","ios":"levelo://app?vid=a8952a43-ed45-4b45-98c8-1bb60ae3ae5a"},"vehicle_type_id":"4","last_reported":1734041377,"current_range_meters":2000,"station_id":"ce4bgv92rcd13ifvqcq0","pricing_plan_id":"cebpf4jnsgd1na2vs0mg"},{"bike_id":"e629dc09-435c-49ef-9023-81bcbfdc66e3","system_id":"levelo_inurba_marseille","lat":43.29084,"lon":5.37162,"is_reserved":false,"is_disabled":true,"rental_uris":{"android":"levelo://app?vid=e629dc09-435c-49ef-9023-81bcbfdc66e3","ios":"levelo://app?vid=e629dc09-435c-49ef-9023-81bcbfdc66e3"},"vehicle_type_id":"4","last_reported":1734041377,"current_range_meters":38800,"station_id":"ce4bh5p2rcd13ifvqe4g","pricing_plan_id":"cebpf4jnsgd1na2vs0mg"},{"bike_id":"2863b9fc-1102-4394-a6ac-204ed254f891","system_id":"levelo_inurba_marseille","lat":43.30245,"lon":5.40083,"is_reserved":false,"is_disabled":false,"rental_uris":{"android":"levelo://app?vid=2863b9fc-1102-4394-a6ac-204ed254f891","ios":"levelo://app?vid=2863b9fc-1102-4394-a6ac-204ed254f891"},"vehicle_type_id":"4","last_reported":1734041377,"current_range_meters":38800,"station_id":"ce4bgvh2rcd13ifvqcs0","pricing_plan_id":"cebpf4jnsgd1na2vs0mg"},{"bike_id":"33400e60-39b9-42c2-89ef-b84fdae2a31c","system_id":"levelo_inurba_marseille","lat":43.28104,"lon":5.37836,"is_reserved":false,"is_disabled":false,"rental_uris":{"android":"levelo://app?vid=33400e60-39b9-42c2-89ef-b84fdae2a31c","ios":"levelo://app?vid=33400e60-39b9-42c2-89ef-b84fdae2a31c"},"vehicle_type_id":"4","last_reported":1734041377,"current_range_meters":30000,"station_id":"ce4bha12rcd13ifvqee0","pricing_plan_id":"cebpf4jnsgd1na2vs0mg"},{"bike_id":"d5051bba-cccf-49e8-9202-868cf3be308f","system_id":"levelo_inurba_marseille","lat":43.27432,"lon":5.39423,"is_reserved":false,"is_disabled":false,"rental_uris":{"android":"levelo://app?vid=d5051bba-cccf-49e8-9202-868cf3be308f","ios":"levelo://app?vid=d5051bba-cccf-49e8-9202-868cf3be308f"},"vehicle_type_id":"4","last_reported":1734041377,"current_range_meters":13600,"station_id":"ce4bhdp2rcd13ifvqf20","pricing_plan_id":"cebpf4jnsgd1na2vs0mg"},{"bike_id":"d65fcea9-51ba-41f0-86fd-e798dfdd6f09","system_id":"levelo_inurba_marseille","lat":43.2868,"lon":5.38309,"is_reserved":false,"is_disabled":true,"rental_uris":{"android":"levelo://app?vid=d65fcea9-51ba-41f0-86fd-e798dfdd6f09","ios":"levelo://app?vid=d65fcea9-51ba-41f0-86fd-e798dfdd6f09"},"vehicle_type_id":"4","last_reported":1734041377,"current_range_meters":800,"station_id":"","pricing_plan_id":"cebpf4jnsgd1na2vs0mg"},{"bike_id":"9f90c432-ac23-4439-a028-afaf147c7c4b","system_id":"levelo_inurba_marseille","lat":43.27498,"lon":5.42453,"is_reserved":false,"is_disabled":false,"rental_uris":{"android":"levelo://app?vid=9f90c432-ac23-4439-a028-afaf147c7c4b","ios":"levelo://app?vid=9f90c432-ac23-4439-a028-afaf147c7c4b"},"vehicle_type_id":"4","last_reported":1734041377,"current_range_meters":8800,"station_id":"ce4bhn92rcd13ifvqgrg","pricing_plan_id":"cebpf4jnsgd1na2vs0mg"},{"bike_id":"3cffa040-7e8b-4d9e-a1bd-b8a78d782447","system_id":"levelo_inurba_marseille","lat":43.314905,"lon":5.373088,"is_reserved":false,"is_disabled":false,"rental_uris":{"android":"levelo://app?vid=3cffa040-7e8b-4d9e-a1bd-b8a78d782447","ios":"levelo://app?vid=3cffa040-7e8b-4d9e-a1bd-b8a78d782447"},"vehicle_type_id":"4","last_reported":1734041377,"current_range_meters":6400,"station_id":"","pricing_plan_id":"cebpf4jnsgd1na2vs0mg"},{"bike_id":"812146ef-5497-4746-b4ff-5d5d828fb6ac","system_id":"levelo_inurba_marseille","lat":43.31711,"lon":5.42393,"is_reserved":false,"is_disabled":false,"rental_uris":{"android":"levelo://app?vid=812146ef-5497-4746-b4ff-5d5d828fb6ac","ios":"levelo://app?vid=812146ef-5497-4746-b4ff-5d5d828fb6ac"},"vehicle_type_id":"4","last_reported":1734041377,"current_range_meters":38800,"station_id":"ce4bhp92rcd13ifvqhbg","pricing_plan_id":"cebpf4jnsgd1na2vs0mg"},{"bike_id":"e4f1b7b0-5d7b-41b5-b994-b33b77329499","system_id":"levelo_inurba_marseille","lat":43.26533,"lon":5.39461,"is_reserved":false,"is_disabled":false,"rental_uris":{"android":"levelo://app?vid=e4f1b7b0-5d7b-41b5-b994-b33b77329499","ios":"levelo://app?vid=e4f1b7b0-5d7b-41b5-b994-b33b77329499"},"vehicle_type_id":"4","last_reported":1734041377,"current_range_meters":38000,"station_id":"","pricing_plan_id":"cebpf4jnsgd1na2vs0mg"},{"bike_id":"e7cfd852-9909-436d-bad5-f8e28209031c","system_id":"levelo_inurba_marseille","lat":43.26937,"lon":5.40253,"is_reserved":false,"is_disabled":false,"rental_uris":{"android":"levelo://app?vid=e7cfd852-9909-436d-bad5-f8e28209031c","ios":"levelo://app?vid=e7cfd852-9909-436d-bad5-f8e28209031c"},"vehicle_type_id":"4","last_reported":1734041377,"current_range_meters":38800,"station_id":"cjm6bp8fraef2m0cb0m0","pricing_plan_id":"cebpf4jnsgd1na2vs0mg"},{"bike_id":"4873c46e-cb28-4a7f-a38b-62bd40ae6e70","system_id":"levelo_inurba_marseille","lat":43.27914,"lon":5.39582,"is_reserved":false,"is_disabled":true,"rental_uris":{"android":"levelo://app?vid=4873c46e-cb28-4a7f-a38b-62bd40ae6e70","ios":"levelo://app?vid=4873c46e-cb28-4a7f-a38b-62bd40ae6e70"},"vehicle_type_id":"4","last_reported":1734041377,"current_range_meters":30000,"station_id":"ce4bhf92rcd13ifvqf40","pricing_plan_id":"cebpf4jnsgd1na2vs0mg"},{"bike_id":"5fd2d230-b800-4b85-b8f9-d759ea94e1ca","system_id":"levelo_inurba_marseille","lat":43.28154,"lon":5.42631,"is_reserved":false,"is_disabled":false,"rental_uris":{"android":"levelo://app?vid=5fd2d230-b800-4b85-b8f9-d759ea94e1ca","ios":"levelo://app?vid=5fd2d230-b800-4b85-b8f9-d759ea94e1ca"},"vehicle_type_id":"4","last_reported":1734041377,"current_range_meters":24000,"station_id":"ce4bhnh2rcd13ifvqgug","pricing_plan_id":"cebpf4jnsgd1na2vs0mg"},{"bike_id":"64203de9-e72b-4d66-9a84-7a315c7ed37f","system_id":"levelo_inurba_marseille","lat":43.29438,"lon":5.3744,"is_reserved":false,"is_disabled":true,"rental_uris":{"android":"levelo://app?vid=64203de9-e72b-4d66-9a84-7a315c7ed37f","ios":"levelo://app?vid=64203de9-e72b-4d66-9a84-7a315c7ed37f"},"vehicle_type_id":"4","last_reported":1734041377,"current_range_meters":0,"station_id":"","pricing_plan_id":"cebpf4jnsgd1na2vs0mg"},{"bike_id":"1331cd78-1394-4f8d-b809-165b4263d86c","system_id":"levelo_inurba_marseille","lat":43.30924,"lon":5.40149,"is_reserved":false,"is_disabled":false,"rental_uris":{"android":"levelo://app?vid=1331cd78-1394-4f8d-b809-165b4263d86c","ios":"levelo://app?vid=1331cd78-1394-4f8d-b809-165b4263d86c"},"vehicle_type_id":"4","last_reported":1734041377,"current_range_meters":36800,"station_id":"ce4bgvp2rcd13ifvqct0","pricing_plan_id":"cebpf4jnsgd1na2vs0mg"},{"bike_id":"0229df6d-5289-4a3c-9b7f-bb9932b498a5","system_id":"levelo_inurba_marseille","lat":43.30599,"lon":5.39351,"is_reserved":false,"is_disabled":false,"rental_uris":{"android":"levelo://app?vid=0229df6d-5289-4a3c-9b7f-bb9932b498a5","ios":"levelo://app?vid=0229df6d-5289-4a3c-9b7f-bb9932b498a5"},"vehicle_type_id":"4","last_reported":1734041377,"current_range_meters":38800,"station_id":"ce4bh0p2rcd13ifvqd80","pricing_plan_id":"cebpf4jnsgd1na2vs0mg"},{"bike_id":"5ad49f46-c8b1-4229-8526-82b654075154","system_id":"levelo_inurba_marseille","lat":43.3117,"lon":5.38715,"is_reserved":false,"is_disabled":false,"rental_uris":{"android":"levelo://app?vid=5ad49f46-c8b1-4229-8526-82b654075154","ios":"levelo://app?vid=5ad49f46-c8b1-4229-8526-82b654075154"},"vehicle_type_id":"4","last_reported":1734041377,"current_range_meters":29600,"station_id":"ce4bgv12rcd13ifvqcp0","pricing_plan_id":"cebpf4jnsgd1na2vs0mg"},{"bike_id":"8f2dce46-c437-4b0d-a877-4841ecbd74cb","system_id":"levelo_inurba_marseille","lat":43.30414,"lon":5.41287,"is_reserved":false,"is_disabled":false,"rental_uris":{"android":"levelo://app?vid=8f2dce46-c437-4b0d-a877-4841ecbd74cb","ios":"levelo://app?vid=8f2dce46-c437-4b0d-a877-4841ecbd74cb"},"vehicle_type_id":"4","last_reported":1734041377,"current_range_meters":38800,"station_id":"ce4bhop2rcd13ifvqh8g","pricing_plan_id":"cebpf4jnsgd1na2vs0mg"},{"bike_id":"05cccde2-6fc9-46eb-9e62-f12f14b5d5c1","system_id":"levelo_inurba_marseille","lat":43.25725,"lon":5.41109,"is_reserved":false,"is_disabled":false,"rental_uris":{"android":"levelo://app?vid=05cccde2-6fc9-46eb-9e62-f12f14b5d5c1","ios":"levelo://app?vid=05cccde2-6fc9-46eb-9e62-f12f14b5d5c1"},"vehicle_type_id":"4","last_reported":1734041377,"current_range_meters":38000,"station_id":"ce4bhkp2rcd13ifvqgd0","pricing_plan_id":"cebpf4jnsgd1na2vs0mg"},{"bike_id":"9b113118-f269-4fee-9233-a39c056dbfe2","system_id":"levelo_inurba_marseille","lat":43.31701,"lon":5.37761,"is_reserved":false,"is_disabled":false,"rental_uris":{"android":"levelo://app?vid=9b113118-f269-4fee-9233-a39c056dbfe2","ios":"levelo://app?vid=9b113118-f269-4fee-9233-a39c056dbfe2"},"vehicle_type_id":"4","last_reported":1734041377,"current_range_meters":38800,"station_id":"ce4bgth2rcd13ifvqch0","pricing_plan_id":"cebpf4jnsgd1na2vs0mg"},{"bike_id":"fc417d41-6507-4952-85e0-27465bfcc030","system_id":"levelo_inurba_marseille","lat":43.261871,"lon":5.374558,"is_reserved":false,"is_disabled":false,"rental_uris":{"android":"levelo://app?vid=fc417d41-6507-4952-85e0-27465bfcc030","ios":"levelo://app?vid=fc417d41-6507-4952-85e0-27465bfcc030"},"vehicle_type_id":"4","last_reported":1734041377,"current_range_meters":16800,"station_id":"ce4bhgp2rcd13ifvqfc0","pricing_plan_id":"cebpf4jnsgd1na2vs0mg"},{"bike_id":"28368810-eab7-440e-8db4-6b7fa4712989","system_id":"levelo_inurba_marseille","lat":43.29255,"lon":5.40901,"is_reserved":false,"is_disabled":false,"rental_uris":{"android":"levelo://app?vid=28368810-eab7-440e-8db4-6b7fa4712989","ios":"levelo://app?vid=28368810-eab7-440e-8db4-6b7fa4712989"},"vehicle_type_id":"4","last_reported":1734041377,"current_range_meters":30000,"station_id":"ce4bh192rcd13ifvqdc0","pricing_plan_id":"cebpf4jnsgd1na2vs0mg"},{"bike_id":"18449eca-7cd4-4637-aad8-d740a9109818","system_id":"levelo_inurba_marseille","lat":43.26806,"lon":5.40281,"is_reserved":false,"is_disabled":false,"rental_uris":{"android":"levelo://app?vid=18449eca-7cd4-4637-aad8-d740a9109818","ios":"levelo://app?vid=18449eca-7cd4-4637-aad8-d740a9109818"},"vehicle_type_id":"4","last_reported":1734041377,"current_range_meters":37600,"station_id":"ce501612rcd8frsf0b60","pricing_plan_id":"cebpf4jnsgd1na2vs0mg"},{"bike_id":"875e1e70-a4d6-4de2-a9b5-49d5f2778c60","system_id":"levelo_inurba_marseille","lat":43.248,"lon":5.37454,"is_reserved":false,"is_disabled":false,"rental_uris":{"android":"levelo://app?vid=875e1e70-a4d6-4de2-a9b5-49d5f2778c60","ios":"levelo://app?vid=875e1e70-a4d6-4de2-a9b5-49d5f2778c60"},"vehicle_type_id":"4","last_reported":1734041377,"current_range_meters":20000,"station_id":"ce4bhgh2rcd13ifvqfb0","pricing_plan_id":"cebpf4jnsgd1na2vs0mg"},{"bike_id":"3888a69b-a227-446c-9ee0-0e069b6a22ce","system_id":"levelo_inurba_marseille","lat":43.28114,"lon":5.37815,"is_reserved":false,"is_disabled":false,"rental_uris":{"android":"levelo://app?vid=3888a69b-a227-446c-9ee0-0e069b6a22ce","ios":"levelo://app?vid=3888a69b-a227-446c-9ee0-0e069b6a22ce"},"vehicle_type_id":"4","last_reported":1734041377,"current_range_meters":12000,"station_id":"ce4bha12rcd13ifvqee0","pricing_plan_id":"cebpf4jnsgd1na2vs0mg"},{"bike_id":"3d91e3c5-7cef-4a6b-b72c-1f72f9823e2d","system_id":"levelo_inurba_marseille","lat":43.29739,"lon":5.36155,"is_reserved":false,"is_disabled":true,"rental_uris":{"android":"levelo://app?vid=3d91e3c5-7cef-4a6b-b72c-1f72f9823e2d","ios":"levelo://app?vid=3d91e3c5-7cef-4a6b-b72c-1f72f9823e2d"},"vehicle_type_id":"4","last_reported":1734041377,"current_range_meters":0,"station_id":"","pricing_plan_id":"cebpf4jnsgd1na2vs0mg"},{"bike_id":"e42ae692-dc4e-42e4-9a0a-618a698f24a8","system_id":"levelo_inurba_marseille","lat":43.27425,"lon":5.39412,"is_reserved":false,"is_disabled":false,"rental_uris":{"android":"levelo://app?vid=e42ae692-dc4e-42e4-9a0a-618a698f24a8","ios":"levelo://app?vid=e42ae692-dc4e-42e4-9a0a-618a698f24a8"},"vehicle_type_id":"4","last_reported":1734041377,"current_range_meters":37600,"station_id":"ce4bhdp2rcd13ifvqf20","pricing_plan_id":"cebpf4jnsgd1na2vs0mg"},{"bike_id":"c4cf1c56-f9fb-4a4c-8b5b-9fc51a76262c","system_id":"levelo_inurba_marseille","lat":43.28851,"lon":5.39329,"is_reserved":false,"is_disabled":false,"rental_uris":{"android":"levelo://app?vid=c4cf1c56-f9fb-4a4c-8b5b-9fc51a76262c","ios":"levelo://app?vid=c4cf1c56-f9fb-4a4c-8b5b-9fc51a76262c"},"vehicle_type_id":"4","last_reported":1734041377,"current_range_meters":36800,"station_id":"ce4bh2p2rcd13ifvqdi0","pricing_plan_id":"cebpf4jnsgd1na2vs0mg"},{"bike_id":"e939de06-d909-4758-b8f3-8d43330311ae","system_id":"levelo_inurba_marseille","lat":43.25597,"lon":5.38254,"is_reserved":false,"is_disabled":false,"rental_uris":{"android":"levelo://app?vid=e939de06-d909-4758-b8f3-8d43330311ae","ios":"levelo://app?vid=e939de06-d909-4758-b8f3-8d43330311ae"},"vehicle_type_id":"4","last_reported":1734041377,"current_range_meters":38800,"station_id":"ce4bhih2rcd13ifvqfs0","pricing_plan_id":"cebpf4jnsgd1na2vs0mg"},{"bike_id":"51ae8e81-d2e6-4fc5-afaf-7d322b1ec556","system_id":"levelo_inurba_marseille","lat":43.30639,"lon":5.4008,"is_reserved":false,"is_disabled":false,"rental_uris":{"android":"levelo://app?vid=51ae8e81-d2e6-4fc5-afaf-7d322b1ec556","ios":"levelo://app?vid=51ae8e81-d2e6-4fc5-afaf-7d322b1ec556"},"vehicle_type_id":"4","last_reported":1734041377,"current_range_meters":25200,"station_id":"ce4bh112rcd13ifvqda0","pricing_plan_id":"cebpf4jnsgd1na2vs0mg"},{"bike_id":"49b8ce55-6ea6-43d2-bb4d-a3be63615a4c","system_id":"levelo_inurba_marseille","lat":43.30883,"lon":5.39621,"is_reserved":false,"is_disabled":false,"rental_uris":{"android":"levelo://app?vid=49b8ce55-6ea6-43d2-bb4d-a3be63615a4c","ios":"levelo://app?vid=49b8ce55-6ea6-43d2-bb4d-a3be63615a4c"},"vehicle_type_id":"4","last_reported":1734041377,"current_range_meters":38800,"station_id":"ce4bh012rcd13ifvqcv0","pricing_plan_id":"cebpf4jnsgd1na2vs0mg"},{"bike_id":"efb655cb-2785-4efc-abaf-ae9549ebe3e6","system_id":"levelo_inurba_marseille","lat":43.240705,"lon":5.377183,"is_reserved":false,"is_disabled":false,"rental_uris":{"android":"levelo://app?vid=efb655cb-2785-4efc-abaf-ae9549ebe3e6","ios":"levelo://app?vid=efb655cb-2785-4efc-abaf-ae9549ebe3e6"},"vehicle_type_id":"4","last_reported":1734041377,"current_range_meters":37600,"station_id":"ce4bhnp2rcd13ifvqgvg","pricing_plan_id":"cebpf4jnsgd1na2vs0mg"},{"bike_id":"32024ab4-c07d-4aab-9d5e-1b4a86ac8681","system_id":"levelo_inurba_marseille","lat":43.26197,"lon":5.37448,"is_reserved":false,"is_disabled":true,"rental_uris":{"android":"levelo://app?vid=32024ab4-c07d-4aab-9d5e-1b4a86ac8681","ios":"levelo://app?vid=32024ab4-c07d-4aab-9d5e-1b4a86ac8681"},"vehicle_type_id":"4","last_reported":1734041377,"current_range_meters":38800,"station_id":"ce4bhgp2rcd13ifvqfc0","pricing_plan_id":"cebpf4jnsgd1na2vs0mg"},{"bike_id":"6bcae189-bfbf-4d49-b342-470958698813","system_id":"levelo_inurba_marseille","lat":43.28104,"lon":5.37837,"is_reserved":false,"is_disabled":false,"rental_uris":{"android":"levelo://app?vid=6bcae189-bfbf-4d49-b342-470958698813","ios":"levelo://app?vid=6bcae189-bfbf-4d49-b342-470958698813"},"vehicle_type_id":"4","last_reported":1734041377,"current_range_meters":36800,"station_id":"ce4bha12rcd13ifvqee0","pricing_plan_id":"cebpf4jnsgd1na2vs0mg"},{"bike_id":"e88f72be-0ed4-4a2d-9927-0de228a41be5","system_id":"levelo_inurba_marseille","lat":43.31102,"lon":5.42434,"is_reserved":false,"is_disabled":false,"rental_uris":{"android":"levelo://app?vid=e88f72be-0ed4-4a2d-9927-0de228a41be5","ios":"levelo://app?vid=e88f72be-0ed4-4a2d-9927-0de228a41be5"},"vehicle_type_id":"4","last_reported":1734041377,"current_range_meters":39200,"station_id":"ce4bhp92rcd13ifvqhag","pricing_plan_id":"cebpf4jnsgd1na2vs0mg"},{"bike_id":"bd141b7d-ae51-452b-a515-b3f772f4727c","system_id":"levelo_inurba_marseille","lat":43.28848,"lon":5.39318,"is_reserved":false,"is_disabled":false,"rental_uris":{"android":"levelo://app?vid=bd141b7d-ae51-452b-a515-b3f772f4727c","ios":"levelo://app?vid=bd141b7d-ae51-452b-a515-b3f772f4727c"},"vehicle_type_id":"4","last_reported":1734041377,"current_range_meters":19200,"station_id":"ce4bh2p2rcd13ifvqdi0","pricing_plan_id":"cebpf4jnsgd1na2vs0mg"},{"bike_id":"f0f21383-8591-42b0-820c-046731a4a6e4","system_id":"levelo_inurba_marseille","lat":43.30938,"lon":5.40137,"is_reserved":false,"is_disabled":false,"rental_uris":{"android":"levelo://app?vid=f0f21383-8591-42b0-820c-046731a4a6e4","ios":"levelo://app?vid=f0f21383-8591-42b0-820c-046731a4a6e4"},"vehicle_type_id":"4","last_reported":1734041377,"current_range_meters":39200,"station_id":"ce4bgvp2rcd13ifvqct0","pricing_plan_id":"cebpf4jnsgd1na2vs0mg"},{"bike_id":"85fc7ebc-e1ee-4e0e-81f6-502ecea0cb12","system_id":"levelo_inurba_marseille","lat":43.33019,"lon":5.39045,"is_reserved":false,"is_disabled":false,"rental_uris":{"android":"levelo://app?vid=85fc7ebc-e1ee-4e0e-81f6-502ecea0cb12","ios":"levelo://app?vid=85fc7ebc-e1ee-4e0e-81f6-502ecea0cb12"},"vehicle_type_id":"4","last_reported":1734041377,"current_range_meters":38800,"station_id":"ce4bhr92rcd13ifvqhrg","pricing_plan_id":"cebpf4jnsgd1na2vs0mg"},{"bike_id":"59233356-1163-4331-bac7-d0b062a429be","system_id":"levelo_inurba_marseille","lat":43.28,"lon":5.40023,"is_reserved":false,"is_disabled":false,"rental_uris":{"android":"levelo://app?vid=59233356-1163-4331-bac7-d0b062a429be","ios":"levelo://app?vid=59233356-1163-4331-bac7-d0b062a429be"},"vehicle_type_id":"4","last_reported":1734041377,"current_range_meters":38000,"station_id":"ce4bho92rcd13ifvqh4g","pricing_plan_id":"cebpf4jnsgd1na2vs0mg"},{"bike_id":"2979497b-78e3-4a72-9256-3bb1a4f8f177","system_id":"levelo_inurba_marseille","lat":43.26547,"lon":5.37305,"is_reserved":false,"is_disabled":false,"rental_uris":{"android":"levelo://app?vid=2979497b-78e3-4a72-9256-3bb1a4f8f177","ios":"levelo://app?vid=2979497b-78e3-4a72-9256-3bb1a4f8f177"},"vehicle_type_id":"4","last_reported":1734041377,"current_range_meters":25200,"station_id":"ce4bhg12rcd13ifvqf70","pricing_plan_id":"cebpf4jnsgd1na2vs0mg"},{"bike_id":"6bc7401a-ad66-4e4d-bfd6-a954bc5b40c0","system_id":"levelo_inurba_marseille","lat":43.337527,"lon":5.37441,"is_reserved":false,"is_disabled":false,"rental_uris":{"android":"levelo://app?vid=6bc7401a-ad66-4e4d-bfd6-a954bc5b40c0","ios":"levelo://app?vid=6bc7401a-ad66-4e4d-bfd6-a954bc5b40c0"},"vehicle_type_id":"4","last_reported":1734041377,"current_range_meters":32800,"station_id":"","pricing_plan_id":"cebpf4jnsgd1na2vs0mg"},{"bike_id":"a5be6c6e-6632-45c5-a5c1-34ef67f28fec","system_id":"levelo_inurba_marseille","lat":43.28858,"lon":5.35855,"is_reserved":false,"is_disabled":false,"rental_uris":{"android":"levelo://app?vid=a5be6c6e-6632-45c5-a5c1-34ef67f28fec","ios":"levelo://app?vid=a5be6c6e-6632-45c5-a5c1-34ef67f28fec"},"vehicle_type_id":"4","last_reported":1734041377,"current_range_meters":33600,"station_id":"ce4bhb12rcd13ifvqem0","pricing_plan_id":"cebpf4jnsgd1na2vs0mg"},{"bike_id":"f0a4f587-2333-4a7a-8819-09121e495e1b","system_id":"levelo_inurba_marseille","lat":43.22931,"lon":5.35372,"is_reserved":false,"is_disabled":false,"rental_uris":{"android":"levelo://app?vid=f0a4f587-2333-4a7a-8819-09121e495e1b","ios":"levelo://app?vid=f0a4f587-2333-4a7a-8819-09121e495e1b"},"vehicle_type_id":"4","last_reported":1734041377,"current_range_meters":7200,"station_id":"cpo3532slgdg3j2ikp40","pricing_plan_id":"cebpf4jnsgd1na2vs0mg"},{"bike_id":"2bfbefe1-2355-4d23-9902-67fe1871d777","system_id":"levelo_inurba_marseille","lat":43.28865,"lon":5.35844,"is_reserved":false,"is_disabled":false,"rental_uris":{"android":"levelo://app?vid=2bfbefe1-2355-4d23-9902-67fe1871d777","ios":"levelo://app?vid=2bfbefe1-2355-4d23-9902-67fe1871d777"},"vehicle_type_id":"4","last_reported":1734041377,"current_range_meters":37600,"station_id":"ce4bhb12rcd13ifvqem0","pricing_plan_id":"cebpf4jnsgd1na2vs0mg"},{"bike_id":"1546c62b-667d-400f-8c8c-7b42c51b6006","system_id":"levelo_inurba_marseille","lat":43.29526,"lon":5.39027,"is_reserved":false,"is_disabled":false,"rental_uris":{"android":"levelo://app?vid=1546c62b-667d-400f-8c8c-7b42c51b6006","ios":"levelo://app?vid=1546c62b-667d-400f-8c8c-7b42c51b6006"},"vehicle_type_id":"4","last_reported":1734041377,"current_range_meters":38000,"station_id":"ce4bh3p2rcd13ifvqdp0","pricing_plan_id":"cebpf4jnsgd1na2vs0mg"},{"bike_id":"8bf93698-29e2-4fb3-9eee-f9bfe683de1d","system_id":"levelo_inurba_marseille","lat":43.29514,"lon":5.39412,"is_reserved":false,"is_disabled":false,"rental_uris":{"android":"levelo://app?vid=8bf93698-29e2-4fb3-9eee-f9bfe683de1d","ios":"levelo://app?vid=8bf93698-29e2-4fb3-9eee-f9bfe683de1d"},"vehicle_type_id":"4","last_reported":1734041377,"current_range_meters":38800,"station_id":"ce4bh292rcd13ifvqdf0","pricing_plan_id":"cebpf4jnsgd1na2vs0mg"},{"bike_id":"e2b090ff-7c7f-4d4a-8f5b-c317e750043e","system_id":"levelo_inurba_marseille","lat":43.27065,"lon":5.42275,"is_reserved":false,"is_disabled":true,"rental_uris":{"android":"levelo://app?vid=e2b090ff-7c7f-4d4a-8f5b-c317e750043e","ios":"levelo://app?vid=e2b090ff-7c7f-4d4a-8f5b-c317e750043e"},"vehicle_type_id":"4","last_reported":1734041377,"current_range_meters":0,"station_id":"ce4bhk92rcd13ifvqgb0","pricing_plan_id":"cebpf4jnsgd1na2vs0mg"},{"bike_id":"1be4dfd7-b95c-4558-b62a-debc1f52eb94","system_id":"levelo_inurba_marseille","lat":43.2707,"lon":5.42272,"is_reserved":false,"is_disabled":false,"rental_uris":{"android":"levelo://app?vid=1be4dfd7-b95c-4558-b62a-debc1f52eb94","ios":"levelo://app?vid=1be4dfd7-b95c-4558-b62a-debc1f52eb94"},"vehicle_type_id":"4","last_reported":1734041377,"current_range_meters":39200,"station_id":"ce4bhk92rcd13ifvqgb0","pricing_plan_id":"cebpf4jnsgd1na2vs0mg"},{"bike_id":"eb1496f4-67ed-47fd-8660-60023378367f","system_id":"levelo_inurba_marseille","lat":43.29422,"lon":5.37431,"is_reserved":false,"is_disabled":true,"rental_uris":{"android":"levelo://app?vid=eb1496f4-67ed-47fd-8660-60023378367f","ios":"levelo://app?vid=eb1496f4-67ed-47fd-8660-60023378367f"},"vehicle_type_id":"4","last_reported":1734041377,"current_range_meters":0,"station_id":"","pricing_plan_id":"cebpf4jnsgd1na2vs0mg"},{"bike_id":"21f9ec22-c921-4886-91dd-a6e302eb5e31","system_id":"levelo_inurba_marseille","lat":43.28077,"lon":5.39636,"is_reserved":false,"is_disabled":false,"rental_uris":{"android":"levelo://app?vid=21f9ec22-c921-4886-91dd-a6e302eb5e31","ios":"levelo://app?vid=21f9ec22-c921-4886-91dd-a6e302eb5e31"},"vehicle_type_id":"4","last_reported":1734041377,"current_range_meters":10000,"station_id":"ce4bho12rcd13ifvqh2g","pricing_plan_id":"cebpf4jnsgd1na2vs0mg"},{"bike_id":"a29ec15a-0267-4de8-b687-0d568e0a6a18","system_id":"levelo_inurba_marseille","lat":43.31004,"lon":5.37943,"is_reserved":false,"is_disabled":true,"rental_uris":{"android":"levelo://app?vid=a29ec15a-0267-4de8-b687-0d568e0a6a18","ios":"levelo://app?vid=a29ec15a-0267-4de8-b687-0d568e0a6a18"},"vehicle_type_id":"4","last_reported":1734041377,"current_range_meters":2000,"station_id":"","pricing_plan_id":"cebpf4jnsgd1na2vs0mg"},{"bike_id":"05877c7d-1db0-4268-93bc-bd6e6fb7172d","system_id":"levelo_inurba_marseille","lat":43.28083,"lon":5.39663,"is_reserved":false,"is_disabled":false,"rental_uris":{"android":"levelo://app?vid=05877c7d-1db0-4268-93bc-bd6e6fb7172d","ios":"levelo://app?vid=05877c7d-1db0-4268-93bc-bd6e6fb7172d"},"vehicle_type_id":"4","last_reported":1734041377,"current_range_meters":27200,"station_id":"ce4bho12rcd13ifvqh2g","pricing_plan_id":"cebpf4jnsgd1na2vs0mg"},{"bike_id":"62093206-4e3d-405a-b762-87c233065bd4","system_id":"levelo_inurba_marseille","lat":43.27809,"lon":5.40717,"is_reserved":false,"is_disabled":false,"rental_uris":{"android":"levelo://app?vid=62093206-4e3d-405a-b762-87c233065bd4","ios":"levelo://app?vid=62093206-4e3d-405a-b762-87c233065bd4"},"vehicle_type_id":"4","last_reported":1734041377,"current_range_meters":10800,"station_id":"ce4bhnh2rcd13ifvqgtg","pricing_plan_id":"cebpf4jnsgd1na2vs0mg"},{"bike_id":"769d39d1-4d8b-4897-b247-3ca24a894642","system_id":"levelo_inurba_marseille","lat":43.31487,"lon":5.37299,"is_reserved":false,"is_disabled":false,"rental_uris":{"android":"levelo://app?vid=769d39d1-4d8b-4897-b247-3ca24a894642","ios":"levelo://app?vid=769d39d1-4d8b-4897-b247-3ca24a894642"},"vehicle_type_id":"4","last_reported":1734041377,"current_range_meters":38800,"station_id":"ce4bgt12rcd13ifvqcd0","pricing_plan_id":"cebpf4jnsgd1na2vs0mg"},{"bike_id":"420d6b60-e63c-401b-baae-0ddfe021290a","system_id":"levelo_inurba_marseille","lat":43.30194,"lon":5.36602,"is_reserved":false,"is_disabled":false,"rental_uris":{"android":"levelo://app?vid=420d6b60-e63c-401b-baae-0ddfe021290a","ios":"levelo://app?vid=420d6b60-e63c-401b-baae-0ddfe021290a"},"vehicle_type_id":"4","last_reported":1734041377,"current_range_meters":25200,"station_id":"ce4bgrh2rcd13ifvqc8g","pricing_plan_id":"cebpf4jnsgd1na2vs0mg"},{"bike_id":"097a41bf-6635-41a6-b7a7-1173cae29ada","system_id":"levelo_inurba_marseille","lat":43.22926,"lon":5.35379,"is_reserved":false,"is_disabled":false,"rental_uris":{"android":"levelo://app?vid=097a41bf-6635-41a6-b7a7-1173cae29ada","ios":"levelo://app?vid=097a41bf-6635-41a6-b7a7-1173cae29ada"},"vehicle_type_id":"4","last_reported":1734041377,"current_range_meters":38800,"station_id":"cpo3532slgdg3j2ikp40","pricing_plan_id":"cebpf4jnsgd1na2vs0mg"},{"bike_id":"4d5881bc-1b66-4424-9cca-37b7d62f3c7f","system_id":"levelo_inurba_marseille","lat":43.2994,"lon":5.38494,"is_reserved":false,"is_disabled":false,"rental_uris":{"android":"levelo://app?vid=4d5881bc-1b66-4424-9cca-37b7d62f3c7f","ios":"levelo://app?vid=4d5881bc-1b66-4424-9cca-37b7d62f3c7f"},"vehicle_type_id":"4","last_reported":1734041377,"current_range_meters":36800,"station_id":"ce4bgj92rcd13ifvqbd0","pricing_plan_id":"cebpf4jnsgd1na2vs0mg"},{"bike_id":"f1ac6ac3-50c4-45a3-807d-dc2a982c9232","system_id":"levelo_inurba_marseille","lat":43.24803,"lon":5.3745,"is_reserved":false,"is_disabled":false,"rental_uris":{"android":"levelo://app?vid=f1ac6ac3-50c4-45a3-807d-dc2a982c9232","ios":"levelo://app?vid=f1ac6ac3-50c4-45a3-807d-dc2a982c9232"},"vehicle_type_id":"4","last_reported":1734041377,"current_range_meters":36800,"station_id":"ce4bhgh2rcd13ifvqfb0","pricing_plan_id":"cebpf4jnsgd1na2vs0mg"},{"bike_id":"73c649f1-573c-4ef2-b7fd-0a6363ea8204","system_id":"levelo_inurba_marseille","lat":43.25083,"lon":5.39513,"is_reserved":false,"is_disabled":false,"rental_uris":{"android":"levelo://app?vid=73c649f1-573c-4ef2-b7fd-0a6363ea8204","ios":"levelo://app?vid=73c649f1-573c-4ef2-b7fd-0a6363ea8204"},"vehicle_type_id":"4","last_reported":1734041377,"current_range_meters":35600,"station_id":"ce4bhm12rcd13ifvqgkg","pricing_plan_id":"cebpf4jnsgd1na2vs0mg"},{"bike_id":"c105de93-e3e8-40fe-bca3-ba5aeed4e7af","system_id":"levelo_inurba_marseille","lat":43.31711,"lon":5.37749,"is_reserved":false,"is_disabled":false,"rental_uris":{"android":"levelo://app?vid=c105de93-e3e8-40fe-bca3-ba5aeed4e7af","ios":"levelo://app?vid=c105de93-e3e8-40fe-bca3-ba5aeed4e7af"},"vehicle_type_id":"4","last_reported":1734041377,"current_range_meters":38800,"station_id":"ce4bgth2rcd13ifvqch0","pricing_plan_id":"cebpf4jnsgd1na2vs0mg"},{"bike_id":"e74372ac-2a6c-47ae-afc7-e1b4e1c3d13f","system_id":"levelo_inurba_marseille","lat":43.23067,"lon":5.35492,"is_reserved":false,"is_disabled":false,"rental_uris":{"android":"levelo://app?vid=e74372ac-2a6c-47ae-afc7-e1b4e1c3d13f","ios":"levelo://app?vid=e74372ac-2a6c-47ae-afc7-e1b4e1c3d13f"},"vehicle_type_id":"4","last_reported":1734041377,"current_range_meters":12000,"station_id":"cpo3342slgdg3j2ifvpg","pricing_plan_id":"cebpf4jnsgd1na2vs0mg"},{"bike_id":"a6cd13c4-dd07-4fbb-8b9d-bb839caf7dbf","system_id":"levelo_inurba_marseille","lat":43.281036,"lon":5.378344,"is_reserved":false,"is_disabled":false,"rental_uris":{"android":"levelo://app?vid=a6cd13c4-dd07-4fbb-8b9d-bb839caf7dbf","ios":"levelo://app?vid=a6cd13c4-dd07-4fbb-8b9d-bb839caf7dbf"},"vehicle_type_id":"4","last_reported":1734041377,"current_range_meters":28000,"station_id":"ce4bha12rcd13ifvqee0","pricing_plan_id":"cebpf4jnsgd1na2vs0mg"},{"bike_id":"e193ef0e-e328-415a-a8ad-7b8f709bf396","system_id":"levelo_inurba_marseille","lat":43.2849,"lon":5.37891,"is_reserved":false,"is_disabled":false,"rental_uris":{"android":"levelo://app?vid=e193ef0e-e328-415a-a8ad-7b8f709bf396","ios":"levelo://app?vid=e193ef0e-e328-415a-a8ad-7b8f709bf396"},"vehicle_type_id":"4","last_reported":1734041377,"current_range_meters":27200,"station_id":"","pricing_plan_id":"cebpf4jnsgd1na2vs0mg"},{"bike_id":"675fa160-61fc-4e71-8c60-9869c54cad3e","system_id":"levelo_inurba_marseille","lat":43.31169,"lon":5.38716,"is_reserved":false,"is_disabled":false,"rental_uris":{"android":"levelo://app?vid=675fa160-61fc-4e71-8c60-9869c54cad3e","ios":"levelo://app?vid=675fa160-61fc-4e71-8c60-9869c54cad3e"},"vehicle_type_id":"4","last_reported":1734041377,"current_range_meters":32400,"station_id":"ce4bgv12rcd13ifvqcp0","pricing_plan_id":"cebpf4jnsgd1na2vs0mg"},{"bike_id":"09451a97-2d80-43e9-9691-251899b1fc6e","system_id":"levelo_inurba_marseille","lat":43.29701,"lon":5.36593,"is_reserved":false,"is_disabled":false,"rental_uris":{"android":"levelo://app?vid=09451a97-2d80-43e9-9691-251899b1fc6e","ios":"levelo://app?vid=09451a97-2d80-43e9-9691-251899b1fc6e"},"vehicle_type_id":"4","last_reported":1734041377,"current_range_meters":39200,"station_id":"ce4bgn12rcd13ifvqbt0","pricing_plan_id":"cebpf4jnsgd1na2vs0mg"},{"bike_id":"b7753504-7c97-4ad3-9570-b6ae2f5889e2","system_id":"levelo_inurba_marseille","lat":43.30127,"lon":5.38784,"is_reserved":false,"is_disabled":false,"rental_uris":{"android":"levelo://app?vid=b7753504-7c97-4ad3-9570-b6ae2f5889e2","ios":"levelo://app?vid=b7753504-7c97-4ad3-9570-b6ae2f5889e2"},"vehicle_type_id":"4","last_reported":1734041377,"current_range_meters":38800,"station_id":"ce4bghh2rcd13ifvqb60","pricing_plan_id":"cebpf4jnsgd1na2vs0mg"},{"bike_id":"f45776b7-7455-45a8-88cf-b5bdb3d1d9e7","system_id":"levelo_inurba_marseille","lat":43.30859,"lon":5.37832,"is_reserved":false,"is_disabled":false,"rental_uris":{"android":"levelo://app?vid=f45776b7-7455-45a8-88cf-b5bdb3d1d9e7","ios":"levelo://app?vid=f45776b7-7455-45a8-88cf-b5bdb3d1d9e7"},"vehicle_type_id":"4","last_reported":1734041377,"current_range_meters":31200,"station_id":"","pricing_plan_id":"cebpf4jnsgd1na2vs0mg"},{"bike_id":"fe218123-8a4a-42eb-883f-f2564a296efb","system_id":"levelo_inurba_marseille","lat":43.28033,"lon":5.36941,"is_reserved":false,"is_disabled":false,"rental_uris":{"android":"levelo://app?vid=fe218123-8a4a-42eb-883f-f2564a296efb","ios":"levelo://app?vid=fe218123-8a4a-42eb-883f-f2564a296efb"},"vehicle_type_id":"4","last_reported":1734041377,"current_range_meters":38800,"station_id":"ce4bha12rcd13ifvqef0","pricing_plan_id":"cebpf4jnsgd1na2vs0mg"},{"bike_id":"7fb39d98-1f21-4dbe-bd45-34546b5e8c6a","system_id":"levelo_inurba_marseille","lat":43.28414,"lon":5.392,"is_reserved":false,"is_disabled":true,"rental_uris":{"android":"levelo://app?vid=7fb39d98-1f21-4dbe-bd45-34546b5e8c6a","ios":"levelo://app?vid=7fb39d98-1f21-4dbe-bd45-34546b5e8c6a"},"vehicle_type_id":"4","last_reported":1734041377,"current_range_meters":400,"station_id":"ce4bhoh2rcd13ifvqh5g","pricing_plan_id":"cebpf4jnsgd1na2vs0mg"},{"bike_id":"f503f8b0-bd40-45b9-ae5e-f7e19487a17d","system_id":"levelo_inurba_marseille","lat":43.29902,"lon":5.43663,"is_reserved":false,"is_disabled":false,"rental_uris":{"android":"levelo://app?vid=f503f8b0-bd40-45b9-ae5e-f7e19487a17d","ios":"levelo://app?vid=f503f8b0-bd40-45b9-ae5e-f7e19487a17d"},"vehicle_type_id":"4","last_reported":1734041377,"current_range_meters":38000,"station_id":"ce4bhpp2rcd13ifvqhfg","pricing_plan_id":"cebpf4jnsgd1na2vs0mg"},{"bike_id":"03aeeecc-cbab-4cea-8ceb-a991f4b46532","system_id":"levelo_inurba_marseille","lat":43.24393,"lon":5.3705,"is_reserved":false,"is_disabled":false,"rental_uris":{"android":"levelo://app?vid=03aeeecc-cbab-4cea-8ceb-a991f4b46532","ios":"levelo://app?vid=03aeeecc-cbab-4cea-8ceb-a991f4b46532"},"vehicle_type_id":"4","last_reported":1734041377,"current_range_meters":36800,"station_id":"ce4bhhh2rcd13ifvqfk0","pricing_plan_id":"cebpf4jnsgd1na2vs0mg"},{"bike_id":"1479cfab-edd7-4fd8-a4b8-731eb2904e02","system_id":"levelo_inurba_marseille","lat":43.30186,"lon":5.36633,"is_reserved":false,"is_disabled":false,"rental_uris":{"android":"levelo://app?vid=1479cfab-edd7-4fd8-a4b8-731eb2904e02","ios":"levelo://app?vid=1479cfab-edd7-4fd8-a4b8-731eb2904e02"},"vehicle_type_id":"4","last_reported":1734041377,"current_range_meters":35200,"station_id":"ce4bgrh2rcd13ifvqc8g","pricing_plan_id":"cebpf4jnsgd1na2vs0mg"},{"bike_id":"909fa209-8d1b-4f5b-940c-b791686b1efb","system_id":"levelo_inurba_marseille","lat":43.28671,"lon":5.36352,"is_reserved":false,"is_disabled":false,"rental_uris":{"android":"levelo://app?vid=909fa209-8d1b-4f5b-940c-b791686b1efb","ios":"levelo://app?vid=909fa209-8d1b-4f5b-940c-b791686b1efb"},"vehicle_type_id":"4","last_reported":1734041377,"current_range_meters":32000,"station_id":"ce4bhah2rcd13ifvqej0","pricing_plan_id":"cebpf4jnsgd1na2vs0mg"},{"bike_id":"3082828b-b6d5-44ca-9cf1-ff9db9bfc5d3","system_id":"levelo_inurba_marseille","lat":43.30418,"lon":5.38893,"is_reserved":false,"is_disabled":false,"rental_uris":{"android":"levelo://app?vid=3082828b-b6d5-44ca-9cf1-ff9db9bfc5d3","ios":"levelo://app?vid=3082828b-b6d5-44ca-9cf1-ff9db9bfc5d3"},"vehicle_type_id":"4","last_reported":1734041377,"current_range_meters":38800,"station_id":"ce4bgk12rcd13ifvqbi0","pricing_plan_id":"cebpf4jnsgd1na2vs0mg"},{"bike_id":"f0db4351-dd4b-4682-bd98-fb4be82177dc","system_id":"levelo_inurba_marseille","lat":43.23176,"lon":5.3999,"is_reserved":false,"is_disabled":false,"rental_uris":{"android":"levelo://app?vid=f0db4351-dd4b-4682-bd98-fb4be82177dc","ios":"levelo://app?vid=f0db4351-dd4b-4682-bd98-fb4be82177dc"},"vehicle_type_id":"4","last_reported":1734041377,"current_range_meters":38800,"station_id":"ce4bhn12rcd13ifvqgqg","pricing_plan_id":"cebpf4jnsgd1na2vs0mg"},{"bike_id":"6dffa893-46ea-4323-b743-a68568e451a1","system_id":"levelo_inurba_marseille","lat":43.28708,"lon":5.39986,"is_reserved":false,"is_disabled":false,"rental_uris":{"android":"levelo://app?vid=6dffa893-46ea-4323-b743-a68568e451a1","ios":"levelo://app?vid=6dffa893-46ea-4323-b743-a68568e451a1"},"vehicle_type_id":"4","last_reported":1734041377,"current_range_meters":24400,"station_id":"ce4bho92rcd13ifvqh3g","pricing_plan_id":"cebpf4jnsgd1na2vs0mg"},{"bike_id":"a66c4b95-337e-4b9a-950c-e8c8d8e7a3a1","system_id":"levelo_inurba_marseille","lat":43.324799,"lon":5.365716,"is_reserved":false,"is_disabled":true,"rental_uris":{"android":"levelo://app?vid=a66c4b95-337e-4b9a-950c-e8c8d8e7a3a1","ios":"levelo://app?vid=a66c4b95-337e-4b9a-950c-e8c8d8e7a3a1"},"vehicle_type_id":"4","last_reported":1734041377,"current_range_meters":0,"station_id":"","pricing_plan_id":"cebpf4jnsgd1na2vs0mg"},{"bike_id":"021da959-8b05-44e2-9e52-905b2428e174","system_id":"levelo_inurba_marseille","lat":43.23197,"lon":5.39985,"is_reserved":false,"is_disabled":false,"rental_uris":{"android":"levelo://app?vid=021da959-8b05-44e2-9e52-905b2428e174","ios":"levelo://app?vid=021da959-8b05-44e2-9e52-905b2428e174"},"vehicle_type_id":"4","last_reported":1734041377,"current_range_meters":38800,"station_id":"ce4bhn12rcd13ifvqgqg","pricing_plan_id":"cebpf4jnsgd1na2vs0mg"},{"bike_id":"701f7953-26ac-419c-86c0-378dbc90d072","system_id":"levelo_inurba_marseille","lat":43.28105,"lon":5.3784,"is_reserved":false,"is_disabled":false,"rental_uris":{"android":"levelo://app?vid=701f7953-26ac-419c-86c0-378dbc90d072","ios":"levelo://app?vid=701f7953-26ac-419c-86c0-378dbc90d072"},"vehicle_type_id":"4","last_reported":1734041377,"current_range_meters":30000,"station_id":"ce4bha12rcd13ifvqee0","pricing_plan_id":"cebpf4jnsgd1na2vs0mg"},{"bike_id":"002069da-d74c-4e41-ae54-1da711c0eed6","system_id":"levelo_inurba_marseille","lat":43.285993,"lon":5.4129,"is_reserved":false,"is_disabled":true,"rental_uris":{"android":"levelo://app?vid=002069da-d74c-4e41-ae54-1da711c0eed6","ios":"levelo://app?vid=002069da-d74c-4e41-ae54-1da711c0eed6"},"vehicle_type_id":"4","last_reported":1734041377,"current_range_meters":800,"station_id":"","pricing_plan_id":"cebpf4jnsgd1na2vs0mg"},{"bike_id":"67ea53be-ec72-4668-a452-027f706dcb22","system_id":"levelo_inurba_marseille","lat":43.255,"lon":5.37647,"is_reserved":false,"is_disabled":false,"rental_uris":{"android":"levelo://app?vid=67ea53be-ec72-4668-a452-027f706dcb22","ios":"levelo://app?vid=67ea53be-ec72-4668-a452-027f706dcb22"},"vehicle_type_id":"4","last_reported":1734041377,"current_range_meters":38400,"station_id":"ce4bhh12rcd13ifvqff0","pricing_plan_id":"cebpf4jnsgd1na2vs0mg"},{"bike_id":"003fcc20-75cd-4e78-9b9a-bd60ee138a76","system_id":"levelo_inurba_marseille","lat":43.25576,"lon":5.38241,"is_reserved":false,"is_disabled":false,"rental_uris":{"android":"levelo://app?vid=003fcc20-75cd-4e78-9b9a-bd60ee138a76","ios":"levelo://app?vid=003fcc20-75cd-4e78-9b9a-bd60ee138a76"},"vehicle_type_id":"4","last_reported":1734041377,"current_range_meters":38800,"station_id":"ce4bhih2rcd13ifvqfs0","pricing_plan_id":"cebpf4jnsgd1na2vs0mg"},{"bike_id":"0f4ef943-a326-4dfe-adc8-5ccfd365b83a","system_id":"levelo_inurba_marseille","lat":43.30627,"lon":5.40073,"is_reserved":false,"is_disabled":false,"rental_uris":{"android":"levelo://app?vid=0f4ef943-a326-4dfe-adc8-5ccfd365b83a","ios":"levelo://app?vid=0f4ef943-a326-4dfe-adc8-5ccfd365b83a"},"vehicle_type_id":"4","last_reported":1734041377,"current_range_meters":30800,"station_id":"ce4bh112rcd13ifvqda0","pricing_plan_id":"cebpf4jnsgd1na2vs0mg"},{"bike_id":"0dc53ed0-703c-41c7-a7ba-e5fe121ea6cc","system_id":"levelo_inurba_marseille","lat":43.27847,"lon":5.39204,"is_reserved":false,"is_disabled":true,"rental_uris":{"android":"levelo://app?vid=0dc53ed0-703c-41c7-a7ba-e5fe121ea6cc","ios":"levelo://app?vid=0dc53ed0-703c-41c7-a7ba-e5fe121ea6cc"},"vehicle_type_id":"4","last_reported":1734041377,"current_range_meters":34800,"station_id":"ce4bhjp2rcd13ifvqga0","pricing_plan_id":"cebpf4jnsgd1na2vs0mg"},{"bike_id":"a1b3e7ef-122c-4c3b-8be9-c3cc1fd01590","system_id":"levelo_inurba_marseille","lat":43.24536,"lon":5.39526,"is_reserved":false,"is_disabled":false,"rental_uris":{"android":"levelo://app?vid=a1b3e7ef-122c-4c3b-8be9-c3cc1fd01590","ios":"levelo://app?vid=a1b3e7ef-122c-4c3b-8be9-c3cc1fd01590"},"vehicle_type_id":"4","last_reported":1734041377,"current_range_meters":7200,"station_id":"ce4bhlp2rcd13ifvqgjg","pricing_plan_id":"cebpf4jnsgd1na2vs0mg"},{"bike_id":"1e09aea1-6592-4606-838e-01c5295332d1","system_id":"levelo_inurba_marseille","lat":43.32662,"lon":5.40984,"is_reserved":false,"is_disabled":true,"rental_uris":{"android":"levelo://app?vid=1e09aea1-6592-4606-838e-01c5295332d1","ios":"levelo://app?vid=1e09aea1-6592-4606-838e-01c5295332d1"},"vehicle_type_id":"4","last_reported":1734041377,"current_range_meters":35200,"station_id":"ce4bhpp2rcd13ifvqhgg","pricing_plan_id":"cebpf4jnsgd1na2vs0mg"},{"bike_id":"e5d9e91f-3013-4e14-9127-2183f4aa89fd","system_id":"levelo_inurba_marseille","lat":43.29285,"lon":5.40148,"is_reserved":false,"is_disabled":false,"rental_uris":{"android":"levelo://app?vid=e5d9e91f-3013-4e14-9127-2183f4aa89fd","ios":"levelo://app?vid=e5d9e91f-3013-4e14-9127-2183f4aa89fd"},"vehicle_type_id":"4","last_reported":1734041377,"current_range_meters":37600,"station_id":"ce4bh312rcd13ifvqdk0","pricing_plan_id":"cebpf4jnsgd1na2vs0mg"},{"bike_id":"cc66f151-2460-4bd1-9c55-81df03cdad0d","system_id":"levelo_inurba_marseille","lat":43.30518,"lon":5.36892,"is_reserved":false,"is_disabled":true,"rental_uris":{"android":"levelo://app?vid=cc66f151-2460-4bd1-9c55-81df03cdad0d","ios":"levelo://app?vid=cc66f151-2460-4bd1-9c55-81df03cdad0d"},"vehicle_type_id":"4","last_reported":1734041377,"current_range_meters":0,"station_id":"","pricing_plan_id":"cebpf4jnsgd1na2vs0mg"},{"bike_id":"73efab06-c827-4b1c-bcb6-27f5ac335797","system_id":"levelo_inurba_marseille","lat":43.28031,"lon":5.36942,"is_reserved":false,"is_disabled":false,"rental_uris":{"android":"levelo://app?vid=73efab06-c827-4b1c-bcb6-27f5ac335797","ios":"levelo://app?vid=73efab06-c827-4b1c-bcb6-27f5ac335797"},"vehicle_type_id":"4","last_reported":1734041377,"current_range_meters":38800,"station_id":"ce4bha12rcd13ifvqef0","pricing_plan_id":"cebpf4jnsgd1na2vs0mg"},{"bike_id":"d3148480-0118-4460-90b5-07f095843da8","system_id":"levelo_inurba_marseille","lat":43.24664,"lon":5.38157,"is_reserved":false,"is_disabled":false,"rental_uris":{"android":"levelo://app?vid=d3148480-0118-4460-90b5-07f095843da8","ios":"levelo://app?vid=d3148480-0118-4460-90b5-07f095843da8"},"vehicle_type_id":"4","last_reported":1734041377,"current_range_meters":38800,"station_id":"ce4bhih2rcd13ifvqfr0","pricing_plan_id":"cebpf4jnsgd1na2vs0mg"},{"bike_id":"4c926754-275d-4630-a6b1-bc8930573de8","system_id":"levelo_inurba_marseille","lat":43.2511,"lon":5.40332,"is_reserved":false,"is_disabled":false,"rental_uris":{"android":"levelo://app?vid=4c926754-275d-4630-a6b1-bc8930573de8","ios":"levelo://app?vid=4c926754-275d-4630-a6b1-bc8930573de8"},"vehicle_type_id":"4","last_reported":1734041377,"current_range_meters":34800,"station_id":"ce4bhlh2rcd13ifvqgig","pricing_plan_id":"cebpf4jnsgd1na2vs0mg"},{"bike_id":"7d33a6c9-40e7-4b00-bffe-15443744dff9","system_id":"levelo_inurba_marseille","lat":43.24671,"lon":5.38148,"is_reserved":false,"is_disabled":false,"rental_uris":{"android":"levelo://app?vid=7d33a6c9-40e7-4b00-bffe-15443744dff9","ios":"levelo://app?vid=7d33a6c9-40e7-4b00-bffe-15443744dff9"},"vehicle_type_id":"4","last_reported":1734041377,"current_range_meters":31200,"station_id":"ce4bhih2rcd13ifvqfr0","pricing_plan_id":"cebpf4jnsgd1na2vs0mg"},{"bike_id":"1a6191e2-ac99-485d-8e32-fe2f8071e4a9","system_id":"levelo_inurba_marseille","lat":43.294213,"lon":5.386099,"is_reserved":false,"is_disabled":true,"rental_uris":{"android":"levelo://app?vid=1a6191e2-ac99-485d-8e32-fe2f8071e4a9","ios":"levelo://app?vid=1a6191e2-ac99-485d-8e32-fe2f8071e4a9"},"vehicle_type_id":"4","last_reported":1734041377,"current_range_meters":400,"station_id":"ce4bh2h2rcd13ifvqdh0","pricing_plan_id":"cebpf4jnsgd1na2vs0mg"},{"bike_id":"04f5a329-543b-40ca-ac96-b27eaba28927","system_id":"levelo_inurba_marseille","lat":43.2893,"lon":5.36398,"is_reserved":false,"is_disabled":false,"rental_uris":{"android":"levelo://app?vid=04f5a329-543b-40ca-ac96-b27eaba28927","ios":"levelo://app?vid=04f5a329-543b-40ca-ac96-b27eaba28927"},"vehicle_type_id":"4","last_reported":1734041377,"current_range_meters":38800,"station_id":"ce4bhc92rcd13ifvqetg","pricing_plan_id":"cebpf4jnsgd1na2vs0mg"},{"bike_id":"711bf3e6-a8b3-4217-8a3c-f7f6705573a9","system_id":"levelo_inurba_marseille","lat":43.27497,"lon":5.42466,"is_reserved":false,"is_disabled":false,"rental_uris":{"android":"levelo://app?vid=711bf3e6-a8b3-4217-8a3c-f7f6705573a9","ios":"levelo://app?vid=711bf3e6-a8b3-4217-8a3c-f7f6705573a9"},"vehicle_type_id":"4","last_reported":1734041377,"current_range_meters":39200,"station_id":"ce4bhn92rcd13ifvqgrg","pricing_plan_id":"cebpf4jnsgd1na2vs0mg"},{"bike_id":"bced2216-fe81-4039-bef5-7e9843b329f3","system_id":"levelo_inurba_marseille","lat":43.28163,"lon":5.42658,"is_reserved":false,"is_disabled":false,"rental_uris":{"android":"levelo://app?vid=bced2216-fe81-4039-bef5-7e9843b329f3","ios":"levelo://app?vid=bced2216-fe81-4039-bef5-7e9843b329f3"},"vehicle_type_id":"4","last_reported":1734041377,"current_range_meters":38800,"station_id":"ce4bhnh2rcd13ifvqgug","pricing_plan_id":"cebpf4jnsgd1na2vs0mg"},{"bike_id":"20c3dc17-effd-4423-b025-dc7a6b601ac6","system_id":"levelo_inurba_marseille","lat":43.31477,"lon":5.37305,"is_reserved":false,"is_disabled":false,"rental_uris":{"android":"levelo://app?vid=20c3dc17-effd-4423-b025-dc7a6b601ac6","ios":"levelo://app?vid=20c3dc17-effd-4423-b025-dc7a6b601ac6"},"vehicle_type_id":"4","last_reported":1734041377,"current_range_meters":11200,"station_id":"ce4bgt12rcd13ifvqcd0","pricing_plan_id":"cebpf4jnsgd1na2vs0mg"},{"bike_id":"9332f19c-96e3-47ac-8807-c5c2384614c0","system_id":"levelo_inurba_marseille","lat":43.23062,"lon":5.35486,"is_reserved":false,"is_disabled":false,"rental_uris":{"android":"levelo://app?vid=9332f19c-96e3-47ac-8807-c5c2384614c0","ios":"levelo://app?vid=9332f19c-96e3-47ac-8807-c5c2384614c0"},"vehicle_type_id":"4","last_reported":1734041377,"current_range_meters":9600,"station_id":"cpo3342slgdg3j2ifvpg","pricing_plan_id":"cebpf4jnsgd1na2vs0mg"},{"bike_id":"507a9668-9123-4b65-b9a1-3df80fdee677","system_id":"levelo_inurba_marseille","lat":43.30607,"lon":5.39359,"is_reserved":false,"is_disabled":true,"rental_uris":{"android":"levelo://app?vid=507a9668-9123-4b65-b9a1-3df80fdee677","ios":"levelo://app?vid=507a9668-9123-4b65-b9a1-3df80fdee677"},"vehicle_type_id":"4","last_reported":1734041377,"current_range_meters":35200,"station_id":"ce4bh0p2rcd13ifvqd80","pricing_plan_id":"cebpf4jnsgd1na2vs0mg"},{"bike_id":"1e5b3424-92e2-4d6e-a8c1-3ffc43434050","system_id":"levelo_inurba_marseille","lat":43.28159,"lon":5.42624,"is_reserved":false,"is_disabled":false,"rental_uris":{"android":"levelo://app?vid=1e5b3424-92e2-4d6e-a8c1-3ffc43434050","ios":"levelo://app?vid=1e5b3424-92e2-4d6e-a8c1-3ffc43434050"},"vehicle_type_id":"4","last_reported":1734041377,"current_range_meters":22800,"station_id":"ce4bhnh2rcd13ifvqgug","pricing_plan_id":"cebpf4jnsgd1na2vs0mg"},{"bike_id":"a8942e43-f3d6-46fd-8576-2cc6b2787f3e","system_id":"levelo_inurba_marseille","lat":43.33046,"lon":5.3901,"is_reserved":false,"is_disabled":false,"rental_uris":{"android":"levelo://app?vid=a8942e43-f3d6-46fd-8576-2cc6b2787f3e","ios":"levelo://app?vid=a8942e43-f3d6-46fd-8576-2cc6b2787f3e"},"vehicle_type_id":"4","last_reported":1734041377,"current_range_meters":23200,"station_id":"ce4bhr92rcd13ifvqhrg","pricing_plan_id":"cebpf4jnsgd1na2vs0mg"},{"bike_id":"ebab67b4-141a-4dd9-afd9-505143cd1336","system_id":"levelo_inurba_marseille","lat":43.31502,"lon":5.37306,"is_reserved":false,"is_disabled":false,"rental_uris":{"android":"levelo://app?vid=ebab67b4-141a-4dd9-afd9-505143cd1336","ios":"levelo://app?vid=ebab67b4-141a-4dd9-afd9-505143cd1336"},"vehicle_type_id":"4","last_reported":1734041377,"current_range_meters":32000,"station_id":"ce4bgt12rcd13ifvqcd0","pricing_plan_id":"cebpf4jnsgd1na2vs0mg"},{"bike_id":"54ec87d8-7c07-4834-ab1c-c67442ef6144","system_id":"levelo_inurba_marseille","lat":43.28664,"lon":5.36352,"is_reserved":false,"is_disabled":false,"rental_uris":{"android":"levelo://app?vid=54ec87d8-7c07-4834-ab1c-c67442ef6144","ios":"levelo://app?vid=54ec87d8-7c07-4834-ab1c-c67442ef6144"},"vehicle_type_id":"4","last_reported":1734041377,"current_range_meters":38800,"station_id":"ce4bhah2rcd13ifvqej0","pricing_plan_id":"cebpf4jnsgd1na2vs0mg"},{"bike_id":"88e5e253-9495-48e0-9198-fa6d82bb94e8","system_id":"levelo_inurba_marseille","lat":43.24655,"lon":5.38894,"is_reserved":false,"is_disabled":false,"rental_uris":{"android":"levelo://app?vid=88e5e253-9495-48e0-9198-fa6d82bb94e8","ios":"levelo://app?vid=88e5e253-9495-48e0-9198-fa6d82bb94e8"},"vehicle_type_id":"4","last_reported":1734041377,"current_range_meters":22800,"station_id":"ce4bhg12rcd13ifvqf60","pricing_plan_id":"cebpf4jnsgd1na2vs0mg"},{"bike_id":"e2a6a7fa-9d4f-462d-a150-268e5d7605b4","system_id":"levelo_inurba_marseille","lat":43.27921,"lon":5.3958,"is_reserved":false,"is_disabled":false,"rental_uris":{"android":"levelo://app?vid=e2a6a7fa-9d4f-462d-a150-268e5d7605b4","ios":"levelo://app?vid=e2a6a7fa-9d4f-462d-a150-268e5d7605b4"},"vehicle_type_id":"4","last_reported":1734041377,"current_range_meters":24800,"station_id":"ce4bhf92rcd13ifvqf40","pricing_plan_id":"cebpf4jnsgd1na2vs0mg"},{"bike_id":"208886c0-de2e-43ca-abbf-3e8665653f84","system_id":"levelo_inurba_marseille","lat":43.30352,"lon":5.37802,"is_reserved":false,"is_disabled":true,"rental_uris":{"android":"levelo://app?vid=208886c0-de2e-43ca-abbf-3e8665653f84","ios":"levelo://app?vid=208886c0-de2e-43ca-abbf-3e8665653f84"},"vehicle_type_id":"4","last_reported":1734041377,"current_range_meters":800,"station_id":"","pricing_plan_id":"cebpf4jnsgd1na2vs0mg"},{"bike_id":"96a9b5f4-85e4-41c2-a8da-2ac03a475364","system_id":"levelo_inurba_marseille","lat":43.31171,"lon":5.38709,"is_reserved":false,"is_disabled":false,"rental_uris":{"android":"levelo://app?vid=96a9b5f4-85e4-41c2-a8da-2ac03a475364","ios":"levelo://app?vid=96a9b5f4-85e4-41c2-a8da-2ac03a475364"},"vehicle_type_id":"4","last_reported":1734041377,"current_range_meters":25200,"station_id":"ce4bgv12rcd13ifvqcp0","pricing_plan_id":"cebpf4jnsgd1na2vs0mg"},{"bike_id":"ab9d750b-26c8-4060-8d0d-04c73ce2b6ab","system_id":"levelo_inurba_marseille","lat":43.30795,"lon":5.38153,"is_reserved":false,"is_disabled":false,"rental_uris":{"android":"levelo://app?vid=ab9d750b-26c8-4060-8d0d-04c73ce2b6ab","ios":"levelo://app?vid=ab9d750b-26c8-4060-8d0d-04c73ce2b6ab"},"vehicle_type_id":"4","last_reported":1734041377,"current_range_meters":31200,"station_id":"ce4bgt12rcd13ifvqce0","pricing_plan_id":"cebpf4jnsgd1na2vs0mg"},{"bike_id":"36a6aaf7-7942-4cf8-a178-14100534e00e","system_id":"levelo_inurba_marseille","lat":43.28439,"lon":5.39178,"is_reserved":false,"is_disabled":true,"rental_uris":{"android":"levelo://app?vid=36a6aaf7-7942-4cf8-a178-14100534e00e","ios":"levelo://app?vid=36a6aaf7-7942-4cf8-a178-14100534e00e"},"vehicle_type_id":"4","last_reported":1734041377,"current_range_meters":30400,"station_id":"ce4bhoh2rcd13ifvqh5g","pricing_plan_id":"cebpf4jnsgd1na2vs0mg"},{"bike_id":"39a06a21-7d88-48ec-8b54-deae17d6f12f","system_id":"levelo_inurba_marseille","lat":43.31326,"lon":5.39696,"is_reserved":false,"is_disabled":false,"rental_uris":{"android":"levelo://app?vid=39a06a21-7d88-48ec-8b54-deae17d6f12f","ios":"levelo://app?vid=39a06a21-7d88-48ec-8b54-deae17d6f12f"},"vehicle_type_id":"4","last_reported":1734041377,"current_range_meters":36800,"station_id":"ce4bgvp2rcd13ifvqcu0","pricing_plan_id":"cebpf4jnsgd1na2vs0mg"},{"bike_id":"a6faa916-a00d-4038-aec1-1bff7122c51d","system_id":"levelo_inurba_marseille","lat":43.2511,"lon":5.40322,"is_reserved":false,"is_disabled":false,"rental_uris":{"android":"levelo://app?vid=a6faa916-a00d-4038-aec1-1bff7122c51d","ios":"levelo://app?vid=a6faa916-a00d-4038-aec1-1bff7122c51d"},"vehicle_type_id":"4","last_reported":1734041377,"current_range_meters":23200,"station_id":"ce4bhlh2rcd13ifvqgig","pricing_plan_id":"cebpf4jnsgd1na2vs0mg"},{"bike_id":"06f66dfc-67e3-46bb-8e23-90ef22aa2f49","system_id":"levelo_inurba_marseille","lat":43.3304,"lon":5.39034,"is_reserved":false,"is_disabled":false,"rental_uris":{"android":"levelo://app?vid=06f66dfc-67e3-46bb-8e23-90ef22aa2f49","ios":"levelo://app?vid=06f66dfc-67e3-46bb-8e23-90ef22aa2f49"},"vehicle_type_id":"4","last_reported":1734041377,"current_range_meters":27200,"station_id":"ce4bhr92rcd13ifvqhrg","pricing_plan_id":"cebpf4jnsgd1na2vs0mg"},{"bike_id":"6e6a004b-462d-4b03-aeaa-2611256f0d89","system_id":"levelo_inurba_marseille","lat":43.28111,"lon":5.38935,"is_reserved":false,"is_disabled":true,"rental_uris":{"android":"levelo://app?vid=6e6a004b-462d-4b03-aeaa-2611256f0d89","ios":"levelo://app?vid=6e6a004b-462d-4b03-aeaa-2611256f0d89"},"vehicle_type_id":"4","last_reported":1734041377,"current_range_meters":0,"station_id":"","pricing_plan_id":"cebpf4jnsgd1na2vs0mg"},{"bike_id":"aa260bda-2ac2-4694-ab35-894339060e24","system_id":"levelo_inurba_marseille","lat":43.30928,"lon":5.40144,"is_reserved":false,"is_disabled":false,"rental_uris":{"android":"levelo://app?vid=aa260bda-2ac2-4694-ab35-894339060e24","ios":"levelo://app?vid=aa260bda-2ac2-4694-ab35-894339060e24"},"vehicle_type_id":"4","last_reported":1734041377,"current_range_meters":30400,"station_id":"ce4bgvp2rcd13ifvqct0","pricing_plan_id":"cebpf4jnsgd1na2vs0mg"},{"bike_id":"14845a8f-c0c8-4311-843d-ef820014914a","system_id":"levelo_inurba_marseille","lat":43.26817,"lon":5.40291,"is_reserved":false,"is_disabled":false,"rental_uris":{"android":"levelo://app?vid=14845a8f-c0c8-4311-843d-ef820014914a","ios":"levelo://app?vid=14845a8f-c0c8-4311-843d-ef820014914a"},"vehicle_type_id":"4","last_reported":1734041377,"current_range_meters":38800,"station_id":"ce501612rcd8frsf0b60","pricing_plan_id":"cebpf4jnsgd1na2vs0mg"},{"bike_id":"83eb3ce6-2959-4c06-ad27-23015fd4dfa8","system_id":"levelo_inurba_marseille","lat":43.31322,"lon":5.39701,"is_reserved":false,"is_disabled":true,"rental_uris":{"android":"levelo://app?vid=83eb3ce6-2959-4c06-ad27-23015fd4dfa8","ios":"levelo://app?vid=83eb3ce6-2959-4c06-ad27-23015fd4dfa8"},"vehicle_type_id":"4","last_reported":1734041377,"current_range_meters":1200,"station_id":"ce4bgvp2rcd13ifvqcu0","pricing_plan_id":"cebpf4jnsgd1na2vs0mg"},{"bike_id":"dd643bc6-5b37-42ec-9cd1-25f6f7772e52","system_id":"levelo_inurba_marseille","lat":43.31756,"lon":5.39021,"is_reserved":false,"is_disabled":true,"rental_uris":{"android":"levelo://app?vid=dd643bc6-5b37-42ec-9cd1-25f6f7772e52","ios":"levelo://app?vid=dd643bc6-5b37-42ec-9cd1-25f6f7772e52"},"vehicle_type_id":"4","last_reported":1734041377,"current_range_meters":36000,"station_id":"ce4bhqp2rcd13ifvqhng","pricing_plan_id":"cebpf4jnsgd1na2vs0mg"},{"bike_id":"cab7b05a-4a2f-46f0-bf47-699cc231b7fd","system_id":"levelo_inurba_marseille","lat":43.31166,"lon":5.38718,"is_reserved":false,"is_disabled":false,"rental_uris":{"android":"levelo://app?vid=cab7b05a-4a2f-46f0-bf47-699cc231b7fd","ios":"levelo://app?vid=cab7b05a-4a2f-46f0-bf47-699cc231b7fd"},"vehicle_type_id":"4","last_reported":1734041377,"current_range_meters":28400,"station_id":"ce4bgv12rcd13ifvqcp0","pricing_plan_id":"cebpf4jnsgd1na2vs0mg"},{"bike_id":"bf91c614-d49a-46f7-a2b1-f29ed05bf956","system_id":"levelo_inurba_marseille","lat":43.30889,"lon":5.39619,"is_reserved":false,"is_disabled":false,"rental_uris":{"android":"levelo://app?vid=bf91c614-d49a-46f7-a2b1-f29ed05bf956","ios":"levelo://app?vid=bf91c614-d49a-46f7-a2b1-f29ed05bf956"},"vehicle_type_id":"4","last_reported":1734041377,"current_range_meters":36000,"station_id":"ce4bh012rcd13ifvqcv0","pricing_plan_id":"cebpf4jnsgd1na2vs0mg"},{"bike_id":"065259c9-a811-4848-9879-2c397f5afe18","system_id":"levelo_inurba_marseille","lat":43.26576,"lon":5.3904,"is_reserved":false,"is_disabled":false,"rental_uris":{"android":"levelo://app?vid=065259c9-a811-4848-9879-2c397f5afe18","ios":"levelo://app?vid=065259c9-a811-4848-9879-2c397f5afe18"},"vehicle_type_id":"4","last_reported":1734041377,"current_range_meters":27600,"station_id":"ce4bhe12rcd13ifvqf30","pricing_plan_id":"cebpf4jnsgd1na2vs0mg"},{"bike_id":"e738fcc8-c725-46f1-b7fe-8f522bd56ad4","system_id":"levelo_inurba_marseille","lat":43.2293,"lon":5.35388,"is_reserved":false,"is_disabled":false,"rental_uris":{"android":"levelo://app?vid=e738fcc8-c725-46f1-b7fe-8f522bd56ad4","ios":"levelo://app?vid=e738fcc8-c725-46f1-b7fe-8f522bd56ad4"},"vehicle_type_id":"4","last_reported":1734041377,"current_range_meters":8400,"station_id":"cpo3532slgdg3j2ikp40","pricing_plan_id":"cebpf4jnsgd1na2vs0mg"},{"bike_id":"1ec7b3ae-0590-4507-9a06-b1b4e139ae23","system_id":"levelo_inurba_marseille","lat":43.33023,"lon":5.3904,"is_reserved":false,"is_disabled":false,"rental_uris":{"android":"levelo://app?vid=1ec7b3ae-0590-4507-9a06-b1b4e139ae23","ios":"levelo://app?vid=1ec7b3ae-0590-4507-9a06-b1b4e139ae23"},"vehicle_type_id":"4","last_reported":1734041377,"current_range_meters":38800,"station_id":"ce4bhr92rcd13ifvqhrg","pricing_plan_id":"cebpf4jnsgd1na2vs0mg"},{"bike_id":"7965bd8b-65b9-4460-9e65-36f253ebc53b","system_id":"levelo_inurba_marseille","lat":43.320504,"lon":5.415142,"is_reserved":false,"is_disabled":false,"rental_uris":{"android":"levelo://app?vid=7965bd8b-65b9-4460-9e65-36f253ebc53b","ios":"levelo://app?vid=7965bd8b-65b9-4460-9e65-36f253ebc53b"},"vehicle_type_id":"4","last_reported":1734041377,"current_range_meters":26000,"station_id":"ce4bhq92rcd13ifvqhkg","pricing_plan_id":"cebpf4jnsgd1na2vs0mg"},{"bike_id":"8c67bc6c-5915-4184-87df-88dc75bc574d","system_id":"levelo_inurba_marseille","lat":43.2901,"lon":5.38643,"is_reserved":false,"is_disabled":true,"rental_uris":{"android":"levelo://app?vid=8c67bc6c-5915-4184-87df-88dc75bc574d","ios":"levelo://app?vid=8c67bc6c-5915-4184-87df-88dc75bc574d"},"vehicle_type_id":"4","last_reported":1734041377,"current_range_meters":24800,"station_id":"ce4bh4p2rcd13ifvqe0g","pricing_plan_id":"cebpf4jnsgd1na2vs0mg"},{"bike_id":"fe158af2-9871-47b5-8515-d685526da71e","system_id":"levelo_inurba_marseille","lat":43.30797,"lon":5.38157,"is_reserved":false,"is_disabled":false,"rental_uris":{"android":"levelo://app?vid=fe158af2-9871-47b5-8515-d685526da71e","ios":"levelo://app?vid=fe158af2-9871-47b5-8515-d685526da71e"},"vehicle_type_id":"4","last_reported":1734041377,"current_range_meters":32800,"station_id":"ce4bgt12rcd13ifvqce0","pricing_plan_id":"cebpf4jnsgd1na2vs0mg"},{"bike_id":"467a8ed9-8f9d-4f9c-a7a2-b2a4bc21bd4a","system_id":"levelo_inurba_marseille","lat":43.24671,"lon":5.38891,"is_reserved":false,"is_disabled":false,"rental_uris":{"android":"levelo://app?vid=467a8ed9-8f9d-4f9c-a7a2-b2a4bc21bd4a","ios":"levelo://app?vid=467a8ed9-8f9d-4f9c-a7a2-b2a4bc21bd4a"},"vehicle_type_id":"4","last_reported":1734041377,"current_range_meters":34800,"station_id":"ce4bhg12rcd13ifvqf60","pricing_plan_id":"cebpf4jnsgd1na2vs0mg"},{"bike_id":"3f376398-b9b7-4419-aed9-9595c8c18ff6","system_id":"levelo_inurba_marseille","lat":43.29553,"lon":5.42282,"is_reserved":false,"is_disabled":false,"rental_uris":{"android":"levelo://app?vid=3f376398-b9b7-4419-aed9-9595c8c18ff6","ios":"levelo://app?vid=3f376398-b9b7-4419-aed9-9595c8c18ff6"},"vehicle_type_id":"4","last_reported":1734041377,"current_range_meters":37600,"station_id":"ce4bhph2rcd13ifvqhdg","pricing_plan_id":"cebpf4jnsgd1na2vs0mg"},{"bike_id":"512bba07-c0d9-48d8-8c46-31b3ecfbf0e4","system_id":"levelo_inurba_marseille","lat":43.23961,"lon":5.36641,"is_reserved":false,"is_disabled":false,"rental_uris":{"android":"levelo://app?vid=512bba07-c0d9-48d8-8c46-31b3ecfbf0e4","ios":"levelo://app?vid=512bba07-c0d9-48d8-8c46-31b3ecfbf0e4"},"vehicle_type_id":"4","last_reported":1734041377,"current_range_meters":38800,"station_id":"ce4bhi12rcd13ifvqfp0","pricing_plan_id":"cebpf4jnsgd1na2vs0mg"},{"bike_id":"cd310349-e3f2-443c-8f0f-42df3ae9f687","system_id":"levelo_inurba_marseille","lat":43.28052,"lon":5.39662,"is_reserved":false,"is_disabled":false,"rental_uris":{"android":"levelo://app?vid=cd310349-e3f2-443c-8f0f-42df3ae9f687","ios":"levelo://app?vid=cd310349-e3f2-443c-8f0f-42df3ae9f687"},"vehicle_type_id":"4","last_reported":1734041377,"current_range_meters":12000,"station_id":"ce4bho12rcd13ifvqh2g","pricing_plan_id":"cebpf4jnsgd1na2vs0mg"},{"bike_id":"a5589391-a7e4-412b-9a87-f917b2322580","system_id":"levelo_inurba_marseille","lat":43.23068,"lon":5.35493,"is_reserved":false,"is_disabled":false,"rental_uris":{"android":"levelo://app?vid=a5589391-a7e4-412b-9a87-f917b2322580","ios":"levelo://app?vid=a5589391-a7e4-412b-9a87-f917b2322580"},"vehicle_type_id":"4","last_reported":1734041377,"current_range_meters":11200,"station_id":"cpo3342slgdg3j2ifvpg","pricing_plan_id":"cebpf4jnsgd1na2vs0mg"},{"bike_id":"cd430a2a-e6aa-4e0b-907c-2481c1e65d20","system_id":"levelo_inurba_marseille","lat":43.30429,"lon":5.38892,"is_reserved":false,"is_disabled":false,"rental_uris":{"android":"levelo://app?vid=cd430a2a-e6aa-4e0b-907c-2481c1e65d20","ios":"levelo://app?vid=cd430a2a-e6aa-4e0b-907c-2481c1e65d20"},"vehicle_type_id":"4","last_reported":1734041377,"current_range_meters":38000,"station_id":"ce4bgk12rcd13ifvqbi0","pricing_plan_id":"cebpf4jnsgd1na2vs0mg"},{"bike_id":"103e9cb3-a529-4d55-b047-75adf6d60c18","system_id":"levelo_inurba_marseille","lat":43.27972,"lon":5.39919,"is_reserved":false,"is_disabled":true,"rental_uris":{"android":"levelo://app?vid=103e9cb3-a529-4d55-b047-75adf6d60c18","ios":"levelo://app?vid=103e9cb3-a529-4d55-b047-75adf6d60c18"},"vehicle_type_id":"4","last_reported":1734041377,"current_range_meters":0,"station_id":"","pricing_plan_id":"cebpf4jnsgd1na2vs0mg"},{"bike_id":"dd7048d2-d374-4a06-960d-a9e11d3c6c04","system_id":"levelo_inurba_marseille","lat":43.28656,"lon":5.36352,"is_reserved":false,"is_disabled":false,"rental_uris":{"android":"levelo://app?vid=dd7048d2-d374-4a06-960d-a9e11d3c6c04","ios":"levelo://app?vid=dd7048d2-d374-4a06-960d-a9e11d3c6c04"},"vehicle_type_id":"4","last_reported":1734041377,"current_range_meters":32000,"station_id":"ce4bhah2rcd13ifvqej0","pricing_plan_id":"cebpf4jnsgd1na2vs0mg"},{"bike_id":"44a30e2a-c639-4db1-9bb2-a9cf89c01cf5","system_id":"levelo_inurba_marseille","lat":43.2857,"lon":5.39491,"is_reserved":false,"is_disabled":false,"rental_uris":{"android":"levelo://app?vid=44a30e2a-c639-4db1-9bb2-a9cf89c01cf5","ios":"levelo://app?vid=44a30e2a-c639-4db1-9bb2-a9cf89c01cf5"},"vehicle_type_id":"4","last_reported":1734041377,"current_range_meters":23200,"station_id":"ce4bh292rcd13ifvqdg0","pricing_plan_id":"cebpf4jnsgd1na2vs0mg"},{"bike_id":"cf2a554d-dca1-468f-a79f-dbc5900e9168","system_id":"levelo_inurba_marseille","lat":43.33013,"lon":5.39035,"is_reserved":false,"is_disabled":false,"rental_uris":{"android":"levelo://app?vid=cf2a554d-dca1-468f-a79f-dbc5900e9168","ios":"levelo://app?vid=cf2a554d-dca1-468f-a79f-dbc5900e9168"},"vehicle_type_id":"4","last_reported":1734041377,"current_range_meters":33600,"station_id":"ce4bhr92rcd13ifvqhrg","pricing_plan_id":"cebpf4jnsgd1na2vs0mg"},{"bike_id":"7f218b15-e3fc-43c4-8703-acd68250579b","system_id":"levelo_inurba_marseille","lat":43.337444,"lon":5.374475,"is_reserved":false,"is_disabled":false,"rental_uris":{"android":"levelo://app?vid=7f218b15-e3fc-43c4-8703-acd68250579b","ios":"levelo://app?vid=7f218b15-e3fc-43c4-8703-acd68250579b"},"vehicle_type_id":"4","last_reported":1734041377,"current_range_meters":32400,"station_id":"","pricing_plan_id":"cebpf4jnsgd1na2vs0mg"},{"bike_id":"5cd0227d-828f-4635-a4e6-90752f4b4e94","system_id":"levelo_inurba_marseille","lat":43.29194,"lon":5.35794,"is_reserved":false,"is_disabled":true,"rental_uris":{"android":"levelo://app?vid=5cd0227d-828f-4635-a4e6-90752f4b4e94","ios":"levelo://app?vid=5cd0227d-828f-4635-a4e6-90752f4b4e94"},"vehicle_type_id":"4","last_reported":1734041377,"current_range_meters":38800,"station_id":"ce4bhb12rcd13ifvqel0","pricing_plan_id":"cebpf4jnsgd1na2vs0mg"},{"bike_id":"9170b74c-6ab9-4aed-ae3b-75ae727d0100","system_id":"levelo_inurba_marseille","lat":43.27419,"lon":5.39,"is_reserved":false,"is_disabled":false,"rental_uris":{"android":"levelo://app?vid=9170b74c-6ab9-4aed-ae3b-75ae727d0100","ios":"levelo://app?vid=9170b74c-6ab9-4aed-ae3b-75ae727d0100"},"vehicle_type_id":"4","last_reported":1734041377,"current_range_meters":13600,"station_id":"","pricing_plan_id":"cebpf4jnsgd1na2vs0mg"},{"bike_id":"bf26ba67-e67a-47f2-aeb5-22efb7770553","system_id":"levelo_inurba_marseille","lat":43.28613,"lon":5.35098,"is_reserved":false,"is_disabled":true,"rental_uris":{"android":"levelo://app?vid=bf26ba67-e67a-47f2-aeb5-22efb7770553","ios":"levelo://app?vid=bf26ba67-e67a-47f2-aeb5-22efb7770553"},"vehicle_type_id":"4","last_reported":1734041377,"current_range_meters":32000,"station_id":"ce4bhch2rcd13ifvqeug","pricing_plan_id":"cebpf4jnsgd1na2vs0mg"},{"bike_id":"1edcb435-be97-41f8-aa8c-4a20808cef7c","system_id":"levelo_inurba_marseille","lat":43.26807,"lon":5.40264,"is_reserved":false,"is_disabled":false,"rental_uris":{"android":"levelo://app?vid=1edcb435-be97-41f8-aa8c-4a20808cef7c","ios":"levelo://app?vid=1edcb435-be97-41f8-aa8c-4a20808cef7c"},"vehicle_type_id":"4","last_reported":1734041377,"current_range_meters":8000,"station_id":"ce501612rcd8frsf0b60","pricing_plan_id":"cebpf4jnsgd1na2vs0mg"},