{"last_updated":1742955518,"ttl":60,"version":"2.2","data":{"bikes":[{"bike_id":"17f0c92d-b753-4dec-88ab-1ffaa22a6b3c","system_id":"levelo_inurba_marseille","lat":43.29904,"lon":5.3745,"is_reserved":false,"is_disabled":true,"rental_uris":{"android":"levelo://app?vid=17f0c92d-b753-4dec-88ab-1ffaa22a6b3c","ios":"levelo://app?vid=17f0c92d-b753-4dec-88ab-1ffaa22a6b3c"},"vehicle_type_id":"4","last_reported":1742955518,"current_range_meters":2800,"station_id":"ce4bgjh2rcd13ifvqbg0","pricing_plan_id":"cebpf4jnsgd1na2vs0mg"},{"bike_id":"29cc2166-3cf9-407f-add8-f22c94db9540","system_id":"levelo_inurba_marseille","lat":43.28002,"lon":5.41674,"is_reserved":false,"is_disabled":false,"rental_uris":{"android":"levelo://app?vid=29cc2166-3cf9-407f-add8-f22c94db9540","ios":"levelo://app?vid=29cc2166-3cf9-407f-add8-f22c94db9540"},"vehicle_type_id":"4","last_reported":1742955518,"current_range_meters":3200,"station_id":"ce4bho12rcd13ifvqh1g","pricing_plan_id":"cebpf4jnsgd1na2vs0mg"},{"bike_id":"e4799da6-1544-4540-ba62-b9f25ba0e808","system_id":"levelo_inurba_marseille","lat":43.30326,"lon":5.4045,"is_reserved":false,"is_disabled":false,"rental_uris":{"android":"levelo://app?vid=e4799da6-1544-4540-ba62-b9f25ba0e808","ios":"levelo://app?vid=e4799da6-1544-4540-ba62-b9f25ba0e808"},"vehicle_type_id":"4","last_reported":1742955518,"current_range_meters":3200,"station_id":"ce4bh012rcd13ifvqd10","pricing_plan_id":"cebpf4jnsgd1na2vs0mg"},{"bike_id":"a74cdeab-f896-49a2-9e69-1a408c582e96","system_id":"levelo_inurba_marseille","lat":43.27804,"lon":5.40699,"is_reserved":false,"is_disabled":false,"rental_uris":{"android":"levelo://app?vid=a74cdeab-f896-49a2-9e69-1a408c582e96","ios":"levelo://app?vid=a74cdeab-f896-49a2-9e69-1a408c582e96"},"vehicle_type_id":"4","last_reported":1742955518,"current_range_meters":3200,"station_id":"ce4bhnh2rcd13ifvqgtg","pricing_plan_id":"cebpf4jnsgd1na2vs0mg"},{"bike_id":"d5a95a71-bdcf-4c76-90bb-f92bfc4a3cc3","system_id":"levelo_inurba_marseille","lat":43.21894,"lon":5.41964,"is_reserved":false,"is_disabled":false,"rental_uris":{"android":"levelo://app?vid=d5a95a71-bdcf-4c76-90bb-f92bfc4a3cc3","ios":"levelo://app?vid=d5a95a71-bdcf-4c76-90bb-f92bfc4a3cc3"},"vehicle_type_id":"4","last_reported":1742955518,"current_range_meters":3200,"station_id":"","pricing_plan_id":"cebpf4jnsgd1na2vs0mg"},{"bike_id":"135447b6-e836-48da-a6cd-5437942efdc9","system_id":"levelo_inurba_marseille","lat":43.30595,"lon":5.39356,"is_reserved":false,"is_disabled":false,"rental_uris":{"android":"levelo://app?vid=135447b6-e836-48da-a6cd-5437942efdc9","ios":"levelo://app?vid=135447b6-e836-48da-a6cd-5437942efdc9"},"vehicle_type_id":"4","last_reported":1742955518,"current_range_meters":3200,"station_id":"ce4bh0p2rcd13ifvqd80","pricing_plan_id":"cebpf4jnsgd1na2vs0mg"},{"bike_id":"0c61cb13-5a36-44b8-8dd0-2e66a36d323d","system_id":"levelo_inurba_marseille","lat":43.27575,"lon":5.384,"is_reserved":false,"is_disabled":false,"rental_uris":{"android":"levelo://app?vid=0c61cb13-5a36-44b8-8dd0-2e66a36d323d","ios":"levelo://app?vid=0c61cb13-5a36-44b8-8dd0-2e66a36d323d"},"vehicle_type_id":"4","last_reported":1742955518,"current_range_meters":3600,"station_id":"ce4bhh92rcd13ifvqfi0","pricing_plan_id":"cebpf4jnsgd1na2vs0mg"},{"bike_id":"4b82f9a6-2f12-42e5-86cc-35d0acf12b8e","system_id":"levelo_inurba_marseille","lat":43.25087,"lon":5.39539,"is_reserved":false,"is_disabled":false,"rental_uris":{"android":"levelo://app?vid=4b82f9a6-2f12-42e5-86cc-35d0acf12b8e","ios":"levelo://app?vid=4b82f9a6-2f12-42e5-86cc-35d0acf12b8e"},"vehicle_type_id":"4","last_reported":1742955518,"current_range_meters":3600,"station_id":"ce4bhm12rcd13ifvqgkg","pricing_plan_id":"cebpf4jnsgd1na2vs0mg"},{"bike_id":"fcf4b0c0-fc16-4f84-8317-b6baf603127a","system_id":"levelo_inurba_marseille","lat":43.24666,"lon":5.38162,"is_reserved":false,"is_disabled":false,"rental_uris":{"android":"levelo://app?vid=fcf4b0c0-fc16-4f84-8317-b6baf603127a","ios":"levelo://app?vid=fcf4b0c0-fc16-4f84-8317-b6baf603127a"},"vehicle_type_id":"4","last_reported":1742955518,"current_range_meters":3600,"station_id":"ce4bhih2rcd13ifvqfr0","pricing_plan_id":"cebpf4jnsgd1na2vs0mg"},{"bike_id":"9b3df4af-6091-4feb-b2d9-618f1a0a9915","system_id":"levelo_inurba_marseille","lat":43.23188,"lon":5.3554,"is_reserved":false,"is_disabled":false,"rental_uris":{"android":"levelo://app?vid=9b3df4af-6091-4feb-b2d9-618f1a0a9915","ios":"levelo://app?vid=9b3df4af-6091-4feb-b2d9-618f1a0a9915"},"vehicle_type_id":"4","last_reported":1742955518,"current_range_meters":3600,"station_id":"ce4bhu92rcd13ifvqi70","pricing_plan_id":"cebpf4jnsgd1na2vs0mg"},{"bike_id":"0799628e-ae5e-4352-9b49-dc5e016977f0","system_id":"levelo_inurba_marseille","lat":43.275637,"lon":5.384299,"is_reserved":false,"is_disabled":false,"rental_uris":{"android":"levelo://app?vid=0799628e-ae5e-4352-9b49-dc5e016977f0","ios":"levelo://app?vid=0799628e-ae5e-4352-9b49-dc5e016977f0"},"vehicle_type_id":"4","last_reported":1742955518,"current_range_meters":4000,"station_id":"ce4bhh92rcd13ifvqfi0","pricing_plan_id":"cebpf4jnsgd1na2vs0mg"},{"bike_id":"78855946-f1ec-4dd3-b1cb-78a4f8659240","system_id":"levelo_inurba_marseille","lat":43.29519,"lon":5.39045,"is_reserved":false,"is_disabled":true,"rental_uris":{"android":"levelo://app?vid=78855946-f1ec-4dd3-b1cb-78a4f8659240","ios":"levelo://app?vid=78855946-f1ec-4dd3-b1cb-78a4f8659240"},"vehicle_type_id":"4","last_reported":1742955518,"current_range_meters":4000,"station_id":"ce4bh3p2rcd13ifvqdp0","pricing_plan_id":"cebpf4jnsgd1na2vs0mg"},{"bike_id":"86c24361-5fab-4dea-a92e-d7ecae070174","system_id":"levelo_inurba_marseille","lat":43.28006,"lon":5.41662,"is_reserved":false,"is_disabled":false,"rental_uris":{"android":"levelo://app?vid=86c24361-5fab-4dea-a92e-d7ecae070174","ios":"levelo://app?vid=86c24361-5fab-4dea-a92e-d7ecae070174"},"vehicle_type_id":"4","last_reported":1742955518,"current_range_meters":4000,"station_id":"ce4bho12rcd13ifvqh1g","pricing_plan_id":"cebpf4jnsgd1na2vs0mg"},{"bike_id":"69cae312-ca8c-4ddf-a945-cb9acdf08ab6","system_id":"levelo_inurba_marseille","lat":43.28445,"lon":5.39171,"is_reserved":false,"is_disabled":false,"rental_uris":{"android":"levelo://app?vid=69cae312-ca8c-4ddf-a945-cb9acdf08ab6","ios":"levelo://app?vid=69cae312-ca8c-4ddf-a945-cb9acdf08ab6"},"vehicle_type_id":"4","last_reported":1742955518,"current_range_meters":4000,"station_id":"ce4bhoh2rcd13ifvqh5g","pricing_plan_id":"cebpf4jnsgd1na2vs0mg"},{"bike_id":"707edfa3-0a9a-4f1f-b2f3-c24e2f031881","system_id":"levelo_inurba_marseille","lat":43.29585,"lon":5.375201,"is_reserved":false,"is_disabled":false,"rental_uris":{"android":"levelo://app?vid=707edfa3-0a9a-4f1f-b2f3-c24e2f031881","ios":"levelo://app?vid=707edfa3-0a9a-4f1f-b2f3-c24e2f031881"},"vehicle_type_id":"4","last_reported":1742955518,"current_range_meters":4000,"station_id":"ce4bh4p2rcd13ifvqe1g","pricing_plan_id":"cebpf4jnsgd1na2vs0mg"},{"bike_id":"7b429d45-b240-4e0e-adfa-4a69d6a65c3c","system_id":"levelo_inurba_marseille","lat":43.30541,"lon":5.3842,"is_reserved":false,"is_disabled":false,"rental_uris":{"android":"levelo://app?vid=7b429d45-b240-4e0e-adfa-4a69d6a65c3c","ios":"levelo://app?vid=7b429d45-b240-4e0e-adfa-4a69d6a65c3c"},"vehicle_type_id":"4","last_reported":1742955518,"current_range_meters":4000,"station_id":"ce4bgg92rcd13ifvqb30","pricing_plan_id":"cebpf4jnsgd1na2vs0mg"},{"bike_id":"ecb42ffe-a31e-4210-9fcc-a29d223e03d4","system_id":"levelo_inurba_marseille","lat":43.232015,"lon":5.355526,"is_reserved":false,"is_disabled":false,"rental_uris":{"android":"levelo://app?vid=ecb42ffe-a31e-4210-9fcc-a29d223e03d4","ios":"levelo://app?vid=ecb42ffe-a31e-4210-9fcc-a29d223e03d4"},"vehicle_type_id":"4","last_reported":1742955518,"current_range_meters":4400,"station_id":"ce4bhu92rcd13ifvqi70","pricing_plan_id":"cebpf4jnsgd1na2vs0mg"},{"bike_id":"6fc91dcc-3611-4185-a50d-465701074511","system_id":"levelo_inurba_marseille","lat":43.28453,"lon":5.35876,"is_reserved":false,"is_disabled":false,"rental_uris":{"android":"levelo://app?vid=6fc91dcc-3611-4185-a50d-465701074511","ios":"levelo://app?vid=6fc91dcc-3611-4185-a50d-465701074511"},"vehicle_type_id":"4","last_reported":1742955518,"current_range_meters":4400,"station_id":"ce4bhah2rcd13ifvqei0","pricing_plan_id":"cebpf4jnsgd1na2vs0mg"},{"bike_id":"acc692d6-a495-412f-8aab-730673511c71","system_id":"levelo_inurba_marseille","lat":43.2794,"lon":5.41026,"is_reserved":false,"is_disabled":false,"rental_uris":{"android":"levelo://app?vid=acc692d6-a495-412f-8aab-730673511c71","ios":"levelo://app?vid=acc692d6-a495-412f-8aab-730673511c71"},"vehicle_type_id":"4","last_reported":1742955518,"current_range_meters":4400,"station_id":"ce4bhnp2rcd13ifvqh0g","pricing_plan_id":"cebpf4jnsgd1na2vs0mg"},{"bike_id":"7570db35-5ebf-4a5d-a0d3-e54fcf6db41a","system_id":"levelo_inurba_marseille","lat":43.25725,"lon":5.41107,"is_reserved":false,"is_disabled":false,"rental_uris":{"android":"levelo://app?vid=7570db35-5ebf-4a5d-a0d3-e54fcf6db41a","ios":"levelo://app?vid=7570db35-5ebf-4a5d-a0d3-e54fcf6db41a"},"vehicle_type_id":"4","last_reported":1742955518,"current_range_meters":4800,"station_id":"ce4bhkp2rcd13ifvqgd0","pricing_plan_id":"cebpf4jnsgd1na2vs0mg"},{"bike_id":"3513a6f0-dbc9-4f37-8b52-79603521c288","system_id":"levelo_inurba_marseille","lat":43.23064,"lon":5.35505,"is_reserved":false,"is_disabled":false,"rental_uris":{"android":"levelo://app?vid=3513a6f0-dbc9-4f37-8b52-79603521c288","ios":"levelo://app?vid=3513a6f0-dbc9-4f37-8b52-79603521c288"},"vehicle_type_id":"4","last_reported":1742955518,"current_range_meters":4800,"station_id":"cpo3342slgdg3j2ifvpg","pricing_plan_id":"cebpf4jnsgd1na2vs0mg"},{"bike_id":"02c642d0-bab7-4205-b1fb-4419adeb4af1","system_id":"levelo_inurba_marseille","lat":43.29042,"lon":5.356,"is_reserved":false,"is_disabled":false,"rental_uris":{"android":"levelo://app?vid=02c642d0-bab7-4205-b1fb-4419adeb4af1","ios":"levelo://app?vid=02c642d0-bab7-4205-b1fb-4419adeb4af1"},"vehicle_type_id":"4","last_reported":1742955518,"current_range_meters":4800,"station_id":"","pricing_plan_id":"cebpf4jnsgd1na2vs0mg"},{"bike_id":"a5516228-2c65-4ab1-8174-cbfa24336356","system_id":"levelo_inurba_marseille","lat":43.28167,"lon":5.42662,"is_reserved":false,"is_disabled":false,"rental_uris":{"android":"levelo://app?vid=a5516228-2c65-4ab1-8174-cbfa24336356","ios":"levelo://app?vid=a5516228-2c65-4ab1-8174-cbfa24336356"},"vehicle_type_id":"4","last_reported":1742955518,"current_range_meters":5600,"station_id":"ce4bhnh2rcd13ifvqgug","pricing_plan_id":"cebpf4jnsgd1na2vs0mg"},{"bike_id":"ee8553ac-389d-40dc-8ff4-f6e1917ae579","system_id":"levelo_inurba_marseille","lat":43.2781,"lon":5.40701,"is_reserved":false,"is_disabled":false,"rental_uris":{"android":"levelo://app?vid=ee8553ac-389d-40dc-8ff4-f6e1917ae579","ios":"levelo://app?vid=ee8553ac-389d-40dc-8ff4-f6e1917ae579"},"vehicle_type_id":"4","last_reported":1742955518,"current_range_meters":5600,"station_id":"ce4bhnh2rcd13ifvqgtg","pricing_plan_id":"cebpf4jnsgd1na2vs0mg"},{"bike_id":"e78137b0-4adc-4f82-acb9-b9482895f9e4","system_id":"levelo_inurba_marseille","lat":43.28451,"lon":5.35906,"is_reserved":false,"is_disabled":false,"rental_uris":{"android":"levelo://app?vid=e78137b0-4adc-4f82-acb9-b9482895f9e4","ios":"levelo://app?vid=e78137b0-4adc-4f82-acb9-b9482895f9e4"},"vehicle_type_id":"4","last_reported":1742955518,"current_range_meters":5600,"station_id":"ce4bhah2rcd13ifvqei0","pricing_plan_id":"cebpf4jnsgd1na2vs0mg"},{"bike_id":"32f54dc6-3413-47f1-9b2d-810e06f763c7","system_id":"levelo_inurba_marseille","lat":43.29254,"lon":5.40909,"is_reserved":false,"is_disabled":false,"rental_uris":{"android":"levelo://app?vid=32f54dc6-3413-47f1-9b2d-810e06f763c7","ios":"levelo://app?vid=32f54dc6-3413-47f1-9b2d-810e06f763c7"},"vehicle_type_id":"4","last_reported":1742955518,"current_range_meters":5600,"station_id":"ce4bh192rcd13ifvqdc0","pricing_plan_id":"cebpf4jnsgd1na2vs0mg"},{"bike_id":"594ed5c7-8cfc-4121-9975-0bd679e31edc","system_id":"levelo_inurba_marseille","lat":43.24677,"lon":5.38154,"is_reserved":false,"is_disabled":false,"rental_uris":{"android":"levelo://app?vid=594ed5c7-8cfc-4121-9975-0bd679e31edc","ios":"levelo://app?vid=594ed5c7-8cfc-4121-9975-0bd679e31edc"},"vehicle_type_id":"4","last_reported":1742955518,"current_range_meters":5600,"station_id":"ce4bhih2rcd13ifvqfr0","pricing_plan_id":"cebpf4jnsgd1na2vs0mg"},{"bike_id":"5eb00e60-b5d9-4a65-9bba-344db36c1e04","system_id":"levelo_inurba_marseille","lat":43.25821,"lon":5.39415,"is_reserved":false,"is_disabled":false,"rental_uris":{"android":"levelo://app?vid=5eb00e60-b5d9-4a65-9bba-344db36c1e04","ios":"levelo://app?vid=5eb00e60-b5d9-4a65-9bba-344db36c1e04"},"vehicle_type_id":"4","last_reported":1742955518,"current_range_meters":6000,"station_id":"ce4bhip2rcd13ifvqft0","pricing_plan_id":"cebpf4jnsgd1na2vs0mg"},{"bike_id":"b21195e5-e4c3-4373-887d-f1eda29a9a23","system_id":"levelo_inurba_marseille","lat":43.29257,"lon":5.40937,"is_reserved":false,"is_disabled":false,"rental_uris":{"android":"levelo://app?vid=b21195e5-e4c3-4373-887d-f1eda29a9a23","ios":"levelo://app?vid=b21195e5-e4c3-4373-887d-f1eda29a9a23"},"vehicle_type_id":"4","last_reported":1742955518,"current_range_meters":6000,"station_id":"ce4bh192rcd13ifvqdc0","pricing_plan_id":"cebpf4jnsgd1na2vs0mg"},{"bike_id":"63e8dafc-3749-4a42-ab44-2e79325ba0f1","system_id":"levelo_inurba_marseille","lat":43.25096,"lon":5.39528,"is_reserved":false,"is_disabled":false,"rental_uris":{"android":"levelo://app?vid=63e8dafc-3749-4a42-ab44-2e79325ba0f1","ios":"levelo://app?vid=63e8dafc-3749-4a42-ab44-2e79325ba0f1"},"vehicle_type_id":"4","last_reported":1742955518,"current_range_meters":6000,"station_id":"ce4bhm12rcd13ifvqgkg","pricing_plan_id":"cebpf4jnsgd1na2vs0mg"},{"bike_id":"24bfc5a8-5bc7-49ec-9cac-8c6d3dbb9056","system_id":"levelo_inurba_marseille","lat":43.28425,"lon":5.3751,"is_reserved":false,"is_disabled":false,"rental_uris":{"android":"levelo://app?vid=24bfc5a8-5bc7-49ec-9cac-8c6d3dbb9056","ios":"levelo://app?vid=24bfc5a8-5bc7-49ec-9cac-8c6d3dbb9056"},"vehicle_type_id":"4","last_reported":1742955518,"current_range_meters":6000,"station_id":"ce4bh412rcd13ifvqds0","pricing_plan_id":"cebpf4jnsgd1na2vs0mg"},{"bike_id":"66f69882-9bc0-4f69-af42-1e4faa3ed134","system_id":"levelo_inurba_marseille","lat":43.29896,"lon":5.43664,"is_reserved":false,"is_disabled":false,"rental_uris":{"android":"levelo://app?vid=66f69882-9bc0-4f69-af42-1e4faa3ed134","ios":"levelo://app?vid=66f69882-9bc0-4f69-af42-1e4faa3ed134"},"vehicle_type_id":"4","last_reported":1742955518,"current_range_meters":6400,"station_id":"ce4bhpp2rcd13ifvqhfg","pricing_plan_id":"cebpf4jnsgd1na2vs0mg"},{"bike_id":"9e1900ad-e046-4f32-a94e-e5e6f986be4d","system_id":"levelo_inurba_marseille","lat":43.24814,"lon":5.37446,"is_reserved":false,"is_disabled":false,"rental_uris":{"android":"levelo://app?vid=9e1900ad-e046-4f32-a94e-e5e6f986be4d","ios":"levelo://app?vid=9e1900ad-e046-4f32-a94e-e5e6f986be4d"},"vehicle_type_id":"4","last_reported":1742955518,"current_range_meters":6400,"station_id":"ce4bhgh2rcd13ifvqfb0","pricing_plan_id":"cebpf4jnsgd1na2vs0mg"},{"bike_id":"c888cbd2-a211-4669-af91-061a347cfbda","system_id":"levelo_inurba_marseille","lat":43.27917,"lon":5.39578,"is_reserved":false,"is_disabled":false,"rental_uris":{"android":"levelo://app?vid=c888cbd2-a211-4669-af91-061a347cfbda","ios":"levelo://app?vid=c888cbd2-a211-4669-af91-061a347cfbda"},"vehicle_type_id":"4","last_reported":1742955518,"current_range_meters":6400,"station_id":"ce4bhf92rcd13ifvqf40","pricing_plan_id":"cebpf4jnsgd1na2vs0mg"},{"bike_id":"e3e58b7d-a745-42d7-bf54-3a94925681f1","system_id":"levelo_inurba_marseille","lat":43.23283,"lon":5.35642,"is_reserved":false,"is_disabled":false,"rental_uris":{"android":"levelo://app?vid=e3e58b7d-a745-42d7-bf54-3a94925681f1","ios":"levelo://app?vid=e3e58b7d-a745-42d7-bf54-3a94925681f1"},"vehicle_type_id":"4","last_reported":1742955518,"current_range_meters":6400,"station_id":"","pricing_plan_id":"cebpf4jnsgd1na2vs0mg"},{"bike_id":"e06fd3a0-02a6-413f-81de-817b7da619bd","system_id":"levelo_inurba_marseille","lat":43.31286,"lon":5.40169,"is_reserved":false,"is_disabled":false,"rental_uris":{"android":"levelo://app?vid=e06fd3a0-02a6-413f-81de-817b7da619bd","ios":"levelo://app?vid=e06fd3a0-02a6-413f-81de-817b7da619bd"},"vehicle_type_id":"4","last_reported":1742955518,"current_range_meters":6400,"station_id":"ce4bh092rcd13ifvqd30","pricing_plan_id":"cebpf4jnsgd1na2vs0mg"},{"bike_id":"2abcdb2d-70e8-4c22-bc58-0e82a3648f22","system_id":"levelo_inurba_marseille","lat":43.28439,"lon":5.39191,"is_reserved":false,"is_disabled":false,"rental_uris":{"android":"levelo://app?vid=2abcdb2d-70e8-4c22-bc58-0e82a3648f22","ios":"levelo://app?vid=2abcdb2d-70e8-4c22-bc58-0e82a3648f22"},"vehicle_type_id":"4","last_reported":1742955518,"current_range_meters":6400,"station_id":"ce4bhoh2rcd13ifvqh5g","pricing_plan_id":"cebpf4jnsgd1na2vs0mg"},{"bike_id":"bc5ee50c-0ee0-4b06-9aa0-2ff083787a62","system_id":"levelo_inurba_marseille","lat":43.31715,"lon":5.43703,"is_reserved":false,"is_disabled":false,"rental_uris":{"android":"levelo://app?vid=bc5ee50c-0ee0-4b06-9aa0-2ff083787a62","ios":"levelo://app?vid=bc5ee50c-0ee0-4b06-9aa0-2ff083787a62"},"vehicle_type_id":"4","last_reported":1742955518,"current_range_meters":6400,"station_id":"ce4bhp92rcd13ifvqhcg","pricing_plan_id":"cebpf4jnsgd1na2vs0mg"},{"bike_id":"bc9e59da-24a5-43b2-9344-e686036c5b53","system_id":"levelo_inurba_marseille","lat":43.26069,"lon":5.39382,"is_reserved":false,"is_disabled":false,"rental_uris":{"android":"levelo://app?vid=bc9e59da-24a5-43b2-9344-e686036c5b53","ios":"levelo://app?vid=bc9e59da-24a5-43b2-9344-e686036c5b53"},"vehicle_type_id":"4","last_reported":1742955518,"current_range_meters":6400,"station_id":"ce4bhh92rcd13ifvqfj0","pricing_plan_id":"cebpf4jnsgd1na2vs0mg"},{"bike_id":"2a00e69f-e8f0-4293-a71f-9f6c011d4f23","system_id":"levelo_inurba_marseille","lat":43.24998,"lon":5.38925,"is_reserved":false,"is_disabled":false,"rental_uris":{"android":"levelo://app?vid=2a00e69f-e8f0-4293-a71f-9f6c011d4f23","ios":"levelo://app?vid=2a00e69f-e8f0-4293-a71f-9f6c011d4f23"},"vehicle_type_id":"4","last_reported":1742955518,"current_range_meters":6800,"station_id":"ce4bhgp2rcd13ifvqfd0","pricing_plan_id":"cebpf4jnsgd1na2vs0mg"},{"bike_id":"497957ac-f634-47bb-825f-bbffb781347d","system_id":"levelo_inurba_marseille","lat":43.30882,"lon":5.39638,"is_reserved":false,"is_disabled":false,"rental_uris":{"android":"levelo://app?vid=497957ac-f634-47bb-825f-bbffb781347d","ios":"levelo://app?vid=497957ac-f634-47bb-825f-bbffb781347d"},"vehicle_type_id":"4","last_reported":1742955518,"current_range_meters":6800,"station_id":"ce4bh012rcd13ifvqcv0","pricing_plan_id":"cebpf4jnsgd1na2vs0mg"},{"bike_id":"ddf6cb6f-e318-4ef7-9a4d-5581365f4cae","system_id":"levelo_inurba_marseille","lat":43.280346,"lon":5.369414,"is_reserved":false,"is_disabled":false,"rental_uris":{"android":"levelo://app?vid=ddf6cb6f-e318-4ef7-9a4d-5581365f4cae","ios":"levelo://app?vid=ddf6cb6f-e318-4ef7-9a4d-5581365f4cae"},"vehicle_type_id":"4","last_reported":1742955518,"current_range_meters":6800,"station_id":"ce4bha12rcd13ifvqef0","pricing_plan_id":"cebpf4jnsgd1na2vs0mg"},{"bike_id":"a0d4632a-7a87-4031-aeeb-061ca0feaca6","system_id":"levelo_inurba_marseille","lat":43.23961,"lon":5.3662,"is_reserved":false,"is_disabled":false,"rental_uris":{"android":"levelo://app?vid=a0d4632a-7a87-4031-aeeb-061ca0feaca6","ios":"levelo://app?vid=a0d4632a-7a87-4031-aeeb-061ca0feaca6"},"vehicle_type_id":"4","last_reported":1742955518,"current_range_meters":6800,"station_id":"ce4bhi12rcd13ifvqfp0","pricing_plan_id":"cebpf4jnsgd1na2vs0mg"},{"bike_id":"c151b20c-15d2-4b12-8a62-0826c9de239f","system_id":"levelo_inurba_marseille","lat":43.23964,"lon":5.3663,"is_reserved":false,"is_disabled":false,"rental_uris":{"android":"levelo://app?vid=c151b20c-15d2-4b12-8a62-0826c9de239f","ios":"levelo://app?vid=c151b20c-15d2-4b12-8a62-0826c9de239f"},"vehicle_type_id":"4","last_reported":1742955518,"current_range_meters":6800,"station_id":"ce4bhi12rcd13ifvqfp0","pricing_plan_id":"cebpf4jnsgd1na2vs0mg"},{"bike_id":"15e3e5eb-d835-4728-a546-750b58ac5259","system_id":"levelo_inurba_marseille","lat":43.31763,"lon":5.38998,"is_reserved":false,"is_disabled":false,"rental_uris":{"android":"levelo://app?vid=15e3e5eb-d835-4728-a546-750b58ac5259","ios":"levelo://app?vid=15e3e5eb-d835-4728-a546-750b58ac5259"},"vehicle_type_id":"4","last_reported":1742955518,"current_range_meters":6800,"station_id":"ce4bhqp2rcd13ifvqhng","pricing_plan_id":"cebpf4jnsgd1na2vs0mg"},{"bike_id":"c28932a0-1d46-4fdf-8a30-865c10785be7","system_id":"levelo_inurba_marseille","lat":43.28405,"lon":5.37499,"is_reserved":false,"is_disabled":false,"rental_uris":{"android":"levelo://app?vid=c28932a0-1d46-4fdf-8a30-865c10785be7","ios":"levelo://app?vid=c28932a0-1d46-4fdf-8a30-865c10785be7"},"vehicle_type_id":"4","last_reported":1742955518,"current_range_meters":6800,"station_id":"ce4bh412rcd13ifvqds0","pricing_plan_id":"cebpf4jnsgd1na2vs0mg"},{"bike_id":"bfd8072e-8c0b-449c-a57c-74c00e79ef54","system_id":"levelo_inurba_marseille","lat":43.28624,"lon":5.35113,"is_reserved":false,"is_disabled":false,"rental_uris":{"android":"levelo://app?vid=bfd8072e-8c0b-449c-a57c-74c00e79ef54","ios":"levelo://app?vid=bfd8072e-8c0b-449c-a57c-74c00e79ef54"},"vehicle_type_id":"4","last_reported":1742955518,"current_range_meters":6800,"station_id":"ce4bhch2rcd13ifvqeug","pricing_plan_id":"cebpf4jnsgd1na2vs0mg"},{"bike_id":"ef43d9bd-e531-4a59-b8a9-fdc80b41fa34","system_id":"levelo_inurba_marseille","lat":43.312794,"lon":5.401612,"is_reserved":false,"is_disabled":true,"rental_uris":{"android":"levelo://app?vid=ef43d9bd-e531-4a59-b8a9-fdc80b41fa34","ios":"levelo://app?vid=ef43d9bd-e531-4a59-b8a9-fdc80b41fa34"},"vehicle_type_id":"4","last_reported":1742955518,"current_range_meters":6800,"station_id":"ce4bh092rcd13ifvqd30","pricing_plan_id":"cebpf4jnsgd1na2vs0mg"},{"bike_id":"4658672c-f05f-4c79-bc3e-455b1dba1066","system_id":"levelo_inurba_marseille","lat":43.31998,"lon":5.38141,"is_reserved":false,"is_disabled":false,"rental_uris":{"android":"levelo://app?vid=4658672c-f05f-4c79-bc3e-455b1dba1066","ios":"levelo://app?vid=4658672c-f05f-4c79-bc3e-455b1dba1066"},"vehicle_type_id":"4","last_reported":1742955518,"current_range_meters":6800,"station_id":"ce4bhr12rcd13ifvqhpg","pricing_plan_id":"cebpf4jnsgd1na2vs0mg"},{"bike_id":"bbe912d0-9523-48a8-9e9e-535309c5eaa6","system_id":"levelo_inurba_marseille","lat":43.293,"lon":5.37456,"is_reserved":false,"is_disabled":true,"rental_uris":{"android":"levelo://app?vid=bbe912d0-9523-48a8-9e9e-535309c5eaa6","ios":"levelo://app?vid=bbe912d0-9523-48a8-9e9e-535309c5eaa6"},"vehicle_type_id":"4","last_reported":1742955518,"current_range_meters":6800,"station_id":"ce4bgi12rcd13ifvqb70","pricing_plan_id":"cebpf4jnsgd1na2vs0mg"},{"bike_id":"52d363fe-5316-4f57-b127-d18678d2192d","system_id":"levelo_inurba_marseille","lat":43.30318,"lon":5.36905,"is_reserved":false,"is_disabled":false,"rental_uris":{"android":"levelo://app?vid=52d363fe-5316-4f57-b127-d18678d2192d","ios":"levelo://app?vid=52d363fe-5316-4f57-b127-d18678d2192d"},"vehicle_type_id":"4","last_reported":1742955518,"current_range_meters":6800,"station_id":"ce4bgqh2rcd13ifvqc5g","pricing_plan_id":"cebpf4jnsgd1na2vs0mg"},{"bike_id":"c353c957-fbb8-408a-9097-46c8d6b68074","system_id":"levelo_inurba_marseille","lat":43.24178,"lon":5.39714,"is_reserved":false,"is_disabled":false,"rental_uris":{"android":"levelo://app?vid=c353c957-fbb8-408a-9097-46c8d6b68074","ios":"levelo://app?vid=c353c957-fbb8-408a-9097-46c8d6b68074"},"vehicle_type_id":"4","last_reported":1742955518,"current_range_meters":6800,"station_id":"ce4bhn12rcd13ifvqgpg","pricing_plan_id":"cebpf4jnsgd1na2vs0mg"},{"bike_id":"38e476a3-7fa7-42ff-bc10-2fcb40220abd","system_id":"levelo_inurba_marseille","lat":43.23202,"lon":5.35563,"is_reserved":false,"is_disabled":false,"rental_uris":{"android":"levelo://app?vid=38e476a3-7fa7-42ff-bc10-2fcb40220abd","ios":"levelo://app?vid=38e476a3-7fa7-42ff-bc10-2fcb40220abd"},"vehicle_type_id":"4","last_reported":1742955518,"current_range_meters":6800,"station_id":"ce4bhu92rcd13ifvqi70","pricing_plan_id":"cebpf4jnsgd1na2vs0mg"},{"bike_id":"13c4a02b-59db-481d-a6ea-46858c89516d","system_id":"levelo_inurba_marseille","lat":43.24077,"lon":5.37759,"is_reserved":false,"is_disabled":false,"rental_uris":{"android":"levelo://app?vid=13c4a02b-59db-481d-a6ea-46858c89516d","ios":"levelo://app?vid=13c4a02b-59db-481d-a6ea-46858c89516d"},"vehicle_type_id":"4","last_reported":1742955518,"current_range_meters":6800,"station_id":"ce4bhnp2rcd13ifvqgvg","pricing_plan_id":"cebpf4jnsgd1na2vs0mg"},{"bike_id":"f0dc1799-be0b-41f2-87a2-bbe5c38b40e1","system_id":"levelo_inurba_marseille","lat":43.3061,"lon":5.39366,"is_reserved":false,"is_disabled":true,"rental_uris":{"android":"levelo://app?vid=f0dc1799-be0b-41f2-87a2-bbe5c38b40e1","ios":"levelo://app?vid=f0dc1799-be0b-41f2-87a2-bbe5c38b40e1"},"vehicle_type_id":"4","last_reported":1742955518,"current_range_meters":7200,"station_id":"ce4bh0p2rcd13ifvqd80","pricing_plan_id":"cebpf4jnsgd1na2vs0mg"},{"bike_id":"f79c72f1-af32-47df-99ec-857a9987b79c","system_id":"levelo_inurba_marseille","lat":43.28576,"lon":5.39492,"is_reserved":false,"is_disabled":false,"rental_uris":{"android":"levelo://app?vid=f79c72f1-af32-47df-99ec-857a9987b79c","ios":"levelo://app?vid=f79c72f1-af32-47df-99ec-857a9987b79c"},"vehicle_type_id":"4","last_reported":1742955518,"current_range_meters":7200,"station_id":"ce4bh292rcd13ifvqdg0","pricing_plan_id":"cebpf4jnsgd1na2vs0mg"},{"bike_id":"d65aa873-af88-4101-bc10-250c22b71ff0","system_id":"levelo_inurba_marseille","lat":43.26936,"lon":5.40267,"is_reserved":false,"is_disabled":false,"rental_uris":{"android":"levelo://app?vid=d65aa873-af88-4101-bc10-250c22b71ff0","ios":"levelo://app?vid=d65aa873-af88-4101-bc10-250c22b71ff0"},"vehicle_type_id":"4","last_reported":1742955518,"current_range_meters":7200,"station_id":"cjm6bp8fraef2m0cb0m0","pricing_plan_id":"cebpf4jnsgd1na2vs0mg"},{"bike_id":"f9c2d6f4-4513-4b26-a173-3b2adf92e672","system_id":"levelo_inurba_marseille","lat":43.30111,"lon":5.39058,"is_reserved":false,"is_disabled":false,"rental_uris":{"android":"levelo://app?vid=f9c2d6f4-4513-4b26-a173-3b2adf92e672","ios":"levelo://app?vid=f9c2d6f4-4513-4b26-a173-3b2adf92e672"},"vehicle_type_id":"4","last_reported":1742955518,"current_range_meters":7200,"station_id":"ce4bh192rcd13ifvqdb0","pricing_plan_id":"cebpf4jnsgd1na2vs0mg"},{"bike_id":"bb6039b7-3a5e-4723-ae1e-1ed71bf967d4","system_id":"levelo_inurba_marseille","lat":43.24674,"lon":5.38155,"is_reserved":false,"is_disabled":false,"rental_uris":{"android":"levelo://app?vid=bb6039b7-3a5e-4723-ae1e-1ed71bf967d4","ios":"levelo://app?vid=bb6039b7-3a5e-4723-ae1e-1ed71bf967d4"},"vehicle_type_id":"4","last_reported":1742955518,"current_range_meters":7200,"station_id":"ce4bhih2rcd13ifvqfr0","pricing_plan_id":"cebpf4jnsgd1na2vs0mg"},{"bike_id":"6c40bd81-af13-42e4-8827-fa8af6ebc8cc","system_id":"levelo_inurba_marseille","lat":43.248141,"lon":5.374484,"is_reserved":false,"is_disabled":false,"rental_uris":{"android":"levelo://app?vid=6c40bd81-af13-42e4-8827-fa8af6ebc8cc","ios":"levelo://app?vid=6c40bd81-af13-42e4-8827-fa8af6ebc8cc"},"vehicle_type_id":"4","last_reported":1742955518,"current_range_meters":7200,"station_id":"ce4bhgh2rcd13ifvqfb0","pricing_plan_id":"cebpf4jnsgd1na2vs0mg"},{"bike_id":"2427ca1c-e725-4d22-8099-58d0a2bffa06","system_id":"levelo_inurba_marseille","lat":43.28704,"lon":5.39976,"is_reserved":false,"is_disabled":false,"rental_uris":{"android":"levelo://app?vid=2427ca1c-e725-4d22-8099-58d0a2bffa06","ios":"levelo://app?vid=2427ca1c-e725-4d22-8099-58d0a2bffa06"},"vehicle_type_id":"4","last_reported":1742955518,"current_range_meters":7200,"station_id":"ce4bho92rcd13ifvqh3g","pricing_plan_id":"cebpf4jnsgd1na2vs0mg"},{"bike_id":"baa5490f-75ed-4a89-b20d-d28fd6ff3a39","system_id":"levelo_inurba_marseille","lat":43.317159,"lon":5.437009,"is_reserved":false,"is_disabled":false,"rental_uris":{"android":"levelo://app?vid=baa5490f-75ed-4a89-b20d-d28fd6ff3a39","ios":"levelo://app?vid=baa5490f-75ed-4a89-b20d-d28fd6ff3a39"},"vehicle_type_id":"4","last_reported":1742955518,"current_range_meters":7200,"station_id":"ce4bhp92rcd13ifvqhcg","pricing_plan_id":"cebpf4jnsgd1na2vs0mg"},{"bike_id":"2a99ecb7-4bf0-4c00-89bb-11ff019b8a6d","system_id":"levelo_inurba_marseille","lat":43.22946,"lon":5.35408,"is_reserved":false,"is_disabled":false,"rental_uris":{"android":"levelo://app?vid=2a99ecb7-4bf0-4c00-89bb-11ff019b8a6d","ios":"levelo://app?vid=2a99ecb7-4bf0-4c00-89bb-11ff019b8a6d"},"vehicle_type_id":"4","last_reported":1742955518,"current_range_meters":8000,"station_id":"cpo3532slgdg3j2ikp40","pricing_plan_id":"cebpf4jnsgd1na2vs0mg"},{"bike_id":"e3f76d45-4904-44a7-aac2-e04832e991bb","system_id":"levelo_inurba_marseille","lat":43.299626,"lon":5.413232,"is_reserved":false,"is_disabled":true,"rental_uris":{"android":"levelo://app?vid=e3f76d45-4904-44a7-aac2-e04832e991bb","ios":"levelo://app?vid=e3f76d45-4904-44a7-aac2-e04832e991bb"},"vehicle_type_id":"4","last_reported":1742955518,"current_range_meters":8000,"station_id":"ce4bhp12rcd13ifvqh9g","pricing_plan_id":"cebpf4jnsgd1na2vs0mg"},{"bike_id":"c9578b47-9857-4396-852d-050cd99a85f0","system_id":"levelo_inurba_marseille","lat":43.246643,"lon":5.38173,"is_reserved":false,"is_disabled":false,"rental_uris":{"android":"levelo://app?vid=c9578b47-9857-4396-852d-050cd99a85f0","ios":"levelo://app?vid=c9578b47-9857-4396-852d-050cd99a85f0"},"vehicle_type_id":"4","last_reported":1742955518,"current_range_meters":8000,"station_id":"ce4bhih2rcd13ifvqfr0","pricing_plan_id":"cebpf4jnsgd1na2vs0mg"},{"bike_id":"99bd2117-ef7c-4368-9961-a816eaf8388d","system_id":"levelo_inurba_marseille","lat":43.29789,"lon":5.37119,"is_reserved":false,"is_disabled":false,"rental_uris":{"android":"levelo://app?vid=99bd2117-ef7c-4368-9961-a816eaf8388d","ios":"levelo://app?vid=99bd2117-ef7c-4368-9961-a816eaf8388d"},"vehicle_type_id":"4","last_reported":1742955518,"current_range_meters":8000,"station_id":"ce4bgop2rcd13ifvqc1g","pricing_plan_id":"cebpf4jnsgd1na2vs0mg"},{"bike_id":"ada4ba7b-2dc8-47ef-a5a8-9dc4e4bd1916","system_id":"levelo_inurba_marseille","lat":43.299963,"lon":5.3742,"is_reserved":false,"is_disabled":false,"rental_uris":{"android":"levelo://app?vid=ada4ba7b-2dc8-47ef-a5a8-9dc4e4bd1916","ios":"levelo://app?vid=ada4ba7b-2dc8-47ef-a5a8-9dc4e4bd1916"},"vehicle_type_id":"4","last_reported":1742955518,"current_range_meters":8000,"station_id":"","pricing_plan_id":"cebpf4jnsgd1na2vs0mg"},{"bike_id":"1a3c5e1e-498d-4bf5-b5bd-2116c210ebf5","system_id":"levelo_inurba_marseille","lat":43.24393,"lon":5.37073,"is_reserved":false,"is_disabled":false,"rental_uris":{"android":"levelo://app?vid=1a3c5e1e-498d-4bf5-b5bd-2116c210ebf5","ios":"levelo://app?vid=1a3c5e1e-498d-4bf5-b5bd-2116c210ebf5"},"vehicle_type_id":"4","last_reported":1742955518,"current_range_meters":8000,"station_id":"ce4bhhh2rcd13ifvqfk0","pricing_plan_id":"cebpf4jnsgd1na2vs0mg"},{"bike_id":"896d5863-1ac5-46eb-b4be-2c9a5b236c8f","system_id":"levelo_inurba_marseille","lat":43.28436,"lon":5.39202,"is_reserved":false,"is_disabled":false,"rental_uris":{"android":"levelo://app?vid=896d5863-1ac5-46eb-b4be-2c9a5b236c8f","ios":"levelo://app?vid=896d5863-1ac5-46eb-b4be-2c9a5b236c8f"},"vehicle_type_id":"4","last_reported":1742955518,"current_range_meters":8000,"station_id":"ce4bhoh2rcd13ifvqh5g","pricing_plan_id":"cebpf4jnsgd1na2vs0mg"},{"bike_id":"f231fce1-4e45-4e91-9f3a-d048500c7ded","system_id":"levelo_inurba_marseille","lat":43.3089,"lon":5.39637,"is_reserved":false,"is_disabled":false,"rental_uris":{"android":"levelo://app?vid=f231fce1-4e45-4e91-9f3a-d048500c7ded","ios":"levelo://app?vid=f231fce1-4e45-4e91-9f3a-d048500c7ded"},"vehicle_type_id":"4","last_reported":1742955518,"current_range_meters":8000,"station_id":"ce4bh012rcd13ifvqcv0","pricing_plan_id":"cebpf4jnsgd1na2vs0mg"},{"bike_id":"d0ce6a4c-8c1a-4117-b620-bb8816808dbc","system_id":"levelo_inurba_marseille","lat":43.239647,"lon":5.36636,"is_reserved":false,"is_disabled":false,"rental_uris":{"android":"levelo://app?vid=d0ce6a4c-8c1a-4117-b620-bb8816808dbc","ios":"levelo://app?vid=d0ce6a4c-8c1a-4117-b620-bb8816808dbc"},"vehicle_type_id":"4","last_reported":1742955518,"current_range_meters":8000,"station_id":"ce4bhi12rcd13ifvqfp0","pricing_plan_id":"cebpf4jnsgd1na2vs0mg"},{"bike_id":"db00ce79-8ab7-4a09-8f8d-90374c517323","system_id":"levelo_inurba_marseille","lat":43.24645,"lon":5.38882,"is_reserved":false,"is_disabled":false,"rental_uris":{"android":"levelo://app?vid=db00ce79-8ab7-4a09-8f8d-90374c517323","ios":"levelo://app?vid=db00ce79-8ab7-4a09-8f8d-90374c517323"},"vehicle_type_id":"4","last_reported":1742955518,"current_range_meters":8000,"station_id":"ce4bhg12rcd13ifvqf60","pricing_plan_id":"cebpf4jnsgd1na2vs0mg"},{"bike_id":"b6fd1ec3-47b2-486f-8b84-f71e2b87ecef","system_id":"levelo_inurba_marseille","lat":43.31043,"lon":5.42475,"is_reserved":false,"is_disabled":true,"rental_uris":{"android":"levelo://app?vid=b6fd1ec3-47b2-486f-8b84-f71e2b87ecef","ios":"levelo://app?vid=b6fd1ec3-47b2-486f-8b84-f71e2b87ecef"},"vehicle_type_id":"4","last_reported":1742955518,"current_range_meters":8000,"station_id":"","pricing_plan_id":"cebpf4jnsgd1na2vs0mg"},{"bike_id":"a4da66a0-8222-41b6-b7e9-87f6ed2f0427","system_id":"levelo_inurba_marseille","lat":43.284101,"lon":5.375136,"is_reserved":false,"is_disabled":false,"rental_uris":{"android":"levelo://app?vid=a4da66a0-8222-41b6-b7e9-87f6ed2f0427","ios":"levelo://app?vid=a4da66a0-8222-41b6-b7e9-87f6ed2f0427"},"vehicle_type_id":"4","last_reported":1742955518,"current_range_meters":8000,"station_id":"ce4bh412rcd13ifvqds0","pricing_plan_id":"cebpf4jnsgd1na2vs0mg"},{"bike_id":"4c8c6174-794c-4225-aa51-8a7a304903b9","system_id":"levelo_inurba_marseille","lat":43.31759,"lon":5.39035,"is_reserved":false,"is_disabled":false,"rental_uris":{"android":"levelo://app?vid=4c8c6174-794c-4225-aa51-8a7a304903b9","ios":"levelo://app?vid=4c8c6174-794c-4225-aa51-8a7a304903b9"},"vehicle_type_id":"4","last_reported":1742955518,"current_range_meters":8400,"station_id":"ce4bhqp2rcd13ifvqhng","pricing_plan_id":"cebpf4jnsgd1na2vs0mg"},{"bike_id":"f294d69a-8637-46e9-95b8-3d82151d6376","system_id":"levelo_inurba_marseille","lat":43.28002,"lon":5.4166,"is_reserved":false,"is_disabled":true,"rental_uris":{"android":"levelo://app?vid=f294d69a-8637-46e9-95b8-3d82151d6376","ios":"levelo://app?vid=f294d69a-8637-46e9-95b8-3d82151d6376"},"vehicle_type_id":"4","last_reported":1742955518,"current_range_meters":8400,"station_id":"ce4bho12rcd13ifvqh1g","pricing_plan_id":"cebpf4jnsgd1na2vs0mg"},{"bike_id":"225cbe9d-4f8e-432e-b5e7-cd7e14da2d62","system_id":"levelo_inurba_marseille","lat":43.28184,"lon":5.42623,"is_reserved":false,"is_disabled":false,"rental_uris":{"android":"levelo://app?vid=225cbe9d-4f8e-432e-b5e7-cd7e14da2d62","ios":"levelo://app?vid=225cbe9d-4f8e-432e-b5e7-cd7e14da2d62"},"vehicle_type_id":"4","last_reported":1742955518,"current_range_meters":8400,"station_id":"ce4bhnh2rcd13ifvqgug","pricing_plan_id":"cebpf4jnsgd1na2vs0mg"},{"bike_id":"40c9879f-9142-4245-a7bc-60f5721fd202","system_id":"levelo_inurba_marseille","lat":43.25723,"lon":5.41117,"is_reserved":false,"is_disabled":false,"rental_uris":{"android":"levelo://app?vid=40c9879f-9142-4245-a7bc-60f5721fd202","ios":"levelo://app?vid=40c9879f-9142-4245-a7bc-60f5721fd202"},"vehicle_type_id":"4","last_reported":1742955518,"current_range_meters":8400,"station_id":"ce4bhkp2rcd13ifvqgd0","pricing_plan_id":"cebpf4jnsgd1na2vs0mg"},{"bike_id":"2f3e2a92-1301-4a27-8eaa-7b0ea525530e","system_id":"levelo_inurba_marseille","lat":43.31711,"lon":5.43703,"is_reserved":false,"is_disabled":false,"rental_uris":{"android":"levelo://app?vid=2f3e2a92-1301-4a27-8eaa-7b0ea525530e","ios":"levelo://app?vid=2f3e2a92-1301-4a27-8eaa-7b0ea525530e"},"vehicle_type_id":"4","last_reported":1742955518,"current_range_meters":8400,"station_id":"ce4bhp92rcd13ifvqhcg","pricing_plan_id":"cebpf4jnsgd1na2vs0mg"},{"bike_id":"778fb8f5-1419-4c25-9738-082c6fdd42be","system_id":"levelo_inurba_marseille","lat":43.31539,"lon":5.38033,"is_reserved":false,"is_disabled":false,"rental_uris":{"android":"levelo://app?vid=778fb8f5-1419-4c25-9738-082c6fdd42be","ios":"levelo://app?vid=778fb8f5-1419-4c25-9738-082c6fdd42be"},"vehicle_type_id":"4","last_reported":1742955518,"current_range_meters":8400,"station_id":"ce4bhsp2rcd13ifvqi50","pricing_plan_id":"cebpf4jnsgd1na2vs0mg"},{"bike_id":"f2c78ca5-24f3-407b-8a58-759a953e6b2d","system_id":"levelo_inurba_marseille","lat":43.28703,"lon":5.39977,"is_reserved":false,"is_disabled":false,"rental_uris":{"android":"levelo://app?vid=f2c78ca5-24f3-407b-8a58-759a953e6b2d","ios":"levelo://app?vid=f2c78ca5-24f3-407b-8a58-759a953e6b2d"},"vehicle_type_id":"4","last_reported":1742955518,"current_range_meters":8400,"station_id":"ce4bho92rcd13ifvqh3g","pricing_plan_id":"cebpf4jnsgd1na2vs0mg"},{"bike_id":"5947461e-f1d9-4b8a-a16b-079c1e611686","system_id":"levelo_inurba_marseille","lat":43.2827,"lon":5.35059,"is_reserved":false,"is_disabled":true,"rental_uris":{"android":"levelo://app?vid=5947461e-f1d9-4b8a-a16b-079c1e611686","ios":"levelo://app?vid=5947461e-f1d9-4b8a-a16b-079c1e611686"},"vehicle_type_id":"4","last_reported":1742955518,"current_range_meters":8400,"station_id":"ce4bhbp2rcd13ifvqerg","pricing_plan_id":"cebpf4jnsgd1na2vs0mg"},{"bike_id":"11438d8e-2d0f-46ba-9f5d-f2d8f9f5eadf","system_id":"levelo_inurba_marseille","lat":43.25097,"lon":5.39535,"is_reserved":false,"is_disabled":false,"rental_uris":{"android":"levelo://app?vid=11438d8e-2d0f-46ba-9f5d-f2d8f9f5eadf","ios":"levelo://app?vid=11438d8e-2d0f-46ba-9f5d-f2d8f9f5eadf"},"vehicle_type_id":"4","last_reported":1742955518,"current_range_meters":8400,"station_id":"ce4bhm12rcd13ifvqgkg","pricing_plan_id":"cebpf4jnsgd1na2vs0mg"},{"bike_id":"f3371853-40bf-4a23-bed4-87c9715e98c9","system_id":"levelo_inurba_marseille","lat":43.26797,"lon":5.40259,"is_reserved":false,"is_disabled":false,"rental_uris":{"android":"levelo://app?vid=f3371853-40bf-4a23-bed4-87c9715e98c9","ios":"levelo://app?vid=f3371853-40bf-4a23-bed4-87c9715e98c9"},"vehicle_type_id":"4","last_reported":1742955518,"current_range_meters":8400,"station_id":"ce501612rcd8frsf0b60","pricing_plan_id":"cebpf4jnsgd1na2vs0mg"},{"bike_id":"74ed019f-51e9-4336-8496-4c595e435551","system_id":"levelo_inurba_marseille","lat":43.282765,"lon":5.350645,"is_reserved":false,"is_disabled":false,"rental_uris":{"android":"levelo://app?vid=74ed019f-51e9-4336-8496-4c595e435551","ios":"levelo://app?vid=74ed019f-51e9-4336-8496-4c595e435551"},"vehicle_type_id":"4","last_reported":1742955518,"current_range_meters":8400,"station_id":"ce4bhbp2rcd13ifvqerg","pricing_plan_id":"cebpf4jnsgd1na2vs0mg"},{"bike_id":"342f19f0-681f-4097-b14f-f905cbb3bfb3","system_id":"levelo_inurba_marseille","lat":43.27365,"lon":5.36257,"is_reserved":false,"is_disabled":false,"rental_uris":{"android":"levelo://app?vid=342f19f0-681f-4097-b14f-f905cbb3bfb3","ios":"levelo://app?vid=342f19f0-681f-4097-b14f-f905cbb3bfb3"},"vehicle_type_id":"4","last_reported":1742955518,"current_range_meters":8400,"station_id":"ce4bhbh2rcd13ifvqeo0","pricing_plan_id":"cebpf4jnsgd1na2vs0mg"},{"bike_id":"f63f5481-a6f7-4d46-af84-60ed21e786f8","system_id":"levelo_inurba_marseille","lat":43.28403,"lon":5.37519,"is_reserved":false,"is_disabled":false,"rental_uris":{"android":"levelo://app?vid=f63f5481-a6f7-4d46-af84-60ed21e786f8","ios":"levelo://app?vid=f63f5481-a6f7-4d46-af84-60ed21e786f8"},"vehicle_type_id":"4","last_reported":1742955518,"current_range_meters":8400,"station_id":"ce4bh412rcd13ifvqds0","pricing_plan_id":"cebpf4jnsgd1na2vs0mg"},{"bike_id":"6a2be86c-5221-475d-ab8e-5d3542773aa2","system_id":"levelo_inurba_marseille","lat":43.31498,"lon":5.37294,"is_reserved":false,"is_disabled":false,"rental_uris":{"android":"levelo://app?vid=6a2be86c-5221-475d-ab8e-5d3542773aa2","ios":"levelo://app?vid=6a2be86c-5221-475d-ab8e-5d3542773aa2"},"vehicle_type_id":"4","last_reported":1742955518,"current_range_meters":8400,"station_id":"ce4bgt12rcd13ifvqcd0","pricing_plan_id":"cebpf4jnsgd1na2vs0mg"},{"bike_id":"1392a870-6300-4219-8b1a-6d76541db636","system_id":"levelo_inurba_marseille","lat":43.32328,"lon":5.40617,"is_reserved":false,"is_disabled":false,"rental_uris":{"android":"levelo://app?vid=1392a870-6300-4219-8b1a-6d76541db636","ios":"levelo://app?vid=1392a870-6300-4219-8b1a-6d76541db636"},"vehicle_type_id":"4","last_reported":1742955518,"current_range_meters":8400,"station_id":"ce4bhq92rcd13ifvqhjg","pricing_plan_id":"cebpf4jnsgd1na2vs0mg"},{"bike_id":"89e75ed9-7f20-48f7-ad37-e0033e47c633","system_id":"levelo_inurba_marseille","lat":43.24642,"lon":5.38886,"is_reserved":false,"is_disabled":false,"rental_uris":{"android":"levelo://app?vid=89e75ed9-7f20-48f7-ad37-e0033e47c633","ios":"levelo://app?vid=89e75ed9-7f20-48f7-ad37-e0033e47c633"},"vehicle_type_id":"4","last_reported":1742955518,"current_range_meters":8400,"station_id":"ce4bhg12rcd13ifvqf60","pricing_plan_id":"cebpf4jnsgd1na2vs0mg"},{"bike_id":"6633349b-54ae-41b8-88d5-61ec5d012302","system_id":"levelo_inurba_marseille","lat":43.32104,"lon":5.36769,"is_reserved":false,"is_disabled":false,"rental_uris":{"android":"levelo://app?vid=6633349b-54ae-41b8-88d5-61ec5d012302","ios":"levelo://app?vid=6633349b-54ae-41b8-88d5-61ec5d012302"},"vehicle_type_id":"4","last_reported":1742955518,"current_range_meters":8800,"station_id":"ce4bhrh2rcd13ifvqhug","pricing_plan_id":"cebpf4jnsgd1na2vs0mg"},{"bike_id":"31db09b2-8ef3-4eea-bab8-54f6591c0de5","system_id":"levelo_inurba_marseille","lat":43.27994,"lon":5.40015,"is_reserved":false,"is_disabled":false,"rental_uris":{"android":"levelo://app?vid=31db09b2-8ef3-4eea-bab8-54f6591c0de5","ios":"levelo://app?vid=31db09b2-8ef3-4eea-bab8-54f6591c0de5"},"vehicle_type_id":"4","last_reported":1742955518,"current_range_meters":8800,"station_id":"ce4bho92rcd13ifvqh4g","pricing_plan_id":"cebpf4jnsgd1na2vs0mg"},{"bike_id":"74406c35-ee35-437d-be26-2d7711378046","system_id":"levelo_inurba_marseille","lat":43.32348,"lon":5.36693,"is_reserved":false,"is_disabled":false,"rental_uris":{"android":"levelo://app?vid=74406c35-ee35-437d-be26-2d7711378046","ios":"levelo://app?vid=74406c35-ee35-437d-be26-2d7711378046"},"vehicle_type_id":"4","last_reported":1742955518,"current_range_meters":8800,"station_id":"","pricing_plan_id":"cebpf4jnsgd1na2vs0mg"},{"bike_id":"79511999-36a4-40b7-932f-a8d34fad90ac","system_id":"levelo_inurba_marseille","lat":43.3088,"lon":5.39635,"is_reserved":false,"is_disabled":false,"rental_uris":{"android":"levelo://app?vid=79511999-36a4-40b7-932f-a8d34fad90ac","ios":"levelo://app?vid=79511999-36a4-40b7-932f-a8d34fad90ac"},"vehicle_type_id":"4","last_reported":1742955518,"current_range_meters":8800,"station_id":"ce4bh012rcd13ifvqcv0","pricing_plan_id":"cebpf4jnsgd1na2vs0mg"},{"bike_id":"16e3790f-41b6-400e-8d88-6751ca433300","system_id":"levelo_inurba_marseille","lat":43.24994,"lon":5.38933,"is_reserved":false,"is_disabled":false,"rental_uris":{"android":"levelo://app?vid=16e3790f-41b6-400e-8d88-6751ca433300","ios":"levelo://app?vid=16e3790f-41b6-400e-8d88-6751ca433300"},"vehicle_type_id":"4","last_reported":1742955518,"current_range_meters":8800,"station_id":"ce4bhgp2rcd13ifvqfd0","pricing_plan_id":"cebpf4jnsgd1na2vs0mg"},{"bike_id":"bf897b90-1384-4a2f-ac27-95c9b1e77fd1","system_id":"levelo_inurba_marseille","lat":43.268096,"lon":5.402622,"is_reserved":false,"is_disabled":false,"rental_uris":{"android":"levelo://app?vid=bf897b90-1384-4a2f-ac27-95c9b1e77fd1","ios":"levelo://app?vid=bf897b90-1384-4a2f-ac27-95c9b1e77fd1"},"vehicle_type_id":"4","last_reported":1742955518,"current_range_meters":8800,"station_id":"ce501612rcd8frsf0b60","pricing_plan_id":"cebpf4jnsgd1na2vs0mg"},{"bike_id":"5714ec0e-6e53-4732-9ee8-b9024b34aca9","system_id":"levelo_inurba_marseille","lat":43.2856,"lon":5.39508,"is_reserved":false,"is_disabled":false,"rental_uris":{"android":"levelo://app?vid=5714ec0e-6e53-4732-9ee8-b9024b34aca9","ios":"levelo://app?vid=5714ec0e-6e53-4732-9ee8-b9024b34aca9"},"vehicle_type_id":"4","last_reported":1742955518,"current_range_meters":8800,"station_id":"ce4bh292rcd13ifvqdg0","pricing_plan_id":"cebpf4jnsgd1na2vs0mg"},{"bike_id":"f831d07a-b749-41fb-8fc2-0a1f64ceb199","system_id":"levelo_inurba_marseille","lat":43.28457,"lon":5.35875,"is_reserved":false,"is_disabled":false,"rental_uris":{"android":"levelo://app?vid=f831d07a-b749-41fb-8fc2-0a1f64ceb199","ios":"levelo://app?vid=f831d07a-b749-41fb-8fc2-0a1f64ceb199"},"vehicle_type_id":"4","last_reported":1742955518,"current_range_meters":8800,"station_id":"ce4bhah2rcd13ifvqei0","pricing_plan_id":"cebpf4jnsgd1na2vs0mg"},{"bike_id":"ca8f7c25-e20a-4acd-b1b7-e06159075a00","system_id":"levelo_inurba_marseille","lat":43.28456,"lon":5.3919,"is_reserved":false,"is_disabled":false,"rental_uris":{"android":"levelo://app?vid=ca8f7c25-e20a-4acd-b1b7-e06159075a00","ios":"levelo://app?vid=ca8f7c25-e20a-4acd-b1b7-e06159075a00"},"vehicle_type_id":"4","last_reported":1742955518,"current_range_meters":8800,"station_id":"ce4bhoh2rcd13ifvqh5g","pricing_plan_id":"cebpf4jnsgd1na2vs0mg"},{"bike_id":"8c5e09de-c9ee-4ecd-8bf7-a9da954099c1","system_id":"levelo_inurba_marseille","lat":43.27983,"lon":5.40024,"is_reserved":false,"is_disabled":false,"rental_uris":{"android":"levelo://app?vid=8c5e09de-c9ee-4ecd-8bf7-a9da954099c1","ios":"levelo://app?vid=8c5e09de-c9ee-4ecd-8bf7-a9da954099c1"},"vehicle_type_id":"4","last_reported":1742955518,"current_range_meters":8800,"station_id":"ce4bho92rcd13ifvqh4g","pricing_plan_id":"cebpf4jnsgd1na2vs0mg"},{"bike_id":"c68f1691-f9ef-4fbb-9fec-19a72917558c","system_id":"levelo_inurba_marseille","lat":43.28466,"lon":5.35879,"is_reserved":false,"is_disabled":false,"rental_uris":{"android":"levelo://app?vid=c68f1691-f9ef-4fbb-9fec-19a72917558c","ios":"levelo://app?vid=c68f1691-f9ef-4fbb-9fec-19a72917558c"},"vehicle_type_id":"4","last_reported":1742955518,"current_range_meters":8800,"station_id":"ce4bhah2rcd13ifvqei0","pricing_plan_id":"cebpf4jnsgd1na2vs0mg"},{"bike_id":"30d2fbca-239f-49cd-b89b-17b0ba382ee0","system_id":"levelo_inurba_marseille","lat":43.24072,"lon":5.37754,"is_reserved":false,"is_disabled":false,"rental_uris":{"android":"levelo://app?vid=30d2fbca-239f-49cd-b89b-17b0ba382ee0","ios":"levelo://app?vid=30d2fbca-239f-49cd-b89b-17b0ba382ee0"},"vehicle_type_id":"4","last_reported":1742955518,"current_range_meters":8800,"station_id":"ce4bhnp2rcd13ifvqgvg","pricing_plan_id":"cebpf4jnsgd1na2vs0mg"},{"bike_id":"4fce0cf0-781a-4abe-89c9-500e69515fd4","system_id":"levelo_inurba_marseille","lat":43.24675,"lon":5.38165,"is_reserved":false,"is_disabled":false,"rental_uris":{"android":"levelo://app?vid=4fce0cf0-781a-4abe-89c9-500e69515fd4","ios":"levelo://app?vid=4fce0cf0-781a-4abe-89c9-500e69515fd4"},"vehicle_type_id":"4","last_reported":1742955518,"current_range_meters":8800,"station_id":"ce4bhih2rcd13ifvqfr0","pricing_plan_id":"cebpf4jnsgd1na2vs0mg"},{"bike_id":"8046ef72-cb0a-400d-b1d8-b0250c67a0d7","system_id":"levelo_inurba_marseille","lat":43.24667,"lon":5.38179,"is_reserved":false,"is_disabled":false,"rental_uris":{"android":"levelo://app?vid=8046ef72-cb0a-400d-b1d8-b0250c67a0d7","ios":"levelo://app?vid=8046ef72-cb0a-400d-b1d8-b0250c67a0d7"},"vehicle_type_id":"4","last_reported":1742955518,"current_range_meters":8800,"station_id":"ce4bhih2rcd13ifvqfr0","pricing_plan_id":"cebpf4jnsgd1na2vs0mg"},{"bike_id":"28608dc9-a0fa-40f5-864a-a89d151a1db8","system_id":"levelo_inurba_marseille","lat":43.27571,"lon":5.38399,"is_reserved":false,"is_disabled":false,"rental_uris":{"android":"levelo://app?vid=28608dc9-a0fa-40f5-864a-a89d151a1db8","ios":"levelo://app?vid=28608dc9-a0fa-40f5-864a-a89d151a1db8"},"vehicle_type_id":"4","last_reported":1742955518,"current_range_meters":8800,"station_id":"ce4bhh92rcd13ifvqfi0","pricing_plan_id":"cebpf4jnsgd1na2vs0mg"},{"bike_id":"dd41cfbe-8291-4121-af39-06b86784c697","system_id":"levelo_inurba_marseille","lat":43.24807,"lon":5.37449,"is_reserved":false,"is_disabled":false,"rental_uris":{"android":"levelo://app?vid=dd41cfbe-8291-4121-af39-06b86784c697","ios":"levelo://app?vid=dd41cfbe-8291-4121-af39-06b86784c697"},"vehicle_type_id":"4","last_reported":1742955518,"current_range_meters":9200,"station_id":"ce4bhgh2rcd13ifvqfb0","pricing_plan_id":"cebpf4jnsgd1na2vs0mg"},{"bike_id":"5eb0e2f0-8111-4362-8b3d-f072323b11aa","system_id":"levelo_inurba_marseille","lat":43.28612,"lon":5.37076,"is_reserved":false,"is_disabled":false,"rental_uris":{"android":"levelo://app?vid=5eb0e2f0-8111-4362-8b3d-f072323b11aa","ios":"levelo://app?vid=5eb0e2f0-8111-4362-8b3d-f072323b11aa"},"vehicle_type_id":"4","last_reported":1742955518,"current_range_meters":9200,"station_id":"ce4bht12rcd13ifvqi60","pricing_plan_id":"cebpf4jnsgd1na2vs0mg"},{"bike_id":"5aeb641c-8c67-430e-bd09-77076d22412d","system_id":"levelo_inurba_marseille","lat":43.31047,"lon":5.37521,"is_reserved":false,"is_disabled":false,"rental_uris":{"android":"levelo://app?vid=5aeb641c-8c67-430e-bd09-77076d22412d","ios":"levelo://app?vid=5aeb641c-8c67-430e-bd09-77076d22412d"},"vehicle_type_id":"4","last_reported":1742955518,"current_range_meters":9200,"station_id":"","pricing_plan_id":"cebpf4jnsgd1na2vs0mg"},{"bike_id":"c5a53012-3ad4-48af-9734-3592df1799d5","system_id":"levelo_inurba_marseille","lat":43.23209,"lon":5.35539,"is_reserved":false,"is_disabled":false,"rental_uris":{"android":"levelo://app?vid=c5a53012-3ad4-48af-9734-3592df1799d5","ios":"levelo://app?vid=c5a53012-3ad4-48af-9734-3592df1799d5"},"vehicle_type_id":"4","last_reported":1742955518,"current_range_meters":9200,"station_id":"ce4bhu92rcd13ifvqi70","pricing_plan_id":"cebpf4jnsgd1na2vs0mg"},{"bike_id":"b0398b2e-2bb9-4bbd-9664-3ee483348c23","system_id":"levelo_inurba_marseille","lat":43.2846,"lon":5.35886,"is_reserved":false,"is_disabled":false,"rental_uris":{"android":"levelo://app?vid=b0398b2e-2bb9-4bbd-9664-3ee483348c23","ios":"levelo://app?vid=b0398b2e-2bb9-4bbd-9664-3ee483348c23"},"vehicle_type_id":"4","last_reported":1742955518,"current_range_meters":9200,"station_id":"ce4bhah2rcd13ifvqei0","pricing_plan_id":"cebpf4jnsgd1na2vs0mg"},{"bike_id":"d0d65fe2-c566-4a74-9659-9e90652dfdb4","system_id":"levelo_inurba_marseille","lat":43.30941,"lon":5.4013,"is_reserved":false,"is_disabled":false,"rental_uris":{"android":"levelo://app?vid=d0d65fe2-c566-4a74-9659-9e90652dfdb4","ios":"levelo://app?vid=d0d65fe2-c566-4a74-9659-9e90652dfdb4"},"vehicle_type_id":"4","last_reported":1742955518,"current_range_meters":9200,"station_id":"ce4bgvp2rcd13ifvqct0","pricing_plan_id":"cebpf4jnsgd1na2vs0mg"},{"bike_id":"34a65679-9fb1-4403-90b3-341e4c2e2050","system_id":"levelo_inurba_marseille","lat":43.28411,"lon":5.37507,"is_reserved":false,"is_disabled":false,"rental_uris":{"android":"levelo://app?vid=34a65679-9fb1-4403-90b3-341e4c2e2050","ios":"levelo://app?vid=34a65679-9fb1-4403-90b3-341e4c2e2050"},"vehicle_type_id":"4","last_reported":1742955518,"current_range_meters":9200,"station_id":"ce4bh412rcd13ifvqds0","pricing_plan_id":"cebpf4jnsgd1na2vs0mg"},{"bike_id":"5afadd01-05af-47f2-b106-8c57133c5065","system_id":"levelo_inurba_marseille","lat":43.299737,"lon":5.384992,"is_reserved":false,"is_disabled":true,"rental_uris":{"android":"levelo://app?vid=5afadd01-05af-47f2-b106-8c57133c5065","ios":"levelo://app?vid=5afadd01-05af-47f2-b106-8c57133c5065"},"vehicle_type_id":"4","last_reported":1742955518,"current_range_meters":9200,"station_id":"ce4bgj92rcd13ifvqbd0","pricing_plan_id":"cebpf4jnsgd1na2vs0mg"},{"bike_id":"8583bcae-e817-4db7-ab92-448c595780ea","system_id":"levelo_inurba_marseille","lat":43.33024,"lon":5.39011,"is_reserved":false,"is_disabled":false,"rental_uris":{"android":"levelo://app?vid=8583bcae-e817-4db7-ab92-448c595780ea","ios":"levelo://app?vid=8583bcae-e817-4db7-ab92-448c595780ea"},"vehicle_type_id":"4","last_reported":1742955518,"current_range_meters":9200,"station_id":"ce4bhr92rcd13ifvqhrg","pricing_plan_id":"cebpf4jnsgd1na2vs0mg"},{"bike_id":"875767d7-7800-4e29-98b6-5d7c31e1815f","system_id":"levelo_inurba_marseille","lat":43.28625,"lon":5.35096,"is_reserved":false,"is_disabled":false,"rental_uris":{"android":"levelo://app?vid=875767d7-7800-4e29-98b6-5d7c31e1815f","ios":"levelo://app?vid=875767d7-7800-4e29-98b6-5d7c31e1815f"},"vehicle_type_id":"4","last_reported":1742955518,"current_range_meters":9200,"station_id":"ce4bhch2rcd13ifvqeug","pricing_plan_id":"cebpf4jnsgd1na2vs0mg"},{"bike_id":"18f32065-ca22-49c9-9682-52b68d414437","system_id":"levelo_inurba_marseille","lat":43.3089,"lon":5.39622,"is_reserved":false,"is_disabled":false,"rental_uris":{"android":"levelo://app?vid=18f32065-ca22-49c9-9682-52b68d414437","ios":"levelo://app?vid=18f32065-ca22-49c9-9682-52b68d414437"},"vehicle_type_id":"4","last_reported":1742955518,"current_range_meters":9600,"station_id":"ce4bh012rcd13ifvqcv0","pricing_plan_id":"cebpf4jnsgd1na2vs0mg"},{"bike_id":"d5b2bd81-96d0-404f-bd2d-fb8136270d73","system_id":"levelo_inurba_marseille","lat":43.31236,"lon":5.36869,"is_reserved":false,"is_disabled":false,"rental_uris":{"android":"levelo://app?vid=d5b2bd81-96d0-404f-bd2d-fb8136270d73","ios":"levelo://app?vid=d5b2bd81-96d0-404f-bd2d-fb8136270d73"},"vehicle_type_id":"4","last_reported":1742955518,"current_range_meters":9600,"station_id":"ce4bgl92rcd13ifvqbq0","pricing_plan_id":"cebpf4jnsgd1na2vs0mg"},{"bike_id":"0c9cada4-2764-4013-a528-15089818cb84","system_id":"levelo_inurba_marseille","lat":43.2775,"lon":5.4114,"is_reserved":false,"is_disabled":false,"rental_uris":{"android":"levelo://app?vid=0c9cada4-2764-4013-a528-15089818cb84","ios":"levelo://app?vid=0c9cada4-2764-4013-a528-15089818cb84"},"vehicle_type_id":"4","last_reported":1742955518,"current_range_meters":9600,"station_id":"","pricing_plan_id":"cebpf4jnsgd1na2vs0mg"},{"bike_id":"059c9c4c-3e3b-49b7-a193-d6a49b2ab23f","system_id":"levelo_inurba_marseille","lat":43.270193,"lon":5.431409,"is_reserved":false,"is_disabled":false,"rental_uris":{"android":"levelo://app?vid=059c9c4c-3e3b-49b7-a193-d6a49b2ab23f","ios":"levelo://app?vid=059c9c4c-3e3b-49b7-a193-d6a49b2ab23f"},"vehicle_type_id":"4","last_reported":1742955518,"current_range_meters":9600,"station_id":"","pricing_plan_id":"cebpf4jnsgd1na2vs0mg"},{"bike_id":"38351309-2dec-417c-a558-74c8bc991036","system_id":"levelo_inurba_marseille","lat":43.30809,"lon":5.40634,"is_reserved":false,"is_disabled":true,"rental_uris":{"android":"levelo://app?vid=38351309-2dec-417c-a558-74c8bc991036","ios":"levelo://app?vid=38351309-2dec-417c-a558-74c8bc991036"},"vehicle_type_id":"4","last_reported":1742955518,"current_range_meters":9600,"station_id":"","pricing_plan_id":"cebpf4jnsgd1na2vs0mg"},{"bike_id":"8a513f8f-2e7b-4b6f-9267-befd78c55025","system_id":"levelo_inurba_marseille","lat":43.26807,"lon":5.40269,"is_reserved":false,"is_disabled":false,"rental_uris":{"android":"levelo://app?vid=8a513f8f-2e7b-4b6f-9267-befd78c55025","ios":"levelo://app?vid=8a513f8f-2e7b-4b6f-9267-befd78c55025"},"vehicle_type_id":"4","last_reported":1742955518,"current_range_meters":9600,"station_id":"ce501612rcd8frsf0b60","pricing_plan_id":"cebpf4jnsgd1na2vs0mg"},{"bike_id":"fc2cc0a3-bfc1-483d-ac7a-d91e15d05d6c","system_id":"levelo_inurba_marseille","lat":43.254459,"lon":5.412714,"is_reserved":false,"is_disabled":false,"rental_uris":{"android":"levelo://app?vid=fc2cc0a3-bfc1-483d-ac7a-d91e15d05d6c","ios":"levelo://app?vid=fc2cc0a3-bfc1-483d-ac7a-d91e15d05d6c"},"vehicle_type_id":"4","last_reported":1742955518,"current_range_meters":9600,"station_id":"","pricing_plan_id":"cebpf4jnsgd1na2vs0mg"},{"bike_id":"8e10d1b9-f227-4b61-a593-c5b8521e7750","system_id":"levelo_inurba_marseille","lat":43.287062,"lon":5.399792,"is_reserved":false,"is_disabled":false,"rental_uris":{"android":"levelo://app?vid=8e10d1b9-f227-4b61-a593-c5b8521e7750","ios":"levelo://app?vid=8e10d1b9-f227-4b61-a593-c5b8521e7750"},"vehicle_type_id":"4","last_reported":1742955518,"current_range_meters":9600,"station_id":"ce4bho92rcd13ifvqh3g","pricing_plan_id":"cebpf4jnsgd1na2vs0mg"},{"bike_id":"e7fb0541-4ec4-4639-9364-0dcd87fd24a7","system_id":"levelo_inurba_marseille","lat":43.28348,"lon":5.38104,"is_reserved":false,"is_disabled":false,"rental_uris":{"android":"levelo://app?vid=e7fb0541-4ec4-4639-9364-0dcd87fd24a7","ios":"levelo://app?vid=e7fb0541-4ec4-4639-9364-0dcd87fd24a7"},"vehicle_type_id":"4","last_reported":1742955518,"current_range_meters":9600,"station_id":"ce4bh412rcd13ifvqdr0","pricing_plan_id":"cebpf4jnsgd1na2vs0mg"},{"bike_id":"a86f77b5-4f60-4373-9e14-1c36c13ffed9","system_id":"levelo_inurba_marseille","lat":43.25863,"lon":5.39917,"is_reserved":false,"is_disabled":false,"rental_uris":{"android":"levelo://app?vid=a86f77b5-4f60-4373-9e14-1c36c13ffed9","ios":"levelo://app?vid=a86f77b5-4f60-4373-9e14-1c36c13ffed9"},"vehicle_type_id":"4","last_reported":1742955518,"current_range_meters":10000,"station_id":"ce4bhl92rcd13ifvqghg","pricing_plan_id":"cebpf4jnsgd1na2vs0mg"},{"bike_id":"bd518952-6d41-4e80-b474-f72c5dfa6ad8","system_id":"levelo_inurba_marseille","lat":43.26943,"lon":5.4027,"is_reserved":false,"is_disabled":false,"rental_uris":{"android":"levelo://app?vid=bd518952-6d41-4e80-b474-f72c5dfa6ad8","ios":"levelo://app?vid=bd518952-6d41-4e80-b474-f72c5dfa6ad8"},"vehicle_type_id":"4","last_reported":1742955518,"current_range_meters":10000,"station_id":"cjm6bp8fraef2m0cb0m0","pricing_plan_id":"cebpf4jnsgd1na2vs0mg"},{"bike_id":"e9cd2535-2fe5-47fb-832a-ec44b7461bac","system_id":"levelo_inurba_marseille","lat":43.31326,"lon":5.39684,"is_reserved":false,"is_disabled":false,"rental_uris":{"android":"levelo://app?vid=e9cd2535-2fe5-47fb-832a-ec44b7461bac","ios":"levelo://app?vid=e9cd2535-2fe5-47fb-832a-ec44b7461bac"},"vehicle_type_id":"4","last_reported":1742955518,"current_range_meters":10000,"station_id":"ce4bgvp2rcd13ifvqcu0","pricing_plan_id":"cebpf4jnsgd1na2vs0mg"},{"bike_id":"f204f5c3-279f-4a48-b597-ec996e78a497","system_id":"levelo_inurba_marseille","lat":43.30953,"lon":5.39043,"is_reserved":false,"is_disabled":false,"rental_uris":{"android":"levelo://app?vid=f204f5c3-279f-4a48-b597-ec996e78a497","ios":"levelo://app?vid=f204f5c3-279f-4a48-b597-ec996e78a497"},"vehicle_type_id":"4","last_reported":1742955518,"current_range_meters":10000,"station_id":"ce4bgup2rcd13ifvqco0","pricing_plan_id":"cebpf4jnsgd1na2vs0mg"},{"bike_id":"9f0995d2-191f-46af-9637-5898cf5c4319","system_id":"levelo_inurba_marseille","lat":43.32483,"lon":5.36543,"is_reserved":false,"is_disabled":false,"rental_uris":{"android":"levelo://app?vid=9f0995d2-191f-46af-9637-5898cf5c4319","ios":"levelo://app?vid=9f0995d2-191f-46af-9637-5898cf5c4319"},"vehicle_type_id":"4","last_reported":1742955518,"current_range_meters":10000,"station_id":"ce4bhs12rcd13ifvqhvg","pricing_plan_id":"cebpf4jnsgd1na2vs0mg"},{"bike_id":"a4014c6f-398b-43e5-8c6e-cc804506e935","system_id":"levelo_inurba_marseille","lat":43.28408,"lon":5.3751,"is_reserved":false,"is_disabled":false,"rental_uris":{"android":"levelo://app?vid=a4014c6f-398b-43e5-8c6e-cc804506e935","ios":"levelo://app?vid=a4014c6f-398b-43e5-8c6e-cc804506e935"},"vehicle_type_id":"4","last_reported":1742955518,"current_range_meters":10000,"station_id":"ce4bh412rcd13ifvqds0","pricing_plan_id":"cebpf4jnsgd1na2vs0mg"},{"bike_id":"6bd82c37-6406-4469-9def-05b97b777f5e","system_id":"levelo_inurba_marseille","lat":43.21867,"lon":5.42021,"is_reserved":false,"is_disabled":false,"rental_uris":{"android":"levelo://app?vid=6bd82c37-6406-4469-9def-05b97b777f5e","ios":"levelo://app?vid=6bd82c37-6406-4469-9def-05b97b777f5e"},"vehicle_type_id":"4","last_reported":1742955518,"current_range_meters":10000,"station_id":"","pricing_plan_id":"cebpf4jnsgd1na2vs0mg"},{"bike_id":"122cccd4-5fdc-42dd-85c3-c7bd8aefb118","system_id":"levelo_inurba_marseille","lat":43.26229,"lon":5.40462,"is_reserved":false,"is_disabled":false,"rental_uris":{"android":"levelo://app?vid=122cccd4-5fdc-42dd-85c3-c7bd8aefb118","ios":"levelo://app?vid=122cccd4-5fdc-42dd-85c3-c7bd8aefb118"},"vehicle_type_id":"4","last_reported":1742955518,"current_range_meters":10000,"station_id":"ce4bhmh2rcd13ifvqgmg","pricing_plan_id":"cebpf4jnsgd1na2vs0mg"},{"bike_id":"8a72fc95-c045-4a1c-85f4-fa2d3e5913af","system_id":"levelo_inurba_marseille","lat":43.285714,"lon":5.394894,"is_reserved":false,"is_disabled":false,"rental_uris":{"android":"levelo://app?vid=8a72fc95-c045-4a1c-85f4-fa2d3e5913af","ios":"levelo://app?vid=8a72fc95-c045-4a1c-85f4-fa2d3e5913af"},"vehicle_type_id":"4","last_reported":1742955518,"current_range_meters":10000,"station_id":"ce4bh292rcd13ifvqdg0","pricing_plan_id":"cebpf4jnsgd1na2vs0mg"},{"bike_id":"ab952469-2651-4342-98fd-8d0d40520a98","system_id":"levelo_inurba_marseille","lat":43.298787,"lon":5.397303,"is_reserved":false,"is_disabled":false,"rental_uris":{"android":"levelo://app?vid=ab952469-2651-4342-98fd-8d0d40520a98","ios":"levelo://app?vid=ab952469-2651-4342-98fd-8d0d40520a98"},"vehicle_type_id":"4","last_reported":1742955518,"current_range_meters":10800,"station_id":"ce4bh0h2rcd13ifvqd50","pricing_plan_id":"cebpf4jnsgd1na2vs0mg"},{"bike_id":"4612989a-eaa0-4a5d-aa10-3a4a27eba668","system_id":"levelo_inurba_marseille","lat":43.28853,"lon":5.3586,"is_reserved":false,"is_disabled":false,"rental_uris":{"android":"levelo://app?vid=4612989a-eaa0-4a5d-aa10-3a4a27eba668","ios":"levelo://app?vid=4612989a-eaa0-4a5d-aa10-3a4a27eba668"},"vehicle_type_id":"4","last_reported":1742955518,"current_range_meters":10800,"station_id":"ce4bhb12rcd13ifvqem0","pricing_plan_id":"cebpf4jnsgd1na2vs0mg"},{"bike_id":"87244469-0013-46ea-bd6f-eab8fa6a5af2","system_id":"levelo_inurba_marseille","lat":43.28943,"lon":5.36627,"is_reserved":false,"is_disabled":false,"rental_uris":{"android":"levelo://app?vid=87244469-0013-46ea-bd6f-eab8fa6a5af2","ios":"levelo://app?vid=87244469-0013-46ea-bd6f-eab8fa6a5af2"},"vehicle_type_id":"4","last_reported":1742955518,"current_range_meters":10800,"station_id":"ce4bhap2rcd13ifvqek0","pricing_plan_id":"cebpf4jnsgd1na2vs0mg"},{"bike_id":"10de7768-924a-4558-9779-5aa45bd3d6cb","system_id":"levelo_inurba_marseille","lat":43.31713,"lon":5.43701,"is_reserved":false,"is_disabled":false,"rental_uris":{"android":"levelo://app?vid=10de7768-924a-4558-9779-5aa45bd3d6cb","ios":"levelo://app?vid=10de7768-924a-4558-9779-5aa45bd3d6cb"},"vehicle_type_id":"4","last_reported":1742955518,"current_range_meters":10800,"station_id":"ce4bhp92rcd13ifvqhcg","pricing_plan_id":"cebpf4jnsgd1na2vs0mg"},{"bike_id":"68a58c58-1d21-4816-87f8-62f18507cf20","system_id":"levelo_inurba_marseille","lat":43.2466,"lon":5.38173,"is_reserved":false,"is_disabled":false,"rental_uris":{"android":"levelo://app?vid=68a58c58-1d21-4816-87f8-62f18507cf20","ios":"levelo://app?vid=68a58c58-1d21-4816-87f8-62f18507cf20"},"vehicle_type_id":"4","last_reported":1742955518,"current_range_meters":10800,"station_id":"ce4bhih2rcd13ifvqfr0","pricing_plan_id":"cebpf4jnsgd1na2vs0mg"},{"bike_id":"72ebcc1f-7481-4d77-8f35-ce937497917a","system_id":"levelo_inurba_marseille","lat":43.31515,"lon":5.37233,"is_reserved":false,"is_disabled":false,"rental_uris":{"android":"levelo://app?vid=72ebcc1f-7481-4d77-8f35-ce937497917a","ios":"levelo://app?vid=72ebcc1f-7481-4d77-8f35-ce937497917a"},"vehicle_type_id":"4","last_reported":1742955518,"current_range_meters":10800,"station_id":"ce4bgt12rcd13ifvqcd0","pricing_plan_id":"cebpf4jnsgd1na2vs0mg"},{"bike_id":"54eba66e-0dc9-4fab-a9e6-e33c09196d8d","system_id":"levelo_inurba_marseille","lat":43.28152,"lon":5.42655,"is_reserved":false,"is_disabled":false,"rental_uris":{"android":"levelo://app?vid=54eba66e-0dc9-4fab-a9e6-e33c09196d8d","ios":"levelo://app?vid=54eba66e-0dc9-4fab-a9e6-e33c09196d8d"},"vehicle_type_id":"4","last_reported":1742955518,"current_range_meters":10800,"station_id":"ce4bhnh2rcd13ifvqgug","pricing_plan_id":"cebpf4jnsgd1na2vs0mg"},{"bike_id":"fa14eb3a-1fdb-4bc8-8092-af468e8ded60","system_id":"levelo_inurba_marseille","lat":43.27996,"lon":5.4001,"is_reserved":false,"is_disabled":false,"rental_uris":{"android":"levelo://app?vid=fa14eb3a-1fdb-4bc8-8092-af468e8ded60","ios":"levelo://app?vid=fa14eb3a-1fdb-4bc8-8092-af468e8ded60"},"vehicle_type_id":"4","last_reported":1742955518,"current_range_meters":10800,"station_id":"ce4bho92rcd13ifvqh4g","pricing_plan_id":"cebpf4jnsgd1na2vs0mg"},{"bike_id":"19b89665-83f2-4ac2-84ba-195b9ac8bcd1","system_id":"levelo_inurba_marseille","lat":43.27932,"lon":5.39566,"is_reserved":false,"is_disabled":false,"rental_uris":{"android":"levelo://app?vid=19b89665-83f2-4ac2-84ba-195b9ac8bcd1","ios":"levelo://app?vid=19b89665-83f2-4ac2-84ba-195b9ac8bcd1"},"vehicle_type_id":"4","last_reported":1742955518,"current_range_meters":10800,"station_id":"ce4bhf92rcd13ifvqf40","pricing_plan_id":"cebpf4jnsgd1na2vs0mg"},{"bike_id":"f80ccf74-2490-448f-b459-aea47ad17fc5","system_id":"levelo_inurba_marseille","lat":43.28459,"lon":5.38463,"is_reserved":false,"is_disabled":false,"rental_uris":{"android":"levelo://app?vid=f80ccf74-2490-448f-b459-aea47ad17fc5","ios":"levelo://app?vid=f80ccf74-2490-448f-b459-aea47ad17fc5"},"vehicle_type_id":"4","last_reported":1742955518,"current_range_meters":10800,"station_id":"ce4bh512rcd13ifvqe3g","pricing_plan_id":"cebpf4jnsgd1na2vs0mg"},{"bike_id":"1d8a3249-9200-4972-bc96-75314e87b237","system_id":"levelo_inurba_marseille","lat":43.306153,"lon":5.367386,"is_reserved":false,"is_disabled":false,"rental_uris":{"android":"levelo://app?vid=1d8a3249-9200-4972-bc96-75314e87b237","ios":"levelo://app?vid=1d8a3249-9200-4972-bc96-75314e87b237"},"vehicle_type_id":"4","last_reported":1742955518,"current_range_meters":10800,"station_id":"","pricing_plan_id":"cebpf4jnsgd1na2vs0mg"},{"bike_id":"c4b88c2e-98e3-4499-8e1f-4f4d33a56e5a","system_id":"levelo_inurba_marseille","lat":43.28444,"lon":5.35013,"is_reserved":false,"is_disabled":true,"rental_uris":{"android":"levelo://app?vid=c4b88c2e-98e3-4499-8e1f-4f4d33a56e5a","ios":"levelo://app?vid=c4b88c2e-98e3-4499-8e1f-4f4d33a56e5a"},"vehicle_type_id":"4","last_reported":1742955518,"current_range_meters":10800,"station_id":"ce4bhbh2rcd13ifvqepg","pricing_plan_id":"cebpf4jnsgd1na2vs0mg"},{"bike_id":"e6b358bc-66d8-486b-9231-191979873c00","system_id":"levelo_inurba_marseille","lat":43.29592,"lon":5.36753,"is_reserved":false,"is_disabled":false,"rental_uris":{"android":"levelo://app?vid=e6b358bc-66d8-486b-9231-191979873c00","ios":"levelo://app?vid=e6b358bc-66d8-486b-9231-191979873c00"},"vehicle_type_id":"4","last_reported":1742955518,"current_range_meters":10800,"station_id":"ce4bgph2rcd13ifvqc2g","pricing_plan_id":"cebpf4jnsgd1na2vs0mg"},{"bike_id":"604af445-7bf1-4ce6-8319-430892f8a1ac","system_id":"levelo_inurba_marseille","lat":43.30328,"lon":5.40445,"is_reserved":false,"is_disabled":false,"rental_uris":{"android":"levelo://app?vid=604af445-7bf1-4ce6-8319-430892f8a1ac","ios":"levelo://app?vid=604af445-7bf1-4ce6-8319-430892f8a1ac"},"vehicle_type_id":"4","last_reported":1742955518,"current_range_meters":11200,"station_id":"ce4bh012rcd13ifvqd10","pricing_plan_id":"cebpf4jnsgd1na2vs0mg"},{"bike_id":"a131070a-e779-4800-86bd-eec8ea7cf525","system_id":"levelo_inurba_marseille","lat":43.281,"lon":5.37841,"is_reserved":false,"is_disabled":false,"rental_uris":{"android":"levelo://app?vid=a131070a-e779-4800-86bd-eec8ea7cf525","ios":"levelo://app?vid=a131070a-e779-4800-86bd-eec8ea7cf525"},"vehicle_type_id":"4","last_reported":1742955518,"current_range_meters":11200,"station_id":"ce4bha12rcd13ifvqee0","pricing_plan_id":"cebpf4jnsgd1na2vs0mg"},{"bike_id":"419e95d8-b511-4804-832e-48cb7b1519ff","system_id":"levelo_inurba_marseille","lat":43.27825,"lon":5.40715,"is_reserved":false,"is_disabled":false,"rental_uris":{"android":"levelo://app?vid=419e95d8-b511-4804-832e-48cb7b1519ff","ios":"levelo://app?vid=419e95d8-b511-4804-832e-48cb7b1519ff"},"vehicle_type_id":"4","last_reported":1742955518,"current_range_meters":11200,"station_id":"ce4bhnh2rcd13ifvqgtg","pricing_plan_id":"cebpf4jnsgd1na2vs0mg"},{"bike_id":"d90ec8d0-7a7b-476f-be89-13cef4eeaa2a","system_id":"levelo_inurba_marseille","lat":43.28457,"lon":5.35878,"is_reserved":false,"is_disabled":false,"rental_uris":{"android":"levelo://app?vid=d90ec8d0-7a7b-476f-be89-13cef4eeaa2a","ios":"levelo://app?vid=d90ec8d0-7a7b-476f-be89-13cef4eeaa2a"},"vehicle_type_id":"4","last_reported":1742955518,"current_range_meters":11200,"station_id":"ce4bhah2rcd13ifvqei0","pricing_plan_id":"cebpf4jnsgd1na2vs0mg"},{"bike_id":"da43d894-069e-486e-a738-14255c3635ad","system_id":"levelo_inurba_marseille","lat":43.26051,"lon":5.39358,"is_reserved":false,"is_disabled":false,"rental_uris":{"android":"levelo://app?vid=da43d894-069e-486e-a738-14255c3635ad","ios":"levelo://app?vid=da43d894-069e-486e-a738-14255c3635ad"},"vehicle_type_id":"4","last_reported":1742955518,"current_range_meters":11200,"station_id":"ce4bhh92rcd13ifvqfj0","pricing_plan_id":"cebpf4jnsgd1na2vs0mg"},{"bike_id":"7fdecdeb-36cb-4cf4-9c98-d803f5809435","system_id":"levelo_inurba_marseille","lat":43.26111,"lon":5.39806,"is_reserved":false,"is_disabled":false,"rental_uris":{"android":"levelo://app?vid=7fdecdeb-36cb-4cf4-9c98-d803f5809435","ios":"levelo://app?vid=7fdecdeb-36cb-4cf4-9c98-d803f5809435"},"vehicle_type_id":"4","last_reported":1742955518,"current_range_meters":11200,"station_id":"","pricing_plan_id":"cebpf4jnsgd1na2vs0mg"},{"bike_id":"1cbcda32-77d4-444a-a60a-b7e8ed92ba8a","system_id":"levelo_inurba_marseille","lat":43.306004,"lon":5.393486,"is_reserved":false,"is_disabled":false,"rental_uris":{"android":"levelo://app?vid=1cbcda32-77d4-444a-a60a-b7e8ed92ba8a","ios":"levelo://app?vid=1cbcda32-77d4-444a-a60a-b7e8ed92ba8a"},"vehicle_type_id":"4","last_reported":1742955518,"current_range_meters":11200,"station_id":"ce4bh0p2rcd13ifvqd80","pricing_plan_id":"cebpf4jnsgd1na2vs0mg"},{"bike_id":"cd1d962e-0e5b-4d8e-a25c-31e8b32abf79","system_id":"levelo_inurba_marseille","lat":43.27995,"lon":5.40011,"is_reserved":false,"is_disabled":false,"rental_uris":{"android":"levelo://app?vid=cd1d962e-0e5b-4d8e-a25c-31e8b32abf79","ios":"levelo://app?vid=cd1d962e-0e5b-4d8e-a25c-31e8b32abf79"},"vehicle_type_id":"4","last_reported":1742955518,"current_range_meters":11600,"station_id":"ce4bho92rcd13ifvqh4g","pricing_plan_id":"cebpf4jnsgd1na2vs0mg"},{"bike_id":"4ba6ebfa-6d64-4932-ae68-a1875df26d31","system_id":"levelo_inurba_marseille","lat":43.28453,"lon":5.35894,"is_reserved":false,"is_disabled":true,"rental_uris":{"android":"levelo://app?vid=4ba6ebfa-6d64-4932-ae68-a1875df26d31","ios":"levelo://app?vid=4ba6ebfa-6d64-4932-ae68-a1875df26d31"},"vehicle_type_id":"4","last_reported":1742955518,"current_range_meters":11600,"station_id":"ce4bhah2rcd13ifvqei0","pricing_plan_id":"cebpf4jnsgd1na2vs0mg"},{"bike_id":"8a9602e7-e6f2-4dac-845f-cea224e49dd5","system_id":"levelo_inurba_marseille","lat":43.23063,"lon":5.35494,"is_reserved":false,"is_disabled":false,"rental_uris":{"android":"levelo://app?vid=8a9602e7-e6f2-4dac-845f-cea224e49dd5","ios":"levelo://app?vid=8a9602e7-e6f2-4dac-845f-cea224e49dd5"},"vehicle_type_id":"4","last_reported":1742955518,"current_range_meters":11600,"station_id":"cpo3342slgdg3j2ifvpg","pricing_plan_id":"cebpf4jnsgd1na2vs0mg"},{"bike_id":"01cbffb0-3fb0-4769-96f8-4c2dd20b8277","system_id":"levelo_inurba_marseille","lat":43.28538,"lon":5.40572,"is_reserved":false,"is_disabled":true,"rental_uris":{"android":"levelo://app?vid=01cbffb0-3fb0-4769-96f8-4c2dd20b8277","ios":"levelo://app?vid=01cbffb0-3fb0-4769-96f8-4c2dd20b8277"},"vehicle_type_id":"4","last_reported":1742955518,"current_range_meters":11600,"station_id":"","pricing_plan_id":"cebpf4jnsgd1na2vs0mg"},{"bike_id":"34ff9dfa-f521-4b06-a88c-c4e4d9d74f39","system_id":"levelo_inurba_marseille","lat":43.27812,"lon":5.40702,"is_reserved":false,"is_disabled":true,"rental_uris":{"android":"levelo://app?vid=34ff9dfa-f521-4b06-a88c-c4e4d9d74f39","ios":"levelo://app?vid=34ff9dfa-f521-4b06-a88c-c4e4d9d74f39"},"vehicle_type_id":"4","last_reported":1742955518,"current_range_meters":11600,"station_id":"ce4bhnh2rcd13ifvqgtg","pricing_plan_id":"cebpf4jnsgd1na2vs0mg"},{"bike_id":"12ea318b-9840-4793-818f-0141dbdbdaa3","system_id":"levelo_inurba_marseille","lat":43.28405,"lon":5.37493,"is_reserved":false,"is_disabled":false,"rental_uris":{"android":"levelo://app?vid=12ea318b-9840-4793-818f-0141dbdbdaa3","ios":"levelo://app?vid=12ea318b-9840-4793-818f-0141dbdbdaa3"},"vehicle_type_id":"4","last_reported":1742955518,"current_range_meters":11600,"station_id":"ce4bh412rcd13ifvqds0","pricing_plan_id":"cebpf4jnsgd1na2vs0mg"},{"bike_id":"974f5876-effd-44d0-911c-76ea7a107a8c","system_id":"levelo_inurba_marseille","lat":43.33358,"lon":5.35959,"is_reserved":false,"is_disabled":false,"rental_uris":{"android":"levelo://app?vid=974f5876-effd-44d0-911c-76ea7a107a8c","ios":"levelo://app?vid=974f5876-effd-44d0-911c-76ea7a107a8c"},"vehicle_type_id":"4","last_reported":1742955518,"current_range_meters":11600,"station_id":"","pricing_plan_id":"cebpf4jnsgd1na2vs0mg"},{"bike_id":"ee28380f-2566-499f-8ab8-5a75cb1ed72f","system_id":"levelo_inurba_marseille","lat":43.288329,"lon":5.393258,"is_reserved":false,"is_disabled":false,"rental_uris":{"android":"levelo://app?vid=ee28380f-2566-499f-8ab8-5a75cb1ed72f","ios":"levelo://app?vid=ee28380f-2566-499f-8ab8-5a75cb1ed72f"},"vehicle_type_id":"4","last_reported":1742955518,"current_range_meters":11600,"station_id":"","pricing_plan_id":"cebpf4jnsgd1na2vs0mg"},{"bike_id":"7e8838b3-8333-4008-91b9-b17295f0391f","system_id":"levelo_inurba_marseille","lat":43.28937,"lon":5.36633,"is_reserved":false,"is_disabled":false,"rental_uris":{"android":"levelo://app?vid=7e8838b3-8333-4008-91b9-b17295f0391f","ios":"levelo://app?vid=7e8838b3-8333-4008-91b9-b17295f0391f"},"vehicle_type_id":"4","last_reported":1742955518,"current_range_meters":11600,"station_id":"ce4bhap2rcd13ifvqek0","pricing_plan_id":"cebpf4jnsgd1na2vs0mg"},{"bike_id":"2f92400d-a27b-4dc5-9d21-bc1f27b9dda9","system_id":"levelo_inurba_marseille","lat":43.28102,"lon":5.37833,"is_reserved":false,"is_disabled":false,"rental_uris":{"android":"levelo://app?vid=2f92400d-a27b-4dc5-9d21-bc1f27b9dda9","ios":"levelo://app?vid=2f92400d-a27b-4dc5-9d21-bc1f27b9dda9"},"vehicle_type_id":"4","last_reported":1742955518,"current_range_meters":12000,"station_id":"ce4bha12rcd13ifvqee0","pricing_plan_id":"cebpf4jnsgd1na2vs0mg"},{"bike_id":"84a7a785-5392-42bc-8088-fb903bcc7f5c","system_id":"levelo_inurba_marseille","lat":43.23086,"lon":5.35455,"is_reserved":false,"is_disabled":false,"rental_uris":{"android":"levelo://app?vid=84a7a785-5392-42bc-8088-fb903bcc7f5c","ios":"levelo://app?vid=84a7a785-5392-42bc-8088-fb903bcc7f5c"},"vehicle_type_id":"4","last_reported":1742955518,"current_range_meters":12000,"station_id":"cpo3342slgdg3j2ifvpg","pricing_plan_id":"cebpf4jnsgd1na2vs0mg"},{"bike_id":"0eedf9a7-c32c-4bae-a37f-32439201ac09","system_id":"levelo_inurba_marseille","lat":43.28859,"lon":5.39311,"is_reserved":false,"is_disabled":true,"rental_uris":{"android":"levelo://app?vid=0eedf9a7-c32c-4bae-a37f-32439201ac09","ios":"levelo://app?vid=0eedf9a7-c32c-4bae-a37f-32439201ac09"},"vehicle_type_id":"4","last_reported":1742955518,"current_range_meters":12000,"station_id":"ce4bh2p2rcd13ifvqdi0","pricing_plan_id":"cebpf4jnsgd1na2vs0mg"},{"bike_id":"82219511-549c-4b63-baf5-ff8405cca9d7","system_id":"levelo_inurba_marseille","lat":43.31726,"lon":5.43709,"is_reserved":false,"is_disabled":false,"rental_uris":{"android":"levelo://app?vid=82219511-549c-4b63-baf5-ff8405cca9d7","ios":"levelo://app?vid=82219511-549c-4b63-baf5-ff8405cca9d7"},"vehicle_type_id":"4","last_reported":1742955518,"current_range_meters":12000,"station_id":"ce4bhp92rcd13ifvqhcg","pricing_plan_id":"cebpf4jnsgd1na2vs0mg"},{"bike_id":"43049ba0-2a10-433f-a164-cbeef647d869","system_id":"levelo_inurba_marseille","lat":43.311268,"lon":5.377588,"is_reserved":false,"is_disabled":false,"rental_uris":{"android":"levelo://app?vid=43049ba0-2a10-433f-a164-cbeef647d869","ios":"levelo://app?vid=43049ba0-2a10-433f-a164-cbeef647d869"},"vehicle_type_id":"4","last_reported":1742955518,"current_range_meters":12000,"station_id":"ce4bgt92rcd13ifvqcg0","pricing_plan_id":"cebpf4jnsgd1na2vs0mg"},{"bike_id":"d909a2c1-3195-47e7-b4ff-fd327ddd4f3c","system_id":"levelo_inurba_marseille","lat":43.311238,"lon":5.377725,"is_reserved":false,"is_disabled":false,"rental_uris":{"android":"levelo://app?vid=d909a2c1-3195-47e7-b4ff-fd327ddd4f3c","ios":"levelo://app?vid=d909a2c1-3195-47e7-b4ff-fd327ddd4f3c"},"vehicle_type_id":"4","last_reported":1742955518,"current_range_meters":12000,"station_id":"ce4bgt92rcd13ifvqcg0","pricing_plan_id":"cebpf4jnsgd1na2vs0mg"},{"bike_id":"6f6e0ffd-e4c9-42b1-bc45-e9ebc551d612","system_id":"levelo_inurba_marseille","lat":43.33027,"lon":5.39028,"is_reserved":false,"is_disabled":false,"rental_uris":{"android":"levelo://app?vid=6f6e0ffd-e4c9-42b1-bc45-e9ebc551d612","ios":"levelo://app?vid=6f6e0ffd-e4c9-42b1-bc45-e9ebc551d612"},"vehicle_type_id":"4","last_reported":1742955518,"current_range_meters":12000,"station_id":"ce4bhr92rcd13ifvqhrg","pricing_plan_id":"cebpf4jnsgd1na2vs0mg"},{"bike_id":"9dd54c96-22e0-4bf8-879b-041c7cf732b0","system_id":"levelo_inurba_marseille","lat":43.289371,"lon":5.366306,"is_reserved":false,"is_disabled":false,"rental_uris":{"android":"levelo://app?vid=9dd54c96-22e0-4bf8-879b-041c7cf732b0","ios":"levelo://app?vid=9dd54c96-22e0-4bf8-879b-041c7cf732b0"},"vehicle_type_id":"4","last_reported":1742955518,"current_range_meters":12400,"station_id":"ce4bhap2rcd13ifvqek0","pricing_plan_id":"cebpf4jnsgd1na2vs0mg"},{"bike_id":"75d89ffb-0e98-4900-bbef-b5d8ed9bccc0","system_id":"levelo_inurba_marseille","lat":43.30876,"lon":5.39668,"is_reserved":false,"is_disabled":false,"rental_uris":{"android":"levelo://app?vid=75d89ffb-0e98-4900-bbef-b5d8ed9bccc0","ios":"levelo://app?vid=75d89ffb-0e98-4900-bbef-b5d8ed9bccc0"},"vehicle_type_id":"4","last_reported":1742955518,"current_range_meters":12400,"station_id":"ce4bh012rcd13ifvqcv0","pricing_plan_id":"cebpf4jnsgd1na2vs0mg"},{"bike_id":"8e1b69fe-38a9-404e-9145-427fd10d244c","system_id":"levelo_inurba_marseille","lat":43.28428,"lon":5.34985,"is_reserved":false,"is_disabled":true,"rental_uris":{"android":"levelo://app?vid=8e1b69fe-38a9-404e-9145-427fd10d244c","ios":"levelo://app?vid=8e1b69fe-38a9-404e-9145-427fd10d244c"},"vehicle_type_id":"4","last_reported":1742955518,"current_range_meters":12400,"station_id":"ce4bhbh2rcd13ifvqepg","pricing_plan_id":"cebpf4jnsgd1na2vs0mg"},{"bike_id":"8a3d879d-511e-4acb-8c51-331acb4ad7fa","system_id":"levelo_inurba_marseille","lat":43.28431,"lon":5.35001,"is_reserved":false,"is_disabled":true,"rental_uris":{"android":"levelo://app?vid=8a3d879d-511e-4acb-8c51-331acb4ad7fa","ios":"levelo://app?vid=8a3d879d-511e-4acb-8c51-331acb4ad7fa"},"vehicle_type_id":"4","last_reported":1742955518,"current_range_meters":12400,"station_id":"ce4bhbh2rcd13ifvqepg","pricing_plan_id":"cebpf4jnsgd1na2vs0mg"},{"bike_id":"d45a2f6c-957b-46cd-bd89-ee8e58d1536e","system_id":"levelo_inurba_marseille","lat":43.27721,"lon":5.40793,"is_reserved":false,"is_disabled":false,"rental_uris":{"android":"levelo://app?vid=d45a2f6c-957b-46cd-bd89-ee8e58d1536e","ios":"levelo://app?vid=d45a2f6c-957b-46cd-bd89-ee8e58d1536e"},"vehicle_type_id":"4","last_reported":1742955518,"current_range_meters":12400,"station_id":"","pricing_plan_id":"cebpf4jnsgd1na2vs0mg"},{"bike_id":"897542b0-d8e4-4ad7-afae-0bb6d0ca7b95","system_id":"levelo_inurba_marseille","lat":43.2841,"lon":5.37506,"is_reserved":false,"is_disabled":false,"rental_uris":{"android":"levelo://app?vid=897542b0-d8e4-4ad7-afae-0bb6d0ca7b95","ios":"levelo://app?vid=897542b0-d8e4-4ad7-afae-0bb6d0ca7b95"},"vehicle_type_id":"4","last_reported":1742955518,"current_range_meters":12400,"station_id":"ce4bh412rcd13ifvqds0","pricing_plan_id":"cebpf4jnsgd1na2vs0mg"},{"bike_id":"b83672f3-0293-447f-ab0b-c02d3ba7f660","system_id":"levelo_inurba_marseille","lat":43.27065,"lon":5.42275,"is_reserved":false,"is_disabled":false,"rental_uris":{"android":"levelo://app?vid=b83672f3-0293-447f-ab0b-c02d3ba7f660","ios":"levelo://app?vid=b83672f3-0293-447f-ab0b-c02d3ba7f660"},"vehicle_type_id":"4","last_reported":1742955518,"current_range_meters":12400,"station_id":"ce4bhk92rcd13ifvqgb0","pricing_plan_id":"cebpf4jnsgd1na2vs0mg"},{"bike_id":"9c7b67ef-a80b-4d76-beff-aa96c2a3469a","system_id":"levelo_inurba_marseille","lat":43.27998,"lon":5.40007,"is_reserved":false,"is_disabled":false,"rental_uris":{"android":"levelo://app?vid=9c7b67ef-a80b-4d76-beff-aa96c2a3469a","ios":"levelo://app?vid=9c7b67ef-a80b-4d76-beff-aa96c2a3469a"},"vehicle_type_id":"4","last_reported":1742955518,"current_range_meters":12400,"station_id":"ce4bho92rcd13ifvqh4g","pricing_plan_id":"cebpf4jnsgd1na2vs0mg"},{"bike_id":"b95d738f-dc66-4de5-b75a-d5a880a7b270","system_id":"levelo_inurba_marseille","lat":43.28462,"lon":5.35861,"is_reserved":false,"is_disabled":false,"rental_uris":{"android":"levelo://app?vid=b95d738f-dc66-4de5-b75a-d5a880a7b270","ios":"levelo://app?vid=b95d738f-dc66-4de5-b75a-d5a880a7b270"},"vehicle_type_id":"4","last_reported":1742955518,"current_range_meters":12400,"station_id":"ce4bhah2rcd13ifvqei0","pricing_plan_id":"cebpf4jnsgd1na2vs0mg"},{"bike_id":"52793577-8d59-4388-bc9a-d81f8bc1b0fa","system_id":"levelo_inurba_marseille","lat":43.324804,"lon":5.365699,"is_reserved":false,"is_disabled":true,"rental_uris":{"android":"levelo://app?vid=52793577-8d59-4388-bc9a-d81f8bc1b0fa","ios":"levelo://app?vid=52793577-8d59-4388-bc9a-d81f8bc1b0fa"},"vehicle_type_id":"4","last_reported":1742955518,"current_range_meters":12400,"station_id":"ce4bhs12rcd13ifvqhvg","pricing_plan_id":"cebpf4jnsgd1na2vs0mg"},{"bike_id":"76fc525d-dd7d-4d56-bd19-f21e304e27e9","system_id":"levelo_inurba_marseille","lat":43.31486,"lon":5.37292,"is_reserved":false,"is_disabled":false,"rental_uris":{"android":"levelo://app?vid=76fc525d-dd7d-4d56-bd19-f21e304e27e9","ios":"levelo://app?vid=76fc525d-dd7d-4d56-bd19-f21e304e27e9"},"vehicle_type_id":"4","last_reported":1742955518,"current_range_meters":12800,"station_id":"ce4bgt12rcd13ifvqcd0","pricing_plan_id":"cebpf4jnsgd1na2vs0mg"},{"bike_id":"87807891-619d-45ef-9bc3-f89425f9a8a8","system_id":"levelo_inurba_marseille","lat":43.27987,"lon":5.41664,"is_reserved":false,"is_disabled":true,"rental_uris":{"android":"levelo://app?vid=87807891-619d-45ef-9bc3-f89425f9a8a8","ios":"levelo://app?vid=87807891-619d-45ef-9bc3-f89425f9a8a8"},"vehicle_type_id":"4","last_reported":1742955518,"current_range_meters":12800,"station_id":"ce4bho12rcd13ifvqh1g","pricing_plan_id":"cebpf4jnsgd1na2vs0mg"},{"bike_id":"8d038dff-5c15-4ffe-9d42-d4319d53d506","system_id":"levelo_inurba_marseille","lat":43.307934,"lon":5.381552,"is_reserved":false,"is_disabled":false,"rental_uris":{"android":"levelo://app?vid=8d038dff-5c15-4ffe-9d42-d4319d53d506","ios":"levelo://app?vid=8d038dff-5c15-4ffe-9d42-d4319d53d506"},"vehicle_type_id":"4","last_reported":1742955518,"current_range_meters":12800,"station_id":"ce4bgt12rcd13ifvqce0","pricing_plan_id":"cebpf4jnsgd1na2vs0mg"},{"bike_id":"2349ea78-e5ff-44c1-8a9d-5755df83b4b0","system_id":"levelo_inurba_marseille","lat":43.28122,"lon":5.42687,"is_reserved":false,"is_disabled":false,"rental_uris":{"android":"levelo://app?vid=2349ea78-e5ff-44c1-8a9d-5755df83b4b0","ios":"levelo://app?vid=2349ea78-e5ff-44c1-8a9d-5755df83b4b0"},"vehicle_type_id":"4","last_reported":1742955518,"current_range_meters":12800,"station_id":"","pricing_plan_id":"cebpf4jnsgd1na2vs0mg"},{"bike_id":"9c23b3c2-c990-4dbf-aa18-6e694601de23","system_id":"levelo_inurba_marseille","lat":43.30414,"lon":5.41284,"is_reserved":false,"is_disabled":true,"rental_uris":{"android":"levelo://app?vid=9c23b3c2-c990-4dbf-aa18-6e694601de23","ios":"levelo://app?vid=9c23b3c2-c990-4dbf-aa18-6e694601de23"},"vehicle_type_id":"4","last_reported":1742955518,"current_range_meters":13600,"station_id":"ce4bhop2rcd13ifvqh8g","pricing_plan_id":"cebpf4jnsgd1na2vs0mg"},{"bike_id":"d1f0bfd4-c951-4e4e-b8ea-91fef0511b94","system_id":"levelo_inurba_marseille","lat":43.323622,"lon":5.367699,"is_reserved":false,"is_disabled":false,"rental_uris":{"android":"levelo://app?vid=d1f0bfd4-c951-4e4e-b8ea-91fef0511b94","ios":"levelo://app?vid=d1f0bfd4-c951-4e4e-b8ea-91fef0511b94"},"vehicle_type_id":"4","last_reported":1742955518,"current_range_meters":13600,"station_id":"ce4bhsh2rcd13ifvqi2g","pricing_plan_id":"cebpf4jnsgd1na2vs0mg"},{"bike_id":"39e9b917-e855-49c3-bd0d-557181ac56fc","system_id":"levelo_inurba_marseille","lat":43.29259,"lon":5.40913,"is_reserved":false,"is_disabled":false,"rental_uris":{"android":"levelo://app?vid=39e9b917-e855-49c3-bd0d-557181ac56fc","ios":"levelo://app?vid=39e9b917-e855-49c3-bd0d-557181ac56fc"},"vehicle_type_id":"4","last_reported":1742955518,"current_range_meters":13600,"station_id":"ce4bh192rcd13ifvqdc0","pricing_plan_id":"cebpf4jnsgd1na2vs0mg"},{"bike_id":"ecbac42f-2a55-4e43-9449-9a512a44ac31","system_id":"levelo_inurba_marseille","lat":43.2847,"lon":5.35868,"is_reserved":false,"is_disabled":false,"rental_uris":{"android":"levelo://app?vid=ecbac42f-2a55-4e43-9449-9a512a44ac31","ios":"levelo://app?vid=ecbac42f-2a55-4e43-9449-9a512a44ac31"},"vehicle_type_id":"4","last_reported":1742955518,"current_range_meters":13600,"station_id":"ce4bhah2rcd13ifvqei0","pricing_plan_id":"cebpf4jnsgd1na2vs0mg"},{"bike_id":"ed34c53e-e794-4aee-a80a-fe705ed87913","system_id":"levelo_inurba_marseille","lat":43.307754,"lon":5.376525,"is_reserved":false,"is_disabled":false,"rental_uris":{"android":"levelo://app?vid=ed34c53e-e794-4aee-a80a-fe705ed87913","ios":"levelo://app?vid=ed34c53e-e794-4aee-a80a-fe705ed87913"},"vehicle_type_id":"4","last_reported":1742955518,"current_range_meters":13600,"station_id":"ce4bgv92rcd13ifvqcq0","pricing_plan_id":"cebpf4jnsgd1na2vs0mg"},{"bike_id":"cc3ff892-84c9-42d5-a2c0-3c18d1b2da7b","system_id":"levelo_inurba_marseille","lat":43.31321,"lon":5.39691,"is_reserved":false,"is_disabled":false,"rental_uris":{"android":"levelo://app?vid=cc3ff892-84c9-42d5-a2c0-3c18d1b2da7b","ios":"levelo://app?vid=cc3ff892-84c9-42d5-a2c0-3c18d1b2da7b"},"vehicle_type_id":"4","last_reported":1742955518,"current_range_meters":13600,"station_id":"ce4bgvp2rcd13ifvqcu0","pricing_plan_id":"cebpf4jnsgd1na2vs0mg"},{"bike_id":"4cdd5237-30fd-4b8c-86e9-ebadec42d07b","system_id":"levelo_inurba_marseille","lat":43.30936,"lon":5.4014,"is_reserved":false,"is_disabled":false,"rental_uris":{"android":"levelo://app?vid=4cdd5237-30fd-4b8c-86e9-ebadec42d07b","ios":"levelo://app?vid=4cdd5237-30fd-4b8c-86e9-ebadec42d07b"},"vehicle_type_id":"4","last_reported":1742955518,"current_range_meters":14000,"station_id":"ce4bgvp2rcd13ifvqct0","pricing_plan_id":"cebpf4jnsgd1na2vs0mg"},{"bike_id":"1dba6abe-c53a-49f9-b856-7067ac5ce46a","system_id":"levelo_inurba_marseille","lat":43.268064,"lon":5.402677,"is_reserved":false,"is_disabled":false,"rental_uris":{"android":"levelo://app?vid=1dba6abe-c53a-49f9-b856-7067ac5ce46a","ios":"levelo://app?vid=1dba6abe-c53a-49f9-b856-7067ac5ce46a"},"vehicle_type_id":"4","last_reported":1742955518,"current_range_meters":14000,"station_id":"ce501612rcd8frsf0b60","pricing_plan_id":"cebpf4jnsgd1na2vs0mg"},{"bike_id":"659be5e0-eeef-44bd-8ac1-256d4a3cadd4","system_id":"levelo_inurba_marseille","lat":43.24809,"lon":5.37453,"is_reserved":false,"is_disabled":false,"rental_uris":{"android":"levelo://app?vid=659be5e0-eeef-44bd-8ac1-256d4a3cadd4","ios":"levelo://app?vid=659be5e0-eeef-44bd-8ac1-256d4a3cadd4"},"vehicle_type_id":"4","last_reported":1742955518,"current_range_meters":14000,"station_id":"ce4bhgh2rcd13ifvqfb0","pricing_plan_id":"cebpf4jnsgd1na2vs0mg"},{"bike_id":"0d43dce8-283a-4441-a9c5-98b093f164f8","system_id":"levelo_inurba_marseille","lat":43.31282,"lon":5.40166,"is_reserved":false,"is_disabled":false,"rental_uris":{"android":"levelo://app?vid=0d43dce8-283a-4441-a9c5-98b093f164f8","ios":"levelo://app?vid=0d43dce8-283a-4441-a9c5-98b093f164f8"},"vehicle_type_id":"4","last_reported":1742955518,"current_range_meters":14000,"station_id":"ce4bh092rcd13ifvqd30","pricing_plan_id":"cebpf4jnsgd1na2vs0mg"},{"bike_id":"8ee06270-6e68-4f36-943c-c6853abcfcb7","system_id":"levelo_inurba_marseille","lat":43.30957,"lon":5.39045,"is_reserved":false,"is_disabled":false,"rental_uris":{"android":"levelo://app?vid=8ee06270-6e68-4f36-943c-c6853abcfcb7","ios":"levelo://app?vid=8ee06270-6e68-4f36-943c-c6853abcfcb7"},"vehicle_type_id":"4","last_reported":1742955518,"current_range_meters":14000,"station_id":"ce4bgup2rcd13ifvqco0","pricing_plan_id":"cebpf4jnsgd1na2vs0mg"},{"bike_id":"c2558eac-9c83-4e5b-ae66-7f9519e3d933","system_id":"levelo_inurba_marseille","lat":43.289795,"lon":5.378453,"is_reserved":false,"is_disabled":true,"rental_uris":{"android":"levelo://app?vid=c2558eac-9c83-4e5b-ae66-7f9519e3d933","ios":"levelo://app?vid=c2558eac-9c83-4e5b-ae66-7f9519e3d933"},"vehicle_type_id":"4","last_reported":1742955518,"current_range_meters":14000,"station_id":"ce4bh9p2rcd13ifvqed0","pricing_plan_id":"cebpf4jnsgd1na2vs0mg"},{"bike_id":"87a2909d-dcfc-44b5-b6b2-89d0e8f433e1","system_id":"levelo_inurba_marseille","lat":43.29585,"lon":5.39982,"is_reserved":false,"is_disabled":false,"rental_uris":{"android":"levelo://app?vid=87a2909d-dcfc-44b5-b6b2-89d0e8f433e1","ios":"levelo://app?vid=87a2909d-dcfc-44b5-b6b2-89d0e8f433e1"},"vehicle_type_id":"4","last_reported":1742955518,"current_range_meters":13600,"station_id":"ce4bh312rcd13ifvqdj0","pricing_plan_id":"cebpf4jnsgd1na2vs0mg"},{"bike_id":"7f8e7519-c97f-40ce-98de-9fab49abe228","system_id":"levelo_inurba_marseille","lat":43.3088,"lon":5.37195,"is_reserved":false,"is_disabled":false,"rental_uris":{"android":"levelo://app?vid=7f8e7519-c97f-40ce-98de-9fab49abe228","ios":"levelo://app?vid=7f8e7519-c97f-40ce-98de-9fab49abe228"},"vehicle_type_id":"4","last_reported":1742955518,"current_range_meters":14000,"station_id":"ce4bguh2rcd13ifvqckg","pricing_plan_id":"cebpf4jnsgd1na2vs0mg"},{"bike_id":"2a79bb94-1125-49ce-bc53-31261919b5a6","system_id":"levelo_inurba_marseille","lat":43.30649,"lon":5.40062,"is_reserved":false,"is_disabled":false,"rental_uris":{"android":"levelo://app?vid=2a79bb94-1125-49ce-bc53-31261919b5a6","ios":"levelo://app?vid=2a79bb94-1125-49ce-bc53-31261919b5a6"},"vehicle_type_id":"4","last_reported":1742955518,"current_range_meters":14000,"station_id":"ce4bh112rcd13ifvqda0","pricing_plan_id":"cebpf4jnsgd1na2vs0mg"},{"bike_id":"63f6b197-29cc-4f34-a2f7-4e5dd03e6d97","system_id":"levelo_inurba_marseille","lat":43.28619,"lon":5.35094,"is_reserved":false,"is_disabled":false,"rental_uris":{"android":"levelo://app?vid=63f6b197-29cc-4f34-a2f7-4e5dd03e6d97","ios":"levelo://app?vid=63f6b197-29cc-4f34-a2f7-4e5dd03e6d97"},"vehicle_type_id":"4","last_reported":1742955518,"current_range_meters":14400,"station_id":"ce4bhch2rcd13ifvqeug","pricing_plan_id":"cebpf4jnsgd1na2vs0mg"},{"bike_id":"484928c8-8c60-48c3-a758-e3e274268153","system_id":"levelo_inurba_marseille","lat":43.241727,"lon":5.363918,"is_reserved":false,"is_disabled":false,"rental_uris":{"android":"levelo://app?vid=484928c8-8c60-48c3-a758-e3e274268153","ios":"levelo://app?vid=484928c8-8c60-48c3-a758-e3e274268153"},"vehicle_type_id":"4","last_reported":1742955518,"current_range_meters":14400,"station_id":"cpo36qri1sfpv3e86is0","pricing_plan_id":"cebpf4jnsgd1na2vs0mg"},{"bike_id":"7e7a371c-b9b4-41ba-9c03-4ba1bef7f880","system_id":"levelo_inurba_marseille","lat":43.23161,"lon":5.43724,"is_reserved":false,"is_disabled":false,"rental_uris":{"android":"levelo://app?vid=7e7a371c-b9b4-41ba-9c03-4ba1bef7f880","ios":"levelo://app?vid=7e7a371c-b9b4-41ba-9c03-4ba1bef7f880"},"vehicle_type_id":"4","last_reported":1742955518,"current_range_meters":14400,"station_id":"ce4bhmp2rcd13ifvqgog","pricing_plan_id":"cebpf4jnsgd1na2vs0mg"},{"bike_id":"316f4072-82c4-40ef-8d82-6240f4641413","system_id":"levelo_inurba_marseille","lat":43.279047,"lon":5.380013,"is_reserved":false,"is_disabled":false,"rental_uris":{"android":"levelo://app?vid=316f4072-82c4-40ef-8d82-6240f4641413","ios":"levelo://app?vid=316f4072-82c4-40ef-8d82-6240f4641413"},"vehicle_type_id":"4","last_reported":1742955518,"current_range_meters":14400,"station_id":"ce4bhf92rcd13ifvqf50","pricing_plan_id":"cebpf4jnsgd1na2vs0mg"},{"bike_id":"ad63199a-a686-4e70-a63e-7bd998b7413d","system_id":"levelo_inurba_marseille","lat":43.299867,"lon":5.384831,"is_reserved":false,"is_disabled":true,"rental_uris":{"android":"levelo://app?vid=ad63199a-a686-4e70-a63e-7bd998b7413d","ios":"levelo://app?vid=ad63199a-a686-4e70-a63e-7bd998b7413d"},"vehicle_type_id":"4","last_reported":1742955518,"current_range_meters":14800,"station_id":"ce4bgj92rcd13ifvqbd0","pricing_plan_id":"cebpf4jnsgd1na2vs0mg"},{"bike_id":"76d1a944-c146-426d-852e-418bbed1e513","system_id":"levelo_inurba_marseille","lat":43.2942,"lon":5.39749,"is_reserved":false,"is_disabled":false,"rental_uris":{"android":"levelo://app?vid=76d1a944-c146-426d-852e-418bbed1e513","ios":"levelo://app?vid=76d1a944-c146-426d-852e-418bbed1e513"},"vehicle_type_id":"4","last_reported":1742955518,"current_range_meters":14800,"station_id":"ce4bh3h2rcd13ifvqdo0","pricing_plan_id":"cebpf4jnsgd1na2vs0mg"},{"bike_id":"b6007c91-4e8a-420a-a5d7-87fe25bf4dc6","system_id":"levelo_inurba_marseille","lat":43.278282,"lon":5.392103,"is_reserved":false,"is_disabled":false,"rental_uris":{"android":"levelo://app?vid=b6007c91-4e8a-420a-a5d7-87fe25bf4dc6","ios":"levelo://app?vid=b6007c91-4e8a-420a-a5d7-87fe25bf4dc6"},"vehicle_type_id":"4","last_reported":1742955518,"current_range_meters":14800,"station_id":"ce4bhjp2rcd13ifvqga0","pricing_plan_id":"cebpf4jnsgd1na2vs0mg"},{"bike_id":"60d9318d-39f6-46de-9e65-17d6f0c4a86d","system_id":"levelo_inurba_marseille","lat":43.30322,"lon":5.4044,"is_reserved":false,"is_disabled":false,"rental_uris":{"android":"levelo://app?vid=60d9318d-39f6-46de-9e65-17d6f0c4a86d","ios":"levelo://app?vid=60d9318d-39f6-46de-9e65-17d6f0c4a86d"},"vehicle_type_id":"4","last_reported":1742955518,"current_range_meters":14800,"station_id":"ce4bh012rcd13ifvqd10","pricing_plan_id":"cebpf4jnsgd1na2vs0mg"},{"bike_id":"2623a753-dcde-4ffa-9bf1-3275e6037e7a","system_id":"levelo_inurba_marseille","lat":43.324842,"lon":5.365613,"is_reserved":false,"is_disabled":false,"rental_uris":{"android":"levelo://app?vid=2623a753-dcde-4ffa-9bf1-3275e6037e7a","ios":"levelo://app?vid=2623a753-dcde-4ffa-9bf1-3275e6037e7a"},"vehicle_type_id":"4","last_reported":1742955518,"current_range_meters":14800,"station_id":"ce4bhs12rcd13ifvqhvg","pricing_plan_id":"cebpf4jnsgd1na2vs0mg"},{"bike_id":"16f77351-adb0-493a-8003-75961abebd9d","system_id":"levelo_inurba_marseille","lat":43.26062,"lon":5.39388,"is_reserved":false,"is_disabled":false,"rental_uris":{"android":"levelo://app?vid=16f77351-adb0-493a-8003-75961abebd9d","ios":"levelo://app?vid=16f77351-adb0-493a-8003-75961abebd9d"},"vehicle_type_id":"4","last_reported":1742955518,"current_range_meters":14800,"station_id":"ce4bhh92rcd13ifvqfj0","pricing_plan_id":"cebpf4jnsgd1na2vs0mg"},{"bike_id":"10428461-8678-4bdb-a86a-6057b32464d0","system_id":"levelo_inurba_marseille","lat":43.31278,"lon":5.40146,"is_reserved":false,"is_disabled":false,"rental_uris":{"android":"levelo://app?vid=10428461-8678-4bdb-a86a-6057b32464d0","ios":"levelo://app?vid=10428461-8678-4bdb-a86a-6057b32464d0"},"vehicle_type_id":"4","last_reported":1742955518,"current_range_meters":14800,"station_id":"ce4bh092rcd13ifvqd30","pricing_plan_id":"cebpf4jnsgd1na2vs0mg"},{"bike_id":"ccdfac36-22da-4f2d-bd50-7bf147cc0fff","system_id":"levelo_inurba_marseille","lat":43.298984,"lon":5.436676,"is_reserved":false,"is_disabled":false,"rental_uris":{"android":"levelo://app?vid=ccdfac36-22da-4f2d-bd50-7bf147cc0fff","ios":"levelo://app?vid=ccdfac36-22da-4f2d-bd50-7bf147cc0fff"},"vehicle_type_id":"4","last_reported":1742955518,"current_range_meters":15200,"station_id":"ce4bhpp2rcd13ifvqhfg","pricing_plan_id":"cebpf4jnsgd1na2vs0mg"},{"bike_id":"2be79e3d-bb33-4848-acf4-93c714f254a7","system_id":"levelo_inurba_marseille","lat":43.28557,"lon":5.39471,"is_reserved":false,"is_disabled":false,"rental_uris":{"android":"levelo://app?vid=2be79e3d-bb33-4848-acf4-93c714f254a7","ios":"levelo://app?vid=2be79e3d-bb33-4848-acf4-93c714f254a7"},"vehicle_type_id":"4","last_reported":1742955518,"current_range_meters":15200,"station_id":"ce4bh292rcd13ifvqdg0","pricing_plan_id":"cebpf4jnsgd1na2vs0mg"},{"bike_id":"db7506bf-f731-4900-8df2-a57b85c6a313","system_id":"levelo_inurba_marseille","lat":43.30802,"lon":5.381468,"is_reserved":false,"is_disabled":false,"rental_uris":{"android":"levelo://app?vid=db7506bf-f731-4900-8df2-a57b85c6a313","ios":"levelo://app?vid=db7506bf-f731-4900-8df2-a57b85c6a313"},"vehicle_type_id":"4","last_reported":1742955518,"current_range_meters":15200,"station_id":"ce4bgt12rcd13ifvqce0","pricing_plan_id":"cebpf4jnsgd1na2vs0mg"},{"bike_id":"9490ab3f-b563-4312-b2ed-009944c7886e","system_id":"levelo_inurba_marseille","lat":43.32474,"lon":5.36547,"is_reserved":false,"is_disabled":false,"rental_uris":{"android":"levelo://app?vid=9490ab3f-b563-4312-b2ed-009944c7886e","ios":"levelo://app?vid=9490ab3f-b563-4312-b2ed-009944c7886e"},"vehicle_type_id":"4","last_reported":1742955518,"current_range_meters":15200,"station_id":"ce4bhs12rcd13ifvqhvg","pricing_plan_id":"cebpf4jnsgd1na2vs0mg"},{"bike_id":"2bb1639c-3d1e-42da-973c-aa124251e63d","system_id":"levelo_inurba_marseille","lat":43.28352,"lon":5.38109,"is_reserved":false,"is_disabled":false,"rental_uris":{"android":"levelo://app?vid=2bb1639c-3d1e-42da-973c-aa124251e63d","ios":"levelo://app?vid=2bb1639c-3d1e-42da-973c-aa124251e63d"},"vehicle_type_id":"4","last_reported":1742955518,"current_range_meters":16000,"station_id":"ce4bh412rcd13ifvqdr0","pricing_plan_id":"cebpf4jnsgd1na2vs0mg"},{"bike_id":"fa26f233-8ca4-49e9-8a82-0f21bc5cc5b0","system_id":"levelo_inurba_marseille","lat":43.323407,"lon":5.40614,"is_reserved":false,"is_disabled":false,"rental_uris":{"android":"levelo://app?vid=fa26f233-8ca4-49e9-8a82-0f21bc5cc5b0","ios":"levelo://app?vid=fa26f233-8ca4-49e9-8a82-0f21bc5cc5b0"},"vehicle_type_id":"4","last_reported":1742955518,"current_range_meters":16000,"station_id":"ce4bhq92rcd13ifvqhjg","pricing_plan_id":"cebpf4jnsgd1na2vs0mg"},{"bike_id":"5b830359-30b8-45d9-a902-126192112277","system_id":"levelo_inurba_marseille","lat":43.23192,"lon":5.35549,"is_reserved":false,"is_disabled":false,"rental_uris":{"android":"levelo://app?vid=5b830359-30b8-45d9-a902-126192112277","ios":"levelo://app?vid=5b830359-30b8-45d9-a902-126192112277"},"vehicle_type_id":"4","last_reported":1742955518,"current_range_meters":16000,"station_id":"ce4bhu92rcd13ifvqi70","pricing_plan_id":"cebpf4jnsgd1na2vs0mg"},{"bike_id":"aecc4eea-6d74-45f5-896a-67373b901867","system_id":"levelo_inurba_marseille","lat":43.31533,"lon":5.380266,"is_reserved":false,"is_disabled":false,"rental_uris":{"android":"levelo://app?vid=aecc4eea-6d74-45f5-896a-67373b901867","ios":"levelo://app?vid=aecc4eea-6d74-45f5-896a-67373b901867"},"vehicle_type_id":"4","last_reported":1742955518,"current_range_meters":16000,"station_id":"ce4bhsp2rcd13ifvqi50","pricing_plan_id":"cebpf4jnsgd1na2vs0mg"},{"bike_id":"68d42813-4eb5-41fe-a58d-c64b32f2b935","system_id":"levelo_inurba_marseille","lat":43.32372,"lon":5.36794,"is_reserved":false,"is_disabled":false,"rental_uris":{"android":"levelo://app?vid=68d42813-4eb5-41fe-a58d-c64b32f2b935","ios":"levelo://app?vid=68d42813-4eb5-41fe-a58d-c64b32f2b935"},"vehicle_type_id":"4","last_reported":1742955518,"current_range_meters":16000,"station_id":"ce4bhsh2rcd13ifvqi2g","pricing_plan_id":"cebpf4jnsgd1na2vs0mg"},{"bike_id":"38b76ce0-0cb8-4ad5-afb3-3900307a1fc5","system_id":"levelo_inurba_marseille","lat":43.28412,"lon":5.37505,"is_reserved":false,"is_disabled":false,"rental_uris":{"android":"levelo://app?vid=38b76ce0-0cb8-4ad5-afb3-3900307a1fc5","ios":"levelo://app?vid=38b76ce0-0cb8-4ad5-afb3-3900307a1fc5"},"vehicle_type_id":"4","last_reported":1742955518,"current_range_meters":16000,"station_id":"ce4bh412rcd13ifvqds0","pricing_plan_id":"cebpf4jnsgd1na2vs0mg"},{"bike_id":"d00f9495-9593-4460-875a-d3841f1a62eb","system_id":"levelo_inurba_marseille","lat":43.28557,"lon":5.395,"is_reserved":false,"is_disabled":false,"rental_uris":{"android":"levelo://app?vid=d00f9495-9593-4460-875a-d3841f1a62eb","ios":"levelo://app?vid=d00f9495-9593-4460-875a-d3841f1a62eb"},