{"last_updated":1751580582,"ttl":60,"version":"2.2","data":{"bikes":[{"bike_id":"3da29fb8-fc97-44c6-b9ac-31dd456b2fd4","system_id":"levelo_inurba_marseille","lat":43.33771,"lon":5.37424,"is_reserved":false,"is_disabled":true,"rental_uris":{"android":"levelo://app?vid=3da29fb8-fc97-44c6-b9ac-31dd456b2fd4","ios":"levelo://app?vid=3da29fb8-fc97-44c6-b9ac-31dd456b2fd4"},"vehicle_type_id":"4","last_reported":1751580582,"current_range_meters":0,"station_id":"","pricing_plan_id":"cebpf4jnsgd1na2vs0mg"},{"bike_id":"01861ad8-a8d7-4be6-816e-651927c87584","system_id":"levelo_inurba_marseille","lat":43.33751,"lon":5.37456,"is_reserved":false,"is_disabled":true,"rental_uris":{"android":"levelo://app?vid=01861ad8-a8d7-4be6-816e-651927c87584","ios":"levelo://app?vid=01861ad8-a8d7-4be6-816e-651927c87584"},"vehicle_type_id":"4","last_reported":1751580582,"current_range_meters":0,"station_id":"","pricing_plan_id":"cebpf4jnsgd1na2vs0mg"},{"bike_id":"fa970b88-b003-4494-bc40-b404de4a92ce","system_id":"levelo_inurba_marseille","lat":43.26895,"lon":5.36852,"is_reserved":false,"is_disabled":true,"rental_uris":{"android":"levelo://app?vid=fa970b88-b003-4494-bc40-b404de4a92ce","ios":"levelo://app?vid=fa970b88-b003-4494-bc40-b404de4a92ce"},"vehicle_type_id":"4","last_reported":1751580582,"current_range_meters":0,"station_id":"","pricing_plan_id":"cebpf4jnsgd1na2vs0mg"},{"bike_id":"da921d92-526f-401b-95dc-b12109d1091d","system_id":"levelo_inurba_marseille","lat":43.36199,"lon":5.34957,"is_reserved":false,"is_disabled":true,"rental_uris":{"android":"levelo://app?vid=da921d92-526f-401b-95dc-b12109d1091d","ios":"levelo://app?vid=da921d92-526f-401b-95dc-b12109d1091d"},"vehicle_type_id":"4","last_reported":1751580582,"current_range_meters":0,"station_id":"","pricing_plan_id":"cebpf4jnsgd1na2vs0mg"},{"bike_id":"6e5b5a4d-1ee5-4068-9613-fb44ab4d8a9a","system_id":"levelo_inurba_marseille","lat":43.34853,"lon":5.34604,"is_reserved":false,"is_disabled":true,"rental_uris":{"android":"levelo://app?vid=6e5b5a4d-1ee5-4068-9613-fb44ab4d8a9a","ios":"levelo://app?vid=6e5b5a4d-1ee5-4068-9613-fb44ab4d8a9a"},"vehicle_type_id":"4","last_reported":1751580582,"current_range_meters":0,"station_id":"","pricing_plan_id":"cebpf4jnsgd1na2vs0mg"},{"bike_id":"031ffef9-24ba-4401-b1e2-e2fe37de45da","system_id":"levelo_inurba_marseille","lat":43.277507,"lon":5.388597,"is_reserved":false,"is_disabled":true,"rental_uris":{"android":"levelo://app?vid=031ffef9-24ba-4401-b1e2-e2fe37de45da","ios":"levelo://app?vid=031ffef9-24ba-4401-b1e2-e2fe37de45da"},"vehicle_type_id":"4","last_reported":1751580582,"current_range_meters":0,"station_id":"","pricing_plan_id":"cebpf4jnsgd1na2vs0mg"},{"bike_id":"8e365e3c-559a-4ba6-a6c5-4c159e2434fc","system_id":"levelo_inurba_marseille","lat":43.21747,"lon":5.34629,"is_reserved":false,"is_disabled":true,"rental_uris":{"android":"levelo://app?vid=8e365e3c-559a-4ba6-a6c5-4c159e2434fc","ios":"levelo://app?vid=8e365e3c-559a-4ba6-a6c5-4c159e2434fc"},"vehicle_type_id":"4","last_reported":1751580582,"current_range_meters":0,"station_id":"","pricing_plan_id":"cebpf4jnsgd1na2vs0mg"},{"bike_id":"5fe1f33a-ebc4-4182-b521-7ef3eadc1773","system_id":"levelo_inurba_marseille","lat":43.26888,"lon":5.36872,"is_reserved":false,"is_disabled":true,"rental_uris":{"android":"levelo://app?vid=5fe1f33a-ebc4-4182-b521-7ef3eadc1773","ios":"levelo://app?vid=5fe1f33a-ebc4-4182-b521-7ef3eadc1773"},"vehicle_type_id":"4","last_reported":1751580582,"current_range_meters":0,"station_id":"","pricing_plan_id":"cebpf4jnsgd1na2vs0mg"},{"bike_id":"3f394701-d621-4f9e-83aa-48691cf29f6e","system_id":"levelo_inurba_marseille","lat":43.31122,"lon":5.40979,"is_reserved":false,"is_disabled":true,"rental_uris":{"android":"levelo://app?vid=3f394701-d621-4f9e-83aa-48691cf29f6e","ios":"levelo://app?vid=3f394701-d621-4f9e-83aa-48691cf29f6e"},"vehicle_type_id":"4","last_reported":1751580582,"current_range_meters":0,"station_id":"","pricing_plan_id":"cebpf4jnsgd1na2vs0mg"},{"bike_id":"c8bdee6f-2ae9-4b92-95e3-02278f2d6814","system_id":"levelo_inurba_marseille","lat":43.2658,"lon":5.40329,"is_reserved":false,"is_disabled":true,"rental_uris":{"android":"levelo://app?vid=c8bdee6f-2ae9-4b92-95e3-02278f2d6814","ios":"levelo://app?vid=c8bdee6f-2ae9-4b92-95e3-02278f2d6814"},"vehicle_type_id":"4","last_reported":1751580582,"current_range_meters":0,"station_id":"","pricing_plan_id":"cebpf4jnsgd1na2vs0mg"},{"bike_id":"a4beb5fb-6531-4182-84f6-bb8dd812bffe","system_id":"levelo_inurba_marseille","lat":43.31357,"lon":5.38507,"is_reserved":false,"is_disabled":true,"rental_uris":{"android":"levelo://app?vid=a4beb5fb-6531-4182-84f6-bb8dd812bffe","ios":"levelo://app?vid=a4beb5fb-6531-4182-84f6-bb8dd812bffe"},"vehicle_type_id":"4","last_reported":1751580582,"current_range_meters":0,"station_id":"ce4bgt92rcd13ifvqcf0","pricing_plan_id":"cebpf4jnsgd1na2vs0mg"},{"bike_id":"63abec4c-562b-47ec-bc58-8213c2f7bfb5","system_id":"levelo_inurba_marseille","lat":43.28347,"lon":5.38103,"is_reserved":false,"is_disabled":true,"rental_uris":{"android":"levelo://app?vid=63abec4c-562b-47ec-bc58-8213c2f7bfb5","ios":"levelo://app?vid=63abec4c-562b-47ec-bc58-8213c2f7bfb5"},"vehicle_type_id":"4","last_reported":1751580582,"current_range_meters":0,"station_id":"ce4bh412rcd13ifvqdr0","pricing_plan_id":"cebpf4jnsgd1na2vs0mg"},{"bike_id":"accfa089-a539-4f4a-9b84-b2b83ead9586","system_id":"levelo_inurba_marseille","lat":43.24177,"lon":5.39733,"is_reserved":false,"is_disabled":true,"rental_uris":{"android":"levelo://app?vid=accfa089-a539-4f4a-9b84-b2b83ead9586","ios":"levelo://app?vid=accfa089-a539-4f4a-9b84-b2b83ead9586"},"vehicle_type_id":"4","last_reported":1751580582,"current_range_meters":0,"station_id":"ce4bhn12rcd13ifvqgpg","pricing_plan_id":"cebpf4jnsgd1na2vs0mg"},{"bike_id":"34525e0e-88eb-4fe8-be83-e19f0f1185d3","system_id":"levelo_inurba_marseille","lat":43.22507,"lon":5.34798,"is_reserved":false,"is_disabled":true,"rental_uris":{"android":"levelo://app?vid=34525e0e-88eb-4fe8-be83-e19f0f1185d3","ios":"levelo://app?vid=34525e0e-88eb-4fe8-be83-e19f0f1185d3"},"vehicle_type_id":"4","last_reported":1751580582,"current_range_meters":0,"station_id":"st_cvj5dfep6f1abm77gieg","pricing_plan_id":"cebpf4jnsgd1na2vs0mg"},{"bike_id":"9795e511-4f68-494d-9846-41f87f5dd923","system_id":"levelo_inurba_marseille","lat":43.22493,"lon":5.34812,"is_reserved":false,"is_disabled":true,"rental_uris":{"android":"levelo://app?vid=9795e511-4f68-494d-9846-41f87f5dd923","ios":"levelo://app?vid=9795e511-4f68-494d-9846-41f87f5dd923"},"vehicle_type_id":"4","last_reported":1751580582,"current_range_meters":0,"station_id":"st_cvj5dfep6f1abm77gieg","pricing_plan_id":"cebpf4jnsgd1na2vs0mg"},{"bike_id":"711daaef-62a7-4507-b46e-24f8c3ebc905","system_id":"levelo_inurba_marseille","lat":43.217603,"lon":5.345783,"is_reserved":false,"is_disabled":true,"rental_uris":{"android":"levelo://app?vid=711daaef-62a7-4507-b46e-24f8c3ebc905","ios":"levelo://app?vid=711daaef-62a7-4507-b46e-24f8c3ebc905"},"vehicle_type_id":"4","last_reported":1751580582,"current_range_meters":0,"station_id":"st_cvj6r9ubvosntc0bgbag","pricing_plan_id":"cebpf4jnsgd1na2vs0mg"},{"bike_id":"7750661e-3127-4501-aa76-1d7cb6be5070","system_id":"levelo_inurba_marseille","lat":43.21758,"lon":5.34645,"is_reserved":false,"is_disabled":true,"rental_uris":{"android":"levelo://app?vid=7750661e-3127-4501-aa76-1d7cb6be5070","ios":"levelo://app?vid=7750661e-3127-4501-aa76-1d7cb6be5070"},"vehicle_type_id":"4","last_reported":1751580582,"current_range_meters":0,"station_id":"st_cvj6r9ubvosntc0bgbag","pricing_plan_id":"cebpf4jnsgd1na2vs0mg"},{"bike_id":"bc5dd2b3-3385-463b-a084-678650a16b75","system_id":"levelo_inurba_marseille","lat":43.268446,"lon":5.370804,"is_reserved":false,"is_disabled":true,"rental_uris":{"android":"levelo://app?vid=bc5dd2b3-3385-463b-a084-678650a16b75","ios":"levelo://app?vid=bc5dd2b3-3385-463b-a084-678650a16b75"},"vehicle_type_id":"4","last_reported":1751580582,"current_range_meters":400,"station_id":"","pricing_plan_id":"cebpf4jnsgd1na2vs0mg"},{"bike_id":"0a185492-26a8-4775-85c2-10610805774a","system_id":"levelo_inurba_marseille","lat":43.27699,"lon":5.43067,"is_reserved":false,"is_disabled":true,"rental_uris":{"android":"levelo://app?vid=0a185492-26a8-4775-85c2-10610805774a","ios":"levelo://app?vid=0a185492-26a8-4775-85c2-10610805774a"},"vehicle_type_id":"4","last_reported":1751580582,"current_range_meters":400,"station_id":"","pricing_plan_id":"cebpf4jnsgd1na2vs0mg"},{"bike_id":"f6edca24-6a34-496b-9522-d1a400723e8b","system_id":"levelo_inurba_marseille","lat":43.29004,"lon":5.35615,"is_reserved":false,"is_disabled":true,"rental_uris":{"android":"levelo://app?vid=f6edca24-6a34-496b-9522-d1a400723e8b","ios":"levelo://app?vid=f6edca24-6a34-496b-9522-d1a400723e8b"},"vehicle_type_id":"4","last_reported":1751580582,"current_range_meters":400,"station_id":"ce4bhb92rcd13ifvqen0","pricing_plan_id":"cebpf4jnsgd1na2vs0mg"},{"bike_id":"7d961ced-db20-48c2-a352-4d5ea72e8ed5","system_id":"levelo_inurba_marseille","lat":43.26559,"lon":5.37283,"is_reserved":false,"is_disabled":true,"rental_uris":{"android":"levelo://app?vid=7d961ced-db20-48c2-a352-4d5ea72e8ed5","ios":"levelo://app?vid=7d961ced-db20-48c2-a352-4d5ea72e8ed5"},"vehicle_type_id":"4","last_reported":1751580582,"current_range_meters":400,"station_id":"ce4bhg12rcd13ifvqf70","pricing_plan_id":"cebpf4jnsgd1na2vs0mg"},{"bike_id":"c46278a2-67df-4654-a072-8f254b049f98","system_id":"levelo_inurba_marseille","lat":43.279723,"lon":5.387473,"is_reserved":false,"is_disabled":true,"rental_uris":{"android":"levelo://app?vid=c46278a2-67df-4654-a072-8f254b049f98","ios":"levelo://app?vid=c46278a2-67df-4654-a072-8f254b049f98"},"vehicle_type_id":"4","last_reported":1751580582,"current_range_meters":400,"station_id":"ce4bhg12rcd13ifvqf80","pricing_plan_id":"cebpf4jnsgd1na2vs0mg"},{"bike_id":"a6d7a0d5-d9ae-4fc1-b44b-2efbae6ccc62","system_id":"levelo_inurba_marseille","lat":43.21772,"lon":5.34616,"is_reserved":false,"is_disabled":true,"rental_uris":{"android":"levelo://app?vid=a6d7a0d5-d9ae-4fc1-b44b-2efbae6ccc62","ios":"levelo://app?vid=a6d7a0d5-d9ae-4fc1-b44b-2efbae6ccc62"},"vehicle_type_id":"4","last_reported":1751580582,"current_range_meters":400,"station_id":"st_cvj6r9ubvosntc0bgbag","pricing_plan_id":"cebpf4jnsgd1na2vs0mg"},{"bike_id":"206083ad-948e-444e-a71a-a562bd73008b","system_id":"levelo_inurba_marseille","lat":43.30117,"lon":5.39855,"is_reserved":false,"is_disabled":true,"rental_uris":{"android":"levelo://app?vid=206083ad-948e-444e-a71a-a562bd73008b","ios":"levelo://app?vid=206083ad-948e-444e-a71a-a562bd73008b"},"vehicle_type_id":"4","last_reported":1751580582,"current_range_meters":800,"station_id":"ce4bh0h2rcd13ifvqd40","pricing_plan_id":"cebpf4jnsgd1na2vs0mg"},{"bike_id":"d2e4dbc8-2d02-4e76-a86b-a1cf89da4cc6","system_id":"levelo_inurba_marseille","lat":43.29524,"lon":5.38537,"is_reserved":false,"is_disabled":true,"rental_uris":{"android":"levelo://app?vid=d2e4dbc8-2d02-4e76-a86b-a1cf89da4cc6","ios":"levelo://app?vid=d2e4dbc8-2d02-4e76-a86b-a1cf89da4cc6"},"vehicle_type_id":"4","last_reported":1751580582,"current_range_meters":1200,"station_id":"ce4bgih2rcd13ifvqba0","pricing_plan_id":"cebpf4jnsgd1na2vs0mg"},{"bike_id":"2c734646-0d90-42ab-8ce6-2861454e47ef","system_id":"levelo_inurba_marseille","lat":43.29023,"lon":5.38138,"is_reserved":false,"is_disabled":true,"rental_uris":{"android":"levelo://app?vid=2c734646-0d90-42ab-8ce6-2861454e47ef","ios":"levelo://app?vid=2c734646-0d90-42ab-8ce6-2861454e47ef"},"vehicle_type_id":"4","last_reported":1751580582,"current_range_meters":1200,"station_id":"ce4bh4p2rcd13ifvqe1g","pricing_plan_id":"cebpf4jnsgd1na2vs0mg"},{"bike_id":"82fe187f-756c-4548-a7c4-3fc3ac31b7d2","system_id":"levelo_inurba_marseille","lat":43.21762,"lon":5.34627,"is_reserved":false,"is_disabled":true,"rental_uris":{"android":"levelo://app?vid=82fe187f-756c-4548-a7c4-3fc3ac31b7d2","ios":"levelo://app?vid=82fe187f-756c-4548-a7c4-3fc3ac31b7d2"},"vehicle_type_id":"4","last_reported":1751580582,"current_range_meters":1200,"station_id":"st_cvj6r9ubvosntc0bgbag","pricing_plan_id":"cebpf4jnsgd1na2vs0mg"},{"bike_id":"cd2a3af2-854b-4519-92e5-1eaf70ba8a37","system_id":"levelo_inurba_marseille","lat":43.21193,"lon":5.35088,"is_reserved":false,"is_disabled":true,"rental_uris":{"android":"levelo://app?vid=cd2a3af2-854b-4519-92e5-1eaf70ba8a37","ios":"levelo://app?vid=cd2a3af2-854b-4519-92e5-1eaf70ba8a37"},"vehicle_type_id":"4","last_reported":1751580582,"current_range_meters":1200,"station_id":"st_cvj6sg6p6f1abm77japg","pricing_plan_id":"cebpf4jnsgd1na2vs0mg"},{"bike_id":"4d3ec8bc-3f3c-48e0-ad5f-04fb8162aaed","system_id":"levelo_inurba_marseille","lat":43.2872,"lon":5.36086,"is_reserved":false,"is_disabled":true,"rental_uris":{"android":"levelo://app?vid=4d3ec8bc-3f3c-48e0-ad5f-04fb8162aaed","ios":"levelo://app?vid=4d3ec8bc-3f3c-48e0-ad5f-04fb8162aaed"},"vehicle_type_id":"4","last_reported":1751580582,"current_range_meters":1600,"station_id":"cki0cbj6b192h4jlfktg","pricing_plan_id":"cebpf4jnsgd1na2vs0mg"},{"bike_id":"eb448cc4-dd89-4daf-b89c-3978171adc65","system_id":"levelo_inurba_marseille","lat":43.29529,"lon":5.39401,"is_reserved":false,"is_disabled":true,"rental_uris":{"android":"levelo://app?vid=eb448cc4-dd89-4daf-b89c-3978171adc65","ios":"levelo://app?vid=eb448cc4-dd89-4daf-b89c-3978171adc65"},"vehicle_type_id":"4","last_reported":1751580582,"current_range_meters":2000,"station_id":"ce4bh292rcd13ifvqdf0","pricing_plan_id":"cebpf4jnsgd1na2vs0mg"},{"bike_id":"3e664285-6b5f-42e0-a494-00a2d1d4c8e8","system_id":"levelo_inurba_marseille","lat":43.30294,"lon":5.3922,"is_reserved":false,"is_disabled":false,"rental_uris":{"android":"levelo://app?vid=3e664285-6b5f-42e0-a494-00a2d1d4c8e8","ios":"levelo://app?vid=3e664285-6b5f-42e0-a494-00a2d1d4c8e8"},"vehicle_type_id":"4","last_reported":1751580582,"current_range_meters":2800,"station_id":"ce4bgkh2rcd13ifvqbk0","pricing_plan_id":"cebpf4jnsgd1na2vs0mg"},{"bike_id":"bfaf3f22-4ae4-4a42-9c51-dce9dec0e4d8","system_id":"levelo_inurba_marseille","lat":43.28459,"lon":5.35893,"is_reserved":false,"is_disabled":false,"rental_uris":{"android":"levelo://app?vid=bfaf3f22-4ae4-4a42-9c51-dce9dec0e4d8","ios":"levelo://app?vid=bfaf3f22-4ae4-4a42-9c51-dce9dec0e4d8"},"vehicle_type_id":"4","last_reported":1751580582,"current_range_meters":2800,"station_id":"ce4bhah2rcd13ifvqei0","pricing_plan_id":"cebpf4jnsgd1na2vs0mg"},{"bike_id":"e33c8b52-bdc8-498c-91f3-8c1c109ad3d7","system_id":"levelo_inurba_marseille","lat":43.29957,"lon":5.41323,"is_reserved":false,"is_disabled":false,"rental_uris":{"android":"levelo://app?vid=e33c8b52-bdc8-498c-91f3-8c1c109ad3d7","ios":"levelo://app?vid=e33c8b52-bdc8-498c-91f3-8c1c109ad3d7"},"vehicle_type_id":"4","last_reported":1751580582,"current_range_meters":2800,"station_id":"ce4bhp12rcd13ifvqh9g","pricing_plan_id":"cebpf4jnsgd1na2vs0mg"},{"bike_id":"b5f9c177-e511-4a26-9abb-a8c98a9e71b2","system_id":"levelo_inurba_marseille","lat":43.21189,"lon":5.35074,"is_reserved":false,"is_disabled":false,"rental_uris":{"android":"levelo://app?vid=b5f9c177-e511-4a26-9abb-a8c98a9e71b2","ios":"levelo://app?vid=b5f9c177-e511-4a26-9abb-a8c98a9e71b2"},"vehicle_type_id":"4","last_reported":1751580582,"current_range_meters":3200,"station_id":"st_cvj6sg6p6f1abm77japg","pricing_plan_id":"cebpf4jnsgd1na2vs0mg"},{"bike_id":"31f69bc3-18a3-407f-a0a0-70bc0e05de24","system_id":"levelo_inurba_marseille","lat":43.29198,"lon":5.39325,"is_reserved":false,"is_disabled":false,"rental_uris":{"android":"levelo://app?vid=31f69bc3-18a3-407f-a0a0-70bc0e05de24","ios":"levelo://app?vid=31f69bc3-18a3-407f-a0a0-70bc0e05de24"},"vehicle_type_id":"4","last_reported":1751580582,"current_range_meters":4000,"station_id":"ce4bh192rcd13ifvqdd0","pricing_plan_id":"cebpf4jnsgd1na2vs0mg"},{"bike_id":"fa541820-9cf8-4bd5-b8d1-0370d36ed9e9","system_id":"levelo_inurba_marseille","lat":43.285065,"lon":5.389681,"is_reserved":false,"is_disabled":false,"rental_uris":{"android":"levelo://app?vid=fa541820-9cf8-4bd5-b8d1-0370d36ed9e9","ios":"levelo://app?vid=fa541820-9cf8-4bd5-b8d1-0370d36ed9e9"},"vehicle_type_id":"4","last_reported":1751580582,"current_range_meters":4000,"station_id":"ce4bhoh2rcd13ifvqh5g","pricing_plan_id":"cebpf4jnsgd1na2vs0mg"},{"bike_id":"8a66890a-a59b-4bef-8e35-490c4eae833b","system_id":"levelo_inurba_marseille","lat":43.22487,"lon":5.34794,"is_reserved":false,"is_disabled":false,"rental_uris":{"android":"levelo://app?vid=8a66890a-a59b-4bef-8e35-490c4eae833b","ios":"levelo://app?vid=8a66890a-a59b-4bef-8e35-490c4eae833b"},"vehicle_type_id":"4","last_reported":1751580582,"current_range_meters":4800,"station_id":"st_cvj5dfep6f1abm77gieg","pricing_plan_id":"cebpf4jnsgd1na2vs0mg"},{"bike_id":"96b35004-93c5-4a2b-9f77-723bef6d49c4","system_id":"levelo_inurba_marseille","lat":43.28036,"lon":5.38355,"is_reserved":false,"is_disabled":false,"rental_uris":{"android":"levelo://app?vid=96b35004-93c5-4a2b-9f77-723bef6d49c4","ios":"levelo://app?vid=96b35004-93c5-4a2b-9f77-723bef6d49c4"},"vehicle_type_id":"4","last_reported":1751580582,"current_range_meters":5600,"station_id":"","pricing_plan_id":"cebpf4jnsgd1na2vs0mg"},{"bike_id":"a76446d3-121f-46a6-81fb-bf365c96cd63","system_id":"levelo_inurba_marseille","lat":43.32043,"lon":5.41546,"is_reserved":false,"is_disabled":false,"rental_uris":{"android":"levelo://app?vid=a76446d3-121f-46a6-81fb-bf365c96cd63","ios":"levelo://app?vid=a76446d3-121f-46a6-81fb-bf365c96cd63"},"vehicle_type_id":"4","last_reported":1751580582,"current_range_meters":5600,"station_id":"ce4bhq92rcd13ifvqhkg","pricing_plan_id":"cebpf4jnsgd1na2vs0mg"},{"bike_id":"05c7b799-9781-4950-8cd4-d185fec2ae95","system_id":"levelo_inurba_marseille","lat":43.21191,"lon":5.35082,"is_reserved":false,"is_disabled":false,"rental_uris":{"android":"levelo://app?vid=05c7b799-9781-4950-8cd4-d185fec2ae95","ios":"levelo://app?vid=05c7b799-9781-4950-8cd4-d185fec2ae95"},"vehicle_type_id":"4","last_reported":1751580582,"current_range_meters":5600,"station_id":"st_cvj6sg6p6f1abm77japg","pricing_plan_id":"cebpf4jnsgd1na2vs0mg"},{"bike_id":"1f2eb7df-e294-4f53-962e-a8f25251d5d2","system_id":"levelo_inurba_marseille","lat":43.2903,"lon":5.38646,"is_reserved":false,"is_disabled":false,"rental_uris":{"android":"levelo://app?vid=1f2eb7df-e294-4f53-962e-a8f25251d5d2","ios":"levelo://app?vid=1f2eb7df-e294-4f53-962e-a8f25251d5d2"},"vehicle_type_id":"4","last_reported":1751580582,"current_range_meters":6000,"station_id":"ce4bh4p2rcd13ifvqe0g","pricing_plan_id":"cebpf4jnsgd1na2vs0mg"},{"bike_id":"1d1bad28-d21b-4534-a330-d1aa9ccc5182","system_id":"levelo_inurba_marseille","lat":43.28403,"lon":5.37523,"is_reserved":false,"is_disabled":false,"rental_uris":{"android":"levelo://app?vid=1d1bad28-d21b-4534-a330-d1aa9ccc5182","ios":"levelo://app?vid=1d1bad28-d21b-4534-a330-d1aa9ccc5182"},"vehicle_type_id":"4","last_reported":1751580582,"current_range_meters":6400,"station_id":"ce4bh412rcd13ifvqds0","pricing_plan_id":"cebpf4jnsgd1na2vs0mg"},{"bike_id":"be5eba05-79d2-47ea-8f6d-d03909143c2f","system_id":"levelo_inurba_marseille","lat":43.26562,"lon":5.3901,"is_reserved":false,"is_disabled":false,"rental_uris":{"android":"levelo://app?vid=be5eba05-79d2-47ea-8f6d-d03909143c2f","ios":"levelo://app?vid=be5eba05-79d2-47ea-8f6d-d03909143c2f"},"vehicle_type_id":"4","last_reported":1751580582,"current_range_meters":6400,"station_id":"ce4bhe12rcd13ifvqf30","pricing_plan_id":"cebpf4jnsgd1na2vs0mg"},{"bike_id":"24dcc44b-dda1-46e0-908d-484f5b6b21bc","system_id":"levelo_inurba_marseille","lat":43.27077,"lon":5.42283,"is_reserved":false,"is_disabled":false,"rental_uris":{"android":"levelo://app?vid=24dcc44b-dda1-46e0-908d-484f5b6b21bc","ios":"levelo://app?vid=24dcc44b-dda1-46e0-908d-484f5b6b21bc"},"vehicle_type_id":"4","last_reported":1751580582,"current_range_meters":6400,"station_id":"ce4bhk92rcd13ifvqgb0","pricing_plan_id":"cebpf4jnsgd1na2vs0mg"},{"bike_id":"29abe2fa-7cdc-4432-b35e-7ad6316158eb","system_id":"levelo_inurba_marseille","lat":43.28015,"lon":5.40157,"is_reserved":false,"is_disabled":false,"rental_uris":{"android":"levelo://app?vid=29abe2fa-7cdc-4432-b35e-7ad6316158eb","ios":"levelo://app?vid=29abe2fa-7cdc-4432-b35e-7ad6316158eb"},"vehicle_type_id":"4","last_reported":1751580582,"current_range_meters":6400,"station_id":"ce4bho92rcd13ifvqh4g","pricing_plan_id":"cebpf4jnsgd1na2vs0mg"},{"bike_id":"cee0b5b6-9b90-457a-85f4-540287a23b84","system_id":"levelo_inurba_marseille","lat":43.21192,"lon":5.35077,"is_reserved":false,"is_disabled":false,"rental_uris":{"android":"levelo://app?vid=cee0b5b6-9b90-457a-85f4-540287a23b84","ios":"levelo://app?vid=cee0b5b6-9b90-457a-85f4-540287a23b84"},"vehicle_type_id":"4","last_reported":1751580582,"current_range_meters":6400,"station_id":"st_cvj6sg6p6f1abm77japg","pricing_plan_id":"cebpf4jnsgd1na2vs0mg"},{"bike_id":"a3efdb49-04ce-44f9-9324-53fa8886dfb9","system_id":"levelo_inurba_marseille","lat":43.29974,"lon":5.37175,"is_reserved":false,"is_disabled":false,"rental_uris":{"android":"levelo://app?vid=a3efdb49-04ce-44f9-9324-53fa8886dfb9","ios":"levelo://app?vid=a3efdb49-04ce-44f9-9324-53fa8886dfb9"},"vehicle_type_id":"4","last_reported":1751580582,"current_range_meters":6800,"station_id":"ce4bgr92rcd13ifvqc7g","pricing_plan_id":"cebpf4jnsgd1na2vs0mg"},{"bike_id":"ef85be71-d833-4e89-b93d-bd32c78d4b79","system_id":"levelo_inurba_marseille","lat":43.29445,"lon":5.39748,"is_reserved":false,"is_disabled":false,"rental_uris":{"android":"levelo://app?vid=ef85be71-d833-4e89-b93d-bd32c78d4b79","ios":"levelo://app?vid=ef85be71-d833-4e89-b93d-bd32c78d4b79"},"vehicle_type_id":"4","last_reported":1751580582,"current_range_meters":6800,"station_id":"ce4bh3h2rcd13ifvqdo0","pricing_plan_id":"cebpf4jnsgd1na2vs0mg"},{"bike_id":"07aba19e-596e-47ab-a95f-ff1d1fed659a","system_id":"levelo_inurba_marseille","lat":43.30111,"lon":5.3988,"is_reserved":false,"is_disabled":false,"rental_uris":{"android":"levelo://app?vid=07aba19e-596e-47ab-a95f-ff1d1fed659a","ios":"levelo://app?vid=07aba19e-596e-47ab-a95f-ff1d1fed659a"},"vehicle_type_id":"4","last_reported":1751580582,"current_range_meters":7200,"station_id":"ce4bh0h2rcd13ifvqd40","pricing_plan_id":"cebpf4jnsgd1na2vs0mg"},{"bike_id":"df05dcc5-f5c3-4c4b-a0ba-bb77a71e2fc8","system_id":"levelo_inurba_marseille","lat":43.29038,"lon":5.37564,"is_reserved":false,"is_disabled":false,"rental_uris":{"android":"levelo://app?vid=df05dcc5-f5c3-4c4b-a0ba-bb77a71e2fc8","ios":"levelo://app?vid=df05dcc5-f5c3-4c4b-a0ba-bb77a71e2fc8"},"vehicle_type_id":"4","last_reported":1751580582,"current_range_meters":7200,"station_id":"ce4bh692rcd13ifvqe90","pricing_plan_id":"cebpf4jnsgd1na2vs0mg"},{"bike_id":"ee52bb69-c8b2-41be-a2e5-3247fedc1a39","system_id":"levelo_inurba_marseille","lat":43.24091,"lon":5.37224,"is_reserved":false,"is_disabled":false,"rental_uris":{"android":"levelo://app?vid=ee52bb69-c8b2-41be-a2e5-3247fedc1a39","ios":"levelo://app?vid=ee52bb69-c8b2-41be-a2e5-3247fedc1a39"},"vehicle_type_id":"4","last_reported":1751580582,"current_range_meters":8000,"station_id":"","pricing_plan_id":"cebpf4jnsgd1na2vs0mg"},{"bike_id":"d9d03de2-588f-433a-b843-3694f1d7700f","system_id":"levelo_inurba_marseille","lat":43.24661,"lon":5.38163,"is_reserved":false,"is_disabled":false,"rental_uris":{"android":"levelo://app?vid=d9d03de2-588f-433a-b843-3694f1d7700f","ios":"levelo://app?vid=d9d03de2-588f-433a-b843-3694f1d7700f"},"vehicle_type_id":"4","last_reported":1751580582,"current_range_meters":8000,"station_id":"ce4bhih2rcd13ifvqfr0","pricing_plan_id":"cebpf4jnsgd1na2vs0mg"},{"bike_id":"e23e16a3-1327-4c71-ac4b-6bb697cbacb9","system_id":"levelo_inurba_marseille","lat":43.30896,"lon":5.40065,"is_reserved":false,"is_disabled":false,"rental_uris":{"android":"levelo://app?vid=e23e16a3-1327-4c71-ac4b-6bb697cbacb9","ios":"levelo://app?vid=e23e16a3-1327-4c71-ac4b-6bb697cbacb9"},"vehicle_type_id":"4","last_reported":1751580582,"current_range_meters":8400,"station_id":"","pricing_plan_id":"cebpf4jnsgd1na2vs0mg"},{"bike_id":"9a7d342a-ff8e-46c4-af1e-6e0519bd67dc","system_id":"levelo_inurba_marseille","lat":43.291433,"lon":5.355899,"is_reserved":false,"is_disabled":false,"rental_uris":{"android":"levelo://app?vid=9a7d342a-ff8e-46c4-af1e-6e0519bd67dc","ios":"levelo://app?vid=9a7d342a-ff8e-46c4-af1e-6e0519bd67dc"},"vehicle_type_id":"4","last_reported":1751580582,"current_range_meters":8400,"station_id":"","pricing_plan_id":"cebpf4jnsgd1na2vs0mg"},{"bike_id":"c3e02b04-1275-4d03-a5fb-3c70493d7956","system_id":"levelo_inurba_marseille","lat":43.2848,"lon":5.38428,"is_reserved":false,"is_disabled":false,"rental_uris":{"android":"levelo://app?vid=c3e02b04-1275-4d03-a5fb-3c70493d7956","ios":"levelo://app?vid=c3e02b04-1275-4d03-a5fb-3c70493d7956"},"vehicle_type_id":"4","last_reported":1751580582,"current_range_meters":8400,"station_id":"ce4bh512rcd13ifvqe3g","pricing_plan_id":"cebpf4jnsgd1na2vs0mg"},{"bike_id":"22c65f34-5b9a-4ce8-b3b0-5a1a52b259a2","system_id":"levelo_inurba_marseille","lat":43.297062,"lon":5.401832,"is_reserved":false,"is_disabled":false,"rental_uris":{"android":"levelo://app?vid=22c65f34-5b9a-4ce8-b3b0-5a1a52b259a2","ios":"levelo://app?vid=22c65f34-5b9a-4ce8-b3b0-5a1a52b259a2"},"vehicle_type_id":"4","last_reported":1751580582,"current_range_meters":8800,"station_id":"","pricing_plan_id":"cebpf4jnsgd1na2vs0mg"},{"bike_id":"bf00a211-3496-4df0-8e4e-99767047ca09","system_id":"levelo_inurba_marseille","lat":43.29867,"lon":5.37627,"is_reserved":false,"is_disabled":false,"rental_uris":{"android":"levelo://app?vid=bf00a211-3496-4df0-8e4e-99767047ca09","ios":"levelo://app?vid=bf00a211-3496-4df0-8e4e-99767047ca09"},"vehicle_type_id":"4","last_reported":1751580582,"current_range_meters":8800,"station_id":"","pricing_plan_id":"cebpf4jnsgd1na2vs0mg"},{"bike_id":"e26ba497-efc7-4420-b8c5-9fa5e27f2ce4","system_id":"levelo_inurba_marseille","lat":43.313743,"lon":5.370674,"is_reserved":false,"is_disabled":false,"rental_uris":{"android":"levelo://app?vid=e26ba497-efc7-4420-b8c5-9fa5e27f2ce4","ios":"levelo://app?vid=e26ba497-efc7-4420-b8c5-9fa5e27f2ce4"},"vehicle_type_id":"4","last_reported":1751580582,"current_range_meters":8800,"station_id":"","pricing_plan_id":"cebpf4jnsgd1na2vs0mg"},{"bike_id":"b1a5b855-1b2e-407e-bb46-de8fa15d7e99","system_id":"levelo_inurba_marseille","lat":43.281585,"lon":5.426445,"is_reserved":false,"is_disabled":false,"rental_uris":{"android":"levelo://app?vid=b1a5b855-1b2e-407e-bb46-de8fa15d7e99","ios":"levelo://app?vid=b1a5b855-1b2e-407e-bb46-de8fa15d7e99"},"vehicle_type_id":"4","last_reported":1751580582,"current_range_meters":8800,"station_id":"ce4bhnh2rcd13ifvqgug","pricing_plan_id":"cebpf4jnsgd1na2vs0mg"},{"bike_id":"28ef8e2a-a5da-48f0-a984-21c9c7ddbbad","system_id":"levelo_inurba_marseille","lat":43.30793,"lon":5.43526,"is_reserved":false,"is_disabled":false,"rental_uris":{"android":"levelo://app?vid=28ef8e2a-a5da-48f0-a984-21c9c7ddbbad","ios":"levelo://app?vid=28ef8e2a-a5da-48f0-a984-21c9c7ddbbad"},"vehicle_type_id":"4","last_reported":1751580582,"current_range_meters":8800,"station_id":"ce4bhph2rcd13ifvqheg","pricing_plan_id":"cebpf4jnsgd1na2vs0mg"},{"bike_id":"3b2403f0-ee43-4b3e-8462-6a8091c09e17","system_id":"levelo_inurba_marseille","lat":43.29274,"lon":5.40117,"is_reserved":false,"is_disabled":false,"rental_uris":{"android":"levelo://app?vid=3b2403f0-ee43-4b3e-8462-6a8091c09e17","ios":"levelo://app?vid=3b2403f0-ee43-4b3e-8462-6a8091c09e17"},"vehicle_type_id":"4","last_reported":1751580582,"current_range_meters":9200,"station_id":"ce4bh312rcd13ifvqdk0","pricing_plan_id":"cebpf4jnsgd1na2vs0mg"},{"bike_id":"b6b6b60a-0c18-40e5-ac16-07e02fa91fe6","system_id":"levelo_inurba_marseille","lat":43.231798,"lon":5.399926,"is_reserved":false,"is_disabled":false,"rental_uris":{"android":"levelo://app?vid=b6b6b60a-0c18-40e5-ac16-07e02fa91fe6","ios":"levelo://app?vid=b6b6b60a-0c18-40e5-ac16-07e02fa91fe6"},"vehicle_type_id":"4","last_reported":1751580582,"current_range_meters":9200,"station_id":"ce4bhn12rcd13ifvqgqg","pricing_plan_id":"cebpf4jnsgd1na2vs0mg"},{"bike_id":"bcfd0eda-b9ab-4bec-9ca3-3f2b86617415","system_id":"levelo_inurba_marseille","lat":43.21191,"lon":5.35071,"is_reserved":false,"is_disabled":false,"rental_uris":{"android":"levelo://app?vid=bcfd0eda-b9ab-4bec-9ca3-3f2b86617415","ios":"levelo://app?vid=bcfd0eda-b9ab-4bec-9ca3-3f2b86617415"},"vehicle_type_id":"4","last_reported":1751580582,"current_range_meters":9200,"station_id":"st_cvj6sg6p6f1abm77japg","pricing_plan_id":"cebpf4jnsgd1na2vs0mg"},{"bike_id":"4d8e3b01-a659-4741-8263-860e998b1ee4","system_id":"levelo_inurba_marseille","lat":43.21184,"lon":5.35077,"is_reserved":false,"is_disabled":false,"rental_uris":{"android":"levelo://app?vid=4d8e3b01-a659-4741-8263-860e998b1ee4","ios":"levelo://app?vid=4d8e3b01-a659-4741-8263-860e998b1ee4"},"vehicle_type_id":"4","last_reported":1751580582,"current_range_meters":9200,"station_id":"st_cvj6sg6p6f1abm77japg","pricing_plan_id":"cebpf4jnsgd1na2vs0mg"},{"bike_id":"b1e4b767-e80c-4627-80d4-d999f20cecd0","system_id":"levelo_inurba_marseille","lat":43.30614,"lon":5.3722,"is_reserved":false,"is_disabled":false,"rental_uris":{"android":"levelo://app?vid=b1e4b767-e80c-4627-80d4-d999f20cecd0","ios":"levelo://app?vid=b1e4b767-e80c-4627-80d4-d999f20cecd0"},"vehicle_type_id":"4","last_reported":1751580582,"current_range_meters":9600,"station_id":"ce4bgqh2rcd13ifvqc4g","pricing_plan_id":"cebpf4jnsgd1na2vs0mg"},{"bike_id":"f6596b97-afa3-43de-86b4-6cb2d43ba7a1","system_id":"levelo_inurba_marseille","lat":43.29188,"lon":5.39318,"is_reserved":false,"is_disabled":false,"rental_uris":{"android":"levelo://app?vid=f6596b97-afa3-43de-86b4-6cb2d43ba7a1","ios":"levelo://app?vid=f6596b97-afa3-43de-86b4-6cb2d43ba7a1"},"vehicle_type_id":"4","last_reported":1751580582,"current_range_meters":10000,"station_id":"ce4bh192rcd13ifvqdd0","pricing_plan_id":"cebpf4jnsgd1na2vs0mg"},{"bike_id":"6374cd1d-10ee-494e-8109-1cd0c2fd0453","system_id":"levelo_inurba_marseille","lat":43.28339,"lon":5.38121,"is_reserved":false,"is_disabled":false,"rental_uris":{"android":"levelo://app?vid=6374cd1d-10ee-494e-8109-1cd0c2fd0453","ios":"levelo://app?vid=6374cd1d-10ee-494e-8109-1cd0c2fd0453"},"vehicle_type_id":"4","last_reported":1751580582,"current_range_meters":10000,"station_id":"ce4bh412rcd13ifvqdr0","pricing_plan_id":"cebpf4jnsgd1na2vs0mg"},{"bike_id":"a2766394-d3a8-41d5-bd98-66be90810423","system_id":"levelo_inurba_marseille","lat":43.255662,"lon":5.382274,"is_reserved":false,"is_disabled":false,"rental_uris":{"android":"levelo://app?vid=a2766394-d3a8-41d5-bd98-66be90810423","ios":"levelo://app?vid=a2766394-d3a8-41d5-bd98-66be90810423"},"vehicle_type_id":"4","last_reported":1751580582,"current_range_meters":10000,"station_id":"ce4bhih2rcd13ifvqfs0","pricing_plan_id":"cebpf4jnsgd1na2vs0mg"},{"bike_id":"058faf69-792d-4448-a055-621685f00526","system_id":"levelo_inurba_marseille","lat":43.257199,"lon":5.410976,"is_reserved":false,"is_disabled":false,"rental_uris":{"android":"levelo://app?vid=058faf69-792d-4448-a055-621685f00526","ios":"levelo://app?vid=058faf69-792d-4448-a055-621685f00526"},"vehicle_type_id":"4","last_reported":1751580582,"current_range_meters":10000,"station_id":"ce4bhkp2rcd13ifvqgd0","pricing_plan_id":"cebpf4jnsgd1na2vs0mg"},{"bike_id":"7f31cae1-9e47-40be-af25-cafa3596a3cd","system_id":"levelo_inurba_marseille","lat":43.25939,"lon":5.40938,"is_reserved":false,"is_disabled":false,"rental_uris":{"android":"levelo://app?vid=7f31cae1-9e47-40be-af25-cafa3596a3cd","ios":"levelo://app?vid=7f31cae1-9e47-40be-af25-cafa3596a3cd"},"vehicle_type_id":"4","last_reported":1751580582,"current_range_meters":10000,"station_id":"ce4bhm92rcd13ifvqglg","pricing_plan_id":"cebpf4jnsgd1na2vs0mg"},{"bike_id":"d6b62197-6deb-4db2-b7b0-96e1249e5aca","system_id":"levelo_inurba_marseille","lat":43.29889,"lon":5.38395,"is_reserved":false,"is_disabled":false,"rental_uris":{"android":"levelo://app?vid=d6b62197-6deb-4db2-b7b0-96e1249e5aca","ios":"levelo://app?vid=d6b62197-6deb-4db2-b7b0-96e1249e5aca"},"vehicle_type_id":"4","last_reported":1751580582,"current_range_meters":10800,"station_id":"","pricing_plan_id":"cebpf4jnsgd1na2vs0mg"},{"bike_id":"a9142125-7d47-42d1-9fee-399bd55022b0","system_id":"levelo_inurba_marseille","lat":43.29866,"lon":5.39737,"is_reserved":false,"is_disabled":false,"rental_uris":{"android":"levelo://app?vid=a9142125-7d47-42d1-9fee-399bd55022b0","ios":"levelo://app?vid=a9142125-7d47-42d1-9fee-399bd55022b0"},"vehicle_type_id":"4","last_reported":1751580582,"current_range_meters":10800,"station_id":"ce4bh0h2rcd13ifvqd50","pricing_plan_id":"cebpf4jnsgd1na2vs0mg"},{"bike_id":"5c01d754-0378-4868-a737-a85916124b56","system_id":"levelo_inurba_marseille","lat":43.28695,"lon":5.37398,"is_reserved":false,"is_disabled":false,"rental_uris":{"android":"levelo://app?vid=5c01d754-0378-4868-a737-a85916124b56","ios":"levelo://app?vid=5c01d754-0378-4868-a737-a85916124b56"},"vehicle_type_id":"4","last_reported":1751580582,"current_range_meters":10800,"station_id":"ce4bh3p2rcd13ifvqdq0","pricing_plan_id":"cebpf4jnsgd1na2vs0mg"},{"bike_id":"d799b321-3a7d-4201-b46e-ffe2ad124f19","system_id":"levelo_inurba_marseille","lat":43.32911,"lon":5.38387,"is_reserved":false,"is_disabled":false,"rental_uris":{"android":"levelo://app?vid=d799b321-3a7d-4201-b46e-ffe2ad124f19","ios":"levelo://app?vid=d799b321-3a7d-4201-b46e-ffe2ad124f19"},"vehicle_type_id":"4","last_reported":1751580582,"current_range_meters":11200,"station_id":"","pricing_plan_id":"cebpf4jnsgd1na2vs0mg"},{"bike_id":"64b0ad2c-c4f8-4dee-b3de-d24017194d6d","system_id":"levelo_inurba_marseille","lat":43.29059,"lon":5.40011,"is_reserved":false,"is_disabled":false,"rental_uris":{"android":"levelo://app?vid=64b0ad2c-c4f8-4dee-b3de-d24017194d6d","ios":"levelo://app?vid=64b0ad2c-c4f8-4dee-b3de-d24017194d6d"},"vehicle_type_id":"4","last_reported":1751580582,"current_range_meters":11200,"station_id":"ce4bh392rcd13ifvqdm0","pricing_plan_id":"cebpf4jnsgd1na2vs0mg"},{"bike_id":"549daa05-2d2c-43a9-b47a-9d9cc06772d3","system_id":"levelo_inurba_marseille","lat":43.287167,"lon":5.379439,"is_reserved":false,"is_disabled":false,"rental_uris":{"android":"levelo://app?vid=549daa05-2d2c-43a9-b47a-9d9cc06772d3","ios":"levelo://app?vid=549daa05-2d2c-43a9-b47a-9d9cc06772d3"},"vehicle_type_id":"4","last_reported":1751580582,"current_range_meters":11200,"station_id":"ce4bh9p2rcd13ifvqec0","pricing_plan_id":"cebpf4jnsgd1na2vs0mg"},{"bike_id":"f2fde3ed-8b69-4cdb-93df-8d61555a9fe0","system_id":"levelo_inurba_marseille","lat":43.30403,"lon":5.41302,"is_reserved":false,"is_disabled":false,"rental_uris":{"android":"levelo://app?vid=f2fde3ed-8b69-4cdb-93df-8d61555a9fe0","ios":"levelo://app?vid=f2fde3ed-8b69-4cdb-93df-8d61555a9fe0"},"vehicle_type_id":"4","last_reported":1751580582,"current_range_meters":11200,"station_id":"ce4bhop2rcd13ifvqh8g","pricing_plan_id":"cebpf4jnsgd1na2vs0mg"},{"bike_id":"7a7b4009-8d72-41a5-aa79-5072d93250ee","system_id":"levelo_inurba_marseille","lat":43.30793,"lon":5.43524,"is_reserved":false,"is_disabled":false,"rental_uris":{"android":"levelo://app?vid=7a7b4009-8d72-41a5-aa79-5072d93250ee","ios":"levelo://app?vid=7a7b4009-8d72-41a5-aa79-5072d93250ee"},"vehicle_type_id":"4","last_reported":1751580582,"current_range_meters":11200,"station_id":"ce4bhph2rcd13ifvqheg","pricing_plan_id":"cebpf4jnsgd1na2vs0mg"},{"bike_id":"78ed25b4-6668-42ad-a617-8fb9cde9a11a","system_id":"levelo_inurba_marseille","lat":43.318933,"lon":5.407228,"is_reserved":false,"is_disabled":false,"rental_uris":{"android":"levelo://app?vid=78ed25b4-6668-42ad-a617-8fb9cde9a11a","ios":"levelo://app?vid=78ed25b4-6668-42ad-a617-8fb9cde9a11a"},"vehicle_type_id":"4","last_reported":1751580582,"current_range_meters":11200,"station_id":"ce4bhq12rcd13ifvqhig","pricing_plan_id":"cebpf4jnsgd1na2vs0mg"},{"bike_id":"3cda155b-8656-4bf1-861c-9c28b9e12bc7","system_id":"levelo_inurba_marseille","lat":43.28732,"lon":5.36095,"is_reserved":false,"is_disabled":false,"rental_uris":{"android":"levelo://app?vid=3cda155b-8656-4bf1-861c-9c28b9e12bc7","ios":"levelo://app?vid=3cda155b-8656-4bf1-861c-9c28b9e12bc7"},"vehicle_type_id":"4","last_reported":1751580582,"current_range_meters":11200,"station_id":"cki0cbj6b192h4jlfktg","pricing_plan_id":"cebpf4jnsgd1na2vs0mg"},{"bike_id":"a588469b-12ca-41c6-8c6f-3f3bda5b7f15","system_id":"levelo_inurba_marseille","lat":43.31566,"lon":5.38376,"is_reserved":false,"is_disabled":false,"rental_uris":{"android":"levelo://app?vid=a588469b-12ca-41c6-8c6f-3f3bda5b7f15","ios":"levelo://app?vid=a588469b-12ca-41c6-8c6f-3f3bda5b7f15"},"vehicle_type_id":"4","last_reported":1751580582,"current_range_meters":11600,"station_id":"","pricing_plan_id":"cebpf4jnsgd1na2vs0mg"},{"bike_id":"fa8c2a25-9e39-4dd2-a9fa-eef1cdd69c59","system_id":"levelo_inurba_marseille","lat":43.31174,"lon":5.3871,"is_reserved":false,"is_disabled":false,"rental_uris":{"android":"levelo://app?vid=fa8c2a25-9e39-4dd2-a9fa-eef1cdd69c59","ios":"levelo://app?vid=fa8c2a25-9e39-4dd2-a9fa-eef1cdd69c59"},"vehicle_type_id":"4","last_reported":1751580582,"current_range_meters":11600,"station_id":"ce4bgv12rcd13ifvqcp0","pricing_plan_id":"cebpf4jnsgd1na2vs0mg"},{"bike_id":"3bd11fd0-d1ae-4661-9ec2-cc6447bb9402","system_id":"levelo_inurba_marseille","lat":43.29572,"lon":5.39988,"is_reserved":false,"is_disabled":false,"rental_uris":{"android":"levelo://app?vid=3bd11fd0-d1ae-4661-9ec2-cc6447bb9402","ios":"levelo://app?vid=3bd11fd0-d1ae-4661-9ec2-cc6447bb9402"},"vehicle_type_id":"4","last_reported":1751580582,"current_range_meters":11600,"station_id":"ce4bh312rcd13ifvqdj0","pricing_plan_id":"cebpf4jnsgd1na2vs0mg"},{"bike_id":"e18b8aa3-a9fc-4a5b-8a5d-71b0d5ec63ab","system_id":"levelo_inurba_marseille","lat":43.29564,"lon":5.39976,"is_reserved":false,"is_disabled":false,"rental_uris":{"android":"levelo://app?vid=e18b8aa3-a9fc-4a5b-8a5d-71b0d5ec63ab","ios":"levelo://app?vid=e18b8aa3-a9fc-4a5b-8a5d-71b0d5ec63ab"},"vehicle_type_id":"4","last_reported":1751580582,"current_range_meters":11600,"station_id":"ce4bh312rcd13ifvqdj0","pricing_plan_id":"cebpf4jnsgd1na2vs0mg"},{"bike_id":"cd08d06e-accc-49f7-a9b3-c92ed4d030ca","system_id":"levelo_inurba_marseille","lat":43.25115,"lon":5.40315,"is_reserved":false,"is_disabled":false,"rental_uris":{"android":"levelo://app?vid=cd08d06e-accc-49f7-a9b3-c92ed4d030ca","ios":"levelo://app?vid=cd08d06e-accc-49f7-a9b3-c92ed4d030ca"},"vehicle_type_id":"4","last_reported":1751580582,"current_range_meters":11600,"station_id":"ce4bhlh2rcd13ifvqgig","pricing_plan_id":"cebpf4jnsgd1na2vs0mg"},{"bike_id":"41a593bc-5640-40e7-b6ba-1eedb0758833","system_id":"levelo_inurba_marseille","lat":43.27938,"lon":5.410476,"is_reserved":false,"is_disabled":false,"rental_uris":{"android":"levelo://app?vid=41a593bc-5640-40e7-b6ba-1eedb0758833","ios":"levelo://app?vid=41a593bc-5640-40e7-b6ba-1eedb0758833"},"vehicle_type_id":"4","last_reported":1751580582,"current_range_meters":11600,"station_id":"ce4bhnp2rcd13ifvqh0g","pricing_plan_id":"cebpf4jnsgd1na2vs0mg"},{"bike_id":"309b6f0e-4cec-4ae9-822c-1e7b667ad806","system_id":"levelo_inurba_marseille","lat":43.27999,"lon":5.41663,"is_reserved":false,"is_disabled":false,"rental_uris":{"android":"levelo://app?vid=309b6f0e-4cec-4ae9-822c-1e7b667ad806","ios":"levelo://app?vid=309b6f0e-4cec-4ae9-822c-1e7b667ad806"},"vehicle_type_id":"4","last_reported":1751580582,"current_range_meters":11600,"station_id":"ce4bho12rcd13ifvqh1g","pricing_plan_id":"cebpf4jnsgd1na2vs0mg"},{"bike_id":"2f80f1c2-f2f0-48e6-9ef3-2b3667cc68dd","system_id":"levelo_inurba_marseille","lat":43.2844,"lon":5.39193,"is_reserved":false,"is_disabled":false,"rental_uris":{"android":"levelo://app?vid=2f80f1c2-f2f0-48e6-9ef3-2b3667cc68dd","ios":"levelo://app?vid=2f80f1c2-f2f0-48e6-9ef3-2b3667cc68dd"},"vehicle_type_id":"4","last_reported":1751580582,"current_range_meters":11600,"station_id":"ce4bhoh2rcd13ifvqh5g","pricing_plan_id":"cebpf4jnsgd1na2vs0mg"},{"bike_id":"d91ca596-b2d6-4e09-8836-d0eafcb2a1b8","system_id":"levelo_inurba_marseille","lat":43.29787,"lon":5.39334,"is_reserved":false,"is_disabled":false,"rental_uris":{"android":"levelo://app?vid=d91ca596-b2d6-4e09-8836-d0eafcb2a1b8","ios":"levelo://app?vid=d91ca596-b2d6-4e09-8836-d0eafcb2a1b8"},"vehicle_type_id":"4","last_reported":1751580582,"current_range_meters":11600,"station_id":"chh1huq6cuj3fo74tm60","pricing_plan_id":"cebpf4jnsgd1na2vs0mg"},{"bike_id":"912d67f3-78e7-48fd-8929-37f0572cfee4","system_id":"levelo_inurba_marseille","lat":43.26369,"lon":5.37424,"is_reserved":false,"is_disabled":false,"rental_uris":{"android":"levelo://app?vid=912d67f3-78e7-48fd-8929-37f0572cfee4","ios":"levelo://app?vid=912d67f3-78e7-48fd-8929-37f0572cfee4"},"vehicle_type_id":"4","last_reported":1751580582,"current_range_meters":12000,"station_id":"","pricing_plan_id":"cebpf4jnsgd1na2vs0mg"},{"bike_id":"ee0cc1e6-2823-4bc6-878e-ec5c4f54f741","system_id":"levelo_inurba_marseille","lat":43.31114,"lon":5.37771,"is_reserved":false,"is_disabled":false,"rental_uris":{"android":"levelo://app?vid=ee0cc1e6-2823-4bc6-878e-ec5c4f54f741","ios":"levelo://app?vid=ee0cc1e6-2823-4bc6-878e-ec5c4f54f741"},"vehicle_type_id":"4","last_reported":1751580582,"current_range_meters":12000,"station_id":"ce4bgt92rcd13ifvqcg0","pricing_plan_id":"cebpf4jnsgd1na2vs0mg"},{"bike_id":"b1570960-c57b-4107-80c3-80b48b8902d9","system_id":"levelo_inurba_marseille","lat":43.31069,"lon":5.38354,"is_reserved":false,"is_disabled":false,"rental_uris":{"android":"levelo://app?vid=b1570960-c57b-4107-80c3-80b48b8902d9","ios":"levelo://app?vid=b1570960-c57b-4107-80c3-80b48b8902d9"},"vehicle_type_id":"4","last_reported":1751580582,"current_range_meters":12000,"station_id":"ce4bgv92rcd13ifvqcr0","pricing_plan_id":"cebpf4jnsgd1na2vs0mg"},{"bike_id":"543aa2fd-46ca-488c-a54b-a917ff397dad","system_id":"levelo_inurba_marseille","lat":43.29868,"lon":5.39731,"is_reserved":false,"is_disabled":false,"rental_uris":{"android":"levelo://app?vid=543aa2fd-46ca-488c-a54b-a917ff397dad","ios":"levelo://app?vid=543aa2fd-46ca-488c-a54b-a917ff397dad"},"vehicle_type_id":"4","last_reported":1751580582,"current_range_meters":12000,"station_id":"ce4bh0h2rcd13ifvqd50","pricing_plan_id":"cebpf4jnsgd1na2vs0mg"},{"bike_id":"1c8d68d9-67e4-4f30-af23-edeeb106a1e7","system_id":"levelo_inurba_marseille","lat":43.29627,"lon":5.40599,"is_reserved":false,"is_disabled":false,"rental_uris":{"android":"levelo://app?vid=1c8d68d9-67e4-4f30-af23-edeeb106a1e7","ios":"levelo://app?vid=1c8d68d9-67e4-4f30-af23-edeeb106a1e7"},"vehicle_type_id":"4","last_reported":1751580582,"current_range_meters":12000,"station_id":"ce4bh0h2rcd13ifvqd60","pricing_plan_id":"cebpf4jnsgd1na2vs0mg"},{"bike_id":"4b2efbb6-f3ae-4b88-b9e5-2948db824e7d","system_id":"levelo_inurba_marseille","lat":43.29632,"lon":5.39489,"is_reserved":false,"is_disabled":false,"rental_uris":{"android":"levelo://app?vid=4b2efbb6-f3ae-4b88-b9e5-2948db824e7d","ios":"levelo://app?vid=4b2efbb6-f3ae-4b88-b9e5-2948db824e7d"},"vehicle_type_id":"4","last_reported":1751580582,"current_range_meters":12400,"station_id":"","pricing_plan_id":"cebpf4jnsgd1na2vs0mg"},{"bike_id":"224b72a6-0e4f-4a69-90cc-4a57d4d19a82","system_id":"levelo_inurba_marseille","lat":43.30138,"lon":5.38078,"is_reserved":false,"is_disabled":false,"rental_uris":{"android":"levelo://app?vid=224b72a6-0e4f-4a69-90cc-4a57d4d19a82","ios":"levelo://app?vid=224b72a6-0e4f-4a69-90cc-4a57d4d19a82"},"vehicle_type_id":"4","last_reported":1751580582,"current_range_meters":12400,"station_id":"ce4bgjp2rcd13ifvqbh0","pricing_plan_id":"cebpf4jnsgd1na2vs0mg"},{"bike_id":"061169ad-fdb6-419d-8832-e962fbdc2222","system_id":"levelo_inurba_marseille","lat":43.30215,"lon":5.39476,"is_reserved":false,"is_disabled":false,"rental_uris":{"android":"levelo://app?vid=061169ad-fdb6-419d-8832-e962fbdc2222","ios":"levelo://app?vid=061169ad-fdb6-419d-8832-e962fbdc2222"},"vehicle_type_id":"4","last_reported":1751580582,"current_range_meters":12400,"station_id":"ce4bh0p2rcd13ifvqd70","pricing_plan_id":"cebpf4jnsgd1na2vs0mg"},{"bike_id":"1a79b43c-aeef-41d6-9596-3fb6c627a0bc","system_id":"levelo_inurba_marseille","lat":43.30091,"lon":5.39082,"is_reserved":false,"is_disabled":false,"rental_uris":{"android":"levelo://app?vid=1a79b43c-aeef-41d6-9596-3fb6c627a0bc","ios":"levelo://app?vid=1a79b43c-aeef-41d6-9596-3fb6c627a0bc"},"vehicle_type_id":"4","last_reported":1751580582,"current_range_meters":12400,"station_id":"ce4bh192rcd13ifvqdb0","pricing_plan_id":"cebpf4jnsgd1na2vs0mg"},{"bike_id":"5c0d8db9-1f0a-4bfe-b5b5-8af8b09fbb1e","system_id":"levelo_inurba_marseille","lat":43.28418,"lon":5.349806,"is_reserved":false,"is_disabled":false,"rental_uris":{"android":"levelo://app?vid=5c0d8db9-1f0a-4bfe-b5b5-8af8b09fbb1e","ios":"levelo://app?vid=5c0d8db9-1f0a-4bfe-b5b5-8af8b09fbb1e"},"vehicle_type_id":"4","last_reported":1751580582,"current_range_meters":12400,"station_id":"ce4bhbh2rcd13ifvqepg","pricing_plan_id":"cebpf4jnsgd1na2vs0mg"},{"bike_id":"fac70211-9c41-4d66-988d-cc70f2f759e1","system_id":"levelo_inurba_marseille","lat":43.25119,"lon":5.40323,"is_reserved":false,"is_disabled":false,"rental_uris":{"android":"levelo://app?vid=fac70211-9c41-4d66-988d-cc70f2f759e1","ios":"levelo://app?vid=fac70211-9c41-4d66-988d-cc70f2f759e1"},"vehicle_type_id":"4","last_reported":1751580582,"current_range_meters":12400,"station_id":"ce4bhlh2rcd13ifvqgig","pricing_plan_id":"cebpf4jnsgd1na2vs0mg"},{"bike_id":"e0d92533-0c5d-49c0-be18-b1feeff88918","system_id":"levelo_inurba_marseille","lat":43.31885,"lon":5.40739,"is_reserved":false,"is_disabled":false,"rental_uris":{"android":"levelo://app?vid=e0d92533-0c5d-49c0-be18-b1feeff88918","ios":"levelo://app?vid=e0d92533-0c5d-49c0-be18-b1feeff88918"},"vehicle_type_id":"4","last_reported":1751580582,"current_range_meters":12400,"station_id":"ce4bhq12rcd13ifvqhig","pricing_plan_id":"cebpf4jnsgd1na2vs0mg"},{"bike_id":"e951f2eb-ef78-4738-9fec-b6b4c36d267c","system_id":"levelo_inurba_marseille","lat":43.29522,"lon":5.39037,"is_reserved":false,"is_disabled":false,"rental_uris":{"android":"levelo://app?vid=e951f2eb-ef78-4738-9fec-b6b4c36d267c","ios":"levelo://app?vid=e951f2eb-ef78-4738-9fec-b6b4c36d267c"},"vehicle_type_id":"4","last_reported":1751580582,"current_range_meters":12800,"station_id":"ce4bh3p2rcd13ifvqdp0","pricing_plan_id":"cebpf4jnsgd1na2vs0mg"},{"bike_id":"3d513bcd-92bb-4303-8df5-e2cc921cd4b6","system_id":"levelo_inurba_marseille","lat":43.27844,"lon":5.39226,"is_reserved":false,"is_disabled":false,"rental_uris":{"android":"levelo://app?vid=3d513bcd-92bb-4303-8df5-e2cc921cd4b6","ios":"levelo://app?vid=3d513bcd-92bb-4303-8df5-e2cc921cd4b6"},"vehicle_type_id":"4","last_reported":1751580582,"current_range_meters":12800,"station_id":"ce4bhjp2rcd13ifvqga0","pricing_plan_id":"cebpf4jnsgd1na2vs0mg"},{"bike_id":"ba154a12-11bd-42a5-958a-5992f5d043d1","system_id":"levelo_inurba_marseille","lat":43.30504,"lon":5.37073,"is_reserved":false,"is_disabled":false,"rental_uris":{"android":"levelo://app?vid=ba154a12-11bd-42a5-958a-5992f5d043d1","ios":"levelo://app?vid=ba154a12-11bd-42a5-958a-5992f5d043d1"},"vehicle_type_id":"4","last_reported":1751580582,"current_range_meters":13600,"station_id":"","pricing_plan_id":"cebpf4jnsgd1na2vs0mg"},{"bike_id":"57ad81a2-1e8c-4bb9-80cf-c9e7538acd5e","system_id":"levelo_inurba_marseille","lat":43.258578,"lon":5.39906,"is_reserved":false,"is_disabled":false,"rental_uris":{"android":"levelo://app?vid=57ad81a2-1e8c-4bb9-80cf-c9e7538acd5e","ios":"levelo://app?vid=57ad81a2-1e8c-4bb9-80cf-c9e7538acd5e"},"vehicle_type_id":"4","last_reported":1751580582,"current_range_meters":13600,"station_id":"ce4bhl92rcd13ifvqghg","pricing_plan_id":"cebpf4jnsgd1na2vs0mg"},{"bike_id":"e76234b6-f4ac-45d1-89ac-176f87d29ddd","system_id":"levelo_inurba_marseille","lat":43.25115,"lon":5.40321,"is_reserved":false,"is_disabled":false,"rental_uris":{"android":"levelo://app?vid=e76234b6-f4ac-45d1-89ac-176f87d29ddd","ios":"levelo://app?vid=e76234b6-f4ac-45d1-89ac-176f87d29ddd"},"vehicle_type_id":"4","last_reported":1751580582,"current_range_meters":13600,"station_id":"ce4bhlh2rcd13ifvqgig","pricing_plan_id":"cebpf4jnsgd1na2vs0mg"},{"bike_id":"e5228cc9-ca8f-4672-9f52-ed0f52d11e79","system_id":"levelo_inurba_marseille","lat":43.30601,"lon":5.3722,"is_reserved":false,"is_disabled":false,"rental_uris":{"android":"levelo://app?vid=e5228cc9-ca8f-4672-9f52-ed0f52d11e79","ios":"levelo://app?vid=e5228cc9-ca8f-4672-9f52-ed0f52d11e79"},"vehicle_type_id":"4","last_reported":1751580582,"current_range_meters":14000,"station_id":"ce4bgqh2rcd13ifvqc4g","pricing_plan_id":"cebpf4jnsgd1na2vs0mg"},{"bike_id":"75f5fd5c-1ff6-4dc2-a54a-994b7d4dd69a","system_id":"levelo_inurba_marseille","lat":43.24072,"lon":5.37761,"is_reserved":false,"is_disabled":false,"rental_uris":{"android":"levelo://app?vid=75f5fd5c-1ff6-4dc2-a54a-994b7d4dd69a","ios":"levelo://app?vid=75f5fd5c-1ff6-4dc2-a54a-994b7d4dd69a"},"vehicle_type_id":"4","last_reported":1751580582,"current_range_meters":14000,"station_id":"ce4bhnp2rcd13ifvqgvg","pricing_plan_id":"cebpf4jnsgd1na2vs0mg"},{"bike_id":"0254542f-fbde-4946-aabe-d15ba69aae8c","system_id":"levelo_inurba_marseille","lat":43.28721,"lon":5.36084,"is_reserved":false,"is_disabled":false,"rental_uris":{"android":"levelo://app?vid=0254542f-fbde-4946-aabe-d15ba69aae8c","ios":"levelo://app?vid=0254542f-fbde-4946-aabe-d15ba69aae8c"},"vehicle_type_id":"4","last_reported":1751580582,"current_range_meters":14000,"station_id":"cki0cbj6b192h4jlfktg","pricing_plan_id":"cebpf4jnsgd1na2vs0mg"},{"bike_id":"a10f52d5-f0b3-4e38-8e1b-891c225cb35e","system_id":"levelo_inurba_marseille","lat":43.212,"lon":5.35074,"is_reserved":false,"is_disabled":false,"rental_uris":{"android":"levelo://app?vid=a10f52d5-f0b3-4e38-8e1b-891c225cb35e","ios":"levelo://app?vid=a10f52d5-f0b3-4e38-8e1b-891c225cb35e"},"vehicle_type_id":"4","last_reported":1751580582,"current_range_meters":14000,"station_id":"st_cvj6sg6p6f1abm77japg","pricing_plan_id":"cebpf4jnsgd1na2vs0mg"},{"bike_id":"37b84a38-055a-4a6e-a56a-8ff3d0c1b2ec","system_id":"levelo_inurba_marseille","lat":43.21195,"lon":5.35078,"is_reserved":false,"is_disabled":false,"rental_uris":{"android":"levelo://app?vid=37b84a38-055a-4a6e-a56a-8ff3d0c1b2ec","ios":"levelo://app?vid=37b84a38-055a-4a6e-a56a-8ff3d0c1b2ec"},"vehicle_type_id":"4","last_reported":1751580582,"current_range_meters":14000,"station_id":"st_cvj6sg6p6f1abm77japg","pricing_plan_id":"cebpf4jnsgd1na2vs0mg"},{"bike_id":"d6a97fc8-7c5d-4b77-9d38-d22003db8fe5","system_id":"levelo_inurba_marseille","lat":43.34721,"lon":5.36602,"is_reserved":false,"is_disabled":false,"rental_uris":{"android":"levelo://app?vid=d6a97fc8-7c5d-4b77-9d38-d22003db8fe5","ios":"levelo://app?vid=d6a97fc8-7c5d-4b77-9d38-d22003db8fe5"},"vehicle_type_id":"4","last_reported":1751580582,"current_range_meters":14400,"station_id":"","pricing_plan_id":"cebpf4jnsgd1na2vs0mg"},{"bike_id":"e0f64dbe-e4a5-4278-96bc-feaf3ec88ec7","system_id":"levelo_inurba_marseille","lat":43.29377,"lon":5.37847,"is_reserved":false,"is_disabled":false,"rental_uris":{"android":"levelo://app?vid=e0f64dbe-e4a5-4278-96bc-feaf3ec88ec7","ios":"levelo://app?vid=e0f64dbe-e4a5-4278-96bc-feaf3ec88ec7"},"vehicle_type_id":"4","last_reported":1751580582,"current_range_meters":14400,"station_id":"ce4bgjh2rcd13ifvqbf0","pricing_plan_id":"cebpf4jnsgd1na2vs0mg"},{"bike_id":"40b50203-e628-4d2f-95c1-9ebda47422c8","system_id":"levelo_inurba_marseille","lat":43.29627,"lon":5.40594,"is_reserved":false,"is_disabled":false,"rental_uris":{"android":"levelo://app?vid=40b50203-e628-4d2f-95c1-9ebda47422c8","ios":"levelo://app?vid=40b50203-e628-4d2f-95c1-9ebda47422c8"},"vehicle_type_id":"4","last_reported":1751580582,"current_range_meters":14400,"station_id":"ce4bh0h2rcd13ifvqd60","pricing_plan_id":"cebpf4jnsgd1na2vs0mg"},{"bike_id":"f2d1945a-625c-433b-8fdd-844f4394e949","system_id":"levelo_inurba_marseille","lat":43.3171,"lon":5.43729,"is_reserved":false,"is_disabled":false,"rental_uris":{"android":"levelo://app?vid=f2d1945a-625c-433b-8fdd-844f4394e949","ios":"levelo://app?vid=f2d1945a-625c-433b-8fdd-844f4394e949"},"vehicle_type_id":"4","last_reported":1751580582,"current_range_meters":14400,"station_id":"ce4bhp92rcd13ifvqhcg","pricing_plan_id":"cebpf4jnsgd1na2vs0mg"},{"bike_id":"4d4995e7-0bba-4ac2-a238-afd84a5e99b5","system_id":"levelo_inurba_marseille","lat":43.304848,"lon":5.398345,"is_reserved":false,"is_disabled":false,"rental_uris":{"android":"levelo://app?vid=4d4995e7-0bba-4ac2-a238-afd84a5e99b5","ios":"levelo://app?vid=4d4995e7-0bba-4ac2-a238-afd84a5e99b5"},"vehicle_type_id":"4","last_reported":1751580582,"current_range_meters":14800,"station_id":"","pricing_plan_id":"cebpf4jnsgd1na2vs0mg"},{"bike_id":"175513bb-dce2-48e2-83c8-1e9f1cb23cd0","system_id":"levelo_inurba_marseille","lat":43.286255,"lon":5.412651,"is_reserved":false,"is_disabled":false,"rental_uris":{"android":"levelo://app?vid=175513bb-dce2-48e2-83c8-1e9f1cb23cd0","ios":"levelo://app?vid=175513bb-dce2-48e2-83c8-1e9f1cb23cd0"},"vehicle_type_id":"4","last_reported":1751580582,"current_range_meters":14800,"station_id":"","pricing_plan_id":"cebpf4jnsgd1na2vs0mg"},{"bike_id":"204271ad-8b0d-47ec-9b94-8217dc405382","system_id":"levelo_inurba_marseille","lat":43.29015,"lon":5.3865,"is_reserved":false,"is_disabled":false,"rental_uris":{"android":"levelo://app?vid=204271ad-8b0d-47ec-9b94-8217dc405382","ios":"levelo://app?vid=204271ad-8b0d-47ec-9b94-8217dc405382"},"vehicle_type_id":"4","last_reported":1751580582,"current_range_meters":14800,"station_id":"ce4bh4p2rcd13ifvqe0g","pricing_plan_id":"cebpf4jnsgd1na2vs0mg"},{"bike_id":"b0202117-9aab-4165-afc9-a67a7c8116b3","system_id":"levelo_inurba_marseille","lat":43.28862,"lon":5.35851,"is_reserved":false,"is_disabled":false,"rental_uris":{"android":"levelo://app?vid=b0202117-9aab-4165-afc9-a67a7c8116b3","ios":"levelo://app?vid=b0202117-9aab-4165-afc9-a67a7c8116b3"},"vehicle_type_id":"4","last_reported":1751580582,"current_range_meters":14800,"station_id":"ce4bhb12rcd13ifvqem0","pricing_plan_id":"cebpf4jnsgd1na2vs0mg"},{"bike_id":"a6715104-7492-4ec6-a996-23050baf8551","system_id":"levelo_inurba_marseille","lat":43.22522,"lon":5.34806,"is_reserved":false,"is_disabled":false,"rental_uris":{"android":"levelo://app?vid=a6715104-7492-4ec6-a996-23050baf8551","ios":"levelo://app?vid=a6715104-7492-4ec6-a996-23050baf8551"},"vehicle_type_id":"4","last_reported":1751580582,"current_range_meters":14800,"station_id":"st_cvj5dfep6f1abm77gieg","pricing_plan_id":"cebpf4jnsgd1na2vs0mg"},{"bike_id":"e4dafd77-f61f-4861-a5dd-89fe40ddaa56","system_id":"levelo_inurba_marseille","lat":43.30888,"lon":5.39661,"is_reserved":false,"is_disabled":false,"rental_uris":{"android":"levelo://app?vid=e4dafd77-f61f-4861-a5dd-89fe40ddaa56","ios":"levelo://app?vid=e4dafd77-f61f-4861-a5dd-89fe40ddaa56"},"vehicle_type_id":"4","last_reported":1751580582,"current_range_meters":15200,"station_id":"","pricing_plan_id":"cebpf4jnsgd1na2vs0mg"},{"bike_id":"0c4b7fdb-b39e-49b3-a2b0-ae3d0f43e89d","system_id":"levelo_inurba_marseille","lat":43.32907,"lon":5.40578,"is_reserved":false,"is_disabled":false,"rental_uris":{"android":"levelo://app?vid=0c4b7fdb-b39e-49b3-a2b0-ae3d0f43e89d","ios":"levelo://app?vid=0c4b7fdb-b39e-49b3-a2b0-ae3d0f43e89d"},"vehicle_type_id":"4","last_reported":1751580582,"current_range_meters":15200,"station_id":"","pricing_plan_id":"cebpf4jnsgd1na2vs0mg"},{"bike_id":"6dbfa98c-6c99-481c-a040-9636502f5354","system_id":"levelo_inurba_marseille","lat":43.29191,"lon":5.39319,"is_reserved":false,"is_disabled":false,"rental_uris":{"android":"levelo://app?vid=6dbfa98c-6c99-481c-a040-9636502f5354","ios":"levelo://app?vid=6dbfa98c-6c99-481c-a040-9636502f5354"},"vehicle_type_id":"4","last_reported":1751580582,"current_range_meters":15200,"station_id":"ce4bh192rcd13ifvqdd0","pricing_plan_id":"cebpf4jnsgd1na2vs0mg"},{"bike_id":"80973405-e9e4-4445-a2cc-5c403423d144","system_id":"levelo_inurba_marseille","lat":43.25114,"lon":5.40336,"is_reserved":false,"is_disabled":false,"rental_uris":{"android":"levelo://app?vid=80973405-e9e4-4445-a2cc-5c403423d144","ios":"levelo://app?vid=80973405-e9e4-4445-a2cc-5c403423d144"},"vehicle_type_id":"4","last_reported":1751580582,"current_range_meters":15200,"station_id":"ce4bhlh2rcd13ifvqgig","pricing_plan_id":"cebpf4jnsgd1na2vs0mg"},{"bike_id":"36d4a47d-5bc2-41dc-bc6f-a24f306ec808","system_id":"levelo_inurba_marseille","lat":43.2418,"lon":5.39741,"is_reserved":false,"is_disabled":false,"rental_uris":{"android":"levelo://app?vid=36d4a47d-5bc2-41dc-bc6f-a24f306ec808","ios":"levelo://app?vid=36d4a47d-5bc2-41dc-bc6f-a24f306ec808"},"vehicle_type_id":"4","last_reported":1751580582,"current_range_meters":15200,"station_id":"ce4bhn12rcd13ifvqgpg","pricing_plan_id":"cebpf4jnsgd1na2vs0mg"},{"bike_id":"de3dface-30ca-4251-b9fa-d2e3b8c52723","system_id":"levelo_inurba_marseille","lat":43.31712,"lon":5.43705,"is_reserved":false,"is_disabled":false,"rental_uris":{"android":"levelo://app?vid=de3dface-30ca-4251-b9fa-d2e3b8c52723","ios":"levelo://app?vid=de3dface-30ca-4251-b9fa-d2e3b8c52723"},"vehicle_type_id":"4","last_reported":1751580582,"current_range_meters":15200,"station_id":"ce4bhp92rcd13ifvqhcg","pricing_plan_id":"cebpf4jnsgd1na2vs0mg"},{"bike_id":"dfbce5f2-d4be-4fb4-b96e-89f73ba79196","system_id":"levelo_inurba_marseille","lat":43.21187,"lon":5.35092,"is_reserved":false,"is_disabled":false,"rental_uris":{"android":"levelo://app?vid=dfbce5f2-d4be-4fb4-b96e-89f73ba79196","ios":"levelo://app?vid=dfbce5f2-d4be-4fb4-b96e-89f73ba79196"},"vehicle_type_id":"4","last_reported":1751580582,"current_range_meters":15200,"station_id":"st_cvj6sg6p6f1abm77japg","pricing_plan_id":"cebpf4jnsgd1na2vs0mg"},{"bike_id":"b9728e86-325c-43d1-ae98-759ac18ecc6d","system_id":"levelo_inurba_marseille","lat":43.279138,"lon":5.39576,"is_reserved":false,"is_disabled":false,"rental_uris":{"android":"levelo://app?vid=b9728e86-325c-43d1-ae98-759ac18ecc6d","ios":"levelo://app?vid=b9728e86-325c-43d1-ae98-759ac18ecc6d"},"vehicle_type_id":"4","last_reported":1751580582,"current_range_meters":16000,"station_id":"ce4bhf92rcd13ifvqf40","pricing_plan_id":"cebpf4jnsgd1na2vs0mg"},{"bike_id":"13d1f69d-e5b1-4427-8ee6-7932898b0111","system_id":"levelo_inurba_marseille","lat":43.24994,"lon":5.38936,"is_reserved":false,"is_disabled":false,"rental_uris":{"android":"levelo://app?vid=13d1f69d-e5b1-4427-8ee6-7932898b0111","ios":"levelo://app?vid=13d1f69d-e5b1-4427-8ee6-7932898b0111"},"vehicle_type_id":"4","last_reported":1751580582,"current_range_meters":16000,"station_id":"ce4bhgp2rcd13ifvqfd0","pricing_plan_id":"cebpf4jnsgd1na2vs0mg"},{"bike_id":"6ee47da4-9cb7-4584-be45-580a2eecea99","system_id":"levelo_inurba_marseille","lat":43.25511,"lon":5.37661,"is_reserved":false,"is_disabled":false,"rental_uris":{"android":"levelo://app?vid=6ee47da4-9cb7-4584-be45-580a2eecea99","ios":"levelo://app?vid=6ee47da4-9cb7-4584-be45-580a2eecea99"},"vehicle_type_id":"4","last_reported":1751580582,"current_range_meters":16000,"station_id":"ce4bhh12rcd13ifvqff0","pricing_plan_id":"cebpf4jnsgd1na2vs0mg"},{"bike_id":"b42030ca-60da-46b0-984d-50769e5d5ce5","system_id":"levelo_inurba_marseille","lat":43.25075,"lon":5.39539,"is_reserved":false,"is_disabled":false,"rental_uris":{"android":"levelo://app?vid=b42030ca-60da-46b0-984d-50769e5d5ce5","ios":"levelo://app?vid=b42030ca-60da-46b0-984d-50769e5d5ce5"},"vehicle_type_id":"4","last_reported":1751580582,"current_range_meters":16000,"station_id":"ce4bhm12rcd13ifvqgkg","pricing_plan_id":"cebpf4jnsgd1na2vs0mg"},{"bike_id":"9046cd87-a5b8-4a88-b03d-053f628cf0c1","system_id":"levelo_inurba_marseille","lat":43.28696,"lon":5.39983,"is_reserved":false,"is_disabled":false,"rental_uris":{"android":"levelo://app?vid=9046cd87-a5b8-4a88-b03d-053f628cf0c1","ios":"levelo://app?vid=9046cd87-a5b8-4a88-b03d-053f628cf0c1"},"vehicle_type_id":"4","last_reported":1751580582,"current_range_meters":16000,"station_id":"ce4bho92rcd13ifvqh3g","pricing_plan_id":"cebpf4jnsgd1na2vs0mg"},{"bike_id":"128e77bc-3ff4-406d-8ec1-0217c8ce3733","system_id":"levelo_inurba_marseille","lat":43.28441,"lon":5.39209,"is_reserved":false,"is_disabled":false,"rental_uris":{"android":"levelo://app?vid=128e77bc-3ff4-406d-8ec1-0217c8ce3733","ios":"levelo://app?vid=128e77bc-3ff4-406d-8ec1-0217c8ce3733"},"vehicle_type_id":"4","last_reported":1751580582,"current_range_meters":16000,"station_id":"ce4bhoh2rcd13ifvqh5g","pricing_plan_id":"cebpf4jnsgd1na2vs0mg"},{"bike_id":"5e197122-e8ec-4f01-b370-6bbfc10c6950","system_id":"levelo_inurba_marseille","lat":43.21181,"lon":5.35081,"is_reserved":false,"is_disabled":false,"rental_uris":{"android":"levelo://app?vid=5e197122-e8ec-4f01-b370-6bbfc10c6950","ios":"levelo://app?vid=5e197122-e8ec-4f01-b370-6bbfc10c6950"},"vehicle_type_id":"4","last_reported":1751580582,"current_range_meters":16000,"station_id":"st_cvj6sg6p6f1abm77japg","pricing_plan_id":"cebpf4jnsgd1na2vs0mg"},{"bike_id":"0c5e46df-9adb-4aa5-842c-17a1961c0106","system_id":"levelo_inurba_marseille","lat":43.27984,"lon":5.40719,"is_reserved":false,"is_disabled":false,"rental_uris":{"android":"levelo://app?vid=0c5e46df-9adb-4aa5-842c-17a1961c0106","ios":"levelo://app?vid=0c5e46df-9adb-4aa5-842c-17a1961c0106"},"vehicle_type_id":"4","last_reported":1751580582,"current_range_meters":16400,"station_id":"","pricing_plan_id":"cebpf4jnsgd1na2vs0mg"},{"bike_id":"d002475a-31d1-49b9-b0c7-d30cada00411","system_id":"levelo_inurba_marseille","lat":43.29525,"lon":5.38551,"is_reserved":false,"is_disabled":false,"rental_uris":{"android":"levelo://app?vid=d002475a-31d1-49b9-b0c7-d30cada00411","ios":"levelo://app?vid=d002475a-31d1-49b9-b0c7-d30cada00411"},"vehicle_type_id":"4","last_reported":1751580582,"current_range_meters":16400,"station_id":"ce4bgih2rcd13ifvqba0","pricing_plan_id":"cebpf4jnsgd1na2vs0mg"},{"bike_id":"01208694-a1ca-4d85-9455-0d3927408213","system_id":"levelo_inurba_marseille","lat":43.29627,"lon":5.40595,"is_reserved":false,"is_disabled":false,"rental_uris":{"android":"levelo://app?vid=01208694-a1ca-4d85-9455-0d3927408213","ios":"levelo://app?vid=01208694-a1ca-4d85-9455-0d3927408213"},"vehicle_type_id":"4","last_reported":1751580582,"current_range_meters":16400,"station_id":"ce4bh0h2rcd13ifvqd60","pricing_plan_id":"cebpf4jnsgd1na2vs0mg"},{"bike_id":"4024f4ff-322d-452d-8996-c30f5807b553","system_id":"levelo_inurba_marseille","lat":43.29193,"lon":5.3933,"is_reserved":false,"is_disabled":false,"rental_uris":{"android":"levelo://app?vid=4024f4ff-322d-452d-8996-c30f5807b553","ios":"levelo://app?vid=4024f4ff-322d-452d-8996-c30f5807b553"},"vehicle_type_id":"4","last_reported":1751580582,"current_range_meters":16400,"station_id":"ce4bh192rcd13ifvqdd0","pricing_plan_id":"cebpf4jnsgd1na2vs0mg"},{"bike_id":"75c51ac4-161a-48f3-817d-4e7e8ef8ace0","system_id":"levelo_inurba_marseille","lat":43.28701,"lon":5.3739,"is_reserved":false,"is_disabled":false,"rental_uris":{"android":"levelo://app?vid=75c51ac4-161a-48f3-817d-4e7e8ef8ace0","ios":"levelo://app?vid=75c51ac4-161a-48f3-817d-4e7e8ef8ace0"},"vehicle_type_id":"4","last_reported":1751580582,"current_range_meters":16400,"station_id":"ce4bh3p2rcd13ifvqdq0","pricing_plan_id":"cebpf4jnsgd1na2vs0mg"},{"bike_id":"538e2e54-0c8d-484b-820f-e75079a752d0","system_id":"levelo_inurba_marseille","lat":43.2871,"lon":5.37949,"is_reserved":false,"is_disabled":false,"rental_uris":{"android":"levelo://app?vid=538e2e54-0c8d-484b-820f-e75079a752d0","ios":"levelo://app?vid=538e2e54-0c8d-484b-820f-e75079a752d0"},"vehicle_type_id":"4","last_reported":1751580582,"current_range_meters":16400,"station_id":"ce4bh9p2rcd13ifvqec0","pricing_plan_id":"cebpf4jnsgd1na2vs0mg"},{"bike_id":"21c822fc-819d-4a78-848e-3070e22963cc","system_id":"levelo_inurba_marseille","lat":43.2802,"lon":5.36934,"is_reserved":false,"is_disabled":false,"rental_uris":{"android":"levelo://app?vid=21c822fc-819d-4a78-848e-3070e22963cc","ios":"levelo://app?vid=21c822fc-819d-4a78-848e-3070e22963cc"},"vehicle_type_id":"4","last_reported":1751580582,"current_range_meters":16400,"station_id":"ce4bha12rcd13ifvqef0","pricing_plan_id":"cebpf4jnsgd1na2vs0mg"},{"bike_id":"b3bdafac-5fdd-4245-9328-43b6d54aec01","system_id":"levelo_inurba_marseille","lat":43.32367,"lon":5.38892,"is_reserved":false,"is_disabled":false,"rental_uris":{"android":"levelo://app?vid=b3bdafac-5fdd-4245-9328-43b6d54aec01","ios":"levelo://app?vid=b3bdafac-5fdd-4245-9328-43b6d54aec01"},"vehicle_type_id":"4","last_reported":1751580582,"current_range_meters":16400,"station_id":"ce4bhqp2rcd13ifvqhog","pricing_plan_id":"cebpf4jnsgd1na2vs0mg"},{"bike_id":"cc04118e-9312-4bf8-9106-d64e829afbaa","system_id":"levelo_inurba_marseille","lat":43.21187,"lon":5.35071,"is_reserved":false,"is_disabled":false,"rental_uris":{"android":"levelo://app?vid=cc04118e-9312-4bf8-9106-d64e829afbaa","ios":"levelo://app?vid=cc04118e-9312-4bf8-9106-d64e829afbaa"},"vehicle_type_id":"4","last_reported":1751580582,"current_range_meters":16400,"station_id":"st_cvj6sg6p6f1abm77japg","pricing_plan_id":"cebpf4jnsgd1na2vs0mg"},{"bike_id":"8734bc42-361e-4c72-9212-27e99f10c61f","system_id":"levelo_inurba_marseille","lat":43.27374,"lon":5.42771,"is_reserved":false,"is_disabled":false,"rental_uris":{"android":"levelo://app?vid=8734bc42-361e-4c72-9212-27e99f10c61f","ios":"levelo://app?vid=8734bc42-361e-4c72-9212-27e99f10c61f"},"vehicle_type_id":"4","last_reported":1751580582,"current_range_meters":16800,"station_id":"","pricing_plan_id":"cebpf4jnsgd1na2vs0mg"},{"bike_id":"1c8ab180-05fd-405f-9922-b2b2c2d5142f","system_id":"levelo_inurba_marseille","lat":43.33739,"lon":5.38129,"is_reserved":false,"is_disabled":false,"rental_uris":{"android":"levelo://app?vid=1c8ab180-05fd-405f-9922-b2b2c2d5142f","ios":"levelo://app?vid=1c8ab180-05fd-405f-9922-b2b2c2d5142f"},"vehicle_type_id":"4","last_reported":1751580582,"current_range_meters":16800,"station_id":"","pricing_plan_id":"cebpf4jnsgd1na2vs0mg"},{"bike_id":"43a5cf4f-5ef8-41f1-994b-4c92327d4573","system_id":"levelo_inurba_marseille","lat":43.29029,"lon":5.38647,"is_reserved":false,"is_disabled":false,"rental_uris":{"android":"levelo://app?vid=43a5cf4f-5ef8-41f1-994b-4c92327d4573","ios":"levelo://app?vid=43a5cf4f-5ef8-41f1-994b-4c92327d4573"},"vehicle_type_id":"4","last_reported":1751580582,"current_range_meters":16800,"station_id":"ce4bh4p2rcd13ifvqe0g","pricing_plan_id":"cebpf4jnsgd1na2vs0mg"},{"bike_id":"020f5e06-5465-45ec-88b6-24095404154a","system_id":"levelo_inurba_marseille","lat":43.26956,"lon":5.40263,"is_reserved":false,"is_disabled":false,"rental_uris":{"android":"levelo://app?vid=020f5e06-5465-45ec-88b6-24095404154a","ios":"levelo://app?vid=020f5e06-5465-45ec-88b6-24095404154a"},"vehicle_type_id":"4","last_reported":1751580582,"current_range_meters":16800,"station_id":"cjm6bp8fraef2m0cb0m0","pricing_plan_id":"cebpf4jnsgd1na2vs0mg"},{"bike_id":"6eebadd3-99fa-48af-8556-1f64731f83a2","system_id":"levelo_inurba_marseille","lat":43.23066,"lon":5.35522,"is_reserved":false,"is_disabled":false,"rental_uris":{"android":"levelo://app?vid=6eebadd3-99fa-48af-8556-1f64731f83a2","ios":"levelo://app?vid=6eebadd3-99fa-48af-8556-1f64731f83a2"},"vehicle_type_id":"4","last_reported":1751580582,"current_range_meters":16800,"station_id":"cpo3342slgdg3j2ifvpg","pricing_plan_id":"cebpf4jnsgd1na2vs0mg"},{"bike_id":"84075b70-d783-4ec8-ac3e-779afdb49418","system_id":"levelo_inurba_marseille","lat":43.29794,"lon":5.40396,"is_reserved":false,"is_disabled":false,"rental_uris":{"android":"levelo://app?vid=84075b70-d783-4ec8-ac3e-779afdb49418","ios":"levelo://app?vid=84075b70-d783-4ec8-ac3e-779afdb49418"},"vehicle_type_id":"4","last_reported":1751580582,"current_range_meters":17200,"station_id":"ce4bh112rcd13ifvqd90","pricing_plan_id":"cebpf4jnsgd1na2vs0mg"},{"bike_id":"334678da-170d-48e6-904c-e59b72c3ec4d","system_id":"levelo_inurba_marseille","lat":43.28705,"lon":5.37934,"is_reserved":false,"is_disabled":false,"rental_uris":{"android":"levelo://app?vid=334678da-170d-48e6-904c-e59b72c3ec4d","ios":"levelo://app?vid=334678da-170d-48e6-904c-e59b72c3ec4d"},"vehicle_type_id":"4","last_reported":1751580582,"current_range_meters":17200,"station_id":"ce4bh9p2rcd13ifvqec0","pricing_plan_id":"cebpf4jnsgd1na2vs0mg"},{"bike_id":"adbc4b6b-92ad-488b-b867-f170e71ab67c","system_id":"levelo_inurba_marseille","lat":43.281002,"lon":5.378303,"is_reserved":false,"is_disabled":false,"rental_uris":{"android":"levelo://app?vid=adbc4b6b-92ad-488b-b867-f170e71ab67c","ios":"levelo://app?vid=adbc4b6b-92ad-488b-b867-f170e71ab67c"},"vehicle_type_id":"4","last_reported":1751580582,"current_range_meters":17200,"station_id":"ce4bha12rcd13ifvqee0","pricing_plan_id":"cebpf4jnsgd1na2vs0mg"},{"bike_id":"a8aa723a-977c-4b3a-a3a0-b6ee0c117309","system_id":"levelo_inurba_marseille","lat":43.23967,"lon":5.36642,"is_reserved":false,"is_disabled":false,"rental_uris":{"android":"levelo://app?vid=a8aa723a-977c-4b3a-a3a0-b6ee0c117309","ios":"levelo://app?vid=a8aa723a-977c-4b3a-a3a0-b6ee0c117309"},"vehicle_type_id":"4","last_reported":1751580582,"current_range_meters":17200,"station_id":"ce4bhi12rcd13ifvqfp0","pricing_plan_id":"cebpf4jnsgd1na2vs0mg"},{"bike_id":"8d44bb93-4d53-4d09-b373-545fed3146c0","system_id":"levelo_inurba_marseille","lat":43.25704,"lon":5.41123,"is_reserved":false,"is_disabled":false,"rental_uris":{"android":"levelo://app?vid=8d44bb93-4d53-4d09-b373-545fed3146c0","ios":"levelo://app?vid=8d44bb93-4d53-4d09-b373-545fed3146c0"},"vehicle_type_id":"4","last_reported":1751580582,"current_range_meters":17200,"station_id":"ce4bhkp2rcd13ifvqgd0","pricing_plan_id":"cebpf4jnsgd1na2vs0mg"},{"bike_id":"27d2bb23-5459-4cca-b975-8aa5f616fa27","system_id":"levelo_inurba_marseille","lat":43.284436,"lon":5.391969,"is_reserved":false,"is_disabled":false,"rental_uris":{"android":"levelo://app?vid=27d2bb23-5459-4cca-b975-8aa5f616fa27","ios":"levelo://app?vid=27d2bb23-5459-4cca-b975-8aa5f616fa27"},"vehicle_type_id":"4","last_reported":1751580582,"current_range_meters":17200,"station_id":"ce4bhoh2rcd13ifvqh5g","pricing_plan_id":"cebpf4jnsgd1na2vs0mg"},{"bike_id":"d7d5b776-bcc7-423d-8a89-6abd09a6c07c","system_id":"levelo_inurba_marseille","lat":43.241563,"lon":5.36403,"is_reserved":false,"is_disabled":false,"rental_uris":{"android":"levelo://app?vid=d7d5b776-bcc7-423d-8a89-6abd09a6c07c","ios":"levelo://app?vid=d7d5b776-bcc7-423d-8a89-6abd09a6c07c"},"vehicle_type_id":"4","last_reported":1751580582,"current_range_meters":17200,"station_id":"cpo36qri1sfpv3e86is0","pricing_plan_id":"cebpf4jnsgd1na2vs0mg"},{"bike_id":"ba926bfc-9632-4680-b0ed-32a040d6fb83","system_id":"levelo_inurba_marseille","lat":43.217656,"lon":5.34587,"is_reserved":false,"is_disabled":false,"rental_uris":{"android":"levelo://app?vid=ba926bfc-9632-4680-b0ed-32a040d6fb83","ios":"levelo://app?vid=ba926bfc-9632-4680-b0ed-32a040d6fb83"},"vehicle_type_id":"4","last_reported":1751580582,"current_range_meters":17200,"station_id":"st_cvj6r9ubvosntc0bgbag","pricing_plan_id":"cebpf4jnsgd1na2vs0mg"},{"bike_id":"415d6a88-b5d1-4253-8bdd-6da01a356d05","system_id":"levelo_inurba_marseille","lat":43.295849,"lon":5.385491,"is_reserved":false,"is_disabled":false,"rental_uris":{"android":"levelo://app?vid=415d6a88-b5d1-4253-8bdd-6da01a356d05","ios":"levelo://app?vid=415d6a88-b5d1-4253-8bdd-6da01a356d05"},"vehicle_type_id":"4","last_reported":1751580582,"current_range_meters":17600,"station_id":"ce4bgih2rcd13ifvqba0","pricing_plan_id":"cebpf4jnsgd1na2vs0mg"},{"bike_id":"ed8c2e6a-f357-41a0-a6fa-32e77b1bce91","system_id":"levelo_inurba_marseille","lat":43.31495,"lon":5.37315,"is_reserved":false,"is_disabled":false,"rental_uris":{"android":"levelo://app?vid=ed8c2e6a-f357-41a0-a6fa-32e77b1bce91","ios":"levelo://app?vid=ed8c2e6a-f357-41a0-a6fa-32e77b1bce91"},"vehicle_type_id":"4","last_reported":1751580582,"current_range_meters":17600,"station_id":"ce4bgt12rcd13ifvqcd0","pricing_plan_id":"cebpf4jnsgd1na2vs0mg"},{"bike_id":"39693f81-d450-48cb-b4ab-16c8b85291a8","system_id":"levelo_inurba_marseille","lat":43.31367,"lon":5.38494,"is_reserved":false,"is_disabled":false,"rental_uris":{"android":"levelo://app?vid=39693f81-d450-48cb-b4ab-16c8b85291a8","ios":"levelo://app?vid=39693f81-d450-48cb-b4ab-16c8b85291a8"},"vehicle_type_id":"4","last_reported":1751580582,"current_range_meters":17600,"station_id":"ce4bgt92rcd13ifvqcf0","pricing_plan_id":"cebpf4jnsgd1na2vs0mg"},{"bike_id":"f92ac15a-8266-484e-b051-5386dd2692b1","system_id":"levelo_inurba_marseille","lat":43.3008,"lon":5.39082,"is_reserved":false,"is_disabled":false,"rental_uris":{"android":"levelo://app?vid=f92ac15a-8266-484e-b051-5386dd2692b1","ios":"levelo://app?vid=f92ac15a-8266-484e-b051-5386dd2692b1"},"vehicle_type_id":"4","last_reported":1751580582,"current_range_meters":17600,"station_id":"ce4bh192rcd13ifvqdb0","pricing_plan_id":"cebpf4jnsgd1na2vs0mg"},{"bike_id":"ba276de4-24fb-45a6-bb36-3ebf97f018f9","system_id":"levelo_inurba_marseille","lat":43.29428,"lon":5.39746,"is_reserved":false,"is_disabled":false,"rental_uris":{"android":"levelo://app?vid=ba276de4-24fb-45a6-bb36-3ebf97f018f9","ios":"levelo://app?vid=ba276de4-24fb-45a6-bb36-3ebf97f018f9"},"vehicle_type_id":"4","last_reported":1751580582,"current_range_meters":17600,"station_id":"ce4bh3h2rcd13ifvqdo0","pricing_plan_id":"cebpf4jnsgd1na2vs0mg"},{"bike_id":"5ccfd58a-07cf-4815-9f0e-6415595a2a54","system_id":"levelo_inurba_marseille","lat":43.24667,"lon":5.38151,"is_reserved":false,"is_disabled":false,"rental_uris":{"android":"levelo://app?vid=5ccfd58a-07cf-4815-9f0e-6415595a2a54","ios":"levelo://app?vid=5ccfd58a-07cf-4815-9f0e-6415595a2a54"},"vehicle_type_id":"4","last_reported":1751580582,"current_range_meters":17600,"station_id":"ce4bhih2rcd13ifvqfr0","pricing_plan_id":"cebpf4jnsgd1na2vs0mg"},{"bike_id":"b13877a6-4825-4d82-b46b-67fa8ad66c5d","system_id":"levelo_inurba_marseille","lat":43.21192,"lon":5.35073,"is_reserved":false,"is_disabled":false,"rental_uris":{"android":"levelo://app?vid=b13877a6-4825-4d82-b46b-67fa8ad66c5d","ios":"levelo://app?vid=b13877a6-4825-4d82-b46b-67fa8ad66c5d"},"vehicle_type_id":"4","last_reported":1751580582,"current_range_meters":17600,"station_id":"st_cvj6sg6p6f1abm77japg","pricing_plan_id":"cebpf4jnsgd1na2vs0mg"},{"bike_id":"7712491c-e18b-4b09-bb79-30880b357c07","system_id":"levelo_inurba_marseille","lat":43.21207,"lon":5.35073,"is_reserved":false,"is_disabled":false,"rental_uris":{"android":"levelo://app?vid=7712491c-e18b-4b09-bb79-30880b357c07","ios":"levelo://app?vid=7712491c-e18b-4b09-bb79-30880b357c07"},"vehicle_type_id":"4","last_reported":1751580582,"current_range_meters":17600,"station_id":"st_cvj6sg6p6f1abm77japg","pricing_plan_id":"cebpf4jnsgd1na2vs0mg"},{"bike_id":"8562b780-40d2-4858-a601-a7c031bc248b","system_id":"levelo_inurba_marseille","lat":43.29529,"lon":5.38548,"is_reserved":false,"is_disabled":false,"rental_uris":{"android":"levelo://app?vid=8562b780-40d2-4858-a601-a7c031bc248b","ios":"levelo://app?vid=8562b780-40d2-4858-a601-a7c031bc248b"},"vehicle_type_id":"4","last_reported":1751580582,"current_range_meters":18000,"station_id":"ce4bgih2rcd13ifvqba0","pricing_plan_id":"cebpf4jnsgd1na2vs0mg"},{"bike_id":"ab8b8e24-027c-42fe-ac87-f53f2136df70","system_id":"levelo_inurba_marseille","lat":43.30281,"lon":5.39203,"is_reserved":false,"is_disabled":false,"rental_uris":{"android":"levelo://app?vid=ab8b8e24-027c-42fe-ac87-f53f2136df70","ios":"levelo://app?vid=ab8b8e24-027c-42fe-ac87-f53f2136df70"},"vehicle_type_id":"4","last_reported":1751580582,"current_range_meters":18000,"station_id":"ce4bgkh2rcd13ifvqbk0","pricing_plan_id":"cebpf4jnsgd1na2vs0mg"},{"bike_id":"a9a07126-8728-4535-baa6-5644baa44463","system_id":"levelo_inurba_marseille","lat":43.30811,"lon":5.38165,"is_reserved":false,"is_disabled":false,"rental_uris":{"android":"levelo://app?vid=a9a07126-8728-4535-baa6-5644baa44463","ios":"levelo://app?vid=a9a07126-8728-4535-baa6-5644baa44463"},"vehicle_type_id":"4","last_reported":1751580582,"current_range_meters":18000,"station_id":"ce4bgt12rcd13ifvqce0","pricing_plan_id":"cebpf4jnsgd1na2vs0mg"},{"bike_id":"181894e5-92c2-4650-8d06-3fcc53b53400","system_id":"levelo_inurba_marseille","lat":43.31358,"lon":5.38509,"is_reserved":false,"is_disabled":false,"rental_uris":{"android":"levelo://app?vid=181894e5-92c2-4650-8d06-3fcc53b53400","ios":"levelo://app?vid=181894e5-92c2-4650-8d06-3fcc53b53400"},"vehicle_type_id":"4","last_reported":1751580582,"current_range_meters":18000,"station_id":"ce4bgt92rcd13ifvqcf0","pricing_plan_id":"cebpf4jnsgd1na2vs0mg"},{"bike_id":"6b6fbe5c-79bc-4ca8-9e98-73fe0bdf1248","system_id":"levelo_inurba_marseille","lat":43.31162,"lon":5.38728,"is_reserved":false,"is_disabled":false,"rental_uris":{"android":"levelo://app?vid=6b6fbe5c-79bc-4ca8-9e98-73fe0bdf1248","ios":"levelo://app?vid=6b6fbe5c-79bc-4ca8-9e98-73fe0bdf1248"},"vehicle_type_id":"4","last_reported":1751580582,"current_range_meters":18000,"station_id":"ce4bgv12rcd13ifvqcp0","pricing_plan_id":"cebpf4jnsgd1na2vs0mg"},{"bike_id":"ab405e9d-f784-47f4-8225-a4df887a3b8c","system_id":"levelo_inurba_marseille","lat":43.31686,"lon":5.40478,"is_reserved":false,"is_disabled":false,"rental_uris":{"android":"levelo://app?vid=ab405e9d-f784-47f4-8225-a4df887a3b8c","ios":"levelo://app?vid=ab405e9d-f784-47f4-8225-a4df887a3b8c"},"vehicle_type_id":"4","last_reported":1751580582,"current_range_meters":18000,"station_id":"ce4bh012rcd13ifvqd00","pricing_plan_id":"cebpf4jnsgd1na2vs0mg"},{"bike_id":"973243a1-09de-40a5-b7ca-983f045f3b6e","system_id":"levelo_inurba_marseille","lat":43.29178,"lon":5.39308,"is_reserved":false,"is_disabled":false,"rental_uris":{"android":"levelo://app?vid=973243a1-09de-40a5-b7ca-983f045f3b6e","ios":"levelo://app?vid=973243a1-09de-40a5-b7ca-983f045f3b6e"},"vehicle_type_id":"4","last_reported":1751580582,"current_range_meters":18000,"station_id":"ce4bh192rcd13ifvqdd0","pricing_plan_id":"cebpf4jnsgd1na2vs0mg"},{"bike_id":"5715b556-e66f-4b39-8f33-920a402dceaf","system_id":"levelo_inurba_marseille","lat":43.249969,"lon":5.389287,"is_reserved":false,"is_disabled":false,"rental_uris":{"android":"levelo://app?vid=5715b556-e66f-4b39-8f33-920a402dceaf","ios":"levelo://app?vid=5715b556-e66f-4b39-8f33-920a402dceaf"},"vehicle_type_id":"4","last_reported":1751580582,"current_range_meters":18000,"station_id":"ce4bhh92rcd13ifvqfi0","pricing_plan_id":"cebpf4jnsgd1na2vs0mg"},{"bike_id":"67e5523d-bd17-438b-a686-ad3fb18f34f1","system_id":"levelo_inurba_marseille","lat":43.23178,"lon":5.39988,"is_reserved":false,"is_disabled":false,"rental_uris":{"android":"levelo://app?vid=67e5523d-bd17-438b-a686-ad3fb18f34f1","ios":"levelo://app?vid=67e5523d-bd17-438b-a686-ad3fb18f34f1"},"vehicle_type_id":"4","last_reported":1751580582,"current_range_meters":18000,"station_id":"ce4bhn12rcd13ifvqgqg","pricing_plan_id":"cebpf4jnsgd1na2vs0mg"},{"bike_id":"832c28f1-2378-4c64-8327-96ae1b53b57f","system_id":"levelo_inurba_marseille","lat":43.24069,"lon":5.37755,"is_reserved":false,"is_disabled":false,"rental_uris":{"android":"levelo://app?vid=832c28f1-2378-4c64-8327-96ae1b53b57f","ios":"levelo://app?vid=832c28f1-2378-4c64-8327-96ae1b53b57f"},"vehicle_type_id":"4","last_reported":1751580582,"current_range_meters":18000,"station_id":"ce4bhnp2rcd13ifvqgvg","pricing_plan_id":"cebpf4jnsgd1na2vs0mg"},{"bike_id":"24cc6c15-4ee4-4e5f-8cfb-f3444dfa76f6","system_id":"levelo_inurba_marseille","lat":43.31716,"lon":5.43711,"is_reserved":false,"is_disabled":false,"rental_uris":{"android":"levelo://app?vid=24cc6c15-4ee4-4e5f-8cfb-f3444dfa76f6","ios":"levelo://app?vid=24cc6c15-4ee4-4e5f-8cfb-f3444dfa76f6"},"vehicle_type_id":"4","last_reported":1751580582,"current_range_meters":18000,"station_id":"ce4bhp92rcd13ifvqhcg","pricing_plan_id":"cebpf4jnsgd1na2vs0mg"},{"bike_id":"4b8da722-ee9e-48a4-a5e5-3a8a10364708","system_id":"levelo_inurba_marseille","lat":43.31231,"lon":5.37832,"is_reserved":false,"is_disabled":false,"rental_uris":{"android":"levelo://app?vid=4b8da722-ee9e-48a4-a5e5-3a8a10364708","ios":"levelo://app?vid=4b8da722-ee9e-48a4-a5e5-3a8a10364708"},"vehicle_type_id":"4","last_reported":1751580582,"current_range_meters":18800,"station_id":"","pricing_plan_id":"cebpf4jnsgd1na2vs0mg"},{"bike_id":"2c8d6737-b89d-408d-8770-af93b507a41f","system_id":"levelo_inurba_marseille","lat":43.30131,"lon":5.40049,"is_reserved":false,"is_disabled":false,"rental_uris":{"android":"levelo://app?vid=2c8d6737-b89d-408d-8770-af93b507a41f","ios":"levelo://app?vid=2c8d6737-b89d-408d-8770-af93b507a41f"},"vehicle_type_id":"4","last_reported":1751580582,"current_range_meters":18800,"station_id":"","pricing_plan_id":"cebpf4jnsgd1na2vs0mg"},{"bike_id":"83c8684c-dd42-4243-a7d4-860b369b6d39","system_id":"levelo_inurba_marseille","lat":43.31168,"lon":5.38712,"is_reserved":false,"is_disabled":false,"rental_uris":{"android":"levelo://app?vid=83c8684c-dd42-4243-a7d4-860b369b6d39","ios":"levelo://app?vid=83c8684c-dd42-4243-a7d4-860b369b6d39"},"vehicle_type_id":"4","last_reported":1751580582,"current_range_meters":18800,"station_id":"ce4bgv12rcd13ifvqcp0","pricing_plan_id":"cebpf4jnsgd1na2vs0mg"},{"bike_id":"1b892a3d-870b-4564-82b6-2f9d3714ac4d","system_id":"levelo_inurba_marseille","lat":43.24653,"lon":5.38916,"is_reserved":false,"is_disabled":false,"rental_uris":{"android":"levelo://app?vid=1b892a3d-870b-4564-82b6-2f9d3714ac4d","ios":"levelo://app?vid=1b892a3d-870b-4564-82b6-2f9d3714ac4d"},"vehicle_type_id":"4","last_reported":1751580582,"current_range_meters":18800,"station_id":"ce4bhg12rcd13ifvqf60","pricing_plan_id":"cebpf4jnsgd1na2vs0mg"},{"bike_id":"334857d7-17be-4f1b-ada3-06944d14bcfa","system_id":"levelo_inurba_marseille","lat":43.28444,"lon":5.39205,"is_reserved":false,"is_disabled":false,"rental_uris":{"android":"levelo://app?vid=334857d7-17be-4f1b-ada3-06944d14bcfa","ios":"levelo://app?vid=334857d7-17be-4f1b-ada3-06944d14bcfa"},"vehicle_type_id":"4","last_reported":1751580582,"current_range_meters":18800,"station_id":"ce4bhoh2rcd13ifvqh5g","pricing_plan_id":"cebpf4jnsgd1na2vs0mg"},{"bike_id":"f668d257-bab0-4b25-ba41-4ca796d3f3d3","system_id":"levelo_inurba_marseille","lat":43.31714,"lon":5.43729,"is_reserved":false,"is_disabled":false,"rental_uris":{"android":"levelo://app?vid=f668d257-bab0-4b25-ba41-4ca796d3f3d3","ios":"levelo://app?vid=f668d257-bab0-4b25-ba41-4ca796d3f3d3"},"vehicle_type_id":"4","last_reported":1751580582,"current_range_meters":18800,"station_id":"ce4bhp92rcd13ifvqhcg","pricing_plan_id":"cebpf4jnsgd1na2vs0mg"},{"bike_id":"608043a4-902c-4d38-b8a8-787158603e06","system_id":"levelo_inurba_marseille","lat":43.303356,"lon":5.3685,"is_reserved":false,"is_disabled":false,"rental_uris":{"android":"levelo://app?vid=608043a4-902c-4d38-b8a8-787158603e06","ios":"levelo://app?vid=608043a4-902c-4d38-b8a8-787158603e06"},"vehicle_type_id":"4","last_reported":1751580582,"current_range_meters":19200,"station_id":"ce4bgn92rcd13ifvqbvg","pricing_plan_id":"cebpf4jnsgd1na2vs0mg"},{"bike_id":"8102533c-68ac-4bfd-90de-af9dfec8d9dd","system_id":"levelo_inurba_marseille","lat":43.311213,"lon":5.377713,"is_reserved":false,"is_disabled":false,"rental_uris":{"android":"levelo://app?vid=8102533c-68ac-4bfd-90de-af9dfec8d9dd","ios":"levelo://app?vid=8102533c-68ac-4bfd-90de-af9dfec8d9dd"},"vehicle_type_id":"4","last_reported":1751580582,"current_range_meters":19200,"station_id":"ce4bgt92rcd13ifvqcg0","pricing_plan_id":"cebpf4jnsgd1na2vs0mg"},{"bike_id":"e40d8706-852e-4889-888c-4b2d492fbd0c","system_id":"levelo_inurba_marseille","lat":43.29209,"lon":5.39312,"is_reserved":false,"is_disabled":false,"rental_uris":{"android":"levelo://app?vid=e40d8706-852e-4889-888c-4b2d492fbd0c","ios":"levelo://app?vid=e40d8706-852e-4889-888c-4b2d492fbd0c"},"vehicle_type_id":"4","last_reported":1751580582,"current_range_meters":19200,"station_id":"ce4bh192rcd13ifvqdd0","pricing_plan_id":"cebpf4jnsgd1na2vs0mg"},{"bike_id":"c9368b97-3464-46a7-b63a-27b44d6c6fb6","system_id":"levelo_inurba_marseille","lat":43.28494,"lon":5.38453,"is_reserved":false,"is_disabled":false,"rental_uris":{"android":"levelo://app?vid=c9368b97-3464-46a7-b63a-27b44d6c6fb6","ios":"levelo://app?vid=c9368b97-3464-46a7-b63a-27b44d6c6fb6"},"vehicle_type_id":"4","last_reported":1751580582,"current_range_meters":19200,"station_id":"ce4bh512rcd13ifvqe3g","pricing_plan_id":"cebpf4jnsgd1na2vs0mg"},{"bike_id":"7e2e5eee-f8a1-4b3b-9b13-d5430aec27b3","system_id":"levelo_inurba_marseille","lat":43.26939,"lon":5.38924,"is_reserved":false,"is_disabled":false,"rental_uris":{"android":"levelo://app?vid=7e2e5eee-f8a1-4b3b-9b13-d5430aec27b3","ios":"levelo://app?vid=7e2e5eee-f8a1-4b3b-9b13-d5430aec27b3"},"vehicle_type_id":"4","last_reported":1751580582,"current_range_meters":19200,"station_id":"ce4bhhh2rcd13ifvqfl0","pricing_plan_id":"cebpf4jnsgd1na2vs0mg"},{"bike_id":"c13c93ac-6b62-443c-9e36-caf61b27325a","system_id":"levelo_inurba_marseille","lat":43.21201,"lon":5.3507,"is_reserved":false,"is_disabled":false,"rental_uris":{"android":"levelo://app?vid=c13c93ac-6b62-443c-9e36-caf61b27325a","ios":"levelo://app?vid=c13c93ac-6b62-443c-9e36-caf61b27325a"},"vehicle_type_id":"4","last_reported":1751580582,"current_range_meters":19200,"station_id":"st_cvj6sg6p6f1abm77japg","pricing_plan_id":"cebpf4jnsgd1na2vs0mg"},{"bike_id":"9b57fa7c-e80f-448a-831b-96287729d611","system_id":"levelo_inurba_marseille","lat":43.29803,"lon":5.40377,"is_reserved":false,"is_disabled":false,"rental_uris":{"android":"levelo://app?vid=9b57fa7c-e80f-448a-831b-96287729d611","ios":"levelo://app?vid=9b57fa7c-e80f-448a-831b-96287729d611"},"vehicle_type_id":"4","last_reported":1751580582,"current_range_meters":19600,"station_id":"ce4bh112rcd13ifvqd90","pricing_plan_id":"cebpf4jnsgd1na2vs0mg"},{"bike_id":"da0325fc-6b3e-4a69-9d3f-75c4bc6c2111","system_id":"levelo_inurba_marseille","lat":43.29025,"lon":5.38646,"is_reserved":false,"is_disabled":false,"rental_uris":{"android":"levelo://app?vid=da0325fc-6b3e-4a69-9d3f-75c4bc6c2111","ios":"levelo://app?vid=da0325fc-6b3e-4a69-9d3f-75c4bc6c2111"},"vehicle_type_id":"4","last_reported":1751580582,"current_range_meters":19600,"station_id":"ce4bh4p2rcd13ifvqe0g","pricing_plan_id":"cebpf4jnsgd1na2vs0mg"},{"bike_id":"82397957-f1e3-4071-8b94-766e518dde6a","system_id":"levelo_inurba_marseille","lat":43.27168,"lon":5.40994,"is_reserved":false,"is_disabled":false,"rental_uris":{"android":"levelo://app?vid=82397957-f1e3-4071-8b94-766e518dde6a","ios":"levelo://app?vid=82397957-f1e3-4071-8b94-766e518dde6a"},"vehicle_type_id":"4","last_reported":1751580582,"current_range_meters":19600,"station_id":"ce4bhl12rcd13ifvqgf0","pricing_plan_id":"cebpf4jnsgd1na2vs0mg"},{"bike_id":"d31dab42-ab09-4a76-9f25-512564f0ebcd","system_id":"levelo_inurba_marseille","lat":43.280817,"lon":5.396506,"is_reserved":false,"is_disabled":false,"rental_uris":{"android":"levelo://app?vid=d31dab42-ab09-4a76-9f25-512564f0ebcd","ios":"levelo://app?vid=d31dab42-ab09-4a76-9f25-512564f0ebcd"},"vehicle_type_id":"4","last_reported":1751580582,"current_range_meters":19600,"station_id":"ce4bho12rcd13ifvqh2g","pricing_plan_id":"cebpf4jnsgd1na2vs0mg"},{"bike_id":"4b014fa3-f11d-4cd4-bc11-c7523f154ee7","system_id":"levelo_inurba_marseille","lat":43.28694,"lon":5.39978,"is_reserved":false,"is_disabled":false,"rental_uris":{"android":"levelo://app?vid=4b014fa3-f11d-4cd4-bc11-c7523f154ee7","ios":"levelo://app?vid=4b014fa3-f11d-4cd4-bc11-c7523f154ee7"},"vehicle_type_id":"4","last_reported":1751580582,"current_range_meters":19600,"station_id":"ce4bho92rcd13ifvqh3g","pricing_plan_id":"cebpf4jnsgd1na2vs0mg"},{"bike_id":"6ef5da8e-7d4f-476f-8c0f-207ebffc2e62","system_id":"levelo_inurba_marseille","lat":43.287,"lon":5.39985,"is_reserved":false,"is_disabled":false,"rental_uris":{"android":"levelo://app?vid=6ef5da8e-7d4f-476f-8c0f-207ebffc2e62","ios":"levelo://app?vid=6ef5da8e-7d4f-476f-8c0f-207ebffc2e62"},"vehicle_type_id":"4","last_reported":1751580582,"current_range_meters":19600,"station_id":"ce4bho92rcd13ifvqh3g","pricing_plan_id":"cebpf4jnsgd1na2vs0mg"},{"bike_id":"e73e6ecc-e3ee-4b95-8d3f-ebf0f56fb852","system_id":"levelo_inurba_marseille","lat":43.239673,"lon":5.366271,"is_reserved":false,"is_disabled":false,"rental_uris":{"android":"levelo://app?vid=e73e6ecc-e3ee-4b95-8d3f-ebf0f56fb852","ios":"levelo://app?vid=e73e6ecc-e3ee-4b95-8d3f-ebf0f56fb852"},"vehicle_type_id":"4","last_reported":1751580582,"current_range_meters":19600,"station_id":"st_cvj6r9ubvosntc0bgbag","pricing_plan_id":"cebpf4jnsgd1na2vs0mg"},{"bike_id":"7be93d05-2405-4cfe-a0c4-c6f3670e10c7","system_id":"levelo_inurba_marseille","lat":43.21156,"lon":5.3509,"is_reserved":false,"is_disabled":false,"rental_uris":{"android":"levelo://app?vid=7be93d05-2405-4cfe-a0c4-c6f3670e10c7","ios":"levelo://app?vid=7be93d05-2405-4cfe-a0c4-c6f3670e10c7"},"vehicle_type_id":"4","last_reported":1751580582,"current_range_meters":19600,"station_id":"st_cvj6sg6p6f1abm77japg","pricing_plan_id":"cebpf4jnsgd1na2vs0mg"},{"bike_id":"c3001da5-faa3-452b-b4b9-6b6728b93662","system_id":"levelo_inurba_marseille","lat":43.30932,"lon":5.40148,"is_reserved":false,"is_disabled":false,"rental_uris":{"android":"levelo://app?vid=c3001da5-faa3-452b-b4b9-6b6728b93662","ios":"levelo://app?vid=c3001da5-faa3-452b-b4b9-6b6728b93662"},"vehicle_type_id":"4","last_reported":1751580582,"current_range_meters":20000,"station_id":"ce4bgvp2rcd13ifvqct0","pricing_plan_id":"cebpf4jnsgd1na2vs0mg"},{"bike_id":"b3e48450-df70-4653-9b9f-040786d27847","system_id":"levelo_inurba_marseille","lat":43.30137,"lon":5.39858,"is_reserved":false,"is_disabled":false,"rental_uris":{"android":"levelo://app?vid=b3e48450-df70-4653-9b9f-040786d27847","ios":"levelo://app?vid=b3e48450-df70-4653-9b9f-040786d27847"},"vehicle_type_id":"4","last_reported":1751580582,"current_range_meters":20000,"station_id":"ce4bh0h2rcd13ifvqd40","pricing_plan_id":"cebpf4jnsgd1na2vs0mg"},{"bike_id":"4c671326-d7d3-4ac6-bef6-37823ae7fa67","system_id":"levelo_inurba_marseille","lat":43.2963,"lon":5.40598,"is_reserved":false,"is_disabled":false,"rental_uris":{"android":"levelo://app?vid=4c671326-d7d3-4ac6-bef6-37823ae7fa67","ios":"levelo://app?vid=4c671326-d7d3-4ac6-bef6-37823ae7fa67"},"vehicle_type_id":"4","last_reported":1751580582,"current_range_meters":20000,"station_id":"ce4bh0h2rcd13ifvqd60","pricing_plan_id":"cebpf4jnsgd1na2vs0mg"},{"bike_id":"f68cdb60-b608-4fca-ad36-e5e01e9f81d4","system_id":"levelo_inurba_marseille","lat":43.30637,"lon":5.40069,"is_reserved":false,"is_disabled":false,"rental_uris":{"android":"levelo://app?vid=f68cdb60-b608-4fca-ad36-e5e01e9f81d4","ios":"levelo://app?vid=f68cdb60-b608-4fca-ad36-e5e01e9f81d4"},"vehicle_type_id":"4","last_reported":1751580582,"current_range_meters":20000,"station_id":"ce4bh112rcd13ifvqda0","pricing_plan_id":"cebpf4jnsgd1na2vs0mg"},{"bike_id":"f6003eec-e9a2-4585-b201-f5f2333b1b2c","system_id":"levelo_inurba_marseille","lat":43.25112,"lon":5.40323,"is_reserved":false,"is_disabled":false,"rental_uris":{"android":"levelo://app?vid=f6003eec-e9a2-4585-b201-f5f2333b1b2c","ios":"levelo://app?vid=f6003eec-e9a2-4585-b201-f5f2333b1b2c"},"vehicle_type_id":"4","last_reported":1751580582,"current_range_meters":20000,"station_id":"ce4bhlh2rcd13ifvqgig","pricing_plan_id":"cebpf4jnsgd1na2vs0mg"},{"bike_id":"a98a05cf-58ab-4d97-ba42-eba56b873a77","system_id":"levelo_inurba_marseille","lat":43.24547,"lon":5.39523,"is_reserved":false,"is_disabled":false,"rental_uris":{"android":"levelo://app?vid=a98a05cf-58ab-4d97-ba42-eba56b873a77","ios":"levelo://app?vid=a98a05cf-58ab-4d97-ba42-eba56b873a77"},"vehicle_type_id":"4","last_reported":1751580582,"current_range_meters":20000,"station_id":"ce4bhlp2rcd13ifvqgjg","pricing_plan_id":"cebpf4jnsgd1na2vs0mg"},{"bike_id":"4f2be8d7-f8dd-4806-bdd1-196f6abbe795","system_id":"levelo_inurba_marseille","lat":43.30809,"lon":5.43528,"is_reserved":false,"is_disabled":false,"rental_uris":{"android":"levelo://app?vid=4f2be8d7-f8dd-4806-bdd1-196f6abbe795","ios":"levelo://app?vid=4f2be8d7-f8dd-4806-bdd1-196f6abbe795"},"vehicle_type_id":"4","last_reported":1751580582,"current_range_meters":20000,"station_id":"ce4bhph2rcd13ifvqheg","pricing_plan_id":"cebpf4jnsgd1na2vs0mg"},{"bike_id":"bbe9c16b-a7e3-44de-bd1d-6e27f72a19f7","system_id":"levelo_inurba_marseille","lat":43.29045,"lon":5.3996,"is_reserved":false,"is_disabled":false,"rental_uris":{"android":"levelo://app?vid=bbe9c16b-a7e3-44de-bd1d-6e27f72a19f7","ios":"levelo://app?vid=bbe9c16b-a7e3-44de-bd1d-6e27f72a19f7"},"vehicle_type_id":"4","last_reported":1751580582,"current_range_meters":20400,"station_id":"ce4bh392rcd13ifvqdm0","pricing_plan_id":"cebpf4jnsgd1na2vs0mg"},{"bike_id":"ba77524f-6b1a-4718-9a81-45d34c92f81f","system_id":"levelo_inurba_marseille","lat":43.28709,"lon":5.37937,"is_reserved":false,"is_disabled":false,"rental_uris":{"android":"levelo://app?vid=ba77524f-6b1a-4718-9a81-45d34c92f81f","ios":"levelo://app?vid=ba77524f-6b1a-4718-9a81-45d34c92f81f"},"vehicle_type_id":"4","last_reported":1751580582,"current_range_meters":20400,"station_id":"ce4bh9p2rcd13ifvqec0","pricing_plan_id":"cebpf4jnsgd1na2vs0mg"},{"bike_id":"3d5e3c2e-385b-4f74-99dd-97d4cb965bd2","system_id":"levelo_inurba_marseille","lat":43.2783,"lon":5.39203,"is_reserved":false,"is_disabled":false,"rental_uris":{"android":"levelo://app?vid=3d5e3c2e-385b-4f74-99dd-97d4cb965bd2","ios":"levelo://app?vid=3d5e3c2e-385b-4f74-99dd-97d4cb965bd2"},"vehicle_type_id":"4","last_reported":1751580582,"current_range_meters":20400,"station_id":"ce4bhjp2rcd13ifvqga0","pricing_plan_id":"cebpf4jnsgd1na2vs0mg"},{"bike_id":"cf553108-7249-4528-b3a1-43c28c7d1ca8","system_id":"levelo_inurba_marseille","lat":43.30417,"lon":5.4128,"is_reserved":false,"is_disabled":false,"rental_uris":{"android":"levelo://app?vid=cf553108-7249-4528-b3a1-43c28c7d1ca8","ios":"levelo://app?vid=cf553108-7249-4528-b3a1-43c28c7d1ca8"},"vehicle_type_id":"4","last_reported":1751580582,"current_range_meters":20400,"station_id":"ce4bhop2rcd13ifvqh8g","pricing_plan_id":"cebpf4jnsgd1na2vs0mg"},{"bike_id":"5f470112-8139-4343-b082-08a74e0b7074","system_id":"levelo_inurba_marseille","lat":43.2119,"lon":5.35096,"is_reserved":false,"is_disabled":false,"rental_uris":{"android":"levelo://app?vid=5f470112-8139-4343-b082-08a74e0b7074","ios":"levelo://app?vid=5f470112-8139-4343-b082-08a74e0b7074"},"vehicle_type_id":"4","last_reported":1751580582,"current_range_meters":20400,"station_id":"st_cvj6sg6p6f1abm77japg","pricing_plan_id":"cebpf4jnsgd1na2vs0mg"},{"bike_id":"e9f93152-c103-42e7-8290-70a0dd64d0c1","system_id":"levelo_inurba_marseille","lat":43.292182,"lon":5.376506,"is_reserved":false,"is_disabled":false,"rental_uris":{"android":"levelo://app?vid=e9f93152-c103-42e7-8290-70a0dd64d0c1","ios":"levelo://app?vid=e9f93152-c103-42e7-8290-70a0dd64d0c1"},"vehicle_type_id":"4","last_reported":1751580582,"current_range_meters":20800,"station_id":"","pricing_plan_id":"cebpf4jnsgd1na2vs0mg"},{"bike_id":"4a48da3d-a47a-4741-9ae7-8c81693f3bb4","system_id":"levelo_inurba_marseille","lat":43.27599,"lon":5.36104,"is_reserved":false,"is_disabled":false,"rental_uris":{"android":"levelo://app?vid=4a48da3d-a47a-4741-9ae7-8c81693f3bb4","ios":"levelo://app?vid=4a48da3d-a47a-4741-9ae7-8c81693f3bb4"},"vehicle_type_id":"4","last_reported":1751580582,"current_range_meters":20800,"station_id":"ce4bgj92rcd13ifvqbe0","pricing_plan_id":"cebpf4jnsgd1na2vs0mg"},{"bike_id":"80dc1f7a-aef4-4735-9554-8a71a9c1d34c","system_id":"levelo_inurba_marseille","lat":43.30439,"lon":5.38889,"is_reserved":false,"is_disabled":false,"rental_uris":{"android":"levelo://app?vid=80dc1f7a-aef4-4735-9554-8a71a9c1d34c","ios":"levelo://app?vid=80dc1f7a-aef4-4735-9554-8a71a9c1d34c"},"vehicle_type_id":"4","last_reported":1751580582,"current_range_meters":20800,"station_id":"ce4bgk12rcd13ifvqbi0","pricing_plan_id":"cebpf4jnsgd1na2vs0mg"},{"bike_id":"90334f6e-f88f-44d8-9130-afbccf5d429f","system_id":"levelo_inurba_marseille","lat":43.31493,"lon":5.37313,"is_reserved":false,"is_disabled":false,"rental_uris":{"android":"levelo://app?vid=90334f6e-f88f-44d8-9130-afbccf5d429f","ios":"levelo://app?vid=90334f6e-f88f-44d8-9130-afbccf5d429f"},"vehicle_type_id":"4","last_reported":1751580582,"current_range_meters":20800,"station_id":"ce4bgt12rcd13ifvqcd0","pricing_plan_id":"cebpf4jnsgd1na2vs0mg"},{"bike_id":"e945d5f1-b880-4784-9c55-3a1c56040fe5","system_id":"levelo_inurba_marseille","lat":43.29244,"lon":5.40925,"is_reserved":false,"is_disabled":false,"rental_uris":{"android":"levelo://app?vid=e945d5f1-b880-4784-9c55-3a1c56040fe5","ios":"levelo://app?vid=e945d5f1-b880-4784-9c55-3a1c56040fe5"},"vehicle_type_id":"4","last_reported":1751580582,"current_range_meters":20800,"station_id":"ce4bh192rcd13ifvqdc0","pricing_plan_id":"cebpf4jnsgd1na2vs0mg"},{"bike_id":"0b03e171-2415-4997-a909-94fffa24318c","system_id":"levelo_inurba_marseille","lat":43.29937,"lon":5.37509,"is_reserved":false,"is_disabled":false,"rental_uris":{"android":"levelo://app?vid=0b03e171-2415-4997-a909-94fffa24318c","ios":"levelo://app?vid=0b03e171-2415-4997-a909-94fffa24318c"},"vehicle_type_id":"4","last_reported":1751580582,"current_range_meters":21600,"station_id":"","pricing_plan_id":"cebpf4jnsgd1na2vs0mg"},{"bike_id":"5a4b862c-d93c-4d9e-9e17-21b1aa6a817e","system_id":"levelo_inurba_marseille","lat":43.29526,"lon":5.37559,"is_reserved":false,"is_disabled":false,"rental_uris":{"android":"levelo://app?vid=5a4b862c-d93c-4d9e-9e17-21b1aa6a817e","ios":"levelo://app?vid=5a4b862c-d93c-4d9e-9e17-21b1aa6a817e"},"vehicle_type_id":"4","last_reported":1751580582,"current_range_meters":21600,"station_id":"ce4bgkp2rcd13ifvqbmg","pricing_plan_id":"cebpf4jnsgd1na2vs0mg"},{"bike_id":"1882ab05-8e2b-4742-a2ff-6b3124c15086","system_id":"levelo_inurba_marseille","lat":43.308076,"lon":5.381451,"is_reserved":false,"is_disabled":false,"rental_uris":{"android":"levelo://app?vid=1882ab05-8e2b-4742-a2ff-6b3124c15086","ios":"levelo://app?vid=1882ab05-8e2b-4742-a2ff-6b3124c15086"},"vehicle_type_id":"4","last_reported":1751580582,"current_range_meters":21600,"station_id":"ce4bgt12rcd13ifvqce0","pricing_plan_id":"cebpf4jnsgd1na2vs0mg"},{"bike_id":"8586bd8e-db24-4da4-87b6-8510a13ec9e0","system_id":"levelo_inurba_marseille","lat":43.30325,"lon":5.40404,"is_reserved":false,"is_disabled":false,"rental_uris":{"android":"levelo://app?vid=8586bd8e-db24-4da4-87b6-8510a13ec9e0","ios":"levelo://app?vid=8586bd8e-db24-4da4-87b6-8510a13ec9e0"},"vehicle_type_id":"4","last_reported":1751580582,"current_range_meters":21600,"station_id":"ce4bh012rcd13ifvqd10","pricing_plan_id":"cebpf4jnsgd1na2vs0mg"},{"bike_id":"7da577eb-b4c2-4b14-bd32-43226cfcf89d","system_id":"levelo_inurba_marseille","lat":43.2857,"lon":5.39504,"is_reserved":false,"is_disabled":false,"rental_uris":{"android":"levelo://app?vid=7da577eb-b4c2-4b14-bd32-43226cfcf89d","ios":"levelo://app?vid=7da577eb-b4c2-4b14-bd32-43226cfcf89d"},"vehicle_type_id":"4","last_reported":1751580582,"current_range_meters":21600,"station_id":"ce4bh292rcd13ifvqdg0","pricing_plan_id":"cebpf4jnsgd1na2vs0mg"},{"bike_id":"a0e5763b-8c46-4a2e-8d74-39dbeab28752","system_id":"levelo_inurba_marseille","lat":43.28462,"lon":5.35893,"is_reserved":false,"is_disabled":false,"rental_uris":{"android":"levelo://app?vid=a0e5763b-8c46-4a2e-8d74-39dbeab28752","ios":"levelo://app?vid=a0e5763b-8c46-4a2e-8d74-39dbeab28752"},"vehicle_type_id":"4","last_reported":1751580582,"current_range_meters":21600,"station_id":"ce4bhah2rcd13ifvqei0","pricing_plan_id":"cebpf4jnsgd1na2vs0mg"},{"bike_id":"0c659dd5-1503-42d8-940e-eee25926c84b","system_id":"levelo_inurba_marseille","lat":43.26928,"lon":5.38915,"is_reserved":false,"is_disabled":false,"rental_uris":{"android":"levelo://app?vid=0c659dd5-1503-42d8-940e-eee25926c84b","ios":"levelo://app?vid=0c659dd5-1503-42d8-940e-eee25926c84b"},"vehicle_type_id":"4","last_reported":1751580582,"current_range_meters":21600,"station_id":"ce4bhhh2rcd13ifvqfl0","pricing_plan_id":"cebpf4jnsgd1na2vs0mg"},{"bike_id":"31c0bb9f-3584-44b8-81d0-00dcff3cba64","system_id":"levelo_inurba_marseille","lat":43.25581,"lon":5.38226,"is_reserved":false,"is_disabled":false,"rental_uris":{"android":"levelo://app?vid=31c0bb9f-3584-44b8-81d0-00dcff3cba64","ios":"levelo://app?vid=31c0bb9f-3584-44b8-81d0-00dcff3cba64"},"vehicle_type_id":"4","last_reported":1751580582,"current_range_meters":21600,"station_id":"ce4bhih2rcd13ifvqfs0","pricing_plan_id":"cebpf4jnsgd1na2vs0mg"},