{"last_updated":1702469621,"ttl":30,"version":"2.2","data":{"bikes":[{"bike_id":"e7f8aabd-a24c-4dc2-8eba-b25264c26540","system_id":"levelo_inurba_marseille","lat":43.313391,"lon":5.36706,"is_reserved":false,"is_disabled":false,"rental_uris":{"android":"levelo://app?vid=e7f8aabd-a24c-4dc2-8eba-b25264c26540","ios":"levelo://app?vid=e7f8aabd-a24c-4dc2-8eba-b25264c26540"},"vehicle_type_id":"4","last_reported":1702469621,"current_range_meters":27200,"station_id":"ce4bgr92rcd13ifvqc6g","pricing_plan_id":"free"},{"bike_id":"1dffff5d-fe55-42d3-b6c6-123f10f17f5c","system_id":"levelo_inurba_marseille","lat":43.312239,"lon":5.368562,"is_reserved":false,"is_disabled":false,"rental_uris":{"android":"levelo://app?vid=1dffff5d-fe55-42d3-b6c6-123f10f17f5c","ios":"levelo://app?vid=1dffff5d-fe55-42d3-b6c6-123f10f17f5c"},"vehicle_type_id":"4","last_reported":1702469621,"current_range_meters":24000,"station_id":"ce4bgl92rcd13ifvqbq0","pricing_plan_id":"free"},{"bike_id":"fea052f3-f40e-4101-a247-0c65ed0f8230","system_id":"levelo_inurba_marseille","lat":43.312239,"lon":5.368562,"is_reserved":false,"is_disabled":false,"rental_uris":{"android":"levelo://app?vid=fea052f3-f40e-4101-a247-0c65ed0f8230","ios":"levelo://app?vid=fea052f3-f40e-4101-a247-0c65ed0f8230"},"vehicle_type_id":"4","last_reported":1702469621,"current_range_meters":20400,"station_id":"ce4bgl92rcd13ifvqbq0","pricing_plan_id":"free"},{"bike_id":"967915b7-831b-48e3-9546-280f7d46f607","system_id":"levelo_inurba_marseille","lat":43.312239,"lon":5.368562,"is_reserved":false,"is_disabled":false,"rental_uris":{"android":"levelo://app?vid=967915b7-831b-48e3-9546-280f7d46f607","ios":"levelo://app?vid=967915b7-831b-48e3-9546-280f7d46f607"},"vehicle_type_id":"4","last_reported":1702469621,"current_range_meters":15200,"station_id":"ce4bgl92rcd13ifvqbq0","pricing_plan_id":"free"},{"bike_id":"4cccc10c-35db-4070-a950-11d039c50c82","system_id":"levelo_inurba_marseille","lat":43.312239,"lon":5.368562,"is_reserved":false,"is_disabled":false,"rental_uris":{"android":"levelo://app?vid=4cccc10c-35db-4070-a950-11d039c50c82","ios":"levelo://app?vid=4cccc10c-35db-4070-a950-11d039c50c82"},"vehicle_type_id":"4","last_reported":1702469621,"current_range_meters":11200,"station_id":"ce4bgl92rcd13ifvqbq0","pricing_plan_id":"free"},{"bike_id":"d94cfb54-2b64-4f81-b209-589c8d44a0b5","system_id":"levelo_inurba_marseille","lat":43.309039,"lon":5.371797,"is_reserved":false,"is_disabled":false,"rental_uris":{"android":"levelo://app?vid=d94cfb54-2b64-4f81-b209-589c8d44a0b5","ios":"levelo://app?vid=d94cfb54-2b64-4f81-b209-589c8d44a0b5"},"vehicle_type_id":"4","last_reported":1702469621,"current_range_meters":14800,"station_id":"ce4bguh2rcd13ifvqckg","pricing_plan_id":"free"},{"bike_id":"accfd7db-6d3e-4a9f-86e5-3d4b9b9b912d","system_id":"levelo_inurba_marseille","lat":43.309039,"lon":5.371797,"is_reserved":false,"is_disabled":false,"rental_uris":{"android":"levelo://app?vid=accfd7db-6d3e-4a9f-86e5-3d4b9b9b912d","ios":"levelo://app?vid=accfd7db-6d3e-4a9f-86e5-3d4b9b9b912d"},"vehicle_type_id":"4","last_reported":1702469621,"current_range_meters":4800,"station_id":"ce4bguh2rcd13ifvqckg","pricing_plan_id":"free"},{"bike_id":"3f8b821f-e430-4a35-bf14-f8b6e777ea11","system_id":"levelo_inurba_marseille","lat":43.313939,"lon":5.375306,"is_reserved":false,"is_disabled":false,"rental_uris":{"android":"levelo://app?vid=3f8b821f-e430-4a35-bf14-f8b6e777ea11","ios":"levelo://app?vid=3f8b821f-e430-4a35-bf14-f8b6e777ea11"},"vehicle_type_id":"4","last_reported":1702469621,"current_range_meters":8000,"station_id":"","pricing_plan_id":"free"},{"bike_id":"955e4ab2-16e5-44e8-a986-a2f50ff96c06","system_id":"levelo_inurba_marseille","lat":43.305382,"lon":5.365389,"is_reserved":false,"is_disabled":false,"rental_uris":{"android":"levelo://app?vid=955e4ab2-16e5-44e8-a986-a2f50ff96c06","ios":"levelo://app?vid=955e4ab2-16e5-44e8-a986-a2f50ff96c06"},"vehicle_type_id":"4","last_reported":1702469621,"current_range_meters":27200,"station_id":"","pricing_plan_id":"free"},{"bike_id":"dc68debd-6203-4696-b9a5-55eea857c5a0","system_id":"levelo_inurba_marseille","lat":43.317195,"lon":5.376826,"is_reserved":false,"is_disabled":false,"rental_uris":{"android":"levelo://app?vid=dc68debd-6203-4696-b9a5-55eea857c5a0","ios":"levelo://app?vid=dc68debd-6203-4696-b9a5-55eea857c5a0"},"vehicle_type_id":"4","last_reported":1702469621,"current_range_meters":24000,"station_id":"ce4bgth2rcd13ifvqch0","pricing_plan_id":"free"},{"bike_id":"9e7d5d49-7422-45e5-9174-457a3d490ef7","system_id":"levelo_inurba_marseille","lat":43.317075,"lon":5.377367,"is_reserved":false,"is_disabled":false,"rental_uris":{"android":"levelo://app?vid=9e7d5d49-7422-45e5-9174-457a3d490ef7","ios":"levelo://app?vid=9e7d5d49-7422-45e5-9174-457a3d490ef7"},"vehicle_type_id":"4","last_reported":1702469621,"current_range_meters":6400,"station_id":"ce4bgth2rcd13ifvqch0","pricing_plan_id":"free"},{"bike_id":"f0547b77-6f20-423d-98ca-ff544c3c1d23","system_id":"levelo_inurba_marseille","lat":43.317,"lon":5.37827,"is_reserved":false,"is_disabled":false,"rental_uris":{"android":"levelo://app?vid=f0547b77-6f20-423d-98ca-ff544c3c1d23","ios":"levelo://app?vid=f0547b77-6f20-423d-98ca-ff544c3c1d23"},"vehicle_type_id":"4","last_reported":1702469621,"current_range_meters":21200,"station_id":"","pricing_plan_id":"free"},{"bike_id":"e16d01dd-5a06-4f63-ab89-f9cff03356f9","system_id":"levelo_inurba_marseille","lat":43.30304,"lon":5.368987,"is_reserved":false,"is_disabled":false,"rental_uris":{"android":"levelo://app?vid=e16d01dd-5a06-4f63-ab89-f9cff03356f9","ios":"levelo://app?vid=e16d01dd-5a06-4f63-ab89-f9cff03356f9"},"vehicle_type_id":"4","last_reported":1702469621,"current_range_meters":25600,"station_id":"ce4bgqh2rcd13ifvqc5g","pricing_plan_id":"free"},{"bike_id":"2c831d8a-dcc0-47fa-bac8-f548e6d3d929","system_id":"levelo_inurba_marseille","lat":43.30304,"lon":5.368987,"is_reserved":false,"is_disabled":false,"rental_uris":{"android":"levelo://app?vid=2c831d8a-dcc0-47fa-bac8-f548e6d3d929","ios":"levelo://app?vid=2c831d8a-dcc0-47fa-bac8-f548e6d3d929"},"vehicle_type_id":"4","last_reported":1702469621,"current_range_meters":20800,"station_id":"ce4bgqh2rcd13ifvqc5g","pricing_plan_id":"free"},{"bike_id":"fc1dd8c5-c75f-4b38-bf33-2ce27b09b80d","system_id":"levelo_inurba_marseille","lat":43.3153,"lon":5.38032,"is_reserved":false,"is_disabled":false,"rental_uris":{"android":"levelo://app?vid=fc1dd8c5-c75f-4b38-bf33-2ce27b09b80d","ios":"levelo://app?vid=fc1dd8c5-c75f-4b38-bf33-2ce27b09b80d"},"vehicle_type_id":"4","last_reported":1702469621,"current_range_meters":22800,"station_id":"ce4bhsp2rcd13ifvqi50","pricing_plan_id":"free"},{"bike_id":"fb2e91d9-0f7e-4b3b-b9b4-bf64350c3bda","system_id":"levelo_inurba_marseille","lat":43.301939,"lon":5.366286,"is_reserved":false,"is_disabled":false,"rental_uris":{"android":"levelo://app?vid=fb2e91d9-0f7e-4b3b-b9b4-bf64350c3bda","ios":"levelo://app?vid=fb2e91d9-0f7e-4b3b-b9b4-bf64350c3bda"},"vehicle_type_id":"4","last_reported":1702469621,"current_range_meters":13200,"station_id":"ce4bgrh2rcd13ifvqc8g","pricing_plan_id":"free"},{"bike_id":"b2a51e28-463d-4b19-a981-31016d3dde70","system_id":"levelo_inurba_marseille","lat":43.30799,"lon":5.38149,"is_reserved":false,"is_disabled":false,"rental_uris":{"android":"levelo://app?vid=b2a51e28-463d-4b19-a981-31016d3dde70","ios":"levelo://app?vid=b2a51e28-463d-4b19-a981-31016d3dde70"},"vehicle_type_id":"4","last_reported":1702469621,"current_range_meters":19200,"station_id":"ce4bgt12rcd13ifvqce0","pricing_plan_id":"free"},{"bike_id":"cc023df8-6138-4de2-a178-ff48622b6365","system_id":"levelo_inurba_marseille","lat":43.308012,"lon":5.381511,"is_reserved":false,"is_disabled":false,"rental_uris":{"android":"levelo://app?vid=cc023df8-6138-4de2-a178-ff48622b6365","ios":"levelo://app?vid=cc023df8-6138-4de2-a178-ff48622b6365"},"vehicle_type_id":"4","last_reported":1702469621,"current_range_meters":10800,"station_id":"ce4bgt12rcd13ifvqce0","pricing_plan_id":"free"},{"bike_id":"7593678e-1a78-429f-802f-f1c517be2cf0","system_id":"levelo_inurba_marseille","lat":43.308,"lon":5.38161,"is_reserved":false,"is_disabled":false,"rental_uris":{"android":"levelo://app?vid=7593678e-1a78-429f-802f-f1c517be2cf0","ios":"levelo://app?vid=7593678e-1a78-429f-802f-f1c517be2cf0"},"vehicle_type_id":"4","last_reported":1702469621,"current_range_meters":12800,"station_id":"ce4bgt12rcd13ifvqce0","pricing_plan_id":"free"},{"bike_id":"3ecccf1f-40d8-41f5-9602-6cc522a72bd5","system_id":"levelo_inurba_marseille","lat":43.30466,"lon":5.37902,"is_reserved":false,"is_disabled":false,"rental_uris":{"android":"levelo://app?vid=3ecccf1f-40d8-41f5-9602-6cc522a72bd5","ios":"levelo://app?vid=3ecccf1f-40d8-41f5-9602-6cc522a72bd5"},"vehicle_type_id":"4","last_reported":1702469621,"current_range_meters":0,"station_id":"ce4bgup2rcd13ifvqcn0","pricing_plan_id":"free"},{"bike_id":"806d1095-eba4-4b4e-a978-6519c4d6aea4","system_id":"levelo_inurba_marseille","lat":43.30456,"lon":5.378962,"is_reserved":false,"is_disabled":false,"rental_uris":{"android":"levelo://app?vid=806d1095-eba4-4b4e-a978-6519c4d6aea4","ios":"levelo://app?vid=806d1095-eba4-4b4e-a978-6519c4d6aea4"},"vehicle_type_id":"4","last_reported":1702469621,"current_range_meters":0,"station_id":"ce4bgup2rcd13ifvqcn0","pricing_plan_id":"free"},{"bike_id":"416b1900-a24b-42c9-9e6e-7effab77708b","system_id":"levelo_inurba_marseille","lat":43.304606,"lon":5.379026,"is_reserved":false,"is_disabled":false,"rental_uris":{"android":"levelo://app?vid=416b1900-a24b-42c9-9e6e-7effab77708b","ios":"levelo://app?vid=416b1900-a24b-42c9-9e6e-7effab77708b"},"vehicle_type_id":"4","last_reported":1702469621,"current_range_meters":4800,"station_id":"ce4bgup2rcd13ifvqcn0","pricing_plan_id":"free"},{"bike_id":"443495d3-5c95-4ec2-bf2b-82b8d38de0b4","system_id":"levelo_inurba_marseille","lat":43.324792,"lon":5.3656,"is_reserved":false,"is_disabled":false,"rental_uris":{"android":"levelo://app?vid=443495d3-5c95-4ec2-bf2b-82b8d38de0b4","ios":"levelo://app?vid=443495d3-5c95-4ec2-bf2b-82b8d38de0b4"},"vehicle_type_id":"4","last_reported":1702469621,"current_range_meters":21200,"station_id":"ce4bhs12rcd13ifvqhvg","pricing_plan_id":"free"},{"bike_id":"aa3cdc10-a2b4-4348-a58d-ea513d683fe2","system_id":"levelo_inurba_marseille","lat":43.324771,"lon":5.36557,"is_reserved":false,"is_disabled":false,"rental_uris":{"android":"levelo://app?vid=aa3cdc10-a2b4-4348-a58d-ea513d683fe2","ios":"levelo://app?vid=aa3cdc10-a2b4-4348-a58d-ea513d683fe2"},"vehicle_type_id":"4","last_reported":1702469621,"current_range_meters":22800,"station_id":"ce4bhs12rcd13ifvqhvg","pricing_plan_id":"free"},{"bike_id":"e89af4b8-6cf5-441a-8642-5438438b83b0","system_id":"levelo_inurba_marseille","lat":43.302784,"lon":5.377158,"is_reserved":false,"is_disabled":false,"rental_uris":{"android":"levelo://app?vid=e89af4b8-6cf5-441a-8642-5438438b83b0","ios":"levelo://app?vid=e89af4b8-6cf5-441a-8642-5438438b83b0"},"vehicle_type_id":"4","last_reported":1702469621,"current_range_meters":30000,"station_id":"ce4bguh2rcd13ifvqcj0","pricing_plan_id":"free"},{"bike_id":"4956179e-483b-4c26-bdef-b95af16fab8d","system_id":"levelo_inurba_marseille","lat":43.319935,"lon":5.381699,"is_reserved":false,"is_disabled":false,"rental_uris":{"android":"levelo://app?vid=4956179e-483b-4c26-bdef-b95af16fab8d","ios":"levelo://app?vid=4956179e-483b-4c26-bdef-b95af16fab8d"},"vehicle_type_id":"4","last_reported":1702469621,"current_range_meters":19600,"station_id":"ce4bhr12rcd13ifvqhpg","pricing_plan_id":"free"},{"bike_id":"2658d52e-b11d-4ed5-bd52-2eeeb0e6adfb","system_id":"levelo_inurba_marseille","lat":43.313571,"lon":5.384829,"is_reserved":false,"is_disabled":false,"rental_uris":{"android":"levelo://app?vid=2658d52e-b11d-4ed5-bd52-2eeeb0e6adfb","ios":"levelo://app?vid=2658d52e-b11d-4ed5-bd52-2eeeb0e6adfb"},"vehicle_type_id":"4","last_reported":1702469621,"current_range_meters":31200,"station_id":"ce4bgt92rcd13ifvqcf0","pricing_plan_id":"free"},{"bike_id":"49d70b0e-f116-472f-b1b8-7dcd8d35d3d5","system_id":"levelo_inurba_marseille","lat":43.313571,"lon":5.384829,"is_reserved":false,"is_disabled":false,"rental_uris":{"android":"levelo://app?vid=49d70b0e-f116-472f-b1b8-7dcd8d35d3d5","ios":"levelo://app?vid=49d70b0e-f116-472f-b1b8-7dcd8d35d3d5"},"vehicle_type_id":"4","last_reported":1702469621,"current_range_meters":9200,"station_id":"ce4bgt92rcd13ifvqcf0","pricing_plan_id":"free"},{"bike_id":"10db9066-6e4b-476e-8c92-64c2b858d211","system_id":"levelo_inurba_marseille","lat":43.313571,"lon":5.384829,"is_reserved":false,"is_disabled":false,"rental_uris":{"android":"levelo://app?vid=10db9066-6e4b-476e-8c92-64c2b858d211","ios":"levelo://app?vid=10db9066-6e4b-476e-8c92-64c2b858d211"},"vehicle_type_id":"4","last_reported":1702469621,"current_range_meters":14800,"station_id":"ce4bgt92rcd13ifvqcf0","pricing_plan_id":"free"},{"bike_id":"3e748d36-6f79-452c-9a9b-04aae6c62789","system_id":"levelo_inurba_marseille","lat":43.299287,"lon":5.365473,"is_reserved":false,"is_disabled":false,"rental_uris":{"android":"levelo://app?vid=3e748d36-6f79-452c-9a9b-04aae6c62789","ios":"levelo://app?vid=3e748d36-6f79-452c-9a9b-04aae6c62789"},"vehicle_type_id":"4","last_reported":1702469621,"current_range_meters":24400,"station_id":"ce4bgm92rcd13ifvqbr0","pricing_plan_id":"free"},{"bike_id":"26a52bc4-51ee-4bab-be57-320b0e8f9f8b","system_id":"levelo_inurba_marseille","lat":43.305364,"lon":5.384119,"is_reserved":false,"is_disabled":false,"rental_uris":{"android":"levelo://app?vid=26a52bc4-51ee-4bab-be57-320b0e8f9f8b","ios":"levelo://app?vid=26a52bc4-51ee-4bab-be57-320b0e8f9f8b"},"vehicle_type_id":"4","last_reported":1702469621,"current_range_meters":26400,"station_id":"ce4bgg92rcd13ifvqb30","pricing_plan_id":"free"},{"bike_id":"77a6c46d-d898-4e4f-8846-efa91689c7f0","system_id":"levelo_inurba_marseille","lat":43.302006,"lon":5.38065,"is_reserved":false,"is_disabled":false,"rental_uris":{"android":"levelo://app?vid=77a6c46d-d898-4e4f-8846-efa91689c7f0","ios":"levelo://app?vid=77a6c46d-d898-4e4f-8846-efa91689c7f0"},"vehicle_type_id":"4","last_reported":1702469621,"current_range_meters":0,"station_id":"","pricing_plan_id":"free"},{"bike_id":"2de7a2e0-c6cd-423b-87da-985298a56eb5","system_id":"levelo_inurba_marseille","lat":43.32826,"lon":5.3669,"is_reserved":false,"is_disabled":false,"rental_uris":{"android":"levelo://app?vid=2de7a2e0-c6cd-423b-87da-985298a56eb5","ios":"levelo://app?vid=2de7a2e0-c6cd-423b-87da-985298a56eb5"},"vehicle_type_id":"4","last_reported":1702469621,"current_range_meters":23600,"station_id":"ce4bhs92rcd13ifvqi0g","pricing_plan_id":"free"},{"bike_id":"7a878ee5-6910-45dd-b3bd-722059d35da7","system_id":"levelo_inurba_marseille","lat":43.29787,"lon":5.37679,"is_reserved":false,"is_disabled":false,"rental_uris":{"android":"levelo://app?vid=7a878ee5-6910-45dd-b3bd-722059d35da7","ios":"levelo://app?vid=7a878ee5-6910-45dd-b3bd-722059d35da7"},"vehicle_type_id":"4","last_reported":1702469621,"current_range_meters":8800,"station_id":"","pricing_plan_id":"free"},{"bike_id":"1dd26e42-22d7-4f0a-9e66-35104ea5495a","system_id":"levelo_inurba_marseille","lat":43.2968,"lon":5.37291,"is_reserved":false,"is_disabled":false,"rental_uris":{"android":"levelo://app?vid=1dd26e42-22d7-4f0a-9e66-35104ea5495a","ios":"levelo://app?vid=1dd26e42-22d7-4f0a-9e66-35104ea5495a"},"vehicle_type_id":"4","last_reported":1702469621,"current_range_meters":24000,"station_id":"ce4bgk12rcd13ifvqbj0","pricing_plan_id":"free"},{"bike_id":"61190e33-c77f-43a0-bc46-3e92380667fe","system_id":"levelo_inurba_marseille","lat":43.296935,"lon":5.376544,"is_reserved":false,"is_disabled":false,"rental_uris":{"android":"levelo://app?vid=61190e33-c77f-43a0-bc46-3e92380667fe","ios":"levelo://app?vid=61190e33-c77f-43a0-bc46-3e92380667fe"},"vehicle_type_id":"4","last_reported":1702469621,"current_range_meters":23200,"station_id":"ce4bgkh2rcd13ifvqbl0","pricing_plan_id":"free"},{"bike_id":"23bbe805-c94b-4a71-b6b3-02557ecd6b8b","system_id":"levelo_inurba_marseille","lat":43.31754,"lon":5.39007,"is_reserved":false,"is_disabled":false,"rental_uris":{"android":"levelo://app?vid=23bbe805-c94b-4a71-b6b3-02557ecd6b8b","ios":"levelo://app?vid=23bbe805-c94b-4a71-b6b3-02557ecd6b8b"},"vehicle_type_id":"4","last_reported":1702469621,"current_range_meters":25200,"station_id":"ce4bhqp2rcd13ifvqhng","pricing_plan_id":"free"},{"bike_id":"e9d78157-ab4a-41df-a9e7-085811189ed4","system_id":"levelo_inurba_marseille","lat":43.317557,"lon":5.390173,"is_reserved":false,"is_disabled":false,"rental_uris":{"android":"levelo://app?vid=e9d78157-ab4a-41df-a9e7-085811189ed4","ios":"levelo://app?vid=e9d78157-ab4a-41df-a9e7-085811189ed4"},"vehicle_type_id":"4","last_reported":1702469621,"current_range_meters":800,"station_id":"ce4bhqp2rcd13ifvqhng","pricing_plan_id":"free"},{"bike_id":"ee983ebf-fe74-4a47-bd58-48e6bf941492","system_id":"levelo_inurba_marseille","lat":43.317557,"lon":5.390173,"is_reserved":false,"is_disabled":false,"rental_uris":{"android":"levelo://app?vid=ee983ebf-fe74-4a47-bd58-48e6bf941492","ios":"levelo://app?vid=ee983ebf-fe74-4a47-bd58-48e6bf941492"},"vehicle_type_id":"4","last_reported":1702469621,"current_range_meters":16400,"station_id":"ce4bhqp2rcd13ifvqhng","pricing_plan_id":"free"},{"bike_id":"daa8bdfc-bb64-417c-b096-d54568eeac58","system_id":"levelo_inurba_marseille","lat":43.317557,"lon":5.390173,"is_reserved":false,"is_disabled":false,"rental_uris":{"android":"levelo://app?vid=daa8bdfc-bb64-417c-b096-d54568eeac58","ios":"levelo://app?vid=daa8bdfc-bb64-417c-b096-d54568eeac58"},"vehicle_type_id":"4","last_reported":1702469621,"current_range_meters":400,"station_id":"ce4bhqp2rcd13ifvqhng","pricing_plan_id":"free"},{"bike_id":"2121e69e-0aff-4ea7-95dd-2340e3f095f0","system_id":"levelo_inurba_marseille","lat":43.298037,"lon":5.381066,"is_reserved":false,"is_disabled":false,"rental_uris":{"android":"levelo://app?vid=2121e69e-0aff-4ea7-95dd-2340e3f095f0","ios":"levelo://app?vid=2121e69e-0aff-4ea7-95dd-2340e3f095f0"},"vehicle_type_id":"4","last_reported":1702469621,"current_range_meters":17200,"station_id":"ce4bgip2rcd13ifvqbb0","pricing_plan_id":"free"},{"bike_id":"267c9a77-bd61-454d-a0d4-4d7404220493","system_id":"levelo_inurba_marseille","lat":43.32361,"lon":5.38877,"is_reserved":false,"is_disabled":false,"rental_uris":{"android":"levelo://app?vid=267c9a77-bd61-454d-a0d4-4d7404220493","ios":"levelo://app?vid=267c9a77-bd61-454d-a0d4-4d7404220493"},"vehicle_type_id":"4","last_reported":1702469621,"current_range_meters":26000,"station_id":"ce4bhqp2rcd13ifvqhog","pricing_plan_id":"free"},{"bike_id":"af4e32e9-4e5c-4383-9c0d-eabffcb7bda0","system_id":"levelo_inurba_marseille","lat":43.32359,"lon":5.3889,"is_reserved":false,"is_disabled":false,"rental_uris":{"android":"levelo://app?vid=af4e32e9-4e5c-4383-9c0d-eabffcb7bda0","ios":"levelo://app?vid=af4e32e9-4e5c-4383-9c0d-eabffcb7bda0"},"vehicle_type_id":"4","last_reported":1702469621,"current_range_meters":16000,"station_id":"ce4bhqp2rcd13ifvqhog","pricing_plan_id":"free"},{"bike_id":"b552d979-1d77-484e-81b5-d4011e728925","system_id":"levelo_inurba_marseille","lat":43.29601,"lon":5.381084,"is_reserved":false,"is_disabled":false,"rental_uris":{"android":"levelo://app?vid=b552d979-1d77-484e-81b5-d4011e728925","ios":"levelo://app?vid=b552d979-1d77-484e-81b5-d4011e728925"},"vehicle_type_id":"4","last_reported":1702469621,"current_range_meters":12400,"station_id":"ce4bgl12rcd13ifvqbo0","pricing_plan_id":"free"},{"bike_id":"406bb2a1-23ad-4b60-9d04-47886d892319","system_id":"levelo_inurba_marseille","lat":43.292749,"lon":5.368398,"is_reserved":false,"is_disabled":false,"rental_uris":{"android":"levelo://app?vid=406bb2a1-23ad-4b60-9d04-47886d892319","ios":"levelo://app?vid=406bb2a1-23ad-4b60-9d04-47886d892319"},"vehicle_type_id":"4","last_reported":1702469621,"current_range_meters":23200,"station_id":"ce4bhbp2rcd13ifvqesg","pricing_plan_id":"free"},{"bike_id":"86d21ac9-d137-4b07-b90e-faf59237f15b","system_id":"levelo_inurba_marseille","lat":43.292311,"lon":5.360731,"is_reserved":false,"is_disabled":false,"rental_uris":{"android":"levelo://app?vid=86d21ac9-d137-4b07-b90e-faf59237f15b","ios":"levelo://app?vid=86d21ac9-d137-4b07-b90e-faf59237f15b"},"vehicle_type_id":"4","last_reported":1702469621,"current_range_meters":29600,"station_id":"ce4bhbh2rcd13ifvqeqg","pricing_plan_id":"free"},{"bike_id":"c46bf50f-5691-4bd4-88e1-f08bdf62b715","system_id":"levelo_inurba_marseille","lat":43.292311,"lon":5.360731,"is_reserved":false,"is_disabled":false,"rental_uris":{"android":"levelo://app?vid=c46bf50f-5691-4bd4-88e1-f08bdf62b715","ios":"levelo://app?vid=c46bf50f-5691-4bd4-88e1-f08bdf62b715"},"vehicle_type_id":"4","last_reported":1702469621,"current_range_meters":19600,"station_id":"ce4bhbh2rcd13ifvqeqg","pricing_plan_id":"free"},{"bike_id":"af03e5aa-ccfc-4a17-a10d-76025824d200","system_id":"levelo_inurba_marseille","lat":43.292311,"lon":5.360731,"is_reserved":false,"is_disabled":false,"rental_uris":{"android":"levelo://app?vid=af03e5aa-ccfc-4a17-a10d-76025824d200","ios":"levelo://app?vid=af03e5aa-ccfc-4a17-a10d-76025824d200"},"vehicle_type_id":"4","last_reported":1702469621,"current_range_meters":31200,"station_id":"ce4bhbh2rcd13ifvqeqg","pricing_plan_id":"free"},{"bike_id":"5be41b98-c32c-40c0-9237-051782903545","system_id":"levelo_inurba_marseille","lat":43.291671,"lon":5.371575,"is_reserved":false,"is_disabled":false,"rental_uris":{"android":"levelo://app?vid=5be41b98-c32c-40c0-9237-051782903545","ios":"levelo://app?vid=5be41b98-c32c-40c0-9237-051782903545"},"vehicle_type_id":"4","last_reported":1702469621,"current_range_meters":15600,"station_id":"ce4bha92rcd13ifvqeh0","pricing_plan_id":"free"},{"bike_id":"7f40eddb-eebc-41a6-8496-3f7d982891de","system_id":"levelo_inurba_marseille","lat":43.291994,"lon":5.357886,"is_reserved":false,"is_disabled":false,"rental_uris":{"android":"levelo://app?vid=7f40eddb-eebc-41a6-8496-3f7d982891de","ios":"levelo://app?vid=7f40eddb-eebc-41a6-8496-3f7d982891de"},"vehicle_type_id":"4","last_reported":1702469621,"current_range_meters":8400,"station_id":"ce4bhb12rcd13ifvqel0","pricing_plan_id":"free"},{"bike_id":"9d530315-5190-49a6-8d1f-88db84a233a1","system_id":"levelo_inurba_marseille","lat":43.313291,"lon":5.396838,"is_reserved":false,"is_disabled":false,"rental_uris":{"android":"levelo://app?vid=9d530315-5190-49a6-8d1f-88db84a233a1","ios":"levelo://app?vid=9d530315-5190-49a6-8d1f-88db84a233a1"},"vehicle_type_id":"4","last_reported":1702469621,"current_range_meters":14800,"station_id":"ce4bgvp2rcd13ifvqcu0","pricing_plan_id":"free"},{"bike_id":"d144f246-f76d-41a8-9245-37e4d9ef292e","system_id":"levelo_inurba_marseille","lat":43.313291,"lon":5.396838,"is_reserved":false,"is_disabled":false,"rental_uris":{"android":"levelo://app?vid=d144f246-f76d-41a8-9245-37e4d9ef292e","ios":"levelo://app?vid=d144f246-f76d-41a8-9245-37e4d9ef292e"},"vehicle_type_id":"4","last_reported":1702469621,"current_range_meters":4000,"station_id":"ce4bgvp2rcd13ifvqcu0","pricing_plan_id":"free"},{"bike_id":"d3475951-e285-4371-9c10-4cfd523e466f","system_id":"levelo_inurba_marseille","lat":43.313291,"lon":5.396838,"is_reserved":false,"is_disabled":false,"rental_uris":{"android":"levelo://app?vid=d3475951-e285-4371-9c10-4cfd523e466f","ios":"levelo://app?vid=d3475951-e285-4371-9c10-4cfd523e466f"},"vehicle_type_id":"4","last_reported":1702469621,"current_range_meters":17200,"station_id":"ce4bgvp2rcd13ifvqcu0","pricing_plan_id":"free"},{"bike_id":"41cc5f42-0eb3-46f9-971a-d0d0646df95f","system_id":"levelo_inurba_marseille","lat":43.291994,"lon":5.357886,"is_reserved":false,"is_disabled":false,"rental_uris":{"android":"levelo://app?vid=41cc5f42-0eb3-46f9-971a-d0d0646df95f","ios":"levelo://app?vid=41cc5f42-0eb3-46f9-971a-d0d0646df95f"},"vehicle_type_id":"4","last_reported":1702469621,"current_range_meters":22800,"station_id":"ce4bhb12rcd13ifvqel0","pricing_plan_id":"free"},{"bike_id":"3de0a65c-53d2-4a0c-872c-be09660834c1","system_id":"levelo_inurba_marseille","lat":43.29179,"lon":5.35812,"is_reserved":false,"is_disabled":false,"rental_uris":{"android":"levelo://app?vid=3de0a65c-53d2-4a0c-872c-be09660834c1","ios":"levelo://app?vid=3de0a65c-53d2-4a0c-872c-be09660834c1"},"vehicle_type_id":"4","last_reported":1702469621,"current_range_meters":15600,"station_id":"ce4bhb12rcd13ifvqel0","pricing_plan_id":"free"},{"bike_id":"f8f0686e-72b5-4342-8af6-2000be4c3eec","system_id":"levelo_inurba_marseille","lat":43.290161,"lon":5.375651,"is_reserved":false,"is_disabled":false,"rental_uris":{"android":"levelo://app?vid=f8f0686e-72b5-4342-8af6-2000be4c3eec","ios":"levelo://app?vid=f8f0686e-72b5-4342-8af6-2000be4c3eec"},"vehicle_type_id":"4","last_reported":1702469621,"current_range_meters":0,"station_id":"","pricing_plan_id":"free"},{"bike_id":"aded14b1-8cbd-4b23-b993-e96039c86720","system_id":"levelo_inurba_marseille","lat":43.289184,"lon":5.366408,"is_reserved":false,"is_disabled":false,"rental_uris":{"android":"levelo://app?vid=aded14b1-8cbd-4b23-b993-e96039c86720","ios":"levelo://app?vid=aded14b1-8cbd-4b23-b993-e96039c86720"},"vehicle_type_id":"4","last_reported":1702469621,"current_range_meters":6800,"station_id":"ce4bhap2rcd13ifvqek0","pricing_plan_id":"free"},{"bike_id":"06ca8534-65b4-4774-a7c8-03b5af893c6a","system_id":"levelo_inurba_marseille","lat":43.33041,"lon":5.3892,"is_reserved":false,"is_disabled":false,"rental_uris":{"android":"levelo://app?vid=06ca8534-65b4-4774-a7c8-03b5af893c6a","ios":"levelo://app?vid=06ca8534-65b4-4774-a7c8-03b5af893c6a"},"vehicle_type_id":"4","last_reported":1702469621,"current_range_meters":9600,"station_id":"ce4bhr92rcd13ifvqhrg","pricing_plan_id":"free"},{"bike_id":"3b1ccc84-0921-4422-b4e6-f22cb1ac706f","system_id":"levelo_inurba_marseille","lat":43.295169,"lon":5.390426,"is_reserved":false,"is_disabled":false,"rental_uris":{"android":"levelo://app?vid=3b1ccc84-0921-4422-b4e6-f22cb1ac706f","ios":"levelo://app?vid=3b1ccc84-0921-4422-b4e6-f22cb1ac706f"},"vehicle_type_id":"4","last_reported":1702469621,"current_range_meters":10800,"station_id":"ce4bh3p2rcd13ifvqdp0","pricing_plan_id":"free"},{"bike_id":"f478c918-aa21-44d6-a8c0-7e6ca670e375","system_id":"levelo_inurba_marseille","lat":43.28856,"lon":5.358371,"is_reserved":false,"is_disabled":false,"rental_uris":{"android":"levelo://app?vid=f478c918-aa21-44d6-a8c0-7e6ca670e375","ios":"levelo://app?vid=f478c918-aa21-44d6-a8c0-7e6ca670e375"},"vehicle_type_id":"4","last_reported":1702469621,"current_range_meters":18000,"station_id":"ce4bhb12rcd13ifvqem0","pricing_plan_id":"free"},{"bike_id":"27dad930-9777-4c26-aac7-adcfac675657","system_id":"levelo_inurba_marseille","lat":43.312609,"lon":5.401662,"is_reserved":false,"is_disabled":false,"rental_uris":{"android":"levelo://app?vid=27dad930-9777-4c26-aac7-adcfac675657","ios":"levelo://app?vid=27dad930-9777-4c26-aac7-adcfac675657"},"vehicle_type_id":"4","last_reported":1702469621,"current_range_meters":23200,"station_id":"ce4bh092rcd13ifvqd30","pricing_plan_id":"free"},{"bike_id":"67a71298-f781-4402-8d03-cdb5dd11acae","system_id":"levelo_inurba_marseille","lat":43.337451,"lon":5.37463,"is_reserved":false,"is_disabled":false,"rental_uris":{"android":"levelo://app?vid=67a71298-f781-4402-8d03-cdb5dd11acae","ios":"levelo://app?vid=67a71298-f781-4402-8d03-cdb5dd11acae"},"vehicle_type_id":"4","last_reported":1702469621,"current_range_meters":27600,"station_id":"","pricing_plan_id":"free"},{"bike_id":"f96f6a74-e8ba-46a5-8363-13a739ca4989","system_id":"levelo_inurba_marseille","lat":43.30932,"lon":5.40144,"is_reserved":false,"is_disabled":false,"rental_uris":{"android":"levelo://app?vid=f96f6a74-e8ba-46a5-8363-13a739ca4989","ios":"levelo://app?vid=f96f6a74-e8ba-46a5-8363-13a739ca4989"},"vehicle_type_id":"4","last_reported":1702469621,"current_range_meters":14000,"station_id":"ce4bgvp2rcd13ifvqct0","pricing_plan_id":"free"},{"bike_id":"3cbcbb37-a92d-4f78-b689-2f73f286e701","system_id":"levelo_inurba_marseille","lat":43.33749,"lon":5.37466,"is_reserved":false,"is_disabled":false,"rental_uris":{"android":"levelo://app?vid=3cbcbb37-a92d-4f78-b689-2f73f286e701","ios":"levelo://app?vid=3cbcbb37-a92d-4f78-b689-2f73f286e701"},"vehicle_type_id":"4","last_reported":1702469621,"current_range_meters":28000,"station_id":"","pricing_plan_id":"free"},{"bike_id":"6d0c592f-9564-4532-a262-d8d9a0b38ec4","system_id":"levelo_inurba_marseille","lat":43.3376,"lon":5.37459,"is_reserved":false,"is_disabled":false,"rental_uris":{"android":"levelo://app?vid=6d0c592f-9564-4532-a262-d8d9a0b38ec4","ios":"levelo://app?vid=6d0c592f-9564-4532-a262-d8d9a0b38ec4"},"vehicle_type_id":"4","last_reported":1702469621,"current_range_meters":29200,"station_id":"","pricing_plan_id":"free"},{"bike_id":"709bebcd-7a96-4a30-894a-152bbb656aa7","system_id":"levelo_inurba_marseille","lat":43.33761,"lon":5.37472,"is_reserved":false,"is_disabled":false,"rental_uris":{"android":"levelo://app?vid=709bebcd-7a96-4a30-894a-152bbb656aa7","ios":"levelo://app?vid=709bebcd-7a96-4a30-894a-152bbb656aa7"},"vehicle_type_id":"4","last_reported":1702469621,"current_range_meters":16000,"station_id":"","pricing_plan_id":"free"},{"bike_id":"41410733-1044-4826-9c24-8025cecd69f5","system_id":"levelo_inurba_marseille","lat":43.301117,"lon":5.398795,"is_reserved":false,"is_disabled":false,"rental_uris":{"android":"levelo://app?vid=41410733-1044-4826-9c24-8025cecd69f5","ios":"levelo://app?vid=41410733-1044-4826-9c24-8025cecd69f5"},"vehicle_type_id":"4","last_reported":1702469621,"current_range_meters":11600,"station_id":"ce4bh0h2rcd13ifvqd40","pricing_plan_id":"free"},{"bike_id":"14297c87-4dad-4f1e-9b09-5fa4e3d3f05b","system_id":"levelo_inurba_marseille","lat":43.301117,"lon":5.398795,"is_reserved":false,"is_disabled":false,"rental_uris":{"android":"levelo://app?vid=14297c87-4dad-4f1e-9b09-5fa4e3d3f05b","ios":"levelo://app?vid=14297c87-4dad-4f1e-9b09-5fa4e3d3f05b"},"vehicle_type_id":"4","last_reported":1702469621,"current_range_meters":20800,"station_id":"ce4bh0h2rcd13ifvqd40","pricing_plan_id":"free"},{"bike_id":"b92c126a-2fd7-4715-83e8-9b17e39b278b","system_id":"levelo_inurba_marseille","lat":43.301117,"lon":5.398795,"is_reserved":false,"is_disabled":false,"rental_uris":{"android":"levelo://app?vid=b92c126a-2fd7-4715-83e8-9b17e39b278b","ios":"levelo://app?vid=b92c126a-2fd7-4715-83e8-9b17e39b278b"},"vehicle_type_id":"4","last_reported":1702469621,"current_range_meters":16800,"station_id":"ce4bh0h2rcd13ifvqd40","pricing_plan_id":"free"},{"bike_id":"247e10d8-25bb-4af2-a6c9-f65f0fb6436a","system_id":"levelo_inurba_marseille","lat":43.28727,"lon":5.36078,"is_reserved":false,"is_disabled":false,"rental_uris":{"android":"levelo://app?vid=247e10d8-25bb-4af2-a6c9-f65f0fb6436a","ios":"levelo://app?vid=247e10d8-25bb-4af2-a6c9-f65f0fb6436a"},"vehicle_type_id":"4","last_reported":1702469621,"current_range_meters":27600,"station_id":"cki0cbj6b192h4jlfktg","pricing_plan_id":"free"},{"bike_id":"224939f0-01db-4c47-9d99-191a9a76cc92","system_id":"levelo_inurba_marseille","lat":43.301117,"lon":5.398795,"is_reserved":false,"is_disabled":false,"rental_uris":{"android":"levelo://app?vid=224939f0-01db-4c47-9d99-191a9a76cc92","ios":"levelo://app?vid=224939f0-01db-4c47-9d99-191a9a76cc92"},"vehicle_type_id":"4","last_reported":1702469621,"current_range_meters":0,"station_id":"ce4bh0h2rcd13ifvqd40","pricing_plan_id":"free"},{"bike_id":"b9af2046-987c-41ce-94d5-e80cc6b6e7e6","system_id":"levelo_inurba_marseille","lat":43.295196,"lon":5.39397,"is_reserved":false,"is_disabled":false,"rental_uris":{"android":"levelo://app?vid=b9af2046-987c-41ce-94d5-e80cc6b6e7e6","ios":"levelo://app?vid=b9af2046-987c-41ce-94d5-e80cc6b6e7e6"},"vehicle_type_id":"4","last_reported":1702469621,"current_range_meters":22800,"station_id":"ce4bh292rcd13ifvqdf0","pricing_plan_id":"free"},{"bike_id":"10b99011-98ce-4cb6-ac43-ac986c3a262d","system_id":"levelo_inurba_marseille","lat":43.286593,"lon":5.363346,"is_reserved":false,"is_disabled":false,"rental_uris":{"android":"levelo://app?vid=10b99011-98ce-4cb6-ac43-ac986c3a262d","ios":"levelo://app?vid=10b99011-98ce-4cb6-ac43-ac986c3a262d"},"vehicle_type_id":"4","last_reported":1702469621,"current_range_meters":30000,"station_id":"ce4bhah2rcd13ifvqej0","pricing_plan_id":"free"},{"bike_id":"870b9e72-3640-4f50-b5a8-450ce3fa8a5d","system_id":"levelo_inurba_marseille","lat":43.290345,"lon":5.38646,"is_reserved":false,"is_disabled":false,"rental_uris":{"android":"levelo://app?vid=870b9e72-3640-4f50-b5a8-450ce3fa8a5d","ios":"levelo://app?vid=870b9e72-3640-4f50-b5a8-450ce3fa8a5d"},"vehicle_type_id":"4","last_reported":1702469621,"current_range_meters":0,"station_id":"ce4bh4p2rcd13ifvqe0g","pricing_plan_id":"free"},{"bike_id":"17ad54fa-30dd-43a6-8536-35935c3c0b86","system_id":"levelo_inurba_marseille","lat":43.286039,"lon":5.370681,"is_reserved":false,"is_disabled":false,"rental_uris":{"android":"levelo://app?vid=17ad54fa-30dd-43a6-8536-35935c3c0b86","ios":"levelo://app?vid=17ad54fa-30dd-43a6-8536-35935c3c0b86"},"vehicle_type_id":"4","last_reported":1702469621,"current_range_meters":0,"station_id":"ce4bht12rcd13ifvqi60","pricing_plan_id":"free"},{"bike_id":"cef93f3b-5c0e-4c9b-b2a0-a7928a1e3cf7","system_id":"levelo_inurba_marseille","lat":43.284538,"lon":5.358657,"is_reserved":false,"is_disabled":false,"rental_uris":{"android":"levelo://app?vid=cef93f3b-5c0e-4c9b-b2a0-a7928a1e3cf7","ios":"levelo://app?vid=cef93f3b-5c0e-4c9b-b2a0-a7928a1e3cf7"},"vehicle_type_id":"4","last_reported":1702469621,"current_range_meters":21200,"station_id":"ce4bhah2rcd13ifvqei0","pricing_plan_id":"free"},{"bike_id":"9a735f84-eab8-4eaf-b49e-892b3504133e","system_id":"levelo_inurba_marseille","lat":43.285856,"lon":5.350771,"is_reserved":false,"is_disabled":false,"rental_uris":{"android":"levelo://app?vid=9a735f84-eab8-4eaf-b49e-892b3504133e","ios":"levelo://app?vid=9a735f84-eab8-4eaf-b49e-892b3504133e"},"vehicle_type_id":"4","last_reported":1702469621,"current_range_meters":17200,"station_id":"ce4bhch2rcd13ifvqeug","pricing_plan_id":"free"},{"bike_id":"95b9793a-83d7-4b80-99bc-d6181b68f44f","system_id":"levelo_inurba_marseille","lat":43.28617,"lon":5.351,"is_reserved":false,"is_disabled":false,"rental_uris":{"android":"levelo://app?vid=95b9793a-83d7-4b80-99bc-d6181b68f44f","ios":"levelo://app?vid=95b9793a-83d7-4b80-99bc-d6181b68f44f"},"vehicle_type_id":"4","last_reported":1702469621,"current_range_meters":23200,"station_id":"ce4bhch2rcd13ifvqeug","pricing_plan_id":"free"},{"bike_id":"bbd84a02-1069-4d4b-aaf1-82d0e91562ce","system_id":"levelo_inurba_marseille","lat":43.337168,"lon":5.391825,"is_reserved":false,"is_disabled":false,"rental_uris":{"android":"levelo://app?vid=bbd84a02-1069-4d4b-aaf1-82d0e91562ce","ios":"levelo://app?vid=bbd84a02-1069-4d4b-aaf1-82d0e91562ce"},"vehicle_type_id":"4","last_reported":1702469621,"current_range_meters":24400,"station_id":"ce4bhr92rcd13ifvqhsg","pricing_plan_id":"free"},{"bike_id":"9e73ec20-6d15-44f6-ae64-b043b529077e","system_id":"levelo_inurba_marseille","lat":43.284793,"lon":5.384119,"is_reserved":false,"is_disabled":false,"rental_uris":{"android":"levelo://app?vid=9e73ec20-6d15-44f6-ae64-b043b529077e","ios":"levelo://app?vid=9e73ec20-6d15-44f6-ae64-b043b529077e"},"vehicle_type_id":"4","last_reported":1702469621,"current_range_meters":14400,"station_id":"ce4bh512rcd13ifvqe3g","pricing_plan_id":"free"},{"bike_id":"06240785-88cd-4b57-9b92-64e34e0d8fa1","system_id":"levelo_inurba_marseille","lat":43.29795,"lon":5.404086,"is_reserved":false,"is_disabled":false,"rental_uris":{"android":"levelo://app?vid=06240785-88cd-4b57-9b92-64e34e0d8fa1","ios":"levelo://app?vid=06240785-88cd-4b57-9b92-64e34e0d8fa1"},"vehicle_type_id":"4","last_reported":1702469621,"current_range_meters":21600,"station_id":"ce4bh112rcd13ifvqd90","pricing_plan_id":"free"},{"bike_id":"036d3f3b-2241-42ab-8a21-ee8ef03fd991","system_id":"levelo_inurba_marseille","lat":43.283494,"lon":5.380945,"is_reserved":false,"is_disabled":false,"rental_uris":{"android":"levelo://app?vid=036d3f3b-2241-42ab-8a21-ee8ef03fd991","ios":"levelo://app?vid=036d3f3b-2241-42ab-8a21-ee8ef03fd991"},"vehicle_type_id":"4","last_reported":1702469621,"current_range_meters":10800,"station_id":"ce4bh412rcd13ifvqdr0","pricing_plan_id":"free"},{"bike_id":"935c59cf-f1a6-4ab4-81cc-fdfd231a4e10","system_id":"levelo_inurba_marseille","lat":43.283498,"lon":5.380948,"is_reserved":false,"is_disabled":false,"rental_uris":{"android":"levelo://app?vid=935c59cf-f1a6-4ab4-81cc-fdfd231a4e10","ios":"levelo://app?vid=935c59cf-f1a6-4ab4-81cc-fdfd231a4e10"},"vehicle_type_id":"4","last_reported":1702469621,"current_range_meters":11600,"station_id":"ce4bh412rcd13ifvqdr0","pricing_plan_id":"free"},{"bike_id":"45366f3f-8c9b-42dc-b92d-59b1f0248e10","system_id":"levelo_inurba_marseille","lat":43.284219,"lon":5.3497,"is_reserved":false,"is_disabled":false,"rental_uris":{"android":"levelo://app?vid=45366f3f-8c9b-42dc-b92d-59b1f0248e10","ios":"levelo://app?vid=45366f3f-8c9b-42dc-b92d-59b1f0248e10"},"vehicle_type_id":"4","last_reported":1702469621,"current_range_meters":26800,"station_id":"ce4bhbh2rcd13ifvqepg","pricing_plan_id":"free"},{"bike_id":"1bfb89a1-0af2-4796-96be-827606c2a7b5","system_id":"levelo_inurba_marseille","lat":43.282754,"lon":5.350519,"is_reserved":false,"is_disabled":false,"rental_uris":{"android":"levelo://app?vid=1bfb89a1-0af2-4796-96be-827606c2a7b5","ios":"levelo://app?vid=1bfb89a1-0af2-4796-96be-827606c2a7b5"},"vehicle_type_id":"4","last_reported":1702469621,"current_range_meters":19600,"station_id":"ce4bhbp2rcd13ifvqerg","pricing_plan_id":"free"},{"bike_id":"70b8de5f-6a47-4aa8-ad20-a3ca2bd316d6","system_id":"levelo_inurba_marseille","lat":43.283502,"lon":5.386471,"is_reserved":false,"is_disabled":false,"rental_uris":{"android":"levelo://app?vid=70b8de5f-6a47-4aa8-ad20-a3ca2bd316d6","ios":"levelo://app?vid=70b8de5f-6a47-4aa8-ad20-a3ca2bd316d6"},"vehicle_type_id":"4","last_reported":1702469621,"current_range_meters":24400,"station_id":"ce4bh492rcd13ifvqdvg","pricing_plan_id":"free"},{"bike_id":"652966ee-6f77-4176-8701-4d597aa9f163","system_id":"levelo_inurba_marseille","lat":43.28039,"lon":5.369297,"is_reserved":false,"is_disabled":false,"rental_uris":{"android":"levelo://app?vid=652966ee-6f77-4176-8701-4d597aa9f163","ios":"levelo://app?vid=652966ee-6f77-4176-8701-4d597aa9f163"},"vehicle_type_id":"4","last_reported":1702469621,"current_range_meters":21200,"station_id":"ce4bha12rcd13ifvqef0","pricing_plan_id":"free"},{"bike_id":"a19fe855-e16f-4e14-912f-aa960726fe83","system_id":"levelo_inurba_marseille","lat":43.283502,"lon":5.386471,"is_reserved":false,"is_disabled":false,"rental_uris":{"android":"levelo://app?vid=a19fe855-e16f-4e14-912f-aa960726fe83","ios":"levelo://app?vid=a19fe855-e16f-4e14-912f-aa960726fe83"},"vehicle_type_id":"4","last_reported":1702469621,"current_range_meters":14800,"station_id":"ce4bh492rcd13ifvqdvg","pricing_plan_id":"free"},{"bike_id":"2cea39da-ebb3-410f-ac2e-aba28e7671ea","system_id":"levelo_inurba_marseille","lat":43.283502,"lon":5.386471,"is_reserved":false,"is_disabled":false,"rental_uris":{"android":"levelo://app?vid=2cea39da-ebb3-410f-ac2e-aba28e7671ea","ios":"levelo://app?vid=2cea39da-ebb3-410f-ac2e-aba28e7671ea"},"vehicle_type_id":"4","last_reported":1702469621,"current_range_meters":9200,"station_id":"ce4bh492rcd13ifvqdvg","pricing_plan_id":"free"},{"bike_id":"3a4d2c9d-3dd0-44b2-bd24-6f65c04f3652","system_id":"levelo_inurba_marseille","lat":43.326446,"lon":5.40994,"is_reserved":false,"is_disabled":false,"rental_uris":{"android":"levelo://app?vid=3a4d2c9d-3dd0-44b2-bd24-6f65c04f3652","ios":"levelo://app?vid=3a4d2c9d-3dd0-44b2-bd24-6f65c04f3652"},"vehicle_type_id":"4","last_reported":1702469621,"current_range_meters":27600,"station_id":"ce4bhpp2rcd13ifvqhgg","pricing_plan_id":"free"},{"bike_id":"32f616fc-7214-4f23-8247-c21137cb60c8","system_id":"levelo_inurba_marseille","lat":43.326605,"lon":5.409903,"is_reserved":false,"is_disabled":false,"rental_uris":{"android":"levelo://app?vid=32f616fc-7214-4f23-8247-c21137cb60c8","ios":"levelo://app?vid=32f616fc-7214-4f23-8247-c21137cb60c8"},"vehicle_type_id":"4","last_reported":1702469621,"current_range_meters":22000,"station_id":"ce4bhpp2rcd13ifvqhgg","pricing_plan_id":"free"},{"bike_id":"161be74c-c10c-4e62-acca-4faff962d812","system_id":"levelo_inurba_marseille","lat":43.304188,"lon":5.412904,"is_reserved":false,"is_disabled":false,"rental_uris":{"android":"levelo://app?vid=161be74c-c10c-4e62-acca-4faff962d812","ios":"levelo://app?vid=161be74c-c10c-4e62-acca-4faff962d812"},"vehicle_type_id":"4","last_reported":1702469621,"current_range_meters":10000,"station_id":"ce4bhop2rcd13ifvqh8g","pricing_plan_id":"free"},{"bike_id":"34a2c4b4-a020-46a4-ae85-e5b60413f992","system_id":"levelo_inurba_marseille","lat":43.304188,"lon":5.412904,"is_reserved":false,"is_disabled":false,"rental_uris":{"android":"levelo://app?vid=34a2c4b4-a020-46a4-ae85-e5b60413f992","ios":"levelo://app?vid=34a2c4b4-a020-46a4-ae85-e5b60413f992"},"vehicle_type_id":"4","last_reported":1702469621,"current_range_meters":14400,"station_id":"ce4bhop2rcd13ifvqh8g","pricing_plan_id":"free"},{"bike_id":"51340e1b-aa9f-4a17-bec9-4bb2721eca35","system_id":"levelo_inurba_marseille","lat":43.279087,"lon":5.380114,"is_reserved":false,"is_disabled":false,"rental_uris":{"android":"levelo://app?vid=51340e1b-aa9f-4a17-bec9-4bb2721eca35","ios":"levelo://app?vid=51340e1b-aa9f-4a17-bec9-4bb2721eca35"},"vehicle_type_id":"4","last_reported":1702469621,"current_range_meters":20400,"station_id":"ce4bhf92rcd13ifvqf50","pricing_plan_id":"free"},{"bike_id":"e0fedd99-6d26-47a6-a731-f5784e0a48fc","system_id":"levelo_inurba_marseille","lat":43.279742,"lon":5.38744,"is_reserved":false,"is_disabled":false,"rental_uris":{"android":"levelo://app?vid=e0fedd99-6d26-47a6-a731-f5784e0a48fc","ios":"levelo://app?vid=e0fedd99-6d26-47a6-a731-f5784e0a48fc"},"vehicle_type_id":"4","last_reported":1702469621,"current_range_meters":18000,"station_id":"ce4bhg12rcd13ifvqf80","pricing_plan_id":"free"},{"bike_id":"3e064d86-13e6-41a1-82e1-675d884ace08","system_id":"levelo_inurba_marseille","lat":43.325243,"lon":5.414326,"is_reserved":false,"is_disabled":false,"rental_uris":{"android":"levelo://app?vid=3e064d86-13e6-41a1-82e1-675d884ace08","ios":"levelo://app?vid=3e064d86-13e6-41a1-82e1-675d884ace08"},"vehicle_type_id":"4","last_reported":1702469621,"current_range_meters":3600,"station_id":"ce4bhq12rcd13ifvqhhg","pricing_plan_id":"free"},{"bike_id":"c3484356-62f6-4b83-9b3b-839005715153","system_id":"levelo_inurba_marseille","lat":43.32537,"lon":5.41423,"is_reserved":false,"is_disabled":false,"rental_uris":{"android":"levelo://app?vid=c3484356-62f6-4b83-9b3b-839005715153","ios":"levelo://app?vid=c3484356-62f6-4b83-9b3b-839005715153"},"vehicle_type_id":"4","last_reported":1702469621,"current_range_meters":31200,"station_id":"ce4bhq12rcd13ifvqhhg","pricing_plan_id":"free"},{"bike_id":"6241fbe5-86c5-4f60-8a8d-660be0652143","system_id":"levelo_inurba_marseille","lat":43.29255,"lon":5.40915,"is_reserved":false,"is_disabled":false,"rental_uris":{"android":"levelo://app?vid=6241fbe5-86c5-4f60-8a8d-660be0652143","ios":"levelo://app?vid=6241fbe5-86c5-4f60-8a8d-660be0652143"},"vehicle_type_id":"4","last_reported":1702469621,"current_range_meters":22400,"station_id":"ce4bh192rcd13ifvqdc0","pricing_plan_id":"free"},{"bike_id":"8e814ecb-5dbf-4da1-91b3-8823fe935348","system_id":"levelo_inurba_marseille","lat":43.325233,"lon":5.414318,"is_reserved":false,"is_disabled":false,"rental_uris":{"android":"levelo://app?vid=8e814ecb-5dbf-4da1-91b3-8823fe935348","ios":"levelo://app?vid=8e814ecb-5dbf-4da1-91b3-8823fe935348"},"vehicle_type_id":"4","last_reported":1702469621,"current_range_meters":29600,"station_id":"ce4bhq12rcd13ifvqhhg","pricing_plan_id":"free"},{"bike_id":"bca5a27f-c25f-433b-ad08-f15021e37e7e","system_id":"levelo_inurba_marseille","lat":43.325243,"lon":5.414326,"is_reserved":false,"is_disabled":false,"rental_uris":{"android":"levelo://app?vid=bca5a27f-c25f-433b-ad08-f15021e37e7e","ios":"levelo://app?vid=bca5a27f-c25f-433b-ad08-f15021e37e7e"},"vehicle_type_id":"4","last_reported":1702469621,"current_range_meters":31600,"station_id":"ce4bhq12rcd13ifvqhhg","pricing_plan_id":"free"},{"bike_id":"13ed7864-5e28-4879-bef0-43ec97cea419","system_id":"levelo_inurba_marseille","lat":43.32534,"lon":5.41447,"is_reserved":false,"is_disabled":false,"rental_uris":{"android":"levelo://app?vid=13ed7864-5e28-4879-bef0-43ec97cea419","ios":"levelo://app?vid=13ed7864-5e28-4879-bef0-43ec97cea419"},"vehicle_type_id":"4","last_reported":1702469621,"current_range_meters":20000,"station_id":"ce4bhq12rcd13ifvqhhg","pricing_plan_id":"free"},{"bike_id":"a68e8c30-ad27-4f0c-9ef4-71c9d6e74ca7","system_id":"levelo_inurba_marseille","lat":43.276179,"lon":5.361009,"is_reserved":false,"is_disabled":false,"rental_uris":{"android":"levelo://app?vid=a68e8c30-ad27-4f0c-9ef4-71c9d6e74ca7","ios":"levelo://app?vid=a68e8c30-ad27-4f0c-9ef4-71c9d6e74ca7"},"vehicle_type_id":"4","last_reported":1702469621,"current_range_meters":12000,"station_id":"ce4bgj92rcd13ifvqbe0","pricing_plan_id":"free"},{"bike_id":"5a319608-2a65-44d6-96d2-2486de31f026","system_id":"levelo_inurba_marseille","lat":43.2808,"lon":5.39654,"is_reserved":false,"is_disabled":false,"rental_uris":{"android":"levelo://app?vid=5a319608-2a65-44d6-96d2-2486de31f026","ios":"levelo://app?vid=5a319608-2a65-44d6-96d2-2486de31f026"},"vehicle_type_id":"4","last_reported":1702469621,"current_range_meters":0,"station_id":"ce4bho12rcd13ifvqh2g","pricing_plan_id":"free"},{"bike_id":"534e1073-80e4-4d57-844d-e13c6e4702e3","system_id":"levelo_inurba_marseille","lat":43.303837,"lon":5.418724,"is_reserved":false,"is_disabled":false,"rental_uris":{"android":"levelo://app?vid=534e1073-80e4-4d57-844d-e13c6e4702e3","ios":"levelo://app?vid=534e1073-80e4-4d57-844d-e13c6e4702e3"},"vehicle_type_id":"4","last_reported":1702469621,"current_range_meters":20400,"station_id":"ce4bhop2rcd13ifvqh7g","pricing_plan_id":"free"},{"bike_id":"ea528fc9-dd21-48f3-a0d9-d3a9464bf9d1","system_id":"levelo_inurba_marseille","lat":43.278401,"lon":5.392152,"is_reserved":false,"is_disabled":false,"rental_uris":{"android":"levelo://app?vid=ea528fc9-dd21-48f3-a0d9-d3a9464bf9d1","ios":"levelo://app?vid=ea528fc9-dd21-48f3-a0d9-d3a9464bf9d1"},"vehicle_type_id":"4","last_reported":1702469621,"current_range_meters":24000,"station_id":"ce4bhjp2rcd13ifvqga0","pricing_plan_id":"free"},{"bike_id":"d10e25cd-bf3e-41da-b2a1-5439869bc1da","system_id":"levelo_inurba_marseille","lat":43.278401,"lon":5.392152,"is_reserved":false,"is_disabled":false,"rental_uris":{"android":"levelo://app?vid=d10e25cd-bf3e-41da-b2a1-5439869bc1da","ios":"levelo://app?vid=d10e25cd-bf3e-41da-b2a1-5439869bc1da"},"vehicle_type_id":"4","last_reported":1702469621,"current_range_meters":10400,"station_id":"ce4bhjp2rcd13ifvqga0","pricing_plan_id":"free"},{"bike_id":"92b8d9d3-543a-471a-a14a-9a557262b875","system_id":"levelo_inurba_marseille","lat":43.275625,"lon":5.384392,"is_reserved":false,"is_disabled":false,"rental_uris":{"android":"levelo://app?vid=92b8d9d3-543a-471a-a14a-9a557262b875","ios":"levelo://app?vid=92b8d9d3-543a-471a-a14a-9a557262b875"},"vehicle_type_id":"4","last_reported":1702469621,"current_range_meters":12400,"station_id":"ce4bhh92rcd13ifvqfi0","pricing_plan_id":"free"},{"bike_id":"7f1e5201-708c-47ae-930f-fa1da7fe12d6","system_id":"levelo_inurba_marseille","lat":43.275625,"lon":5.384392,"is_reserved":false,"is_disabled":false,"rental_uris":{"android":"levelo://app?vid=7f1e5201-708c-47ae-930f-fa1da7fe12d6","ios":"levelo://app?vid=7f1e5201-708c-47ae-930f-fa1da7fe12d6"},"vehicle_type_id":"4","last_reported":1702469621,"current_range_meters":12400,"station_id":"ce4bhh92rcd13ifvqfi0","pricing_plan_id":"free"},{"bike_id":"4deea7ad-2829-4039-8251-b9de13644e3d","system_id":"levelo_inurba_marseille","lat":43.33612,"lon":5.410321,"is_reserved":false,"is_disabled":false,"rental_uris":{"android":"levelo://app?vid=4deea7ad-2829-4039-8251-b9de13644e3d","ios":"levelo://app?vid=4deea7ad-2829-4039-8251-b9de13644e3d"},"vehicle_type_id":"4","last_reported":1702469621,"current_range_meters":18000,"station_id":"ce4bhqh2rcd13ifvqhmg","pricing_plan_id":"free"},{"bike_id":"f283a1d0-24bf-4072-9f13-a093e18020dd","system_id":"levelo_inurba_marseille","lat":43.275625,"lon":5.384392,"is_reserved":false,"is_disabled":false,"rental_uris":{"android":"levelo://app?vid=f283a1d0-24bf-4072-9f13-a093e18020dd","ios":"levelo://app?vid=f283a1d0-24bf-4072-9f13-a093e18020dd"},"vehicle_type_id":"4","last_reported":1702469621,"current_range_meters":16800,"station_id":"ce4bhh92rcd13ifvqfi0","pricing_plan_id":"free"},{"bike_id":"9f4aac77-b9fd-4e02-8da1-4b39cb263313","system_id":"levelo_inurba_marseille","lat":43.336148,"lon":5.410349,"is_reserved":false,"is_disabled":false,"rental_uris":{"android":"levelo://app?vid=9f4aac77-b9fd-4e02-8da1-4b39cb263313","ios":"levelo://app?vid=9f4aac77-b9fd-4e02-8da1-4b39cb263313"},"vehicle_type_id":"4","last_reported":1702469621,"current_range_meters":21600,"station_id":"ce4bhqh2rcd13ifvqhmg","pricing_plan_id":"free"},{"bike_id":"7fdf28ec-5081-4388-884e-c18b51815194","system_id":"levelo_inurba_marseille","lat":43.276771,"lon":5.388799,"is_reserved":false,"is_disabled":false,"rental_uris":{"android":"levelo://app?vid=7fdf28ec-5081-4388-884e-c18b51815194","ios":"levelo://app?vid=7fdf28ec-5081-4388-884e-c18b51815194"},"vehicle_type_id":"4","last_reported":1702469621,"current_range_meters":12800,"station_id":"ce4bhi12rcd13ifvqfo0","pricing_plan_id":"free"},{"bike_id":"6d0496bd-7845-4f30-b621-61907f9d50de","system_id":"levelo_inurba_marseille","lat":43.279952,"lon":5.400085,"is_reserved":false,"is_disabled":false,"rental_uris":{"android":"levelo://app?vid=6d0496bd-7845-4f30-b621-61907f9d50de","ios":"levelo://app?vid=6d0496bd-7845-4f30-b621-61907f9d50de"},"vehicle_type_id":"4","last_reported":1702469621,"current_range_meters":11200,"station_id":"ce4bho92rcd13ifvqh4g","pricing_plan_id":"free"},{"bike_id":"fe0a789f-e57a-472a-b8c8-b3b0f92ab63e","system_id":"levelo_inurba_marseille","lat":43.317121,"lon":5.423936,"is_reserved":false,"is_disabled":false,"rental_uris":{"android":"levelo://app?vid=fe0a789f-e57a-472a-b8c8-b3b0f92ab63e","ios":"levelo://app?vid=fe0a789f-e57a-472a-b8c8-b3b0f92ab63e"},"vehicle_type_id":"4","last_reported":1702469621,"current_range_meters":29600,"station_id":"ce4bhp92rcd13ifvqhbg","pricing_plan_id":"free"},{"bike_id":"e15fcb76-150b-4e94-ba14-1765fbabad44","system_id":"levelo_inurba_marseille","lat":43.310785,"lon":5.424305,"is_reserved":false,"is_disabled":false,"rental_uris":{"android":"levelo://app?vid=e15fcb76-150b-4e94-ba14-1765fbabad44","ios":"levelo://app?vid=e15fcb76-150b-4e94-ba14-1765fbabad44"},"vehicle_type_id":"4","last_reported":1702469621,"current_range_meters":31200,"station_id":"ce4bhp92rcd13ifvqhag","pricing_plan_id":"free"},{"bike_id":"b1c028eb-0fe1-4afa-b35c-b9783a0e9537","system_id":"levelo_inurba_marseille","lat":43.31723,"lon":5.42405,"is_reserved":false,"is_disabled":false,"rental_uris":{"android":"levelo://app?vid=b1c028eb-0fe1-4afa-b35c-b9783a0e9537","ios":"levelo://app?vid=b1c028eb-0fe1-4afa-b35c-b9783a0e9537"},"vehicle_type_id":"4","last_reported":1702469621,"current_range_meters":2000,"station_id":"ce4bhp92rcd13ifvqhbg","pricing_plan_id":"free"},{"bike_id":"7234064f-ccf0-4ae6-a760-318d087f2159","system_id":"levelo_inurba_marseille","lat":43.340804,"lon":5.410219,"is_reserved":false,"is_disabled":false,"rental_uris":{"android":"levelo://app?vid=7234064f-ccf0-4ae6-a760-318d087f2159","ios":"levelo://app?vid=7234064f-ccf0-4ae6-a760-318d087f2159"},"vehicle_type_id":"4","last_reported":1702469621,"current_range_meters":8400,"station_id":"ce4bhqh2rcd13ifvqhlg","pricing_plan_id":"free"},{"bike_id":"741c4bfe-2495-418c-abac-0afb4a563619","system_id":"levelo_inurba_marseille","lat":43.340804,"lon":5.410219,"is_reserved":false,"is_disabled":false,"rental_uris":{"android":"levelo://app?vid=741c4bfe-2495-418c-abac-0afb4a563619","ios":"levelo://app?vid=741c4bfe-2495-418c-abac-0afb4a563619"},"vehicle_type_id":"4","last_reported":1702469621,"current_range_meters":18400,"station_id":"ce4bhqh2rcd13ifvqhlg","pricing_plan_id":"free"},{"bike_id":"3ca2c2d2-99b0-4aa6-a05d-e30f02e6a7fb","system_id":"levelo_inurba_marseille","lat":43.27588,"lon":5.39495,"is_reserved":false,"is_disabled":false,"rental_uris":{"android":"levelo://app?vid=3ca2c2d2-99b0-4aa6-a05d-e30f02e6a7fb","ios":"levelo://app?vid=3ca2c2d2-99b0-4aa6-a05d-e30f02e6a7fb"},"vehicle_type_id":"4","last_reported":1702469621,"current_range_meters":16800,"station_id":"","pricing_plan_id":"free"},{"bike_id":"d7a6c85d-a811-4fa8-800a-8c7d7fbad1e5","system_id":"levelo_inurba_marseille","lat":43.28692,"lon":5.41293,"is_reserved":false,"is_disabled":false,"rental_uris":{"android":"levelo://app?vid=d7a6c85d-a811-4fa8-800a-8c7d7fbad1e5","ios":"levelo://app?vid=d7a6c85d-a811-4fa8-800a-8c7d7fbad1e5"},"vehicle_type_id":"4","last_reported":1702469621,"current_range_meters":0,"station_id":"","pricing_plan_id":"free"},{"bike_id":"cff5afb0-a942-485c-bc73-3835331f0a8e","system_id":"levelo_inurba_marseille","lat":43.274099,"lon":5.394019,"is_reserved":false,"is_disabled":false,"rental_uris":{"android":"levelo://app?vid=cff5afb0-a942-485c-bc73-3835331f0a8e","ios":"levelo://app?vid=cff5afb0-a942-485c-bc73-3835331f0a8e"},"vehicle_type_id":"4","last_reported":1702469621,"current_range_meters":28400,"station_id":"ce4bhdp2rcd13ifvqf20","pricing_plan_id":"free"},{"bike_id":"46cb8d1c-7110-45f9-809a-42d8e5622199","system_id":"levelo_inurba_marseille","lat":43.274103,"lon":5.394016,"is_reserved":false,"is_disabled":false,"rental_uris":{"android":"levelo://app?vid=46cb8d1c-7110-45f9-809a-42d8e5622199","ios":"levelo://app?vid=46cb8d1c-7110-45f9-809a-42d8e5622199"},"vehicle_type_id":"4","last_reported":1702469621,"current_range_meters":24400,"station_id":"ce4bhdp2rcd13ifvqf20","pricing_plan_id":"free"},{"bike_id":"586964fd-e833-4400-b9f6-93db0ae0e943","system_id":"levelo_inurba_marseille","lat":43.27206,"lon":5.39193,"is_reserved":false,"is_disabled":false,"rental_uris":{"android":"levelo://app?vid=586964fd-e833-4400-b9f6-93db0ae0e943","ios":"levelo://app?vid=586964fd-e833-4400-b9f6-93db0ae0e943"},"vehicle_type_id":"4","last_reported":1702469621,"current_range_meters":23600,"station_id":"ce4bhhp2rcd13ifvqfm0","pricing_plan_id":"free"},{"bike_id":"9917382d-d253-4524-834b-5171fe0b9392","system_id":"levelo_inurba_marseille","lat":43.278128,"lon":5.407195,"is_reserved":false,"is_disabled":false,"rental_uris":{"android":"levelo://app?vid=9917382d-d253-4524-834b-5171fe0b9392","ios":"levelo://app?vid=9917382d-d253-4524-834b-5171fe0b9392"},"vehicle_type_id":"4","last_reported":1702469621,"current_range_meters":26400,"station_id":"ce4bhnh2rcd13ifvqgtg","pricing_plan_id":"free"},{"bike_id":"6d880f7c-77c1-4cfa-891f-7e28a2d73f52","system_id":"levelo_inurba_marseille","lat":43.278128,"lon":5.407195,"is_reserved":false,"is_disabled":false,"rental_uris":{"android":"levelo://app?vid=6d880f7c-77c1-4cfa-891f-7e28a2d73f52","ios":"levelo://app?vid=6d880f7c-77c1-4cfa-891f-7e28a2d73f52"},"vehicle_type_id":"4","last_reported":1702469621,"current_range_meters":14400,"station_id":"ce4bhnh2rcd13ifvqgtg","pricing_plan_id":"free"},{"bike_id":"7c6d7f1c-0ccd-4e53-a440-4b83356f3083","system_id":"levelo_inurba_marseille","lat":43.2795,"lon":5.41042,"is_reserved":false,"is_disabled":false,"rental_uris":{"android":"levelo://app?vid=7c6d7f1c-0ccd-4e53-a440-4b83356f3083","ios":"levelo://app?vid=7c6d7f1c-0ccd-4e53-a440-4b83356f3083"},"vehicle_type_id":"4","last_reported":1702469621,"current_range_meters":400,"station_id":"ce4bhnp2rcd13ifvqh0g","pricing_plan_id":"free"},{"bike_id":"946205ce-1bba-45b8-af25-0f511565dee6","system_id":"levelo_inurba_marseille","lat":43.269319,"lon":5.389397,"is_reserved":false,"is_disabled":false,"rental_uris":{"android":"levelo://app?vid=946205ce-1bba-45b8-af25-0f511565dee6","ios":"levelo://app?vid=946205ce-1bba-45b8-af25-0f511565dee6"},"vehicle_type_id":"4","last_reported":1702469621,"current_range_meters":30800,"station_id":"ce4bhhh2rcd13ifvqfl0","pricing_plan_id":"free"},{"bike_id":"5f9ff04e-3474-4f93-bf8e-d7d9ee565e72","system_id":"levelo_inurba_marseille","lat":43.279845,"lon":5.416317,"is_reserved":false,"is_disabled":false,"rental_uris":{"android":"levelo://app?vid=5f9ff04e-3474-4f93-bf8e-d7d9ee565e72","ios":"levelo://app?vid=5f9ff04e-3474-4f93-bf8e-d7d9ee565e72"},"vehicle_type_id":"4","last_reported":1702469621,"current_range_meters":18800,"station_id":"ce4bho12rcd13ifvqh1g","pricing_plan_id":"free"},{"bike_id":"5dceaeca-9134-4281-8402-741e39dca6c1","system_id":"levelo_inurba_marseille","lat":43.308197,"lon":5.435293,"is_reserved":false,"is_disabled":false,"rental_uris":{"android":"levelo://app?vid=5dceaeca-9134-4281-8402-741e39dca6c1","ios":"levelo://app?vid=5dceaeca-9134-4281-8402-741e39dca6c1"},"vehicle_type_id":"4","last_reported":1702469621,"current_range_meters":26000,"station_id":"","pricing_plan_id":"free"},{"bike_id":"39eefe27-03d9-47f3-9de8-d68c3a12f1c4","system_id":"levelo_inurba_marseille","lat":43.26567,"lon":5.3901,"is_reserved":false,"is_disabled":false,"rental_uris":{"android":"levelo://app?vid=39eefe27-03d9-47f3-9de8-d68c3a12f1c4","ios":"levelo://app?vid=39eefe27-03d9-47f3-9de8-d68c3a12f1c4"},"vehicle_type_id":"4","last_reported":1702469621,"current_range_meters":0,"station_id":"ce4bhe12rcd13ifvqf30","pricing_plan_id":"free"},{"bike_id":"e4a3d23b-3154-4a79-b2f8-3e90e36504cd","system_id":"levelo_inurba_marseille","lat":43.26945,"lon":5.40243,"is_reserved":false,"is_disabled":false,"rental_uris":{"android":"levelo://app?vid=e4a3d23b-3154-4a79-b2f8-3e90e36504cd","ios":"levelo://app?vid=e4a3d23b-3154-4a79-b2f8-3e90e36504cd"},"vehicle_type_id":"4","last_reported":1702469621,"current_range_meters":11600,"station_id":"cjm6bp8fraef2m0cb0m0","pricing_plan_id":"free"},{"bike_id":"8c6d5da8-79a1-4dc1-8c42-e091ce700073","system_id":"levelo_inurba_marseille","lat":43.261782,"lon":5.374515,"is_reserved":false,"is_disabled":false,"rental_uris":{"android":"levelo://app?vid=8c6d5da8-79a1-4dc1-8c42-e091ce700073","ios":"levelo://app?vid=8c6d5da8-79a1-4dc1-8c42-e091ce700073"},"vehicle_type_id":"4","last_reported":1702469621,"current_range_meters":11600,"station_id":"ce4bhgp2rcd13ifvqfc0","pricing_plan_id":"free"},{"bike_id":"275c692c-4e8c-4cea-872d-9023693f571c","system_id":"levelo_inurba_marseille","lat":43.26202,"lon":5.379299,"is_reserved":false,"is_disabled":false,"rental_uris":{"android":"levelo://app?vid=275c692c-4e8c-4cea-872d-9023693f571c","ios":"levelo://app?vid=275c692c-4e8c-4cea-872d-9023693f571c"},"vehicle_type_id":"4","last_reported":1702469621,"current_range_meters":29600,"station_id":"ce4bhjp2rcd13ifvqg90","pricing_plan_id":"free"},{"bike_id":"5c5ebadf-1b0d-4e42-9ffd-842da40d66cc","system_id":"levelo_inurba_marseille","lat":43.271388,"lon":5.409269,"is_reserved":false,"is_disabled":false,"rental_uris":{"android":"levelo://app?vid=5c5ebadf-1b0d-4e42-9ffd-842da40d66cc","ios":"levelo://app?vid=5c5ebadf-1b0d-4e42-9ffd-842da40d66cc"},"vehicle_type_id":"4","last_reported":1702469621,"current_range_meters":16400,"station_id":"ce4bhl12rcd13ifvqgf0","pricing_plan_id":"free"},{"bike_id":"8f82f722-baf6-4a17-b4d5-1d388e742d98","system_id":"levelo_inurba_marseille","lat":43.25569,"lon":5.38239,"is_reserved":false,"is_disabled":false,"rental_uris":{"android":"levelo://app?vid=8f82f722-baf6-4a17-b4d5-1d388e742d98","ios":"levelo://app?vid=8f82f722-baf6-4a17-b4d5-1d388e742d98"},"vehicle_type_id":"4","last_reported":1702469621,"current_range_meters":12800,"station_id":"ce4bhih2rcd13ifvqfs0","pricing_plan_id":"free"},{"bike_id":"5c3edd2b-c352-447a-88f6-76ac4ced1db5","system_id":"levelo_inurba_marseille","lat":43.2549,"lon":5.37651,"is_reserved":false,"is_disabled":false,"rental_uris":{"android":"levelo://app?vid=5c3edd2b-c352-447a-88f6-76ac4ced1db5","ios":"levelo://app?vid=5c3edd2b-c352-447a-88f6-76ac4ced1db5"},"vehicle_type_id":"4","last_reported":1702469621,"current_range_meters":22400,"station_id":"ce4bhh12rcd13ifvqff0","pricing_plan_id":"free"},{"bike_id":"db2e86d5-7627-4498-b21b-7963da9c4aac","system_id":"levelo_inurba_marseille","lat":43.270721,"lon":5.422764,"is_reserved":false,"is_disabled":false,"rental_uris":{"android":"levelo://app?vid=db2e86d5-7627-4498-b21b-7963da9c4aac","ios":"levelo://app?vid=db2e86d5-7627-4498-b21b-7963da9c4aac"},"vehicle_type_id":"4","last_reported":1702469621,"current_range_meters":25200,"station_id":"ce4bhk92rcd13ifvqgb0","pricing_plan_id":"free"},{"bike_id":"f5a16d1b-a90c-4d3d-8fb6-c9b66e237e2a","system_id":"levelo_inurba_marseille","lat":43.258658,"lon":5.398935,"is_reserved":false,"is_disabled":false,"rental_uris":{"android":"levelo://app?vid=f5a16d1b-a90c-4d3d-8fb6-c9b66e237e2a","ios":"levelo://app?vid=f5a16d1b-a90c-4d3d-8fb6-c9b66e237e2a"},"vehicle_type_id":"4","last_reported":1702469621,"current_range_meters":16800,"station_id":"ce4bhl92rcd13ifvqghg","pricing_plan_id":"free"},{"bike_id":"d288f623-bd14-457f-9347-f6fa4ee183f6","system_id":"levelo_inurba_marseille","lat":43.258658,"lon":5.398935,"is_reserved":false,"is_disabled":false,"rental_uris":{"android":"levelo://app?vid=d288f623-bd14-457f-9347-f6fa4ee183f6","ios":"levelo://app?vid=d288f623-bd14-457f-9347-f6fa4ee183f6"},"vehicle_type_id":"4","last_reported":1702469621,"current_range_meters":24000,"station_id":"ce4bhl92rcd13ifvqghg","pricing_plan_id":"free"},{"bike_id":"68cae63d-3711-4fab-9633-103febf1602b","system_id":"levelo_inurba_marseille","lat":43.231794,"lon":5.400052,"is_reserved":false,"is_disabled":false,"rental_uris":{"android":"levelo://app?vid=68cae63d-3711-4fab-9633-103febf1602b","ios":"levelo://app?vid=68cae63d-3711-4fab-9633-103febf1602b"},"vehicle_type_id":"4","last_reported":1702469621,"current_range_meters":12400,"station_id":"ce4bhn12rcd13ifvqgqg","pricing_plan_id":"free"},{"bike_id":"e1a9dae0-5e91-49c4-8d01-f50c215db9cd","system_id":"levelo_inurba_marseille","lat":43.257079,"lon":5.411051,"is_reserved":false,"is_disabled":false,"rental_uris":{"android":"levelo://app?vid=e1a9dae0-5e91-49c4-8d01-f50c215db9cd","ios":"levelo://app?vid=e1a9dae0-5e91-49c4-8d01-f50c215db9cd"},"vehicle_type_id":"4","last_reported":1702469621,"current_range_meters":30400,"station_id":"ce4bhkp2rcd13ifvqgd0","pricing_plan_id":"free"},{"bike_id":"66c341ee-bd42-416f-a12a-97f4da08e278","system_id":"levelo_inurba_marseille","lat":43.257079,"lon":5.411051,"is_reserved":false,"is_disabled":false,"rental_uris":{"android":"levelo://app?vid=66c341ee-bd42-416f-a12a-97f4da08e278","ios":"levelo://app?vid=66c341ee-bd42-416f-a12a-97f4da08e278"},"vehicle_type_id":"4","last_reported":1702469621,"current_range_meters":23200,"station_id":"ce4bhkp2rcd13ifvqgd0","pricing_plan_id":"free"},{"bike_id":"1f2f5147-e11c-44c9-a754-54c78b01e7ff","system_id":"levelo_inurba_marseille","lat":43.24997,"lon":5.38922,"is_reserved":false,"is_disabled":false,"rental_uris":{"android":"levelo://app?vid=1f2f5147-e11c-44c9-a754-54c78b01e7ff","ios":"levelo://app?vid=1f2f5147-e11c-44c9-a754-54c78b01e7ff"},"vehicle_type_id":"4","last_reported":1702469621,"current_range_meters":3200,"station_id":"ce4bhgp2rcd13ifvqfd0","pricing_plan_id":"free"},{"bike_id":"c10472be-9984-4a9f-8c3d-dd3cf64a0615","system_id":"levelo_inurba_marseille","lat":43.250023,"lon":5.38919,"is_reserved":false,"is_disabled":false,"rental_uris":{"android":"levelo://app?vid=c10472be-9984-4a9f-8c3d-dd3cf64a0615","ios":"levelo://app?vid=c10472be-9984-4a9f-8c3d-dd3cf64a0615"},"vehicle_type_id":"4","last_reported":1702469621,"current_range_meters":18000,"station_id":"ce4bhgp2rcd13ifvqfd0","pricing_plan_id":"free"},{"bike_id":"75621bbd-8bf8-47a9-9336-64cc4e976cf1","system_id":"levelo_inurba_marseille","lat":43.2479,"lon":5.374457,"is_reserved":false,"is_disabled":false,"rental_uris":{"android":"levelo://app?vid=75621bbd-8bf8-47a9-9336-64cc4e976cf1","ios":"levelo://app?vid=75621bbd-8bf8-47a9-9336-64cc4e976cf1"},"vehicle_type_id":"4","last_reported":1702469621,"current_range_meters":9200,"station_id":"ce4bhgh2rcd13ifvqfb0","pricing_plan_id":"free"},{"bike_id":"b846a0e1-d839-4f69-a933-c27da5e3c296","system_id":"levelo_inurba_marseille","lat":43.250966,"lon":5.395186,"is_reserved":false,"is_disabled":false,"rental_uris":{"android":"levelo://app?vid=b846a0e1-d839-4f69-a933-c27da5e3c296","ios":"levelo://app?vid=b846a0e1-d839-4f69-a933-c27da5e3c296"},"vehicle_type_id":"4","last_reported":1702469621,"current_range_meters":23600,"station_id":"ce4bhm12rcd13ifvqgkg","pricing_plan_id":"free"},{"bike_id":"be576ade-48ca-4d5a-9a1f-6a378fe52c0c","system_id":"levelo_inurba_marseille","lat":43.24693,"lon":5.382096,"is_reserved":false,"is_disabled":false,"rental_uris":{"android":"levelo://app?vid=be576ade-48ca-4d5a-9a1f-6a378fe52c0c","ios":"levelo://app?vid=be576ade-48ca-4d5a-9a1f-6a378fe52c0c"},"vehicle_type_id":"4","last_reported":1702469621,"current_range_meters":12800,"station_id":"ce4bhih2rcd13ifvqfr0","pricing_plan_id":"free"},{"bike_id":"1e05626c-68f1-4e35-9770-07ca9ab6c8c0","system_id":"levelo_inurba_marseille","lat":43.24693,"lon":5.382096,"is_reserved":false,"is_disabled":false,"rental_uris":{"android":"levelo://app?vid=1e05626c-68f1-4e35-9770-07ca9ab6c8c0","ios":"levelo://app?vid=1e05626c-68f1-4e35-9770-07ca9ab6c8c0"},"vehicle_type_id":"4","last_reported":1702469621,"current_range_meters":7600,"station_id":"ce4bhih2rcd13ifvqfr0","pricing_plan_id":"free"},{"bike_id":"a2150532-25cc-4bb7-b420-def5a8519aba","system_id":"levelo_inurba_marseille","lat":43.25102,"lon":5.403214,"is_reserved":false,"is_disabled":false,"rental_uris":{"android":"levelo://app?vid=a2150532-25cc-4bb7-b420-def5a8519aba","ios":"levelo://app?vid=a2150532-25cc-4bb7-b420-def5a8519aba"},"vehicle_type_id":"4","last_reported":1702469621,"current_range_meters":22000,"station_id":"ce4bhlh2rcd13ifvqgig","pricing_plan_id":"free"},{"bike_id":"fbaa55d9-f378-4b6e-b8f8-cdacabf13355","system_id":"levelo_inurba_marseille","lat":43.246461,"lon":5.389014,"is_reserved":false,"is_disabled":false,"rental_uris":{"android":"levelo://app?vid=fbaa55d9-f378-4b6e-b8f8-cdacabf13355","ios":"levelo://app?vid=fbaa55d9-f378-4b6e-b8f8-cdacabf13355"},"vehicle_type_id":"4","last_reported":1702469621,"current_range_meters":30800,"station_id":"ce4bhg12rcd13ifvqf60","pricing_plan_id":"free"},{"bike_id":"878b1243-ef6a-439c-beed-87055f1a63ef","system_id":"levelo_inurba_marseille","lat":43.246461,"lon":5.389014,"is_reserved":false,"is_disabled":false,"rental_uris":{"android":"levelo://app?vid=878b1243-ef6a-439c-beed-87055f1a63ef","ios":"levelo://app?vid=878b1243-ef6a-439c-beed-87055f1a63ef"},"vehicle_type_id":"4","last_reported":1702469621,"current_range_meters":23200,"station_id":"ce4bhg12rcd13ifvqf60","pricing_plan_id":"free"},{"bike_id":"4635703b-2901-42d4-a280-bdb18e4e1cb5","system_id":"levelo_inurba_marseille","lat":43.246461,"lon":5.389014,"is_reserved":false,"is_disabled":false,"rental_uris":{"android":"levelo://app?vid=4635703b-2901-42d4-a280-bdb18e4e1cb5","ios":"levelo://app?vid=4635703b-2901-42d4-a280-bdb18e4e1cb5"},"vehicle_type_id":"4","last_reported":1702469621,"current_range_meters":16800,"station_id":"ce4bhg12rcd13ifvqf60","pricing_plan_id":"free"},{"bike_id":"26b6305b-3325-4309-aa3e-1d458d7a672e","system_id":"levelo_inurba_marseille","lat":43.246461,"lon":5.389014,"is_reserved":false,"is_disabled":false,"rental_uris":{"android":"levelo://app?vid=26b6305b-3325-4309-aa3e-1d458d7a672e","ios":"levelo://app?vid=26b6305b-3325-4309-aa3e-1d458d7a672e"},"vehicle_type_id":"4","last_reported":1702469621,"current_range_meters":16000,"station_id":"ce4bhg12rcd13ifvqf60","pricing_plan_id":"free"},{"bike_id":"79ff15de-4d4c-4e0e-8061-666c8b0d69a6","system_id":"levelo_inurba_marseille","lat":43.243884,"lon":5.370736,"is_reserved":false,"is_disabled":false,"rental_uris":{"android":"levelo://app?vid=79ff15de-4d4c-4e0e-8061-666c8b0d69a6","ios":"levelo://app?vid=79ff15de-4d4c-4e0e-8061-666c8b0d69a6"},"vehicle_type_id":"4","last_reported":1702469621,"current_range_meters":0,"station_id":"ce4bhhh2rcd13ifvqfk0","pricing_plan_id":"free"},{"bike_id":"a6faa434-4394-4a64-bc87-2fe1ea55e27a","system_id":"levelo_inurba_marseille","lat":43.243884,"lon":5.370737,"is_reserved":false,"is_disabled":false,"rental_uris":{"android":"levelo://app?vid=a6faa434-4394-4a64-bc87-2fe1ea55e27a","ios":"levelo://app?vid=a6faa434-4394-4a64-bc87-2fe1ea55e27a"},"vehicle_type_id":"4","last_reported":1702469621,"current_range_meters":26400,"station_id":"ce4bhhh2rcd13ifvqfk0","pricing_plan_id":"free"},{"bike_id":"20de5df3-8bcc-4e74-bcaf-f484527376ca","system_id":"levelo_inurba_marseille","lat":43.239588,"lon":5.366238,"is_reserved":false,"is_disabled":false,"rental_uris":{"android":"levelo://app?vid=20de5df3-8bcc-4e74-bcaf-f484527376ca","ios":"levelo://app?vid=20de5df3-8bcc-4e74-bcaf-f484527376ca"},"vehicle_type_id":"4","last_reported":1702469621,"current_range_meters":31200,"station_id":"ce4bhi12rcd13ifvqfp0","pricing_plan_id":"free"},{"bike_id":"a24e9a7d-aca6-4a9e-803e-e0faeb33511b","system_id":"levelo_inurba_marseille","lat":43.23192,"lon":5.35551,"is_reserved":false,"is_disabled":false,"rental_uris":{"android":"levelo://app?vid=a24e9a7d-aca6-4a9e-803e-e0faeb33511b","ios":"levelo://app?vid=a24e9a7d-aca6-4a9e-803e-e0faeb33511b"},"vehicle_type_id":"4","last_reported":1702469621,"current_range_meters":0,"station_id":"ce4bhu92rcd13ifvqi70","pricing_plan_id":"free"},{"bike_id":"5be5a0a3-3e0d-4c7b-bf08-de33b00a76d2","system_id":"levelo_inurba_marseille","lat":43.23188,"lon":5.355517,"is_reserved":false,"is_disabled":false,"rental_uris":{"android":"levelo://app?vid=5be5a0a3-3e0d-4c7b-bf08-de33b00a76d2","ios":"levelo://app?vid=5be5a0a3-3e0d-4c7b-bf08-de33b00a76d2"},"vehicle_type_id":"4","last_reported":1702469621,"current_range_meters":18400,"station_id":"ce4bhu92rcd13ifvqi70","pricing_plan_id":"free"},{"bike_id":"5d66a1e1-407e-43b7-8a1f-b43437a90341","system_id":"levelo_inurba_marseille","lat":43.231794,"lon":5.400052,"is_reserved":false,"is_disabled":false,"rental_uris":{"android":"levelo://app?vid=5d66a1e1-407e-43b7-8a1f-b43437a90341","ios":"levelo://app?vid=5d66a1e1-407e-43b7-8a1f-b43437a90341"},"vehicle_type_id":"4","last_reported":1702469621,"current_range_meters":10000,"station_id":"ce4bhn12rcd13ifvqgqg","pricing_plan_id":"free"},{"bike_id":"46e85755-7f44-4770-9e69-88e3e5d2d0d4","system_id":"levelo_inurba_marseille","lat":43.231794,"lon":5.400052,"is_reserved":false,"is_disabled":false,"rental_uris":{"android":"levelo://app?vid=46e85755-7f44-4770-9e69-88e3e5d2d0d4","ios":"levelo://app?vid=46e85755-7f44-4770-9e69-88e3e5d2d0d4"},"vehicle_type_id":"4","last_reported":1702469621,"current_range_meters":22000,"station_id":"ce4bhn12rcd13ifvqgqg","pricing_plan_id":"free"},{"bike_id":"23dd342e-caab-4095-a792-f36957085ed3","system_id":"levelo_inurba_marseille","lat":43.231793,"lon":5.400044,"is_reserved":false,"is_disabled":false,"rental_uris":{"android":"levelo://app?vid=23dd342e-caab-4095-a792-f36957085ed3","ios":"levelo://app?vid=23dd342e-caab-4095-a792-f36957085ed3"},"vehicle_type_id":"4","last_reported":1702469621,"current_range_meters":17600,"station_id":"ce4bhn12rcd13ifvqgqg","pricing_plan_id":"free"},{"bike_id":"28cf0186-3129-4448-9e8f-8fa9860365e7","system_id":"levelo_inurba_marseille","lat":43.231794,"lon":5.400052,"is_reserved":false,"is_disabled":false,"rental_uris":{"android":"levelo://app?vid=28cf0186-3129-4448-9e8f-8fa9860365e7","ios":"levelo://app?vid=28cf0186-3129-4448-9e8f-8fa9860365e7"},"vehicle_type_id":"4","last_reported":1702469621,"current_range_meters":19600,"station_id":"ce4bhn12rcd13ifvqgqg","pricing_plan_id":"free"},{"bike_id":"ca7c4ad3-1930-4444-97b3-e61858038a0b","system_id":"levelo_inurba_marseille","lat":43.231793,"lon":5.400044,"is_reserved":false,"is_disabled":false,"rental_uris":{"android":"levelo://app?vid=ca7c4ad3-1930-4444-97b3-e61858038a0b","ios":"levelo://app?vid=ca7c4ad3-1930-4444-97b3-e61858038a0b"},"vehicle_type_id":"4","last_reported":1702469621,"current_range_meters":14800,"station_id":"ce4bhn12rcd13ifvqgqg","pricing_plan_id":"free"},{"bike_id":"cf0fe679-0d02-462b-9b74-c29d27c435be","system_id":"levelo_inurba_marseille","lat":43.231562,"lon":5.436933,"is_reserved":false,"is_disabled":false,"rental_uris":{"android":"levelo://app?vid=cf0fe679-0d02-462b-9b74-c29d27c435be","ios":"levelo://app?vid=cf0fe679-0d02-462b-9b74-c29d27c435be"},"vehicle_type_id":"4","last_reported":1702469621,"current_range_meters":2400,"station_id":"ce4bhmp2rcd13ifvqgog","pricing_plan_id":"free"},{"bike_id":"5b343095-d1bb-4e87-bdba-a53850147c4b","system_id":"levelo_inurba_marseille","lat":43.231386,"lon":5.437476,"is_reserved":false,"is_disabled":false,"rental_uris":{"android":"levelo://app?vid=5b343095-d1bb-4e87-bdba-a53850147c4b","ios":"levelo://app?vid=5b343095-d1bb-4e87-bdba-a53850147c4b"},"vehicle_type_id":"4","last_reported":1702469621,"current_range_meters":4000,"station_id":"","pricing_plan_id":"free"}]}}