{"last_updated":1690315620,"ttl":30,"version":"2.2","data":{"bikes":[{"bike_id":"4f3b967f-b111-4f12-8cd5-919ac7d9bd89","system_id":"levelo_inurba_marseille","lat":43.3123,"lon":5.36855,"is_reserved":false,"is_disabled":false,"rental_uris":{"android":"levelo://app?vid=4f3b967f-b111-4f12-8cd5-919ac7d9bd89","ios":"levelo://app?vid=4f3b967f-b111-4f12-8cd5-919ac7d9bd89"},"vehicle_type_id":"4","last_reported":1690315620,"current_range_meters":5600,"station_id":"ce4bgl92rcd13ifvqbq0","pricing_plan_id":"free"},{"bike_id":"07a06af9-96a6-4443-b441-de37bc350bc3","system_id":"levelo_inurba_marseille","lat":43.312239,"lon":5.368562,"is_reserved":false,"is_disabled":false,"rental_uris":{"android":"levelo://app?vid=07a06af9-96a6-4443-b441-de37bc350bc3","ios":"levelo://app?vid=07a06af9-96a6-4443-b441-de37bc350bc3"},"vehicle_type_id":"4","last_reported":1690315620,"current_range_meters":31200,"station_id":"ce4bgl92rcd13ifvqbq0","pricing_plan_id":"free"},{"bike_id":"59f6dd47-9b36-4dd2-88e9-c9d4e11c926a","system_id":"levelo_inurba_marseille","lat":43.309076,"lon":5.368465,"is_reserved":false,"is_disabled":false,"rental_uris":{"android":"levelo://app?vid=59f6dd47-9b36-4dd2-88e9-c9d4e11c926a","ios":"levelo://app?vid=59f6dd47-9b36-4dd2-88e9-c9d4e11c926a"},"vehicle_type_id":"4","last_reported":1690315620,"current_range_meters":20800,"station_id":"ce4bgn92rcd13ifvqbvg","pricing_plan_id":"free"},{"bike_id":"e7f0b3f9-6f78-4a42-947e-4fc279e82c20","system_id":"levelo_inurba_marseille","lat":43.309076,"lon":5.368465,"is_reserved":false,"is_disabled":false,"rental_uris":{"android":"levelo://app?vid=e7f0b3f9-6f78-4a42-947e-4fc279e82c20","ios":"levelo://app?vid=e7f0b3f9-6f78-4a42-947e-4fc279e82c20"},"vehicle_type_id":"4","last_reported":1690315620,"current_range_meters":31200,"station_id":"ce4bgn92rcd13ifvqbvg","pricing_plan_id":"free"},{"bike_id":"844f1d0d-a7f0-4873-9d4f-1d800cf17432","system_id":"levelo_inurba_marseille","lat":43.309076,"lon":5.368465,"is_reserved":false,"is_disabled":false,"rental_uris":{"android":"levelo://app?vid=844f1d0d-a7f0-4873-9d4f-1d800cf17432","ios":"levelo://app?vid=844f1d0d-a7f0-4873-9d4f-1d800cf17432"},"vehicle_type_id":"4","last_reported":1690315620,"current_range_meters":31200,"station_id":"ce4bgn92rcd13ifvqbvg","pricing_plan_id":"free"},{"bike_id":"a10657f3-ffe1-4fb4-b8ca-441e5eafd1cd","system_id":"levelo_inurba_marseille","lat":43.309076,"lon":5.368465,"is_reserved":false,"is_disabled":false,"rental_uris":{"android":"levelo://app?vid=a10657f3-ffe1-4fb4-b8ca-441e5eafd1cd","ios":"levelo://app?vid=a10657f3-ffe1-4fb4-b8ca-441e5eafd1cd"},"vehicle_type_id":"4","last_reported":1690315620,"current_range_meters":31200,"station_id":"ce4bgn92rcd13ifvqbvg","pricing_plan_id":"free"},{"bike_id":"5a392a2e-5ffc-4ee3-81ff-f47924ee44f1","system_id":"levelo_inurba_marseille","lat":43.309076,"lon":5.368465,"is_reserved":false,"is_disabled":false,"rental_uris":{"android":"levelo://app?vid=5a392a2e-5ffc-4ee3-81ff-f47924ee44f1","ios":"levelo://app?vid=5a392a2e-5ffc-4ee3-81ff-f47924ee44f1"},"vehicle_type_id":"4","last_reported":1690315620,"current_range_meters":31200,"station_id":"ce4bgn92rcd13ifvqbvg","pricing_plan_id":"free"},{"bike_id":"4356d637-c918-49a7-a7f2-9cf01d687755","system_id":"levelo_inurba_marseille","lat":43.309076,"lon":5.368465,"is_reserved":false,"is_disabled":false,"rental_uris":{"android":"levelo://app?vid=4356d637-c918-49a7-a7f2-9cf01d687755","ios":"levelo://app?vid=4356d637-c918-49a7-a7f2-9cf01d687755"},"vehicle_type_id":"4","last_reported":1690315620,"current_range_meters":30800,"station_id":"ce4bgn92rcd13ifvqbvg","pricing_plan_id":"free"},{"bike_id":"160875aa-dfd6-41bb-9f22-ce98c7078bcc","system_id":"levelo_inurba_marseille","lat":43.309076,"lon":5.368465,"is_reserved":false,"is_disabled":false,"rental_uris":{"android":"levelo://app?vid=160875aa-dfd6-41bb-9f22-ce98c7078bcc","ios":"levelo://app?vid=160875aa-dfd6-41bb-9f22-ce98c7078bcc"},"vehicle_type_id":"4","last_reported":1690315620,"current_range_meters":31200,"station_id":"ce4bgn92rcd13ifvqbvg","pricing_plan_id":"free"},{"bike_id":"bc613f47-9070-479b-8fad-6f18feb0594b","system_id":"levelo_inurba_marseille","lat":43.309076,"lon":5.368465,"is_reserved":false,"is_disabled":false,"rental_uris":{"android":"levelo://app?vid=bc613f47-9070-479b-8fad-6f18feb0594b","ios":"levelo://app?vid=bc613f47-9070-479b-8fad-6f18feb0594b"},"vehicle_type_id":"4","last_reported":1690315620,"current_range_meters":31200,"station_id":"ce4bgn92rcd13ifvqbvg","pricing_plan_id":"free"},{"bike_id":"0f832d07-8cf6-41ee-8d69-877f33e37090","system_id":"levelo_inurba_marseille","lat":43.309076,"lon":5.368465,"is_reserved":false,"is_disabled":false,"rental_uris":{"android":"levelo://app?vid=0f832d07-8cf6-41ee-8d69-877f33e37090","ios":"levelo://app?vid=0f832d07-8cf6-41ee-8d69-877f33e37090"},"vehicle_type_id":"4","last_reported":1690315620,"current_range_meters":31200,"station_id":"ce4bgn92rcd13ifvqbvg","pricing_plan_id":"free"},{"bike_id":"a9ec981b-1af6-4ab1-9fea-e8b669b60633","system_id":"levelo_inurba_marseille","lat":43.309076,"lon":5.368465,"is_reserved":false,"is_disabled":false,"rental_uris":{"android":"levelo://app?vid=a9ec981b-1af6-4ab1-9fea-e8b669b60633","ios":"levelo://app?vid=a9ec981b-1af6-4ab1-9fea-e8b669b60633"},"vehicle_type_id":"4","last_reported":1690315620,"current_range_meters":31200,"station_id":"ce4bgn92rcd13ifvqbvg","pricing_plan_id":"free"},{"bike_id":"53122f60-d25b-40e4-bdcb-e4cd5f955c63","system_id":"levelo_inurba_marseille","lat":43.309076,"lon":5.368465,"is_reserved":false,"is_disabled":false,"rental_uris":{"android":"levelo://app?vid=53122f60-d25b-40e4-bdcb-e4cd5f955c63","ios":"levelo://app?vid=53122f60-d25b-40e4-bdcb-e4cd5f955c63"},"vehicle_type_id":"4","last_reported":1690315620,"current_range_meters":31200,"station_id":"ce4bgn92rcd13ifvqbvg","pricing_plan_id":"free"},{"bike_id":"bf664259-cc19-44d0-912e-d9017ea027c2","system_id":"levelo_inurba_marseille","lat":43.309076,"lon":5.368465,"is_reserved":false,"is_disabled":false,"rental_uris":{"android":"levelo://app?vid=bf664259-cc19-44d0-912e-d9017ea027c2","ios":"levelo://app?vid=bf664259-cc19-44d0-912e-d9017ea027c2"},"vehicle_type_id":"4","last_reported":1690315620,"current_range_meters":30800,"station_id":"ce4bgn92rcd13ifvqbvg","pricing_plan_id":"free"},{"bike_id":"dafb119a-208d-40b0-98b4-f12135155c35","system_id":"levelo_inurba_marseille","lat":43.309076,"lon":5.368465,"is_reserved":false,"is_disabled":false,"rental_uris":{"android":"levelo://app?vid=dafb119a-208d-40b0-98b4-f12135155c35","ios":"levelo://app?vid=dafb119a-208d-40b0-98b4-f12135155c35"},"vehicle_type_id":"4","last_reported":1690315620,"current_range_meters":31200,"station_id":"ce4bgn92rcd13ifvqbvg","pricing_plan_id":"free"},{"bike_id":"301a7a63-92de-4bbc-ac6c-820e60c784c3","system_id":"levelo_inurba_marseille","lat":43.309076,"lon":5.368465,"is_reserved":false,"is_disabled":false,"rental_uris":{"android":"levelo://app?vid=301a7a63-92de-4bbc-ac6c-820e60c784c3","ios":"levelo://app?vid=301a7a63-92de-4bbc-ac6c-820e60c784c3"},"vehicle_type_id":"4","last_reported":1690315620,"current_range_meters":16400,"station_id":"ce4bgn92rcd13ifvqbvg","pricing_plan_id":"free"},{"bike_id":"8207ea45-cd04-409d-8670-349434637fe0","system_id":"levelo_inurba_marseille","lat":43.309076,"lon":5.368465,"is_reserved":false,"is_disabled":false,"rental_uris":{"android":"levelo://app?vid=8207ea45-cd04-409d-8670-349434637fe0","ios":"levelo://app?vid=8207ea45-cd04-409d-8670-349434637fe0"},"vehicle_type_id":"4","last_reported":1690315620,"current_range_meters":31200,"station_id":"ce4bgn92rcd13ifvqbvg","pricing_plan_id":"free"},{"bike_id":"f4a78ee3-d2f6-438f-a34f-f62cbac84bd6","system_id":"levelo_inurba_marseille","lat":43.314811,"lon":5.373103,"is_reserved":false,"is_disabled":false,"rental_uris":{"android":"levelo://app?vid=f4a78ee3-d2f6-438f-a34f-f62cbac84bd6","ios":"levelo://app?vid=f4a78ee3-d2f6-438f-a34f-f62cbac84bd6"},"vehicle_type_id":"4","last_reported":1690315620,"current_range_meters":30400,"station_id":"ce4bgt12rcd13ifvqcd0","pricing_plan_id":"free"},{"bike_id":"b6400e84-908a-44a2-86dd-7d58ff477628","system_id":"levelo_inurba_marseille","lat":43.309039,"lon":5.371797,"is_reserved":false,"is_disabled":false,"rental_uris":{"android":"levelo://app?vid=b6400e84-908a-44a2-86dd-7d58ff477628","ios":"levelo://app?vid=b6400e84-908a-44a2-86dd-7d58ff477628"},"vehicle_type_id":"4","last_reported":1690315620,"current_range_meters":2800,"station_id":"ce4bguh2rcd13ifvqckg","pricing_plan_id":"free"},{"bike_id":"929f1065-e56f-4b29-a4b7-8235c5ac2841","system_id":"levelo_inurba_marseille","lat":43.309039,"lon":5.371797,"is_reserved":false,"is_disabled":false,"rental_uris":{"android":"levelo://app?vid=929f1065-e56f-4b29-a4b7-8235c5ac2841","ios":"levelo://app?vid=929f1065-e56f-4b29-a4b7-8235c5ac2841"},"vehicle_type_id":"4","last_reported":1690315620,"current_range_meters":28400,"station_id":"ce4bguh2rcd13ifvqckg","pricing_plan_id":"free"},{"bike_id":"56d8e901-d249-4936-96c9-4a8b01819759","system_id":"levelo_inurba_marseille","lat":43.309034,"lon":5.371783,"is_reserved":false,"is_disabled":false,"rental_uris":{"android":"levelo://app?vid=56d8e901-d249-4936-96c9-4a8b01819759","ios":"levelo://app?vid=56d8e901-d249-4936-96c9-4a8b01819759"},"vehicle_type_id":"4","last_reported":1690315620,"current_range_meters":18000,"station_id":"ce4bguh2rcd13ifvqckg","pricing_plan_id":"free"},{"bike_id":"e9f20084-5e88-47e5-b46e-15e53bfbec2c","system_id":"levelo_inurba_marseille","lat":43.311125,"lon":5.377624,"is_reserved":false,"is_disabled":false,"rental_uris":{"android":"levelo://app?vid=e9f20084-5e88-47e5-b46e-15e53bfbec2c","ios":"levelo://app?vid=e9f20084-5e88-47e5-b46e-15e53bfbec2c"},"vehicle_type_id":"4","last_reported":1690315620,"current_range_meters":17200,"station_id":"ce4bgt92rcd13ifvqcg0","pricing_plan_id":"free"},{"bike_id":"6b926e33-66b3-4013-b123-4872cd3b9629","system_id":"levelo_inurba_marseille","lat":43.32026,"lon":5.37112,"is_reserved":false,"is_disabled":false,"rental_uris":{"android":"levelo://app?vid=6b926e33-66b3-4013-b123-4872cd3b9629","ios":"levelo://app?vid=6b926e33-66b3-4013-b123-4872cd3b9629"},"vehicle_type_id":"4","last_reported":1690315620,"current_range_meters":24400,"station_id":"","pricing_plan_id":"free"},{"bike_id":"1b191623-72c1-4e01-98f1-08b3c181d1bb","system_id":"levelo_inurba_marseille","lat":43.30793,"lon":5.37654,"is_reserved":false,"is_disabled":false,"rental_uris":{"android":"levelo://app?vid=1b191623-72c1-4e01-98f1-08b3c181d1bb","ios":"levelo://app?vid=1b191623-72c1-4e01-98f1-08b3c181d1bb"},"vehicle_type_id":"4","last_reported":1690315620,"current_range_meters":13600,"station_id":"ce4bgv92rcd13ifvqcq0","pricing_plan_id":"free"},{"bike_id":"d7b3e4a0-a7ce-435f-a3ba-8de595fbc2b8","system_id":"levelo_inurba_marseille","lat":43.30782,"lon":5.37652,"is_reserved":false,"is_disabled":false,"rental_uris":{"android":"levelo://app?vid=d7b3e4a0-a7ce-435f-a3ba-8de595fbc2b8","ios":"levelo://app?vid=d7b3e4a0-a7ce-435f-a3ba-8de595fbc2b8"},"vehicle_type_id":"4","last_reported":1690315620,"current_range_meters":400,"station_id":"ce4bgv92rcd13ifvqcq0","pricing_plan_id":"free"},{"bike_id":"d67de633-3fe1-4914-8b51-c188f469933a","system_id":"levelo_inurba_marseille","lat":43.317075,"lon":5.377367,"is_reserved":false,"is_disabled":false,"rental_uris":{"android":"levelo://app?vid=d67de633-3fe1-4914-8b51-c188f469933a","ios":"levelo://app?vid=d67de633-3fe1-4914-8b51-c188f469933a"},"vehicle_type_id":"4","last_reported":1690315620,"current_range_meters":8000,"station_id":"ce4bgth2rcd13ifvqch0","pricing_plan_id":"free"},{"bike_id":"089a9f37-f4f7-4672-9aec-5117c14a9106","system_id":"levelo_inurba_marseille","lat":43.30312,"lon":5.36886,"is_reserved":false,"is_disabled":false,"rental_uris":{"android":"levelo://app?vid=089a9f37-f4f7-4672-9aec-5117c14a9106","ios":"levelo://app?vid=089a9f37-f4f7-4672-9aec-5117c14a9106"},"vehicle_type_id":"4","last_reported":1690315620,"current_range_meters":4000,"station_id":"ce4bgqh2rcd13ifvqc5g","pricing_plan_id":"free"},{"bike_id":"8669c382-3b0d-4c21-9183-284980224c30","system_id":"levelo_inurba_marseille","lat":43.30797,"lon":5.38144,"is_reserved":false,"is_disabled":false,"rental_uris":{"android":"levelo://app?vid=8669c382-3b0d-4c21-9183-284980224c30","ios":"levelo://app?vid=8669c382-3b0d-4c21-9183-284980224c30"},"vehicle_type_id":"4","last_reported":1690315620,"current_range_meters":400,"station_id":"ce4bgt12rcd13ifvqce0","pricing_plan_id":"free"},{"bike_id":"7fae3643-89e5-4314-a21d-333aef8c5b7d","system_id":"levelo_inurba_marseille","lat":43.308,"lon":5.38151,"is_reserved":false,"is_disabled":false,"rental_uris":{"android":"levelo://app?vid=7fae3643-89e5-4314-a21d-333aef8c5b7d","ios":"levelo://app?vid=7fae3643-89e5-4314-a21d-333aef8c5b7d"},"vehicle_type_id":"4","last_reported":1690315620,"current_range_meters":21200,"station_id":"ce4bgt12rcd13ifvqce0","pricing_plan_id":"free"},{"bike_id":"ebfbd98b-5d2f-4ca8-a269-d71ccf00980a","system_id":"levelo_inurba_marseille","lat":43.304606,"lon":5.379026,"is_reserved":false,"is_disabled":false,"rental_uris":{"android":"levelo://app?vid=ebfbd98b-5d2f-4ca8-a269-d71ccf00980a","ios":"levelo://app?vid=ebfbd98b-5d2f-4ca8-a269-d71ccf00980a"},"vehicle_type_id":"4","last_reported":1690315620,"current_range_meters":6800,"station_id":"ce4bgup2rcd13ifvqcn0","pricing_plan_id":"free"},{"bike_id":"cdfa2510-1175-421f-b83b-1dd652b6e1d1","system_id":"levelo_inurba_marseille","lat":43.302784,"lon":5.377158,"is_reserved":false,"is_disabled":false,"rental_uris":{"android":"levelo://app?vid=cdfa2510-1175-421f-b83b-1dd652b6e1d1","ios":"levelo://app?vid=cdfa2510-1175-421f-b83b-1dd652b6e1d1"},"vehicle_type_id":"4","last_reported":1690315620,"current_range_meters":11600,"station_id":"ce4bguh2rcd13ifvqcj0","pricing_plan_id":"free"},{"bike_id":"f68db14a-74bd-48bf-bde5-b32851759903","system_id":"levelo_inurba_marseille","lat":43.30142,"lon":5.37414,"is_reserved":false,"is_disabled":false,"rental_uris":{"android":"levelo://app?vid=f68db14a-74bd-48bf-bde5-b32851759903","ios":"levelo://app?vid=f68db14a-74bd-48bf-bde5-b32851759903"},"vehicle_type_id":"4","last_reported":1690315620,"current_range_meters":11600,"station_id":"ce4bgs92rcd13ifvqcc0","pricing_plan_id":"free"},{"bike_id":"2283b58d-d047-4f9f-92d7-32928554a04e","system_id":"levelo_inurba_marseille","lat":43.31987,"lon":5.38152,"is_reserved":false,"is_disabled":false,"rental_uris":{"android":"levelo://app?vid=2283b58d-d047-4f9f-92d7-32928554a04e","ios":"levelo://app?vid=2283b58d-d047-4f9f-92d7-32928554a04e"},"vehicle_type_id":"4","last_reported":1690315620,"current_range_meters":6400,"station_id":"ce4bhr12rcd13ifvqhpg","pricing_plan_id":"free"},{"bike_id":"29780436-eed5-4503-8b06-cf07cd278308","system_id":"levelo_inurba_marseille","lat":43.313571,"lon":5.384829,"is_reserved":false,"is_disabled":false,"rental_uris":{"android":"levelo://app?vid=29780436-eed5-4503-8b06-cf07cd278308","ios":"levelo://app?vid=29780436-eed5-4503-8b06-cf07cd278308"},"vehicle_type_id":"4","last_reported":1690315620,"current_range_meters":8000,"station_id":"ce4bgt92rcd13ifvqcf0","pricing_plan_id":"free"},{"bike_id":"d3b0bae8-983d-4f87-a960-68b7cca052e2","system_id":"levelo_inurba_marseille","lat":43.30501,"lon":5.38376,"is_reserved":false,"is_disabled":false,"rental_uris":{"android":"levelo://app?vid=d3b0bae8-983d-4f87-a960-68b7cca052e2","ios":"levelo://app?vid=d3b0bae8-983d-4f87-a960-68b7cca052e2"},"vehicle_type_id":"4","last_reported":1690315620,"current_range_meters":0,"station_id":"ce4bgg92rcd13ifvqb30","pricing_plan_id":"free"},{"bike_id":"393bf383-f48c-4cf0-a9c0-96e0c790f8c4","system_id":"levelo_inurba_marseille","lat":43.298433,"lon":5.362774,"is_reserved":false,"is_disabled":false,"rental_uris":{"android":"levelo://app?vid=393bf383-f48c-4cf0-a9c0-96e0c790f8c4","ios":"levelo://app?vid=393bf383-f48c-4cf0-a9c0-96e0c790f8c4"},"vehicle_type_id":"4","last_reported":1690315620,"current_range_meters":26000,"station_id":"ce4bgpp2rcd13ifvqc3g","pricing_plan_id":"free"},{"bike_id":"ad393a9e-5ccc-40b3-b6e1-13e69ed95542","system_id":"levelo_inurba_marseille","lat":43.311722,"lon":5.387247,"is_reserved":false,"is_disabled":false,"rental_uris":{"android":"levelo://app?vid=ad393a9e-5ccc-40b3-b6e1-13e69ed95542","ios":"levelo://app?vid=ad393a9e-5ccc-40b3-b6e1-13e69ed95542"},"vehicle_type_id":"4","last_reported":1690315620,"current_range_meters":1200,"station_id":"ce4bgv12rcd13ifvqcp0","pricing_plan_id":"free"},{"bike_id":"2696ad59-6abf-468c-bf17-f017067ee9e4","system_id":"levelo_inurba_marseille","lat":43.311722,"lon":5.387247,"is_reserved":false,"is_disabled":false,"rental_uris":{"android":"levelo://app?vid=2696ad59-6abf-468c-bf17-f017067ee9e4","ios":"levelo://app?vid=2696ad59-6abf-468c-bf17-f017067ee9e4"},"vehicle_type_id":"4","last_reported":1690315620,"current_range_meters":9600,"station_id":"ce4bgv12rcd13ifvqcp0","pricing_plan_id":"free"},{"bike_id":"750dc9f7-599a-4cdc-bb0f-cd48e6722369","system_id":"levelo_inurba_marseille","lat":43.298433,"lon":5.362774,"is_reserved":false,"is_disabled":false,"rental_uris":{"android":"levelo://app?vid=750dc9f7-599a-4cdc-bb0f-cd48e6722369","ios":"levelo://app?vid=750dc9f7-599a-4cdc-bb0f-cd48e6722369"},"vehicle_type_id":"4","last_reported":1690315620,"current_range_meters":10800,"station_id":"ce4bgpp2rcd13ifvqc3g","pricing_plan_id":"free"},{"bike_id":"c01a9765-a653-4804-9413-fe0d93010d24","system_id":"levelo_inurba_marseille","lat":43.311722,"lon":5.387247,"is_reserved":false,"is_disabled":false,"rental_uris":{"android":"levelo://app?vid=c01a9765-a653-4804-9413-fe0d93010d24","ios":"levelo://app?vid=c01a9765-a653-4804-9413-fe0d93010d24"},"vehicle_type_id":"4","last_reported":1690315620,"current_range_meters":2800,"station_id":"ce4bgv12rcd13ifvqcp0","pricing_plan_id":"free"},{"bike_id":"51f10a46-9fc2-47c7-8553-6704c09773b8","system_id":"levelo_inurba_marseille","lat":43.297794,"lon":5.370888,"is_reserved":false,"is_disabled":false,"rental_uris":{"android":"levelo://app?vid=51f10a46-9fc2-47c7-8553-6704c09773b8","ios":"levelo://app?vid=51f10a46-9fc2-47c7-8553-6704c09773b8"},"vehicle_type_id":"4","last_reported":1690315620,"current_range_meters":11600,"station_id":"ce4bgop2rcd13ifvqc1g","pricing_plan_id":"free"},{"bike_id":"d5e19152-5958-44ec-bce8-e631869ba045","system_id":"levelo_inurba_marseille","lat":43.322872,"lon":5.382756,"is_reserved":false,"is_disabled":false,"rental_uris":{"android":"levelo://app?vid=d5e19152-5958-44ec-bce8-e631869ba045","ios":"levelo://app?vid=d5e19152-5958-44ec-bce8-e631869ba045"},"vehicle_type_id":"4","last_reported":1690315620,"current_range_meters":17600,"station_id":"ce4bhr12rcd13ifvqhqg","pricing_plan_id":"free"},{"bike_id":"0c7d2108-a072-4ade-a12c-4807b35ce707","system_id":"levelo_inurba_marseille","lat":43.3282,"lon":5.36682,"is_reserved":false,"is_disabled":false,"rental_uris":{"android":"levelo://app?vid=0c7d2108-a072-4ade-a12c-4807b35ce707","ios":"levelo://app?vid=0c7d2108-a072-4ade-a12c-4807b35ce707"},"vehicle_type_id":"4","last_reported":1690315620,"current_range_meters":7600,"station_id":"ce4bhs92rcd13ifvqi0g","pricing_plan_id":"free"},{"bike_id":"2bdd88ed-7112-4eec-8eeb-99b49e4f8277","system_id":"levelo_inurba_marseille","lat":43.32824,"lon":5.36693,"is_reserved":false,"is_disabled":false,"rental_uris":{"android":"levelo://app?vid=2bdd88ed-7112-4eec-8eeb-99b49e4f8277","ios":"levelo://app?vid=2bdd88ed-7112-4eec-8eeb-99b49e4f8277"},"vehicle_type_id":"4","last_reported":1690315620,"current_range_meters":14400,"station_id":"ce4bhs92rcd13ifvqi0g","pricing_plan_id":"free"},{"bike_id":"a3387bb6-b4ca-425f-a712-529b7ceed56f","system_id":"levelo_inurba_marseille","lat":43.32824,"lon":5.36684,"is_reserved":false,"is_disabled":false,"rental_uris":{"android":"levelo://app?vid=a3387bb6-b4ca-425f-a712-529b7ceed56f","ios":"levelo://app?vid=a3387bb6-b4ca-425f-a712-529b7ceed56f"},"vehicle_type_id":"4","last_reported":1690315620,"current_range_meters":800,"station_id":"ce4bhs92rcd13ifvqi0g","pricing_plan_id":"free"},{"bike_id":"639e2a24-816e-45e6-a1b4-fc69f231d7b7","system_id":"levelo_inurba_marseille","lat":43.32826,"lon":5.36687,"is_reserved":false,"is_disabled":false,"rental_uris":{"android":"levelo://app?vid=639e2a24-816e-45e6-a1b4-fc69f231d7b7","ios":"levelo://app?vid=639e2a24-816e-45e6-a1b4-fc69f231d7b7"},"vehicle_type_id":"4","last_reported":1690315620,"current_range_meters":12400,"station_id":"ce4bhs92rcd13ifvqi0g","pricing_plan_id":"free"},{"bike_id":"42e7e2ea-edb2-4143-b36a-ec328e76506c","system_id":"levelo_inurba_marseille","lat":43.32832,"lon":5.36693,"is_reserved":false,"is_disabled":false,"rental_uris":{"android":"levelo://app?vid=42e7e2ea-edb2-4143-b36a-ec328e76506c","ios":"levelo://app?vid=42e7e2ea-edb2-4143-b36a-ec328e76506c"},"vehicle_type_id":"4","last_reported":1690315620,"current_range_meters":22400,"station_id":"ce4bhs92rcd13ifvqi0g","pricing_plan_id":"free"},{"bike_id":"f376f06a-3cdf-4388-ade3-9cb3ea05c059","system_id":"levelo_inurba_marseille","lat":43.297163,"lon":5.365866,"is_reserved":false,"is_disabled":false,"rental_uris":{"android":"levelo://app?vid=f376f06a-3cdf-4388-ade3-9cb3ea05c059","ios":"levelo://app?vid=f376f06a-3cdf-4388-ade3-9cb3ea05c059"},"vehicle_type_id":"4","last_reported":1690315620,"current_range_meters":31200,"station_id":"ce4bgn12rcd13ifvqbt0","pricing_plan_id":"free"},{"bike_id":"7d2e339c-a29c-4bf3-9614-291cfe061b9e","system_id":"levelo_inurba_marseille","lat":43.296131,"lon":5.370773,"is_reserved":false,"is_disabled":false,"rental_uris":{"android":"levelo://app?vid=7d2e339c-a29c-4bf3-9614-291cfe061b9e","ios":"levelo://app?vid=7d2e339c-a29c-4bf3-9614-291cfe061b9e"},"vehicle_type_id":"4","last_reported":1690315620,"current_range_meters":19600,"station_id":"ce4bgnh2rcd13ifvqc0g","pricing_plan_id":"free"},{"bike_id":"9eb05f1f-25fa-476c-9893-ffee5a591424","system_id":"levelo_inurba_marseille","lat":43.29918,"lon":5.38099,"is_reserved":false,"is_disabled":false,"rental_uris":{"android":"levelo://app?vid=9eb05f1f-25fa-476c-9893-ffee5a591424","ios":"levelo://app?vid=9eb05f1f-25fa-476c-9893-ffee5a591424"},"vehicle_type_id":"4","last_reported":1690315620,"current_range_meters":23200,"station_id":"ce4bgj12rcd13ifvqbc0","pricing_plan_id":"free"},{"bike_id":"6f91d4f0-4131-4b17-8a35-948fdfaefc83","system_id":"levelo_inurba_marseille","lat":43.296935,"lon":5.376544,"is_reserved":false,"is_disabled":false,"rental_uris":{"android":"levelo://app?vid=6f91d4f0-4131-4b17-8a35-948fdfaefc83","ios":"levelo://app?vid=6f91d4f0-4131-4b17-8a35-948fdfaefc83"},"vehicle_type_id":"4","last_reported":1690315620,"current_range_meters":0,"station_id":"ce4bgkh2rcd13ifvqbl0","pricing_plan_id":"free"},{"bike_id":"170ca65b-702b-47d7-ab72-e661c5ad8187","system_id":"levelo_inurba_marseille","lat":43.299028,"lon":5.381509,"is_reserved":false,"is_disabled":false,"rental_uris":{"android":"levelo://app?vid=170ca65b-702b-47d7-ab72-e661c5ad8187","ios":"levelo://app?vid=170ca65b-702b-47d7-ab72-e661c5ad8187"},"vehicle_type_id":"4","last_reported":1690315620,"current_range_meters":22800,"station_id":"ce4bgj12rcd13ifvqbc0","pricing_plan_id":"free"},{"bike_id":"2731f2eb-f12a-4f1c-a89c-bdfaaec01c66","system_id":"levelo_inurba_marseille","lat":43.309589,"lon":5.390258,"is_reserved":false,"is_disabled":false,"rental_uris":{"android":"levelo://app?vid=2731f2eb-f12a-4f1c-a89c-bdfaaec01c66","ios":"levelo://app?vid=2731f2eb-f12a-4f1c-a89c-bdfaaec01c66"},"vehicle_type_id":"4","last_reported":1690315620,"current_range_meters":14400,"station_id":"ce4bgup2rcd13ifvqco0","pricing_plan_id":"free"},{"bike_id":"f4666395-a131-4937-b0fa-e77fb9e24729","system_id":"levelo_inurba_marseille","lat":43.309589,"lon":5.390258,"is_reserved":false,"is_disabled":false,"rental_uris":{"android":"levelo://app?vid=f4666395-a131-4937-b0fa-e77fb9e24729","ios":"levelo://app?vid=f4666395-a131-4937-b0fa-e77fb9e24729"},"vehicle_type_id":"4","last_reported":1690315620,"current_range_meters":20000,"station_id":"ce4bgup2rcd13ifvqco0","pricing_plan_id":"free"},{"bike_id":"edd9c18a-6126-42c1-bf8f-1f46592aa7d8","system_id":"levelo_inurba_marseille","lat":43.30954,"lon":5.39045,"is_reserved":false,"is_disabled":false,"rental_uris":{"android":"levelo://app?vid=edd9c18a-6126-42c1-bf8f-1f46592aa7d8","ios":"levelo://app?vid=edd9c18a-6126-42c1-bf8f-1f46592aa7d8"},"vehicle_type_id":"4","last_reported":1690315620,"current_range_meters":21600,"station_id":"ce4bgup2rcd13ifvqco0","pricing_plan_id":"free"},{"bike_id":"f0d0d4b9-c9d5-4616-aed3-54da424c8aee","system_id":"levelo_inurba_marseille","lat":43.31761,"lon":5.39012,"is_reserved":false,"is_disabled":false,"rental_uris":{"android":"levelo://app?vid=f0d0d4b9-c9d5-4616-aed3-54da424c8aee","ios":"levelo://app?vid=f0d0d4b9-c9d5-4616-aed3-54da424c8aee"},"vehicle_type_id":"4","last_reported":1690315620,"current_range_meters":26400,"station_id":"ce4bhqp2rcd13ifvqhng","pricing_plan_id":"free"},{"bike_id":"6d655131-56c4-4b2c-a516-08e20e25b707","system_id":"levelo_inurba_marseille","lat":43.317557,"lon":5.390173,"is_reserved":false,"is_disabled":false,"rental_uris":{"android":"levelo://app?vid=6d655131-56c4-4b2c-a516-08e20e25b707","ios":"levelo://app?vid=6d655131-56c4-4b2c-a516-08e20e25b707"},"vehicle_type_id":"4","last_reported":1690315620,"current_range_meters":31200,"station_id":"ce4bhqp2rcd13ifvqhng","pricing_plan_id":"free"},{"bike_id":"ab94e145-d0fd-488c-b05c-4dfd6cb1ccad","system_id":"levelo_inurba_marseille","lat":43.29662,"lon":5.3766,"is_reserved":false,"is_disabled":false,"rental_uris":{"android":"levelo://app?vid=ab94e145-d0fd-488c-b05c-4dfd6cb1ccad","ios":"levelo://app?vid=ab94e145-d0fd-488c-b05c-4dfd6cb1ccad"},"vehicle_type_id":"4","last_reported":1690315620,"current_range_meters":16000,"station_id":"","pricing_plan_id":"free"},{"bike_id":"50a6ef4f-52c9-4747-9223-407bc1883781","system_id":"levelo_inurba_marseille","lat":43.31758,"lon":5.39017,"is_reserved":false,"is_disabled":false,"rental_uris":{"android":"levelo://app?vid=50a6ef4f-52c9-4747-9223-407bc1883781","ios":"levelo://app?vid=50a6ef4f-52c9-4747-9223-407bc1883781"},"vehicle_type_id":"4","last_reported":1690315620,"current_range_meters":29600,"station_id":"ce4bhqp2rcd13ifvqhng","pricing_plan_id":"free"},{"bike_id":"8c600855-2962-456a-8646-af430e1398db","system_id":"levelo_inurba_marseille","lat":43.31758,"lon":5.39018,"is_reserved":false,"is_disabled":false,"rental_uris":{"android":"levelo://app?vid=8c600855-2962-456a-8646-af430e1398db","ios":"levelo://app?vid=8c600855-2962-456a-8646-af430e1398db"},"vehicle_type_id":"4","last_reported":1690315620,"current_range_meters":17200,"station_id":"ce4bhqp2rcd13ifvqhng","pricing_plan_id":"free"},{"bike_id":"66173726-a450-4859-98ff-564332dfb75c","system_id":"levelo_inurba_marseille","lat":43.29806,"lon":5.38084,"is_reserved":false,"is_disabled":false,"rental_uris":{"android":"levelo://app?vid=66173726-a450-4859-98ff-564332dfb75c","ios":"levelo://app?vid=66173726-a450-4859-98ff-564332dfb75c"},"vehicle_type_id":"4","last_reported":1690315620,"current_range_meters":9200,"station_id":"ce4bgip2rcd13ifvqbb0","pricing_plan_id":"free"},{"bike_id":"01e6ecd7-8fe4-496a-a249-9280dca42a0c","system_id":"levelo_inurba_marseille","lat":43.295748,"lon":5.37522,"is_reserved":false,"is_disabled":false,"rental_uris":{"android":"levelo://app?vid=01e6ecd7-8fe4-496a-a249-9280dca42a0c","ios":"levelo://app?vid=01e6ecd7-8fe4-496a-a249-9280dca42a0c"},"vehicle_type_id":"4","last_reported":1690315620,"current_range_meters":4400,"station_id":"ce4bgh92rcd13ifvqb50","pricing_plan_id":"free"},{"bike_id":"8d1478a9-8a79-4a64-9f65-9677ffa57e37","system_id":"levelo_inurba_marseille","lat":43.304278,"lon":5.388868,"is_reserved":false,"is_disabled":false,"rental_uris":{"android":"levelo://app?vid=8d1478a9-8a79-4a64-9f65-9677ffa57e37","ios":"levelo://app?vid=8d1478a9-8a79-4a64-9f65-9677ffa57e37"},"vehicle_type_id":"4","last_reported":1690315620,"current_range_meters":800,"station_id":"ce4bgk12rcd13ifvqbi0","pricing_plan_id":"free"},{"bike_id":"a2936cc3-9b93-47cd-bc26-b6949fe15a30","system_id":"levelo_inurba_marseille","lat":43.299707,"lon":5.384859,"is_reserved":false,"is_disabled":false,"rental_uris":{"android":"levelo://app?vid=a2936cc3-9b93-47cd-bc26-b6949fe15a30","ios":"levelo://app?vid=a2936cc3-9b93-47cd-bc26-b6949fe15a30"},"vehicle_type_id":"4","last_reported":1690315620,"current_range_meters":8800,"station_id":"ce4bgj92rcd13ifvqbd0","pricing_plan_id":"free"},{"bike_id":"fbb8d3a0-442a-447a-aea1-cbf8131737cf","system_id":"levelo_inurba_marseille","lat":43.299707,"lon":5.384859,"is_reserved":false,"is_disabled":false,"rental_uris":{"android":"levelo://app?vid=fbb8d3a0-442a-447a-aea1-cbf8131737cf","ios":"levelo://app?vid=fbb8d3a0-442a-447a-aea1-cbf8131737cf"},"vehicle_type_id":"4","last_reported":1690315620,"current_range_meters":19200,"station_id":"ce4bgj92rcd13ifvqbd0","pricing_plan_id":"free"},{"bike_id":"4ab2864b-e35f-4fd2-967d-6937725cb996","system_id":"levelo_inurba_marseille","lat":43.299717,"lon":5.384845,"is_reserved":false,"is_disabled":false,"rental_uris":{"android":"levelo://app?vid=4ab2864b-e35f-4fd2-967d-6937725cb996","ios":"levelo://app?vid=4ab2864b-e35f-4fd2-967d-6937725cb996"},"vehicle_type_id":"4","last_reported":1690315620,"current_range_meters":7200,"station_id":"ce4bgj92rcd13ifvqbd0","pricing_plan_id":"free"},{"bike_id":"819f354b-a0b9-44f3-87c1-cfc255fea769","system_id":"levelo_inurba_marseille","lat":43.29511,"lon":5.37508,"is_reserved":false,"is_disabled":false,"rental_uris":{"android":"levelo://app?vid=819f354b-a0b9-44f3-87c1-cfc255fea769","ios":"levelo://app?vid=819f354b-a0b9-44f3-87c1-cfc255fea769"},"vehicle_type_id":"4","last_reported":1690315620,"current_range_meters":7600,"station_id":"","pricing_plan_id":"free"},{"bike_id":"9f5187f7-d97e-423c-961a-b02db8662674","system_id":"levelo_inurba_marseille","lat":43.295279,"lon":5.375048,"is_reserved":false,"is_disabled":false,"rental_uris":{"android":"levelo://app?vid=9f5187f7-d97e-423c-961a-b02db8662674","ios":"levelo://app?vid=9f5187f7-d97e-423c-961a-b02db8662674"},"vehicle_type_id":"4","last_reported":1690315620,"current_range_meters":14400,"station_id":"ce4bgkp2rcd13ifvqbmg","pricing_plan_id":"free"},{"bike_id":"b310f729-85ce-421c-8421-de568e290733","system_id":"levelo_inurba_marseille","lat":43.309589,"lon":5.390258,"is_reserved":false,"is_disabled":false,"rental_uris":{"android":"levelo://app?vid=b310f729-85ce-421c-8421-de568e290733","ios":"levelo://app?vid=b310f729-85ce-421c-8421-de568e290733"},"vehicle_type_id":"4","last_reported":1690315620,"current_range_meters":14000,"station_id":"ce4bgup2rcd13ifvqco0","pricing_plan_id":"free"},{"bike_id":"fb2576f5-9bd8-4648-bacc-c8772e699153","system_id":"levelo_inurba_marseille","lat":43.29459,"lon":5.37425,"is_reserved":false,"is_disabled":false,"rental_uris":{"android":"levelo://app?vid=fb2576f5-9bd8-4648-bacc-c8772e699153","ios":"levelo://app?vid=fb2576f5-9bd8-4648-bacc-c8772e699153"},"vehicle_type_id":"4","last_reported":1690315620,"current_range_meters":29200,"station_id":"","pricing_plan_id":"free"},{"bike_id":"3dd4f0f6-77ad-4d5b-90f7-854514428971","system_id":"levelo_inurba_marseille","lat":43.299707,"lon":5.384859,"is_reserved":false,"is_disabled":false,"rental_uris":{"android":"levelo://app?vid=3dd4f0f6-77ad-4d5b-90f7-854514428971","ios":"levelo://app?vid=3dd4f0f6-77ad-4d5b-90f7-854514428971"},"vehicle_type_id":"4","last_reported":1690315620,"current_range_meters":6800,"station_id":"ce4bgj92rcd13ifvqbd0","pricing_plan_id":"free"},{"bike_id":"f7599574-7f97-4c07-8aea-8ae5a8e05a97","system_id":"levelo_inurba_marseille","lat":43.32364,"lon":5.38877,"is_reserved":false,"is_disabled":false,"rental_uris":{"android":"levelo://app?vid=f7599574-7f97-4c07-8aea-8ae5a8e05a97","ios":"levelo://app?vid=f7599574-7f97-4c07-8aea-8ae5a8e05a97"},"vehicle_type_id":"4","last_reported":1690315620,"current_range_meters":28000,"station_id":"ce4bhqp2rcd13ifvqhog","pricing_plan_id":"free"},{"bike_id":"e3c59db1-acd6-44c6-97f3-35c7602ef342","system_id":"levelo_inurba_marseille","lat":43.32364,"lon":5.38877,"is_reserved":false,"is_disabled":false,"rental_uris":{"android":"levelo://app?vid=e3c59db1-acd6-44c6-97f3-35c7602ef342","ios":"levelo://app?vid=e3c59db1-acd6-44c6-97f3-35c7602ef342"},"vehicle_type_id":"4","last_reported":1690315620,"current_range_meters":1600,"station_id":"ce4bhqp2rcd13ifvqhog","pricing_plan_id":"free"},{"bike_id":"e59b90d8-faf3-4c85-8d86-53cf68340016","system_id":"levelo_inurba_marseille","lat":43.29601,"lon":5.381084,"is_reserved":false,"is_disabled":false,"rental_uris":{"android":"levelo://app?vid=e59b90d8-faf3-4c85-8d86-53cf68340016","ios":"levelo://app?vid=e59b90d8-faf3-4c85-8d86-53cf68340016"},"vehicle_type_id":"4","last_reported":1690315620,"current_range_meters":0,"station_id":"ce4bgl12rcd13ifvqbo0","pricing_plan_id":"free"},{"bike_id":"425a80e7-065f-4281-be2e-973c7306c26f","system_id":"levelo_inurba_marseille","lat":43.29602,"lon":5.381084,"is_reserved":false,"is_disabled":false,"rental_uris":{"android":"levelo://app?vid=425a80e7-065f-4281-be2e-973c7306c26f","ios":"levelo://app?vid=425a80e7-065f-4281-be2e-973c7306c26f"},"vehicle_type_id":"4","last_reported":1690315620,"current_range_meters":18400,"station_id":"ce4bgl12rcd13ifvqbo0","pricing_plan_id":"free"},{"bike_id":"9c1f000a-b44f-424e-a93b-dc86911322e3","system_id":"levelo_inurba_marseille","lat":43.29603,"lon":5.38104,"is_reserved":false,"is_disabled":false,"rental_uris":{"android":"levelo://app?vid=9c1f000a-b44f-424e-a93b-dc86911322e3","ios":"levelo://app?vid=9c1f000a-b44f-424e-a93b-dc86911322e3"},"vehicle_type_id":"4","last_reported":1690315620,"current_range_meters":30000,"station_id":"","pricing_plan_id":"free"},{"bike_id":"ece913c8-5bb0-4e12-a519-f3bac74c8969","system_id":"levelo_inurba_marseille","lat":43.29602,"lon":5.381084,"is_reserved":false,"is_disabled":false,"rental_uris":{"android":"levelo://app?vid=ece913c8-5bb0-4e12-a519-f3bac74c8969","ios":"levelo://app?vid=ece913c8-5bb0-4e12-a519-f3bac74c8969"},"vehicle_type_id":"4","last_reported":1690315620,"current_range_meters":28800,"station_id":"ce4bgl12rcd13ifvqbo0","pricing_plan_id":"free"},{"bike_id":"f3268a4b-98fa-4290-8e8a-0af79d17a48b","system_id":"levelo_inurba_marseille","lat":43.29602,"lon":5.381084,"is_reserved":false,"is_disabled":false,"rental_uris":{"android":"levelo://app?vid=f3268a4b-98fa-4290-8e8a-0af79d17a48b","ios":"levelo://app?vid=f3268a4b-98fa-4290-8e8a-0af79d17a48b"},"vehicle_type_id":"4","last_reported":1690315620,"current_range_meters":12400,"station_id":"ce4bgl12rcd13ifvqbo0","pricing_plan_id":"free"},{"bike_id":"b289a761-b4ee-4e49-8cd9-544f91d58b90","system_id":"levelo_inurba_marseille","lat":43.29602,"lon":5.381084,"is_reserved":false,"is_disabled":false,"rental_uris":{"android":"levelo://app?vid=b289a761-b4ee-4e49-8cd9-544f91d58b90","ios":"levelo://app?vid=b289a761-b4ee-4e49-8cd9-544f91d58b90"},"vehicle_type_id":"4","last_reported":1690315620,"current_range_meters":8000,"station_id":"ce4bgl12rcd13ifvqbo0","pricing_plan_id":"free"},{"bike_id":"c321ee62-3cc8-4fc8-b36e-6b6a335a4553","system_id":"levelo_inurba_marseille","lat":43.29602,"lon":5.381084,"is_reserved":false,"is_disabled":false,"rental_uris":{"android":"levelo://app?vid=c321ee62-3cc8-4fc8-b36e-6b6a335a4553","ios":"levelo://app?vid=c321ee62-3cc8-4fc8-b36e-6b6a335a4553"},"vehicle_type_id":"4","last_reported":1690315620,"current_range_meters":18800,"station_id":"ce4bgl12rcd13ifvqbo0","pricing_plan_id":"free"},{"bike_id":"0483ca96-827d-4ab6-8de7-83d95535330d","system_id":"levelo_inurba_marseille","lat":43.29601,"lon":5.381084,"is_reserved":false,"is_disabled":false,"rental_uris":{"android":"levelo://app?vid=0483ca96-827d-4ab6-8de7-83d95535330d","ios":"levelo://app?vid=0483ca96-827d-4ab6-8de7-83d95535330d"},"vehicle_type_id":"4","last_reported":1690315620,"current_range_meters":20800,"station_id":"ce4bgl12rcd13ifvqbo0","pricing_plan_id":"free"},{"bike_id":"24a0e9f2-4b66-464c-8eb4-6631d5aaa62e","system_id":"levelo_inurba_marseille","lat":43.292749,"lon":5.368398,"is_reserved":false,"is_disabled":false,"rental_uris":{"android":"levelo://app?vid=24a0e9f2-4b66-464c-8eb4-6631d5aaa62e","ios":"levelo://app?vid=24a0e9f2-4b66-464c-8eb4-6631d5aaa62e"},"vehicle_type_id":"4","last_reported":1690315620,"current_range_meters":5200,"station_id":"ce4bhbp2rcd13ifvqesg","pricing_plan_id":"free"},{"bike_id":"ebc73c16-cb98-4fce-952c-d0a2cda8b467","system_id":"levelo_inurba_marseille","lat":43.293249,"lon":5.371578,"is_reserved":false,"is_disabled":false,"rental_uris":{"android":"levelo://app?vid=ebc73c16-cb98-4fce-952c-d0a2cda8b467","ios":"levelo://app?vid=ebc73c16-cb98-4fce-952c-d0a2cda8b467"},"vehicle_type_id":"4","last_reported":1690315620,"current_range_meters":21600,"station_id":"ce4bgh92rcd13ifvqb40","pricing_plan_id":"free"},{"bike_id":"20e0eda0-95ac-4a52-b5f0-505f6a4f9bdd","system_id":"levelo_inurba_marseille","lat":43.292749,"lon":5.368398,"is_reserved":false,"is_disabled":false,"rental_uris":{"android":"levelo://app?vid=20e0eda0-95ac-4a52-b5f0-505f6a4f9bdd","ios":"levelo://app?vid=20e0eda0-95ac-4a52-b5f0-505f6a4f9bdd"},"vehicle_type_id":"4","last_reported":1690315620,"current_range_meters":20800,"station_id":"ce4bhbp2rcd13ifvqesg","pricing_plan_id":"free"},{"bike_id":"f0a80816-200b-46b6-adc4-2b9863bf4e51","system_id":"levelo_inurba_marseille","lat":43.293249,"lon":5.371578,"is_reserved":false,"is_disabled":false,"rental_uris":{"android":"levelo://app?vid=f0a80816-200b-46b6-adc4-2b9863bf4e51","ios":"levelo://app?vid=f0a80816-200b-46b6-adc4-2b9863bf4e51"},"vehicle_type_id":"4","last_reported":1690315620,"current_range_meters":0,"station_id":"ce4bgh92rcd13ifvqb40","pricing_plan_id":"free"},{"bike_id":"bd4a080f-dd0c-4d1e-853d-975dbaa410d9","system_id":"levelo_inurba_marseille","lat":43.293,"lon":5.37181,"is_reserved":false,"is_disabled":false,"rental_uris":{"android":"levelo://app?vid=bd4a080f-dd0c-4d1e-853d-975dbaa410d9","ios":"levelo://app?vid=bd4a080f-dd0c-4d1e-853d-975dbaa410d9"},"vehicle_type_id":"4","last_reported":1690315620,"current_range_meters":2400,"station_id":"ce4bgh92rcd13ifvqb40","pricing_plan_id":"free"},{"bike_id":"22419187-425c-4a46-b1d7-08dcc655ba12","system_id":"levelo_inurba_marseille","lat":43.29288,"lon":5.35978,"is_reserved":false,"is_disabled":false,"rental_uris":{"android":"levelo://app?vid=22419187-425c-4a46-b1d7-08dcc655ba12","ios":"levelo://app?vid=22419187-425c-4a46-b1d7-08dcc655ba12"},"vehicle_type_id":"4","last_reported":1690315620,"current_range_meters":19600,"station_id":"","pricing_plan_id":"free"},{"bike_id":"e8ac3605-44eb-4e86-bb8a-7162c084c0f3","system_id":"levelo_inurba_marseille","lat":43.293009,"lon":5.374584,"is_reserved":false,"is_disabled":false,"rental_uris":{"android":"levelo://app?vid=e8ac3605-44eb-4e86-bb8a-7162c084c0f3","ios":"levelo://app?vid=e8ac3605-44eb-4e86-bb8a-7162c084c0f3"},"vehicle_type_id":"4","last_reported":1690315620,"current_range_meters":26400,"station_id":"ce4bgi12rcd13ifvqb70","pricing_plan_id":"free"},{"bike_id":"096a1400-e0f9-4ce3-ae4e-1e8a7b5b0245","system_id":"levelo_inurba_marseille","lat":43.302992,"lon":5.392136,"is_reserved":false,"is_disabled":false,"rental_uris":{"android":"levelo://app?vid=096a1400-e0f9-4ce3-ae4e-1e8a7b5b0245","ios":"levelo://app?vid=096a1400-e0f9-4ce3-ae4e-1e8a7b5b0245"},"vehicle_type_id":"4","last_reported":1690315620,"current_range_meters":30400,"station_id":"ce4bgkh2rcd13ifvqbk0","pricing_plan_id":"free"},{"bike_id":"c72a9f5f-0cee-47e6-8df3-6c6ea0ae9186","system_id":"levelo_inurba_marseille","lat":43.3029,"lon":5.39199,"is_reserved":false,"is_disabled":false,"rental_uris":{"android":"levelo://app?vid=c72a9f5f-0cee-47e6-8df3-6c6ea0ae9186","ios":"levelo://app?vid=c72a9f5f-0cee-47e6-8df3-6c6ea0ae9186"},"vehicle_type_id":"4","last_reported":1690315620,"current_range_meters":8400,"station_id":"ce4bgkh2rcd13ifvqbk0","pricing_plan_id":"free"},{"bike_id":"3839f196-4bd4-43f6-9201-a80e18f79366","system_id":"levelo_inurba_marseille","lat":43.302992,"lon":5.392136,"is_reserved":false,"is_disabled":false,"rental_uris":{"android":"levelo://app?vid=3839f196-4bd4-43f6-9201-a80e18f79366","ios":"levelo://app?vid=3839f196-4bd4-43f6-9201-a80e18f79366"},"vehicle_type_id":"4","last_reported":1690315620,"current_range_meters":7200,"station_id":"ce4bgkh2rcd13ifvqbk0","pricing_plan_id":"free"},{"bike_id":"073a36f8-d60e-4684-8664-70db44ea9e03","system_id":"levelo_inurba_marseille","lat":43.30302,"lon":5.39214,"is_reserved":false,"is_disabled":false,"rental_uris":{"android":"levelo://app?vid=073a36f8-d60e-4684-8664-70db44ea9e03","ios":"levelo://app?vid=073a36f8-d60e-4684-8664-70db44ea9e03"},"vehicle_type_id":"4","last_reported":1690315620,"current_range_meters":5200,"station_id":"ce4bgkh2rcd13ifvqbk0","pricing_plan_id":"free"},{"bike_id":"b54bb38d-dacb-4fda-a63a-5226d7e54963","system_id":"levelo_inurba_marseille","lat":43.302992,"lon":5.392136,"is_reserved":false,"is_disabled":false,"rental_uris":{"android":"levelo://app?vid=b54bb38d-dacb-4fda-a63a-5226d7e54963","ios":"levelo://app?vid=b54bb38d-dacb-4fda-a63a-5226d7e54963"},"vehicle_type_id":"4","last_reported":1690315620,"current_range_meters":9200,"station_id":"ce4bgkh2rcd13ifvqbk0","pricing_plan_id":"free"},{"bike_id":"a2b57dc4-2217-462a-848c-18323207061e","system_id":"levelo_inurba_marseille","lat":43.300852,"lon":5.390859,"is_reserved":false,"is_disabled":false,"rental_uris":{"android":"levelo://app?vid=a2b57dc4-2217-462a-848c-18323207061e","ios":"levelo://app?vid=a2b57dc4-2217-462a-848c-18323207061e"},"vehicle_type_id":"4","last_reported":1690315620,"current_range_meters":21200,"station_id":"ce4bh192rcd13ifvqdb0","pricing_plan_id":"free"},{"bike_id":"38835880-35fd-4d7b-88d5-fc76e1c6fd33","system_id":"levelo_inurba_marseille","lat":43.300852,"lon":5.390859,"is_reserved":false,"is_disabled":false,"rental_uris":{"android":"levelo://app?vid=38835880-35fd-4d7b-88d5-fc76e1c6fd33","ios":"levelo://app?vid=38835880-35fd-4d7b-88d5-fc76e1c6fd33"},"vehicle_type_id":"4","last_reported":1690315620,"current_range_meters":27600,"station_id":"ce4bh192rcd13ifvqdb0","pricing_plan_id":"free"},{"bike_id":"076def06-61f2-4d94-bb47-ef0fd1ee2ffe","system_id":"levelo_inurba_marseille","lat":43.291671,"lon":5.371575,"is_reserved":false,"is_disabled":false,"rental_uris":{"android":"levelo://app?vid=076def06-61f2-4d94-bb47-ef0fd1ee2ffe","ios":"levelo://app?vid=076def06-61f2-4d94-bb47-ef0fd1ee2ffe"},"vehicle_type_id":"4","last_reported":1690315620,"current_range_meters":12000,"station_id":"ce4bha92rcd13ifvqeh0","pricing_plan_id":"free"},{"bike_id":"0f207b24-7b3e-4e4b-bcf7-46fc585ee918","system_id":"levelo_inurba_marseille","lat":43.298764,"lon":5.388973,"is_reserved":false,"is_disabled":false,"rental_uris":{"android":"levelo://app?vid=0f207b24-7b3e-4e4b-bcf7-46fc585ee918","ios":"levelo://app?vid=0f207b24-7b3e-4e4b-bcf7-46fc585ee918"},"vehicle_type_id":"4","last_reported":1690315620,"current_range_meters":21600,"station_id":"ce4bh392rcd13ifvqdl0","pricing_plan_id":"free"},{"bike_id":"09aafd10-8dab-47fc-9a3c-2ff8a74d1f64","system_id":"levelo_inurba_marseille","lat":43.291671,"lon":5.371575,"is_reserved":false,"is_disabled":false,"rental_uris":{"android":"levelo://app?vid=09aafd10-8dab-47fc-9a3c-2ff8a74d1f64","ios":"levelo://app?vid=09aafd10-8dab-47fc-9a3c-2ff8a74d1f64"},"vehicle_type_id":"4","last_reported":1690315620,"current_range_meters":30400,"station_id":"ce4bha92rcd13ifvqeh0","pricing_plan_id":"free"},{"bike_id":"62233a0d-4891-4ab0-9218-36bbcecb391a","system_id":"levelo_inurba_marseille","lat":43.291675,"lon":5.371583,"is_reserved":false,"is_disabled":false,"rental_uris":{"android":"levelo://app?vid=62233a0d-4891-4ab0-9218-36bbcecb391a","ios":"levelo://app?vid=62233a0d-4891-4ab0-9218-36bbcecb391a"},"vehicle_type_id":"4","last_reported":1690315620,"current_range_meters":3600,"station_id":"ce4bha92rcd13ifvqeh0","pricing_plan_id":"free"},{"bike_id":"d7a425f0-7965-4cdc-a02a-de23047f9ca0","system_id":"levelo_inurba_marseille","lat":43.291671,"lon":5.371575,"is_reserved":false,"is_disabled":false,"rental_uris":{"android":"levelo://app?vid=d7a425f0-7965-4cdc-a02a-de23047f9ca0","ios":"levelo://app?vid=d7a425f0-7965-4cdc-a02a-de23047f9ca0"},"vehicle_type_id":"4","last_reported":1690315620,"current_range_meters":6800,"station_id":"ce4bha92rcd13ifvqeh0","pricing_plan_id":"free"},{"bike_id":"5f6e7e90-f42b-4534-8fca-1c44fa9be89a","system_id":"levelo_inurba_marseille","lat":43.292663,"lon":5.376394,"is_reserved":false,"is_disabled":false,"rental_uris":{"android":"levelo://app?vid=5f6e7e90-f42b-4534-8fca-1c44fa9be89a","ios":"levelo://app?vid=5f6e7e90-f42b-4534-8fca-1c44fa9be89a"},"vehicle_type_id":"4","last_reported":1690315620,"current_range_meters":4400,"station_id":"ce4bgi12rcd13ifvqb80","pricing_plan_id":"free"},{"bike_id":"b8b8a54c-b0c4-4d34-819d-49b683993553","system_id":"levelo_inurba_marseille","lat":43.29529,"lon":5.385581,"is_reserved":false,"is_disabled":false,"rental_uris":{"android":"levelo://app?vid=b8b8a54c-b0c4-4d34-819d-49b683993553","ios":"levelo://app?vid=b8b8a54c-b0c4-4d34-819d-49b683993553"},"vehicle_type_id":"4","last_reported":1690315620,"current_range_meters":23200,"station_id":"ce4bgih2rcd13ifvqba0","pricing_plan_id":"free"},{"bike_id":"87e7e5fc-9b94-4b49-9582-bde866858b37","system_id":"levelo_inurba_marseille","lat":43.30895,"lon":5.39628,"is_reserved":false,"is_disabled":false,"rental_uris":{"android":"levelo://app?vid=87e7e5fc-9b94-4b49-9582-bde866858b37","ios":"levelo://app?vid=87e7e5fc-9b94-4b49-9582-bde866858b37"},"vehicle_type_id":"4","last_reported":1690315620,"current_range_meters":19200,"station_id":"ce4bh012rcd13ifvqcv0","pricing_plan_id":"free"},{"bike_id":"eb6d78a7-b51f-47a9-90e8-c38c2e23dec2","system_id":"levelo_inurba_marseille","lat":43.309038,"lon":5.396546,"is_reserved":false,"is_disabled":false,"rental_uris":{"android":"levelo://app?vid=eb6d78a7-b51f-47a9-90e8-c38c2e23dec2","ios":"levelo://app?vid=eb6d78a7-b51f-47a9-90e8-c38c2e23dec2"},"vehicle_type_id":"4","last_reported":1690315620,"current_range_meters":9200,"station_id":"ce4bh012rcd13ifvqcv0","pricing_plan_id":"free"},{"bike_id":"97496f18-7d80-4d22-bb3f-2088f6cee5a1","system_id":"levelo_inurba_marseille","lat":43.3234,"lon":5.39295,"is_reserved":false,"is_disabled":false,"rental_uris":{"android":"levelo://app?vid=97496f18-7d80-4d22-bb3f-2088f6cee5a1","ios":"levelo://app?vid=97496f18-7d80-4d22-bb3f-2088f6cee5a1"},"vehicle_type_id":"4","last_reported":1690315620,"current_range_meters":30000,"station_id":"","pricing_plan_id":"free"},{"bike_id":"fa8d2bdc-b06d-44f8-b0d7-bbe8a2894b26","system_id":"levelo_inurba_marseille","lat":43.291994,"lon":5.357886,"is_reserved":false,"is_disabled":false,"rental_uris":{"android":"levelo://app?vid=fa8d2bdc-b06d-44f8-b0d7-bbe8a2894b26","ios":"levelo://app?vid=fa8d2bdc-b06d-44f8-b0d7-bbe8a2894b26"},"vehicle_type_id":"4","last_reported":1690315620,"current_range_meters":6000,"station_id":"ce4bhb12rcd13ifvqel0","pricing_plan_id":"free"},{"bike_id":"21ee9228-2cce-446a-a8b8-a7c43cfefddf","system_id":"levelo_inurba_marseille","lat":43.31329,"lon":5.39688,"is_reserved":false,"is_disabled":false,"rental_uris":{"android":"levelo://app?vid=21ee9228-2cce-446a-a8b8-a7c43cfefddf","ios":"levelo://app?vid=21ee9228-2cce-446a-a8b8-a7c43cfefddf"},"vehicle_type_id":"4","last_reported":1690315620,"current_range_meters":20800,"station_id":"ce4bgvp2rcd13ifvqcu0","pricing_plan_id":"free"},{"bike_id":"c7845bd5-02e7-4e24-ae5e-65a6f85c28b6","system_id":"levelo_inurba_marseille","lat":43.31317,"lon":5.39692,"is_reserved":false,"is_disabled":false,"rental_uris":{"android":"levelo://app?vid=c7845bd5-02e7-4e24-ae5e-65a6f85c28b6","ios":"levelo://app?vid=c7845bd5-02e7-4e24-ae5e-65a6f85c28b6"},"vehicle_type_id":"4","last_reported":1690315620,"current_range_meters":8800,"station_id":"ce4bgvp2rcd13ifvqcu0","pricing_plan_id":"free"},{"bike_id":"532ca00a-07fc-4abe-9a29-4fb8f91e3195","system_id":"levelo_inurba_marseille","lat":43.30886,"lon":5.39647,"is_reserved":false,"is_disabled":false,"rental_uris":{"android":"levelo://app?vid=532ca00a-07fc-4abe-9a29-4fb8f91e3195","ios":"levelo://app?vid=532ca00a-07fc-4abe-9a29-4fb8f91e3195"},"vehicle_type_id":"4","last_reported":1690315620,"current_range_meters":29200,"station_id":"ce4bh012rcd13ifvqcv0","pricing_plan_id":"free"},{"bike_id":"80e0cf5e-1685-4094-84f1-6c6fc5bffeed","system_id":"levelo_inurba_marseille","lat":43.313291,"lon":5.396838,"is_reserved":false,"is_disabled":false,"rental_uris":{"android":"levelo://app?vid=80e0cf5e-1685-4094-84f1-6c6fc5bffeed","ios":"levelo://app?vid=80e0cf5e-1685-4094-84f1-6c6fc5bffeed"},"vehicle_type_id":"4","last_reported":1690315620,"current_range_meters":16800,"station_id":"ce4bgvp2rcd13ifvqcu0","pricing_plan_id":"free"},{"bike_id":"c8fd73b3-b013-48b3-ac0c-7cabff80b4f0","system_id":"levelo_inurba_marseille","lat":43.31332,"lon":5.397,"is_reserved":false,"is_disabled":false,"rental_uris":{"android":"levelo://app?vid=c8fd73b3-b013-48b3-ac0c-7cabff80b4f0","ios":"levelo://app?vid=c8fd73b3-b013-48b3-ac0c-7cabff80b4f0"},"vehicle_type_id":"4","last_reported":1690315620,"current_range_meters":10400,"station_id":"ce4bgvp2rcd13ifvqcu0","pricing_plan_id":"free"},{"bike_id":"f7f6cfab-4dc1-4771-bbec-54a7aaed6468","system_id":"levelo_inurba_marseille","lat":43.30881,"lon":5.39657,"is_reserved":false,"is_disabled":false,"rental_uris":{"android":"levelo://app?vid=f7f6cfab-4dc1-4771-bbec-54a7aaed6468","ios":"levelo://app?vid=f7f6cfab-4dc1-4771-bbec-54a7aaed6468"},"vehicle_type_id":"4","last_reported":1690315620,"current_range_meters":6400,"station_id":"ce4bh012rcd13ifvqcv0","pricing_plan_id":"free"},{"bike_id":"74a863dc-d580-46df-b47c-6331c657d01b","system_id":"levelo_inurba_marseille","lat":43.29529,"lon":5.385581,"is_reserved":false,"is_disabled":false,"rental_uris":{"android":"levelo://app?vid=74a863dc-d580-46df-b47c-6331c657d01b","ios":"levelo://app?vid=74a863dc-d580-46df-b47c-6331c657d01b"},"vehicle_type_id":"4","last_reported":1690315620,"current_range_meters":29600,"station_id":"ce4bgih2rcd13ifvqba0","pricing_plan_id":"free"},{"bike_id":"455199be-6c3d-4a9f-bd9d-75c78867a544","system_id":"levelo_inurba_marseille","lat":43.29529,"lon":5.385581,"is_reserved":false,"is_disabled":false,"rental_uris":{"android":"levelo://app?vid=455199be-6c3d-4a9f-bd9d-75c78867a544","ios":"levelo://app?vid=455199be-6c3d-4a9f-bd9d-75c78867a544"},"vehicle_type_id":"4","last_reported":1690315620,"current_range_meters":8400,"station_id":"ce4bgih2rcd13ifvqba0","pricing_plan_id":"free"},{"bike_id":"a0af0cc1-cdb1-4843-bad4-acf35d9e38ea","system_id":"levelo_inurba_marseille","lat":43.29529,"lon":5.385581,"is_reserved":false,"is_disabled":false,"rental_uris":{"android":"levelo://app?vid=a0af0cc1-cdb1-4843-bad4-acf35d9e38ea","ios":"levelo://app?vid=a0af0cc1-cdb1-4843-bad4-acf35d9e38ea"},"vehicle_type_id":"4","last_reported":1690315620,"current_range_meters":11200,"station_id":"ce4bgih2rcd13ifvqba0","pricing_plan_id":"free"},{"bike_id":"21259d08-f5e0-4f16-9f6e-55c51cae14a6","system_id":"levelo_inurba_marseille","lat":43.290779,"lon":5.371482,"is_reserved":false,"is_disabled":false,"rental_uris":{"android":"levelo://app?vid=21259d08-f5e0-4f16-9f6e-55c51cae14a6","ios":"levelo://app?vid=21259d08-f5e0-4f16-9f6e-55c51cae14a6"},"vehicle_type_id":"4","last_reported":1690315620,"current_range_meters":9200,"station_id":"ce4bh5p2rcd13ifvqe4g","pricing_plan_id":"free"},{"bike_id":"d24a4677-cbb7-4aba-9563-8102bbc052d8","system_id":"levelo_inurba_marseille","lat":43.290617,"lon":5.371635,"is_reserved":false,"is_disabled":false,"rental_uris":{"android":"levelo://app?vid=d24a4677-cbb7-4aba-9563-8102bbc052d8","ios":"levelo://app?vid=d24a4677-cbb7-4aba-9563-8102bbc052d8"},"vehicle_type_id":"4","last_reported":1690315620,"current_range_meters":29600,"station_id":"","pricing_plan_id":"free"},{"bike_id":"b72df813-c7d6-4110-affc-0ff7721e8a8a","system_id":"levelo_inurba_marseille","lat":43.30207,"lon":5.39463,"is_reserved":false,"is_disabled":false,"rental_uris":{"android":"levelo://app?vid=b72df813-c7d6-4110-affc-0ff7721e8a8a","ios":"levelo://app?vid=b72df813-c7d6-4110-affc-0ff7721e8a8a"},"vehicle_type_id":"4","last_reported":1690315620,"current_range_meters":19600,"station_id":"ce4bh0p2rcd13ifvqd70","pricing_plan_id":"free"},{"bike_id":"39606fa1-a175-426c-b10f-16cd5f3091c6","system_id":"levelo_inurba_marseille","lat":43.302008,"lon":5.394694,"is_reserved":false,"is_disabled":false,"rental_uris":{"android":"levelo://app?vid=39606fa1-a175-426c-b10f-16cd5f3091c6","ios":"levelo://app?vid=39606fa1-a175-426c-b10f-16cd5f3091c6"},"vehicle_type_id":"4","last_reported":1690315620,"current_range_meters":21200,"station_id":"ce4bh0p2rcd13ifvqd70","pricing_plan_id":"free"},{"bike_id":"50f7c9fe-a19f-4244-8dbf-e4ce73e5f728","system_id":"levelo_inurba_marseille","lat":43.294153,"lon":5.386305,"is_reserved":false,"is_disabled":false,"rental_uris":{"android":"levelo://app?vid=50f7c9fe-a19f-4244-8dbf-e4ce73e5f728","ios":"levelo://app?vid=50f7c9fe-a19f-4244-8dbf-e4ce73e5f728"},"vehicle_type_id":"4","last_reported":1690315620,"current_range_meters":6000,"station_id":"ce4bh2h2rcd13ifvqdh0","pricing_plan_id":"free"},{"bike_id":"13132224-d0ae-4524-be8d-dd64ceef57cd","system_id":"levelo_inurba_marseille","lat":43.294153,"lon":5.386305,"is_reserved":false,"is_disabled":false,"rental_uris":{"android":"levelo://app?vid=13132224-d0ae-4524-be8d-dd64ceef57cd","ios":"levelo://app?vid=13132224-d0ae-4524-be8d-dd64ceef57cd"},"vehicle_type_id":"4","last_reported":1690315620,"current_range_meters":16000,"station_id":"ce4bh2h2rcd13ifvqdh0","pricing_plan_id":"free"},{"bike_id":"07e69af6-e66a-491d-93b2-043f91de8188","system_id":"levelo_inurba_marseille","lat":43.290327,"lon":5.375711,"is_reserved":false,"is_disabled":false,"rental_uris":{"android":"levelo://app?vid=07e69af6-e66a-491d-93b2-043f91de8188","ios":"levelo://app?vid=07e69af6-e66a-491d-93b2-043f91de8188"},"vehicle_type_id":"4","last_reported":1690315620,"current_range_meters":5200,"station_id":"ce4bh692rcd13ifvqe90","pricing_plan_id":"free"},{"bike_id":"592d6d2d-a145-4e07-8d6e-d07c1c9dba85","system_id":"levelo_inurba_marseille","lat":43.29272,"lon":5.38427,"is_reserved":false,"is_disabled":false,"rental_uris":{"android":"levelo://app?vid=592d6d2d-a145-4e07-8d6e-d07c1c9dba85","ios":"levelo://app?vid=592d6d2d-a145-4e07-8d6e-d07c1c9dba85"},"vehicle_type_id":"4","last_reported":1690315620,"current_range_meters":7600,"station_id":"ce4bh692rcd13ifvqea0","pricing_plan_id":"free"},{"bike_id":"98dc00fd-9d25-42ce-bd83-345953d263c4","system_id":"levelo_inurba_marseille","lat":43.292703,"lon":5.384342,"is_reserved":false,"is_disabled":false,"rental_uris":{"android":"levelo://app?vid=98dc00fd-9d25-42ce-bd83-345953d263c4","ios":"levelo://app?vid=98dc00fd-9d25-42ce-bd83-345953d263c4"},"vehicle_type_id":"4","last_reported":1690315620,"current_range_meters":26800,"station_id":"ce4bh692rcd13ifvqea0","pricing_plan_id":"free"},{"bike_id":"3f8f7c86-ebbe-4cf3-8501-8ac21722a33a","system_id":"levelo_inurba_marseille","lat":43.29265,"lon":5.3844,"is_reserved":false,"is_disabled":false,"rental_uris":{"android":"levelo://app?vid=3f8f7c86-ebbe-4cf3-8501-8ac21722a33a","ios":"levelo://app?vid=3f8f7c86-ebbe-4cf3-8501-8ac21722a33a"},"vehicle_type_id":"4","last_reported":1690315620,"current_range_meters":0,"station_id":"ce4bh692rcd13ifvqea0","pricing_plan_id":"free"},{"bike_id":"9b8c46f0-80cd-4b63-b18c-cb8d98ff7e4a","system_id":"levelo_inurba_marseille","lat":43.292642,"lon":5.384254,"is_reserved":false,"is_disabled":false,"rental_uris":{"android":"levelo://app?vid=9b8c46f0-80cd-4b63-b18c-cb8d98ff7e4a","ios":"levelo://app?vid=9b8c46f0-80cd-4b63-b18c-cb8d98ff7e4a"},"vehicle_type_id":"4","last_reported":1690315620,"current_range_meters":6800,"station_id":"ce4bh692rcd13ifvqea0","pricing_plan_id":"free"},{"bike_id":"0d94d076-ffab-4079-ba9a-682efa185014","system_id":"levelo_inurba_marseille","lat":43.292642,"lon":5.384254,"is_reserved":false,"is_disabled":false,"rental_uris":{"android":"levelo://app?vid=0d94d076-ffab-4079-ba9a-682efa185014","ios":"levelo://app?vid=0d94d076-ffab-4079-ba9a-682efa185014"},"vehicle_type_id":"4","last_reported":1690315620,"current_range_meters":3200,"station_id":"ce4bh692rcd13ifvqea0","pricing_plan_id":"free"},{"bike_id":"3b4f623d-500c-416b-9b24-a19ccfebdc50","system_id":"levelo_inurba_marseille","lat":43.29266,"lon":5.38446,"is_reserved":false,"is_disabled":false,"rental_uris":{"android":"levelo://app?vid=3b4f623d-500c-416b-9b24-a19ccfebdc50","ios":"levelo://app?vid=3b4f623d-500c-416b-9b24-a19ccfebdc50"},"vehicle_type_id":"4","last_reported":1690315620,"current_range_meters":7200,"station_id":"ce4bh692rcd13ifvqea0","pricing_plan_id":"free"},{"bike_id":"76dac345-5e0a-427f-a66b-bc98fa56fc1f","system_id":"levelo_inurba_marseille","lat":43.29263,"lon":5.38441,"is_reserved":false,"is_disabled":false,"rental_uris":{"android":"levelo://app?vid=76dac345-5e0a-427f-a66b-bc98fa56fc1f","ios":"levelo://app?vid=76dac345-5e0a-427f-a66b-bc98fa56fc1f"},"vehicle_type_id":"4","last_reported":1690315620,"current_range_meters":9200,"station_id":"ce4bh692rcd13ifvqea0","pricing_plan_id":"free"},{"bike_id":"5eff257b-5527-4e57-bfe5-52d305614945","system_id":"levelo_inurba_marseille","lat":43.29264,"lon":5.38445,"is_reserved":false,"is_disabled":false,"rental_uris":{"android":"levelo://app?vid=5eff257b-5527-4e57-bfe5-52d305614945","ios":"levelo://app?vid=5eff257b-5527-4e57-bfe5-52d305614945"},"vehicle_type_id":"4","last_reported":1690315620,"current_range_meters":23600,"station_id":"ce4bh692rcd13ifvqea0","pricing_plan_id":"free"},{"bike_id":"0ac1ac6e-1f51-4ca7-afae-14ffaf5e94e1","system_id":"levelo_inurba_marseille","lat":43.304296,"lon":5.397513,"is_reserved":false,"is_disabled":false,"rental_uris":{"android":"levelo://app?vid=0ac1ac6e-1f51-4ca7-afae-14ffaf5e94e1","ios":"levelo://app?vid=0ac1ac6e-1f51-4ca7-afae-14ffaf5e94e1"},"vehicle_type_id":"4","last_reported":1690315620,"current_range_meters":23600,"station_id":"ce4bh092rcd13ifvqd20","pricing_plan_id":"free"},{"bike_id":"e01c2995-b843-4429-bae2-c9d0f3af56a8","system_id":"levelo_inurba_marseille","lat":43.29259,"lon":5.38438,"is_reserved":false,"is_disabled":false,"rental_uris":{"android":"levelo://app?vid=e01c2995-b843-4429-bae2-c9d0f3af56a8","ios":"levelo://app?vid=e01c2995-b843-4429-bae2-c9d0f3af56a8"},"vehicle_type_id":"4","last_reported":1690315620,"current_range_meters":23200,"station_id":"ce4bh692rcd13ifvqea0","pricing_plan_id":"free"},{"bike_id":"cf0abdad-fbc7-47d1-86e7-ad700aff2171","system_id":"levelo_inurba_marseille","lat":43.292642,"lon":5.384254,"is_reserved":false,"is_disabled":false,"rental_uris":{"android":"levelo://app?vid=cf0abdad-fbc7-47d1-86e7-ad700aff2171","ios":"levelo://app?vid=cf0abdad-fbc7-47d1-86e7-ad700aff2171"},"vehicle_type_id":"4","last_reported":1690315620,"current_range_meters":0,"station_id":"ce4bh692rcd13ifvqea0","pricing_plan_id":"free"},{"bike_id":"87589821-7154-4309-bdbe-052a0dd71dfc","system_id":"levelo_inurba_marseille","lat":43.29259,"lon":5.38442,"is_reserved":false,"is_disabled":false,"rental_uris":{"android":"levelo://app?vid=87589821-7154-4309-bdbe-052a0dd71dfc","ios":"levelo://app?vid=87589821-7154-4309-bdbe-052a0dd71dfc"},"vehicle_type_id":"4","last_reported":1690315620,"current_range_meters":0,"station_id":"ce4bh692rcd13ifvqea0","pricing_plan_id":"free"},{"bike_id":"814db409-f995-44a6-ae4e-9d4d9189a21b","system_id":"levelo_inurba_marseille","lat":43.292642,"lon":5.384254,"is_reserved":false,"is_disabled":false,"rental_uris":{"android":"levelo://app?vid=814db409-f995-44a6-ae4e-9d4d9189a21b","ios":"levelo://app?vid=814db409-f995-44a6-ae4e-9d4d9189a21b"},"vehicle_type_id":"4","last_reported":1690315620,"current_range_meters":3200,"station_id":"ce4bh692rcd13ifvqea0","pricing_plan_id":"free"},{"bike_id":"8fdf7c56-0a0a-48f3-8c5d-53434843cd34","system_id":"levelo_inurba_marseille","lat":43.33041,"lon":5.38916,"is_reserved":false,"is_disabled":false,"rental_uris":{"android":"levelo://app?vid=8fdf7c56-0a0a-48f3-8c5d-53434843cd34","ios":"levelo://app?vid=8fdf7c56-0a0a-48f3-8c5d-53434843cd34"},"vehicle_type_id":"4","last_reported":1690315620,"current_range_meters":24000,"station_id":"ce4bhr92rcd13ifvqhrg","pricing_plan_id":"free"},{"bike_id":"4246a506-28cb-43ef-811c-16d8bd754c74","system_id":"levelo_inurba_marseille","lat":43.33041,"lon":5.38916,"is_reserved":false,"is_disabled":false,"rental_uris":{"android":"levelo://app?vid=4246a506-28cb-43ef-811c-16d8bd754c74","ios":"levelo://app?vid=4246a506-28cb-43ef-811c-16d8bd754c74"},"vehicle_type_id":"4","last_reported":1690315620,"current_range_meters":28400,"station_id":"ce4bhr92rcd13ifvqhrg","pricing_plan_id":"free"},{"bike_id":"2b614b85-75a6-46d1-8fb2-f8b4324cdce9","system_id":"levelo_inurba_marseille","lat":43.33042,"lon":5.38917,"is_reserved":false,"is_disabled":false,"rental_uris":{"android":"levelo://app?vid=2b614b85-75a6-46d1-8fb2-f8b4324cdce9","ios":"levelo://app?vid=2b614b85-75a6-46d1-8fb2-f8b4324cdce9"},"vehicle_type_id":"4","last_reported":1690315620,"current_range_meters":23200,"station_id":"ce4bhr92rcd13ifvqhrg","pricing_plan_id":"free"},{"bike_id":"06780769-6c49-42ba-9882-693b562c3a7c","system_id":"levelo_inurba_marseille","lat":43.33042,"lon":5.38918,"is_reserved":false,"is_disabled":false,"rental_uris":{"android":"levelo://app?vid=06780769-6c49-42ba-9882-693b562c3a7c","ios":"levelo://app?vid=06780769-6c49-42ba-9882-693b562c3a7c"},"vehicle_type_id":"4","last_reported":1690315620,"current_range_meters":19200,"station_id":"ce4bhr92rcd13ifvqhrg","pricing_plan_id":"free"},{"bike_id":"c84b9e86-8eb8-4586-872d-068f338ff6d3","system_id":"levelo_inurba_marseille","lat":43.290104,"lon":5.356111,"is_reserved":false,"is_disabled":false,"rental_uris":{"android":"levelo://app?vid=c84b9e86-8eb8-4586-872d-068f338ff6d3","ios":"levelo://app?vid=c84b9e86-8eb8-4586-872d-068f338ff6d3"},"vehicle_type_id":"4","last_reported":1690315620,"current_range_meters":31200,"station_id":"ce4bhb92rcd13ifvqen0","pricing_plan_id":"free"},{"bike_id":"e0e41acf-4489-42f8-b133-7935c80c0842","system_id":"levelo_inurba_marseille","lat":43.33045,"lon":5.38917,"is_reserved":false,"is_disabled":false,"rental_uris":{"android":"levelo://app?vid=e0e41acf-4489-42f8-b133-7935c80c0842","ios":"levelo://app?vid=e0e41acf-4489-42f8-b133-7935c80c0842"},"vehicle_type_id":"4","last_reported":1690315620,"current_range_meters":12400,"station_id":"ce4bhr92rcd13ifvqhrg","pricing_plan_id":"free"},{"bike_id":"1e5adbc3-f47c-43a1-9cd1-6383bb43f658","system_id":"levelo_inurba_marseille","lat":43.290104,"lon":5.356111,"is_reserved":false,"is_disabled":false,"rental_uris":{"android":"levelo://app?vid=1e5adbc3-f47c-43a1-9cd1-6383bb43f658","ios":"levelo://app?vid=1e5adbc3-f47c-43a1-9cd1-6383bb43f658"},"vehicle_type_id":"4","last_reported":1690315620,"current_range_meters":31200,"station_id":"ce4bhb92rcd13ifvqen0","pricing_plan_id":"free"},{"bike_id":"ec30bcae-cfec-41b6-ab13-0e4e75db6c4b","system_id":"levelo_inurba_marseille","lat":43.290028,"lon":5.35619,"is_reserved":false,"is_disabled":false,"rental_uris":{"android":"levelo://app?vid=ec30bcae-cfec-41b6-ab13-0e4e75db6c4b","ios":"levelo://app?vid=ec30bcae-cfec-41b6-ab13-0e4e75db6c4b"},"vehicle_type_id":"4","last_reported":1690315620,"current_range_meters":2400,"station_id":"ce4bhb92rcd13ifvqen0","pricing_plan_id":"free"},{"bike_id":"e0e1bd3d-1f22-4eb3-a0af-5765a58a32a0","system_id":"levelo_inurba_marseille","lat":43.290025,"lon":5.356161,"is_reserved":false,"is_disabled":false,"rental_uris":{"android":"levelo://app?vid=e0e1bd3d-1f22-4eb3-a0af-5765a58a32a0","ios":"levelo://app?vid=e0e1bd3d-1f22-4eb3-a0af-5765a58a32a0"},"vehicle_type_id":"4","last_reported":1690315620,"current_range_meters":30800,"station_id":"","pricing_plan_id":"free"},{"bike_id":"6388f2dd-6185-4d82-97d0-7625d71e1f5b","system_id":"levelo_inurba_marseille","lat":43.290103,"lon":5.356114,"is_reserved":false,"is_disabled":false,"rental_uris":{"android":"levelo://app?vid=6388f2dd-6185-4d82-97d0-7625d71e1f5b","ios":"levelo://app?vid=6388f2dd-6185-4d82-97d0-7625d71e1f5b"},"vehicle_type_id":"4","last_reported":1690315620,"current_range_meters":1600,"station_id":"ce4bhb92rcd13ifvqen0","pricing_plan_id":"free"},{"bike_id":"1d1a7a3a-ea5c-4518-b805-50c821e9cbfd","system_id":"levelo_inurba_marseille","lat":43.290995,"lon":5.381361,"is_reserved":false,"is_disabled":false,"rental_uris":{"android":"levelo://app?vid=1d1a7a3a-ea5c-4518-b805-50c821e9cbfd","ios":"levelo://app?vid=1d1a7a3a-ea5c-4518-b805-50c821e9cbfd"},"vehicle_type_id":"4","last_reported":1690315620,"current_range_meters":12800,"station_id":"ce4bh512rcd13ifvqe2g","pricing_plan_id":"free"},{"bike_id":"d07a4e72-1c99-44df-a188-a3c9409f5c81","system_id":"levelo_inurba_marseille","lat":43.29097,"lon":5.38137,"is_reserved":false,"is_disabled":false,"rental_uris":{"android":"levelo://app?vid=d07a4e72-1c99-44df-a188-a3c9409f5c81","ios":"levelo://app?vid=d07a4e72-1c99-44df-a188-a3c9409f5c81"},"vehicle_type_id":"4","last_reported":1690315620,"current_range_meters":0,"station_id":"ce4bh512rcd13ifvqe2g","pricing_plan_id":"free"},{"bike_id":"fdc109e5-34fa-4f92-9ef2-0d503e5709c1","system_id":"levelo_inurba_marseille","lat":43.29779,"lon":5.39321,"is_reserved":false,"is_disabled":false,"rental_uris":{"android":"levelo://app?vid=fdc109e5-34fa-4f92-9ef2-0d503e5709c1","ios":"levelo://app?vid=fdc109e5-34fa-4f92-9ef2-0d503e5709c1"},"vehicle_type_id":"4","last_reported":1690315620,"current_range_meters":29200,"station_id":"chh1huq6cuj3fo74tm60","pricing_plan_id":"free"},{"bike_id":"d2c8c1b1-d30c-44b2-94b6-86289f04f3a7","system_id":"levelo_inurba_marseille","lat":43.2979,"lon":5.39335,"is_reserved":false,"is_disabled":false,"rental_uris":{"android":"levelo://app?vid=d2c8c1b1-d30c-44b2-94b6-86289f04f3a7","ios":"levelo://app?vid=d2c8c1b1-d30c-44b2-94b6-86289f04f3a7"},"vehicle_type_id":"4","last_reported":1690315620,"current_range_meters":3600,"station_id":"chh1huq6cuj3fo74tm60","pricing_plan_id":"free"},{"bike_id":"d7c88d71-c509-4dcd-85c0-5351aa5a822b","system_id":"levelo_inurba_marseille","lat":43.29792,"lon":5.39339,"is_reserved":false,"is_disabled":false,"rental_uris":{"android":"levelo://app?vid=d7c88d71-c509-4dcd-85c0-5351aa5a822b","ios":"levelo://app?vid=d7c88d71-c509-4dcd-85c0-5351aa5a822b"},"vehicle_type_id":"4","last_reported":1690315620,"current_range_meters":0,"station_id":"chh1huq6cuj3fo74tm60","pricing_plan_id":"free"},{"bike_id":"bb380bb9-b0d8-4e28-adcc-c5857ca50209","system_id":"levelo_inurba_marseille","lat":43.297815,"lon":5.393548,"is_reserved":false,"is_disabled":false,"rental_uris":{"android":"levelo://app?vid=bb380bb9-b0d8-4e28-adcc-c5857ca50209","ios":"levelo://app?vid=bb380bb9-b0d8-4e28-adcc-c5857ca50209"},"vehicle_type_id":"4","last_reported":1690315620,"current_range_meters":26400,"station_id":"chh1huq6cuj3fo74tm60","pricing_plan_id":"free"},{"bike_id":"9e31fac1-3453-475b-914a-f3b34b1382d6","system_id":"levelo_inurba_marseille","lat":43.297815,"lon":5.393548,"is_reserved":false,"is_disabled":false,"rental_uris":{"android":"levelo://app?vid=9e31fac1-3453-475b-914a-f3b34b1382d6","ios":"levelo://app?vid=9e31fac1-3453-475b-914a-f3b34b1382d6"},"vehicle_type_id":"4","last_reported":1690315620,"current_range_meters":21600,"station_id":"chh1huq6cuj3fo74tm60","pricing_plan_id":"free"},{"bike_id":"b8d184d4-2bc5-4001-bf71-740c8107c0f8","system_id":"levelo_inurba_marseille","lat":43.295169,"lon":5.390426,"is_reserved":false,"is_disabled":false,"rental_uris":{"android":"levelo://app?vid=b8d184d4-2bc5-4001-bf71-740c8107c0f8","ios":"levelo://app?vid=b8d184d4-2bc5-4001-bf71-740c8107c0f8"},"vehicle_type_id":"4","last_reported":1690315620,"current_range_meters":14800,"station_id":"ce4bh3p2rcd13ifvqdp0","pricing_plan_id":"free"},{"bike_id":"e4bb7ca1-e25d-4278-8062-624aad874a33","system_id":"levelo_inurba_marseille","lat":43.30295,"lon":5.39778,"is_reserved":false,"is_disabled":false,"rental_uris":{"android":"levelo://app?vid=e4bb7ca1-e25d-4278-8062-624aad874a33","ios":"levelo://app?vid=e4bb7ca1-e25d-4278-8062-624aad874a33"},"vehicle_type_id":"4","last_reported":1690315620,"current_range_meters":30400,"station_id":"","pricing_plan_id":"free"},{"bike_id":"c367b3ec-658e-4116-84ff-447db4680ff4","system_id":"levelo_inurba_marseille","lat":43.2901,"lon":5.381269,"is_reserved":false,"is_disabled":false,"rental_uris":{"android":"levelo://app?vid=c367b3ec-658e-4116-84ff-447db4680ff4","ios":"levelo://app?vid=c367b3ec-658e-4116-84ff-447db4680ff4"},"vehicle_type_id":"4","last_reported":1690315620,"current_range_meters":25200,"station_id":"ce4bh4p2rcd13ifvqe1g","pricing_plan_id":"free"},{"bike_id":"e0850f06-2268-4fa4-b9db-b6679ee43e0e","system_id":"levelo_inurba_marseille","lat":43.2901,"lon":5.381269,"is_reserved":false,"is_disabled":false,"rental_uris":{"android":"levelo://app?vid=e0850f06-2268-4fa4-b9db-b6679ee43e0e","ios":"levelo://app?vid=e0850f06-2268-4fa4-b9db-b6679ee43e0e"},"vehicle_type_id":"4","last_reported":1690315620,"current_range_meters":18800,"station_id":"ce4bh4p2rcd13ifvqe1g","pricing_plan_id":"free"},{"bike_id":"ca9d201a-71a1-475c-8693-9ecfe47864ad","system_id":"levelo_inurba_marseille","lat":43.31276,"lon":5.4016,"is_reserved":false,"is_disabled":false,"rental_uris":{"android":"levelo://app?vid=ca9d201a-71a1-475c-8693-9ecfe47864ad","ios":"levelo://app?vid=ca9d201a-71a1-475c-8693-9ecfe47864ad"},"vehicle_type_id":"4","last_reported":1690315620,"current_range_meters":19200,"station_id":"ce4bh092rcd13ifvqd30","pricing_plan_id":"free"},{"bike_id":"7fc4b87b-afaa-4c54-a9df-a406fc226eef","system_id":"levelo_inurba_marseille","lat":43.31266,"lon":5.4016,"is_reserved":false,"is_disabled":false,"rental_uris":{"android":"levelo://app?vid=7fc4b87b-afaa-4c54-a9df-a406fc226eef","ios":"levelo://app?vid=7fc4b87b-afaa-4c54-a9df-a406fc226eef"},"vehicle_type_id":"4","last_reported":1690315620,"current_range_meters":2800,"station_id":"ce4bh092rcd13ifvqd30","pricing_plan_id":"free"},{"bike_id":"323f9806-5f79-4c9e-be2e-0635055ea0e8","system_id":"levelo_inurba_marseille","lat":43.30929,"lon":5.40142,"is_reserved":false,"is_disabled":false,"rental_uris":{"android":"levelo://app?vid=323f9806-5f79-4c9e-be2e-0635055ea0e8","ios":"levelo://app?vid=323f9806-5f79-4c9e-be2e-0635055ea0e8"},"vehicle_type_id":"4","last_reported":1690315620,"current_range_meters":400,"station_id":"ce4bgvp2rcd13ifvqct0","pricing_plan_id":"free"},{"bike_id":"093121f9-54cb-40b8-9cb6-e7ea538a6c7f","system_id":"levelo_inurba_marseille","lat":43.30639,"lon":5.40097,"is_reserved":false,"is_disabled":false,"rental_uris":{"android":"levelo://app?vid=093121f9-54cb-40b8-9cb6-e7ea538a6c7f","ios":"levelo://app?vid=093121f9-54cb-40b8-9cb6-e7ea538a6c7f"},"vehicle_type_id":"4","last_reported":1690315620,"current_range_meters":1600,"station_id":"ce4bh112rcd13ifvqda0","pricing_plan_id":"free"},{"bike_id":"dfdbbd83-a88c-48f8-a69c-dc25a45eab84","system_id":"levelo_inurba_marseille","lat":43.3064,"lon":5.40104,"is_reserved":false,"is_disabled":false,"rental_uris":{"android":"levelo://app?vid=dfdbbd83-a88c-48f8-a69c-dc25a45eab84","ios":"levelo://app?vid=dfdbbd83-a88c-48f8-a69c-dc25a45eab84"},"vehicle_type_id":"4","last_reported":1690315620,"current_range_meters":16800,"station_id":"ce4bh112rcd13ifvqda0","pricing_plan_id":"free"},{"bike_id":"cea60b75-8198-42f3-8486-7247f4801594","system_id":"levelo_inurba_marseille","lat":43.301117,"lon":5.398795,"is_reserved":false,"is_disabled":false,"rental_uris":{"android":"levelo://app?vid=cea60b75-8198-42f3-8486-7247f4801594","ios":"levelo://app?vid=cea60b75-8198-42f3-8486-7247f4801594"},"vehicle_type_id":"4","last_reported":1690315620,"current_range_meters":22800,"station_id":"ce4bh0h2rcd13ifvqd40","pricing_plan_id":"free"},{"bike_id":"e230c09f-fd66-4155-879d-f466a073c926","system_id":"levelo_inurba_marseille","lat":43.286961,"lon":5.373785,"is_reserved":false,"is_disabled":false,"rental_uris":{"android":"levelo://app?vid=e230c09f-fd66-4155-879d-f466a073c926","ios":"levelo://app?vid=e230c09f-fd66-4155-879d-f466a073c926"},"vehicle_type_id":"4","last_reported":1690315620,"current_range_meters":13200,"station_id":"ce4bh3p2rcd13ifvqdq0","pricing_plan_id":"free"},{"bike_id":"8b97db89-8dfc-4639-ab9d-13fc58b342a5","system_id":"levelo_inurba_marseille","lat":43.286591,"lon":5.363346,"is_reserved":false,"is_disabled":false,"rental_uris":{"android":"levelo://app?vid=8b97db89-8dfc-4639-ab9d-13fc58b342a5","ios":"levelo://app?vid=8b97db89-8dfc-4639-ab9d-13fc58b342a5"},"vehicle_type_id":"4","last_reported":1690315620,"current_range_meters":31600,"station_id":"ce4bhah2rcd13ifvqej0","pricing_plan_id":"free"},{"bike_id":"57829706-68b3-491d-ab0a-44763117628d","system_id":"levelo_inurba_marseille","lat":43.298681,"lon":5.397225,"is_reserved":false,"is_disabled":false,"rental_uris":{"android":"levelo://app?vid=57829706-68b3-491d-ab0a-44763117628d","ios":"levelo://app?vid=57829706-68b3-491d-ab0a-44763117628d"},"vehicle_type_id":"4","last_reported":1690315620,"current_range_meters":29200,"station_id":"ce4bh0h2rcd13ifvqd50","pricing_plan_id":"free"},{"bike_id":"9f4a30ab-31ba-4170-a7a7-240a63779733","system_id":"levelo_inurba_marseille","lat":43.286961,"lon":5.373785,"is_reserved":false,"is_disabled":false,"rental_uris":{"android":"levelo://app?vid=9f4a30ab-31ba-4170-a7a7-240a63779733","ios":"levelo://app?vid=9f4a30ab-31ba-4170-a7a7-240a63779733"},"vehicle_type_id":"4","last_reported":1690315620,"current_range_meters":2800,"station_id":"ce4bh3p2rcd13ifvqdq0","pricing_plan_id":"free"},{"bike_id":"6272cc87-84e5-4ba3-8cb9-7ba14df91727","system_id":"levelo_inurba_marseille","lat":43.298681,"lon":5.397225,"is_reserved":false,"is_disabled":false,"rental_uris":{"android":"levelo://app?vid=6272cc87-84e5-4ba3-8cb9-7ba14df91727","ios":"levelo://app?vid=6272cc87-84e5-4ba3-8cb9-7ba14df91727"},"vehicle_type_id":"4","last_reported":1690315620,"current_range_meters":19200,"station_id":"ce4bh0h2rcd13ifvqd50","pricing_plan_id":"free"},{"bike_id":"0727f792-6778-43ed-85ee-f6a5977b22a3","system_id":"levelo_inurba_marseille","lat":43.286961,"lon":5.373785,"is_reserved":false,"is_disabled":false,"rental_uris":{"android":"levelo://app?vid=0727f792-6778-43ed-85ee-f6a5977b22a3","ios":"levelo://app?vid=0727f792-6778-43ed-85ee-f6a5977b22a3"},"vehicle_type_id":"4","last_reported":1690315620,"current_range_meters":22400,"station_id":"ce4bh3p2rcd13ifvqdq0","pricing_plan_id":"free"},{"bike_id":"c004df9e-a67f-44f6-a02a-c1398c3f7867","system_id":"levelo_inurba_marseille","lat":43.28661,"lon":5.3635,"is_reserved":false,"is_disabled":false,"rental_uris":{"android":"levelo://app?vid=c004df9e-a67f-44f6-a02a-c1398c3f7867","ios":"levelo://app?vid=c004df9e-a67f-44f6-a02a-c1398c3f7867"},"vehicle_type_id":"4","last_reported":1690315620,"current_range_meters":15200,"station_id":"ce4bhah2rcd13ifvqej0","pricing_plan_id":"free"},{"bike_id":"1564ed1c-6306-420e-a0a4-0cd2b07fe718","system_id":"levelo_inurba_marseille","lat":43.295196,"lon":5.39397,"is_reserved":false,"is_disabled":false,"rental_uris":{"android":"levelo://app?vid=1564ed1c-6306-420e-a0a4-0cd2b07fe718","ios":"levelo://app?vid=1564ed1c-6306-420e-a0a4-0cd2b07fe718"},"vehicle_type_id":"4","last_reported":1690315620,"current_range_meters":13200,"station_id":"ce4bh292rcd13ifvqdf0","pricing_plan_id":"free"},{"bike_id":"70595f65-8676-4f3f-bf13-fec8d4e2898c","system_id":"levelo_inurba_marseille","lat":43.286591,"lon":5.363346,"is_reserved":false,"is_disabled":false,"rental_uris":{"android":"levelo://app?vid=70595f65-8676-4f3f-bf13-fec8d4e2898c","ios":"levelo://app?vid=70595f65-8676-4f3f-bf13-fec8d4e2898c"},"vehicle_type_id":"4","last_reported":1690315620,"current_range_meters":7200,"station_id":"ce4bhah2rcd13ifvqej0","pricing_plan_id":"free"},{"bike_id":"c8177b6e-07d7-43ae-b065-a63b2574e50f","system_id":"levelo_inurba_marseille","lat":43.295196,"lon":5.39397,"is_reserved":false,"is_disabled":false,"rental_uris":{"android":"levelo://app?vid=c8177b6e-07d7-43ae-b065-a63b2574e50f","ios":"levelo://app?vid=c8177b6e-07d7-43ae-b065-a63b2574e50f"},"vehicle_type_id":"4","last_reported":1690315620,"current_range_meters":1600,"station_id":"ce4bh292rcd13ifvqdf0","pricing_plan_id":"free"},{"bike_id":"05ecf6b9-a116-448f-bfc8-c630cfe974cb","system_id":"levelo_inurba_marseille","lat":43.286591,"lon":5.363346,"is_reserved":false,"is_disabled":false,"rental_uris":{"android":"levelo://app?vid=05ecf6b9-a116-448f-bfc8-c630cfe974cb","ios":"levelo://app?vid=05ecf6b9-a116-448f-bfc8-c630cfe974cb"},"vehicle_type_id":"4","last_reported":1690315620,"current_range_meters":13600,"station_id":"ce4bhah2rcd13ifvqej0","pricing_plan_id":"free"},{"bike_id":"071c11e5-f3df-481a-a6e3-7dfe60a655df","system_id":"levelo_inurba_marseille","lat":43.286961,"lon":5.373785,"is_reserved":false,"is_disabled":false,"rental_uris":{"android":"levelo://app?vid=071c11e5-f3df-481a-a6e3-7dfe60a655df","ios":"levelo://app?vid=071c11e5-f3df-481a-a6e3-7dfe60a655df"},"vehicle_type_id":"4","last_reported":1690315620,"current_range_meters":17200,"station_id":"ce4bh3p2rcd13ifvqdq0","pricing_plan_id":"free"},{"bike_id":"e31ca551-4d64-46be-93c6-51a8465742d1","system_id":"levelo_inurba_marseille","lat":43.286593,"lon":5.363346,"is_reserved":false,"is_disabled":false,"rental_uris":{"android":"levelo://app?vid=e31ca551-4d64-46be-93c6-51a8465742d1","ios":"levelo://app?vid=e31ca551-4d64-46be-93c6-51a8465742d1"},"vehicle_type_id":"4","last_reported":1690315620,"current_range_meters":19200,"station_id":"ce4bhah2rcd13ifvqej0","pricing_plan_id":"free"},{"bike_id":"23eca4e3-72c1-4bc2-a372-b4d410c44335","system_id":"levelo_inurba_marseille","lat":43.29526,"lon":5.39399,"is_reserved":false,"is_disabled":false,"rental_uris":{"android":"levelo://app?vid=23eca4e3-72c1-4bc2-a372-b4d410c44335","ios":"levelo://app?vid=23eca4e3-72c1-4bc2-a372-b4d410c44335"},"vehicle_type_id":"4","last_reported":1690315620,"current_range_meters":31200,"station_id":"ce4bh292rcd13ifvqdf0","pricing_plan_id":"free"},{"bike_id":"84a7f5f0-7fdc-4efa-83aa-a77b8019b723","system_id":"levelo_inurba_marseille","lat":43.295194,"lon":5.39397,"is_reserved":false,"is_disabled":false,"rental_uris":{"android":"levelo://app?vid=84a7f5f0-7fdc-4efa-83aa-a77b8019b723","ios":"levelo://app?vid=84a7f5f0-7fdc-4efa-83aa-a77b8019b723"},"vehicle_type_id":"4","last_reported":1690315620,"current_range_meters":0,"station_id":"ce4bh292rcd13ifvqdf0","pricing_plan_id":"free"},{"bike_id":"aadc001d-b752-42eb-8f15-4a0ca36fac4c","system_id":"levelo_inurba_marseille","lat":43.29522,"lon":5.394,"is_reserved":false,"is_disabled":false,"rental_uris":{"android":"levelo://app?vid=aadc001d-b752-42eb-8f15-4a0ca36fac4c","ios":"levelo://app?vid=aadc001d-b752-42eb-8f15-4a0ca36fac4c"},"vehicle_type_id":"4","last_reported":1690315620,"current_range_meters":6000,"station_id":"ce4bh292rcd13ifvqdf0","pricing_plan_id":"free"},{"bike_id":"1231bdc1-0b3e-42fc-92d2-6e675ed929e8","system_id":"levelo_inurba_marseille","lat":43.29515,"lon":5.39409,"is_reserved":false,"is_disabled":false,"rental_uris":{"android":"levelo://app?vid=1231bdc1-0b3e-42fc-92d2-6e675ed929e8","ios":"levelo://app?vid=1231bdc1-0b3e-42fc-92d2-6e675ed929e8"},"vehicle_type_id":"4","last_reported":1690315620,"current_range_meters":19200,"station_id":"ce4bh292rcd13ifvqdf0","pricing_plan_id":"free"},{"bike_id":"66c38fc4-8165-4629-baf0-d037c5a106c1","system_id":"levelo_inurba_marseille","lat":43.290345,"lon":5.38646,"is_reserved":false,"is_disabled":false,"rental_uris":{"android":"levelo://app?vid=66c38fc4-8165-4629-baf0-d037c5a106c1","ios":"levelo://app?vid=66c38fc4-8165-4629-baf0-d037c5a106c1"},"vehicle_type_id":"4","last_reported":1690315620,"current_range_meters":4800,"station_id":"ce4bh4p2rcd13ifvqe0g","pricing_plan_id":"free"},{"bike_id":"964adf6e-9758-4604-92b5-9bce9233f398","system_id":"levelo_inurba_marseille","lat":43.290345,"lon":5.38646,"is_reserved":false,"is_disabled":false,"rental_uris":{"android":"levelo://app?vid=964adf6e-9758-4604-92b5-9bce9233f398","ios":"levelo://app?vid=964adf6e-9758-4604-92b5-9bce9233f398"},"vehicle_type_id":"4","last_reported":1690315620,"current_range_meters":6400,"station_id":"ce4bh4p2rcd13ifvqe0g","pricing_plan_id":"free"},{"bike_id":"ea6b6290-6559-4f78-b3c4-179c2f778837","system_id":"levelo_inurba_marseille","lat":43.290345,"lon":5.38646,"is_reserved":false,"is_disabled":false,"rental_uris":{"android":"levelo://app?vid=ea6b6290-6559-4f78-b3c4-179c2f778837","ios":"levelo://app?vid=ea6b6290-6559-4f78-b3c4-179c2f778837"},"vehicle_type_id":"4","last_reported":1690315620,"current_range_meters":12000,"station_id":"ce4bh4p2rcd13ifvqe0g","pricing_plan_id":"free"},{"bike_id":"3078e5d2-1b80-45bc-97b8-3cecbfbdc857","system_id":"levelo_inurba_marseille","lat":43.29024,"lon":5.38644,"is_reserved":false,"is_disabled":false,"rental_uris":{"android":"levelo://app?vid=3078e5d2-1b80-45bc-97b8-3cecbfbdc857","ios":"levelo://app?vid=3078e5d2-1b80-45bc-97b8-3cecbfbdc857"},"vehicle_type_id":"4","last_reported":1690315620,"current_range_meters":10400,"station_id":"ce4bh4p2rcd13ifvqe0g","pricing_plan_id":"free"},{"bike_id":"b54472a5-b325-4129-9356-e34bf50bd52c","system_id":"levelo_inurba_marseille","lat":43.290345,"lon":5.38646,"is_reserved":false,"is_disabled":false,"rental_uris":{"android":"levelo://app?vid=b54472a5-b325-4129-9356-e34bf50bd52c","ios":"levelo://app?vid=b54472a5-b325-4129-9356-e34bf50bd52c"},"vehicle_type_id":"4","last_reported":1690315620,"current_range_meters":0,"station_id":"ce4bh4p2rcd13ifvqe0g","pricing_plan_id":"free"},{"bike_id":"d20c883b-a8f4-4ba0-800a-c0cf33e0b3d6","system_id":"levelo_inurba_marseille","lat":43.28614,"lon":5.3706,"is_reserved":false,"is_disabled":false,"rental_uris":{"android":"levelo://app?vid=d20c883b-a8f4-4ba0-800a-c0cf33e0b3d6","ios":"levelo://app?vid=d20c883b-a8f4-4ba0-800a-c0cf33e0b3d6"},"vehicle_type_id":"4","last_reported":1690315620,"current_range_meters":15600,"station_id":"ce4bht12rcd13ifvqi60","pricing_plan_id":"free"},{"bike_id":"e42ab4aa-cfe0-4194-8971-5ca44852632a","system_id":"levelo_inurba_marseille","lat":43.28613,"lon":5.37061,"is_reserved":false,"is_disabled":false,"rental_uris":{"android":"levelo://app?vid=e42ab4aa-cfe0-4194-8971-5ca44852632a","ios":"levelo://app?vid=e42ab4aa-cfe0-4194-8971-5ca44852632a"},"vehicle_type_id":"4","last_reported":1690315620,"current_range_meters":4400,"station_id":"ce4bht12rcd13ifvqi60","pricing_plan_id":"free"},{"bike_id":"77b790d1-74e5-4d04-a939-51842c4384ce","system_id":"levelo_inurba_marseille","lat":43.28611,"lon":5.37063,"is_reserved":false,"is_disabled":false,"rental_uris":{"android":"levelo://app?vid=77b790d1-74e5-4d04-a939-51842c4384ce","ios":"levelo://app?vid=77b790d1-74e5-4d04-a939-51842c4384ce"},"vehicle_type_id":"4","last_reported":1690315620,"current_range_meters":20400,"station_id":"ce4bht12rcd13ifvqi60","pricing_plan_id":"free"},{"bike_id":"4841f573-86f2-448e-871f-67df6c55f437","system_id":"levelo_inurba_marseille","lat":43.286039,"lon":5.370679,"is_reserved":false,"is_disabled":false,"rental_uris":{"android":"levelo://app?vid=4841f573-86f2-448e-871f-67df6c55f437","ios":"levelo://app?vid=4841f573-86f2-448e-871f-67df6c55f437"},"vehicle_type_id":"4","last_reported":1690315620,"current_range_meters":2000,"station_id":"ce4bht12rcd13ifvqi60","pricing_plan_id":"free"},{"bike_id":"c0f9bd25-90b1-42bd-974f-f03a1b68b8b4","system_id":"levelo_inurba_marseille","lat":43.287185,"lon":5.379373,"is_reserved":false,"is_disabled":false,"rental_uris":{"android":"levelo://app?vid=c0f9bd25-90b1-42bd-974f-f03a1b68b8b4","ios":"levelo://app?vid=c0f9bd25-90b1-42bd-974f-f03a1b68b8b4"},"vehicle_type_id":"4","last_reported":1690315620,"current_range_meters":14000,"station_id":"ce4bh9p2rcd13ifvqec0","pricing_plan_id":"free"},{"bike_id":"fc477cb1-791d-4f60-b7e5-56e105a7d16c","system_id":"levelo_inurba_marseille","lat":43.287185,"lon":5.379373,"is_reserved":false,"is_disabled":false,"rental_uris":{"android":"levelo://app?vid=fc477cb1-791d-4f60-b7e5-56e105a7d16c","ios":"levelo://app?vid=fc477cb1-791d-4f60-b7e5-56e105a7d16c"},"vehicle_type_id":"4","last_reported":1690315620,"current_range_meters":17200,"station_id":"ce4bh9p2rcd13ifvqec0","pricing_plan_id":"free"},{"bike_id":"c00ac4aa-a5e5-4663-97b8-1ccbbc271373","system_id":"levelo_inurba_marseille","lat":43.287185,"lon":5.379373,"is_reserved":false,"is_disabled":false,"rental_uris":{"android":"levelo://app?vid=c00ac4aa-a5e5-4663-97b8-1ccbbc271373","ios":"levelo://app?vid=c00ac4aa-a5e5-4663-97b8-1ccbbc271373"},"vehicle_type_id":"4","last_reported":1690315620,"current_range_meters":26800,"station_id":"ce4bh9p2rcd13ifvqec0","pricing_plan_id":"free"},{"bike_id":"865482d6-c704-4974-9725-b77b763b3672","system_id":"levelo_inurba_marseille","lat":43.316398,"lon":5.404375,"is_reserved":false,"is_disabled":false,"rental_uris":{"android":"levelo://app?vid=865482d6-c704-4974-9725-b77b763b3672","ios":"levelo://app?vid=865482d6-c704-4974-9725-b77b763b3672"},"vehicle_type_id":"4","last_reported":1690315620,"current_range_meters":23200,"station_id":"","pricing_plan_id":"free"},{"bike_id":"1fd328de-5266-449a-8935-d11d15e3ec35","system_id":"levelo_inurba_marseille","lat":43.316517,"lon":5.404375,"is_reserved":false,"is_disabled":false,"rental_uris":{"android":"levelo://app?vid=1fd328de-5266-449a-8935-d11d15e3ec35","ios":"levelo://app?vid=1fd328de-5266-449a-8935-d11d15e3ec35"},"vehicle_type_id":"4","last_reported":1690315620,"current_range_meters":12800,"station_id":"ce4bh012rcd13ifvqd00","pricing_plan_id":"free"},{"bike_id":"a078cf67-5d8d-4dc7-b2dc-4d4c1a0e9cdd","system_id":"levelo_inurba_marseille","lat":43.287185,"lon":5.379373,"is_reserved":false,"is_disabled":false,"rental_uris":{"android":"levelo://app?vid=a078cf67-5d8d-4dc7-b2dc-4d4c1a0e9cdd","ios":"levelo://app?vid=a078cf67-5d8d-4dc7-b2dc-4d4c1a0e9cdd"},"vehicle_type_id":"4","last_reported":1690315620,"current_range_meters":25200,"station_id":"ce4bh9p2rcd13ifvqec0","pricing_plan_id":"free"},{"bike_id":"6333ac8f-5267-4011-9505-dca053d177b5","system_id":"levelo_inurba_marseille","lat":43.316517,"lon":5.404375,"is_reserved":false,"is_disabled":false,"rental_uris":{"android":"levelo://app?vid=6333ac8f-5267-4011-9505-dca053d177b5","ios":"levelo://app?vid=6333ac8f-5267-4011-9505-dca053d177b5"},"vehicle_type_id":"4","last_reported":1690315620,"current_range_meters":1200,"station_id":"ce4bh012rcd13ifvqd00","pricing_plan_id":"free"},{"bike_id":"92f5b585-e9ad-45c4-b12e-a152824a348b","system_id":"levelo_inurba_marseille","lat":43.28688,"lon":5.38068,"is_reserved":false,"is_disabled":false,"rental_uris":{"android":"levelo://app?vid=92f5b585-e9ad-45c4-b12e-a152824a348b","ios":"levelo://app?vid=92f5b585-e9ad-45c4-b12e-a152824a348b"},"vehicle_type_id":"4","last_reported":1690315620,"current_range_meters":19600,"station_id":"","pricing_plan_id":"free"},{"bike_id":"5ca5ba11-56cd-4cb7-a40b-8f996570bf77","system_id":"levelo_inurba_marseille","lat":43.284538,"lon":5.358657,"is_reserved":false,"is_disabled":false,"rental_uris":{"android":"levelo://app?vid=5ca5ba11-56cd-4cb7-a40b-8f996570bf77","ios":"levelo://app?vid=5ca5ba11-56cd-4cb7-a40b-8f996570bf77"},"vehicle_type_id":"4","last_reported":1690315620,"current_range_meters":12000,"station_id":"ce4bhah2rcd13ifvqei0","pricing_plan_id":"free"},{"bike_id":"a6220402-81e5-4e96-ae17-c045b68c259e","system_id":"levelo_inurba_marseille","lat":43.291994,"lon":5.392907,"is_reserved":false,"is_disabled":false,"rental_uris":{"android":"levelo://app?vid=a6220402-81e5-4e96-ae17-c045b68c259e","ios":"levelo://app?vid=a6220402-81e5-4e96-ae17-c045b68c259e"},"vehicle_type_id":"4","last_reported":1690315620,"current_range_meters":22000,"station_id":"ce4bh192rcd13ifvqdd0","pricing_plan_id":"free"},{"bike_id":"456613f1-dac8-42fb-87d7-9f8efa3dc266","system_id":"levelo_inurba_marseille","lat":43.291994,"lon":5.392907,"is_reserved":false,"is_disabled":false,"rental_uris":{"android":"levelo://app?vid=456613f1-dac8-42fb-87d7-9f8efa3dc266","ios":"levelo://app?vid=456613f1-dac8-42fb-87d7-9f8efa3dc266"},"vehicle_type_id":"4","last_reported":1690315620,"current_range_meters":27600,"station_id":"ce4bh192rcd13ifvqdd0","pricing_plan_id":"free"},{"bike_id":"f46225b6-6e2f-4250-a6e9-d9e6a1407113","system_id":"levelo_inurba_marseille","lat":43.291994,"lon":5.392907,"is_reserved":false,"is_disabled":false,"rental_uris":{"android":"levelo://app?vid=f46225b6-6e2f-4250-a6e9-d9e6a1407113","ios":"levelo://app?vid=f46225b6-6e2f-4250-a6e9-d9e6a1407113"},"vehicle_type_id":"4","last_reported":1690315620,"current_range_meters":31200,"station_id":"ce4bh192rcd13ifvqdd0","pricing_plan_id":"free"},{"bike_id":"e70fd72f-6a57-45d8-ae38-4a4274a495e5","system_id":"levelo_inurba_marseille","lat":43.284534,"lon":5.358662,"is_reserved":false,"is_disabled":false,"rental_uris":{"android":"levelo://app?vid=e70fd72f-6a57-45d8-ae38-4a4274a495e5","ios":"levelo://app?vid=e70fd72f-6a57-45d8-ae38-4a4274a495e5"},"vehicle_type_id":"4","last_reported":1690315620,"current_range_meters":19200,"station_id":"ce4bhah2rcd13ifvqei0","pricing_plan_id":"free"},{"bike_id":"c24ab4c7-9db8-43af-a698-0bfaf96b6b80","system_id":"levelo_inurba_marseille","lat":43.284538,"lon":5.358657,"is_reserved":false,"is_disabled":false,"rental_uris":{"android":"levelo://app?vid=c24ab4c7-9db8-43af-a698-0bfaf96b6b80","ios":"levelo://app?vid=c24ab4c7-9db8-43af-a698-0bfaf96b6b80"},"vehicle_type_id":"4","last_reported":1690315620,"current_range_meters":28400,"station_id":"ce4bhah2rcd13ifvqei0","pricing_plan_id":"free"},{"bike_id":"540de063-7bde-4654-9e44-3b39c6ce8dec","system_id":"levelo_inurba_marseille","lat":43.294394,"lon":5.397302,"is_reserved":false,"is_disabled":false,"rental_uris":{"android":"levelo://app?vid=540de063-7bde-4654-9e44-3b39c6ce8dec","ios":"levelo://app?vid=540de063-7bde-4654-9e44-3b39c6ce8dec"},"vehicle_type_id":"4","last_reported":1690315620,"current_range_meters":2800,"station_id":"","pricing_plan_id":"free"},{"bike_id":"23f20019-0acc-40f1-bc95-fb41b1fd278a","system_id":"levelo_inurba_marseille","lat":43.284538,"lon":5.358657,"is_reserved":false,"is_disabled":false,"rental_uris":{"android":"levelo://app?vid=23f20019-0acc-40f1-bc95-fb41b1fd278a","ios":"levelo://app?vid=23f20019-0acc-40f1-bc95-fb41b1fd278a"},"vehicle_type_id":"4","last_reported":1690315620,"current_range_meters":800,"station_id":"ce4bhah2rcd13ifvqei0","pricing_plan_id":"free"},{"bike_id":"0aad1b8f-d736-498a-ad9d-cc5aaede964c","system_id":"levelo_inurba_marseille","lat":43.28623,"lon":5.351,"is_reserved":false,"is_disabled":false,"rental_uris":{"android":"levelo://app?vid=0aad1b8f-d736-498a-ad9d-cc5aaede964c","ios":"levelo://app?vid=0aad1b8f-d736-498a-ad9d-cc5aaede964c"},"vehicle_type_id":"4","last_reported":1690315620,"current_range_meters":31200,"station_id":"ce4bhch2rcd13ifvqeug","pricing_plan_id":"free"},{"bike_id":"1f0748a1-9e6a-4120-984f-58485184cd57","system_id":"levelo_inurba_marseille","lat":43.28622,"lon":5.35101,"is_reserved":false,"is_disabled":false,"rental_uris":{"android":"levelo://app?vid=1f0748a1-9e6a-4120-984f-58485184cd57","ios":"levelo://app?vid=1f0748a1-9e6a-4120-984f-58485184cd57"},"vehicle_type_id":"4","last_reported":1690315620,"current_range_meters":31200,"station_id":"ce4bhch2rcd13ifvqeug","pricing_plan_id":"free"},{"bike_id":"560fd91d-390d-4bc2-83d1-c2c734ce3774","system_id":"levelo_inurba_marseille","lat":43.28621,"lon":5.35104,"is_reserved":false,"is_disabled":false,"rental_uris":{"android":"levelo://app?vid=560fd91d-390d-4bc2-83d1-c2c734ce3774","ios":"levelo://app?vid=560fd91d-390d-4bc2-83d1-c2c734ce3774"},"vehicle_type_id":"4","last_reported":1690315620,"current_range_meters":31200,"station_id":"ce4bhch2rcd13ifvqeug","pricing_plan_id":"free"},{"bike_id":"a451d5a0-83b8-4073-8cb7-32098157c069","system_id":"levelo_inurba_marseille","lat":43.285856,"lon":5.350771,"is_reserved":false,"is_disabled":false,"rental_uris":{"android":"levelo://app?vid=a451d5a0-83b8-4073-8cb7-32098157c069","ios":"levelo://app?vid=a451d5a0-83b8-4073-8cb7-32098157c069"},"vehicle_type_id":"4","last_reported":1690315620,"current_range_meters":22400,"station_id":"ce4bhch2rcd13ifvqeug","pricing_plan_id":"free"},{"bike_id":"1f566050-c00d-44cf-bac7-73b51844b0a0","system_id":"levelo_inurba_marseille","lat":43.28618,"lon":5.35111,"is_reserved":false,"is_disabled":false,"rental_uris":{"android":"levelo://app?vid=1f566050-c00d-44cf-bac7-73b51844b0a0","ios":"levelo://app?vid=1f566050-c00d-44cf-bac7-73b51844b0a0"},"vehicle_type_id":"4","last_reported":1690315620,"current_range_meters":16400,"station_id":"ce4bhch2rcd13ifvqeug","pricing_plan_id":"free"},{"bike_id":"4d90b72e-d6b5-4da1-8919-6d166ae252eb","system_id":"levelo_inurba_marseille","lat":43.28619,"lon":5.35105,"is_reserved":false,"is_disabled":false,"rental_uris":{"android":"levelo://app?vid=4d90b72e-d6b5-4da1-8919-6d166ae252eb","ios":"levelo://app?vid=4d90b72e-d6b5-4da1-8919-6d166ae252eb"},"vehicle_type_id":"4","last_reported":1690315620,"current_range_meters":9600,"station_id":"ce4bhch2rcd13ifvqeug","pricing_plan_id":"free"},{"bike_id":"68623df3-be52-4ca0-aa97-96c5d51c042d","system_id":"levelo_inurba_marseille","lat":43.28619,"lon":5.35105,"is_reserved":false,"is_disabled":false,"rental_uris":{"android":"levelo://app?vid=68623df3-be52-4ca0-aa97-96c5d51c042d","ios":"levelo://app?vid=68623df3-be52-4ca0-aa97-96c5d51c042d"},"vehicle_type_id":"4","last_reported":1690315620,"current_range_meters":22000,"station_id":"ce4bhch2rcd13ifvqeug","pricing_plan_id":"free"},{"bike_id":"78d08600-306a-4af8-9053-cf1d27c820c0","system_id":"levelo_inurba_marseille","lat":43.28619,"lon":5.35105,"is_reserved":false,"is_disabled":false,"rental_uris":{"android":"levelo://app?vid=78d08600-306a-4af8-9053-cf1d27c820c0","ios":"levelo://app?vid=78d08600-306a-4af8-9053-cf1d27c820c0"},"vehicle_type_id":"4","last_reported":1690315620,"current_range_meters":23200,"station_id":"ce4bhch2rcd13ifvqeug","pricing_plan_id":"free"},{"bike_id":"2992e0de-1a81-4069-9fb7-a2c290405eb9","system_id":"levelo_inurba_marseille","lat":43.28618,"lon":5.35107,"is_reserved":false,"is_disabled":false,"rental_uris":{"android":"levelo://app?vid=2992e0de-1a81-4069-9fb7-a2c290405eb9","ios":"levelo://app?vid=2992e0de-1a81-4069-9fb7-a2c290405eb9"},"vehicle_type_id":"4","last_reported":1690315620,"current_range_meters":0,"station_id":"ce4bhch2rcd13ifvqeug","pricing_plan_id":"free"},{"bike_id":"8b4f4a9e-ec65-4c46-bd75-d838f12d4e2f","system_id":"levelo_inurba_marseille","lat":43.28619,"lon":5.35103,"is_reserved":false,"is_disabled":false,"rental_uris":{"android":"levelo://app?vid=8b4f4a9e-ec65-4c46-bd75-d838f12d4e2f","ios":"levelo://app?vid=8b4f4a9e-ec65-4c46-bd75-d838f12d4e2f"},"vehicle_type_id":"4","last_reported":1690315620,"current_range_meters":23200,"station_id":"ce4bhch2rcd13ifvqeug","pricing_plan_id":"free"},{"bike_id":"071cd796-bda5-47b8-8552-f463888a6e3c","system_id":"levelo_inurba_marseille","lat":43.28617,"lon":5.35103,"is_reserved":false,"is_disabled":false,"rental_uris":{"android":"levelo://app?vid=071cd796-bda5-47b8-8552-f463888a6e3c","ios":"levelo://app?vid=071cd796-bda5-47b8-8552-f463888a6e3c"},"vehicle_type_id":"4","last_reported":1690315620,"current_range_meters":0,"station_id":"ce4bhch2rcd13ifvqeug","pricing_plan_id":"free"},{"bike_id":"a898d3c9-b861-48be-a36d-aded1079f576","system_id":"levelo_inurba_marseille","lat":43.28618,"lon":5.35099,"is_reserved":false,"is_disabled":false,"rental_uris":{"android":"levelo://app?vid=a898d3c9-b861-48be-a36d-aded1079f576","ios":"levelo://app?vid=a898d3c9-b861-48be-a36d-aded1079f576"},"vehicle_type_id":"4","last_reported":1690315620,"current_range_meters":31200,"station_id":"ce4bhch2rcd13ifvqeug","pricing_plan_id":"free"},{"bike_id":"bb9064bd-5ac1-4719-aaab-35903d85ea9e","system_id":"levelo_inurba_marseille","lat":43.28617,"lon":5.35101,"is_reserved":false,"is_disabled":false,"rental_uris":{"android":"levelo://app?vid=bb9064bd-5ac1-4719-aaab-35903d85ea9e","ios":"levelo://app?vid=bb9064bd-5ac1-4719-aaab-35903d85ea9e"},"vehicle_type_id":"4","last_reported":1690315620,"current_range_meters":23200,"station_id":"ce4bhch2rcd13ifvqeug","pricing_plan_id":"free"},{"bike_id":"a5ebd267-7509-49a1-843d-a3f152d9f4f4","system_id":"levelo_inurba_marseille","lat":43.286115,"lon":5.351178,"is_reserved":false,"is_disabled":false,"rental_uris":{"android":"levelo://app?vid=a5ebd267-7509-49a1-843d-a3f152d9f4f4","ios":"levelo://app?vid=a5ebd267-7509-49a1-843d-a3f152d9f4f4"},"vehicle_type_id":"4","last_reported":1690315620,"current_range_meters":9200,"station_id":"ce4bhch2rcd13ifvqeug","pricing_plan_id":"free"},{"bike_id":"14e39580-c324-4509-b3d4-2bb162c3e817","system_id":"levelo_inurba_marseille","lat":43.285856,"lon":5.350771,"is_reserved":false,"is_disabled":false,"rental_uris":{"android":"levelo://app?vid=14e39580-c324-4509-b3d4-2bb162c3e817","ios":"levelo://app?vid=14e39580-c324-4509-b3d4-2bb162c3e817"},"vehicle_type_id":"4","last_reported":1690315620,"current_range_meters":18400,"station_id":"ce4bhch2rcd13ifvqeug","pricing_plan_id":"free"},{"bike_id":"1160ea46-9602-4411-a8d5-5eeccb8bac97","system_id":"levelo_inurba_marseille","lat":43.28615,"lon":5.35104,"is_reserved":false,"is_disabled":false,"rental_uris":{"android":"levelo://app?vid=1160ea46-9602-4411-a8d5-5eeccb8bac97","ios":"levelo://app?vid=1160ea46-9602-4411-a8d5-5eeccb8bac97"},"vehicle_type_id":"4","last_reported":1690315620,"current_range_meters":18400,"station_id":"ce4bhch2rcd13ifvqeug","pricing_plan_id":"free"},{"bike_id":"a9b6eea2-a159-4df3-b8f0-93081d839718","system_id":"levelo_inurba_marseille","lat":43.28614,"lon":5.35106,"is_reserved":false,"is_disabled":false,"rental_uris":{"android":"levelo://app?vid=a9b6eea2-a159-4df3-b8f0-93081d839718","ios":"levelo://app?vid=a9b6eea2-a159-4df3-b8f0-93081d839718"},"vehicle_type_id":"4","last_reported":1690315620,"current_range_meters":24000,"station_id":"ce4bhch2rcd13ifvqeug","pricing_plan_id":"free"},{"bike_id":"2e68b335-4348-4821-98f1-2a08876ee0e2","system_id":"levelo_inurba_marseille","lat":43.28614,"lon":5.35105,"is_reserved":false,"is_disabled":false,"rental_uris":{"android":"levelo://app?vid=2e68b335-4348-4821-98f1-2a08876ee0e2","ios":"levelo://app?vid=2e68b335-4348-4821-98f1-2a08876ee0e2"},"vehicle_type_id":"4","last_reported":1690315620,"current_range_meters":12000,"station_id":"ce4bhch2rcd13ifvqeug","pricing_plan_id":"free"},{"bike_id":"d7dec92d-de5e-4326-b637-ee89695d21e7","system_id":"levelo_inurba_marseille","lat":43.28616,"lon":5.35097,"is_reserved":false,"is_disabled":false,"rental_uris":{"android":"levelo://app?vid=d7dec92d-de5e-4326-b637-ee89695d21e7","ios":"levelo://app?vid=d7dec92d-de5e-4326-b637-ee89695d21e7"},"vehicle_type_id":"4","last_reported":1690315620,"current_range_meters":29200,"station_id":"ce4bhch2rcd13ifvqeug","pricing_plan_id":"free"},{"bike_id":"048b46e4-0887-4195-b385-5d5041e45a24","system_id":"levelo_inurba_marseille","lat":43.285856,"lon":5.350771,"is_reserved":false,"is_disabled":false,"rental_uris":{"android":"levelo://app?vid=048b46e4-0887-4195-b385-5d5041e45a24","ios":"levelo://app?vid=048b46e4-0887-4195-b385-5d5041e45a24"},"vehicle_type_id":"4","last_reported":1690315620,"current_range_meters":31200,"station_id":"ce4bhch2rcd13ifvqeug","pricing_plan_id":"free"},{"bike_id":"85311821-6433-4f4b-9f7e-26210fb02c39","system_id":"levelo_inurba_marseille","lat":43.28613,"lon":5.35104,"is_reserved":false,"is_disabled":false,"rental_uris":{"android":"levelo://app?vid=85311821-6433-4f4b-9f7e-26210fb02c39","ios":"levelo://app?vid=85311821-6433-4f4b-9f7e-26210fb02c39"},"vehicle_type_id":"4","last_reported":1690315620,"current_range_meters":18800,"station_id":"ce4bhch2rcd13ifvqeug","pricing_plan_id":"free"},{"bike_id":"6423c5f3-88b8-49ed-8c06-fcbbaa87c85a","system_id":"levelo_inurba_marseille","lat":43.28615,"lon":5.35095,"is_reserved":false,"is_disabled":false,"rental_uris":{"android":"levelo://app?vid=6423c5f3-88b8-49ed-8c06-fcbbaa87c85a","ios":"levelo://app?vid=6423c5f3-88b8-49ed-8c06-fcbbaa87c85a"},"vehicle_type_id":"4","last_reported":1690315620,"current_range_meters":31200,"station_id":"ce4bhch2rcd13ifvqeug","pricing_plan_id":"free"},{"bike_id":"3aa7b043-7462-41d7-aada-e58fc2dc6c54","system_id":"levelo_inurba_marseille","lat":43.28614,"lon":5.35098,"is_reserved":false,"is_disabled":false,"rental_uris":{"android":"levelo://app?vid=3aa7b043-7462-41d7-aada-e58fc2dc6c54","ios":"levelo://app?vid=3aa7b043-7462-41d7-aada-e58fc2dc6c54"},