{"last_updated":1778653000,"ttl":60,"version":"2.2","data":{"bikes":[{"bike_id":"7bd499dc-b675-41a9-89e6-a57f0f5b3219","system_id":"levelo_inurba_marseille","lat":43.266751,"lon":5.382623,"is_reserved":false,"is_disabled":false,"rental_uris":{"android":"levelo://app?vid=7bd499dc-b675-41a9-89e6-a57f0f5b3219","ios":"levelo://app?vid=7bd499dc-b675-41a9-89e6-a57f0f5b3219"},"vehicle_type_id":"4","last_reported":1778653001,"current_range_meters":2800,"station_id":"ce4bhg92rcd13ifvqf90","pricing_plan_id":"cebpf4jnsgd1na2vs0mg"},{"bike_id":"a309724a-584e-48ab-bfea-99e1efd0c4b3","system_id":"levelo_inurba_marseille","lat":43.31997,"lon":5.38152,"is_reserved":false,"is_disabled":false,"rental_uris":{"android":"levelo://app?vid=a309724a-584e-48ab-bfea-99e1efd0c4b3","ios":"levelo://app?vid=a309724a-584e-48ab-bfea-99e1efd0c4b3"},"vehicle_type_id":"4","last_reported":1778653001,"current_range_meters":2800,"station_id":"ce4bhr12rcd13ifvqhpg","pricing_plan_id":"cebpf4jnsgd1na2vs0mg"},{"bike_id":"819a3868-e86b-4761-85f7-cd647e1f51b3","system_id":"levelo_inurba_marseille","lat":43.21192,"lon":5.35061,"is_reserved":false,"is_disabled":false,"rental_uris":{"android":"levelo://app?vid=819a3868-e86b-4761-85f7-cd647e1f51b3","ios":"levelo://app?vid=819a3868-e86b-4761-85f7-cd647e1f51b3"},"vehicle_type_id":"4","last_reported":1778653001,"current_range_meters":2800,"station_id":"st_cvj6sg6p6f1abm77japg","pricing_plan_id":"cebpf4jnsgd1na2vs0mg"},{"bike_id":"bbf4fd92-2e47-4d70-99d3-956fda9f6c26","system_id":"levelo_inurba_marseille","lat":43.33534,"lon":5.37495,"is_reserved":false,"is_disabled":false,"rental_uris":{"android":"levelo://app?vid=bbf4fd92-2e47-4d70-99d3-956fda9f6c26","ios":"levelo://app?vid=bbf4fd92-2e47-4d70-99d3-956fda9f6c26"},"vehicle_type_id":"4","last_reported":1778653001,"current_range_meters":2800,"station_id":"st_d46tts09ee8s73dlu43g","pricing_plan_id":"cebpf4jnsgd1na2vs0mg"},{"bike_id":"a41f13d0-fa71-4649-bfa9-9da9c085adeb","system_id":"levelo_inurba_marseille","lat":43.30784,"lon":5.37648,"is_reserved":false,"is_disabled":false,"rental_uris":{"android":"levelo://app?vid=a41f13d0-fa71-4649-bfa9-9da9c085adeb","ios":"levelo://app?vid=a41f13d0-fa71-4649-bfa9-9da9c085adeb"},"vehicle_type_id":"4","last_reported":1778653001,"current_range_meters":2800,"station_id":"ce4bgv92rcd13ifvqcq0","pricing_plan_id":"cebpf4jnsgd1na2vs0mg"},{"bike_id":"d103bdeb-0322-4061-817a-17ab53c3baf8","system_id":"levelo_inurba_marseille","lat":43.25557,"lon":5.38239,"is_reserved":false,"is_disabled":false,"rental_uris":{"android":"levelo://app?vid=d103bdeb-0322-4061-817a-17ab53c3baf8","ios":"levelo://app?vid=d103bdeb-0322-4061-817a-17ab53c3baf8"},"vehicle_type_id":"4","last_reported":1778653001,"current_range_meters":2800,"station_id":"ce4bhih2rcd13ifvqfs0","pricing_plan_id":"cebpf4jnsgd1na2vs0mg"},{"bike_id":"0f749ae9-2e7d-44c0-911f-7e5d37b59ba6","system_id":"levelo_inurba_marseille","lat":43.27862,"lon":5.39219,"is_reserved":false,"is_disabled":false,"rental_uris":{"android":"levelo://app?vid=0f749ae9-2e7d-44c0-911f-7e5d37b59ba6","ios":"levelo://app?vid=0f749ae9-2e7d-44c0-911f-7e5d37b59ba6"},"vehicle_type_id":"4","last_reported":1778653001,"current_range_meters":2800,"station_id":"ce4bhjp2rcd13ifvqga0","pricing_plan_id":"cebpf4jnsgd1na2vs0mg"},{"bike_id":"24db9367-f089-40c8-ae54-34857d535862","system_id":"levelo_inurba_marseille","lat":43.23899,"lon":5.37444,"is_reserved":false,"is_disabled":false,"rental_uris":{"android":"levelo://app?vid=24db9367-f089-40c8-ae54-34857d535862","ios":"levelo://app?vid=24db9367-f089-40c8-ae54-34857d535862"},"vehicle_type_id":"4","last_reported":1778653001,"current_range_meters":2800,"station_id":"st_d6sm7csbq4hs73f8fpjg","pricing_plan_id":"cebpf4jnsgd1na2vs0mg"},{"bike_id":"cae26834-e4a2-4a93-bd9d-4b814d7fec01","system_id":"levelo_inurba_marseille","lat":43.31891,"lon":5.36765,"is_reserved":false,"is_disabled":false,"rental_uris":{"android":"levelo://app?vid=cae26834-e4a2-4a93-bd9d-4b814d7fec01","ios":"levelo://app?vid=cae26834-e4a2-4a93-bd9d-4b814d7fec01"},"vehicle_type_id":"4","last_reported":1778653001,"current_range_meters":2800,"station_id":"","pricing_plan_id":"cebpf4jnsgd1na2vs0mg"},{"bike_id":"47eafea1-2f37-4389-a0ca-895e8bcf5c4a","system_id":"levelo_inurba_marseille","lat":43.27923,"lon":5.39571,"is_reserved":false,"is_disabled":false,"rental_uris":{"android":"levelo://app?vid=47eafea1-2f37-4389-a0ca-895e8bcf5c4a","ios":"levelo://app?vid=47eafea1-2f37-4389-a0ca-895e8bcf5c4a"},"vehicle_type_id":"4","last_reported":1778653001,"current_range_meters":3200,"station_id":"ce4bhf92rcd13ifvqf40","pricing_plan_id":"cebpf4jnsgd1na2vs0mg"},{"bike_id":"bb883d36-d526-4613-874f-fbf82a7a374b","system_id":"levelo_inurba_marseille","lat":43.29671,"lon":5.37015,"is_reserved":false,"is_disabled":false,"rental_uris":{"android":"levelo://app?vid=bb883d36-d526-4613-874f-fbf82a7a374b","ios":"levelo://app?vid=bb883d36-d526-4613-874f-fbf82a7a374b"},"vehicle_type_id":"4","last_reported":1778653001,"current_range_meters":3200,"station_id":"","pricing_plan_id":"cebpf4jnsgd1na2vs0mg"},{"bike_id":"c2e976b4-7573-4ea6-97e0-eb4dbbe39a6b","system_id":"levelo_inurba_marseille","lat":43.27591,"lon":5.39657,"is_reserved":false,"is_disabled":false,"rental_uris":{"android":"levelo://app?vid=c2e976b4-7573-4ea6-97e0-eb4dbbe39a6b","ios":"levelo://app?vid=c2e976b4-7573-4ea6-97e0-eb4dbbe39a6b"},"vehicle_type_id":"4","last_reported":1778653001,"current_range_meters":3200,"station_id":"","pricing_plan_id":"cebpf4jnsgd1na2vs0mg"},{"bike_id":"865364c6-1575-40b9-b4b3-973df7f74023","system_id":"levelo_inurba_marseille","lat":43.2792,"lon":5.39578,"is_reserved":false,"is_disabled":false,"rental_uris":{"android":"levelo://app?vid=865364c6-1575-40b9-b4b3-973df7f74023","ios":"levelo://app?vid=865364c6-1575-40b9-b4b3-973df7f74023"},"vehicle_type_id":"4","last_reported":1778653001,"current_range_meters":3200,"station_id":"ce4bhf92rcd13ifvqf40","pricing_plan_id":"cebpf4jnsgd1na2vs0mg"},{"bike_id":"23b6dc26-1392-4fa8-9cc5-0f40ceb1f1c5","system_id":"levelo_inurba_marseille","lat":43.28693,"lon":5.46642,"is_reserved":false,"is_disabled":false,"rental_uris":{"android":"levelo://app?vid=23b6dc26-1392-4fa8-9cc5-0f40ceb1f1c5","ios":"levelo://app?vid=23b6dc26-1392-4fa8-9cc5-0f40ceb1f1c5"},"vehicle_type_id":"4","last_reported":1778653001,"current_range_meters":3200,"station_id":"st_d6tc3vkotcvc738tfjhg","pricing_plan_id":"cebpf4jnsgd1na2vs0mg"},{"bike_id":"3d10bf0f-0f6d-4a75-86ad-26901373ecca","system_id":"levelo_inurba_marseille","lat":43.331515,"lon":5.37686,"is_reserved":false,"is_disabled":false,"rental_uris":{"android":"levelo://app?vid=3d10bf0f-0f6d-4a75-86ad-26901373ecca","ios":"levelo://app?vid=3d10bf0f-0f6d-4a75-86ad-26901373ecca"},"vehicle_type_id":"4","last_reported":1778653001,"current_range_meters":3200,"station_id":"st_d46cu089ee8s73dldbu0","pricing_plan_id":"cebpf4jnsgd1na2vs0mg"},{"bike_id":"0fb18bc3-4ab3-4ab7-8bcc-6b0f3a425dc7","system_id":"levelo_inurba_marseille","lat":43.24817,"lon":5.37462,"is_reserved":false,"is_disabled":false,"rental_uris":{"android":"levelo://app?vid=0fb18bc3-4ab3-4ab7-8bcc-6b0f3a425dc7","ios":"levelo://app?vid=0fb18bc3-4ab3-4ab7-8bcc-6b0f3a425dc7"},"vehicle_type_id":"4","last_reported":1778653001,"current_range_meters":3200,"station_id":"ce4bhgh2rcd13ifvqfb0","pricing_plan_id":"cebpf4jnsgd1na2vs0mg"},{"bike_id":"4e9e9f19-6747-44e6-895b-68838dd6a1c5","system_id":"levelo_inurba_marseille","lat":43.32385,"lon":5.36721,"is_reserved":false,"is_disabled":false,"rental_uris":{"android":"levelo://app?vid=4e9e9f19-6747-44e6-895b-68838dd6a1c5","ios":"levelo://app?vid=4e9e9f19-6747-44e6-895b-68838dd6a1c5"},"vehicle_type_id":"4","last_reported":1778653001,"current_range_meters":3200,"station_id":"","pricing_plan_id":"cebpf4jnsgd1na2vs0mg"},{"bike_id":"06ace5d7-3d4b-48bb-9ba8-5a2e1fabdaaf","system_id":"levelo_inurba_marseille","lat":43.337518,"lon":5.374433,"is_reserved":false,"is_disabled":false,"rental_uris":{"android":"levelo://app?vid=06ace5d7-3d4b-48bb-9ba8-5a2e1fabdaaf","ios":"levelo://app?vid=06ace5d7-3d4b-48bb-9ba8-5a2e1fabdaaf"},"vehicle_type_id":"4","last_reported":1778653001,"current_range_meters":3200,"station_id":"","pricing_plan_id":"cebpf4jnsgd1na2vs0mg"},{"bike_id":"8e43356a-6894-4729-8a36-e254d80b24c0","system_id":"levelo_inurba_marseille","lat":43.29134,"lon":5.43262,"is_reserved":false,"is_disabled":false,"rental_uris":{"android":"levelo://app?vid=8e43356a-6894-4729-8a36-e254d80b24c0","ios":"levelo://app?vid=8e43356a-6894-4729-8a36-e254d80b24c0"},"vehicle_type_id":"4","last_reported":1778653001,"current_range_meters":3200,"station_id":"","pricing_plan_id":"cebpf4jnsgd1na2vs0mg"},{"bike_id":"08b0c056-213f-48c2-9d6d-2ae4cf315af9","system_id":"levelo_inurba_marseille","lat":43.25339,"lon":5.42167,"is_reserved":false,"is_disabled":false,"rental_uris":{"android":"levelo://app?vid=08b0c056-213f-48c2-9d6d-2ae4cf315af9","ios":"levelo://app?vid=08b0c056-213f-48c2-9d6d-2ae4cf315af9"},"vehicle_type_id":"4","last_reported":1778653001,"current_range_meters":3200,"station_id":"st_d2m65c5bi1j21697t3ng","pricing_plan_id":"cebpf4jnsgd1na2vs0mg"},{"bike_id":"22eeee5a-41db-400c-9bdd-eed0ffb962e0","system_id":"levelo_inurba_marseille","lat":43.24089,"lon":5.37756,"is_reserved":false,"is_disabled":false,"rental_uris":{"android":"levelo://app?vid=22eeee5a-41db-400c-9bdd-eed0ffb962e0","ios":"levelo://app?vid=22eeee5a-41db-400c-9bdd-eed0ffb962e0"},"vehicle_type_id":"4","last_reported":1778653001,"current_range_meters":3200,"station_id":"ce4bhnp2rcd13ifvqgvg","pricing_plan_id":"cebpf4jnsgd1na2vs0mg"},{"bike_id":"61195f8c-df5f-4867-8563-8cdbcf8d80ea","system_id":"levelo_inurba_marseille","lat":43.25881,"lon":5.3992,"is_reserved":false,"is_disabled":true,"rental_uris":{"android":"levelo://app?vid=61195f8c-df5f-4867-8563-8cdbcf8d80ea","ios":"levelo://app?vid=61195f8c-df5f-4867-8563-8cdbcf8d80ea"},"vehicle_type_id":"4","last_reported":1778653001,"current_range_meters":3600,"station_id":"ce4bhl92rcd13ifvqghg","pricing_plan_id":"cebpf4jnsgd1na2vs0mg"},{"bike_id":"fd8ac9b2-0c3a-4926-8fcd-4e50827ab570","system_id":"levelo_inurba_marseille","lat":43.23893,"lon":5.37446,"is_reserved":false,"is_disabled":false,"rental_uris":{"android":"levelo://app?vid=fd8ac9b2-0c3a-4926-8fcd-4e50827ab570","ios":"levelo://app?vid=fd8ac9b2-0c3a-4926-8fcd-4e50827ab570"},"vehicle_type_id":"4","last_reported":1778653001,"current_range_meters":3600,"station_id":"st_d6sm7csbq4hs73f8fpjg","pricing_plan_id":"cebpf4jnsgd1na2vs0mg"},{"bike_id":"9f9cc4d4-6448-4fe0-9bba-35816aedf1fe","system_id":"levelo_inurba_marseille","lat":43.24559,"lon":5.39566,"is_reserved":false,"is_disabled":false,"rental_uris":{"android":"levelo://app?vid=9f9cc4d4-6448-4fe0-9bba-35816aedf1fe","ios":"levelo://app?vid=9f9cc4d4-6448-4fe0-9bba-35816aedf1fe"},"vehicle_type_id":"4","last_reported":1778653001,"current_range_meters":3600,"station_id":"ce4bhlp2rcd13ifvqgjg","pricing_plan_id":"cebpf4jnsgd1na2vs0mg"},{"bike_id":"14059eb2-1b3f-4461-b0ee-158772daa7a1","system_id":"levelo_inurba_marseille","lat":43.31277,"lon":5.40168,"is_reserved":false,"is_disabled":true,"rental_uris":{"android":"levelo://app?vid=14059eb2-1b3f-4461-b0ee-158772daa7a1","ios":"levelo://app?vid=14059eb2-1b3f-4461-b0ee-158772daa7a1"},"vehicle_type_id":"4","last_reported":1778653001,"current_range_meters":3600,"station_id":"ce4bh092rcd13ifvqd30","pricing_plan_id":"cebpf4jnsgd1na2vs0mg"},{"bike_id":"f75200eb-c556-489f-9d74-42038266db2e","system_id":"levelo_inurba_marseille","lat":43.29232,"lon":5.39946,"is_reserved":false,"is_disabled":false,"rental_uris":{"android":"levelo://app?vid=f75200eb-c556-489f-9d74-42038266db2e","ios":"levelo://app?vid=f75200eb-c556-489f-9d74-42038266db2e"},"vehicle_type_id":"4","last_reported":1778653001,"current_range_meters":3600,"station_id":"ce4bh312rcd13ifvqdk0","pricing_plan_id":"cebpf4jnsgd1na2vs0mg"},{"bike_id":"3d93833d-0c9e-44ee-9f65-efdc490121b3","system_id":"levelo_inurba_marseille","lat":43.302612,"lon":5.40091,"is_reserved":false,"is_disabled":false,"rental_uris":{"android":"levelo://app?vid=3d93833d-0c9e-44ee-9f65-efdc490121b3","ios":"levelo://app?vid=3d93833d-0c9e-44ee-9f65-efdc490121b3"},"vehicle_type_id":"4","last_reported":1778653001,"current_range_meters":3600,"station_id":"ce4bgvh2rcd13ifvqcs0","pricing_plan_id":"cebpf4jnsgd1na2vs0mg"},{"bike_id":"cc08138b-40fc-4068-b5f2-bde9c76a7e40","system_id":"levelo_inurba_marseille","lat":43.34154,"lon":5.40903,"is_reserved":false,"is_disabled":true,"rental_uris":{"android":"levelo://app?vid=cc08138b-40fc-4068-b5f2-bde9c76a7e40","ios":"levelo://app?vid=cc08138b-40fc-4068-b5f2-bde9c76a7e40"},"vehicle_type_id":"4","last_reported":1778653001,"current_range_meters":3600,"station_id":"ce4bhqh2rcd13ifvqhlg","pricing_plan_id":"cebpf4jnsgd1na2vs0mg"},{"bike_id":"f9f7f428-1ada-494a-9606-e702b574f85a","system_id":"levelo_inurba_marseille","lat":43.28708,"lon":5.37923,"is_reserved":false,"is_disabled":false,"rental_uris":{"android":"levelo://app?vid=f9f7f428-1ada-494a-9606-e702b574f85a","ios":"levelo://app?vid=f9f7f428-1ada-494a-9606-e702b574f85a"},"vehicle_type_id":"4","last_reported":1778653001,"current_range_meters":3600,"station_id":"ce4bh9p2rcd13ifvqec0","pricing_plan_id":"cebpf4jnsgd1na2vs0mg"},{"bike_id":"946d3395-a1fc-4c85-99ee-e555a66a34c8","system_id":"levelo_inurba_marseille","lat":43.28478,"lon":5.35888,"is_reserved":false,"is_disabled":false,"rental_uris":{"android":"levelo://app?vid=946d3395-a1fc-4c85-99ee-e555a66a34c8","ios":"levelo://app?vid=946d3395-a1fc-4c85-99ee-e555a66a34c8"},"vehicle_type_id":"4","last_reported":1778653001,"current_range_meters":3600,"station_id":"ce4bhah2rcd13ifvqei0","pricing_plan_id":"cebpf4jnsgd1na2vs0mg"},{"bike_id":"d09de62e-41a5-42ea-858c-959049b04ecd","system_id":"levelo_inurba_marseille","lat":43.31326,"lon":5.39684,"is_reserved":false,"is_disabled":false,"rental_uris":{"android":"levelo://app?vid=d09de62e-41a5-42ea-858c-959049b04ecd","ios":"levelo://app?vid=d09de62e-41a5-42ea-858c-959049b04ecd"},"vehicle_type_id":"4","last_reported":1778653001,"current_range_meters":3600,"station_id":"ce4bgvp2rcd13ifvqcu0","pricing_plan_id":"cebpf4jnsgd1na2vs0mg"},{"bike_id":"2cf57b33-8812-4e13-8999-4c16ef72cfa0","system_id":"levelo_inurba_marseille","lat":43.23145,"lon":5.43721,"is_reserved":false,"is_disabled":false,"rental_uris":{"android":"levelo://app?vid=2cf57b33-8812-4e13-8999-4c16ef72cfa0","ios":"levelo://app?vid=2cf57b33-8812-4e13-8999-4c16ef72cfa0"},"vehicle_type_id":"4","last_reported":1778653001,"current_range_meters":3600,"station_id":"ce4bhmp2rcd13ifvqgog","pricing_plan_id":"cebpf4jnsgd1na2vs0mg"},{"bike_id":"c4a39941-4b69-4697-a3ce-af3df8a6d218","system_id":"levelo_inurba_marseille","lat":43.27654,"lon":5.3626,"is_reserved":false,"is_disabled":false,"rental_uris":{"android":"levelo://app?vid=c4a39941-4b69-4697-a3ce-af3df8a6d218","ios":"levelo://app?vid=c4a39941-4b69-4697-a3ce-af3df8a6d218"},"vehicle_type_id":"4","last_reported":1778653001,"current_range_meters":3600,"station_id":"","pricing_plan_id":"cebpf4jnsgd1na2vs0mg"},{"bike_id":"a3295db4-300e-4c07-bc60-0086b1659cac","system_id":"levelo_inurba_marseille","lat":43.3148,"lon":5.37275,"is_reserved":false,"is_disabled":false,"rental_uris":{"android":"levelo://app?vid=a3295db4-300e-4c07-bc60-0086b1659cac","ios":"levelo://app?vid=a3295db4-300e-4c07-bc60-0086b1659cac"},"vehicle_type_id":"4","last_reported":1778653001,"current_range_meters":3600,"station_id":"ce4bgt12rcd13ifvqcd0","pricing_plan_id":"cebpf4jnsgd1na2vs0mg"},{"bike_id":"07a9b671-4f11-4201-95b6-67d884bae6f1","system_id":"levelo_inurba_marseille","lat":43.25032,"lon":5.40377,"is_reserved":false,"is_disabled":false,"rental_uris":{"android":"levelo://app?vid=07a9b671-4f11-4201-95b6-67d884bae6f1","ios":"levelo://app?vid=07a9b671-4f11-4201-95b6-67d884bae6f1"},"vehicle_type_id":"4","last_reported":1778653001,"current_range_meters":3600,"station_id":"","pricing_plan_id":"cebpf4jnsgd1na2vs0mg"},{"bike_id":"d5567eef-68c5-4ee5-895a-b2f3b2a5fbe3","system_id":"levelo_inurba_marseille","lat":43.3128,"lon":5.40172,"is_reserved":false,"is_disabled":false,"rental_uris":{"android":"levelo://app?vid=d5567eef-68c5-4ee5-895a-b2f3b2a5fbe3","ios":"levelo://app?vid=d5567eef-68c5-4ee5-895a-b2f3b2a5fbe3"},"vehicle_type_id":"4","last_reported":1778653001,"current_range_meters":4000,"station_id":"ce4bh092rcd13ifvqd30","pricing_plan_id":"cebpf4jnsgd1na2vs0mg"},{"bike_id":"115ba647-6a1b-4d2f-95c8-bff71e7a9a97","system_id":"levelo_inurba_marseille","lat":43.30121,"lon":5.38107,"is_reserved":false,"is_disabled":false,"rental_uris":{"android":"levelo://app?vid=115ba647-6a1b-4d2f-95c8-bff71e7a9a97","ios":"levelo://app?vid=115ba647-6a1b-4d2f-95c8-bff71e7a9a97"},"vehicle_type_id":"4","last_reported":1778653001,"current_range_meters":4000,"station_id":"ce4bgjp2rcd13ifvqbh0","pricing_plan_id":"cebpf4jnsgd1na2vs0mg"},{"bike_id":"a3931dae-05f0-4e1d-8b68-01fdd7d05951","system_id":"levelo_inurba_marseille","lat":43.27509,"lon":5.41585,"is_reserved":false,"is_disabled":true,"rental_uris":{"android":"levelo://app?vid=a3931dae-05f0-4e1d-8b68-01fdd7d05951","ios":"levelo://app?vid=a3931dae-05f0-4e1d-8b68-01fdd7d05951"},"vehicle_type_id":"4","last_reported":1778653001,"current_range_meters":4000,"station_id":"st_d6im8g6chgec73a5pndg","pricing_plan_id":"cebpf4jnsgd1na2vs0mg"},{"bike_id":"7e5a7d97-5d1e-4db6-9507-0843b7ce48a7","system_id":"levelo_inurba_marseille","lat":43.30441,"lon":5.39744,"is_reserved":false,"is_disabled":false,"rental_uris":{"android":"levelo://app?vid=7e5a7d97-5d1e-4db6-9507-0843b7ce48a7","ios":"levelo://app?vid=7e5a7d97-5d1e-4db6-9507-0843b7ce48a7"},"vehicle_type_id":"4","last_reported":1778653001,"current_range_meters":4000,"station_id":"ce4bh092rcd13ifvqd20","pricing_plan_id":"cebpf4jnsgd1na2vs0mg"},{"bike_id":"062930f4-256c-4994-aaa4-dcf3f07affd4","system_id":"levelo_inurba_marseille","lat":43.28687,"lon":5.36303,"is_reserved":false,"is_disabled":false,"rental_uris":{"android":"levelo://app?vid=062930f4-256c-4994-aaa4-dcf3f07affd4","ios":"levelo://app?vid=062930f4-256c-4994-aaa4-dcf3f07affd4"},"vehicle_type_id":"4","last_reported":1778653001,"current_range_meters":4000,"station_id":"ce4bhah2rcd13ifvqej0","pricing_plan_id":"cebpf4jnsgd1na2vs0mg"},{"bike_id":"62557ba2-fd37-41d9-b8ba-d0969ce56cc9","system_id":"levelo_inurba_marseille","lat":43.2257,"lon":5.41626,"is_reserved":false,"is_disabled":false,"rental_uris":{"android":"levelo://app?vid=62557ba2-fd37-41d9-b8ba-d0969ce56cc9","ios":"levelo://app?vid=62557ba2-fd37-41d9-b8ba-d0969ce56cc9"},"vehicle_type_id":"4","last_reported":1778653001,"current_range_meters":4000,"station_id":"st_d2o4gvlbi1j2169b742g","pricing_plan_id":"cebpf4jnsgd1na2vs0mg"},{"bike_id":"6bf8e413-e0e6-4b25-b525-a592fcaee470","system_id":"levelo_inurba_marseille","lat":43.30147,"lon":5.38085,"is_reserved":false,"is_disabled":true,"rental_uris":{"android":"levelo://app?vid=6bf8e413-e0e6-4b25-b525-a592fcaee470","ios":"levelo://app?vid=6bf8e413-e0e6-4b25-b525-a592fcaee470"},"vehicle_type_id":"4","last_reported":1778653001,"current_range_meters":4000,"station_id":"ce4bgjp2rcd13ifvqbh0","pricing_plan_id":"cebpf4jnsgd1na2vs0mg"},{"bike_id":"bc211740-0b22-4cb9-b0df-859353941a08","system_id":"levelo_inurba_marseille","lat":43.28975,"lon":5.37826,"is_reserved":false,"is_disabled":false,"rental_uris":{"android":"levelo://app?vid=bc211740-0b22-4cb9-b0df-859353941a08","ios":"levelo://app?vid=bc211740-0b22-4cb9-b0df-859353941a08"},"vehicle_type_id":"4","last_reported":1778653001,"current_range_meters":4000,"station_id":"ce4bh9p2rcd13ifvqed0","pricing_plan_id":"cebpf4jnsgd1na2vs0mg"},{"bike_id":"93a22529-c67b-4c75-b2d8-922da7651d60","system_id":"levelo_inurba_marseille","lat":43.29784,"lon":5.38081,"is_reserved":false,"is_disabled":true,"rental_uris":{"android":"levelo://app?vid=93a22529-c67b-4c75-b2d8-922da7651d60","ios":"levelo://app?vid=93a22529-c67b-4c75-b2d8-922da7651d60"},"vehicle_type_id":"4","last_reported":1778653001,"current_range_meters":4000,"station_id":"ce4bgip2rcd13ifvqbb0","pricing_plan_id":"cebpf4jnsgd1na2vs0mg"},{"bike_id":"84e45561-66d1-440e-9f72-ee883157f707","system_id":"levelo_inurba_marseille","lat":43.30465,"lon":5.37898,"is_reserved":false,"is_disabled":false,"rental_uris":{"android":"levelo://app?vid=84e45561-66d1-440e-9f72-ee883157f707","ios":"levelo://app?vid=84e45561-66d1-440e-9f72-ee883157f707"},"vehicle_type_id":"4","last_reported":1778653001,"current_range_meters":4000,"station_id":"ce4bgup2rcd13ifvqcn0","pricing_plan_id":"cebpf4jnsgd1na2vs0mg"},{"bike_id":"7a6aa0c3-c929-4dee-83f0-644cf66683c5","system_id":"levelo_inurba_marseille","lat":43.24466,"lon":5.42533,"is_reserved":false,"is_disabled":false,"rental_uris":{"android":"levelo://app?vid=7a6aa0c3-c929-4dee-83f0-644cf66683c5","ios":"levelo://app?vid=7a6aa0c3-c929-4dee-83f0-644cf66683c5"},"vehicle_type_id":"4","last_reported":1778653001,"current_range_meters":4000,"station_id":"st_d4a3vfp97mjs738cd8kg","pricing_plan_id":"cebpf4jnsgd1na2vs0mg"},{"bike_id":"b61e294e-d0ab-4771-8b85-4f590f608230","system_id":"levelo_inurba_marseille","lat":43.27505,"lon":5.42443,"is_reserved":false,"is_disabled":false,"rental_uris":{"android":"levelo://app?vid=b61e294e-d0ab-4771-8b85-4f590f608230","ios":"levelo://app?vid=b61e294e-d0ab-4771-8b85-4f590f608230"},"vehicle_type_id":"4","last_reported":1778653001,"current_range_meters":4000,"station_id":"ce4bhn92rcd13ifvqgrg","pricing_plan_id":"cebpf4jnsgd1na2vs0mg"},{"bike_id":"efe17608-f498-47f7-ab22-076fc6396103","system_id":"levelo_inurba_marseille","lat":43.29882,"lon":5.38901,"is_reserved":false,"is_disabled":false,"rental_uris":{"android":"levelo://app?vid=efe17608-f498-47f7-ab22-076fc6396103","ios":"levelo://app?vid=efe17608-f498-47f7-ab22-076fc6396103"},"vehicle_type_id":"4","last_reported":1778653001,"current_range_meters":4400,"station_id":"ce4bh392rcd13ifvqdl0","pricing_plan_id":"cebpf4jnsgd1na2vs0mg"},{"bike_id":"7a983054-b4ad-48ec-914f-f73efd54bddf","system_id":"levelo_inurba_marseille","lat":43.25574,"lon":5.3823,"is_reserved":false,"is_disabled":false,"rental_uris":{"android":"levelo://app?vid=7a983054-b4ad-48ec-914f-f73efd54bddf","ios":"levelo://app?vid=7a983054-b4ad-48ec-914f-f73efd54bddf"},"vehicle_type_id":"4","last_reported":1778653001,"current_range_meters":4400,"station_id":"ce4bhih2rcd13ifvqfs0","pricing_plan_id":"cebpf4jnsgd1na2vs0mg"},{"bike_id":"1fb136bb-3cc6-48f7-af4f-974b5baf2852","system_id":"levelo_inurba_marseille","lat":43.23966,"lon":5.36628,"is_reserved":false,"is_disabled":true,"rental_uris":{"android":"levelo://app?vid=1fb136bb-3cc6-48f7-af4f-974b5baf2852","ios":"levelo://app?vid=1fb136bb-3cc6-48f7-af4f-974b5baf2852"},"vehicle_type_id":"4","last_reported":1778653001,"current_range_meters":4400,"station_id":"ce4bhi12rcd13ifvqfp0","pricing_plan_id":"cebpf4jnsgd1na2vs0mg"},{"bike_id":"f1199c7e-7903-4188-bbb9-ee8e51dbcbaf","system_id":"levelo_inurba_marseille","lat":43.24663,"lon":5.38178,"is_reserved":false,"is_disabled":false,"rental_uris":{"android":"levelo://app?vid=f1199c7e-7903-4188-bbb9-ee8e51dbcbaf","ios":"levelo://app?vid=f1199c7e-7903-4188-bbb9-ee8e51dbcbaf"},"vehicle_type_id":"4","last_reported":1778653001,"current_range_meters":4400,"station_id":"ce4bhih2rcd13ifvqfr0","pricing_plan_id":"cebpf4jnsgd1na2vs0mg"},{"bike_id":"b0351153-fdea-4d61-9458-346bc5cdc270","system_id":"levelo_inurba_marseille","lat":43.24812,"lon":5.3746,"is_reserved":false,"is_disabled":false,"rental_uris":{"android":"levelo://app?vid=b0351153-fdea-4d61-9458-346bc5cdc270","ios":"levelo://app?vid=b0351153-fdea-4d61-9458-346bc5cdc270"},"vehicle_type_id":"4","last_reported":1778653001,"current_range_meters":4400,"station_id":"ce4bhgh2rcd13ifvqfb0","pricing_plan_id":"cebpf4jnsgd1na2vs0mg"},{"bike_id":"1b2c8958-e91f-45f0-b73e-ce7ed72a04f7","system_id":"levelo_inurba_marseille","lat":43.295743,"lon":5.397636,"is_reserved":false,"is_disabled":true,"rental_uris":{"android":"levelo://app?vid=1b2c8958-e91f-45f0-b73e-ce7ed72a04f7","ios":"levelo://app?vid=1b2c8958-e91f-45f0-b73e-ce7ed72a04f7"},"vehicle_type_id":"4","last_reported":1778653001,"current_range_meters":4400,"station_id":"","pricing_plan_id":"cebpf4jnsgd1na2vs0mg"},{"bike_id":"8f556e0e-50e3-415d-bc0b-bd20df8dcc3e","system_id":"levelo_inurba_marseille","lat":43.22569,"lon":5.41602,"is_reserved":false,"is_disabled":false,"rental_uris":{"android":"levelo://app?vid=8f556e0e-50e3-415d-bc0b-bd20df8dcc3e","ios":"levelo://app?vid=8f556e0e-50e3-415d-bc0b-bd20df8dcc3e"},"vehicle_type_id":"4","last_reported":1778653001,"current_range_meters":4400,"station_id":"st_d2o4gvlbi1j2169b742g","pricing_plan_id":"cebpf4jnsgd1na2vs0mg"},{"bike_id":"e3e6a269-338b-482e-8c7f-7dca167d167b","system_id":"levelo_inurba_marseille","lat":43.27499,"lon":5.41579,"is_reserved":false,"is_disabled":true,"rental_uris":{"android":"levelo://app?vid=e3e6a269-338b-482e-8c7f-7dca167d167b","ios":"levelo://app?vid=e3e6a269-338b-482e-8c7f-7dca167d167b"},"vehicle_type_id":"4","last_reported":1778653001,"current_range_meters":4400,"station_id":"st_d6im8g6chgec73a5pndg","pricing_plan_id":"cebpf4jnsgd1na2vs0mg"},{"bike_id":"46010e51-ffcf-494e-8734-a0917c32a663","system_id":"levelo_inurba_marseille","lat":43.23203,"lon":5.35548,"is_reserved":false,"is_disabled":false,"rental_uris":{"android":"levelo://app?vid=46010e51-ffcf-494e-8734-a0917c32a663","ios":"levelo://app?vid=46010e51-ffcf-494e-8734-a0917c32a663"},"vehicle_type_id":"4","last_reported":1778653001,"current_range_meters":4400,"station_id":"ce4bhu92rcd13ifvqi70","pricing_plan_id":"cebpf4jnsgd1na2vs0mg"},{"bike_id":"89ba3e6a-2631-497f-8d75-3508f5d4fd19","system_id":"levelo_inurba_marseille","lat":43.24662,"lon":5.3817,"is_reserved":false,"is_disabled":false,"rental_uris":{"android":"levelo://app?vid=89ba3e6a-2631-497f-8d75-3508f5d4fd19","ios":"levelo://app?vid=89ba3e6a-2631-497f-8d75-3508f5d4fd19"},"vehicle_type_id":"4","last_reported":1778653001,"current_range_meters":4400,"station_id":"ce4bhih2rcd13ifvqfr0","pricing_plan_id":"cebpf4jnsgd1na2vs0mg"},{"bike_id":"c819bda4-95cc-4305-8b8b-b573d5be4fd6","system_id":"levelo_inurba_marseille","lat":43.24077,"lon":5.37756,"is_reserved":false,"is_disabled":false,"rental_uris":{"android":"levelo://app?vid=c819bda4-95cc-4305-8b8b-b573d5be4fd6","ios":"levelo://app?vid=c819bda4-95cc-4305-8b8b-b573d5be4fd6"},"vehicle_type_id":"4","last_reported":1778653001,"current_range_meters":4400,"station_id":"ce4bhnp2rcd13ifvqgvg","pricing_plan_id":"cebpf4jnsgd1na2vs0mg"},{"bike_id":"86660d9c-47a1-454c-bf17-c1141faf0fe4","system_id":"levelo_inurba_marseille","lat":43.24807,"lon":5.37422,"is_reserved":false,"is_disabled":false,"rental_uris":{"android":"levelo://app?vid=86660d9c-47a1-454c-bf17-c1141faf0fe4","ios":"levelo://app?vid=86660d9c-47a1-454c-bf17-c1141faf0fe4"},"vehicle_type_id":"4","last_reported":1778653001,"current_range_meters":4800,"station_id":"ce4bhgh2rcd13ifvqfb0","pricing_plan_id":"cebpf4jnsgd1na2vs0mg"},{"bike_id":"0d5a6d54-dad4-453d-9b1a-d94782ee22c6","system_id":"levelo_inurba_marseille","lat":43.32345,"lon":5.36544,"is_reserved":false,"is_disabled":false,"rental_uris":{"android":"levelo://app?vid=0d5a6d54-dad4-453d-9b1a-d94782ee22c6","ios":"levelo://app?vid=0d5a6d54-dad4-453d-9b1a-d94782ee22c6"},"vehicle_type_id":"4","last_reported":1778653001,"current_range_meters":4800,"station_id":"","pricing_plan_id":"cebpf4jnsgd1na2vs0mg"},{"bike_id":"d1e625f4-f7a3-447e-9d9b-d52dfc59b3ee","system_id":"levelo_inurba_marseille","lat":43.29086,"lon":5.40116,"is_reserved":false,"is_disabled":false,"rental_uris":{"android":"levelo://app?vid=d1e625f4-f7a3-447e-9d9b-d52dfc59b3ee","ios":"levelo://app?vid=d1e625f4-f7a3-447e-9d9b-d52dfc59b3ee"},"vehicle_type_id":"4","last_reported":1778653001,"current_range_meters":4800,"station_id":"","pricing_plan_id":"cebpf4jnsgd1na2vs0mg"},{"bike_id":"e29bab83-08a2-4a91-9da6-9b4710314e4c","system_id":"levelo_inurba_marseille","lat":43.31329,"lon":5.39688,"is_reserved":false,"is_disabled":false,"rental_uris":{"android":"levelo://app?vid=e29bab83-08a2-4a91-9da6-9b4710314e4c","ios":"levelo://app?vid=e29bab83-08a2-4a91-9da6-9b4710314e4c"},"vehicle_type_id":"4","last_reported":1778653001,"current_range_meters":4800,"station_id":"ce4bgvp2rcd13ifvqcu0","pricing_plan_id":"cebpf4jnsgd1na2vs0mg"},{"bike_id":"95552473-a32b-49e5-a6c9-92815a2ac96e","system_id":"levelo_inurba_marseille","lat":43.32834,"lon":5.4262,"is_reserved":false,"is_disabled":false,"rental_uris":{"android":"levelo://app?vid=95552473-a32b-49e5-a6c9-92815a2ac96e","ios":"levelo://app?vid=95552473-a32b-49e5-a6c9-92815a2ac96e"},"vehicle_type_id":"4","last_reported":1778653001,"current_range_meters":4800,"station_id":"","pricing_plan_id":"cebpf4jnsgd1na2vs0mg"},{"bike_id":"4094ed60-af5a-46d6-a089-9fa66a4a00aa","system_id":"levelo_inurba_marseille","lat":43.26803,"lon":5.40267,"is_reserved":false,"is_disabled":false,"rental_uris":{"android":"levelo://app?vid=4094ed60-af5a-46d6-a089-9fa66a4a00aa","ios":"levelo://app?vid=4094ed60-af5a-46d6-a089-9fa66a4a00aa"},"vehicle_type_id":"4","last_reported":1778653001,"current_range_meters":4800,"station_id":"ce501612rcd8frsf0b60","pricing_plan_id":"cebpf4jnsgd1na2vs0mg"},{"bike_id":"6049f75f-f08d-4c4c-8e6c-aa999316afb6","system_id":"levelo_inurba_marseille","lat":43.28415,"lon":5.34976,"is_reserved":false,"is_disabled":false,"rental_uris":{"android":"levelo://app?vid=6049f75f-f08d-4c4c-8e6c-aa999316afb6","ios":"levelo://app?vid=6049f75f-f08d-4c4c-8e6c-aa999316afb6"},"vehicle_type_id":"4","last_reported":1778653001,"current_range_meters":4800,"station_id":"ce4bhbh2rcd13ifvqepg","pricing_plan_id":"cebpf4jnsgd1na2vs0mg"},{"bike_id":"58728e3e-a3ce-42c2-820f-3e8a4c54b161","system_id":"levelo_inurba_marseille","lat":43.31234,"lon":5.36862,"is_reserved":false,"is_disabled":false,"rental_uris":{"android":"levelo://app?vid=58728e3e-a3ce-42c2-820f-3e8a4c54b161","ios":"levelo://app?vid=58728e3e-a3ce-42c2-820f-3e8a4c54b161"},"vehicle_type_id":"4","last_reported":1778653001,"current_range_meters":4800,"station_id":"ce4bgl92rcd13ifvqbq0","pricing_plan_id":"cebpf4jnsgd1na2vs0mg"},{"bike_id":"cfed0df2-be15-4135-9661-5cac57a11ae3","system_id":"levelo_inurba_marseille","lat":43.26922,"lon":5.40257,"is_reserved":false,"is_disabled":false,"rental_uris":{"android":"levelo://app?vid=cfed0df2-be15-4135-9661-5cac57a11ae3","ios":"levelo://app?vid=cfed0df2-be15-4135-9661-5cac57a11ae3"},"vehicle_type_id":"4","last_reported":1778653001,"current_range_meters":5600,"station_id":"cjm6bp8fraef2m0cb0m0","pricing_plan_id":"cebpf4jnsgd1na2vs0mg"},{"bike_id":"a574ab55-d4b6-4739-bb71-86a8375e1e9c","system_id":"levelo_inurba_marseille","lat":43.27822,"lon":5.40714,"is_reserved":false,"is_disabled":false,"rental_uris":{"android":"levelo://app?vid=a574ab55-d4b6-4739-bb71-86a8375e1e9c","ios":"levelo://app?vid=a574ab55-d4b6-4739-bb71-86a8375e1e9c"},"vehicle_type_id":"4","last_reported":1778653001,"current_range_meters":5600,"station_id":"ce4bhnh2rcd13ifvqgtg","pricing_plan_id":"cebpf4jnsgd1na2vs0mg"},{"bike_id":"95aeb85c-cda5-4c76-841d-5978f9d16c4b","system_id":"levelo_inurba_marseille","lat":43.25582,"lon":5.3823,"is_reserved":false,"is_disabled":false,"rental_uris":{"android":"levelo://app?vid=95aeb85c-cda5-4c76-841d-5978f9d16c4b","ios":"levelo://app?vid=95aeb85c-cda5-4c76-841d-5978f9d16c4b"},"vehicle_type_id":"4","last_reported":1778653001,"current_range_meters":5600,"station_id":"ce4bhih2rcd13ifvqfs0","pricing_plan_id":"cebpf4jnsgd1na2vs0mg"},{"bike_id":"4886c252-2728-4a7b-8055-7bc754291d67","system_id":"levelo_inurba_marseille","lat":43.26188,"lon":5.40391,"is_reserved":false,"is_disabled":false,"rental_uris":{"android":"levelo://app?vid=4886c252-2728-4a7b-8055-7bc754291d67","ios":"levelo://app?vid=4886c252-2728-4a7b-8055-7bc754291d67"},"vehicle_type_id":"4","last_reported":1778653001,"current_range_meters":6000,"station_id":"","pricing_plan_id":"cebpf4jnsgd1na2vs0mg"},{"bike_id":"4be255e9-cd6d-4c75-affc-d9ecab43a512","system_id":"levelo_inurba_marseille","lat":43.28435,"lon":5.34992,"is_reserved":false,"is_disabled":false,"rental_uris":{"android":"levelo://app?vid=4be255e9-cd6d-4c75-affc-d9ecab43a512","ios":"levelo://app?vid=4be255e9-cd6d-4c75-affc-d9ecab43a512"},"vehicle_type_id":"4","last_reported":1778653001,"current_range_meters":6000,"station_id":"ce4bhbh2rcd13ifvqepg","pricing_plan_id":"cebpf4jnsgd1na2vs0mg"},{"bike_id":"0f1807cc-9d93-4021-8b9a-9457f4117b8b","system_id":"levelo_inurba_marseille","lat":43.32113,"lon":5.36756,"is_reserved":false,"is_disabled":false,"rental_uris":{"android":"levelo://app?vid=0f1807cc-9d93-4021-8b9a-9457f4117b8b","ios":"levelo://app?vid=0f1807cc-9d93-4021-8b9a-9457f4117b8b"},"vehicle_type_id":"4","last_reported":1778653001,"current_range_meters":6000,"station_id":"ce4bhrh2rcd13ifvqhug","pricing_plan_id":"cebpf4jnsgd1na2vs0mg"},{"bike_id":"2282ecfd-c628-45ec-8328-685141867870","system_id":"levelo_inurba_marseille","lat":43.28937,"lon":5.36643,"is_reserved":false,"is_disabled":false,"rental_uris":{"android":"levelo://app?vid=2282ecfd-c628-45ec-8328-685141867870","ios":"levelo://app?vid=2282ecfd-c628-45ec-8328-685141867870"},"vehicle_type_id":"4","last_reported":1778653001,"current_range_meters":6000,"station_id":"ce4bhap2rcd13ifvqek0","pricing_plan_id":"cebpf4jnsgd1na2vs0mg"},{"bike_id":"4128c085-91aa-48ea-963c-55c07880f562","system_id":"levelo_inurba_marseille","lat":43.23213,"lon":5.35575,"is_reserved":false,"is_disabled":false,"rental_uris":{"android":"levelo://app?vid=4128c085-91aa-48ea-963c-55c07880f562","ios":"levelo://app?vid=4128c085-91aa-48ea-963c-55c07880f562"},"vehicle_type_id":"4","last_reported":1778653001,"current_range_meters":6000,"station_id":"ce4bhu92rcd13ifvqi70","pricing_plan_id":"cebpf4jnsgd1na2vs0mg"},{"bike_id":"c2a550eb-2fed-4bf8-b049-2c6eca7d91b8","system_id":"levelo_inurba_marseille","lat":43.25583,"lon":5.38228,"is_reserved":false,"is_disabled":false,"rental_uris":{"android":"levelo://app?vid=c2a550eb-2fed-4bf8-b049-2c6eca7d91b8","ios":"levelo://app?vid=c2a550eb-2fed-4bf8-b049-2c6eca7d91b8"},"vehicle_type_id":"4","last_reported":1778653001,"current_range_meters":6000,"station_id":"ce4bhih2rcd13ifvqfs0","pricing_plan_id":"cebpf4jnsgd1na2vs0mg"},{"bike_id":"263b4c9f-8e4f-4563-967e-ab55b7ebb2cc","system_id":"levelo_inurba_marseille","lat":43.3016,"lon":5.38087,"is_reserved":false,"is_disabled":false,"rental_uris":{"android":"levelo://app?vid=263b4c9f-8e4f-4563-967e-ab55b7ebb2cc","ios":"levelo://app?vid=263b4c9f-8e4f-4563-967e-ab55b7ebb2cc"},"vehicle_type_id":"4","last_reported":1778653001,"current_range_meters":6000,"station_id":"ce4bgjp2rcd13ifvqbh0","pricing_plan_id":"cebpf4jnsgd1na2vs0mg"},{"bike_id":"211cea86-71fd-43ef-9b6e-844e35d10a69","system_id":"levelo_inurba_marseille","lat":43.26188,"lon":5.37446,"is_reserved":false,"is_disabled":true,"rental_uris":{"android":"levelo://app?vid=211cea86-71fd-43ef-9b6e-844e35d10a69","ios":"levelo://app?vid=211cea86-71fd-43ef-9b6e-844e35d10a69"},"vehicle_type_id":"4","last_reported":1778653001,"current_range_meters":6000,"station_id":"ce4bhgp2rcd13ifvqfc0","pricing_plan_id":"cebpf4jnsgd1na2vs0mg"},{"bike_id":"c746947e-fc4c-4f93-8496-aa0bce673eb8","system_id":"levelo_inurba_marseille","lat":43.27836,"lon":5.40692,"is_reserved":false,"is_disabled":false,"rental_uris":{"android":"levelo://app?vid=c746947e-fc4c-4f93-8496-aa0bce673eb8","ios":"levelo://app?vid=c746947e-fc4c-4f93-8496-aa0bce673eb8"},"vehicle_type_id":"4","last_reported":1778653001,"current_range_meters":6000,"station_id":"ce4bhnh2rcd13ifvqgtg","pricing_plan_id":"cebpf4jnsgd1na2vs0mg"},{"bike_id":"3882a180-349e-41b4-a998-618d45401296","system_id":"levelo_inurba_marseille","lat":43.31988,"lon":5.38143,"is_reserved":false,"is_disabled":false,"rental_uris":{"android":"levelo://app?vid=3882a180-349e-41b4-a998-618d45401296","ios":"levelo://app?vid=3882a180-349e-41b4-a998-618d45401296"},"vehicle_type_id":"4","last_reported":1778653001,"current_range_meters":6000,"station_id":"ce4bhr12rcd13ifvqhpg","pricing_plan_id":"cebpf4jnsgd1na2vs0mg"},{"bike_id":"1add8479-2d9c-42ff-b958-624c02ec5f0d","system_id":"levelo_inurba_marseille","lat":43.31484,"lon":5.36912,"is_reserved":false,"is_disabled":false,"rental_uris":{"android":"levelo://app?vid=1add8479-2d9c-42ff-b958-624c02ec5f0d","ios":"levelo://app?vid=1add8479-2d9c-42ff-b958-624c02ec5f0d"},"vehicle_type_id":"4","last_reported":1778653001,"current_range_meters":6000,"station_id":"","pricing_plan_id":"cebpf4jnsgd1na2vs0mg"},{"bike_id":"a6cb16de-a047-4a34-8320-dcf91eb1b0d6","system_id":"levelo_inurba_marseille","lat":43.31313,"lon":5.39655,"is_reserved":false,"is_disabled":false,"rental_uris":{"android":"levelo://app?vid=a6cb16de-a047-4a34-8320-dcf91eb1b0d6","ios":"levelo://app?vid=a6cb16de-a047-4a34-8320-dcf91eb1b0d6"},"vehicle_type_id":"4","last_reported":1778653001,"current_range_meters":6000,"station_id":"ce4bgvp2rcd13ifvqcu0","pricing_plan_id":"cebpf4jnsgd1na2vs0mg"},{"bike_id":"795e65b9-e1e4-44a5-9b1a-3e7ee52cf27a","system_id":"levelo_inurba_marseille","lat":43.31336,"lon":5.36711,"is_reserved":false,"is_disabled":false,"rental_uris":{"android":"levelo://app?vid=795e65b9-e1e4-44a5-9b1a-3e7ee52cf27a","ios":"levelo://app?vid=795e65b9-e1e4-44a5-9b1a-3e7ee52cf27a"},"vehicle_type_id":"4","last_reported":1778653001,"current_range_meters":6000,"station_id":"ce4bgr92rcd13ifvqc6g","pricing_plan_id":"cebpf4jnsgd1na2vs0mg"},{"bike_id":"3c34a31a-746e-47f9-90b1-0abec1ccf99d","system_id":"levelo_inurba_marseille","lat":43.295749,"lon":5.375255,"is_reserved":false,"is_disabled":false,"rental_uris":{"android":"levelo://app?vid=3c34a31a-746e-47f9-90b1-0abec1ccf99d","ios":"levelo://app?vid=3c34a31a-746e-47f9-90b1-0abec1ccf99d"},"vehicle_type_id":"4","last_reported":1778653001,"current_range_meters":6000,"station_id":"ce4bgh92rcd13ifvqb50","pricing_plan_id":"cebpf4jnsgd1na2vs0mg"},{"bike_id":"f3277763-6453-4020-8d91-d6f291fade14","system_id":"levelo_inurba_marseille","lat":43.30362,"lon":5.42443,"is_reserved":false,"is_disabled":false,"rental_uris":{"android":"levelo://app?vid=f3277763-6453-4020-8d91-d6f291fade14","ios":"levelo://app?vid=f3277763-6453-4020-8d91-d6f291fade14"},"vehicle_type_id":"4","last_reported":1778653001,"current_range_meters":6400,"station_id":"ce4bhoh2rcd13ifvqh6g","pricing_plan_id":"cebpf4jnsgd1na2vs0mg"},{"bike_id":"59a6e24a-9db4-402e-8b5e-049f3595c118","system_id":"levelo_inurba_marseille","lat":43.295674,"lon":5.39968,"is_reserved":false,"is_disabled":true,"rental_uris":{"android":"levelo://app?vid=59a6e24a-9db4-402e-8b5e-049f3595c118","ios":"levelo://app?vid=59a6e24a-9db4-402e-8b5e-049f3595c118"},"vehicle_type_id":"4","last_reported":1778653001,"current_range_meters":6400,"station_id":"ce4bh312rcd13ifvqdj0","pricing_plan_id":"cebpf4jnsgd1na2vs0mg"},{"bike_id":"0e6d4b56-486f-4728-b003-09b611c4e69e","system_id":"levelo_inurba_marseille","lat":43.28846,"lon":5.3585,"is_reserved":false,"is_disabled":false,"rental_uris":{"android":"levelo://app?vid=0e6d4b56-486f-4728-b003-09b611c4e69e","ios":"levelo://app?vid=0e6d4b56-486f-4728-b003-09b611c4e69e"},"vehicle_type_id":"4","last_reported":1778653001,"current_range_meters":6400,"station_id":"ce4bhb12rcd13ifvqem0","pricing_plan_id":"cebpf4jnsgd1na2vs0mg"},{"bike_id":"8f977c3b-162f-41ba-a59e-68f228fee342","system_id":"levelo_inurba_marseille","lat":43.28357,"lon":5.38625,"is_reserved":false,"is_disabled":false,"rental_uris":{"android":"levelo://app?vid=8f977c3b-162f-41ba-a59e-68f228fee342","ios":"levelo://app?vid=8f977c3b-162f-41ba-a59e-68f228fee342"},"vehicle_type_id":"4","last_reported":1778653001,"current_range_meters":6400,"station_id":"ce4bh492rcd13ifvqdvg","pricing_plan_id":"cebpf4jnsgd1na2vs0mg"},{"bike_id":"d257960a-edb4-4348-90b0-b5fd8baf1634","system_id":"levelo_inurba_marseille","lat":43.31716,"lon":5.37767,"is_reserved":false,"is_disabled":true,"rental_uris":{"android":"levelo://app?vid=d257960a-edb4-4348-90b0-b5fd8baf1634","ios":"levelo://app?vid=d257960a-edb4-4348-90b0-b5fd8baf1634"},"vehicle_type_id":"4","last_reported":1778653001,"current_range_meters":6400,"station_id":"ce4bgth2rcd13ifvqch0","pricing_plan_id":"cebpf4jnsgd1na2vs0mg"},{"bike_id":"4aad697a-91b2-4fed-aee3-9939aca7631b","system_id":"levelo_inurba_marseille","lat":43.3134,"lon":5.37918,"is_reserved":false,"is_disabled":false,"rental_uris":{"android":"levelo://app?vid=4aad697a-91b2-4fed-aee3-9939aca7631b","ios":"levelo://app?vid=4aad697a-91b2-4fed-aee3-9939aca7631b"},"vehicle_type_id":"4","last_reported":1778653001,"current_range_meters":6400,"station_id":"","pricing_plan_id":"cebpf4jnsgd1na2vs0mg"},{"bike_id":"c57b9d8b-726c-424e-a5d4-cee105e1ed0e","system_id":"levelo_inurba_marseille","lat":43.26212,"lon":5.37933,"is_reserved":false,"is_disabled":false,"rental_uris":{"android":"levelo://app?vid=c57b9d8b-726c-424e-a5d4-cee105e1ed0e","ios":"levelo://app?vid=c57b9d8b-726c-424e-a5d4-cee105e1ed0e"},"vehicle_type_id":"4","last_reported":1778653001,"current_range_meters":6400,"station_id":"ce4bhjp2rcd13ifvqg90","pricing_plan_id":"cebpf4jnsgd1na2vs0mg"},{"bike_id":"9adf12da-a066-47bc-88ed-df17ebb4f248","system_id":"levelo_inurba_marseille","lat":43.28471,"lon":5.3841,"is_reserved":false,"is_disabled":false,"rental_uris":{"android":"levelo://app?vid=9adf12da-a066-47bc-88ed-df17ebb4f248","ios":"levelo://app?vid=9adf12da-a066-47bc-88ed-df17ebb4f248"},"vehicle_type_id":"4","last_reported":1778653001,"current_range_meters":6400,"station_id":"ce4bh512rcd13ifvqe3g","pricing_plan_id":"cebpf4jnsgd1na2vs0mg"},{"bike_id":"f4a9f1cb-0b8b-40b5-9761-bed01b208aa9","system_id":"levelo_inurba_marseille","lat":43.27541,"lon":5.38424,"is_reserved":false,"is_disabled":true,"rental_uris":{"android":"levelo://app?vid=f4a9f1cb-0b8b-40b5-9761-bed01b208aa9","ios":"levelo://app?vid=f4a9f1cb-0b8b-40b5-9761-bed01b208aa9"},"vehicle_type_id":"4","last_reported":1778653001,"current_range_meters":6400,"station_id":"ce4bhh92rcd13ifvqfi0","pricing_plan_id":"cebpf4jnsgd1na2vs0mg"},{"bike_id":"31747b77-362c-454f-b967-04fec5720f77","system_id":"levelo_inurba_marseille","lat":43.25083,"lon":5.39541,"is_reserved":false,"is_disabled":false,"rental_uris":{"android":"levelo://app?vid=31747b77-362c-454f-b967-04fec5720f77","ios":"levelo://app?vid=31747b77-362c-454f-b967-04fec5720f77"},"vehicle_type_id":"4","last_reported":1778653001,"current_range_meters":6400,"station_id":"ce4bhm12rcd13ifvqgkg","pricing_plan_id":"cebpf4jnsgd1na2vs0mg"},{"bike_id":"6bf5a739-c134-4744-be04-d26bd6e563cd","system_id":"levelo_inurba_marseille","lat":43.28435,"lon":5.34976,"is_reserved":false,"is_disabled":false,"rental_uris":{"android":"levelo://app?vid=6bf5a739-c134-4744-be04-d26bd6e563cd","ios":"levelo://app?vid=6bf5a739-c134-4744-be04-d26bd6e563cd"},"vehicle_type_id":"4","last_reported":1778653001,"current_range_meters":6400,"station_id":"ce4bhbh2rcd13ifvqepg","pricing_plan_id":"cebpf4jnsgd1na2vs0mg"},{"bike_id":"00f9e8e9-a796-4063-972a-6a13a52bcfd2","system_id":"levelo_inurba_marseille","lat":43.28661,"lon":5.36257,"is_reserved":false,"is_disabled":false,"rental_uris":{"android":"levelo://app?vid=00f9e8e9-a796-4063-972a-6a13a52bcfd2","ios":"levelo://app?vid=00f9e8e9-a796-4063-972a-6a13a52bcfd2"},"vehicle_type_id":"4","last_reported":1778653001,"current_range_meters":6400,"station_id":"","pricing_plan_id":"cebpf4jnsgd1na2vs0mg"},{"bike_id":"cff5a39a-c3c7-4543-bba0-f4ca60a3cb0a","system_id":"levelo_inurba_marseille","lat":43.2749,"lon":5.42448,"is_reserved":false,"is_disabled":false,"rental_uris":{"android":"levelo://app?vid=cff5a39a-c3c7-4543-bba0-f4ca60a3cb0a","ios":"levelo://app?vid=cff5a39a-c3c7-4543-bba0-f4ca60a3cb0a"},"vehicle_type_id":"4","last_reported":1778653001,"current_range_meters":6400,"station_id":"ce4bhn92rcd13ifvqgrg","pricing_plan_id":"cebpf4jnsgd1na2vs0mg"},{"bike_id":"d81f348a-5a0d-4a29-b6c6-358f9d732682","system_id":"levelo_inurba_marseille","lat":43.26029,"lon":5.37552,"is_reserved":false,"is_disabled":false,"rental_uris":{"android":"levelo://app?vid=d81f348a-5a0d-4a29-b6c6-358f9d732682","ios":"levelo://app?vid=d81f348a-5a0d-4a29-b6c6-358f9d732682"},"vehicle_type_id":"4","last_reported":1778653001,"current_range_meters":6800,"station_id":"ce4bhgh2rcd13ifvqfa0","pricing_plan_id":"cebpf4jnsgd1na2vs0mg"},{"bike_id":"acdc7f9f-c208-4d71-8aab-07abf62efdc3","system_id":"levelo_inurba_marseille","lat":43.33761,"lon":5.37453,"is_reserved":false,"is_disabled":false,"rental_uris":{"android":"levelo://app?vid=acdc7f9f-c208-4d71-8aab-07abf62efdc3","ios":"levelo://app?vid=acdc7f9f-c208-4d71-8aab-07abf62efdc3"},"vehicle_type_id":"4","last_reported":1778653001,"current_range_meters":6800,"station_id":"","pricing_plan_id":"cebpf4jnsgd1na2vs0mg"},{"bike_id":"3a0a303a-4c01-46ad-ba0b-98f8b7c8e79f","system_id":"levelo_inurba_marseille","lat":43.313623,"lon":5.367007,"is_reserved":false,"is_disabled":false,"rental_uris":{"android":"levelo://app?vid=3a0a303a-4c01-46ad-ba0b-98f8b7c8e79f","ios":"levelo://app?vid=3a0a303a-4c01-46ad-ba0b-98f8b7c8e79f"},"vehicle_type_id":"4","last_reported":1778653001,"current_range_meters":6800,"station_id":"ce4bgr92rcd13ifvqc6g","pricing_plan_id":"cebpf4jnsgd1na2vs0mg"},{"bike_id":"337e5d15-9f6d-40f1-b4d5-6db4068e7fee","system_id":"levelo_inurba_marseille","lat":43.30215,"lon":5.36916,"is_reserved":false,"is_disabled":false,"rental_uris":{"android":"levelo://app?vid=337e5d15-9f6d-40f1-b4d5-6db4068e7fee","ios":"levelo://app?vid=337e5d15-9f6d-40f1-b4d5-6db4068e7fee"},"vehicle_type_id":"4","last_reported":1778653001,"current_range_meters":6800,"station_id":"","pricing_plan_id":"cebpf4jnsgd1na2vs0mg"},{"bike_id":"be516926-fe12-4374-9b96-0a5d95fc4532","system_id":"levelo_inurba_marseille","lat":43.225323,"lon":5.348352,"is_reserved":false,"is_disabled":false,"rental_uris":{"android":"levelo://app?vid=be516926-fe12-4374-9b96-0a5d95fc4532","ios":"levelo://app?vid=be516926-fe12-4374-9b96-0a5d95fc4532"},"vehicle_type_id":"4","last_reported":1778653001,"current_range_meters":6800,"station_id":"st_cvj5dfep6f1abm77gieg","pricing_plan_id":"cebpf4jnsgd1na2vs0mg"},{"bike_id":"0218ba69-a726-47f9-8f13-1c211b49252d","system_id":"levelo_inurba_marseille","lat":43.30909,"lon":5.37193,"is_reserved":false,"is_disabled":false,"rental_uris":{"android":"levelo://app?vid=0218ba69-a726-47f9-8f13-1c211b49252d","ios":"levelo://app?vid=0218ba69-a726-47f9-8f13-1c211b49252d"},"vehicle_type_id":"4","last_reported":1778653001,"current_range_meters":6800,"station_id":"ce4bguh2rcd13ifvqckg","pricing_plan_id":"cebpf4jnsgd1na2vs0mg"},{"bike_id":"fdc9ef62-8d0a-4e4e-b969-e69b420c9997","system_id":"levelo_inurba_marseille","lat":43.28355,"lon":5.38104,"is_reserved":false,"is_disabled":false,"rental_uris":{"android":"levelo://app?vid=fdc9ef62-8d0a-4e4e-b969-e69b420c9997","ios":"levelo://app?vid=fdc9ef62-8d0a-4e4e-b969-e69b420c9997"},"vehicle_type_id":"4","last_reported":1778653001,"current_range_meters":6800,"station_id":"ce4bh412rcd13ifvqdr0","pricing_plan_id":"cebpf4jnsgd1na2vs0mg"},{"bike_id":"e04ab780-4b81-4dfe-8702-69cd383d493e","system_id":"levelo_inurba_marseille","lat":43.245,"lon":5.42108,"is_reserved":false,"is_disabled":false,"rental_uris":{"android":"levelo://app?vid=e04ab780-4b81-4dfe-8702-69cd383d493e","ios":"levelo://app?vid=e04ab780-4b81-4dfe-8702-69cd383d493e"},"vehicle_type_id":"4","last_reported":1778653001,"current_range_meters":6800,"station_id":"","pricing_plan_id":"cebpf4jnsgd1na2vs0mg"},{"bike_id":"0d8d1ee2-6697-4694-9005-a8b26e72e692","system_id":"levelo_inurba_marseille","lat":43.29623,"lon":5.38102,"is_reserved":false,"is_disabled":false,"rental_uris":{"android":"levelo://app?vid=0d8d1ee2-6697-4694-9005-a8b26e72e692","ios":"levelo://app?vid=0d8d1ee2-6697-4694-9005-a8b26e72e692"},"vehicle_type_id":"4","last_reported":1778653001,"current_range_meters":6800,"station_id":"ce4bgl12rcd13ifvqbo0","pricing_plan_id":"cebpf4jnsgd1na2vs0mg"},{"bike_id":"f96c72da-1adc-427e-a4c0-30afefc40d90","system_id":"levelo_inurba_marseille","lat":43.28517,"lon":5.44093,"is_reserved":false,"is_disabled":true,"rental_uris":{"android":"levelo://app?vid=f96c72da-1adc-427e-a4c0-30afefc40d90","ios":"levelo://app?vid=f96c72da-1adc-427e-a4c0-30afefc40d90"},"vehicle_type_id":"4","last_reported":1778653001,"current_range_meters":6800,"station_id":"st_d3j3df2ikq2c7380ej80","pricing_plan_id":"cebpf4jnsgd1na2vs0mg"},{"bike_id":"53c3731c-6f39-49cc-9bdc-d53bb71201eb","system_id":"levelo_inurba_marseille","lat":43.30671,"lon":5.40075,"is_reserved":false,"is_disabled":false,"rental_uris":{"android":"levelo://app?vid=53c3731c-6f39-49cc-9bdc-d53bb71201eb","ios":"levelo://app?vid=53c3731c-6f39-49cc-9bdc-d53bb71201eb"},"vehicle_type_id":"4","last_reported":1778653001,"current_range_meters":6800,"station_id":"ce4bh112rcd13ifvqda0","pricing_plan_id":"cebpf4jnsgd1na2vs0mg"},{"bike_id":"5ea6a2e7-b796-4404-9960-22befb31d4a7","system_id":"levelo_inurba_marseille","lat":43.27499,"lon":5.42466,"is_reserved":false,"is_disabled":false,"rental_uris":{"android":"levelo://app?vid=5ea6a2e7-b796-4404-9960-22befb31d4a7","ios":"levelo://app?vid=5ea6a2e7-b796-4404-9960-22befb31d4a7"},"vehicle_type_id":"4","last_reported":1778653001,"current_range_meters":6800,"station_id":"ce4bhn92rcd13ifvqgrg","pricing_plan_id":"cebpf4jnsgd1na2vs0mg"},{"bike_id":"2e172c73-8fd7-4fc9-a807-804ce0f5a8bb","system_id":"levelo_inurba_marseille","lat":43.31373,"lon":5.38492,"is_reserved":false,"is_disabled":false,"rental_uris":{"android":"levelo://app?vid=2e172c73-8fd7-4fc9-a807-804ce0f5a8bb","ios":"levelo://app?vid=2e172c73-8fd7-4fc9-a807-804ce0f5a8bb"},"vehicle_type_id":"4","last_reported":1778653001,"current_range_meters":6800,"station_id":"ce4bgt92rcd13ifvqcf0","pricing_plan_id":"cebpf4jnsgd1na2vs0mg"},{"bike_id":"c86bf7d9-bb52-4428-92d4-6f1bbf9ab470","system_id":"levelo_inurba_marseille","lat":43.23184,"lon":5.39975,"is_reserved":false,"is_disabled":false,"rental_uris":{"android":"levelo://app?vid=c86bf7d9-bb52-4428-92d4-6f1bbf9ab470","ios":"levelo://app?vid=c86bf7d9-bb52-4428-92d4-6f1bbf9ab470"},"vehicle_type_id":"4","last_reported":1778653001,"current_range_meters":6800,"station_id":"ce4bhn12rcd13ifvqgqg","pricing_plan_id":"cebpf4jnsgd1na2vs0mg"},{"bike_id":"573945d6-10da-4f22-8096-cda2709a2714","system_id":"levelo_inurba_marseille","lat":43.24182,"lon":5.39722,"is_reserved":false,"is_disabled":false,"rental_uris":{"android":"levelo://app?vid=573945d6-10da-4f22-8096-cda2709a2714","ios":"levelo://app?vid=573945d6-10da-4f22-8096-cda2709a2714"},"vehicle_type_id":"4","last_reported":1778653001,"current_range_meters":6800,"station_id":"ce4bhn12rcd13ifvqgpg","pricing_plan_id":"cebpf4jnsgd1na2vs0mg"},{"bike_id":"29afd809-35bc-46a6-93fa-7f7a8345f5d1","system_id":"levelo_inurba_marseille","lat":43.29257,"lon":5.38444,"is_reserved":false,"is_disabled":false,"rental_uris":{"android":"levelo://app?vid=29afd809-35bc-46a6-93fa-7f7a8345f5d1","ios":"levelo://app?vid=29afd809-35bc-46a6-93fa-7f7a8345f5d1"},"vehicle_type_id":"4","last_reported":1778653001,"current_range_meters":6800,"station_id":"ce4bh692rcd13ifvqea0","pricing_plan_id":"cebpf4jnsgd1na2vs0mg"},{"bike_id":"f9b67939-8171-44dc-8ed9-d082587fc1d4","system_id":"levelo_inurba_marseille","lat":43.27923,"lon":5.39576,"is_reserved":false,"is_disabled":false,"rental_uris":{"android":"levelo://app?vid=f9b67939-8171-44dc-8ed9-d082587fc1d4","ios":"levelo://app?vid=f9b67939-8171-44dc-8ed9-d082587fc1d4"},"vehicle_type_id":"4","last_reported":1778653001,"current_range_meters":6800,"station_id":"ce4bhf92rcd13ifvqf40","pricing_plan_id":"cebpf4jnsgd1na2vs0mg"},{"bike_id":"fe05840d-fbf6-4459-a552-860cb30bbc2e","system_id":"levelo_inurba_marseille","lat":43.28463,"lon":5.35904,"is_reserved":false,"is_disabled":false,"rental_uris":{"android":"levelo://app?vid=fe05840d-fbf6-4459-a552-860cb30bbc2e","ios":"levelo://app?vid=fe05840d-fbf6-4459-a552-860cb30bbc2e"},"vehicle_type_id":"4","last_reported":1778653001,"current_range_meters":6800,"station_id":"ce4bhah2rcd13ifvqei0","pricing_plan_id":"cebpf4jnsgd1na2vs0mg"},{"bike_id":"73f702fb-dd5a-471c-90cc-142501c193f7","system_id":"levelo_inurba_marseille","lat":43.28694,"lon":5.46681,"is_reserved":false,"is_disabled":false,"rental_uris":{"android":"levelo://app?vid=73f702fb-dd5a-471c-90cc-142501c193f7","ios":"levelo://app?vid=73f702fb-dd5a-471c-90cc-142501c193f7"},"vehicle_type_id":"4","last_reported":1778653001,"current_range_meters":6800,"station_id":"st_d6tc3vkotcvc738tfjhg","pricing_plan_id":"cebpf4jnsgd1na2vs0mg"},{"bike_id":"19e877fd-e015-4a86-8008-1a0d333eea65","system_id":"levelo_inurba_marseille","lat":43.33541,"lon":5.37466,"is_reserved":false,"is_disabled":false,"rental_uris":{"android":"levelo://app?vid=19e877fd-e015-4a86-8008-1a0d333eea65","ios":"levelo://app?vid=19e877fd-e015-4a86-8008-1a0d333eea65"},"vehicle_type_id":"4","last_reported":1778653001,"current_range_meters":7200,"station_id":"st_d46tts09ee8s73dlu43g","pricing_plan_id":"cebpf4jnsgd1na2vs0mg"},{"bike_id":"2aad52d5-6a56-4a4d-b89e-2cdd466252cd","system_id":"levelo_inurba_marseille","lat":43.28785,"lon":5.40002,"is_reserved":false,"is_disabled":true,"rental_uris":{"android":"levelo://app?vid=2aad52d5-6a56-4a4d-b89e-2cdd466252cd","ios":"levelo://app?vid=2aad52d5-6a56-4a4d-b89e-2cdd466252cd"},"vehicle_type_id":"4","last_reported":1778653001,"current_range_meters":7200,"station_id":"","pricing_plan_id":"cebpf4jnsgd1na2vs0mg"},{"bike_id":"4305922b-886a-4e10-98c5-9db56042926a","system_id":"levelo_inurba_marseille","lat":43.29772,"lon":5.37956,"is_reserved":false,"is_disabled":false,"rental_uris":{"android":"levelo://app?vid=4305922b-886a-4e10-98c5-9db56042926a","ios":"levelo://app?vid=4305922b-886a-4e10-98c5-9db56042926a"},"vehicle_type_id":"4","last_reported":1778653001,"current_range_meters":7200,"station_id":"","pricing_plan_id":"cebpf4jnsgd1na2vs0mg"},{"bike_id":"cc35d2bb-6d25-489d-94f5-d5160311de4c","system_id":"levelo_inurba_marseille","lat":43.288594,"lon":5.425146,"is_reserved":false,"is_disabled":true,"rental_uris":{"android":"levelo://app?vid=cc35d2bb-6d25-489d-94f5-d5160311de4c","ios":"levelo://app?vid=cc35d2bb-6d25-489d-94f5-d5160311de4c"},"vehicle_type_id":"4","last_reported":1778653001,"current_range_meters":7200,"station_id":"","pricing_plan_id":"cebpf4jnsgd1na2vs0mg"},{"bike_id":"12831884-053b-433a-b0e0-7a11953437fd","system_id":"levelo_inurba_marseille","lat":43.28418,"lon":5.34979,"is_reserved":false,"is_disabled":false,"rental_uris":{"android":"levelo://app?vid=12831884-053b-433a-b0e0-7a11953437fd","ios":"levelo://app?vid=12831884-053b-433a-b0e0-7a11953437fd"},"vehicle_type_id":"4","last_reported":1778653001,"current_range_meters":7200,"station_id":"ce4bhbh2rcd13ifvqepg","pricing_plan_id":"cebpf4jnsgd1na2vs0mg"},{"bike_id":"ec8cdcb1-f26b-4045-8978-df7f2d6e4a11","system_id":"levelo_inurba_marseille","lat":43.29038,"lon":5.39974,"is_reserved":false,"is_disabled":false,"rental_uris":{"android":"levelo://app?vid=ec8cdcb1-f26b-4045-8978-df7f2d6e4a11","ios":"levelo://app?vid=ec8cdcb1-f26b-4045-8978-df7f2d6e4a11"},"vehicle_type_id":"4","last_reported":1778653001,"current_range_meters":7200,"station_id":"ce4bh392rcd13ifvqdm0","pricing_plan_id":"cebpf4jnsgd1na2vs0mg"},{"bike_id":"2aaf8d3d-dddc-4659-85e7-34b3b97fa5bc","system_id":"levelo_inurba_marseille","lat":43.21216,"lon":5.35077,"is_reserved":false,"is_disabled":false,"rental_uris":{"android":"levelo://app?vid=2aaf8d3d-dddc-4659-85e7-34b3b97fa5bc","ios":"levelo://app?vid=2aaf8d3d-dddc-4659-85e7-34b3b97fa5bc"},"vehicle_type_id":"4","last_reported":1778653001,"current_range_meters":7200,"station_id":"st_cvj6sg6p6f1abm77japg","pricing_plan_id":"cebpf4jnsgd1na2vs0mg"},{"bike_id":"f915b850-cfc7-49b5-8ad0-d9207a829577","system_id":"levelo_inurba_marseille","lat":43.28667,"lon":5.3634,"is_reserved":false,"is_disabled":false,"rental_uris":{"android":"levelo://app?vid=f915b850-cfc7-49b5-8ad0-d9207a829577","ios":"levelo://app?vid=f915b850-cfc7-49b5-8ad0-d9207a829577"},"vehicle_type_id":"4","last_reported":1778653001,"current_range_meters":7200,"station_id":"ce4bhah2rcd13ifvqej0","pricing_plan_id":"cebpf4jnsgd1na2vs0mg"},{"bike_id":"4196c41d-8bac-4f59-809d-20c5bacf0921","system_id":"levelo_inurba_marseille","lat":43.28705,"lon":5.46691,"is_reserved":false,"is_disabled":false,"rental_uris":{"android":"levelo://app?vid=4196c41d-8bac-4f59-809d-20c5bacf0921","ios":"levelo://app?vid=4196c41d-8bac-4f59-809d-20c5bacf0921"},"vehicle_type_id":"4","last_reported":1778653001,"current_range_meters":7200,"station_id":"st_d6tc3vkotcvc738tfjhg","pricing_plan_id":"cebpf4jnsgd1na2vs0mg"},{"bike_id":"d78bbcab-4e4a-479c-aa66-b8f61af62c79","system_id":"levelo_inurba_marseille","lat":43.24073,"lon":5.37765,"is_reserved":false,"is_disabled":false,"rental_uris":{"android":"levelo://app?vid=d78bbcab-4e4a-479c-aa66-b8f61af62c79","ios":"levelo://app?vid=d78bbcab-4e4a-479c-aa66-b8f61af62c79"},"vehicle_type_id":"4","last_reported":1778653001,"current_range_meters":7200,"station_id":"ce4bhnp2rcd13ifvqgvg","pricing_plan_id":"cebpf4jnsgd1na2vs0mg"},{"bike_id":"924c7b02-e21c-4947-adb6-7efece53a228","system_id":"levelo_inurba_marseille","lat":43.23141,"lon":5.4372,"is_reserved":false,"is_disabled":false,"rental_uris":{"android":"levelo://app?vid=924c7b02-e21c-4947-adb6-7efece53a228","ios":"levelo://app?vid=924c7b02-e21c-4947-adb6-7efece53a228"},"vehicle_type_id":"4","last_reported":1778653001,"current_range_meters":7200,"station_id":"ce4bhmp2rcd13ifvqgog","pricing_plan_id":"cebpf4jnsgd1na2vs0mg"},{"bike_id":"73ebc152-839a-466d-b0a1-55030db224aa","system_id":"levelo_inurba_marseille","lat":43.296,"lon":5.38094,"is_reserved":false,"is_disabled":false,"rental_uris":{"android":"levelo://app?vid=73ebc152-839a-466d-b0a1-55030db224aa","ios":"levelo://app?vid=73ebc152-839a-466d-b0a1-55030db224aa"},"vehicle_type_id":"4","last_reported":1778653001,"current_range_meters":7200,"station_id":"ce4bgl12rcd13ifvqbo0","pricing_plan_id":"cebpf4jnsgd1na2vs0mg"},{"bike_id":"28b56359-407e-4fcf-acbd-463d51f163a6","system_id":"levelo_inurba_marseille","lat":43.25113,"lon":5.40332,"is_reserved":false,"is_disabled":false,"rental_uris":{"android":"levelo://app?vid=28b56359-407e-4fcf-acbd-463d51f163a6","ios":"levelo://app?vid=28b56359-407e-4fcf-acbd-463d51f163a6"},"vehicle_type_id":"4","last_reported":1778653001,"current_range_meters":7200,"station_id":"ce4bhlh2rcd13ifvqgig","pricing_plan_id":"cebpf4jnsgd1na2vs0mg"},{"bike_id":"3fd47180-2cb2-4558-99f2-cf2753ea82b4","system_id":"levelo_inurba_marseille","lat":43.29527,"lon":5.39029,"is_reserved":false,"is_disabled":true,"rental_uris":{"android":"levelo://app?vid=3fd47180-2cb2-4558-99f2-cf2753ea82b4","ios":"levelo://app?vid=3fd47180-2cb2-4558-99f2-cf2753ea82b4"},"vehicle_type_id":"4","last_reported":1778653001,"current_range_meters":7200,"station_id":"ce4bh3p2rcd13ifvqdp0","pricing_plan_id":"cebpf4jnsgd1na2vs0mg"},{"bike_id":"e1b6af69-766f-48bb-9170-495af6b9740c","system_id":"levelo_inurba_marseille","lat":43.29048,"lon":5.40004,"is_reserved":false,"is_disabled":false,"rental_uris":{"android":"levelo://app?vid=e1b6af69-766f-48bb-9170-495af6b9740c","ios":"levelo://app?vid=e1b6af69-766f-48bb-9170-495af6b9740c"},"vehicle_type_id":"4","last_reported":1778653001,"current_range_meters":7200,"station_id":"ce4bh392rcd13ifvqdm0","pricing_plan_id":"cebpf4jnsgd1na2vs0mg"},{"bike_id":"7d495a91-4757-4bd7-b72f-ad237a9371f1","system_id":"levelo_inurba_marseille","lat":43.21178,"lon":5.3508,"is_reserved":false,"is_disabled":false,"rental_uris":{"android":"levelo://app?vid=7d495a91-4757-4bd7-b72f-ad237a9371f1","ios":"levelo://app?vid=7d495a91-4757-4bd7-b72f-ad237a9371f1"},"vehicle_type_id":"4","last_reported":1778653001,"current_range_meters":7200,"station_id":"st_cvj6sg6p6f1abm77japg","pricing_plan_id":"cebpf4jnsgd1na2vs0mg"},{"bike_id":"1da6257b-f1af-4a48-8996-6c5a6ab19545","system_id":"levelo_inurba_marseille","lat":43.24666,"lon":5.38165,"is_reserved":false,"is_disabled":false,"rental_uris":{"android":"levelo://app?vid=1da6257b-f1af-4a48-8996-6c5a6ab19545","ios":"levelo://app?vid=1da6257b-f1af-4a48-8996-6c5a6ab19545"},"vehicle_type_id":"4","last_reported":1778653001,"current_range_meters":7200,"station_id":"ce4bhih2rcd13ifvqfr0","pricing_plan_id":"cebpf4jnsgd1na2vs0mg"},{"bike_id":"6ce9189e-3bcd-44c8-90a0-8435ca9bae4a","system_id":"levelo_inurba_marseille","lat":43.28019,"lon":5.39311,"is_reserved":false,"is_disabled":false,"rental_uris":{"android":"levelo://app?vid=6ce9189e-3bcd-44c8-90a0-8435ca9bae4a","ios":"levelo://app?vid=6ce9189e-3bcd-44c8-90a0-8435ca9bae4a"},"vehicle_type_id":"4","last_reported":1778653001,"current_range_meters":7200,"station_id":"","pricing_plan_id":"cebpf4jnsgd1na2vs0mg"},{"bike_id":"f89dc7a0-fe47-41cb-ba00-70c80de88b25","system_id":"levelo_inurba_marseille","lat":43.24664,"lon":5.38155,"is_reserved":false,"is_disabled":false,"rental_uris":{"android":"levelo://app?vid=f89dc7a0-fe47-41cb-ba00-70c80de88b25","ios":"levelo://app?vid=f89dc7a0-fe47-41cb-ba00-70c80de88b25"},"vehicle_type_id":"4","last_reported":1778653001,"current_range_meters":8000,"station_id":"ce4bhih2rcd13ifvqfr0","pricing_plan_id":"cebpf4jnsgd1na2vs0mg"},{"bike_id":"6ea7469e-79db-4396-966b-8583788ff817","system_id":"levelo_inurba_marseille","lat":43.309122,"lon":5.368447,"is_reserved":false,"is_disabled":false,"rental_uris":{"android":"levelo://app?vid=6ea7469e-79db-4396-966b-8583788ff817","ios":"levelo://app?vid=6ea7469e-79db-4396-966b-8583788ff817"},"vehicle_type_id":"4","last_reported":1778653001,"current_range_meters":8000,"station_id":"ce4bgn92rcd13ifvqbvg","pricing_plan_id":"cebpf4jnsgd1na2vs0mg"},{"bike_id":"a073844e-70ad-469b-9486-00db4f8e69dc","system_id":"levelo_inurba_marseille","lat":43.3144,"lon":5.37392,"is_reserved":false,"is_disabled":false,"rental_uris":{"android":"levelo://app?vid=a073844e-70ad-469b-9486-00db4f8e69dc","ios":"levelo://app?vid=a073844e-70ad-469b-9486-00db4f8e69dc"},"vehicle_type_id":"4","last_reported":1778653001,"current_range_meters":8000,"station_id":"","pricing_plan_id":"cebpf4jnsgd1na2vs0mg"},{"bike_id":"f2a38a5b-b7fa-4592-b5b3-6940a16ec4ef","system_id":"levelo_inurba_marseille","lat":43.28421,"lon":5.34969,"is_reserved":false,"is_disabled":false,"rental_uris":{"android":"levelo://app?vid=f2a38a5b-b7fa-4592-b5b3-6940a16ec4ef","ios":"levelo://app?vid=f2a38a5b-b7fa-4592-b5b3-6940a16ec4ef"},"vehicle_type_id":"4","last_reported":1778653001,"current_range_meters":8000,"station_id":"ce4bhbh2rcd13ifvqepg","pricing_plan_id":"cebpf4jnsgd1na2vs0mg"},{"bike_id":"8c3176fb-911f-46c7-9bb6-9f2fd9293ea6","system_id":"levelo_inurba_marseille","lat":43.25342,"lon":5.42154,"is_reserved":false,"is_disabled":false,"rental_uris":{"android":"levelo://app?vid=8c3176fb-911f-46c7-9bb6-9f2fd9293ea6","ios":"levelo://app?vid=8c3176fb-911f-46c7-9bb6-9f2fd9293ea6"},"vehicle_type_id":"4","last_reported":1778653001,"current_range_meters":8000,"station_id":"st_d2m65c5bi1j21697t3ng","pricing_plan_id":"cebpf4jnsgd1na2vs0mg"},{"bike_id":"68bbdbe7-9f72-4642-9f37-9ae265a9daa7","system_id":"levelo_inurba_marseille","lat":43.24469,"lon":5.42541,"is_reserved":false,"is_disabled":false,"rental_uris":{"android":"levelo://app?vid=68bbdbe7-9f72-4642-9f37-9ae265a9daa7","ios":"levelo://app?vid=68bbdbe7-9f72-4642-9f37-9ae265a9daa7"},"vehicle_type_id":"4","last_reported":1778653001,"current_range_meters":8000,"station_id":"st_d4a3vfp97mjs738cd8kg","pricing_plan_id":"cebpf4jnsgd1na2vs0mg"},{"bike_id":"88721549-cd88-4d1d-8f8a-61e1680e37ae","system_id":"levelo_inurba_marseille","lat":43.27919,"lon":5.39585,"is_reserved":false,"is_disabled":false,"rental_uris":{"android":"levelo://app?vid=88721549-cd88-4d1d-8f8a-61e1680e37ae","ios":"levelo://app?vid=88721549-cd88-4d1d-8f8a-61e1680e37ae"},"vehicle_type_id":"4","last_reported":1778653001,"current_range_meters":8000,"station_id":"ce4bhf92rcd13ifvqf40","pricing_plan_id":"cebpf4jnsgd1na2vs0mg"},{"bike_id":"8124d941-3105-4cbf-a823-508970bbb225","system_id":"levelo_inurba_marseille","lat":43.28464,"lon":5.35889,"is_reserved":false,"is_disabled":false,"rental_uris":{"android":"levelo://app?vid=8124d941-3105-4cbf-a823-508970bbb225","ios":"levelo://app?vid=8124d941-3105-4cbf-a823-508970bbb225"},"vehicle_type_id":"4","last_reported":1778653001,"current_range_meters":8000,"station_id":"ce4bhah2rcd13ifvqei0","pricing_plan_id":"cebpf4jnsgd1na2vs0mg"},{"bike_id":"10add21a-2d9c-47b1-82ae-7b22a0e1b19c","system_id":"levelo_inurba_marseille","lat":43.29076,"lon":5.38135,"is_reserved":false,"is_disabled":false,"rental_uris":{"android":"levelo://app?vid=10add21a-2d9c-47b1-82ae-7b22a0e1b19c","ios":"levelo://app?vid=10add21a-2d9c-47b1-82ae-7b22a0e1b19c"},"vehicle_type_id":"4","last_reported":1778653001,"current_range_meters":8000,"station_id":"ce4bh512rcd13ifvqe2g","pricing_plan_id":"cebpf4jnsgd1na2vs0mg"},{"bike_id":"ebeb9a83-48aa-43c9-b54c-394721dfd3a6","system_id":"levelo_inurba_marseille","lat":43.29808,"lon":5.38094,"is_reserved":false,"is_disabled":false,"rental_uris":{"android":"levelo://app?vid=ebeb9a83-48aa-43c9-b54c-394721dfd3a6","ios":"levelo://app?vid=ebeb9a83-48aa-43c9-b54c-394721dfd3a6"},"vehicle_type_id":"4","last_reported":1778653001,"current_range_meters":8000,"station_id":"ce4bgip2rcd13ifvqbb0","pricing_plan_id":"cebpf4jnsgd1na2vs0mg"},{"bike_id":"0ad9f56c-0cb1-4ddd-bfff-c7b211f4a077","system_id":"levelo_inurba_marseille","lat":43.23463,"lon":5.37227,"is_reserved":false,"is_disabled":false,"rental_uris":{"android":"levelo://app?vid=0ad9f56c-0cb1-4ddd-bfff-c7b211f4a077","ios":"levelo://app?vid=0ad9f56c-0cb1-4ddd-bfff-c7b211f4a077"},"vehicle_type_id":"4","last_reported":1778653001,"current_range_meters":8000,"station_id":"","pricing_plan_id":"cebpf4jnsgd1na2vs0mg"},{"bike_id":"8557eed9-8cc8-4fab-9b14-ff68e92f5bb2","system_id":"levelo_inurba_marseille","lat":43.30599,"lon":5.37228,"is_reserved":false,"is_disabled":false,"rental_uris":{"android":"levelo://app?vid=8557eed9-8cc8-4fab-9b14-ff68e92f5bb2","ios":"levelo://app?vid=8557eed9-8cc8-4fab-9b14-ff68e92f5bb2"},"vehicle_type_id":"4","last_reported":1778653001,"current_range_meters":8000,"station_id":"ce4bgqh2rcd13ifvqc4g","pricing_plan_id":"cebpf4jnsgd1na2vs0mg"},{"bike_id":"6f8b0d63-4a27-4c64-8991-130a8e2c7266","system_id":"levelo_inurba_marseille","lat":43.33149,"lon":5.37682,"is_reserved":false,"is_disabled":false,"rental_uris":{"android":"levelo://app?vid=6f8b0d63-4a27-4c64-8991-130a8e2c7266","ios":"levelo://app?vid=6f8b0d63-4a27-4c64-8991-130a8e2c7266"},"vehicle_type_id":"4","last_reported":1778653001,"current_range_meters":8000,"station_id":"st_d46cu089ee8s73dldbu0","pricing_plan_id":"cebpf4jnsgd1na2vs0mg"},{"bike_id":"a709b6ef-f312-46cf-88a4-dc4fc9ef11f0","system_id":"levelo_inurba_marseille","lat":43.24075,"lon":5.37756,"is_reserved":false,"is_disabled":false,"rental_uris":{"android":"levelo://app?vid=a709b6ef-f312-46cf-88a4-dc4fc9ef11f0","ios":"levelo://app?vid=a709b6ef-f312-46cf-88a4-dc4fc9ef11f0"},"vehicle_type_id":"4","last_reported":1778653001,"current_range_meters":8000,"station_id":"ce4bhnp2rcd13ifvqgvg","pricing_plan_id":"cebpf4jnsgd1na2vs0mg"},{"bike_id":"e267adc5-5f11-46b6-a0f3-78f119b246da","system_id":"levelo_inurba_marseille","lat":43.23187,"lon":5.40004,"is_reserved":false,"is_disabled":false,"rental_uris":{"android":"levelo://app?vid=e267adc5-5f11-46b6-a0f3-78f119b246da","ios":"levelo://app?vid=e267adc5-5f11-46b6-a0f3-78f119b246da"},"vehicle_type_id":"4","last_reported":1778653001,"current_range_meters":8000,"station_id":"ce4bhn12rcd13ifvqgqg","pricing_plan_id":"cebpf4jnsgd1na2vs0mg"},{"bike_id":"af5d22c8-b2bc-4472-bf0d-5c11b3d4e2f1","system_id":"levelo_inurba_marseille","lat":43.2886,"lon":5.42512,"is_reserved":false,"is_disabled":false,"rental_uris":{"android":"levelo://app?vid=af5d22c8-b2bc-4472-bf0d-5c11b3d4e2f1","ios":"levelo://app?vid=af5d22c8-b2bc-4472-bf0d-5c11b3d4e2f1"},"vehicle_type_id":"4","last_reported":1778653001,"current_range_meters":8000,"station_id":"st_d3b462108ojc7389ooeg","pricing_plan_id":"cebpf4jnsgd1na2vs0mg"},{"bike_id":"44769a63-2434-4160-917d-9d5801eaf9ed","system_id":"levelo_inurba_marseille","lat":43.23966,"lon":5.36619,"is_reserved":false,"is_disabled":false,"rental_uris":{"android":"levelo://app?vid=44769a63-2434-4160-917d-9d5801eaf9ed","ios":"levelo://app?vid=44769a63-2434-4160-917d-9d5801eaf9ed"},"vehicle_type_id":"4","last_reported":1778653001,"current_range_meters":8400,"station_id":"ce4bhi12rcd13ifvqfp0","pricing_plan_id":"cebpf4jnsgd1na2vs0mg"},{"bike_id":"b477be1e-64c7-4e90-bc42-6fe97cda14a2","system_id":"levelo_inurba_marseille","lat":43.29825,"lon":5.42092,"is_reserved":false,"is_disabled":false,"rental_uris":{"android":"levelo://app?vid=b477be1e-64c7-4e90-bc42-6fe97cda14a2","ios":"levelo://app?vid=b477be1e-64c7-4e90-bc42-6fe97cda14a2"},"vehicle_type_id":"4","last_reported":1778653001,"current_range_meters":8400,"station_id":"","pricing_plan_id":"cebpf4jnsgd1na2vs0mg"},{"bike_id":"83fa7db2-04cd-4fd4-90ba-2f214eec54af","system_id":"levelo_inurba_marseille","lat":43.31215,"lon":5.3687,"is_reserved":false,"is_disabled":false,"rental_uris":{"android":"levelo://app?vid=83fa7db2-04cd-4fd4-90ba-2f214eec54af","ios":"levelo://app?vid=83fa7db2-04cd-4fd4-90ba-2f214eec54af"},"vehicle_type_id":"4","last_reported":1778653001,"current_range_meters":8400,"station_id":"ce4bgl92rcd13ifvqbq0","pricing_plan_id":"cebpf4jnsgd1na2vs0mg"},{"bike_id":"b0fa62c4-8e6e-443d-b874-58065c9ec11d","system_id":"levelo_inurba_marseille","lat":43.29265,"lon":5.36838,"is_reserved":false,"is_disabled":true,"rental_uris":{"android":"levelo://app?vid=b0fa62c4-8e6e-443d-b874-58065c9ec11d","ios":"levelo://app?vid=b0fa62c4-8e6e-443d-b874-58065c9ec11d"},"vehicle_type_id":"4","last_reported":1778653001,"current_range_meters":8400,"station_id":"ce4bhbp2rcd13ifvqesg","pricing_plan_id":"cebpf4jnsgd1na2vs0mg"},{"bike_id":"37295ca2-1cff-4229-9eaf-59ac60f1d8f3","system_id":"levelo_inurba_marseille","lat":43.305907,"lon":5.393749,"is_reserved":false,"is_disabled":false,"rental_uris":{"android":"levelo://app?vid=37295ca2-1cff-4229-9eaf-59ac60f1d8f3","ios":"levelo://app?vid=37295ca2-1cff-4229-9eaf-59ac60f1d8f3"},"vehicle_type_id":"4","last_reported":1778653001,"current_range_meters":8400,"station_id":"ce4bh0p2rcd13ifvqd80","pricing_plan_id":"cebpf4jnsgd1na2vs0mg"},{"bike_id":"638f0fd9-8092-4d8b-9b9b-e7a2a736b653","system_id":"levelo_inurba_marseille","lat":43.2751,"lon":5.41579,"is_reserved":false,"is_disabled":true,"rental_uris":{"android":"levelo://app?vid=638f0fd9-8092-4d8b-9b9b-e7a2a736b653","ios":"levelo://app?vid=638f0fd9-8092-4d8b-9b9b-e7a2a736b653"},"vehicle_type_id":"4","last_reported":1778653001,"current_range_meters":8400,"station_id":"st_d6im8g6chgec73a5pndg","pricing_plan_id":"cebpf4jnsgd1na2vs0mg"},{"bike_id":"56ea46e6-ad63-4f03-af1a-61e57b5c8483","system_id":"levelo_inurba_marseille","lat":43.31494,"lon":5.37294,"is_reserved":false,"is_disabled":false,"rental_uris":{"android":"levelo://app?vid=56ea46e6-ad63-4f03-af1a-61e57b5c8483","ios":"levelo://app?vid=56ea46e6-ad63-4f03-af1a-61e57b5c8483"},"vehicle_type_id":"4","last_reported":1778653001,"current_range_meters":8400,"station_id":"ce4bgt12rcd13ifvqcd0","pricing_plan_id":"cebpf4jnsgd1na2vs0mg"},{"bike_id":"cd3bf1fa-127b-48f3-b4b1-cec37ebb83c9","system_id":"levelo_inurba_marseille","lat":43.23802,"lon":5.36615,"is_reserved":false,"is_disabled":false,"rental_uris":{"android":"levelo://app?vid=cd3bf1fa-127b-48f3-b4b1-cec37ebb83c9","ios":"levelo://app?vid=cd3bf1fa-127b-48f3-b4b1-cec37ebb83c9"},"vehicle_type_id":"4","last_reported":1778653001,"current_range_meters":8400,"station_id":"st_d3nk18o9ro0c73en2l3g","pricing_plan_id":"cebpf4jnsgd1na2vs0mg"},{"bike_id":"494e0f53-a137-4652-b071-f0f61a244817","system_id":"levelo_inurba_marseille","lat":43.32105,"lon":5.36764,"is_reserved":false,"is_disabled":false,"rental_uris":{"android":"levelo://app?vid=494e0f53-a137-4652-b071-f0f61a244817","ios":"levelo://app?vid=494e0f53-a137-4652-b071-f0f61a244817"},"vehicle_type_id":"4","last_reported":1778653001,"current_range_meters":8400,"station_id":"ce4bhrh2rcd13ifvqhug","pricing_plan_id":"cebpf4jnsgd1na2vs0mg"},{"bike_id":"94ad0b25-5e51-427b-975e-dbf854287092","system_id":"levelo_inurba_marseille","lat":43.27343,"lon":5.3906,"is_reserved":false,"is_disabled":true,"rental_uris":{"android":"levelo://app?vid=94ad0b25-5e51-427b-975e-dbf854287092","ios":"levelo://app?vid=94ad0b25-5e51-427b-975e-dbf854287092"},"vehicle_type_id":"4","last_reported":1778653001,"current_range_meters":8400,"station_id":"ce4bhgp2rcd13ifvqfe0","pricing_plan_id":"cebpf4jnsgd1na2vs0mg"},{"bike_id":"3d95dae9-85ab-44e3-b010-0a474bda0f12","system_id":"levelo_inurba_marseille","lat":43.26238,"lon":5.38795,"is_reserved":false,"is_disabled":false,"rental_uris":{"android":"levelo://app?vid=3d95dae9-85ab-44e3-b010-0a474bda0f12","ios":"levelo://app?vid=3d95dae9-85ab-44e3-b010-0a474bda0f12"},"vehicle_type_id":"4","last_reported":1778653001,"current_range_meters":8400,"station_id":"","pricing_plan_id":"cebpf4jnsgd1na2vs0mg"},{"bike_id":"0f4737e3-ea14-4450-bda7-44cc6b397253","system_id":"levelo_inurba_marseille","lat":43.29608,"lon":5.38101,"is_reserved":false,"is_disabled":false,"rental_uris":{"android":"levelo://app?vid=0f4737e3-ea14-4450-bda7-44cc6b397253","ios":"levelo://app?vid=0f4737e3-ea14-4450-bda7-44cc6b397253"},"vehicle_type_id":"4","last_reported":1778653001,"current_range_meters":8400,"station_id":"ce4bgl12rcd13ifvqbo0","pricing_plan_id":"cebpf4jnsgd1na2vs0mg"},{"bike_id":"83bf6ff6-004d-42fd-86ae-3a44ccdd11f7","system_id":"levelo_inurba_marseille","lat":43.22939,"lon":5.35418,"is_reserved":false,"is_disabled":true,"rental_uris":{"android":"levelo://app?vid=83bf6ff6-004d-42fd-86ae-3a44ccdd11f7","ios":"levelo://app?vid=83bf6ff6-004d-42fd-86ae-3a44ccdd11f7"},"vehicle_type_id":"4","last_reported":1778653001,"current_range_meters":8400,"station_id":"cpo3532slgdg3j2ikp40","pricing_plan_id":"cebpf4jnsgd1na2vs0mg"},{"bike_id":"985e4bde-d65e-4572-9610-9f0146b74e17","system_id":"levelo_inurba_marseille","lat":43.2827,"lon":5.35061,"is_reserved":false,"is_disabled":false,"rental_uris":{"android":"levelo://app?vid=985e4bde-d65e-4572-9610-9f0146b74e17","ios":"levelo://app?vid=985e4bde-d65e-4572-9610-9f0146b74e17"},"vehicle_type_id":"4","last_reported":1778653001,"current_range_meters":8400,"station_id":"ce4bhbp2rcd13ifvqerg","pricing_plan_id":"cebpf4jnsgd1na2vs0mg"},{"bike_id":"30f8e6d4-83a6-4a92-a859-a35a296eed10","system_id":"levelo_inurba_marseille","lat":43.24064,"lon":5.37711,"is_reserved":false,"is_disabled":false,"rental_uris":{"android":"levelo://app?vid=30f8e6d4-83a6-4a92-a859-a35a296eed10","ios":"levelo://app?vid=30f8e6d4-83a6-4a92-a859-a35a296eed10"},"vehicle_type_id":"4","last_reported":1778653001,"current_range_meters":8400,"station_id":"ce4bhnp2rcd13ifvqgvg","pricing_plan_id":"cebpf4jnsgd1na2vs0mg"},{"bike_id":"d1907652-6ca2-4440-a1ea-6d56ba76f62e","system_id":"levelo_inurba_marseille","lat":43.28144,"lon":5.42621,"is_reserved":false,"is_disabled":false,"rental_uris":{"android":"levelo://app?vid=d1907652-6ca2-4440-a1ea-6d56ba76f62e","ios":"levelo://app?vid=d1907652-6ca2-4440-a1ea-6d56ba76f62e"},"vehicle_type_id":"4","last_reported":1778653001,"current_range_meters":8400,"station_id":"ce4bhnh2rcd13ifvqgug","pricing_plan_id":"cebpf4jnsgd1na2vs0mg"},{"bike_id":"190e1df1-9ae7-4b10-8f66-3bf16b4ae39c","system_id":"levelo_inurba_marseille","lat":43.24807,"lon":5.37447,"is_reserved":false,"is_disabled":false,"rental_uris":{"android":"levelo://app?vid=190e1df1-9ae7-4b10-8f66-3bf16b4ae39c","ios":"levelo://app?vid=190e1df1-9ae7-4b10-8f66-3bf16b4ae39c"},"vehicle_type_id":"4","last_reported":1778653001,"current_range_meters":8400,"station_id":"ce4bhgh2rcd13ifvqfb0","pricing_plan_id":"cebpf4jnsgd1na2vs0mg"},{"bike_id":"78f52f56-ce15-4e9b-b104-4fff16726b0b","system_id":"levelo_inurba_marseille","lat":43.30436,"lon":5.38893,"is_reserved":false,"is_disabled":true,"rental_uris":{"android":"levelo://app?vid=78f52f56-ce15-4e9b-b104-4fff16726b0b","ios":"levelo://app?vid=78f52f56-ce15-4e9b-b104-4fff16726b0b"},"vehicle_type_id":"4","last_reported":1778653001,"current_range_meters":8400,"station_id":"ce4bgk12rcd13ifvqbi0","pricing_plan_id":"cebpf4jnsgd1na2vs0mg"},{"bike_id":"6b1b5308-5e42-4b6a-84ff-01ec37fd1341","system_id":"levelo_inurba_marseille","lat":43.29613,"lon":5.38098,"is_reserved":false,"is_disabled":false,"rental_uris":{"android":"levelo://app?vid=6b1b5308-5e42-4b6a-84ff-01ec37fd1341","ios":"levelo://app?vid=6b1b5308-5e42-4b6a-84ff-01ec37fd1341"},"vehicle_type_id":"4","last_reported":1778653001,"current_range_meters":8400,"station_id":"ce4bgl12rcd13ifvqbo0","pricing_plan_id":"cebpf4jnsgd1na2vs0mg"},{"bike_id":"a931716f-f8af-4b5c-9dee-9a6ca36a076c","system_id":"levelo_inurba_marseille","lat":43.30125,"lon":5.43107,"is_reserved":false,"is_disabled":false,"rental_uris":{"android":"levelo://app?vid=a931716f-f8af-4b5c-9dee-9a6ca36a076c","ios":"levelo://app?vid=a931716f-f8af-4b5c-9dee-9a6ca36a076c"},"vehicle_type_id":"4","last_reported":1778653001,"current_range_meters":8400,"station_id":"st_d3js3co5814s73ftftug","pricing_plan_id":"cebpf4jnsgd1na2vs0mg"},{"bike_id":"fd120c8e-b042-4872-a431-5878bd1d4208","system_id":"levelo_inurba_marseille","lat":43.28681,"lon":5.36365,"is_reserved":false,"is_disabled":false,"rental_uris":{"android":"levelo://app?vid=fd120c8e-b042-4872-a431-5878bd1d4208","ios":"levelo://app?vid=fd120c8e-b042-4872-a431-5878bd1d4208"},"vehicle_type_id":"4","last_reported":1778653001,"current_range_meters":8400,"station_id":"ce4bhah2rcd13ifvqej0","pricing_plan_id":"cebpf4jnsgd1na2vs0mg"},{"bike_id":"64b62b18-b814-4dc3-8090-c8c0105a73f8","system_id":"levelo_inurba_marseille","lat":43.299713,"lon":5.37188,"is_reserved":false,"is_disabled":false,"rental_uris":{"android":"levelo://app?vid=64b62b18-b814-4dc3-8090-c8c0105a73f8","ios":"levelo://app?vid=64b62b18-b814-4dc3-8090-c8c0105a73f8"},"vehicle_type_id":"4","last_reported":1778653001,"current_range_meters":8800,"station_id":"ce4bgr92rcd13ifvqc7g","pricing_plan_id":"cebpf4jnsgd1na2vs0mg"},{"bike_id":"36e3a8e3-2e71-44bc-bd7c-83db99a2b6ca","system_id":"levelo_inurba_marseille","lat":43.25868,"lon":5.39903,"is_reserved":false,"is_disabled":false,"rental_uris":{"android":"levelo://app?vid=36e3a8e3-2e71-44bc-bd7c-83db99a2b6ca","ios":"levelo://app?vid=36e3a8e3-2e71-44bc-bd7c-83db99a2b6ca"},"vehicle_type_id":"4","last_reported":1778653001,"current_range_meters":8800,"station_id":"ce4bhl92rcd13ifvqghg","pricing_plan_id":"cebpf4jnsgd1na2vs0mg"},{"bike_id":"dd9124d2-eae5-4f60-ad7a-7ef70e61f6d7","system_id":"levelo_inurba_marseille","lat":43.33536,"lon":5.37464,"is_reserved":false,"is_disabled":false,"rental_uris":{"android":"levelo://app?vid=dd9124d2-eae5-4f60-ad7a-7ef70e61f6d7","ios":"levelo://app?vid=dd9124d2-eae5-4f60-ad7a-7ef70e61f6d7"},"vehicle_type_id":"4","last_reported":1778653001,"current_range_meters":8800,"station_id":"st_d46tts09ee8s73dlu43g","pricing_plan_id":"cebpf4jnsgd1na2vs0mg"},{"bike_id":"addd53b9-5bfd-4c82-ad90-0a6f9e020b2f","system_id":"levelo_inurba_marseille","lat":43.29201,"lon":5.39315,"is_reserved":false,"is_disabled":false,"rental_uris":{"android":"levelo://app?vid=addd53b9-5bfd-4c82-ad90-0a6f9e020b2f","ios":"levelo://app?vid=addd53b9-5bfd-4c82-ad90-0a6f9e020b2f"},"vehicle_type_id":"4","last_reported":1778653001,"current_range_meters":8800,"station_id":"ce4bh192rcd13ifvqdd0","pricing_plan_id":"cebpf4jnsgd1na2vs0mg"},{"bike_id":"0d4108f6-0c96-4efa-83bb-779a347167c3","system_id":"levelo_inurba_marseille","lat":43.28368,"lon":5.38629,"is_reserved":false,"is_disabled":false,"rental_uris":{"android":"levelo://app?vid=0d4108f6-0c96-4efa-83bb-779a347167c3","ios":"levelo://app?vid=0d4108f6-0c96-4efa-83bb-779a347167c3"},"vehicle_type_id":"4","last_reported":1778653001,"current_range_meters":8800,"station_id":"ce4bh492rcd13ifvqdvg","pricing_plan_id":"cebpf4jnsgd1na2vs0mg"},{"bike_id":"051a8fe3-bea7-4db5-b78e-e741b08997a1","system_id":"levelo_inurba_marseille","lat":43.23896,"lon":5.37457,"is_reserved":false,"is_disabled":false,"rental_uris":{"android":"levelo://app?vid=051a8fe3-bea7-4db5-b78e-e741b08997a1","ios":"levelo://app?vid=051a8fe3-bea7-4db5-b78e-e741b08997a1"},"vehicle_type_id":"4","last_reported":1778653001,"current_range_meters":8800,"station_id":"st_d6sm7csbq4hs73f8fpjg","pricing_plan_id":"cebpf4jnsgd1na2vs0mg"},{"bike_id":"01b224ee-4c63-40d9-b70d-9fb6c651d396","system_id":"levelo_inurba_marseille","lat":43.29253,"lon":5.40899,"is_reserved":false,"is_disabled":true,"rental_uris":{"android":"levelo://app?vid=01b224ee-4c63-40d9-b70d-9fb6c651d396","ios":"levelo://app?vid=01b224ee-4c63-40d9-b70d-9fb6c651d396"},"vehicle_type_id":"4","last_reported":1778653001,"current_range_meters":8800,"station_id":"ce4bh192rcd13ifvqdc0","pricing_plan_id":"cebpf4jnsgd1na2vs0mg"},{"bike_id":"c835fd90-a60f-4c5f-80e1-644bc17fdd31","system_id":"levelo_inurba_marseille","lat":43.31339,"lon":5.39698,"is_reserved":false,"is_disabled":true,"rental_uris":{"android":"levelo://app?vid=c835fd90-a60f-4c5f-80e1-644bc17fdd31","ios":"levelo://app?vid=c835fd90-a60f-4c5f-80e1-644bc17fdd31"},"vehicle_type_id":"4","last_reported":1778653001,"current_range_meters":8800,"station_id":"ce4bgvp2rcd13ifvqcu0","pricing_plan_id":"cebpf4jnsgd1na2vs0mg"},{"bike_id":"9efa362d-c494-4db9-9a08-175bd2d5550d","system_id":"levelo_inurba_marseille","lat":43.30791,"lon":5.37656,"is_reserved":false,"is_disabled":false,"rental_uris":{"android":"levelo://app?vid=9efa362d-c494-4db9-9a08-175bd2d5550d","ios":"levelo://app?vid=9efa362d-c494-4db9-9a08-175bd2d5550d"},"vehicle_type_id":"4","last_reported":1778653001,"current_range_meters":8800,"station_id":"ce4bgv92rcd13ifvqcq0","pricing_plan_id":"cebpf4jnsgd1na2vs0mg"},{"bike_id":"31abb592-14a8-40e9-9f25-0686c844fefe","system_id":"levelo_inurba_marseille","lat":43.28268,"lon":5.35078,"is_reserved":false,"is_disabled":false,"rental_uris":{"android":"levelo://app?vid=31abb592-14a8-40e9-9f25-0686c844fefe","ios":"levelo://app?vid=31abb592-14a8-40e9-9f25-0686c844fefe"},"vehicle_type_id":"4","last_reported":1778653001,"current_range_meters":8800,"station_id":"ce4bhbp2rcd13ifvqerg","pricing_plan_id":"cebpf4jnsgd1na2vs0mg"},{"bike_id":"dd9d2dfb-afdd-4bed-aa38-8b17dff351c8","system_id":"levelo_inurba_marseille","lat":43.26941,"lon":5.40276,"is_reserved":false,"is_disabled":true,"rental_uris":{"android":"levelo://app?vid=dd9d2dfb-afdd-4bed-aa38-8b17dff351c8","ios":"levelo://app?vid=dd9d2dfb-afdd-4bed-aa38-8b17dff351c8"},"vehicle_type_id":"4","last_reported":1778653001,"current_range_meters":8800,"station_id":"cjm6bp8fraef2m0cb0m0","pricing_plan_id":"cebpf4jnsgd1na2vs0mg"},{"bike_id":"21207ad8-01da-4b18-a352-87a6a5a53d45","system_id":"levelo_inurba_marseille","lat":43.29039,"lon":5.39958,"is_reserved":false,"is_disabled":false,"rental_uris":{"android":"levelo://app?vid=21207ad8-01da-4b18-a352-87a6a5a53d45","ios":"levelo://app?vid=21207ad8-01da-4b18-a352-87a6a5a53d45"},"vehicle_type_id":"4","last_reported":1778653001,"current_range_meters":8800,"station_id":"ce4bh392rcd13ifvqdm0","pricing_plan_id":"cebpf4jnsgd1na2vs0mg"},{"bike_id":"0190f8d2-01b2-4ee2-9e86-e1660dcf0b09","system_id":"levelo_inurba_marseille","lat":43.28415,"lon":5.35003,"is_reserved":false,"is_disabled":false,"rental_uris":{"android":"levelo://app?vid=0190f8d2-01b2-4ee2-9e86-e1660dcf0b09","ios":"levelo://app?vid=0190f8d2-01b2-4ee2-9e86-e1660dcf0b09"},"vehicle_type_id":"4","last_reported":1778653001,"current_range_meters":8800,"station_id":"ce4bhbh2rcd13ifvqepg","pricing_plan_id":"cebpf4jnsgd1na2vs0mg"},{"bike_id":"3506286c-7dd6-4125-bb3f-687c1b81cf5c","system_id":"levelo_inurba_marseille","lat":43.23197,"lon":5.39989,"is_reserved":false,"is_disabled":false,"rental_uris":{"android":"levelo://app?vid=3506286c-7dd6-4125-bb3f-687c1b81cf5c","ios":"levelo://app?vid=3506286c-7dd6-4125-bb3f-687c1b81cf5c"},"vehicle_type_id":"4","last_reported":1778653001,"current_range_meters":8800,"station_id":"ce4bhn12rcd13ifvqgqg","pricing_plan_id":"cebpf4jnsgd1na2vs0mg"},{"bike_id":"4ed34391-f5d4-4f34-9e81-72d6a65ff383","system_id":"levelo_inurba_marseille","lat":43.27921,"lon":5.39583,"is_reserved":false,"is_disabled":true,"rental_uris":{"android":"levelo://app?vid=4ed34391-f5d4-4f34-9e81-72d6a65ff383","ios":"levelo://app?vid=4ed34391-f5d4-4f34-9e81-72d6a65ff383"},"vehicle_type_id":"4","last_reported":1778653001,"current_range_meters":8800,"station_id":"ce4bhf92rcd13ifvqf40","pricing_plan_id":"cebpf4jnsgd1na2vs0mg"},{"bike_id":"fb567466-8006-4d5b-a092-6f14e5e54c1b","system_id":"levelo_inurba_marseille","lat":43.30263,"lon":5.40088,"is_reserved":false,"is_disabled":false,"rental_uris":{"android":"levelo://app?vid=fb567466-8006-4d5b-a092-6f14e5e54c1b","ios":"levelo://app?vid=fb567466-8006-4d5b-a092-6f14e5e54c1b"},"vehicle_type_id":"4","last_reported":1778653001,"current_range_meters":8800,"station_id":"ce4bgvh2rcd13ifvqcs0","pricing_plan_id":"cebpf4jnsgd1na2vs0mg"},{"bike_id":"91d5ec01-2658-4e1f-af1a-245fb7ea3595","system_id":"levelo_inurba_marseille","lat":43.287,"lon":5.46685,"is_reserved":false,"is_disabled":false,"rental_uris":{"android":"levelo://app?vid=91d5ec01-2658-4e1f-af1a-245fb7ea3595","ios":"levelo://app?vid=91d5ec01-2658-4e1f-af1a-245fb7ea3595"},"vehicle_type_id":"4","last_reported":1778653001,"current_range_meters":8800,"station_id":"st_d6tc3vkotcvc738tfjhg","pricing_plan_id":"cebpf4jnsgd1na2vs0mg"},{"bike_id":"ee947aa4-7861-4c76-a139-6551b2c1eb68","system_id":"levelo_inurba_marseille","lat":43.30478,"lon":5.37903,"is_reserved":false,"is_disabled":false,"rental_uris":{"android":"levelo://app?vid=ee947aa4-7861-4c76-a139-6551b2c1eb68","ios":"levelo://app?vid=ee947aa4-7861-4c76-a139-6551b2c1eb68"},"vehicle_type_id":"4","last_reported":1778653001,"current_range_meters":8800,"station_id":"ce4bgup2rcd13ifvqcn0","pricing_plan_id":"cebpf4jnsgd1na2vs0mg"},{"bike_id":"2db0ffab-6bdd-4726-8016-a3a2ddff536d","system_id":"levelo_inurba_marseille","lat":43.22563,"lon":5.41615,"is_reserved":false,"is_disabled":false,"rental_uris":{"android":"levelo://app?vid=2db0ffab-6bdd-4726-8016-a3a2ddff536d","ios":"levelo://app?vid=2db0ffab-6bdd-4726-8016-a3a2ddff536d"},"vehicle_type_id":"4","last_reported":1778653001,"current_range_meters":8800,"station_id":"st_d2o4gvlbi1j2169b742g","pricing_plan_id":"cebpf4jnsgd1na2vs0mg"},{"bike_id":"23f2d062-a0b7-49e6-867c-dc635ef47972","system_id":"levelo_inurba_marseille","lat":43.30307,"lon":5.36907,"is_reserved":false,"is_disabled":false,"rental_uris":{"android":"levelo://app?vid=23f2d062-a0b7-49e6-867c-dc635ef47972","ios":"levelo://app?vid=23f2d062-a0b7-49e6-867c-dc635ef47972"},"vehicle_type_id":"4","last_reported":1778653001,"current_range_meters":8800,"station_id":"ce4bgqh2rcd13ifvqc5g","pricing_plan_id":"cebpf4jnsgd1na2vs0mg"},{"bike_id":"68b9b778-54d3-42ab-9c95-318210238d4a","system_id":"levelo_inurba_marseille","lat":43.29187,"lon":5.39312,"is_reserved":false,"is_disabled":false,"rental_uris":{"android":"levelo://app?vid=68b9b778-54d3-42ab-9c95-318210238d4a","ios":"levelo://app?vid=68b9b778-54d3-42ab-9c95-318210238d4a"},"vehicle_type_id":"4","last_reported":1778653001,"current_range_meters":9200,"station_id":"ce4bh192rcd13ifvqdd0","pricing_plan_id":"cebpf4jnsgd1na2vs0mg"},{"bike_id":"2138a3f3-103f-4d3b-8182-d8f838630240","system_id":"levelo_inurba_marseille","lat":43.29584,"lon":5.37509,"is_reserved":false,"is_disabled":false,"rental_uris":{"android":"levelo://app?vid=2138a3f3-103f-4d3b-8182-d8f838630240","ios":"levelo://app?vid=2138a3f3-103f-4d3b-8182-d8f838630240"},"vehicle_type_id":"4","last_reported":1778653001,"current_range_meters":9200,"station_id":"ce4bgh92rcd13ifvqb50","pricing_plan_id":"cebpf4jnsgd1na2vs0mg"},{"bike_id":"4e528f4c-3558-4ea0-8fad-771eb4a0d8d7","system_id":"levelo_inurba_marseille","lat":43.27234,"lon":5.39276,"is_reserved":false,"is_disabled":false,"rental_uris":{"android":"levelo://app?vid=4e528f4c-3558-4ea0-8fad-771eb4a0d8d7","ios":"levelo://app?vid=4e528f4c-3558-4ea0-8fad-771eb4a0d8d7"},"vehicle_type_id":"4","last_reported":1778653001,"current_range_meters":9200,"station_id":"","pricing_plan_id":"cebpf4jnsgd1na2vs0mg"},{"bike_id":"a91d18cd-3fa0-41e1-8bb0-98088f0875d8","system_id":"levelo_inurba_marseille","lat":43.30544,"lon":5.38398,"is_reserved":false,"is_disabled":false,"rental_uris":{"android":"levelo://app?vid=a91d18cd-3fa0-41e1-8bb0-98088f0875d8","ios":"levelo://app?vid=a91d18cd-3fa0-41e1-8bb0-98088f0875d8"},"vehicle_type_id":"4","last_reported":1778653001,"current_range_meters":9200,"station_id":"ce4bgg92rcd13ifvqb30","pricing_plan_id":"cebpf4jnsgd1na2vs0mg"},{"bike_id":"c09926ef-6243-44a8-8f84-163c78b8face","system_id":"levelo_inurba_marseille","lat":43.28535,"lon":5.44091,"is_reserved":false,"is_disabled":false,"rental_uris":{"android":"levelo://app?vid=c09926ef-6243-44a8-8f84-163c78b8face","ios":"levelo://app?vid=c09926ef-6243-44a8-8f84-163c78b8face"},"vehicle_type_id":"4","last_reported":1778653001,"current_range_meters":9200,"station_id":"st_d3j3df2ikq2c7380ej80","pricing_plan_id":"cebpf4jnsgd1na2vs0mg"},{"bike_id":"f5ef1d5d-a83a-4de6-a56d-3d414007232e","system_id":"levelo_inurba_marseille","lat":43.24808,"lon":5.37457,"is_reserved":false,"is_disabled":false,"rental_uris":{"android":"levelo://app?vid=f5ef1d5d-a83a-4de6-a56d-3d414007232e","ios":"levelo://app?vid=f5ef1d5d-a83a-4de6-a56d-3d414007232e"},"vehicle_type_id":"4","last_reported":1778653001,"current_range_meters":9200,"station_id":"ce4bhgh2rcd13ifvqfb0","pricing_plan_id":"cebpf4jnsgd1na2vs0mg"},{"bike_id":"bfd7b937-fb5a-4816-9fcc-96ef855df686","system_id":"levelo_inurba_marseille","lat":43.29362,"lon":5.37843,"is_reserved":false,"is_disabled":true,"rental_uris":{"android":"levelo://app?vid=bfd7b937-fb5a-4816-9fcc-96ef855df686","ios":"levelo://app?vid=bfd7b937-fb5a-4816-9fcc-96ef855df686"},"vehicle_type_id":"4","last_reported":1778653001,"current_range_meters":9200,"station_id":"ce4bgjh2rcd13ifvqbf0","pricing_plan_id":"cebpf4jnsgd1na2vs0mg"},{"bike_id":"6e6118e0-d7b8-42ba-a2c6-79786f3c704d","system_id":"levelo_inurba_marseille","lat":43.25077,"lon":5.40362,"is_reserved":false,"is_disabled":true,"rental_uris":{"android":"levelo://app?vid=6e6118e0-d7b8-42ba-a2c6-79786f3c704d","ios":"levelo://app?vid=6e6118e0-d7b8-42ba-a2c6-79786f3c704d"},"vehicle_type_id":"4","last_reported":1778653001,"current_range_meters":9200,"station_id":"ce4bhlh2rcd13ifvqgig","pricing_plan_id":"cebpf4jnsgd1na2vs0mg"},{"bike_id":"60ee3618-ef1a-450d-951b-60656347ff52","system_id":"levelo_inurba_marseille","lat":43.29216,"lon":5.39323,"is_reserved":false,"is_disabled":false,"rental_uris":{"android":"levelo://app?vid=60ee3618-ef1a-450d-951b-60656347ff52","ios":"levelo://app?vid=60ee3618-ef1a-450d-951b-60656347ff52"},"vehicle_type_id":"4","last_reported":1778653001,"current_range_meters":9200,"station_id":"ce4bh192rcd13ifvqdd0","pricing_plan_id":"cebpf4jnsgd1na2vs0mg"},{"bike_id":"098980c4-4d15-4aee-861a-b9632dd651e1","system_id":"levelo_inurba_marseille","lat":43.2988,"lon":5.38132,"is_reserved":false,"is_disabled":false,"rental_uris":{"android":"levelo://app?vid=098980c4-4d15-4aee-861a-b9632dd651e1","ios":"levelo://app?vid=098980c4-4d15-4aee-861a-b9632dd651e1"},"vehicle_type_id":"4","last_reported":1778653001,"current_range_meters":9200,"station_id":"ce4bgj12rcd13ifvqbc0","pricing_plan_id":"cebpf4jnsgd1na2vs0mg"},{"bike_id":"f866b4ae-c870-49cf-9a8c-f7f6622d7dab","system_id":"levelo_inurba_marseille","lat":43.28502,"lon":5.48391,"is_reserved":false,"is_disabled":false,"rental_uris":{"android":"levelo://app?vid=f866b4ae-c870-49cf-9a8c-f7f6622d7dab","ios":"levelo://app?vid=f866b4ae-c870-49cf-9a8c-f7f6622d7dab"},"vehicle_type_id":"4","last_reported":1778653001,"current_range_meters":9200,"station_id":"","pricing_plan_id":"cebpf4jnsgd1na2vs0mg"},{"bike_id":"b8ea0eb0-1d26-433d-980a-c0b52756d2dc","system_id":"levelo_inurba_marseille","lat":43.30538,"lon":5.38421,"is_reserved":false,"is_disabled":false,"rental_uris":{"android":"levelo://app?vid=b8ea0eb0-1d26-433d-980a-c0b52756d2dc","ios":"levelo://app?vid=b8ea0eb0-1d26-433d-980a-c0b52756d2dc"},"vehicle_type_id":"4","last_reported":1778653001,"current_range_meters":9200,"station_id":"ce4bgg92rcd13ifvqb30","pricing_plan_id":"cebpf4jnsgd1na2vs0mg"},{"bike_id":"c0362586-16d8-4849-aae1-deb7e2bfb9f1","system_id":"levelo_inurba_marseille","lat":43.33574,"lon":5.37461,"is_reserved":false,"is_disabled":false,"rental_uris":{"android":"levelo://app?vid=c0362586-16d8-4849-aae1-deb7e2bfb9f1","ios":"levelo://app?vid=c0362586-16d8-4849-aae1-deb7e2bfb9f1"},"vehicle_type_id":"4","last_reported":1778653001,"current_range_meters":9200,"station_id":"st_d46tts09ee8s73dlu43g","pricing_plan_id":"cebpf4jnsgd1na2vs0mg"},{"bike_id":"c140a080-a06d-4609-b0db-3aafd23c097c","system_id":"levelo_inurba_marseille","lat":43.30595,"lon":5.3936,"is_reserved":false,"is_disabled":false,"rental_uris":{"android":"levelo://app?vid=c140a080-a06d-4609-b0db-3aafd23c097c","ios":"levelo://app?vid=c140a080-a06d-4609-b0db-3aafd23c097c"},"vehicle_type_id":"4","last_reported":1778653001,"current_range_meters":9200,"station_id":"ce4bh0p2rcd13ifvqd80","pricing_plan_id":"cebpf4jnsgd1na2vs0mg"},{"bike_id":"ba256624-4d2c-4718-a906-300a48633452","system_id":"levelo_inurba_marseille","lat":43.26224,"lon":5.38746,"is_reserved":false,"is_disabled":false,"rental_uris":{"android":"levelo://app?vid=ba256624-4d2c-4718-a906-300a48633452","ios":"levelo://app?vid=ba256624-4d2c-4718-a906-300a48633452"},"vehicle_type_id":"4","last_reported":1778653001,"current_range_meters":9200,"station_id":"","pricing_plan_id":"cebpf4jnsgd1na2vs0mg"},{"bike_id":"3fc67ff4-1be9-4da4-be8f-9ec5bd95e554","system_id":"levelo_inurba_marseille","lat":43.3354,"lon":5.37471,"is_reserved":false,"is_disabled":false,"rental_uris":{"android":"levelo://app?vid=3fc67ff4-1be9-4da4-be8f-9ec5bd95e554","ios":"levelo://app?vid=3fc67ff4-1be9-4da4-be8f-9ec5bd95e554"},"vehicle_type_id":"4","last_reported":1778653001,"current_range_meters":9200,"station_id":"st_d46tts09ee8s73dlu43g","pricing_plan_id":"cebpf4jnsgd1na2vs0mg"},{"bike_id":"5b12be1e-bdbc-4e63-ae0d-d06675505d81","system_id":"levelo_inurba_marseille","lat":43.30534,"lon":5.38429,"is_reserved":false,"is_disabled":false,"rental_uris":{"android":"levelo://app?vid=5b12be1e-bdbc-4e63-ae0d-d06675505d81","ios":"levelo://app?vid=5b12be1e-bdbc-4e63-ae0d-d06675505d81"},"vehicle_type_id":"4","last_reported":1778653001,"current_range_meters":9200,"station_id":"ce4bgg92rcd13ifvqb30","pricing_plan_id":"cebpf4jnsgd1na2vs0mg"},{"bike_id":"a1751cce-a99f-4352-a478-1678f0a5c5e3","system_id":"levelo_inurba_marseille","lat":43.23178,"lon":5.39973,"is_reserved":false,"is_disabled":false,"rental_uris":{"android":"levelo://app?vid=a1751cce-a99f-4352-a478-1678f0a5c5e3","ios":"levelo://app?vid=a1751cce-a99f-4352-a478-1678f0a5c5e3"},"vehicle_type_id":"4","last_reported":1778653001,"current_range_meters":9200,"station_id":"ce4bhn12rcd13ifvqgqg","pricing_plan_id":"cebpf4jnsgd1na2vs0mg"},{"bike_id":"93460660-a08d-4465-a810-b09911eafb8e","system_id":"levelo_inurba_marseille","lat":43.23182,"lon":5.39978,"is_reserved":false,"is_disabled":false,"rental_uris":{"android":"levelo://app?vid=93460660-a08d-4465-a810-b09911eafb8e","ios":"levelo://app?vid=93460660-a08d-4465-a810-b09911eafb8e"},"vehicle_type_id":"4","last_reported":1778653001,"current_range_meters":9200,"station_id":"ce4bhn12rcd13ifvqgqg","pricing_plan_id":"cebpf4jnsgd1na2vs0mg"},{"bike_id":"015bfd6b-736a-4e44-a42d-948980700872","system_id":"levelo_inurba_marseille","lat":43.24631,"lon":5.38987,"is_reserved":false,"is_disabled":false,"rental_uris":{"android":"levelo://app?vid=015bfd6b-736a-4e44-a42d-948980700872","ios":"levelo://app?vid=015bfd6b-736a-4e44-a42d-948980700872"},"vehicle_type_id":"4","last_reported":1778653001,"current_range_meters":9200,"station_id":"","pricing_plan_id":"cebpf4jnsgd1na2vs0mg"},{"bike_id":"159ab6c4-d96b-40a2-8065-2b9c7a4d62e0","system_id":"levelo_inurba_marseille","lat":43.30178,"lon":5.38088,"is_reserved":false,"is_disabled":false,"rental_uris":{"android":"levelo://app?vid=159ab6c4-d96b-40a2-8065-2b9c7a4d62e0","ios":"levelo://app?vid=159ab6c4-d96b-40a2-8065-2b9c7a4d62e0"},"vehicle_type_id":"4","last_reported":1778653001,"current_range_meters":9200,"station_id":"ce4bgjp2rcd13ifvqbh0","pricing_plan_id":"cebpf4jnsgd1na2vs0mg"},{"bike_id":"4036d707-70c6-46e1-bb49-c96a8dbbe889","system_id":"levelo_inurba_marseille","lat":43.24187,"lon":5.39723,"is_reserved":false,"is_disabled":false,"rental_uris":{"android":"levelo://app?vid=4036d707-70c6-46e1-bb49-c96a8dbbe889","ios":"levelo://app?vid=4036d707-70c6-46e1-bb49-c96a8dbbe889"},"vehicle_type_id":"4","last_reported":1778653001,"current_range_meters":9600,"station_id":"ce4bhn12rcd13ifvqgpg","pricing_plan_id":"cebpf4jnsgd1na2vs0mg"},{"bike_id":"e0f2d823-a278-4400-9444-d44158f5dbc1","system_id":"levelo_inurba_marseille","lat":43.31036,"lon":5.37163,"is_reserved":false,"is_disabled":false,"rental_uris":{"android":"levelo://app?vid=e0f2d823-a278-4400-9444-d44158f5dbc1","ios":"levelo://app?vid=e0f2d823-a278-4400-9444-d44158f5dbc1"},"vehicle_type_id":"4","last_reported":1778653001,"current_range_meters":9600,"station_id":"st_d4kl2rp97mjs73e7tdfg","pricing_plan_id":"cebpf4jnsgd1na2vs0mg"},{"bike_id":"cde399d1-a0a0-40d9-ab0c-0c983ae68334","system_id":"levelo_inurba_marseille","lat":43.28474,"lon":5.35887,"is_reserved":false,"is_disabled":false,"rental_uris":{"android":"levelo://app?vid=cde399d1-a0a0-40d9-ab0c-0c983ae68334","ios":"levelo://app?vid=cde399d1-a0a0-40d9-ab0c-0c983ae68334"},"vehicle_type_id":"4","last_reported":1778653001,"current_range_meters":9600,"station_id":"ce4bhah2rcd13ifvqei0","pricing_plan_id":"cebpf4jnsgd1na2vs0mg"},{"bike_id":"286981e3-d3f0-49ed-a633-5d16dbe412bf","system_id":"levelo_inurba_marseille","lat":43.30455,"lon":5.37915,"is_reserved":false,"is_disabled":false,"rental_uris":{"android":"levelo://app?vid=286981e3-d3f0-49ed-a633-5d16dbe412bf","ios":"levelo://app?vid=286981e3-d3f0-49ed-a633-5d16dbe412bf"},"vehicle_type_id":"4","last_reported":1778653001,"current_range_meters":9600,"station_id":"ce4bgup2rcd13ifvqcn0","pricing_plan_id":"cebpf4jnsgd1na2vs0mg"},{"bike_id":"25ff91ab-8fac-48a4-aef5-873d6cc956e3","system_id":"levelo_inurba_marseille","lat":43.28678,"lon":5.38654,"is_reserved":false,"is_disabled":true,"rental_uris":{"android":"levelo://app?vid=25ff91ab-8fac-48a4-aef5-873d6cc956e3","ios":"levelo://app?vid=25ff91ab-8fac-48a4-aef5-873d6cc956e3"},"vehicle_type_id":"4","last_reported":1778653001,"current_range_meters":9600,"station_id":"ce4bh492rcd13ifvqdug","pricing_plan_id":"cebpf4jnsgd1na2vs0mg"},{"bike_id":"445f6528-82e8-418a-8781-28fecbb007af","system_id":"levelo_inurba_marseille","lat":43.23778,"lon":5.36625,"is_reserved":false,"is_disabled":false,"rental_uris":{"android":"levelo://app?vid=445f6528-82e8-418a-8781-28fecbb007af","ios":"levelo://app?vid=445f6528-82e8-418a-8781-28fecbb007af"},"vehicle_type_id":"4","last_reported":1778653001,"current_range_meters":9600,"station_id":"st_d3nk18o9ro0c73en2l3g","pricing_plan_id":"cebpf4jnsgd1na2vs0mg"},{"bike_id":"e3f063b0-bc68-4a05-b4bf-4a932bfdec2a","system_id":"levelo_inurba_marseille","lat":43.25306,"lon":5.42112,"is_reserved":false,"is_disabled":false,"rental_uris":{"android":"levelo://app?vid=e3f063b0-bc68-4a05-b4bf-4a932bfdec2a","ios":"levelo://app?vid=e3f063b0-bc68-4a05-b4bf-4a932bfdec2a"},"vehicle_type_id":"4","last_reported":1778653001,"current_range_meters":9600,"station_id":"","pricing_plan_id":"cebpf4jnsgd1na2vs0mg"},{"bike_id":"b7cfa761-d156-459a-a83d-a6dbbec5dce6","system_id":"levelo_inurba_marseille","lat":43.24657,"lon":5.38933,"is_reserved":false,"is_disabled":false,"rental_uris":{"android":"levelo://app?vid=b7cfa761-d156-459a-a83d-a6dbbec5dce6","ios":"levelo://app?vid=b7cfa761-d156-459a-a83d-a6dbbec5dce6"},"vehicle_type_id":"4","last_reported":1778653001,"current_range_meters":9600,"station_id":"ce4bhg12rcd13ifvqf60","pricing_plan_id":"cebpf4jnsgd1na2vs0mg"},{"bike_id":"79905041-9ad3-48a6-b1bb-bb24ba353877","system_id":"levelo_inurba_marseille","lat":43.309547,"lon":5.3902,"is_reserved":false,"is_disabled":false,"rental_uris":{"android":"levelo://app?vid=79905041-9ad3-48a6-b1bb-bb24ba353877","ios":"levelo://app?vid=79905041-9ad3-48a6-b1bb-bb24ba353877"},"vehicle_type_id":"4","last_reported":1778653001,"current_range_meters":9600,"station_id":"ce4bgup2rcd13ifvqco0","pricing_plan_id":"cebpf4jnsgd1na2vs0mg"},