{"last_updated":1767899474,"ttl":60,"version":"2.2","data":{"bikes":[{"bike_id":"75a911db-50bf-4f58-9f92-6bb6f2d03e7c","system_id":"levelo_inurba_marseille","lat":43.2965,"lon":5.40139,"is_reserved":false,"is_disabled":false,"rental_uris":{"android":"levelo://app?vid=75a911db-50bf-4f58-9f92-6bb6f2d03e7c","ios":"levelo://app?vid=75a911db-50bf-4f58-9f92-6bb6f2d03e7c"},"vehicle_type_id":"4","last_reported":1767899474,"current_range_meters":2800,"station_id":"","pricing_plan_id":"cebpf4jnsgd1na2vs0mg"},{"bike_id":"b149c117-98ef-4c38-aceb-298ce1f4a106","system_id":"levelo_inurba_marseille","lat":43.307798,"lon":5.376532,"is_reserved":false,"is_disabled":false,"rental_uris":{"android":"levelo://app?vid=b149c117-98ef-4c38-aceb-298ce1f4a106","ios":"levelo://app?vid=b149c117-98ef-4c38-aceb-298ce1f4a106"},"vehicle_type_id":"4","last_reported":1767899474,"current_range_meters":2800,"station_id":"ce4bgv92rcd13ifvqcq0","pricing_plan_id":"cebpf4jnsgd1na2vs0mg"},{"bike_id":"4ad01c95-0381-485d-92ac-6478e0abdc37","system_id":"levelo_inurba_marseille","lat":43.253448,"lon":5.421757,"is_reserved":false,"is_disabled":false,"rental_uris":{"android":"levelo://app?vid=4ad01c95-0381-485d-92ac-6478e0abdc37","ios":"levelo://app?vid=4ad01c95-0381-485d-92ac-6478e0abdc37"},"vehicle_type_id":"4","last_reported":1767899474,"current_range_meters":2800,"station_id":"st_d2m65c5bi1j21697t3ng","pricing_plan_id":"cebpf4jnsgd1na2vs0mg"},{"bike_id":"a8faf06a-59f0-4f12-93a7-530eda5bc05e","system_id":"levelo_inurba_marseille","lat":43.31163,"lon":5.38707,"is_reserved":false,"is_disabled":false,"rental_uris":{"android":"levelo://app?vid=a8faf06a-59f0-4f12-93a7-530eda5bc05e","ios":"levelo://app?vid=a8faf06a-59f0-4f12-93a7-530eda5bc05e"},"vehicle_type_id":"4","last_reported":1767899474,"current_range_meters":2800,"station_id":"ce4bgv12rcd13ifvqcp0","pricing_plan_id":"cebpf4jnsgd1na2vs0mg"},{"bike_id":"a7e8b4f8-15c7-4593-b8a1-1dc1d30ad189","system_id":"levelo_inurba_marseille","lat":43.32053,"lon":5.38408,"is_reserved":false,"is_disabled":false,"rental_uris":{"android":"levelo://app?vid=a7e8b4f8-15c7-4593-b8a1-1dc1d30ad189","ios":"levelo://app?vid=a7e8b4f8-15c7-4593-b8a1-1dc1d30ad189"},"vehicle_type_id":"4","last_reported":1767899474,"current_range_meters":2800,"station_id":"","pricing_plan_id":"cebpf4jnsgd1na2vs0mg"},{"bike_id":"9b0b7c97-2618-4cbb-baf8-692fe11e16ef","system_id":"levelo_inurba_marseille","lat":43.25336,"lon":5.42167,"is_reserved":false,"is_disabled":false,"rental_uris":{"android":"levelo://app?vid=9b0b7c97-2618-4cbb-baf8-692fe11e16ef","ios":"levelo://app?vid=9b0b7c97-2618-4cbb-baf8-692fe11e16ef"},"vehicle_type_id":"4","last_reported":1767899474,"current_range_meters":2800,"station_id":"st_d2m65c5bi1j21697t3ng","pricing_plan_id":"cebpf4jnsgd1na2vs0mg"},{"bike_id":"9b9e7c0d-8b05-4d0a-9b2e-71cd579eefc9","system_id":"levelo_inurba_marseille","lat":43.32356,"lon":5.36765,"is_reserved":false,"is_disabled":false,"rental_uris":{"android":"levelo://app?vid=9b9e7c0d-8b05-4d0a-9b2e-71cd579eefc9","ios":"levelo://app?vid=9b9e7c0d-8b05-4d0a-9b2e-71cd579eefc9"},"vehicle_type_id":"4","last_reported":1767899474,"current_range_meters":2800,"station_id":"ce4bhsh2rcd13ifvqi2g","pricing_plan_id":"cebpf4jnsgd1na2vs0mg"},{"bike_id":"bc0416a0-80e0-492c-b700-0351c9934580","system_id":"levelo_inurba_marseille","lat":43.306092,"lon":5.372295,"is_reserved":false,"is_disabled":false,"rental_uris":{"android":"levelo://app?vid=bc0416a0-80e0-492c-b700-0351c9934580","ios":"levelo://app?vid=bc0416a0-80e0-492c-b700-0351c9934580"},"vehicle_type_id":"4","last_reported":1767899474,"current_range_meters":2800,"station_id":"","pricing_plan_id":"cebpf4jnsgd1na2vs0mg"},{"bike_id":"d0d67774-3af3-4c86-b7b6-8109c321647b","system_id":"levelo_inurba_marseille","lat":43.22932,"lon":5.35377,"is_reserved":false,"is_disabled":false,"rental_uris":{"android":"levelo://app?vid=d0d67774-3af3-4c86-b7b6-8109c321647b","ios":"levelo://app?vid=d0d67774-3af3-4c86-b7b6-8109c321647b"},"vehicle_type_id":"4","last_reported":1767899474,"current_range_meters":2800,"station_id":"cpo3532slgdg3j2ikp40","pricing_plan_id":"cebpf4jnsgd1na2vs0mg"},{"bike_id":"27be5368-e42e-4bb4-a3f1-f1334d37a4aa","system_id":"levelo_inurba_marseille","lat":43.29175,"lon":5.37149,"is_reserved":false,"is_disabled":false,"rental_uris":{"android":"levelo://app?vid=27be5368-e42e-4bb4-a3f1-f1334d37a4aa","ios":"levelo://app?vid=27be5368-e42e-4bb4-a3f1-f1334d37a4aa"},"vehicle_type_id":"4","last_reported":1767899474,"current_range_meters":3200,"station_id":"ce4bha92rcd13ifvqeh0","pricing_plan_id":"cebpf4jnsgd1na2vs0mg"},{"bike_id":"c2e6f05b-b779-4acb-80f0-4511614a12db","system_id":"levelo_inurba_marseille","lat":43.28406,"lon":5.37519,"is_reserved":false,"is_disabled":false,"rental_uris":{"android":"levelo://app?vid=c2e6f05b-b779-4acb-80f0-4511614a12db","ios":"levelo://app?vid=c2e6f05b-b779-4acb-80f0-4511614a12db"},"vehicle_type_id":"4","last_reported":1767899474,"current_range_meters":3200,"station_id":"ce4bh412rcd13ifvqds0","pricing_plan_id":"cebpf4jnsgd1na2vs0mg"},{"bike_id":"390ff127-4142-4cb7-aea4-b49a418f66a6","system_id":"levelo_inurba_marseille","lat":43.26568,"lon":5.39038,"is_reserved":false,"is_disabled":false,"rental_uris":{"android":"levelo://app?vid=390ff127-4142-4cb7-aea4-b49a418f66a6","ios":"levelo://app?vid=390ff127-4142-4cb7-aea4-b49a418f66a6"},"vehicle_type_id":"4","last_reported":1767899474,"current_range_meters":3200,"station_id":"ce4bhe12rcd13ifvqf30","pricing_plan_id":"cebpf4jnsgd1na2vs0mg"},{"bike_id":"d9e24c6b-816a-4c50-ba92-b195640ae88c","system_id":"levelo_inurba_marseille","lat":43.31269,"lon":5.401733,"is_reserved":false,"is_disabled":false,"rental_uris":{"android":"levelo://app?vid=d9e24c6b-816a-4c50-ba92-b195640ae88c","ios":"levelo://app?vid=d9e24c6b-816a-4c50-ba92-b195640ae88c"},"vehicle_type_id":"4","last_reported":1767899474,"current_range_meters":3200,"station_id":"","pricing_plan_id":"cebpf4jnsgd1na2vs0mg"},{"bike_id":"9ac31ec2-b08f-4a21-97b0-de52b78ac291","system_id":"levelo_inurba_marseille","lat":43.24083,"lon":5.37751,"is_reserved":false,"is_disabled":false,"rental_uris":{"android":"levelo://app?vid=9ac31ec2-b08f-4a21-97b0-de52b78ac291","ios":"levelo://app?vid=9ac31ec2-b08f-4a21-97b0-de52b78ac291"},"vehicle_type_id":"4","last_reported":1767899474,"current_range_meters":3200,"station_id":"ce4bhnp2rcd13ifvqgvg","pricing_plan_id":"cebpf4jnsgd1na2vs0mg"},{"bike_id":"318ab7ee-cd4e-4fbb-a198-dc67360e53a7","system_id":"levelo_inurba_marseille","lat":43.22928,"lon":5.35381,"is_reserved":false,"is_disabled":false,"rental_uris":{"android":"levelo://app?vid=318ab7ee-cd4e-4fbb-a198-dc67360e53a7","ios":"levelo://app?vid=318ab7ee-cd4e-4fbb-a198-dc67360e53a7"},"vehicle_type_id":"4","last_reported":1767899474,"current_range_meters":3200,"station_id":"cpo3532slgdg3j2ikp40","pricing_plan_id":"cebpf4jnsgd1na2vs0mg"},{"bike_id":"796165dd-6233-4b3e-bc69-5c2707fdcdd0","system_id":"levelo_inurba_marseille","lat":43.25506,"lon":5.37645,"is_reserved":false,"is_disabled":false,"rental_uris":{"android":"levelo://app?vid=796165dd-6233-4b3e-bc69-5c2707fdcdd0","ios":"levelo://app?vid=796165dd-6233-4b3e-bc69-5c2707fdcdd0"},"vehicle_type_id":"4","last_reported":1767899474,"current_range_meters":3200,"station_id":"ce4bhh12rcd13ifvqff0","pricing_plan_id":"cebpf4jnsgd1na2vs0mg"},{"bike_id":"0745983e-51ac-46b8-8880-b31feaad3adf","system_id":"levelo_inurba_marseille","lat":43.31117,"lon":5.37767,"is_reserved":false,"is_disabled":false,"rental_uris":{"android":"levelo://app?vid=0745983e-51ac-46b8-8880-b31feaad3adf","ios":"levelo://app?vid=0745983e-51ac-46b8-8880-b31feaad3adf"},"vehicle_type_id":"4","last_reported":1767899474,"current_range_meters":3200,"station_id":"ce4bgt92rcd13ifvqcg0","pricing_plan_id":"cebpf4jnsgd1na2vs0mg"},{"bike_id":"a372849d-607b-4dd2-97f9-cb2fb04b6e46","system_id":"levelo_inurba_marseille","lat":43.27997,"lon":5.40003,"is_reserved":false,"is_disabled":false,"rental_uris":{"android":"levelo://app?vid=a372849d-607b-4dd2-97f9-cb2fb04b6e46","ios":"levelo://app?vid=a372849d-607b-4dd2-97f9-cb2fb04b6e46"},"vehicle_type_id":"4","last_reported":1767899474,"current_range_meters":3200,"station_id":"ce4bho92rcd13ifvqh4g","pricing_plan_id":"cebpf4jnsgd1na2vs0mg"},{"bike_id":"0291d232-6462-4813-b391-fca30290d9f0","system_id":"levelo_inurba_marseille","lat":43.30254,"lon":5.40051,"is_reserved":false,"is_disabled":false,"rental_uris":{"android":"levelo://app?vid=0291d232-6462-4813-b391-fca30290d9f0","ios":"levelo://app?vid=0291d232-6462-4813-b391-fca30290d9f0"},"vehicle_type_id":"4","last_reported":1767899474,"current_range_meters":3200,"station_id":"ce4bgvh2rcd13ifvqcs0","pricing_plan_id":"cebpf4jnsgd1na2vs0mg"},{"bike_id":"02023d95-9604-456c-8393-fe6f6cee5283","system_id":"levelo_inurba_marseille","lat":43.25089,"lon":5.39496,"is_reserved":false,"is_disabled":false,"rental_uris":{"android":"levelo://app?vid=02023d95-9604-456c-8393-fe6f6cee5283","ios":"levelo://app?vid=02023d95-9604-456c-8393-fe6f6cee5283"},"vehicle_type_id":"4","last_reported":1767899474,"current_range_meters":3200,"station_id":"ce4bhm12rcd13ifvqgkg","pricing_plan_id":"cebpf4jnsgd1na2vs0mg"},{"bike_id":"65d98a9e-dfe3-490f-b8d9-b74189b273a2","system_id":"levelo_inurba_marseille","lat":43.28504,"lon":5.39137,"is_reserved":false,"is_disabled":false,"rental_uris":{"android":"levelo://app?vid=65d98a9e-dfe3-490f-b8d9-b74189b273a2","ios":"levelo://app?vid=65d98a9e-dfe3-490f-b8d9-b74189b273a2"},"vehicle_type_id":"4","last_reported":1767899474,"current_range_meters":3200,"station_id":"","pricing_plan_id":"cebpf4jnsgd1na2vs0mg"},{"bike_id":"ff8302a9-d32b-4626-86db-b5e36f362cd5","system_id":"levelo_inurba_marseille","lat":43.33759,"lon":5.37472,"is_reserved":false,"is_disabled":false,"rental_uris":{"android":"levelo://app?vid=ff8302a9-d32b-4626-86db-b5e36f362cd5","ios":"levelo://app?vid=ff8302a9-d32b-4626-86db-b5e36f362cd5"},"vehicle_type_id":"4","last_reported":1767899474,"current_range_meters":3200,"station_id":"","pricing_plan_id":"cebpf4jnsgd1na2vs0mg"},{"bike_id":"f9694d4b-6e2f-4fc5-ae06-59dad6b1ea4d","system_id":"levelo_inurba_marseille","lat":43.25012,"lon":5.3753,"is_reserved":false,"is_disabled":false,"rental_uris":{"android":"levelo://app?vid=f9694d4b-6e2f-4fc5-ae06-59dad6b1ea4d","ios":"levelo://app?vid=f9694d4b-6e2f-4fc5-ae06-59dad6b1ea4d"},"vehicle_type_id":"4","last_reported":1767899474,"current_range_meters":3600,"station_id":"","pricing_plan_id":"cebpf4jnsgd1na2vs0mg"},{"bike_id":"b6af4029-8eba-4bca-8e12-609a0706c4c1","system_id":"levelo_inurba_marseille","lat":43.29556,"lon":5.38547,"is_reserved":false,"is_disabled":false,"rental_uris":{"android":"levelo://app?vid=b6af4029-8eba-4bca-8e12-609a0706c4c1","ios":"levelo://app?vid=b6af4029-8eba-4bca-8e12-609a0706c4c1"},"vehicle_type_id":"4","last_reported":1767899474,"current_range_meters":3600,"station_id":"ce4bgih2rcd13ifvqba0","pricing_plan_id":"cebpf4jnsgd1na2vs0mg"},{"bike_id":"9d02c0af-0c53-49b5-9925-3966976a02cc","system_id":"levelo_inurba_marseille","lat":43.27063,"lon":5.38315,"is_reserved":false,"is_disabled":false,"rental_uris":{"android":"levelo://app?vid=9d02c0af-0c53-49b5-9925-3966976a02cc","ios":"levelo://app?vid=9d02c0af-0c53-49b5-9925-3966976a02cc"},"vehicle_type_id":"4","last_reported":1767899474,"current_range_meters":3600,"station_id":"st_d3n2fo6cfp8s73cte1j0","pricing_plan_id":"cebpf4jnsgd1na2vs0mg"},{"bike_id":"b3ace8f1-cf19-4211-8c06-1d330234c50a","system_id":"levelo_inurba_marseille","lat":43.26211,"lon":5.3792,"is_reserved":false,"is_disabled":false,"rental_uris":{"android":"levelo://app?vid=b3ace8f1-cf19-4211-8c06-1d330234c50a","ios":"levelo://app?vid=b3ace8f1-cf19-4211-8c06-1d330234c50a"},"vehicle_type_id":"4","last_reported":1767899474,"current_range_meters":3600,"station_id":"ce4bhjp2rcd13ifvqg90","pricing_plan_id":"cebpf4jnsgd1na2vs0mg"},{"bike_id":"180d89c6-a78f-469f-9195-bf47c219695f","system_id":"levelo_inurba_marseille","lat":43.25578,"lon":5.38251,"is_reserved":false,"is_disabled":false,"rental_uris":{"android":"levelo://app?vid=180d89c6-a78f-469f-9195-bf47c219695f","ios":"levelo://app?vid=180d89c6-a78f-469f-9195-bf47c219695f"},"vehicle_type_id":"4","last_reported":1767899474,"current_range_meters":3600,"station_id":"ce4bhih2rcd13ifvqfs0","pricing_plan_id":"cebpf4jnsgd1na2vs0mg"},{"bike_id":"ea2f917b-d19a-49a4-ad3b-75cfd1a03373","system_id":"levelo_inurba_marseille","lat":43.28356,"lon":5.38095,"is_reserved":false,"is_disabled":false,"rental_uris":{"android":"levelo://app?vid=ea2f917b-d19a-49a4-ad3b-75cfd1a03373","ios":"levelo://app?vid=ea2f917b-d19a-49a4-ad3b-75cfd1a03373"},"vehicle_type_id":"4","last_reported":1767899474,"current_range_meters":3600,"station_id":"ce4bh412rcd13ifvqdr0","pricing_plan_id":"cebpf4jnsgd1na2vs0mg"},{"bike_id":"cbbc2d4b-a90b-4daf-93a7-b6f6262bed66","system_id":"levelo_inurba_marseille","lat":43.28462,"lon":5.37812,"is_reserved":false,"is_disabled":false,"rental_uris":{"android":"levelo://app?vid=cbbc2d4b-a90b-4daf-93a7-b6f6262bed66","ios":"levelo://app?vid=cbbc2d4b-a90b-4daf-93a7-b6f6262bed66"},"vehicle_type_id":"4","last_reported":1767899474,"current_range_meters":3600,"station_id":"","pricing_plan_id":"cebpf4jnsgd1na2vs0mg"},{"bike_id":"8e9cd320-222e-4849-8f3f-db8fcd5c5954","system_id":"levelo_inurba_marseille","lat":43.31816,"lon":5.36849,"is_reserved":false,"is_disabled":false,"rental_uris":{"android":"levelo://app?vid=8e9cd320-222e-4849-8f3f-db8fcd5c5954","ios":"levelo://app?vid=8e9cd320-222e-4849-8f3f-db8fcd5c5954"},"vehicle_type_id":"4","last_reported":1767899474,"current_range_meters":3600,"station_id":"","pricing_plan_id":"cebpf4jnsgd1na2vs0mg"},{"bike_id":"c4b9f513-bf15-48dd-9b7e-115d19aded28","system_id":"levelo_inurba_marseille","lat":43.268576,"lon":5.40305,"is_reserved":false,"is_disabled":false,"rental_uris":{"android":"levelo://app?vid=c4b9f513-bf15-48dd-9b7e-115d19aded28","ios":"levelo://app?vid=c4b9f513-bf15-48dd-9b7e-115d19aded28"},"vehicle_type_id":"4","last_reported":1767899474,"current_range_meters":3600,"station_id":"ce501612rcd8frsf0b60","pricing_plan_id":"cebpf4jnsgd1na2vs0mg"},{"bike_id":"2ac890ce-fdb4-4188-bd4a-c974c3e3a5c7","system_id":"levelo_inurba_marseille","lat":43.28619,"lon":5.35105,"is_reserved":false,"is_disabled":false,"rental_uris":{"android":"levelo://app?vid=2ac890ce-fdb4-4188-bd4a-c974c3e3a5c7","ios":"levelo://app?vid=2ac890ce-fdb4-4188-bd4a-c974c3e3a5c7"},"vehicle_type_id":"4","last_reported":1767899474,"current_range_meters":3600,"station_id":"ce4bhch2rcd13ifvqeug","pricing_plan_id":"cebpf4jnsgd1na2vs0mg"},{"bike_id":"26017015-4de8-49a6-84f4-2402a82326a7","system_id":"levelo_inurba_marseille","lat":43.28718,"lon":5.37926,"is_reserved":false,"is_disabled":false,"rental_uris":{"android":"levelo://app?vid=26017015-4de8-49a6-84f4-2402a82326a7","ios":"levelo://app?vid=26017015-4de8-49a6-84f4-2402a82326a7"},"vehicle_type_id":"4","last_reported":1767899474,"current_range_meters":3600,"station_id":"ce4bh9p2rcd13ifvqec0","pricing_plan_id":"cebpf4jnsgd1na2vs0mg"},{"bike_id":"5a68ff48-3ca4-4b8d-81f5-0545c9e06ce5","system_id":"levelo_inurba_marseille","lat":43.288618,"lon":5.425201,"is_reserved":false,"is_disabled":false,"rental_uris":{"android":"levelo://app?vid=5a68ff48-3ca4-4b8d-81f5-0545c9e06ce5","ios":"levelo://app?vid=5a68ff48-3ca4-4b8d-81f5-0545c9e06ce5"},"vehicle_type_id":"4","last_reported":1767899474,"current_range_meters":4000,"station_id":"st_d3b462108ojc7389ooeg","pricing_plan_id":"cebpf4jnsgd1na2vs0mg"},{"bike_id":"3678ce70-35cc-4f23-a412-a66d50bba044","system_id":"levelo_inurba_marseille","lat":43.28157,"lon":5.3835,"is_reserved":false,"is_disabled":false,"rental_uris":{"android":"levelo://app?vid=3678ce70-35cc-4f23-a412-a66d50bba044","ios":"levelo://app?vid=3678ce70-35cc-4f23-a412-a66d50bba044"},"vehicle_type_id":"4","last_reported":1767899474,"current_range_meters":4000,"station_id":"","pricing_plan_id":"cebpf4jnsgd1na2vs0mg"},{"bike_id":"4df48156-dd6c-425a-aaac-7de4e5d50530","system_id":"levelo_inurba_marseille","lat":43.29005,"lon":5.35753,"is_reserved":false,"is_disabled":false,"rental_uris":{"android":"levelo://app?vid=4df48156-dd6c-425a-aaac-7de4e5d50530","ios":"levelo://app?vid=4df48156-dd6c-425a-aaac-7de4e5d50530"},"vehicle_type_id":"4","last_reported":1767899474,"current_range_meters":4000,"station_id":"","pricing_plan_id":"cebpf4jnsgd1na2vs0mg"},{"bike_id":"7e56ead6-0dcc-483d-86d1-d4af73c68e4a","system_id":"levelo_inurba_marseille","lat":43.29382,"lon":5.38615,"is_reserved":false,"is_disabled":true,"rental_uris":{"android":"levelo://app?vid=7e56ead6-0dcc-483d-86d1-d4af73c68e4a","ios":"levelo://app?vid=7e56ead6-0dcc-483d-86d1-d4af73c68e4a"},"vehicle_type_id":"4","last_reported":1767899474,"current_range_meters":4000,"station_id":"","pricing_plan_id":"cebpf4jnsgd1na2vs0mg"},{"bike_id":"435d5991-4003-4916-a066-7d0abd06130e","system_id":"levelo_inurba_marseille","lat":43.29258,"lon":5.36856,"is_reserved":false,"is_disabled":false,"rental_uris":{"android":"levelo://app?vid=435d5991-4003-4916-a066-7d0abd06130e","ios":"levelo://app?vid=435d5991-4003-4916-a066-7d0abd06130e"},"vehicle_type_id":"4","last_reported":1767899474,"current_range_meters":4000,"station_id":"ce4bhbp2rcd13ifvqesg","pricing_plan_id":"cebpf4jnsgd1na2vs0mg"},{"bike_id":"3c686cdf-5f47-4f51-81d7-c41aed7093f4","system_id":"levelo_inurba_marseille","lat":43.30809,"lon":5.38158,"is_reserved":false,"is_disabled":false,"rental_uris":{"android":"levelo://app?vid=3c686cdf-5f47-4f51-81d7-c41aed7093f4","ios":"levelo://app?vid=3c686cdf-5f47-4f51-81d7-c41aed7093f4"},"vehicle_type_id":"4","last_reported":1767899474,"current_range_meters":4000,"station_id":"ce4bgt12rcd13ifvqce0","pricing_plan_id":"cebpf4jnsgd1na2vs0mg"},{"bike_id":"4ba7a7c2-cc68-489a-9ee3-f228ca6f635b","system_id":"levelo_inurba_marseille","lat":43.25575,"lon":5.3824,"is_reserved":false,"is_disabled":false,"rental_uris":{"android":"levelo://app?vid=4ba7a7c2-cc68-489a-9ee3-f228ca6f635b","ios":"levelo://app?vid=4ba7a7c2-cc68-489a-9ee3-f228ca6f635b"},"vehicle_type_id":"4","last_reported":1767899474,"current_range_meters":4000,"station_id":"ce4bhih2rcd13ifvqfs0","pricing_plan_id":"cebpf4jnsgd1na2vs0mg"},{"bike_id":"01d8e2c9-d4ce-48e6-afef-8bf3104cf069","system_id":"levelo_inurba_marseille","lat":43.27181,"lon":5.40989,"is_reserved":false,"is_disabled":false,"rental_uris":{"android":"levelo://app?vid=01d8e2c9-d4ce-48e6-afef-8bf3104cf069","ios":"levelo://app?vid=01d8e2c9-d4ce-48e6-afef-8bf3104cf069"},"vehicle_type_id":"4","last_reported":1767899474,"current_range_meters":4000,"station_id":"ce4bhl12rcd13ifvqgf0","pricing_plan_id":"cebpf4jnsgd1na2vs0mg"},{"bike_id":"627ad4fb-d3f7-406d-9fa6-760355e4142d","system_id":"levelo_inurba_marseille","lat":43.23209,"lon":5.35536,"is_reserved":false,"is_disabled":false,"rental_uris":{"android":"levelo://app?vid=627ad4fb-d3f7-406d-9fa6-760355e4142d","ios":"levelo://app?vid=627ad4fb-d3f7-406d-9fa6-760355e4142d"},"vehicle_type_id":"4","last_reported":1767899474,"current_range_meters":4000,"station_id":"ce4bhu92rcd13ifvqi70","pricing_plan_id":"cebpf4jnsgd1na2vs0mg"},{"bike_id":"e3ffb854-e428-4a18-904d-ea5ddd084e10","system_id":"levelo_inurba_marseille","lat":43.32368,"lon":5.36724,"is_reserved":false,"is_disabled":false,"rental_uris":{"android":"levelo://app?vid=e3ffb854-e428-4a18-904d-ea5ddd084e10","ios":"levelo://app?vid=e3ffb854-e428-4a18-904d-ea5ddd084e10"},"vehicle_type_id":"4","last_reported":1767899474,"current_range_meters":4000,"station_id":"ce4bhsh2rcd13ifvqi2g","pricing_plan_id":"cebpf4jnsgd1na2vs0mg"},{"bike_id":"49cc43f2-a61c-492c-94fb-20b9013a3563","system_id":"levelo_inurba_marseille","lat":43.22559,"lon":5.41619,"is_reserved":false,"is_disabled":false,"rental_uris":{"android":"levelo://app?vid=49cc43f2-a61c-492c-94fb-20b9013a3563","ios":"levelo://app?vid=49cc43f2-a61c-492c-94fb-20b9013a3563"},"vehicle_type_id":"4","last_reported":1767899474,"current_range_meters":4000,"station_id":"st_d2o4gvlbi1j2169b742g","pricing_plan_id":"cebpf4jnsgd1na2vs0mg"},{"bike_id":"2ee5cee4-27e0-4198-b09b-4867d32d8211","system_id":"levelo_inurba_marseille","lat":43.258649,"lon":5.399055,"is_reserved":false,"is_disabled":false,"rental_uris":{"android":"levelo://app?vid=2ee5cee4-27e0-4198-b09b-4867d32d8211","ios":"levelo://app?vid=2ee5cee4-27e0-4198-b09b-4867d32d8211"},"vehicle_type_id":"4","last_reported":1767899474,"current_range_meters":4000,"station_id":"ce4bhl92rcd13ifvqghg","pricing_plan_id":"cebpf4jnsgd1na2vs0mg"},{"bike_id":"d75a90cd-5dce-4bdd-84ef-6b9526859b57","system_id":"levelo_inurba_marseille","lat":43.32486,"lon":5.38286,"is_reserved":false,"is_disabled":false,"rental_uris":{"android":"levelo://app?vid=d75a90cd-5dce-4bdd-84ef-6b9526859b57","ios":"levelo://app?vid=d75a90cd-5dce-4bdd-84ef-6b9526859b57"},"vehicle_type_id":"4","last_reported":1767899474,"current_range_meters":4000,"station_id":"st_d4asgbiv49dc73anf9m0","pricing_plan_id":"cebpf4jnsgd1na2vs0mg"},{"bike_id":"1c52e3c9-0e9a-4414-b08d-d5076eecfa0c","system_id":"levelo_inurba_marseille","lat":43.330235,"lon":5.390456,"is_reserved":false,"is_disabled":false,"rental_uris":{"android":"levelo://app?vid=1c52e3c9-0e9a-4414-b08d-d5076eecfa0c","ios":"levelo://app?vid=1c52e3c9-0e9a-4414-b08d-d5076eecfa0c"},"vehicle_type_id":"4","last_reported":1767899474,"current_range_meters":4000,"station_id":"ce4bhr92rcd13ifvqhrg","pricing_plan_id":"cebpf4jnsgd1na2vs0mg"},{"bike_id":"54bf261d-8f8c-4f5e-9d97-c0598fc02432","system_id":"levelo_inurba_marseille","lat":43.24813,"lon":5.37459,"is_reserved":false,"is_disabled":false,"rental_uris":{"android":"levelo://app?vid=54bf261d-8f8c-4f5e-9d97-c0598fc02432","ios":"levelo://app?vid=54bf261d-8f8c-4f5e-9d97-c0598fc02432"},"vehicle_type_id":"4","last_reported":1767899474,"current_range_meters":4000,"station_id":"ce4bhgh2rcd13ifvqfb0","pricing_plan_id":"cebpf4jnsgd1na2vs0mg"},{"bike_id":"8d64f007-e29f-4112-b552-8cde55c43110","system_id":"levelo_inurba_marseille","lat":43.32903,"lon":5.40029,"is_reserved":false,"is_disabled":false,"rental_uris":{"android":"levelo://app?vid=8d64f007-e29f-4112-b552-8cde55c43110","ios":"levelo://app?vid=8d64f007-e29f-4112-b552-8cde55c43110"},"vehicle_type_id":"4","last_reported":1767899474,"current_range_meters":4000,"station_id":"","pricing_plan_id":"cebpf4jnsgd1na2vs0mg"},{"bike_id":"9d90171c-179b-4248-b424-f3e8e3fdfb46","system_id":"levelo_inurba_marseille","lat":43.29287,"lon":5.37195,"is_reserved":false,"is_disabled":false,"rental_uris":{"android":"levelo://app?vid=9d90171c-179b-4248-b424-f3e8e3fdfb46","ios":"levelo://app?vid=9d90171c-179b-4248-b424-f3e8e3fdfb46"},"vehicle_type_id":"4","last_reported":1767899474,"current_range_meters":4000,"station_id":"ce4bgh92rcd13ifvqb40","pricing_plan_id":"cebpf4jnsgd1na2vs0mg"},{"bike_id":"7916ab29-6acf-4981-b006-95569b1a12ba","system_id":"levelo_inurba_marseille","lat":43.31331,"lon":5.39699,"is_reserved":false,"is_disabled":false,"rental_uris":{"android":"levelo://app?vid=7916ab29-6acf-4981-b006-95569b1a12ba","ios":"levelo://app?vid=7916ab29-6acf-4981-b006-95569b1a12ba"},"vehicle_type_id":"4","last_reported":1767899474,"current_range_meters":4000,"station_id":"ce4bgvp2rcd13ifvqcu0","pricing_plan_id":"cebpf4jnsgd1na2vs0mg"},{"bike_id":"8f8477b6-07ed-4fdd-aa03-c89764869fff","system_id":"levelo_inurba_marseille","lat":43.29805,"lon":5.38128,"is_reserved":false,"is_disabled":false,"rental_uris":{"android":"levelo://app?vid=8f8477b6-07ed-4fdd-aa03-c89764869fff","ios":"levelo://app?vid=8f8477b6-07ed-4fdd-aa03-c89764869fff"},"vehicle_type_id":"4","last_reported":1767899474,"current_range_meters":4000,"station_id":"ce4bgip2rcd13ifvqbb0","pricing_plan_id":"cebpf4jnsgd1na2vs0mg"},{"bike_id":"cbe3dc30-63d8-4c7c-94f5-faeafaffef19","system_id":"levelo_inurba_marseille","lat":43.29528,"lon":5.38535,"is_reserved":false,"is_disabled":false,"rental_uris":{"android":"levelo://app?vid=cbe3dc30-63d8-4c7c-94f5-faeafaffef19","ios":"levelo://app?vid=cbe3dc30-63d8-4c7c-94f5-faeafaffef19"},"vehicle_type_id":"4","last_reported":1767899474,"current_range_meters":4000,"station_id":"ce4bgih2rcd13ifvqba0","pricing_plan_id":"cebpf4jnsgd1na2vs0mg"},{"bike_id":"c3a82e31-75b3-4570-95c4-5a13f4107256","system_id":"levelo_inurba_marseille","lat":43.27613,"lon":5.36113,"is_reserved":false,"is_disabled":false,"rental_uris":{"android":"levelo://app?vid=c3a82e31-75b3-4570-95c4-5a13f4107256","ios":"levelo://app?vid=c3a82e31-75b3-4570-95c4-5a13f4107256"},"vehicle_type_id":"4","last_reported":1767899474,"current_range_meters":4000,"station_id":"ce4bgj92rcd13ifvqbe0","pricing_plan_id":"cebpf4jnsgd1na2vs0mg"},{"bike_id":"0c106f61-b1e2-4634-ae66-0b75c689e13d","system_id":"levelo_inurba_marseille","lat":43.2496,"lon":5.40478,"is_reserved":false,"is_disabled":false,"rental_uris":{"android":"levelo://app?vid=0c106f61-b1e2-4634-ae66-0b75c689e13d","ios":"levelo://app?vid=0c106f61-b1e2-4634-ae66-0b75c689e13d"},"vehicle_type_id":"4","last_reported":1767899474,"current_range_meters":4400,"station_id":"st_d2ngiaodas8pm72gd1h0","pricing_plan_id":"cebpf4jnsgd1na2vs0mg"},{"bike_id":"d0746027-87ef-49f3-9327-18a590b58c1e","system_id":"levelo_inurba_marseille","lat":43.29963,"lon":5.38504,"is_reserved":false,"is_disabled":false,"rental_uris":{"android":"levelo://app?vid=d0746027-87ef-49f3-9327-18a590b58c1e","ios":"levelo://app?vid=d0746027-87ef-49f3-9327-18a590b58c1e"},"vehicle_type_id":"4","last_reported":1767899474,"current_range_meters":4400,"station_id":"ce4bgj92rcd13ifvqbd0","pricing_plan_id":"cebpf4jnsgd1na2vs0mg"},{"bike_id":"fe99a84f-5ce7-4cef-a997-e79fffe9bddd","system_id":"levelo_inurba_marseille","lat":43.32087,"lon":5.36779,"is_reserved":false,"is_disabled":false,"rental_uris":{"android":"levelo://app?vid=fe99a84f-5ce7-4cef-a997-e79fffe9bddd","ios":"levelo://app?vid=fe99a84f-5ce7-4cef-a997-e79fffe9bddd"},"vehicle_type_id":"4","last_reported":1767899474,"current_range_meters":4400,"station_id":"ce4bhrh2rcd13ifvqhug","pricing_plan_id":"cebpf4jnsgd1na2vs0mg"},{"bike_id":"29b35610-0653-494c-aec2-0c4a256bfcd8","system_id":"levelo_inurba_marseille","lat":43.30942,"lon":5.40164,"is_reserved":false,"is_disabled":false,"rental_uris":{"android":"levelo://app?vid=29b35610-0653-494c-aec2-0c4a256bfcd8","ios":"levelo://app?vid=29b35610-0653-494c-aec2-0c4a256bfcd8"},"vehicle_type_id":"4","last_reported":1767899474,"current_range_meters":4400,"station_id":"ce4bgvp2rcd13ifvqct0","pricing_plan_id":"cebpf4jnsgd1na2vs0mg"},{"bike_id":"cec5766b-b25a-4f7c-a1de-8578aaedbf56","system_id":"levelo_inurba_marseille","lat":43.30975,"lon":5.36842,"is_reserved":false,"is_disabled":false,"rental_uris":{"android":"levelo://app?vid=cec5766b-b25a-4f7c-a1de-8578aaedbf56","ios":"levelo://app?vid=cec5766b-b25a-4f7c-a1de-8578aaedbf56"},"vehicle_type_id":"4","last_reported":1767899474,"current_range_meters":4400,"station_id":"","pricing_plan_id":"cebpf4jnsgd1na2vs0mg"},{"bike_id":"a1093ada-f418-4c51-af7e-99415ae82593","system_id":"levelo_inurba_marseille","lat":43.293,"lon":5.37454,"is_reserved":false,"is_disabled":false,"rental_uris":{"android":"levelo://app?vid=a1093ada-f418-4c51-af7e-99415ae82593","ios":"levelo://app?vid=a1093ada-f418-4c51-af7e-99415ae82593"},"vehicle_type_id":"4","last_reported":1767899474,"current_range_meters":4400,"station_id":"ce4bgi12rcd13ifvqb70","pricing_plan_id":"cebpf4jnsgd1na2vs0mg"},{"bike_id":"efe090aa-bb59-4d32-8816-4607d41aab51","system_id":"levelo_inurba_marseille","lat":43.2607,"lon":5.39396,"is_reserved":false,"is_disabled":false,"rental_uris":{"android":"levelo://app?vid=efe090aa-bb59-4d32-8816-4607d41aab51","ios":"levelo://app?vid=efe090aa-bb59-4d32-8816-4607d41aab51"},"vehicle_type_id":"4","last_reported":1767899474,"current_range_meters":4400,"station_id":"ce4bhh92rcd13ifvqfj0","pricing_plan_id":"cebpf4jnsgd1na2vs0mg"},{"bike_id":"603f13a4-dcb2-4fc7-9498-03fbe7481627","system_id":"levelo_inurba_marseille","lat":43.29266,"lon":5.37286,"is_reserved":false,"is_disabled":false,"rental_uris":{"android":"levelo://app?vid=603f13a4-dcb2-4fc7-9498-03fbe7481627","ios":"levelo://app?vid=603f13a4-dcb2-4fc7-9498-03fbe7481627"},"vehicle_type_id":"4","last_reported":1767899474,"current_range_meters":4400,"station_id":"ce4bgh92rcd13ifvqb40","pricing_plan_id":"cebpf4jnsgd1na2vs0mg"},{"bike_id":"e333ef92-9481-476e-a416-b4070e2823b7","system_id":"levelo_inurba_marseille","lat":43.25494,"lon":5.37645,"is_reserved":false,"is_disabled":false,"rental_uris":{"android":"levelo://app?vid=e333ef92-9481-476e-a416-b4070e2823b7","ios":"levelo://app?vid=e333ef92-9481-476e-a416-b4070e2823b7"},"vehicle_type_id":"4","last_reported":1767899474,"current_range_meters":4400,"station_id":"ce4bhh12rcd13ifvqff0","pricing_plan_id":"cebpf4jnsgd1na2vs0mg"},{"bike_id":"f139dc33-0315-4e3b-806c-1c4763fe230a","system_id":"levelo_inurba_marseille","lat":43.323619,"lon":5.367366,"is_reserved":false,"is_disabled":false,"rental_uris":{"android":"levelo://app?vid=f139dc33-0315-4e3b-806c-1c4763fe230a","ios":"levelo://app?vid=f139dc33-0315-4e3b-806c-1c4763fe230a"},"vehicle_type_id":"4","last_reported":1767899474,"current_range_meters":4400,"station_id":"ce4bhsh2rcd13ifvqi2g","pricing_plan_id":"cebpf4jnsgd1na2vs0mg"},{"bike_id":"028756d9-bfe4-42e7-8035-4b002ff65672","system_id":"levelo_inurba_marseille","lat":43.22926,"lon":5.3537,"is_reserved":false,"is_disabled":false,"rental_uris":{"android":"levelo://app?vid=028756d9-bfe4-42e7-8035-4b002ff65672","ios":"levelo://app?vid=028756d9-bfe4-42e7-8035-4b002ff65672"},"vehicle_type_id":"4","last_reported":1767899474,"current_range_meters":4400,"station_id":"cpo3532slgdg3j2ikp40","pricing_plan_id":"cebpf4jnsgd1na2vs0mg"},{"bike_id":"faae8401-f2b6-4b81-869a-404451d7a85b","system_id":"levelo_inurba_marseille","lat":43.26957,"lon":5.38627,"is_reserved":false,"is_disabled":false,"rental_uris":{"android":"levelo://app?vid=faae8401-f2b6-4b81-869a-404451d7a85b","ios":"levelo://app?vid=faae8401-f2b6-4b81-869a-404451d7a85b"},"vehicle_type_id":"4","last_reported":1767899474,"current_range_meters":4400,"station_id":"ce4bhh92rcd13ifvqfh0","pricing_plan_id":"cebpf4jnsgd1na2vs0mg"},{"bike_id":"919b15c7-f6dc-4085-8719-a8f579d2184e","system_id":"levelo_inurba_marseille","lat":43.27373,"lon":5.3626,"is_reserved":false,"is_disabled":false,"rental_uris":{"android":"levelo://app?vid=919b15c7-f6dc-4085-8719-a8f579d2184e","ios":"levelo://app?vid=919b15c7-f6dc-4085-8719-a8f579d2184e"},"vehicle_type_id":"4","last_reported":1767899474,"current_range_meters":4800,"station_id":"ce4bhbh2rcd13ifvqeo0","pricing_plan_id":"cebpf4jnsgd1na2vs0mg"},{"bike_id":"aba7ea30-1026-499d-8351-ae41547f888c","system_id":"levelo_inurba_marseille","lat":43.30299,"lon":5.36887,"is_reserved":false,"is_disabled":false,"rental_uris":{"android":"levelo://app?vid=aba7ea30-1026-499d-8351-ae41547f888c","ios":"levelo://app?vid=aba7ea30-1026-499d-8351-ae41547f888c"},"vehicle_type_id":"4","last_reported":1767899474,"current_range_meters":4800,"station_id":"ce4bgqh2rcd13ifvqc5g","pricing_plan_id":"cebpf4jnsgd1na2vs0mg"},{"bike_id":"89dc92d9-118f-4be6-9412-6d1a541b7af1","system_id":"levelo_inurba_marseille","lat":43.287013,"lon":5.379406,"is_reserved":false,"is_disabled":false,"rental_uris":{"android":"levelo://app?vid=89dc92d9-118f-4be6-9412-6d1a541b7af1","ios":"levelo://app?vid=89dc92d9-118f-4be6-9412-6d1a541b7af1"},"vehicle_type_id":"4","last_reported":1767899474,"current_range_meters":4800,"station_id":"ce4bh9p2rcd13ifvqec0","pricing_plan_id":"cebpf4jnsgd1na2vs0mg"},{"bike_id":"1bbdad3c-9888-4c22-8d56-09d4ceed220a","system_id":"levelo_inurba_marseille","lat":43.30917,"lon":5.36842,"is_reserved":false,"is_disabled":false,"rental_uris":{"android":"levelo://app?vid=1bbdad3c-9888-4c22-8d56-09d4ceed220a","ios":"levelo://app?vid=1bbdad3c-9888-4c22-8d56-09d4ceed220a"},"vehicle_type_id":"4","last_reported":1767899474,"current_range_meters":4800,"station_id":"ce4bgn92rcd13ifvqbvg","pricing_plan_id":"cebpf4jnsgd1na2vs0mg"},{"bike_id":"7ae2676e-e662-4a9a-a79a-d5011de94824","system_id":"levelo_inurba_marseille","lat":43.24166,"lon":5.36394,"is_reserved":false,"is_disabled":false,"rental_uris":{"android":"levelo://app?vid=7ae2676e-e662-4a9a-a79a-d5011de94824","ios":"levelo://app?vid=7ae2676e-e662-4a9a-a79a-d5011de94824"},"vehicle_type_id":"4","last_reported":1767899474,"current_range_meters":4800,"station_id":"cpo36qri1sfpv3e86is0","pricing_plan_id":"cebpf4jnsgd1na2vs0mg"},{"bike_id":"17ffc005-fa72-4d1f-9413-b31aab6a3fd6","system_id":"levelo_inurba_marseille","lat":43.32337,"lon":5.36764,"is_reserved":false,"is_disabled":false,"rental_uris":{"android":"levelo://app?vid=17ffc005-fa72-4d1f-9413-b31aab6a3fd6","ios":"levelo://app?vid=17ffc005-fa72-4d1f-9413-b31aab6a3fd6"},"vehicle_type_id":"4","last_reported":1767899474,"current_range_meters":4800,"station_id":"ce4bhsh2rcd13ifvqi2g","pricing_plan_id":"cebpf4jnsgd1na2vs0mg"},{"bike_id":"847324d2-d88f-47d0-b788-6a5f3c72edc9","system_id":"levelo_inurba_marseille","lat":43.2927,"lon":5.3685,"is_reserved":false,"is_disabled":false,"rental_uris":{"android":"levelo://app?vid=847324d2-d88f-47d0-b788-6a5f3c72edc9","ios":"levelo://app?vid=847324d2-d88f-47d0-b788-6a5f3c72edc9"},"vehicle_type_id":"4","last_reported":1767899474,"current_range_meters":4800,"station_id":"ce4bhbp2rcd13ifvqesg","pricing_plan_id":"cebpf4jnsgd1na2vs0mg"},{"bike_id":"a5756e65-38ab-4759-b864-5855f3371abb","system_id":"levelo_inurba_marseille","lat":43.29297,"lon":5.37422,"is_reserved":false,"is_disabled":false,"rental_uris":{"android":"levelo://app?vid=a5756e65-38ab-4759-b864-5855f3371abb","ios":"levelo://app?vid=a5756e65-38ab-4759-b864-5855f3371abb"},"vehicle_type_id":"4","last_reported":1767899474,"current_range_meters":4800,"station_id":"ce4bgi12rcd13ifvqb70","pricing_plan_id":"cebpf4jnsgd1na2vs0mg"},{"bike_id":"73430d24-327b-4fa0-9c4b-19e214516689","system_id":"levelo_inurba_marseille","lat":43.28857,"lon":5.42505,"is_reserved":false,"is_disabled":false,"rental_uris":{"android":"levelo://app?vid=73430d24-327b-4fa0-9c4b-19e214516689","ios":"levelo://app?vid=73430d24-327b-4fa0-9c4b-19e214516689"},"vehicle_type_id":"4","last_reported":1767899474,"current_range_meters":4800,"station_id":"st_d3b462108ojc7389ooeg","pricing_plan_id":"cebpf4jnsgd1na2vs0mg"},{"bike_id":"e8c34c4a-7c8b-4704-b631-04bf63abaf6b","system_id":"levelo_inurba_marseille","lat":43.2577,"lon":5.39436,"is_reserved":false,"is_disabled":false,"rental_uris":{"android":"levelo://app?vid=e8c34c4a-7c8b-4704-b631-04bf63abaf6b","ios":"levelo://app?vid=e8c34c4a-7c8b-4704-b631-04bf63abaf6b"},"vehicle_type_id":"4","last_reported":1767899474,"current_range_meters":4800,"station_id":"","pricing_plan_id":"cebpf4jnsgd1na2vs0mg"},{"bike_id":"80bdd1a4-b1ab-42ae-bb23-cfddeda5c12d","system_id":"levelo_inurba_marseille","lat":43.29866,"lon":5.38414,"is_reserved":false,"is_disabled":true,"rental_uris":{"android":"levelo://app?vid=80bdd1a4-b1ab-42ae-bb23-cfddeda5c12d","ios":"levelo://app?vid=80bdd1a4-b1ab-42ae-bb23-cfddeda5c12d"},"vehicle_type_id":"4","last_reported":1767899474,"current_range_meters":4800,"station_id":"","pricing_plan_id":"cebpf4jnsgd1na2vs0mg"},{"bike_id":"b30b42a5-f140-4b6b-82d4-5c456fa62a3a","system_id":"levelo_inurba_marseille","lat":43.30254,"lon":5.40083,"is_reserved":false,"is_disabled":false,"rental_uris":{"android":"levelo://app?vid=b30b42a5-f140-4b6b-82d4-5c456fa62a3a","ios":"levelo://app?vid=b30b42a5-f140-4b6b-82d4-5c456fa62a3a"},"vehicle_type_id":"4","last_reported":1767899474,"current_range_meters":4800,"station_id":"ce4bgvh2rcd13ifvqcs0","pricing_plan_id":"cebpf4jnsgd1na2vs0mg"},{"bike_id":"32a4704b-ba99-4866-ae3d-eb40b2197f0d","system_id":"levelo_inurba_marseille","lat":43.28562,"lon":5.39515,"is_reserved":false,"is_disabled":false,"rental_uris":{"android":"levelo://app?vid=32a4704b-ba99-4866-ae3d-eb40b2197f0d","ios":"levelo://app?vid=32a4704b-ba99-4866-ae3d-eb40b2197f0d"},"vehicle_type_id":"4","last_reported":1767899474,"current_range_meters":4800,"station_id":"ce4bh292rcd13ifvqdg0","pricing_plan_id":"cebpf4jnsgd1na2vs0mg"},{"bike_id":"04ca6b22-995e-4a22-a561-b7ea4ec24e4b","system_id":"levelo_inurba_marseille","lat":43.28477,"lon":5.48397,"is_reserved":false,"is_disabled":false,"rental_uris":{"android":"levelo://app?vid=04ca6b22-995e-4a22-a561-b7ea4ec24e4b","ios":"levelo://app?vid=04ca6b22-995e-4a22-a561-b7ea4ec24e4b"},"vehicle_type_id":"4","last_reported":1767899474,"current_range_meters":4800,"station_id":"st_d3svhcjqgbts73a3dn0g","pricing_plan_id":"cebpf4jnsgd1na2vs0mg"},{"bike_id":"d2b5fd91-ae02-4e20-8131-0c3691798905","system_id":"levelo_inurba_marseille","lat":43.301462,"lon":5.380991,"is_reserved":false,"is_disabled":false,"rental_uris":{"android":"levelo://app?vid=d2b5fd91-ae02-4e20-8131-0c3691798905","ios":"levelo://app?vid=d2b5fd91-ae02-4e20-8131-0c3691798905"},"vehicle_type_id":"4","last_reported":1767899474,"current_range_meters":4800,"station_id":"ce4bgjp2rcd13ifvqbh0","pricing_plan_id":"cebpf4jnsgd1na2vs0mg"},{"bike_id":"5f3933f1-8f15-451a-843e-42960e021121","system_id":"levelo_inurba_marseille","lat":43.29582,"lon":5.37505,"is_reserved":false,"is_disabled":false,"rental_uris":{"android":"levelo://app?vid=5f3933f1-8f15-451a-843e-42960e021121","ios":"levelo://app?vid=5f3933f1-8f15-451a-843e-42960e021121"},"vehicle_type_id":"4","last_reported":1767899474,"current_range_meters":5600,"station_id":"ce4bgh92rcd13ifvqb50","pricing_plan_id":"cebpf4jnsgd1na2vs0mg"},{"bike_id":"42f02f13-932e-40dd-ae79-3a7a1a874e34","system_id":"levelo_inurba_marseille","lat":43.29486,"lon":5.43311,"is_reserved":false,"is_disabled":false,"rental_uris":{"android":"levelo://app?vid=42f02f13-932e-40dd-ae79-3a7a1a874e34","ios":"levelo://app?vid=42f02f13-932e-40dd-ae79-3a7a1a874e34"},"vehicle_type_id":"4","last_reported":1767899474,"current_range_meters":5600,"station_id":"st_d3j5ugp08ojc73fj9d10","pricing_plan_id":"cebpf4jnsgd1na2vs0mg"},{"bike_id":"61fd088f-fdf1-4930-bb83-19497936b76c","system_id":"levelo_inurba_marseille","lat":43.29805,"lon":5.38088,"is_reserved":false,"is_disabled":false,"rental_uris":{"android":"levelo://app?vid=61fd088f-fdf1-4930-bb83-19497936b76c","ios":"levelo://app?vid=61fd088f-fdf1-4930-bb83-19497936b76c"},"vehicle_type_id":"4","last_reported":1767899474,"current_range_meters":5600,"station_id":"ce4bgip2rcd13ifvqbb0","pricing_plan_id":"cebpf4jnsgd1na2vs0mg"},{"bike_id":"6d0a99f0-f979-4bad-ad22-7423652e0a11","system_id":"levelo_inurba_marseille","lat":43.27904,"lon":5.38027,"is_reserved":false,"is_disabled":false,"rental_uris":{"android":"levelo://app?vid=6d0a99f0-f979-4bad-ad22-7423652e0a11","ios":"levelo://app?vid=6d0a99f0-f979-4bad-ad22-7423652e0a11"},"vehicle_type_id":"4","last_reported":1767899474,"current_range_meters":5600,"station_id":"ce4bhf92rcd13ifvqf50","pricing_plan_id":"cebpf4jnsgd1na2vs0mg"},{"bike_id":"3ccbae91-74d1-4687-8d76-5f6224bbd60e","system_id":"levelo_inurba_marseille","lat":43.29446,"lon":5.39751,"is_reserved":false,"is_disabled":false,"rental_uris":{"android":"levelo://app?vid=3ccbae91-74d1-4687-8d76-5f6224bbd60e","ios":"levelo://app?vid=3ccbae91-74d1-4687-8d76-5f6224bbd60e"},"vehicle_type_id":"4","last_reported":1767899474,"current_range_meters":5600,"station_id":"ce4bh3h2rcd13ifvqdo0","pricing_plan_id":"cebpf4jnsgd1na2vs0mg"},{"bike_id":"6dd96e51-0ed6-4297-9c0e-283504dcbf10","system_id":"levelo_inurba_marseille","lat":43.28087,"lon":5.39664,"is_reserved":false,"is_disabled":false,"rental_uris":{"android":"levelo://app?vid=6dd96e51-0ed6-4297-9c0e-283504dcbf10","ios":"levelo://app?vid=6dd96e51-0ed6-4297-9c0e-283504dcbf10"},"vehicle_type_id":"4","last_reported":1767899474,"current_range_meters":5600,"station_id":"ce4bho12rcd13ifvqh2g","pricing_plan_id":"cebpf4jnsgd1na2vs0mg"},{"bike_id":"212da61f-e45f-49da-8ac8-22c9c61d8835","system_id":"levelo_inurba_marseille","lat":43.31741,"lon":5.38515,"is_reserved":false,"is_disabled":false,"rental_uris":{"android":"levelo://app?vid=212da61f-e45f-49da-8ac8-22c9c61d8835","ios":"levelo://app?vid=212da61f-e45f-49da-8ac8-22c9c61d8835"},"vehicle_type_id":"4","last_reported":1767899474,"current_range_meters":5600,"station_id":"","pricing_plan_id":"cebpf4jnsgd1na2vs0mg"},{"bike_id":"ecd3c884-b625-4122-929d-6367a66201b9","system_id":"levelo_inurba_marseille","lat":43.30319,"lon":5.36917,"is_reserved":false,"is_disabled":false,"rental_uris":{"android":"levelo://app?vid=ecd3c884-b625-4122-929d-6367a66201b9","ios":"levelo://app?vid=ecd3c884-b625-4122-929d-6367a66201b9"},"vehicle_type_id":"4","last_reported":1767899474,"current_range_meters":5600,"station_id":"ce4bgqh2rcd13ifvqc5g","pricing_plan_id":"cebpf4jnsgd1na2vs0mg"},{"bike_id":"e986fce2-0dcf-4a72-8226-b2117b200211","system_id":"levelo_inurba_marseille","lat":43.23154,"lon":5.43707,"is_reserved":false,"is_disabled":false,"rental_uris":{"android":"levelo://app?vid=e986fce2-0dcf-4a72-8226-b2117b200211","ios":"levelo://app?vid=e986fce2-0dcf-4a72-8226-b2117b200211"},"vehicle_type_id":"4","last_reported":1767899474,"current_range_meters":5600,"station_id":"ce4bhmp2rcd13ifvqgog","pricing_plan_id":"cebpf4jnsgd1na2vs0mg"},{"bike_id":"07e14ff8-2057-4ded-8d5f-7e523c152574","system_id":"levelo_inurba_marseille","lat":43.28468,"lon":5.39189,"is_reserved":false,"is_disabled":false,"rental_uris":{"android":"levelo://app?vid=07e14ff8-2057-4ded-8d5f-7e523c152574","ios":"levelo://app?vid=07e14ff8-2057-4ded-8d5f-7e523c152574"},"vehicle_type_id":"4","last_reported":1767899474,"current_range_meters":5600,"station_id":"ce4bhoh2rcd13ifvqh5g","pricing_plan_id":"cebpf4jnsgd1na2vs0mg"},{"bike_id":"845bee73-fea8-4b21-9671-09bb9a36c361","system_id":"levelo_inurba_marseille","lat":43.2508,"lon":5.39512,"is_reserved":false,"is_disabled":false,"rental_uris":{"android":"levelo://app?vid=845bee73-fea8-4b21-9671-09bb9a36c361","ios":"levelo://app?vid=845bee73-fea8-4b21-9671-09bb9a36c361"},"vehicle_type_id":"4","last_reported":1767899474,"current_range_meters":5600,"station_id":"ce4bhm12rcd13ifvqgkg","pricing_plan_id":"cebpf4jnsgd1na2vs0mg"},{"bike_id":"74c87b54-f533-4c2f-8009-44733f2f901c","system_id":"levelo_inurba_marseille","lat":43.29861,"lon":5.3974,"is_reserved":false,"is_disabled":false,"rental_uris":{"android":"levelo://app?vid=74c87b54-f533-4c2f-8009-44733f2f901c","ios":"levelo://app?vid=74c87b54-f533-4c2f-8009-44733f2f901c"},"vehicle_type_id":"4","last_reported":1767899474,"current_range_meters":5600,"station_id":"ce4bh0h2rcd13ifvqd50","pricing_plan_id":"cebpf4jnsgd1na2vs0mg"},{"bike_id":"33ca7342-8fb9-438a-8912-efb99af38784","system_id":"levelo_inurba_marseille","lat":43.29527,"lon":5.38537,"is_reserved":false,"is_disabled":false,"rental_uris":{"android":"levelo://app?vid=33ca7342-8fb9-438a-8912-efb99af38784","ios":"levelo://app?vid=33ca7342-8fb9-438a-8912-efb99af38784"},"vehicle_type_id":"4","last_reported":1767899474,"current_range_meters":5600,"station_id":"ce4bgih2rcd13ifvqba0","pricing_plan_id":"cebpf4jnsgd1na2vs0mg"},{"bike_id":"f988a602-e99d-4dbc-8b9f-03206eaae430","system_id":"levelo_inurba_marseille","lat":43.30101,"lon":5.39078,"is_reserved":false,"is_disabled":false,"rental_uris":{"android":"levelo://app?vid=f988a602-e99d-4dbc-8b9f-03206eaae430","ios":"levelo://app?vid=f988a602-e99d-4dbc-8b9f-03206eaae430"},"vehicle_type_id":"4","last_reported":1767899474,"current_range_meters":6000,"station_id":"ce4bh192rcd13ifvqdb0","pricing_plan_id":"cebpf4jnsgd1na2vs0mg"},{"bike_id":"6df19930-e3eb-4eb3-9a45-a01da3418078","system_id":"levelo_inurba_marseille","lat":43.25756,"lon":5.39446,"is_reserved":false,"is_disabled":false,"rental_uris":{"android":"levelo://app?vid=6df19930-e3eb-4eb3-9a45-a01da3418078","ios":"levelo://app?vid=6df19930-e3eb-4eb3-9a45-a01da3418078"},"vehicle_type_id":"4","last_reported":1767899474,"current_range_meters":6000,"station_id":"","pricing_plan_id":"cebpf4jnsgd1na2vs0mg"},{"bike_id":"ad4e6056-861a-46d7-8025-a32e40d7e72a","system_id":"levelo_inurba_marseille","lat":43.292245,"lon":5.360555,"is_reserved":false,"is_disabled":false,"rental_uris":{"android":"levelo://app?vid=ad4e6056-861a-46d7-8025-a32e40d7e72a","ios":"levelo://app?vid=ad4e6056-861a-46d7-8025-a32e40d7e72a"},"vehicle_type_id":"4","last_reported":1767899474,"current_range_meters":6000,"station_id":"ce4bhbh2rcd13ifvqeqg","pricing_plan_id":"cebpf4jnsgd1na2vs0mg"},{"bike_id":"d3b33c0a-a219-4753-85af-77f9c8e71c75","system_id":"levelo_inurba_marseille","lat":43.293014,"lon":5.371766,"is_reserved":false,"is_disabled":false,"rental_uris":{"android":"levelo://app?vid=d3b33c0a-a219-4753-85af-77f9c8e71c75","ios":"levelo://app?vid=d3b33c0a-a219-4753-85af-77f9c8e71c75"},"vehicle_type_id":"4","last_reported":1767899474,"current_range_meters":6000,"station_id":"ce4bgh92rcd13ifvqb40","pricing_plan_id":"cebpf4jnsgd1na2vs0mg"},{"bike_id":"a6462651-ffd6-4de0-ac89-ac14a3f92140","system_id":"levelo_inurba_marseille","lat":43.237824,"lon":5.366325,"is_reserved":false,"is_disabled":false,"rental_uris":{"android":"levelo://app?vid=a6462651-ffd6-4de0-ac89-ac14a3f92140","ios":"levelo://app?vid=a6462651-ffd6-4de0-ac89-ac14a3f92140"},"vehicle_type_id":"4","last_reported":1767899474,"current_range_meters":6000,"station_id":"st_d3nk18o9ro0c73en2l3g","pricing_plan_id":"cebpf4jnsgd1na2vs0mg"},{"bike_id":"d0581bff-1d0c-4410-806f-6b8c4cb9781f","system_id":"levelo_inurba_marseille","lat":43.28455,"lon":5.35899,"is_reserved":false,"is_disabled":false,"rental_uris":{"android":"levelo://app?vid=d0581bff-1d0c-4410-806f-6b8c4cb9781f","ios":"levelo://app?vid=d0581bff-1d0c-4410-806f-6b8c4cb9781f"},"vehicle_type_id":"4","last_reported":1767899474,"current_range_meters":6000,"station_id":"ce4bhah2rcd13ifvqei0","pricing_plan_id":"cebpf4jnsgd1na2vs0mg"},{"bike_id":"b72099cd-b077-494a-845f-7f9bf2c72c0e","system_id":"levelo_inurba_marseille","lat":43.24804,"lon":5.37451,"is_reserved":false,"is_disabled":false,"rental_uris":{"android":"levelo://app?vid=b72099cd-b077-494a-845f-7f9bf2c72c0e","ios":"levelo://app?vid=b72099cd-b077-494a-845f-7f9bf2c72c0e"},"vehicle_type_id":"4","last_reported":1767899474,"current_range_meters":6000,"station_id":"ce4bhgh2rcd13ifvqfb0","pricing_plan_id":"cebpf4jnsgd1na2vs0mg"},{"bike_id":"85ec619e-5ea0-4fca-a7de-dd41384f5c43","system_id":"levelo_inurba_marseille","lat":43.2657,"lon":5.37304,"is_reserved":false,"is_disabled":false,"rental_uris":{"android":"levelo://app?vid=85ec619e-5ea0-4fca-a7de-dd41384f5c43","ios":"levelo://app?vid=85ec619e-5ea0-4fca-a7de-dd41384f5c43"},"vehicle_type_id":"4","last_reported":1767899474,"current_range_meters":6000,"station_id":"ce4bhg12rcd13ifvqf70","pricing_plan_id":"cebpf4jnsgd1na2vs0mg"},{"bike_id":"0896a6b0-9fee-43d9-b927-69a576d730d9","system_id":"levelo_inurba_marseille","lat":43.28946,"lon":5.3663,"is_reserved":false,"is_disabled":true,"rental_uris":{"android":"levelo://app?vid=0896a6b0-9fee-43d9-b927-69a576d730d9","ios":"levelo://app?vid=0896a6b0-9fee-43d9-b927-69a576d730d9"},"vehicle_type_id":"4","last_reported":1767899474,"current_range_meters":6000,"station_id":"ce4bhap2rcd13ifvqek0","pricing_plan_id":"cebpf4jnsgd1na2vs0mg"},{"bike_id":"d19d32de-fe7f-42ca-93fe-613a15438278","system_id":"levelo_inurba_marseille","lat":43.28429,"lon":5.35,"is_reserved":false,"is_disabled":false,"rental_uris":{"android":"levelo://app?vid=d19d32de-fe7f-42ca-93fe-613a15438278","ios":"levelo://app?vid=d19d32de-fe7f-42ca-93fe-613a15438278"},"vehicle_type_id":"4","last_reported":1767899474,"current_range_meters":6000,"station_id":"ce4bhbh2rcd13ifvqepg","pricing_plan_id":"cebpf4jnsgd1na2vs0mg"},{"bike_id":"26251df8-74b6-4622-a854-fef4826e7216","system_id":"levelo_inurba_marseille","lat":43.29574,"lon":5.37514,"is_reserved":false,"is_disabled":false,"rental_uris":{"android":"levelo://app?vid=26251df8-74b6-4622-a854-fef4826e7216","ios":"levelo://app?vid=26251df8-74b6-4622-a854-fef4826e7216"},"vehicle_type_id":"4","last_reported":1767899474,"current_range_meters":6000,"station_id":"ce4bgh92rcd13ifvqb50","pricing_plan_id":"cebpf4jnsgd1na2vs0mg"},{"bike_id":"8467f275-f659-442c-b398-0f67f70d7fd1","system_id":"levelo_inurba_marseille","lat":43.27382,"lon":5.36249,"is_reserved":false,"is_disabled":true,"rental_uris":{"android":"levelo://app?vid=8467f275-f659-442c-b398-0f67f70d7fd1","ios":"levelo://app?vid=8467f275-f659-442c-b398-0f67f70d7fd1"},"vehicle_type_id":"4","last_reported":1767899474,"current_range_meters":6000,"station_id":"ce4bhbh2rcd13ifvqeo0","pricing_plan_id":"cebpf4jnsgd1na2vs0mg"},{"bike_id":"5d9cf16b-1d31-47c6-9202-9dcf298ecce7","system_id":"levelo_inurba_marseille","lat":43.29165,"lon":5.371545,"is_reserved":false,"is_disabled":false,"rental_uris":{"android":"levelo://app?vid=5d9cf16b-1d31-47c6-9202-9dcf298ecce7","ios":"levelo://app?vid=5d9cf16b-1d31-47c6-9202-9dcf298ecce7"},"vehicle_type_id":"4","last_reported":1767899474,"current_range_meters":6000,"station_id":"ce4bha92rcd13ifvqeh0","pricing_plan_id":"cebpf4jnsgd1na2vs0mg"},{"bike_id":"e87e13ae-d69b-4129-94d6-fdb38119b5d3","system_id":"levelo_inurba_marseille","lat":43.284076,"lon":5.349784,"is_reserved":false,"is_disabled":false,"rental_uris":{"android":"levelo://app?vid=e87e13ae-d69b-4129-94d6-fdb38119b5d3","ios":"levelo://app?vid=e87e13ae-d69b-4129-94d6-fdb38119b5d3"},"vehicle_type_id":"4","last_reported":1767899474,"current_range_meters":6000,"station_id":"ce4bhbh2rcd13ifvqepg","pricing_plan_id":"cebpf4jnsgd1na2vs0mg"},{"bike_id":"d732fcd7-f8ed-43d6-b6ef-d29b2b97a6d4","system_id":"levelo_inurba_marseille","lat":43.27369,"lon":5.36259,"is_reserved":false,"is_disabled":false,"rental_uris":{"android":"levelo://app?vid=d732fcd7-f8ed-43d6-b6ef-d29b2b97a6d4","ios":"levelo://app?vid=d732fcd7-f8ed-43d6-b6ef-d29b2b97a6d4"},"vehicle_type_id":"4","last_reported":1767899474,"current_range_meters":6000,"station_id":"ce4bhbh2rcd13ifvqeo0","pricing_plan_id":"cebpf4jnsgd1na2vs0mg"},{"bike_id":"47d0a8b3-c4fc-4d20-befe-0d9c69ad92a9","system_id":"levelo_inurba_marseille","lat":43.23783,"lon":5.36631,"is_reserved":false,"is_disabled":false,"rental_uris":{"android":"levelo://app?vid=47d0a8b3-c4fc-4d20-befe-0d9c69ad92a9","ios":"levelo://app?vid=47d0a8b3-c4fc-4d20-befe-0d9c69ad92a9"},"vehicle_type_id":"4","last_reported":1767899474,"current_range_meters":6000,"station_id":"st_d3nk18o9ro0c73en2l3g","pricing_plan_id":"cebpf4jnsgd1na2vs0mg"},{"bike_id":"eedec567-ccb8-4202-9b5d-d687ea78b3d8","system_id":"levelo_inurba_marseille","lat":43.248164,"lon":5.374568,"is_reserved":false,"is_disabled":false,"rental_uris":{"android":"levelo://app?vid=eedec567-ccb8-4202-9b5d-d687ea78b3d8","ios":"levelo://app?vid=eedec567-ccb8-4202-9b5d-d687ea78b3d8"},"vehicle_type_id":"4","last_reported":1767899474,"current_range_meters":6400,"station_id":"ce4bhgh2rcd13ifvqfb0","pricing_plan_id":"cebpf4jnsgd1na2vs0mg"},{"bike_id":"92ec400a-1816-464b-b776-d8ae8599bbc7","system_id":"levelo_inurba_marseille","lat":43.253127,"lon":5.381125,"is_reserved":false,"is_disabled":false,"rental_uris":{"android":"levelo://app?vid=92ec400a-1816-464b-b776-d8ae8599bbc7","ios":"levelo://app?vid=92ec400a-1816-464b-b776-d8ae8599bbc7"},"vehicle_type_id":"4","last_reported":1767899474,"current_range_meters":6400,"station_id":"","pricing_plan_id":"cebpf4jnsgd1na2vs0mg"},{"bike_id":"9c202c24-a1c8-4fad-95ee-379e797dad6e","system_id":"levelo_inurba_marseille","lat":43.29834,"lon":5.381,"is_reserved":false,"is_disabled":false,"rental_uris":{"android":"levelo://app?vid=9c202c24-a1c8-4fad-95ee-379e797dad6e","ios":"levelo://app?vid=9c202c24-a1c8-4fad-95ee-379e797dad6e"},"vehicle_type_id":"4","last_reported":1767899474,"current_range_meters":6400,"station_id":"ce4bgip2rcd13ifvqbb0","pricing_plan_id":"cebpf4jnsgd1na2vs0mg"},{"bike_id":"19e15d06-cf4c-459d-8887-b3feaa0bcacf","system_id":"levelo_inurba_marseille","lat":43.328443,"lon":5.404674,"is_reserved":false,"is_disabled":false,"rental_uris":{"android":"levelo://app?vid=19e15d06-cf4c-459d-8887-b3feaa0bcacf","ios":"levelo://app?vid=19e15d06-cf4c-459d-8887-b3feaa0bcacf"},"vehicle_type_id":"4","last_reported":1767899474,"current_range_meters":6400,"station_id":"ce4bhq92rcd13ifvqhkg","pricing_plan_id":"cebpf4jnsgd1na2vs0mg"},{"bike_id":"33b9d4c7-d219-468e-9afd-b82032893d5d","system_id":"levelo_inurba_marseille","lat":43.27969,"lon":5.38751,"is_reserved":false,"is_disabled":false,"rental_uris":{"android":"levelo://app?vid=33b9d4c7-d219-468e-9afd-b82032893d5d","ios":"levelo://app?vid=33b9d4c7-d219-468e-9afd-b82032893d5d"},"vehicle_type_id":"4","last_reported":1767899474,"current_range_meters":6400,"station_id":"ce4bhg12rcd13ifvqf80","pricing_plan_id":"cebpf4jnsgd1na2vs0mg"},{"bike_id":"c10c03af-eba1-4f9f-a373-ad08e2aac44e","system_id":"levelo_inurba_marseille","lat":43.25951,"lon":5.40897,"is_reserved":false,"is_disabled":false,"rental_uris":{"android":"levelo://app?vid=c10c03af-eba1-4f9f-a373-ad08e2aac44e","ios":"levelo://app?vid=c10c03af-eba1-4f9f-a373-ad08e2aac44e"},"vehicle_type_id":"4","last_reported":1767899474,"current_range_meters":6400,"station_id":"ce4bhm92rcd13ifvqglg","pricing_plan_id":"cebpf4jnsgd1na2vs0mg"},{"bike_id":"173302e6-6e83-436f-a5e7-5728fa6cbe75","system_id":"levelo_inurba_marseille","lat":43.27567,"lon":5.3844,"is_reserved":false,"is_disabled":false,"rental_uris":{"android":"levelo://app?vid=173302e6-6e83-436f-a5e7-5728fa6cbe75","ios":"levelo://app?vid=173302e6-6e83-436f-a5e7-5728fa6cbe75"},"vehicle_type_id":"4","last_reported":1767899474,"current_range_meters":6400,"station_id":"ce4bhh92rcd13ifvqfi0","pricing_plan_id":"cebpf4jnsgd1na2vs0mg"},{"bike_id":"7b88a2e6-bf0e-4065-86ce-de21d005b8f6","system_id":"levelo_inurba_marseille","lat":43.29218,"lon":5.37489,"is_reserved":false,"is_disabled":false,"rental_uris":{"android":"levelo://app?vid=7b88a2e6-bf0e-4065-86ce-de21d005b8f6","ios":"levelo://app?vid=7b88a2e6-bf0e-4065-86ce-de21d005b8f6"},"vehicle_type_id":"4","last_reported":1767899474,"current_range_meters":6400,"station_id":"","pricing_plan_id":"cebpf4jnsgd1na2vs0mg"},{"bike_id":"89d31037-815d-4ebf-9cf1-7e6e32f17ab3","system_id":"levelo_inurba_marseille","lat":43.27185,"lon":5.40997,"is_reserved":false,"is_disabled":false,"rental_uris":{"android":"levelo://app?vid=89d31037-815d-4ebf-9cf1-7e6e32f17ab3","ios":"levelo://app?vid=89d31037-815d-4ebf-9cf1-7e6e32f17ab3"},"vehicle_type_id":"4","last_reported":1767899474,"current_range_meters":6400,"station_id":"ce4bhl12rcd13ifvqgf0","pricing_plan_id":"cebpf4jnsgd1na2vs0mg"},{"bike_id":"7c55c35c-6fd9-4469-9b49-345daf2ec5a2","system_id":"levelo_inurba_marseille","lat":43.290282,"lon":5.386484,"is_reserved":false,"is_disabled":false,"rental_uris":{"android":"levelo://app?vid=7c55c35c-6fd9-4469-9b49-345daf2ec5a2","ios":"levelo://app?vid=7c55c35c-6fd9-4469-9b49-345daf2ec5a2"},"vehicle_type_id":"4","last_reported":1767899474,"current_range_meters":6400,"station_id":"","pricing_plan_id":"cebpf4jnsgd1na2vs0mg"},{"bike_id":"468b4f5f-cda9-4519-831f-7b65ad408fe0","system_id":"levelo_inurba_marseille","lat":43.27369,"lon":5.36233,"is_reserved":false,"is_disabled":false,"rental_uris":{"android":"levelo://app?vid=468b4f5f-cda9-4519-831f-7b65ad408fe0","ios":"levelo://app?vid=468b4f5f-cda9-4519-831f-7b65ad408fe0"},"vehicle_type_id":"4","last_reported":1767899474,"current_range_meters":6400,"station_id":"ce4bhbh2rcd13ifvqeo0","pricing_plan_id":"cebpf4jnsgd1na2vs0mg"},{"bike_id":"def7dce9-fdc4-4df2-baea-27b2ff2b32ca","system_id":"levelo_inurba_marseille","lat":43.2916,"lon":5.3715,"is_reserved":false,"is_disabled":false,"rental_uris":{"android":"levelo://app?vid=def7dce9-fdc4-4df2-baea-27b2ff2b32ca","ios":"levelo://app?vid=def7dce9-fdc4-4df2-baea-27b2ff2b32ca"},"vehicle_type_id":"4","last_reported":1767899474,"current_range_meters":6400,"station_id":"ce4bha92rcd13ifvqeh0","pricing_plan_id":"cebpf4jnsgd1na2vs0mg"},{"bike_id":"efcbda51-62e1-4f07-ab6b-7f654193639e","system_id":"levelo_inurba_marseille","lat":43.26059,"lon":5.39394,"is_reserved":false,"is_disabled":false,"rental_uris":{"android":"levelo://app?vid=efcbda51-62e1-4f07-ab6b-7f654193639e","ios":"levelo://app?vid=efcbda51-62e1-4f07-ab6b-7f654193639e"},"vehicle_type_id":"4","last_reported":1767899474,"current_range_meters":6400,"station_id":"ce4bhh92rcd13ifvqfj0","pricing_plan_id":"cebpf4jnsgd1na2vs0mg"},{"bike_id":"e9fbb55b-45ea-4b51-8726-aff775b6f253","system_id":"levelo_inurba_marseille","lat":43.22921,"lon":5.35379,"is_reserved":false,"is_disabled":false,"rental_uris":{"android":"levelo://app?vid=e9fbb55b-45ea-4b51-8726-aff775b6f253","ios":"levelo://app?vid=e9fbb55b-45ea-4b51-8726-aff775b6f253"},"vehicle_type_id":"4","last_reported":1767899474,"current_range_meters":6400,"station_id":"cpo3532slgdg3j2ikp40","pricing_plan_id":"cebpf4jnsgd1na2vs0mg"},{"bike_id":"73543345-4ef9-4e98-84ee-ab10ee209479","system_id":"levelo_inurba_marseille","lat":43.31064,"lon":5.38347,"is_reserved":false,"is_disabled":false,"rental_uris":{"android":"levelo://app?vid=73543345-4ef9-4e98-84ee-ab10ee209479","ios":"levelo://app?vid=73543345-4ef9-4e98-84ee-ab10ee209479"},"vehicle_type_id":"4","last_reported":1767899474,"current_range_meters":6400,"station_id":"ce4bgv92rcd13ifvqcr0","pricing_plan_id":"cebpf4jnsgd1na2vs0mg"},{"bike_id":"f0db0b22-e088-46a2-abbe-dbd55331e79a","system_id":"levelo_inurba_marseille","lat":43.2636,"lon":5.41056,"is_reserved":false,"is_disabled":false,"rental_uris":{"android":"levelo://app?vid=f0db0b22-e088-46a2-abbe-dbd55331e79a","ios":"levelo://app?vid=f0db0b22-e088-46a2-abbe-dbd55331e79a"},"vehicle_type_id":"4","last_reported":1767899474,"current_range_meters":6400,"station_id":"st_d4e5ca6na9uc73bfl5fg","pricing_plan_id":"cebpf4jnsgd1na2vs0mg"},{"bike_id":"cba6f7c2-3b8b-4632-849b-d79ab7b6ec78","system_id":"levelo_inurba_marseille","lat":43.31367,"lon":5.3849,"is_reserved":false,"is_disabled":false,"rental_uris":{"android":"levelo://app?vid=cba6f7c2-3b8b-4632-849b-d79ab7b6ec78","ios":"levelo://app?vid=cba6f7c2-3b8b-4632-849b-d79ab7b6ec78"},"vehicle_type_id":"4","last_reported":1767899474,"current_range_meters":6400,"station_id":"ce4bgt92rcd13ifvqcf0","pricing_plan_id":"cebpf4jnsgd1na2vs0mg"},{"bike_id":"ef8b8eb6-6226-4146-95a1-d01c656eb60d","system_id":"levelo_inurba_marseille","lat":43.28472,"lon":5.48398,"is_reserved":false,"is_disabled":false,"rental_uris":{"android":"levelo://app?vid=ef8b8eb6-6226-4146-95a1-d01c656eb60d","ios":"levelo://app?vid=ef8b8eb6-6226-4146-95a1-d01c656eb60d"},"vehicle_type_id":"4","last_reported":1767899474,"current_range_meters":6400,"station_id":"st_d3svhcjqgbts73a3dn0g","pricing_plan_id":"cebpf4jnsgd1na2vs0mg"},{"bike_id":"e9be6d9d-169b-4cae-9a40-1aae9b41881f","system_id":"levelo_inurba_marseille","lat":43.287786,"lon":5.381025,"is_reserved":false,"is_disabled":false,"rental_uris":{"android":"levelo://app?vid=e9be6d9d-169b-4cae-9a40-1aae9b41881f","ios":"levelo://app?vid=e9be6d9d-169b-4cae-9a40-1aae9b41881f"},"vehicle_type_id":"4","last_reported":1767899474,"current_range_meters":6400,"station_id":"","pricing_plan_id":"cebpf4jnsgd1na2vs0mg"},{"bike_id":"357563d8-d33e-4f70-862e-8fab05436ef0","system_id":"levelo_inurba_marseille","lat":43.289776,"lon":5.378228,"is_reserved":false,"is_disabled":false,"rental_uris":{"android":"levelo://app?vid=357563d8-d33e-4f70-862e-8fab05436ef0","ios":"levelo://app?vid=357563d8-d33e-4f70-862e-8fab05436ef0"},"vehicle_type_id":"4","last_reported":1767899474,"current_range_meters":6400,"station_id":"","pricing_plan_id":"cebpf4jnsgd1na2vs0mg"},{"bike_id":"a848b09e-9f53-44e1-8671-ae6488b46a50","system_id":"levelo_inurba_marseille","lat":43.312757,"lon":5.401789,"is_reserved":false,"is_disabled":false,"rental_uris":{"android":"levelo://app?vid=a848b09e-9f53-44e1-8671-ae6488b46a50","ios":"levelo://app?vid=a848b09e-9f53-44e1-8671-ae6488b46a50"},"vehicle_type_id":"4","last_reported":1767899474,"current_range_meters":6400,"station_id":"","pricing_plan_id":"cebpf4jnsgd1na2vs0mg"},{"bike_id":"5ddc36fe-25ae-4411-85cc-e5b7ed02f34a","system_id":"levelo_inurba_marseille","lat":43.28611,"lon":5.37058,"is_reserved":false,"is_disabled":false,"rental_uris":{"android":"levelo://app?vid=5ddc36fe-25ae-4411-85cc-e5b7ed02f34a","ios":"levelo://app?vid=5ddc36fe-25ae-4411-85cc-e5b7ed02f34a"},"vehicle_type_id":"4","last_reported":1767899474,"current_range_meters":6400,"station_id":"ce4bht12rcd13ifvqi60","pricing_plan_id":"cebpf4jnsgd1na2vs0mg"},{"bike_id":"7401be6f-cce5-4127-bfd0-4e81a357cf0d","system_id":"levelo_inurba_marseille","lat":43.25581,"lon":5.38216,"is_reserved":false,"is_disabled":false,"rental_uris":{"android":"levelo://app?vid=7401be6f-cce5-4127-bfd0-4e81a357cf0d","ios":"levelo://app?vid=7401be6f-cce5-4127-bfd0-4e81a357cf0d"},"vehicle_type_id":"4","last_reported":1767899474,"current_range_meters":6400,"station_id":"ce4bhih2rcd13ifvqfs0","pricing_plan_id":"cebpf4jnsgd1na2vs0mg"},{"bike_id":"3ada1a6b-6031-458a-b05a-7b349030768e","system_id":"levelo_inurba_marseille","lat":43.3055,"lon":5.36792,"is_reserved":false,"is_disabled":false,"rental_uris":{"android":"levelo://app?vid=3ada1a6b-6031-458a-b05a-7b349030768e","ios":"levelo://app?vid=3ada1a6b-6031-458a-b05a-7b349030768e"},"vehicle_type_id":"4","last_reported":1767899474,"current_range_meters":6400,"station_id":"ce4bgrp2rcd13ifvqc9g","pricing_plan_id":"cebpf4jnsgd1na2vs0mg"},{"bike_id":"b4fa0935-9b50-4a59-a851-194d4cccd67f","system_id":"levelo_inurba_marseille","lat":43.2417,"lon":5.36399,"is_reserved":false,"is_disabled":false,"rental_uris":{"android":"levelo://app?vid=b4fa0935-9b50-4a59-a851-194d4cccd67f","ios":"levelo://app?vid=b4fa0935-9b50-4a59-a851-194d4cccd67f"},"vehicle_type_id":"4","last_reported":1767899474,"current_range_meters":6400,"station_id":"cpo36qri1sfpv3e86is0","pricing_plan_id":"cebpf4jnsgd1na2vs0mg"},{"bike_id":"9cfeff17-a54a-4b3c-baa8-c7ed795fc5f2","system_id":"levelo_inurba_marseille","lat":43.24164,"lon":5.36388,"is_reserved":false,"is_disabled":false,"rental_uris":{"android":"levelo://app?vid=9cfeff17-a54a-4b3c-baa8-c7ed795fc5f2","ios":"levelo://app?vid=9cfeff17-a54a-4b3c-baa8-c7ed795fc5f2"},"vehicle_type_id":"4","last_reported":1767899474,"current_range_meters":6800,"station_id":"cpo36qri1sfpv3e86is0","pricing_plan_id":"cebpf4jnsgd1na2vs0mg"},{"bike_id":"105c4b26-942d-4f45-9252-db9310292cb7","system_id":"levelo_inurba_marseille","lat":43.24669,"lon":5.38155,"is_reserved":false,"is_disabled":false,"rental_uris":{"android":"levelo://app?vid=105c4b26-942d-4f45-9252-db9310292cb7","ios":"levelo://app?vid=105c4b26-942d-4f45-9252-db9310292cb7"},"vehicle_type_id":"4","last_reported":1767899474,"current_range_meters":6800,"station_id":"ce4bhih2rcd13ifvqfr0","pricing_plan_id":"cebpf4jnsgd1na2vs0mg"},{"bike_id":"cc85a6ba-05f9-4c4d-a519-e1f41fd3e5dc","system_id":"levelo_inurba_marseille","lat":43.29942,"lon":5.36547,"is_reserved":false,"is_disabled":true,"rental_uris":{"android":"levelo://app?vid=cc85a6ba-05f9-4c4d-a519-e1f41fd3e5dc","ios":"levelo://app?vid=cc85a6ba-05f9-4c4d-a519-e1f41fd3e5dc"},"vehicle_type_id":"4","last_reported":1767899474,"current_range_meters":6800,"station_id":"ce4bgm92rcd13ifvqbr0","pricing_plan_id":"cebpf4jnsgd1na2vs0mg"},{"bike_id":"54eb4ea2-62d2-46f1-be28-8b9786edbd57","system_id":"levelo_inurba_marseille","lat":43.23149,"lon":5.43717,"is_reserved":false,"is_disabled":false,"rental_uris":{"android":"levelo://app?vid=54eb4ea2-62d2-46f1-be28-8b9786edbd57","ios":"levelo://app?vid=54eb4ea2-62d2-46f1-be28-8b9786edbd57"},"vehicle_type_id":"4","last_reported":1767899474,"current_range_meters":6800,"station_id":"ce4bhmp2rcd13ifvqgog","pricing_plan_id":"cebpf4jnsgd1na2vs0mg"},{"bike_id":"d5475db6-1546-4669-a638-091b398f70ee","system_id":"levelo_inurba_marseille","lat":43.28693,"lon":5.3867,"is_reserved":false,"is_disabled":false,"rental_uris":{"android":"levelo://app?vid=d5475db6-1546-4669-a638-091b398f70ee","ios":"levelo://app?vid=d5475db6-1546-4669-a638-091b398f70ee"},"vehicle_type_id":"4","last_reported":1767899474,"current_range_meters":6800,"station_id":"ce4bh492rcd13ifvqdug","pricing_plan_id":"cebpf4jnsgd1na2vs0mg"},{"bike_id":"873ae146-395a-40ee-8fdf-3d973ffd9442","system_id":"levelo_inurba_marseille","lat":43.25925,"lon":5.40904,"is_reserved":false,"is_disabled":false,"rental_uris":{"android":"levelo://app?vid=873ae146-395a-40ee-8fdf-3d973ffd9442","ios":"levelo://app?vid=873ae146-395a-40ee-8fdf-3d973ffd9442"},"vehicle_type_id":"4","last_reported":1767899474,"current_range_meters":6800,"station_id":"ce4bhm92rcd13ifvqglg","pricing_plan_id":"cebpf4jnsgd1na2vs0mg"},{"bike_id":"064c8191-3107-4a12-b80e-6dc34a12a072","system_id":"levelo_inurba_marseille","lat":43.248129,"lon":5.37456,"is_reserved":false,"is_disabled":false,"rental_uris":{"android":"levelo://app?vid=064c8191-3107-4a12-b80e-6dc34a12a072","ios":"levelo://app?vid=064c8191-3107-4a12-b80e-6dc34a12a072"},"vehicle_type_id":"4","last_reported":1767899474,"current_range_meters":6800,"station_id":"ce4bhgh2rcd13ifvqfb0","pricing_plan_id":"cebpf4jnsgd1na2vs0mg"},{"bike_id":"662b526c-8c27-4d2d-b35e-6a1cdf3512ce","system_id":"levelo_inurba_marseille","lat":43.248108,"lon":5.374574,"is_reserved":false,"is_disabled":false,"rental_uris":{"android":"levelo://app?vid=662b526c-8c27-4d2d-b35e-6a1cdf3512ce","ios":"levelo://app?vid=662b526c-8c27-4d2d-b35e-6a1cdf3512ce"},"vehicle_type_id":"4","last_reported":1767899474,"current_range_meters":6800,"station_id":"ce4bhgh2rcd13ifvqfb0","pricing_plan_id":"cebpf4jnsgd1na2vs0mg"},{"bike_id":"4244cd80-ecfb-4df1-8fb5-05bc5a77fc4e","system_id":"levelo_inurba_marseille","lat":43.28154,"lon":5.42643,"is_reserved":false,"is_disabled":false,"rental_uris":{"android":"levelo://app?vid=4244cd80-ecfb-4df1-8fb5-05bc5a77fc4e","ios":"levelo://app?vid=4244cd80-ecfb-4df1-8fb5-05bc5a77fc4e"},"vehicle_type_id":"4","last_reported":1767899474,"current_range_meters":6800,"station_id":"ce4bhnh2rcd13ifvqgug","pricing_plan_id":"cebpf4jnsgd1na2vs0mg"},{"bike_id":"ac64f432-9ab8-4dd9-b132-5f28fccbe7fd","system_id":"levelo_inurba_marseille","lat":43.30534,"lon":5.36773,"is_reserved":false,"is_disabled":false,"rental_uris":{"android":"levelo://app?vid=ac64f432-9ab8-4dd9-b132-5f28fccbe7fd","ios":"levelo://app?vid=ac64f432-9ab8-4dd9-b132-5f28fccbe7fd"},"vehicle_type_id":"4","last_reported":1767899474,"current_range_meters":6800,"station_id":"ce4bgrp2rcd13ifvqc9g","pricing_plan_id":"cebpf4jnsgd1na2vs0mg"},{"bike_id":"82582fec-7dfe-4668-947f-7bf0439e6b8e","system_id":"levelo_inurba_marseille","lat":43.284738,"lon":5.484047,"is_reserved":false,"is_disabled":false,"rental_uris":{"android":"levelo://app?vid=82582fec-7dfe-4668-947f-7bf0439e6b8e","ios":"levelo://app?vid=82582fec-7dfe-4668-947f-7bf0439e6b8e"},"vehicle_type_id":"4","last_reported":1767899474,"current_range_meters":6800,"station_id":"","pricing_plan_id":"cebpf4jnsgd1na2vs0mg"},{"bike_id":"80c1456b-51ee-4fc1-b2ab-63785d9f6190","system_id":"levelo_inurba_marseille","lat":43.27807,"lon":5.40727,"is_reserved":false,"is_disabled":false,"rental_uris":{"android":"levelo://app?vid=80c1456b-51ee-4fc1-b2ab-63785d9f6190","ios":"levelo://app?vid=80c1456b-51ee-4fc1-b2ab-63785d9f6190"},"vehicle_type_id":"4","last_reported":1767899474,"current_range_meters":6800,"station_id":"ce4bhnh2rcd13ifvqgtg","pricing_plan_id":"cebpf4jnsgd1na2vs0mg"},{"bike_id":"63e4976f-7d93-49f6-a2b3-f7ce857422dd","system_id":"levelo_inurba_marseille","lat":43.30314,"lon":5.39174,"is_reserved":false,"is_disabled":true,"rental_uris":{"android":"levelo://app?vid=63e4976f-7d93-49f6-a2b3-f7ce857422dd","ios":"levelo://app?vid=63e4976f-7d93-49f6-a2b3-f7ce857422dd"},"vehicle_type_id":"4","last_reported":1767899474,"current_range_meters":6800,"station_id":"ce4bgkh2rcd13ifvqbk0","pricing_plan_id":"cebpf4jnsgd1na2vs0mg"},{"bike_id":"83baf7ef-456e-4c72-9805-22aa4846a1b3","system_id":"levelo_inurba_marseille","lat":43.285361,"lon":5.441137,"is_reserved":false,"is_disabled":false,"rental_uris":{"android":"levelo://app?vid=83baf7ef-456e-4c72-9805-22aa4846a1b3","ios":"levelo://app?vid=83baf7ef-456e-4c72-9805-22aa4846a1b3"},"vehicle_type_id":"4","last_reported":1767899474,"current_range_meters":6800,"station_id":"st_d3j3df2ikq2c7380ej80","pricing_plan_id":"cebpf4jnsgd1na2vs0mg"},{"bike_id":"978ec5f8-496f-4a84-af0e-c84c7fe1cff2","system_id":"levelo_inurba_marseille","lat":43.30921,"lon":5.4014,"is_reserved":false,"is_disabled":false,"rental_uris":{"android":"levelo://app?vid=978ec5f8-496f-4a84-af0e-c84c7fe1cff2","ios":"levelo://app?vid=978ec5f8-496f-4a84-af0e-c84c7fe1cff2"},"vehicle_type_id":"4","last_reported":1767899474,"current_range_meters":6800,"station_id":"ce4bgvp2rcd13ifvqct0","pricing_plan_id":"cebpf4jnsgd1na2vs0mg"},{"bike_id":"e3d418f6-1922-48a0-a1d0-147f23de209d","system_id":"levelo_inurba_marseille","lat":43.29258,"lon":5.38438,"is_reserved":false,"is_disabled":false,"rental_uris":{"android":"levelo://app?vid=e3d418f6-1922-48a0-a1d0-147f23de209d","ios":"levelo://app?vid=e3d418f6-1922-48a0-a1d0-147f23de209d"},"vehicle_type_id":"4","last_reported":1767899474,"current_range_meters":6800,"station_id":"ce4bh692rcd13ifvqea0","pricing_plan_id":"cebpf4jnsgd1na2vs0mg"},{"bike_id":"0fd80f10-4304-4c12-9af3-a94a305f109a","system_id":"levelo_inurba_marseille","lat":43.26071,"lon":5.394,"is_reserved":false,"is_disabled":false,"rental_uris":{"android":"levelo://app?vid=0fd80f10-4304-4c12-9af3-a94a305f109a","ios":"levelo://app?vid=0fd80f10-4304-4c12-9af3-a94a305f109a"},"vehicle_type_id":"4","last_reported":1767899474,"current_range_meters":6800,"station_id":"ce4bhh92rcd13ifvqfj0","pricing_plan_id":"cebpf4jnsgd1na2vs0mg"},{"bike_id":"105c24dc-55f2-45c6-a67a-b0586dccd52d","system_id":"levelo_inurba_marseille","lat":43.27812,"lon":5.40707,"is_reserved":false,"is_disabled":false,"rental_uris":{"android":"levelo://app?vid=105c24dc-55f2-45c6-a67a-b0586dccd52d","ios":"levelo://app?vid=105c24dc-55f2-45c6-a67a-b0586dccd52d"},"vehicle_type_id":"4","last_reported":1767899474,"current_range_meters":6800,"station_id":"ce4bhnh2rcd13ifvqgtg","pricing_plan_id":"cebpf4jnsgd1na2vs0mg"},{"bike_id":"31d99bf3-4e09-486d-8162-0bfe2e21194b","system_id":"levelo_inurba_marseille","lat":43.27066,"lon":5.38303,"is_reserved":false,"is_disabled":false,"rental_uris":{"android":"levelo://app?vid=31d99bf3-4e09-486d-8162-0bfe2e21194b","ios":"levelo://app?vid=31d99bf3-4e09-486d-8162-0bfe2e21194b"},"vehicle_type_id":"4","last_reported":1767899474,"current_range_meters":6800,"station_id":"st_d3n2fo6cfp8s73cte1j0","pricing_plan_id":"cebpf4jnsgd1na2vs0mg"},{"bike_id":"9cfbd8f3-4d7f-4285-b2d4-c98e63f13b19","system_id":"levelo_inurba_marseille","lat":43.28531,"lon":5.3848,"is_reserved":false,"is_disabled":false,"rental_uris":{"android":"levelo://app?vid=9cfbd8f3-4d7f-4285-b2d4-c98e63f13b19","ios":"levelo://app?vid=9cfbd8f3-4d7f-4285-b2d4-c98e63f13b19"},"vehicle_type_id":"4","last_reported":1767899474,"current_range_meters":6800,"station_id":"","pricing_plan_id":"cebpf4jnsgd1na2vs0mg"},{"bike_id":"a94a60ce-b22f-4695-b6e0-8e03afe289d8","system_id":"levelo_inurba_marseille","lat":43.27956,"lon":5.38701,"is_reserved":false,"is_disabled":false,"rental_uris":{"android":"levelo://app?vid=a94a60ce-b22f-4695-b6e0-8e03afe289d8","ios":"levelo://app?vid=a94a60ce-b22f-4695-b6e0-8e03afe289d8"},"vehicle_type_id":"4","last_reported":1767899474,"current_range_meters":7200,"station_id":"ce4bhg12rcd13ifvqf80","pricing_plan_id":"cebpf4jnsgd1na2vs0mg"},{"bike_id":"98dc7c1c-3a5e-42a5-9270-a7d4dc83e61a","system_id":"levelo_inurba_marseille","lat":43.2954,"lon":5.37491,"is_reserved":false,"is_disabled":false,"rental_uris":{"android":"levelo://app?vid=98dc7c1c-3a5e-42a5-9270-a7d4dc83e61a","ios":"levelo://app?vid=98dc7c1c-3a5e-42a5-9270-a7d4dc83e61a"},"vehicle_type_id":"4","last_reported":1767899474,"current_range_meters":7200,"station_id":"ce4bgkp2rcd13ifvqbmg","pricing_plan_id":"cebpf4jnsgd1na2vs0mg"},{"bike_id":"3c369cc7-4253-456a-9de1-f7c48643ff07","system_id":"levelo_inurba_marseille","lat":43.296,"lon":5.38083,"is_reserved":false,"is_disabled":false,"rental_uris":{"android":"levelo://app?vid=3c369cc7-4253-456a-9de1-f7c48643ff07","ios":"levelo://app?vid=3c369cc7-4253-456a-9de1-f7c48643ff07"},"vehicle_type_id":"4","last_reported":1767899474,"current_range_meters":7200,"station_id":"ce4bgl12rcd13ifvqbo0","pricing_plan_id":"cebpf4jnsgd1na2vs0mg"},{"bike_id":"6fad9ca1-61fd-4cab-8c8e-75dda08e921f","system_id":"levelo_inurba_marseille","lat":43.31974,"lon":5.37438,"is_reserved":false,"is_disabled":false,"rental_uris":{"android":"levelo://app?vid=6fad9ca1-61fd-4cab-8c8e-75dda08e921f","ios":"levelo://app?vid=6fad9ca1-61fd-4cab-8c8e-75dda08e921f"},"vehicle_type_id":"4","last_reported":1767899474,"current_range_meters":7200,"station_id":"","pricing_plan_id":"cebpf4jnsgd1na2vs0mg"},{"bike_id":"35778620-882c-46e0-b092-150c924bc8bf","system_id":"levelo_inurba_marseille","lat":43.28342,"lon":5.38089,"is_reserved":false,"is_disabled":false,"rental_uris":{"android":"levelo://app?vid=35778620-882c-46e0-b092-150c924bc8bf","ios":"levelo://app?vid=35778620-882c-46e0-b092-150c924bc8bf"},"vehicle_type_id":"4","last_reported":1767899474,"current_range_meters":7200,"station_id":"ce4bh412rcd13ifvqdr0","pricing_plan_id":"cebpf4jnsgd1na2vs0mg"},{"bike_id":"5407fece-b1e5-43a9-86e2-b54a7e31d89d","system_id":"levelo_inurba_marseille","lat":43.26205,"lon":5.374463,"is_reserved":false,"is_disabled":false,"rental_uris":{"android":"levelo://app?vid=5407fece-b1e5-43a9-86e2-b54a7e31d89d","ios":"levelo://app?vid=5407fece-b1e5-43a9-86e2-b54a7e31d89d"},"vehicle_type_id":"4","last_reported":1767899474,"current_range_meters":7200,"station_id":"ce4bhgp2rcd13ifvqfc0","pricing_plan_id":"cebpf4jnsgd1na2vs0mg"},{"bike_id":"f0323469-5f23-4803-957f-acce8f508210","system_id":"levelo_inurba_marseille","lat":43.28942,"lon":5.36409,"is_reserved":false,"is_disabled":false,"rental_uris":{"android":"levelo://app?vid=f0323469-5f23-4803-957f-acce8f508210","ios":"levelo://app?vid=f0323469-5f23-4803-957f-acce8f508210"},"vehicle_type_id":"4","last_reported":1767899474,"current_range_meters":7200,"station_id":"ce4bhc92rcd13ifvqetg","pricing_plan_id":"cebpf4jnsgd1na2vs0mg"},{"bike_id":"2b0128e0-75da-46b8-bd6c-4afdbe76468c","system_id":"levelo_inurba_marseille","lat":43.29254,"lon":5.38441,"is_reserved":false,"is_disabled":false,"rental_uris":{"android":"levelo://app?vid=2b0128e0-75da-46b8-bd6c-4afdbe76468c","ios":"levelo://app?vid=2b0128e0-75da-46b8-bd6c-4afdbe76468c"},"vehicle_type_id":"4","last_reported":1767899474,"current_range_meters":7200,"station_id":"ce4bh692rcd13ifvqea0","pricing_plan_id":"cebpf4jnsgd1na2vs0mg"},{"bike_id":"97452125-5d86-4a9e-b4a3-a2dd4fe9ffac","system_id":"levelo_inurba_marseille","lat":43.25471,"lon":5.37686,"is_reserved":false,"is_disabled":false,"rental_uris":{"android":"levelo://app?vid=97452125-5d86-4a9e-b4a3-a2dd4fe9ffac","ios":"levelo://app?vid=97452125-5d86-4a9e-b4a3-a2dd4fe9ffac"},"vehicle_type_id":"4","last_reported":1767899474,"current_range_meters":7200,"station_id":"ce4bhh12rcd13ifvqff0","pricing_plan_id":"cebpf4jnsgd1na2vs0mg"},{"bike_id":"3e14d0f1-1ab2-46b7-a760-c908c28eb465","system_id":"levelo_inurba_marseille","lat":43.29829,"lon":5.38097,"is_reserved":false,"is_disabled":false,"rental_uris":{"android":"levelo://app?vid=3e14d0f1-1ab2-46b7-a760-c908c28eb465","ios":"levelo://app?vid=3e14d0f1-1ab2-46b7-a760-c908c28eb465"},"vehicle_type_id":"4","last_reported":1767899474,"current_range_meters":7200,"station_id":"ce4bgip2rcd13ifvqbb0","pricing_plan_id":"cebpf4jnsgd1na2vs0mg"},{"bike_id":"49693813-6422-4c0b-883f-2f9444f40ff2","system_id":"levelo_inurba_marseille","lat":43.25492,"lon":5.37647,"is_reserved":false,"is_disabled":false,"rental_uris":{"android":"levelo://app?vid=49693813-6422-4c0b-883f-2f9444f40ff2","ios":"levelo://app?vid=49693813-6422-4c0b-883f-2f9444f40ff2"},"vehicle_type_id":"4","last_reported":1767899474,"current_range_meters":7200,"station_id":"ce4bhh12rcd13ifvqff0","pricing_plan_id":"cebpf4jnsgd1na2vs0mg"},{"bike_id":"843dec1d-aea1-48d4-9d94-c66ace8ea6c6","system_id":"levelo_inurba_marseille","lat":43.28835,"lon":5.39315,"is_reserved":false,"is_disabled":false,"rental_uris":{"android":"levelo://app?vid=843dec1d-aea1-48d4-9d94-c66ace8ea6c6","ios":"levelo://app?vid=843dec1d-aea1-48d4-9d94-c66ace8ea6c6"},"vehicle_type_id":"4","last_reported":1767899474,"current_range_meters":7200,"station_id":"ce4bh2p2rcd13ifvqdi0","pricing_plan_id":"cebpf4jnsgd1na2vs0mg"},{"bike_id":"f504fc74-4c39-40e9-b785-d5536c174b08","system_id":"levelo_inurba_marseille","lat":43.25079,"lon":5.3951,"is_reserved":false,"is_disabled":false,"rental_uris":{"android":"levelo://app?vid=f504fc74-4c39-40e9-b785-d5536c174b08","ios":"levelo://app?vid=f504fc74-4c39-40e9-b785-d5536c174b08"},"vehicle_type_id":"4","last_reported":1767899474,"current_range_meters":7200,"station_id":"ce4bhm12rcd13ifvqgkg","pricing_plan_id":"cebpf4jnsgd1na2vs0mg"},{"bike_id":"7079bdb2-fe45-4309-a762-84cee8c3e4fd","system_id":"levelo_inurba_marseille","lat":43.26542,"lon":5.37286,"is_reserved":false,"is_disabled":false,"rental_uris":{"android":"levelo://app?vid=7079bdb2-fe45-4309-a762-84cee8c3e4fd","ios":"levelo://app?vid=7079bdb2-fe45-4309-a762-84cee8c3e4fd"},"vehicle_type_id":"4","last_reported":1767899474,"current_range_meters":7200,"station_id":"ce4bhg12rcd13ifvqf70","pricing_plan_id":"cebpf4jnsgd1na2vs0mg"},{"bike_id":"1a68cb84-5015-4254-8743-ae34d93b9057","system_id":"levelo_inurba_marseille","lat":43.28603,"lon":5.35107,"is_reserved":false,"is_disabled":false,"rental_uris":{"android":"levelo://app?vid=1a68cb84-5015-4254-8743-ae34d93b9057","ios":"levelo://app?vid=1a68cb84-5015-4254-8743-ae34d93b9057"},"vehicle_type_id":"4","last_reported":1767899474,"current_range_meters":7200,"station_id":"ce4bhch2rcd13ifvqeug","pricing_plan_id":"cebpf4jnsgd1na2vs0mg"},{"bike_id":"e412bd1f-9559-40df-baea-da06ff8409ea","system_id":"levelo_inurba_marseille","lat":43.31044,"lon":5.3718,"is_reserved":false,"is_disabled":true,"rental_uris":{"android":"levelo://app?vid=e412bd1f-9559-40df-baea-da06ff8409ea","ios":"levelo://app?vid=e412bd1f-9559-40df-baea-da06ff8409ea"},"vehicle_type_id":"4","last_reported":1767899474,"current_range_meters":7200,"station_id":"st_d4kl2rp97mjs73e7tdfg","pricing_plan_id":"cebpf4jnsgd1na2vs0mg"},{"bike_id":"8ddd903e-4b58-445b-933d-a20697560094","system_id":"levelo_inurba_marseille","lat":43.33421,"lon":5.40072,"is_reserved":false,"is_disabled":false,"rental_uris":{"android":"levelo://app?vid=8ddd903e-4b58-445b-933d-a20697560094","ios":"levelo://app?vid=8ddd903e-4b58-445b-933d-a20697560094"},"vehicle_type_id":"4","last_reported":1767899474,"current_range_meters":7200,"station_id":"","pricing_plan_id":"cebpf4jnsgd1na2vs0mg"},{"bike_id":"dbdb1d28-4d01-4b00-ac03-e7d5e253357c","system_id":"levelo_inurba_marseille","lat":43.239968,"lon":5.366541,"is_reserved":false,"is_disabled":false,"rental_uris":{"android":"levelo://app?vid=dbdb1d28-4d01-4b00-ac03-e7d5e253357c","ios":"levelo://app?vid=dbdb1d28-4d01-4b00-ac03-e7d5e253357c"},"vehicle_type_id":"4","last_reported":1767899474,"current_range_meters":7200,"station_id":"ce4bhi12rcd13ifvqfp0","pricing_plan_id":"cebpf4jnsgd1na2vs0mg"},{"bike_id":"fb7fdc8b-535b-4e29-a51e-736c594595b5","system_id":"levelo_inurba_marseille","lat":43.257607,"lon":5.394362,"is_reserved":false,"is_disabled":false,"rental_uris":{"android":"levelo://app?vid=fb7fdc8b-535b-4e29-a51e-736c594595b5","ios":"levelo://app?vid=fb7fdc8b-535b-4e29-a51e-736c594595b5"},"vehicle_type_id":"4","last_reported":1767899474,"current_range_meters":7200,"station_id":"","pricing_plan_id":"cebpf4jnsgd1na2vs0mg"},{"bike_id":"8be73cc7-2078-4d43-90a9-7746636f92c0","system_id":"levelo_inurba_marseille","lat":43.27904,"lon":5.38014,"is_reserved":false,"is_disabled":false,"rental_uris":{"android":"levelo://app?vid=8be73cc7-2078-4d43-90a9-7746636f92c0","ios":"levelo://app?vid=8be73cc7-2078-4d43-90a9-7746636f92c0"},"vehicle_type_id":"4","last_reported":1767899474,"current_range_meters":7200,"station_id":"ce4bhf92rcd13ifvqf50","pricing_plan_id":"cebpf4jnsgd1na2vs0mg"},{"bike_id":"79544bb9-349f-409e-b2bb-723f19511937","system_id":"levelo_inurba_marseille","lat":43.28532,"lon":5.44102,"is_reserved":false,"is_disabled":false,"rental_uris":{"android":"levelo://app?vid=79544bb9-349f-409e-b2bb-723f19511937","ios":"levelo://app?vid=79544bb9-349f-409e-b2bb-723f19511937"},"vehicle_type_id":"4","last_reported":1767899474,"current_range_meters":7200,"station_id":"st_d3j3df2ikq2c7380ej80","pricing_plan_id":"cebpf4jnsgd1na2vs0mg"},{"bike_id":"8e3c837a-cc95-4274-9430-ecb19f5a17d7","system_id":"levelo_inurba_marseille","lat":43.29262,"lon":5.38443,"is_reserved":false,"is_disabled":false,"rental_uris":{"android":"levelo://app?vid=8e3c837a-cc95-4274-9430-ecb19f5a17d7","ios":"levelo://app?vid=8e3c837a-cc95-4274-9430-ecb19f5a17d7"},"vehicle_type_id":"4","last_reported":1767899474,"current_range_meters":7200,"station_id":"ce4bh692rcd13ifvqea0","pricing_plan_id":"cebpf4jnsgd1na2vs0mg"},{"bike_id":"748e6a5e-97a9-489d-8fdc-20f62045411a","system_id":"levelo_inurba_marseille","lat":43.28899,"lon":5.39697,"is_reserved":false,"is_disabled":false,"rental_uris":{"android":"levelo://app?vid=748e6a5e-97a9-489d-8fdc-20f62045411a","ios":"levelo://app?vid=748e6a5e-97a9-489d-8fdc-20f62045411a"},"vehicle_type_id":"4","last_reported":1767899474,"current_range_meters":7200,"station_id":"","pricing_plan_id":"cebpf4jnsgd1na2vs0mg"},{"bike_id":"f7c99673-23e8-4320-b9b5-7359b53a894b","system_id":"levelo_inurba_marseille","lat":43.29874,"lon":5.39725,"is_reserved":false,"is_disabled":false,"rental_uris":{"android":"levelo://app?vid=f7c99673-23e8-4320-b9b5-7359b53a894b","ios":"levelo://app?vid=f7c99673-23e8-4320-b9b5-7359b53a894b"},"vehicle_type_id":"4","last_reported":1767899474,"current_range_meters":7200,"station_id":"ce4bh0h2rcd13ifvqd50","pricing_plan_id":"cebpf4jnsgd1na2vs0mg"},{"bike_id":"2fe24f14-6f81-40d5-b636-0701220e28ac","system_id":"levelo_inurba_marseille","lat":43.23961,"lon":5.3664,"is_reserved":false,"is_disabled":false,"rental_uris":{"android":"levelo://app?vid=2fe24f14-6f81-40d5-b636-0701220e28ac","ios":"levelo://app?vid=2fe24f14-6f81-40d5-b636-0701220e28ac"},"vehicle_type_id":"4","last_reported":1767899474,"current_range_meters":7200,"station_id":"ce4bhi12rcd13ifvqfp0","pricing_plan_id":"cebpf4jnsgd1na2vs0mg"},{"bike_id":"a05e4379-7c2e-4edc-831a-4c3fbe80a60c","system_id":"levelo_inurba_marseille","lat":43.30125,"lon":5.43117,"is_reserved":false,"is_disabled":false,"rental_uris":{"android":"levelo://app?vid=a05e4379-7c2e-4edc-831a-4c3fbe80a60c","ios":"levelo://app?vid=a05e4379-7c2e-4edc-831a-4c3fbe80a60c"},"vehicle_type_id":"4","last_reported":1767899474,"current_range_meters":8000,"station_id":"st_d3js3co5814s73ftftug","pricing_plan_id":"cebpf4jnsgd1na2vs0mg"},{"bike_id":"9a1a21ca-60e8-4075-bb40-f162f036eb07","system_id":"levelo_inurba_marseille","lat":43.28496,"lon":5.38602,"is_reserved":false,"is_disabled":false,"rental_uris":{"android":"levelo://app?vid=9a1a21ca-60e8-4075-bb40-f162f036eb07","ios":"levelo://app?vid=9a1a21ca-60e8-4075-bb40-f162f036eb07"},"vehicle_type_id":"4","last_reported":1767899474,"current_range_meters":8000,"station_id":"ce4bh8p2rcd13ifvqeb0","pricing_plan_id":"cebpf4jnsgd1na2vs0mg"},{"bike_id":"ae4ea6af-ac8e-4f9d-acb8-d08926e47bb1","system_id":"levelo_inurba_marseille","lat":43.33156,"lon":5.37689,"is_reserved":false,"is_disabled":false,"rental_uris":{"android":"levelo://app?vid=ae4ea6af-ac8e-4f9d-acb8-d08926e47bb1","ios":"levelo://app?vid=ae4ea6af-ac8e-4f9d-acb8-d08926e47bb1"},"vehicle_type_id":"4","last_reported":1767899474,"current_range_meters":8000,"station_id":"st_d46cu089ee8s73dldbu0","pricing_plan_id":"cebpf4jnsgd1na2vs0mg"},{"bike_id":"54fd988a-8198-42f7-8f4b-2c7237f3f387","system_id":"levelo_inurba_marseille","lat":43.28752,"lon":5.37924,"is_reserved":false,"is_disabled":false,"rental_uris":{"android":"levelo://app?vid=54fd988a-8198-42f7-8f4b-2c7237f3f387","ios":"levelo://app?vid=54fd988a-8198-42f7-8f4b-2c7237f3f387"},"vehicle_type_id":"4","last_reported":1767899474,"current_range_meters":8000,"station_id":"ce4bh9p2rcd13ifvqec0","pricing_plan_id":"cebpf4jnsgd1na2vs0mg"},{"bike_id":"8f870c12-c0c3-4b7a-8d0a-24f628ad1788","system_id":"levelo_inurba_marseille","lat":43.310062,"lon":5.379363,"is_reserved":false,"is_disabled":false,"rental_uris":{"android":"levelo://app?vid=8f870c12-c0c3-4b7a-8d0a-24f628ad1788","ios":"levelo://app?vid=8f870c12-c0c3-4b7a-8d0a-24f628ad1788"},"vehicle_type_id":"4","last_reported":1767899474,"current_range_meters":8000,"station_id":"","pricing_plan_id":"cebpf4jnsgd1na2vs0mg"},{"bike_id":"cb66a8f8-b260-4fed-94bd-02f6b057dc6c","system_id":"levelo_inurba_marseille","lat":43.28612,"lon":5.39868,"is_reserved":false,"is_disabled":false,"rental_uris":{"android":"levelo://app?vid=cb66a8f8-b260-4fed-94bd-02f6b057dc6c","ios":"levelo://app?vid=cb66a8f8-b260-4fed-94bd-02f6b057dc6c"},"vehicle_type_id":"4","last_reported":1767899474,"current_range_meters":8000,"station_id":"st_d4a7ka997mjs738ck50g","pricing_plan_id":"cebpf4jnsgd1na2vs0mg"},{"bike_id":"e41d8bea-ffd2-440d-b446-b472b1d04e4d","system_id":"levelo_inurba_marseille","lat":43.239606,"lon":5.36623,"is_reserved":false,"is_disabled":false,"rental_uris":{"android":"levelo://app?vid=e41d8bea-ffd2-440d-b446-b472b1d04e4d","ios":"levelo://app?vid=e41d8bea-ffd2-440d-b446-b472b1d04e4d"},"vehicle_type_id":"4","last_reported":1767899474,"current_range_meters":8000,"station_id":"ce4bhi12rcd13ifvqfp0","pricing_plan_id":"cebpf4jnsgd1na2vs0mg"},{"bike_id":"b245f0c5-78bf-4543-8037-721fc0e29b79","system_id":"levelo_inurba_marseille","lat":43.29575,"lon":5.37701,"is_reserved":false,"is_disabled":false,"rental_uris":{"android":"levelo://app?vid=b245f0c5-78bf-4543-8037-721fc0e29b79","ios":"levelo://app?vid=b245f0c5-78bf-4543-8037-721fc0e29b79"},"vehicle_type_id":"4","last_reported":1767899474,"current_range_meters":8000,"station_id":"","pricing_plan_id":"cebpf4jnsgd1na2vs0mg"},{"bike_id":"db8d138f-9271-4515-9a9e-7aaa3e9dc4b2","system_id":"levelo_inurba_marseille","lat":43.31079,"lon":5.42439,"is_reserved":false,"is_disabled":false,"rental_uris":{"android":"levelo://app?vid=db8d138f-9271-4515-9a9e-7aaa3e9dc4b2","ios":"levelo://app?vid=db8d138f-9271-4515-9a9e-7aaa3e9dc4b2"},"vehicle_type_id":"4","last_reported":1767899474,"current_range_meters":8000,"station_id":"ce4bhp92rcd13ifvqhag","pricing_plan_id":"cebpf4jnsgd1na2vs0mg"},{"bike_id":"617ca6f2-1481-4c5f-a165-87db9947444a","system_id":"levelo_inurba_marseille","lat":43.28486,"lon":5.48378,"is_reserved":false,"is_disabled":false,"rental_uris":{"android":"levelo://app?vid=617ca6f2-1481-4c5f-a165-87db9947444a","ios":"levelo://app?vid=617ca6f2-1481-4c5f-a165-87db9947444a"},"vehicle_type_id":"4","last_reported":1767899474,"current_range_meters":8000,"station_id":"st_d3svhcjqgbts73a3dn0g","pricing_plan_id":"cebpf4jnsgd1na2vs0mg"},{"bike_id":"ce3cc1d9-9ec8-4064-92e2-4915f0b7e6ce","system_id":"levelo_inurba_marseille","lat":43.246319,"lon":5.431414,"is_reserved":false,"is_disabled":false,"rental_uris":{"android":"levelo://app?vid=ce3cc1d9-9ec8-4064-92e2-4915f0b7e6ce","ios":"levelo://app?vid=ce3cc1d9-9ec8-4064-92e2-4915f0b7e6ce"},"vehicle_type_id":"4","last_reported":1767899474,"current_range_meters":8000,"station_id":"st_d2m6c4gdas8pm72e190g","pricing_plan_id":"cebpf4jnsgd1na2vs0mg"},{"bike_id":"5f78c659-cbb3-4ec0-96e3-b4fa61c35e46","system_id":"levelo_inurba_marseille","lat":43.28935,"lon":5.36634,"is_reserved":false,"is_disabled":false,"rental_uris":{"android":"levelo://app?vid=5f78c659-cbb3-4ec0-96e3-b4fa61c35e46","ios":"levelo://app?vid=5f78c659-cbb3-4ec0-96e3-b4fa61c35e46"},"vehicle_type_id":"4","last_reported":1767899474,"current_range_meters":8000,"station_id":"ce4bhap2rcd13ifvqek0","pricing_plan_id":"cebpf4jnsgd1na2vs0mg"},{"bike_id":"18afe1b5-d903-471c-9912-7f7a549b58cf","system_id":"levelo_inurba_marseille","lat":43.32109,"lon":5.3678,"is_reserved":false,"is_disabled":false,"rental_uris":{"android":"levelo://app?vid=18afe1b5-d903-471c-9912-7f7a549b58cf","ios":"levelo://app?vid=18afe1b5-d903-471c-9912-7f7a549b58cf"},"vehicle_type_id":"4","last_reported":1767899474,"current_range_meters":8000,"station_id":"ce4bhrh2rcd13ifvqhug","pricing_plan_id":"cebpf4jnsgd1na2vs0mg"},{"bike_id":"6ced9933-a7b3-4fa1-aedd-aa0efe62c41a","system_id":"levelo_inurba_marseille","lat":43.28528,"lon":5.44098,"is_reserved":false,"is_disabled":false,"rental_uris":{"android":"levelo://app?vid=6ced9933-a7b3-4fa1-aedd-aa0efe62c41a","ios":"levelo://app?vid=6ced9933-a7b3-4fa1-aedd-aa0efe62c41a"},"vehicle_type_id":"4","last_reported":1767899474,"current_range_meters":8000,"station_id":"st_d3j3df2ikq2c7380ej80","pricing_plan_id":"cebpf4jnsgd1na2vs0mg"},{"bike_id":"94a6901e-f050-4dbd-8990-b774d466a29a","system_id":"levelo_inurba_marseille","lat":43.32149,"lon":5.36801,"is_reserved":false,"is_disabled":false,"rental_uris":{"android":"levelo://app?vid=94a6901e-f050-4dbd-8990-b774d466a29a","ios":"levelo://app?vid=94a6901e-f050-4dbd-8990-b774d466a29a"},"vehicle_type_id":"4","last_reported":1767899474,"current_range_meters":8000,"station_id":"","pricing_plan_id":"cebpf4jnsgd1na2vs0mg"},{"bike_id":"755fddff-196e-4df8-9ed5-b269f8727526","system_id":"levelo_inurba_marseille","lat":43.27206,"lon":5.41,"is_reserved":false,"is_disabled":false,"rental_uris":{"android":"levelo://app?vid=755fddff-196e-4df8-9ed5-b269f8727526","ios":"levelo://app?vid=755fddff-196e-4df8-9ed5-b269f8727526"},"vehicle_type_id":"4","last_reported":1767899474,"current_range_meters":8000,"station_id":"ce4bhl12rcd13ifvqgf0","pricing_plan_id":"cebpf4jnsgd1na2vs0mg"},{"bike_id":"4cffb3bc-6cb7-4fb3-8e35-ce4d3792bbf1","system_id":"levelo_inurba_marseille","lat":43.28416,"lon":5.37524,"is_reserved":false,"is_disabled":false,"rental_uris":{"android":"levelo://app?vid=4cffb3bc-6cb7-4fb3-8e35-ce4d3792bbf1","ios":"levelo://app?vid=4cffb3bc-6cb7-4fb3-8e35-ce4d3792bbf1"},"vehicle_type_id":"4","last_reported":1767899474,"current_range_meters":8000,"station_id":"ce4bh412rcd13ifvqds0","pricing_plan_id":"cebpf4jnsgd1na2vs0mg"},{"bike_id":"d7505de7-890f-4ce2-82e1-d73725036955","system_id":"levelo_inurba_marseille","lat":43.290325,"lon":5.38657,"is_reserved":false,"is_disabled":false,"rental_uris":{"android":"levelo://app?vid=d7505de7-890f-4ce2-82e1-d73725036955","ios":"levelo://app?vid=d7505de7-890f-4ce2-82e1-d73725036955"},"vehicle_type_id":"4","last_reported":1767899474,"current_range_meters":8000,"station_id":"ce4bh4p2rcd13ifvqe0g","pricing_plan_id":"cebpf4jnsgd1na2vs0mg"},{"bike_id":"df8ff779-90c8-4b65-a5d0-99687c060dae","system_id":"levelo_inurba_marseille","lat":43.3233,"lon":5.367,"is_reserved":false,"is_disabled":false,"rental_uris":{"android":"levelo://app?vid=df8ff779-90c8-4b65-a5d0-99687c060dae","ios":"levelo://app?vid=df8ff779-90c8-4b65-a5d0-99687c060dae"},"vehicle_type_id":"4","last_reported":1767899474,"current_range_meters":8000,"station_id":"ce4bhsh2rcd13ifvqi2g","pricing_plan_id":"cebpf4jnsgd1na2vs0mg"},{"bike_id":"6615cbd9-b7bd-4b44-a8ed-478a4ed077be","system_id":"levelo_inurba_marseille","lat":43.24811,"lon":5.37462,"is_reserved":false,"is_disabled":false,"rental_uris":{"android":"levelo://app?vid=6615cbd9-b7bd-4b44-a8ed-478a4ed077be","ios":"levelo://app?vid=6615cbd9-b7bd-4b44-a8ed-478a4ed077be"},"vehicle_type_id":"4","last_reported":1767899474,"current_range_meters":8000,"station_id":"ce4bhgh2rcd13ifvqfb0","pricing_plan_id":"cebpf4jnsgd1na2vs0mg"},{"bike_id":"36c3097c-2122-4b98-a149-c16b13fb82b9","system_id":"levelo_inurba_marseille","lat":43.2607,"lon":5.39396,"is_reserved":false,"is_disabled":false,"rental_uris":{"android":"levelo://app?vid=36c3097c-2122-4b98-a149-c16b13fb82b9","ios":"levelo://app?vid=36c3097c-2122-4b98-a149-c16b13fb82b9"},"vehicle_type_id":"4","last_reported":1767899474,"current_range_meters":8000,"station_id":"ce4bhh92rcd13ifvqfj0","pricing_plan_id":"cebpf4jnsgd1na2vs0mg"},{"bike_id":"165a4a91-b58b-4c5e-853f-6c228aa037b6","system_id":"levelo_inurba_marseille","lat":43.33028,"lon":5.39035,"is_reserved":false,"is_disabled":false,"rental_uris":{"android":"levelo://app?vid=165a4a91-b58b-4c5e-853f-6c228aa037b6","ios":"levelo://app?vid=165a4a91-b58b-4c5e-853f-6c228aa037b6"},"vehicle_type_id":"4","last_reported":1767899474,"current_range_meters":8000,"station_id":"ce4bhr92rcd13ifvqhrg","pricing_plan_id":"cebpf4jnsgd1na2vs0mg"},{"bike_id":"c1524077-171c-4d98-b399-e5d63f6c0b19","system_id":"levelo_inurba_marseille","lat":43.29698,"lon":5.36606,"is_reserved":false,"is_disabled":false,"rental_uris":{"android":"levelo://app?vid=c1524077-171c-4d98-b399-e5d63f6c0b19","ios":"levelo://app?vid=c1524077-171c-4d98-b399-e5d63f6c0b19"},"vehicle_type_id":"4","last_reported":1767899474,"current_range_meters":8000,"station_id":"ce4bgn12rcd13ifvqbt0","pricing_plan_id":"cebpf4jnsgd1na2vs0mg"},{"bike_id":"72fdb8ed-82d0-439d-aeda-00339a722d69","system_id":"levelo_inurba_marseille","lat":43.295278,"lon":5.385418,"is_reserved":false,"is_disabled":false,"rental_uris":{"android":"levelo://app?vid=72fdb8ed-82d0-439d-aeda-00339a722d69","ios":"levelo://app?vid=72fdb8ed-82d0-439d-aeda-00339a722d69"},"vehicle_type_id":"4","last_reported":1767899474,"current_range_meters":8000,"station_id":"ce4bgih2rcd13ifvqba0","pricing_plan_id":"cebpf4jnsgd1na2vs0mg"},{"bike_id":"75f78644-8c40-4fbe-ab0f-aa79aaadb7e6","system_id":"levelo_inurba_marseille","lat":43.22555,"lon":5.41632,"is_reserved":false,"is_disabled":false,"rental_uris":{"android":"levelo://app?vid=75f78644-8c40-4fbe-ab0f-aa79aaadb7e6","ios":"levelo://app?vid=75f78644-8c40-4fbe-ab0f-aa79aaadb7e6"},"vehicle_type_id":"4","last_reported":1767899474,"current_range_meters":8400,"station_id":"st_d2o4gvlbi1j2169b742g","pricing_plan_id":"cebpf4jnsgd1na2vs0mg"},{"bike_id":"528852f0-b3e1-4361-91fd-d35d5de704d7","system_id":"levelo_inurba_marseille","lat":43.2551,"lon":5.37655,"is_reserved":false,"is_disabled":false,"rental_uris":{"android":"levelo://app?vid=528852f0-b3e1-4361-91fd-d35d5de704d7","ios":"levelo://app?vid=528852f0-b3e1-4361-91fd-d35d5de704d7"},"vehicle_type_id":"4","last_reported":1767899474,"current_range_meters":8400,"station_id":"ce4bhh12rcd13ifvqff0","pricing_plan_id":"cebpf4jnsgd1na2vs0mg"},{"bike_id":"0a50421a-c489-494d-bf6a-aa7e31233387","system_id":"levelo_inurba_marseille","lat":43.27178,"lon":5.41004,"is_reserved":false,"is_disabled":false,"rental_uris":{"android":"levelo://app?vid=0a50421a-c489-494d-bf6a-aa7e31233387","ios":"levelo://app?vid=0a50421a-c489-494d-bf6a-aa7e31233387"},"vehicle_type_id":"4","last_reported":1767899474,"current_range_meters":8400,"station_id":"ce4bhl12rcd13ifvqgf0","pricing_plan_id":"cebpf4jnsgd1na2vs0mg"},{"bike_id":"b2a3da8f-bf56-4eb9-9359-d00614059d44","system_id":"levelo_inurba_marseille","lat":43.29088,"lon":5.3808,"is_reserved":false,"is_disabled":false,"rental_uris":{"android":"levelo://app?vid=b2a3da8f-bf56-4eb9-9359-d00614059d44","ios":"levelo://app?vid=b2a3da8f-bf56-4eb9-9359-d00614059d44"},"vehicle_type_id":"4","last_reported":1767899474,"current_range_meters":8400,"station_id":"ce4bh512rcd13ifvqe2g","pricing_plan_id":"cebpf4jnsgd1na2vs0mg"},{"bike_id":"c674c454-2af5-49f7-821c-c3b83a90b616","system_id":"levelo_inurba_marseille","lat":43.311647,"lon":5.40717,"is_reserved":false,"is_disabled":false,"rental_uris":{"android":"levelo://app?vid=c674c454-2af5-49f7-821c-c3b83a90b616","ios":"levelo://app?vid=c674c454-2af5-49f7-821c-c3b83a90b616"},"vehicle_type_id":"4","last_reported":1767899474,"current_range_meters":8400,"station_id":"","pricing_plan_id":"cebpf4jnsgd1na2vs0mg"},{"bike_id":"88436fbc-a867-41fd-9af6-6ae673233f14","system_id":"levelo_inurba_marseille","lat":43.24544,"lon":5.39539,"is_reserved":false,"is_disabled":false,"rental_uris":{"android":"levelo://app?vid=88436fbc-a867-41fd-9af6-6ae673233f14","ios":"levelo://app?vid=88436fbc-a867-41fd-9af6-6ae673233f14"},"vehicle_type_id":"4","last_reported":1767899474,"current_range_meters":8400,"station_id":"ce4bhlp2rcd13ifvqgjg","pricing_plan_id":"cebpf4jnsgd1na2vs0mg"},{"bike_id":"00352e05-4548-41f0-b7b3-bf74dc835bdc","system_id":"levelo_inurba_marseille","lat":43.31375,"lon":5.38491,"is_reserved":false,"is_disabled":false,"rental_uris":{"android":"levelo://app?vid=00352e05-4548-41f0-b7b3-bf74dc835bdc","ios":"levelo://app?vid=00352e05-4548-41f0-b7b3-bf74dc835bdc"},"vehicle_type_id":"4","last_reported":1767899474,"current_range_meters":8400,"station_id":"ce4bgt92rcd13ifvqcf0","pricing_plan_id":"cebpf4jnsgd1na2vs0mg"},{"bike_id":"52c545a6-4990-49e9-b5f1-ef579ddc71f3","system_id":"levelo_inurba_marseille","lat":43.25572,"lon":5.38229,"is_reserved":false,"is_disabled":false,"rental_uris":{"android":"levelo://app?vid=52c545a6-4990-49e9-b5f1-ef579ddc71f3","ios":"levelo://app?vid=52c545a6-4990-49e9-b5f1-ef579ddc71f3"},"vehicle_type_id":"4","last_reported":1767899474,"current_range_meters":8400,"station_id":"ce4bhih2rcd13ifvqfs0","pricing_plan_id":"cebpf4jnsgd1na2vs0mg"},{"bike_id":"84d7ca6e-a6fe-4c44-8fce-769f09d11cef","system_id":"levelo_inurba_marseille","lat":43.28938,"lon":5.39644,"is_reserved":false,"is_disabled":true,"rental_uris":{"android":"levelo://app?vid=84d7ca6e-a6fe-4c44-8fce-769f09d11cef","ios":"levelo://app?vid=84d7ca6e-a6fe-4c44-8fce-769f09d11cef"},"vehicle_type_id":"4","last_reported":1767899474,"current_range_meters":8400,"station_id":"ce4bh3h2rcd13ifvqdn0","pricing_plan_id":"cebpf4jnsgd1na2vs0mg"},{"bike_id":"2919cce5-d058-401b-aaa9-262f4903e20d","system_id":"levelo_inurba_marseille","lat":43.25824,"lon":5.39442,"is_reserved":false,"is_disabled":false,"rental_uris":{"android":"levelo://app?vid=2919cce5-d058-401b-aaa9-262f4903e20d","ios":"levelo://app?vid=2919cce5-d058-401b-aaa9-262f4903e20d"},"vehicle_type_id":"4","last_reported":1767899474,"current_range_meters":8400,"station_id":"ce4bhip2rcd13ifvqft0","pricing_plan_id":"cebpf4jnsgd1na2vs0mg"},{"bike_id":"df8e1d6f-10b7-488a-9164-bc1802e0bddd","system_id":"levelo_inurba_marseille","lat":43.25825,"lon":5.39429,"is_reserved":false,"is_disabled":false,"rental_uris":{"android":"levelo://app?vid=df8e1d6f-10b7-488a-9164-bc1802e0bddd","ios":"levelo://app?vid=df8e1d6f-10b7-488a-9164-bc1802e0bddd"},"vehicle_type_id":"4","last_reported":1767899474,"current_range_meters":8400,"station_id":"ce4bhip2rcd13ifvqft0","pricing_plan_id":"cebpf4jnsgd1na2vs0mg"},{"bike_id":"84be322d-3f5a-42b3-b4ff-9332fdae0ce8","system_id":"levelo_inurba_marseille","lat":43.33155,"lon":5.37681,"is_reserved":false,"is_disabled":false,"rental_uris":{"android":"levelo://app?vid=84be322d-3f5a-42b3-b4ff-9332fdae0ce8","ios":"levelo://app?vid=84be322d-3f5a-42b3-b4ff-9332fdae0ce8"},"vehicle_type_id":"4","last_reported":1767899474,"current_range_meters":8400,"station_id":"st_d46cu089ee8s73dldbu0","pricing_plan_id":"cebpf4jnsgd1na2vs0mg"},{"bike_id":"62ddc4c7-9a07-4420-94bb-4550d3ab3b8c","system_id":"levelo_inurba_marseille","lat":43.28937,"lon":5.38398,"is_reserved":false,"is_disabled":false,"rental_uris":{"android":"levelo://app?vid=62ddc4c7-9a07-4420-94bb-4550d3ab3b8c","ios":"levelo://app?vid=62ddc4c7-9a07-4420-94bb-4550d3ab3b8c"},"vehicle_type_id":"4","last_reported":1767899474,"current_range_meters":8400,"station_id":"ce4bh612rcd13ifvqe6g","pricing_plan_id":"cebpf4jnsgd1na2vs0mg"},{"bike_id":"31447a0e-5f20-40ed-81c7-81b3e7eb8db6","system_id":"levelo_inurba_marseille","lat":43.3139,"lon":5.38576,"is_reserved":false,"is_disabled":false,"rental_uris":{"android":"levelo://app?vid=31447a0e-5f20-40ed-81c7-81b3e7eb8db6","ios":"levelo://app?vid=31447a0e-5f20-40ed-81c7-81b3e7eb8db6"},"vehicle_type_id":"4","last_reported":1767899474,"current_range_meters":8400,"station_id":"","pricing_plan_id":"cebpf4jnsgd1na2vs0mg"},{"bike_id":"b9e23ad4-84d7-4bff-999c-375ee86dbddd","system_id":"levelo_inurba_marseille","lat":43.29962,"lon":5.38502,"is_reserved":false,"is_disabled":false,"rental_uris":{"android":"levelo://app?vid=b9e23ad4-84d7-4bff-999c-375ee86dbddd","ios":"levelo://app?vid=b9e23ad4-84d7-4bff-999c-375ee86dbddd"},"vehicle_type_id":"4","last_reported":1767899474,"current_range_meters":8400,"station_id":"ce4bgj92rcd13ifvqbd0","pricing_plan_id":"cebpf4jnsgd1na2vs0mg"},{"bike_id":"02fbedcf-0ea4-4d04-a895-b6fc85e856b0","system_id":"levelo_inurba_marseille","lat":43.23969,"lon":5.366081,"is_reserved":false,"is_disabled":false,"rental_uris":{"android":"levelo://app?vid=02fbedcf-0ea4-4d04-a895-b6fc85e856b0","ios":"levelo://app?vid=02fbedcf-0ea4-4d04-a895-b6fc85e856b0"},"vehicle_type_id":"4","last_reported":1767899474,"current_range_meters":8400,"station_id":"ce4bhi12rcd13ifvqfp0","pricing_plan_id":"cebpf4jnsgd1na2vs0mg"},