{"last_updated":1768227347,"ttl":60,"version":"2.2","data":{"bikes":[{"bike_id":"1fc7bf8f-ce56-4703-9079-0e2389086315","system_id":"levelo_inurba_marseille","lat":43.24804,"lon":5.37454,"is_reserved":false,"is_disabled":false,"rental_uris":{"android":"levelo://app?vid=1fc7bf8f-ce56-4703-9079-0e2389086315","ios":"levelo://app?vid=1fc7bf8f-ce56-4703-9079-0e2389086315"},"vehicle_type_id":"4","last_reported":1768227348,"current_range_meters":2800,"station_id":"ce4bhgh2rcd13ifvqfb0","pricing_plan_id":"cebpf4jnsgd1na2vs0mg"},{"bike_id":"2610f526-4eba-4459-a522-05fc103d19cf","system_id":"levelo_inurba_marseille","lat":43.29894,"lon":5.43655,"is_reserved":false,"is_disabled":false,"rental_uris":{"android":"levelo://app?vid=2610f526-4eba-4459-a522-05fc103d19cf","ios":"levelo://app?vid=2610f526-4eba-4459-a522-05fc103d19cf"},"vehicle_type_id":"4","last_reported":1768227348,"current_range_meters":2800,"station_id":"ce4bhpp2rcd13ifvqhfg","pricing_plan_id":"cebpf4jnsgd1na2vs0mg"},{"bike_id":"29fb322a-ae18-4d78-8783-d6b3ca5adb2e","system_id":"levelo_inurba_marseille","lat":43.30319,"lon":5.36908,"is_reserved":false,"is_disabled":false,"rental_uris":{"android":"levelo://app?vid=29fb322a-ae18-4d78-8783-d6b3ca5adb2e","ios":"levelo://app?vid=29fb322a-ae18-4d78-8783-d6b3ca5adb2e"},"vehicle_type_id":"4","last_reported":1768227348,"current_range_meters":2800,"station_id":"ce4bgqh2rcd13ifvqc5g","pricing_plan_id":"cebpf4jnsgd1na2vs0mg"},{"bike_id":"850a5e63-09ac-4096-ac4b-0ad06529e0b0","system_id":"levelo_inurba_marseille","lat":43.23962,"lon":5.36628,"is_reserved":false,"is_disabled":false,"rental_uris":{"android":"levelo://app?vid=850a5e63-09ac-4096-ac4b-0ad06529e0b0","ios":"levelo://app?vid=850a5e63-09ac-4096-ac4b-0ad06529e0b0"},"vehicle_type_id":"4","last_reported":1768227348,"current_range_meters":2800,"station_id":"ce4bhi12rcd13ifvqfp0","pricing_plan_id":"cebpf4jnsgd1na2vs0mg"},{"bike_id":"6f3a667f-c9c2-4617-b978-f4fd5e7c7d88","system_id":"levelo_inurba_marseille","lat":43.32481,"lon":5.36566,"is_reserved":false,"is_disabled":false,"rental_uris":{"android":"levelo://app?vid=6f3a667f-c9c2-4617-b978-f4fd5e7c7d88","ios":"levelo://app?vid=6f3a667f-c9c2-4617-b978-f4fd5e7c7d88"},"vehicle_type_id":"4","last_reported":1768227348,"current_range_meters":2800,"station_id":"ce4bhs12rcd13ifvqhvg","pricing_plan_id":"cebpf4jnsgd1na2vs0mg"},{"bike_id":"1d5409b8-98e9-4ce6-a914-b95ac2c1dedb","system_id":"levelo_inurba_marseille","lat":43.29535,"lon":5.38543,"is_reserved":false,"is_disabled":false,"rental_uris":{"android":"levelo://app?vid=1d5409b8-98e9-4ce6-a914-b95ac2c1dedb","ios":"levelo://app?vid=1d5409b8-98e9-4ce6-a914-b95ac2c1dedb"},"vehicle_type_id":"4","last_reported":1768227348,"current_range_meters":2800,"station_id":"ce4bgih2rcd13ifvqba0","pricing_plan_id":"cebpf4jnsgd1na2vs0mg"},{"bike_id":"b90c51b1-fcc5-42a7-a611-617f03d2c9b1","system_id":"levelo_inurba_marseille","lat":43.31902,"lon":5.40016,"is_reserved":false,"is_disabled":false,"rental_uris":{"android":"levelo://app?vid=b90c51b1-fcc5-42a7-a611-617f03d2c9b1","ios":"levelo://app?vid=b90c51b1-fcc5-42a7-a611-617f03d2c9b1"},"vehicle_type_id":"4","last_reported":1768227348,"current_range_meters":2800,"station_id":"","pricing_plan_id":"cebpf4jnsgd1na2vs0mg"},{"bike_id":"fa58f153-dd0f-4688-8b3a-fb57116c8b0e","system_id":"levelo_inurba_marseille","lat":43.253336,"lon":5.421816,"is_reserved":false,"is_disabled":false,"rental_uris":{"android":"levelo://app?vid=fa58f153-dd0f-4688-8b3a-fb57116c8b0e","ios":"levelo://app?vid=fa58f153-dd0f-4688-8b3a-fb57116c8b0e"},"vehicle_type_id":"4","last_reported":1768227348,"current_range_meters":2800,"station_id":"st_d2m65c5bi1j21697t3ng","pricing_plan_id":"cebpf4jnsgd1na2vs0mg"},{"bike_id":"2fe8cf85-9a5b-4aed-876c-88430cd8ff00","system_id":"levelo_inurba_marseille","lat":43.22551,"lon":5.4162,"is_reserved":false,"is_disabled":false,"rental_uris":{"android":"levelo://app?vid=2fe8cf85-9a5b-4aed-876c-88430cd8ff00","ios":"levelo://app?vid=2fe8cf85-9a5b-4aed-876c-88430cd8ff00"},"vehicle_type_id":"4","last_reported":1768227348,"current_range_meters":3200,"station_id":"st_d2o4gvlbi1j2169b742g","pricing_plan_id":"cebpf4jnsgd1na2vs0mg"},{"bike_id":"e6cd1ffd-4601-4e8d-89e9-82ff8374bb06","system_id":"levelo_inurba_marseille","lat":43.2954,"lon":5.3854,"is_reserved":false,"is_disabled":false,"rental_uris":{"android":"levelo://app?vid=e6cd1ffd-4601-4e8d-89e9-82ff8374bb06","ios":"levelo://app?vid=e6cd1ffd-4601-4e8d-89e9-82ff8374bb06"},"vehicle_type_id":"4","last_reported":1768227348,"current_range_meters":3200,"station_id":"ce4bgih2rcd13ifvqba0","pricing_plan_id":"cebpf4jnsgd1na2vs0mg"},{"bike_id":"e4a53e17-a6c7-4dd2-a1ae-48dfc889e1df","system_id":"levelo_inurba_marseille","lat":43.29895,"lon":5.43669,"is_reserved":false,"is_disabled":false,"rental_uris":{"android":"levelo://app?vid=e4a53e17-a6c7-4dd2-a1ae-48dfc889e1df","ios":"levelo://app?vid=e4a53e17-a6c7-4dd2-a1ae-48dfc889e1df"},"vehicle_type_id":"4","last_reported":1768227348,"current_range_meters":3200,"station_id":"ce4bhpp2rcd13ifvqhfg","pricing_plan_id":"cebpf4jnsgd1na2vs0mg"},{"bike_id":"c041dd9b-fce2-4508-bae5-b13b7b123694","system_id":"levelo_inurba_marseille","lat":43.32347,"lon":5.36737,"is_reserved":false,"is_disabled":false,"rental_uris":{"android":"levelo://app?vid=c041dd9b-fce2-4508-bae5-b13b7b123694","ios":"levelo://app?vid=c041dd9b-fce2-4508-bae5-b13b7b123694"},"vehicle_type_id":"4","last_reported":1768227348,"current_range_meters":3200,"station_id":"ce4bhsh2rcd13ifvqi2g","pricing_plan_id":"cebpf4jnsgd1na2vs0mg"},{"bike_id":"dd560040-7ce8-43f7-b18f-1ee3d66c1a30","system_id":"levelo_inurba_marseille","lat":43.29377,"lon":5.37844,"is_reserved":false,"is_disabled":false,"rental_uris":{"android":"levelo://app?vid=dd560040-7ce8-43f7-b18f-1ee3d66c1a30","ios":"levelo://app?vid=dd560040-7ce8-43f7-b18f-1ee3d66c1a30"},"vehicle_type_id":"4","last_reported":1768227348,"current_range_meters":3200,"station_id":"ce4bgjh2rcd13ifvqbf0","pricing_plan_id":"cebpf4jnsgd1na2vs0mg"},{"bike_id":"9fcec6f4-3877-4384-a88b-1bc02037ac0f","system_id":"levelo_inurba_marseille","lat":43.25719,"lon":5.41112,"is_reserved":false,"is_disabled":false,"rental_uris":{"android":"levelo://app?vid=9fcec6f4-3877-4384-a88b-1bc02037ac0f","ios":"levelo://app?vid=9fcec6f4-3877-4384-a88b-1bc02037ac0f"},"vehicle_type_id":"4","last_reported":1768227348,"current_range_meters":3200,"station_id":"ce4bhkp2rcd13ifvqgd0","pricing_plan_id":"cebpf4jnsgd1na2vs0mg"},{"bike_id":"56ba0e42-7ec3-4975-be86-b7c322049f28","system_id":"levelo_inurba_marseille","lat":43.28663,"lon":5.38668,"is_reserved":false,"is_disabled":false,"rental_uris":{"android":"levelo://app?vid=56ba0e42-7ec3-4975-be86-b7c322049f28","ios":"levelo://app?vid=56ba0e42-7ec3-4975-be86-b7c322049f28"},"vehicle_type_id":"4","last_reported":1768227348,"current_range_meters":3200,"station_id":"ce4bh492rcd13ifvqdug","pricing_plan_id":"cebpf4jnsgd1na2vs0mg"},{"bike_id":"3c6b6751-5a57-42a3-9a84-583ca6e583ff","system_id":"levelo_inurba_marseille","lat":43.225301,"lon":5.348359,"is_reserved":false,"is_disabled":false,"rental_uris":{"android":"levelo://app?vid=3c6b6751-5a57-42a3-9a84-583ca6e583ff","ios":"levelo://app?vid=3c6b6751-5a57-42a3-9a84-583ca6e583ff"},"vehicle_type_id":"4","last_reported":1768227348,"current_range_meters":3200,"station_id":"","pricing_plan_id":"cebpf4jnsgd1na2vs0mg"},{"bike_id":"a44088d3-9cca-429d-a43c-98af888114fa","system_id":"levelo_inurba_marseille","lat":43.21187,"lon":5.35085,"is_reserved":false,"is_disabled":false,"rental_uris":{"android":"levelo://app?vid=a44088d3-9cca-429d-a43c-98af888114fa","ios":"levelo://app?vid=a44088d3-9cca-429d-a43c-98af888114fa"},"vehicle_type_id":"4","last_reported":1768227348,"current_range_meters":3200,"station_id":"st_cvj6sg6p6f1abm77japg","pricing_plan_id":"cebpf4jnsgd1na2vs0mg"},{"bike_id":"d54281ae-8bb2-45b6-b9f5-a8d4f4b4a849","system_id":"levelo_inurba_marseille","lat":43.29764,"lon":5.42772,"is_reserved":false,"is_disabled":false,"rental_uris":{"android":"levelo://app?vid=d54281ae-8bb2-45b6-b9f5-a8d4f4b4a849","ios":"levelo://app?vid=d54281ae-8bb2-45b6-b9f5-a8d4f4b4a849"},"vehicle_type_id":"4","last_reported":1768227348,"current_range_meters":3200,"station_id":"st_d3md5207bmas73dh9klg","pricing_plan_id":"cebpf4jnsgd1na2vs0mg"},{"bike_id":"8dfc3447-67f5-48b4-954d-c4ce60f2af90","system_id":"levelo_inurba_marseille","lat":43.312774,"lon":5.396558,"is_reserved":false,"is_disabled":false,"rental_uris":{"android":"levelo://app?vid=8dfc3447-67f5-48b4-954d-c4ce60f2af90","ios":"levelo://app?vid=8dfc3447-67f5-48b4-954d-c4ce60f2af90"},"vehicle_type_id":"4","last_reported":1768227348,"current_range_meters":3200,"station_id":"ce4bgvp2rcd13ifvqcu0","pricing_plan_id":"cebpf4jnsgd1na2vs0mg"},{"bike_id":"ec042e6a-81f3-4936-b0f3-19f4b71e9260","system_id":"levelo_inurba_marseille","lat":43.245826,"lon":5.374825,"is_reserved":false,"is_disabled":false,"rental_uris":{"android":"levelo://app?vid=ec042e6a-81f3-4936-b0f3-19f4b71e9260","ios":"levelo://app?vid=ec042e6a-81f3-4936-b0f3-19f4b71e9260"},"vehicle_type_id":"4","last_reported":1768227348,"current_range_meters":3600,"station_id":"","pricing_plan_id":"cebpf4jnsgd1na2vs0mg"},{"bike_id":"b237c505-ce29-46a7-9592-1f637913f5ff","system_id":"levelo_inurba_marseille","lat":43.2987,"lon":5.39736,"is_reserved":false,"is_disabled":false,"rental_uris":{"android":"levelo://app?vid=b237c505-ce29-46a7-9592-1f637913f5ff","ios":"levelo://app?vid=b237c505-ce29-46a7-9592-1f637913f5ff"},"vehicle_type_id":"4","last_reported":1768227348,"current_range_meters":3600,"station_id":"ce4bh0h2rcd13ifvqd50","pricing_plan_id":"cebpf4jnsgd1na2vs0mg"},{"bike_id":"4df591c0-63e8-4781-84d8-f49518164df5","system_id":"levelo_inurba_marseille","lat":43.315497,"lon":5.398434,"is_reserved":false,"is_disabled":false,"rental_uris":{"android":"levelo://app?vid=4df591c0-63e8-4781-84d8-f49518164df5","ios":"levelo://app?vid=4df591c0-63e8-4781-84d8-f49518164df5"},"vehicle_type_id":"4","last_reported":1768227348,"current_range_meters":3600,"station_id":"","pricing_plan_id":"cebpf4jnsgd1na2vs0mg"},{"bike_id":"b6d40955-5f77-4487-b9ef-c428020cb4a2","system_id":"levelo_inurba_marseille","lat":43.231894,"lon":5.436467,"is_reserved":false,"is_disabled":false,"rental_uris":{"android":"levelo://app?vid=b6d40955-5f77-4487-b9ef-c428020cb4a2","ios":"levelo://app?vid=b6d40955-5f77-4487-b9ef-c428020cb4a2"},"vehicle_type_id":"4","last_reported":1768227348,"current_range_meters":3600,"station_id":"ce4bhmp2rcd13ifvqgog","pricing_plan_id":"cebpf4jnsgd1na2vs0mg"},{"bike_id":"74943d18-f468-4e78-91e6-6898d19a337c","system_id":"levelo_inurba_marseille","lat":43.22934,"lon":5.35377,"is_reserved":false,"is_disabled":false,"rental_uris":{"android":"levelo://app?vid=74943d18-f468-4e78-91e6-6898d19a337c","ios":"levelo://app?vid=74943d18-f468-4e78-91e6-6898d19a337c"},"vehicle_type_id":"4","last_reported":1768227348,"current_range_meters":4000,"station_id":"cpo3532slgdg3j2ikp40","pricing_plan_id":"cebpf4jnsgd1na2vs0mg"},{"bike_id":"0fdc4ba5-3bcc-4f60-aac2-e3a4f230a359","system_id":"levelo_inurba_marseille","lat":43.30725,"lon":5.40981,"is_reserved":false,"is_disabled":false,"rental_uris":{"android":"levelo://app?vid=0fdc4ba5-3bcc-4f60-aac2-e3a4f230a359","ios":"levelo://app?vid=0fdc4ba5-3bcc-4f60-aac2-e3a4f230a359"},"vehicle_type_id":"4","last_reported":1768227348,"current_range_meters":4000,"station_id":"","pricing_plan_id":"cebpf4jnsgd1na2vs0mg"},{"bike_id":"312ee101-f044-4761-bddb-1ddf32b43eb6","system_id":"levelo_inurba_marseille","lat":43.22563,"lon":5.41619,"is_reserved":false,"is_disabled":false,"rental_uris":{"android":"levelo://app?vid=312ee101-f044-4761-bddb-1ddf32b43eb6","ios":"levelo://app?vid=312ee101-f044-4761-bddb-1ddf32b43eb6"},"vehicle_type_id":"4","last_reported":1768227348,"current_range_meters":4000,"station_id":"st_d2o4gvlbi1j2169b742g","pricing_plan_id":"cebpf4jnsgd1na2vs0mg"},{"bike_id":"2e41b934-eba3-4dbc-9160-135957b1a747","system_id":"levelo_inurba_marseille","lat":43.22924,"lon":5.35371,"is_reserved":false,"is_disabled":false,"rental_uris":{"android":"levelo://app?vid=2e41b934-eba3-4dbc-9160-135957b1a747","ios":"levelo://app?vid=2e41b934-eba3-4dbc-9160-135957b1a747"},"vehicle_type_id":"4","last_reported":1768227348,"current_range_meters":4000,"station_id":"cpo3532slgdg3j2ikp40","pricing_plan_id":"cebpf4jnsgd1na2vs0mg"},{"bike_id":"92bffe6b-57e8-4ca9-9db6-e41c1f081741","system_id":"levelo_inurba_marseille","lat":43.265049,"lon":5.395519,"is_reserved":false,"is_disabled":false,"rental_uris":{"android":"levelo://app?vid=92bffe6b-57e8-4ca9-9db6-e41c1f081741","ios":"levelo://app?vid=92bffe6b-57e8-4ca9-9db6-e41c1f081741"},"vehicle_type_id":"4","last_reported":1768227348,"current_range_meters":4000,"station_id":"ce4bhi12rcd13ifvqfq0","pricing_plan_id":"cebpf4jnsgd1na2vs0mg"},{"bike_id":"c01406f0-b302-481b-9f2c-b7acf333823d","system_id":"levelo_inurba_marseille","lat":43.31859,"lon":5.37702,"is_reserved":false,"is_disabled":false,"rental_uris":{"android":"levelo://app?vid=c01406f0-b302-481b-9f2c-b7acf333823d","ios":"levelo://app?vid=c01406f0-b302-481b-9f2c-b7acf333823d"},"vehicle_type_id":"4","last_reported":1768227348,"current_range_meters":4000,"station_id":"","pricing_plan_id":"cebpf4jnsgd1na2vs0mg"},{"bike_id":"8355b1d2-8daf-4627-b9d7-b665248b4fa5","system_id":"levelo_inurba_marseille","lat":43.30309,"lon":5.36901,"is_reserved":false,"is_disabled":false,"rental_uris":{"android":"levelo://app?vid=8355b1d2-8daf-4627-b9d7-b665248b4fa5","ios":"levelo://app?vid=8355b1d2-8daf-4627-b9d7-b665248b4fa5"},"vehicle_type_id":"4","last_reported":1768227348,"current_range_meters":4000,"station_id":"ce4bgqh2rcd13ifvqc5g","pricing_plan_id":"cebpf4jnsgd1na2vs0mg"},{"bike_id":"ded0789c-9bd3-47e8-8abf-c7d69a7df16f","system_id":"levelo_inurba_marseille","lat":43.28651,"lon":5.42633,"is_reserved":false,"is_disabled":false,"rental_uris":{"android":"levelo://app?vid=ded0789c-9bd3-47e8-8abf-c7d69a7df16f","ios":"levelo://app?vid=ded0789c-9bd3-47e8-8abf-c7d69a7df16f"},"vehicle_type_id":"4","last_reported":1768227348,"current_range_meters":4000,"station_id":"","pricing_plan_id":"cebpf4jnsgd1na2vs0mg"},{"bike_id":"e6a6594c-a0ce-4922-95a1-56d74358af72","system_id":"levelo_inurba_marseille","lat":43.24168,"lon":5.36395,"is_reserved":false,"is_disabled":false,"rental_uris":{"android":"levelo://app?vid=e6a6594c-a0ce-4922-95a1-56d74358af72","ios":"levelo://app?vid=e6a6594c-a0ce-4922-95a1-56d74358af72"},"vehicle_type_id":"4","last_reported":1768227348,"current_range_meters":4000,"station_id":"cpo36qri1sfpv3e86is0","pricing_plan_id":"cebpf4jnsgd1na2vs0mg"},{"bike_id":"4c61791c-b552-42dd-9ce2-ad4e6245334f","system_id":"levelo_inurba_marseille","lat":43.25335,"lon":5.42186,"is_reserved":false,"is_disabled":false,"rental_uris":{"android":"levelo://app?vid=4c61791c-b552-42dd-9ce2-ad4e6245334f","ios":"levelo://app?vid=4c61791c-b552-42dd-9ce2-ad4e6245334f"},"vehicle_type_id":"4","last_reported":1768227348,"current_range_meters":4000,"station_id":"st_d2m65c5bi1j21697t3ng","pricing_plan_id":"cebpf4jnsgd1na2vs0mg"},{"bike_id":"db765cb7-8257-48d6-a6ab-02802bfb834f","system_id":"levelo_inurba_marseille","lat":43.279658,"lon":5.38741,"is_reserved":false,"is_disabled":false,"rental_uris":{"android":"levelo://app?vid=db765cb7-8257-48d6-a6ab-02802bfb834f","ios":"levelo://app?vid=db765cb7-8257-48d6-a6ab-02802bfb834f"},"vehicle_type_id":"4","last_reported":1768227348,"current_range_meters":4000,"station_id":"ce4bhg12rcd13ifvqf80","pricing_plan_id":"cebpf4jnsgd1na2vs0mg"},{"bike_id":"1028a312-5709-47db-b54d-2e7c21fb3653","system_id":"levelo_inurba_marseille","lat":43.29803,"lon":5.40402,"is_reserved":false,"is_disabled":false,"rental_uris":{"android":"levelo://app?vid=1028a312-5709-47db-b54d-2e7c21fb3653","ios":"levelo://app?vid=1028a312-5709-47db-b54d-2e7c21fb3653"},"vehicle_type_id":"4","last_reported":1768227348,"current_range_meters":4400,"station_id":"ce4bh112rcd13ifvqd90","pricing_plan_id":"cebpf4jnsgd1na2vs0mg"},{"bike_id":"754e39ee-7b10-492a-844c-a77e2d32e661","system_id":"levelo_inurba_marseille","lat":43.30201,"lon":5.37053,"is_reserved":false,"is_disabled":false,"rental_uris":{"android":"levelo://app?vid=754e39ee-7b10-492a-844c-a77e2d32e661","ios":"levelo://app?vid=754e39ee-7b10-492a-844c-a77e2d32e661"},"vehicle_type_id":"4","last_reported":1768227348,"current_range_meters":4400,"station_id":"","pricing_plan_id":"cebpf4jnsgd1na2vs0mg"},{"bike_id":"148667e2-13bc-48af-811d-2b0e70c59509","system_id":"levelo_inurba_marseille","lat":43.2766,"lon":5.38885,"is_reserved":false,"is_disabled":false,"rental_uris":{"android":"levelo://app?vid=148667e2-13bc-48af-811d-2b0e70c59509","ios":"levelo://app?vid=148667e2-13bc-48af-811d-2b0e70c59509"},"vehicle_type_id":"4","last_reported":1768227348,"current_range_meters":4400,"station_id":"ce4bhi12rcd13ifvqfo0","pricing_plan_id":"cebpf4jnsgd1na2vs0mg"},{"bike_id":"ddea23c1-809f-4fd9-a44e-db75c4d83817","system_id":"levelo_inurba_marseille","lat":43.25336,"lon":5.42182,"is_reserved":false,"is_disabled":false,"rental_uris":{"android":"levelo://app?vid=ddea23c1-809f-4fd9-a44e-db75c4d83817","ios":"levelo://app?vid=ddea23c1-809f-4fd9-a44e-db75c4d83817"},"vehicle_type_id":"4","last_reported":1768227348,"current_range_meters":4400,"station_id":"st_d2m65c5bi1j21697t3ng","pricing_plan_id":"cebpf4jnsgd1na2vs0mg"},{"bike_id":"39107cae-e675-4340-aa0d-b9c974003bc7","system_id":"levelo_inurba_marseille","lat":43.24092,"lon":5.37748,"is_reserved":false,"is_disabled":false,"rental_uris":{"android":"levelo://app?vid=39107cae-e675-4340-aa0d-b9c974003bc7","ios":"levelo://app?vid=39107cae-e675-4340-aa0d-b9c974003bc7"},"vehicle_type_id":"4","last_reported":1768227348,"current_range_meters":4400,"station_id":"ce4bhnp2rcd13ifvqgvg","pricing_plan_id":"cebpf4jnsgd1na2vs0mg"},{"bike_id":"91e0bf19-4621-4790-a77d-a7c6a32eec03","system_id":"levelo_inurba_marseille","lat":43.301349,"lon":5.402222,"is_reserved":false,"is_disabled":false,"rental_uris":{"android":"levelo://app?vid=91e0bf19-4621-4790-a77d-a7c6a32eec03","ios":"levelo://app?vid=91e0bf19-4621-4790-a77d-a7c6a32eec03"},"vehicle_type_id":"4","last_reported":1768227348,"current_range_meters":4400,"station_id":"","pricing_plan_id":"cebpf4jnsgd1na2vs0mg"},{"bike_id":"bac48c9b-fa1f-4eae-a2ac-ef908b5e9308","system_id":"levelo_inurba_marseille","lat":43.279788,"lon":5.395317,"is_reserved":false,"is_disabled":false,"rental_uris":{"android":"levelo://app?vid=bac48c9b-fa1f-4eae-a2ac-ef908b5e9308","ios":"levelo://app?vid=bac48c9b-fa1f-4eae-a2ac-ef908b5e9308"},"vehicle_type_id":"4","last_reported":1768227348,"current_range_meters":4400,"station_id":"ce4bho12rcd13ifvqh2g","pricing_plan_id":"cebpf4jnsgd1na2vs0mg"},{"bike_id":"a8ee9cd6-5175-4933-b47d-c6cf7d162dc3","system_id":"levelo_inurba_marseille","lat":43.30589,"lon":5.37113,"is_reserved":false,"is_disabled":false,"rental_uris":{"android":"levelo://app?vid=a8ee9cd6-5175-4933-b47d-c6cf7d162dc3","ios":"levelo://app?vid=a8ee9cd6-5175-4933-b47d-c6cf7d162dc3"},"vehicle_type_id":"4","last_reported":1768227348,"current_range_meters":4400,"station_id":"","pricing_plan_id":"cebpf4jnsgd1na2vs0mg"},{"bike_id":"3b894d59-ac9c-482e-a1a1-1a18a7bfeb4a","system_id":"levelo_inurba_marseille","lat":43.27377,"lon":5.36253,"is_reserved":false,"is_disabled":false,"rental_uris":{"android":"levelo://app?vid=3b894d59-ac9c-482e-a1a1-1a18a7bfeb4a","ios":"levelo://app?vid=3b894d59-ac9c-482e-a1a1-1a18a7bfeb4a"},"vehicle_type_id":"4","last_reported":1768227348,"current_range_meters":4400,"station_id":"ce4bhbh2rcd13ifvqeo0","pricing_plan_id":"cebpf4jnsgd1na2vs0mg"},{"bike_id":"f9cbcfef-b153-45a4-9d63-ec60489449c0","system_id":"levelo_inurba_marseille","lat":43.22929,"lon":5.3537,"is_reserved":false,"is_disabled":false,"rental_uris":{"android":"levelo://app?vid=f9cbcfef-b153-45a4-9d63-ec60489449c0","ios":"levelo://app?vid=f9cbcfef-b153-45a4-9d63-ec60489449c0"},"vehicle_type_id":"4","last_reported":1768227348,"current_range_meters":4400,"station_id":"cpo3532slgdg3j2ikp40","pricing_plan_id":"cebpf4jnsgd1na2vs0mg"},{"bike_id":"1bac45a7-311b-4c06-a5c8-d31f028394bd","system_id":"levelo_inurba_marseille","lat":43.32527,"lon":5.40674,"is_reserved":false,"is_disabled":false,"rental_uris":{"android":"levelo://app?vid=1bac45a7-311b-4c06-a5c8-d31f028394bd","ios":"levelo://app?vid=1bac45a7-311b-4c06-a5c8-d31f028394bd"},"vehicle_type_id":"4","last_reported":1768227348,"current_range_meters":4400,"station_id":"","pricing_plan_id":"cebpf4jnsgd1na2vs0mg"},{"bike_id":"6e4406df-26f3-483e-89c3-ed651b16d6c6","system_id":"levelo_inurba_marseille","lat":43.278163,"lon":5.407292,"is_reserved":false,"is_disabled":false,"rental_uris":{"android":"levelo://app?vid=6e4406df-26f3-483e-89c3-ed651b16d6c6","ios":"levelo://app?vid=6e4406df-26f3-483e-89c3-ed651b16d6c6"},"vehicle_type_id":"4","last_reported":1768227348,"current_range_meters":4800,"station_id":"ce4bhnh2rcd13ifvqgtg","pricing_plan_id":"cebpf4jnsgd1na2vs0mg"},{"bike_id":"00d9f4c7-0603-4336-a794-12f84330cf32","system_id":"levelo_inurba_marseille","lat":43.32334,"lon":5.37054,"is_reserved":false,"is_disabled":false,"rental_uris":{"android":"levelo://app?vid=00d9f4c7-0603-4336-a794-12f84330cf32","ios":"levelo://app?vid=00d9f4c7-0603-4336-a794-12f84330cf32"},"vehicle_type_id":"4","last_reported":1768227348,"current_range_meters":4800,"station_id":"","pricing_plan_id":"cebpf4jnsgd1na2vs0mg"},{"bike_id":"e79c7862-9fe1-46c3-9ca7-3e9fe89c13c1","system_id":"levelo_inurba_marseille","lat":43.25938,"lon":5.40904,"is_reserved":false,"is_disabled":false,"rental_uris":{"android":"levelo://app?vid=e79c7862-9fe1-46c3-9ca7-3e9fe89c13c1","ios":"levelo://app?vid=e79c7862-9fe1-46c3-9ca7-3e9fe89c13c1"},"vehicle_type_id":"4","last_reported":1768227348,"current_range_meters":4800,"station_id":"ce4bhm92rcd13ifvqglg","pricing_plan_id":"cebpf4jnsgd1na2vs0mg"},{"bike_id":"8f12e3a2-66b7-4ee3-86b6-4717efd08b68","system_id":"levelo_inurba_marseille","lat":43.27625,"lon":5.361,"is_reserved":false,"is_disabled":false,"rental_uris":{"android":"levelo://app?vid=8f12e3a2-66b7-4ee3-86b6-4717efd08b68","ios":"levelo://app?vid=8f12e3a2-66b7-4ee3-86b6-4717efd08b68"},"vehicle_type_id":"4","last_reported":1768227348,"current_range_meters":4800,"station_id":"ce4bgj92rcd13ifvqbe0","pricing_plan_id":"cebpf4jnsgd1na2vs0mg"},{"bike_id":"8f2d856f-c280-46c3-a933-99b8f46ce073","system_id":"levelo_inurba_marseille","lat":43.2409,"lon":5.37764,"is_reserved":false,"is_disabled":false,"rental_uris":{"android":"levelo://app?vid=8f2d856f-c280-46c3-a933-99b8f46ce073","ios":"levelo://app?vid=8f2d856f-c280-46c3-a933-99b8f46ce073"},"vehicle_type_id":"4","last_reported":1768227348,"current_range_meters":4800,"station_id":"ce4bhnp2rcd13ifvqgvg","pricing_plan_id":"cebpf4jnsgd1na2vs0mg"},{"bike_id":"0fa20b15-2073-47b7-8e42-4e360776c2f9","system_id":"levelo_inurba_marseille","lat":43.28462,"lon":5.35885,"is_reserved":false,"is_disabled":false,"rental_uris":{"android":"levelo://app?vid=0fa20b15-2073-47b7-8e42-4e360776c2f9","ios":"levelo://app?vid=0fa20b15-2073-47b7-8e42-4e360776c2f9"},"vehicle_type_id":"4","last_reported":1768227348,"current_range_meters":4800,"station_id":"ce4bhah2rcd13ifvqei0","pricing_plan_id":"cebpf4jnsgd1na2vs0mg"},{"bike_id":"1f205bc5-4a3e-4d82-a39c-37a793cbccbb","system_id":"levelo_inurba_marseille","lat":43.229311,"lon":5.353785,"is_reserved":false,"is_disabled":false,"rental_uris":{"android":"levelo://app?vid=1f205bc5-4a3e-4d82-a39c-37a793cbccbb","ios":"levelo://app?vid=1f205bc5-4a3e-4d82-a39c-37a793cbccbb"},"vehicle_type_id":"4","last_reported":1768227348,"current_range_meters":4800,"station_id":"cpo3532slgdg3j2ikp40","pricing_plan_id":"cebpf4jnsgd1na2vs0mg"},{"bike_id":"6fe58c9f-12a4-4691-833d-8f7ab25c526b","system_id":"levelo_inurba_marseille","lat":43.225339,"lon":5.348392,"is_reserved":false,"is_disabled":false,"rental_uris":{"android":"levelo://app?vid=6fe58c9f-12a4-4691-833d-8f7ab25c526b","ios":"levelo://app?vid=6fe58c9f-12a4-4691-833d-8f7ab25c526b"},"vehicle_type_id":"4","last_reported":1768227348,"current_range_meters":4800,"station_id":"","pricing_plan_id":"cebpf4jnsgd1na2vs0mg"},{"bike_id":"57504a4a-9ebf-489f-8b84-6b50e4f58a55","system_id":"levelo_inurba_marseille","lat":43.25566,"lon":5.38242,"is_reserved":false,"is_disabled":false,"rental_uris":{"android":"levelo://app?vid=57504a4a-9ebf-489f-8b84-6b50e4f58a55","ios":"levelo://app?vid=57504a4a-9ebf-489f-8b84-6b50e4f58a55"},"vehicle_type_id":"4","last_reported":1768227348,"current_range_meters":5600,"station_id":"ce4bhih2rcd13ifvqfs0","pricing_plan_id":"cebpf4jnsgd1na2vs0mg"},{"bike_id":"7880a39b-d3c6-4cfe-a267-a3687cffae59","system_id":"levelo_inurba_marseille","lat":43.24167,"lon":5.36386,"is_reserved":false,"is_disabled":false,"rental_uris":{"android":"levelo://app?vid=7880a39b-d3c6-4cfe-a267-a3687cffae59","ios":"levelo://app?vid=7880a39b-d3c6-4cfe-a267-a3687cffae59"},"vehicle_type_id":"4","last_reported":1768227348,"current_range_meters":5600,"station_id":"cpo36qri1sfpv3e86is0","pricing_plan_id":"cebpf4jnsgd1na2vs0mg"},{"bike_id":"7cd2eb0f-c0de-4e2a-ab18-f7ce2558da4f","system_id":"levelo_inurba_marseille","lat":43.30367,"lon":5.37326,"is_reserved":false,"is_disabled":false,"rental_uris":{"android":"levelo://app?vid=7cd2eb0f-c0de-4e2a-ab18-f7ce2558da4f","ios":"levelo://app?vid=7cd2eb0f-c0de-4e2a-ab18-f7ce2558da4f"},"vehicle_type_id":"4","last_reported":1768227348,"current_range_meters":5600,"station_id":"","pricing_plan_id":"cebpf4jnsgd1na2vs0mg"},{"bike_id":"abd336f0-72b8-48ec-aebc-52f3fafa5084","system_id":"levelo_inurba_marseille","lat":43.23191,"lon":5.39976,"is_reserved":false,"is_disabled":false,"rental_uris":{"android":"levelo://app?vid=abd336f0-72b8-48ec-aebc-52f3fafa5084","ios":"levelo://app?vid=abd336f0-72b8-48ec-aebc-52f3fafa5084"},"vehicle_type_id":"4","last_reported":1768227348,"current_range_meters":5600,"station_id":"ce4bhn12rcd13ifvqgqg","pricing_plan_id":"cebpf4jnsgd1na2vs0mg"},{"bike_id":"a41874bc-f800-4b85-a299-319d69ce81ac","system_id":"levelo_inurba_marseille","lat":43.28481,"lon":5.38216,"is_reserved":false,"is_disabled":false,"rental_uris":{"android":"levelo://app?vid=a41874bc-f800-4b85-a299-319d69ce81ac","ios":"levelo://app?vid=a41874bc-f800-4b85-a299-319d69ce81ac"},"vehicle_type_id":"4","last_reported":1768227348,"current_range_meters":5600,"station_id":"","pricing_plan_id":"cebpf4jnsgd1na2vs0mg"},{"bike_id":"ebc1fe3c-d8d2-4416-a03a-6751b6b9a856","system_id":"levelo_inurba_marseille","lat":43.28852,"lon":5.39322,"is_reserved":false,"is_disabled":true,"rental_uris":{"android":"levelo://app?vid=ebc1fe3c-d8d2-4416-a03a-6751b6b9a856","ios":"levelo://app?vid=ebc1fe3c-d8d2-4416-a03a-6751b6b9a856"},"vehicle_type_id":"4","last_reported":1768227348,"current_range_meters":5600,"station_id":"ce4bh2p2rcd13ifvqdi0","pricing_plan_id":"cebpf4jnsgd1na2vs0mg"},{"bike_id":"4e955f28-92b4-451c-a0d5-91b2f367aa7b","system_id":"levelo_inurba_marseille","lat":43.31724,"lon":5.37753,"is_reserved":false,"is_disabled":false,"rental_uris":{"android":"levelo://app?vid=4e955f28-92b4-451c-a0d5-91b2f367aa7b","ios":"levelo://app?vid=4e955f28-92b4-451c-a0d5-91b2f367aa7b"},"vehicle_type_id":"4","last_reported":1768227348,"current_range_meters":5600,"station_id":"ce4bgth2rcd13ifvqch0","pricing_plan_id":"cebpf4jnsgd1na2vs0mg"},{"bike_id":"cb2f25fd-2a35-4cdd-94e4-f1c146aee5b3","system_id":"levelo_inurba_marseille","lat":43.29607,"lon":5.37165,"is_reserved":false,"is_disabled":false,"rental_uris":{"android":"levelo://app?vid=cb2f25fd-2a35-4cdd-94e4-f1c146aee5b3","ios":"levelo://app?vid=cb2f25fd-2a35-4cdd-94e4-f1c146aee5b3"},"vehicle_type_id":"4","last_reported":1768227348,"current_range_meters":5600,"station_id":"ce4bgnh2rcd13ifvqc0g","pricing_plan_id":"cebpf4jnsgd1na2vs0mg"},{"bike_id":"a8ecdd99-7139-4fb1-98fe-bada14256eaa","system_id":"levelo_inurba_marseille","lat":43.31067,"lon":5.38355,"is_reserved":false,"is_disabled":false,"rental_uris":{"android":"levelo://app?vid=a8ecdd99-7139-4fb1-98fe-bada14256eaa","ios":"levelo://app?vid=a8ecdd99-7139-4fb1-98fe-bada14256eaa"},"vehicle_type_id":"4","last_reported":1768227348,"current_range_meters":5600,"station_id":"ce4bgv92rcd13ifvqcr0","pricing_plan_id":"cebpf4jnsgd1na2vs0mg"},{"bike_id":"81252b01-7171-4dce-b5eb-147b8dd83975","system_id":"levelo_inurba_marseille","lat":43.237873,"lon":5.366393,"is_reserved":false,"is_disabled":false,"rental_uris":{"android":"levelo://app?vid=81252b01-7171-4dce-b5eb-147b8dd83975","ios":"levelo://app?vid=81252b01-7171-4dce-b5eb-147b8dd83975"},"vehicle_type_id":"4","last_reported":1768227348,"current_range_meters":5600,"station_id":"st_d3nk18o9ro0c73en2l3g","pricing_plan_id":"cebpf4jnsgd1na2vs0mg"},{"bike_id":"aee50722-2093-4df2-aea7-509321d1bacc","system_id":"levelo_inurba_marseille","lat":43.25501,"lon":5.37652,"is_reserved":false,"is_disabled":false,"rental_uris":{"android":"levelo://app?vid=aee50722-2093-4df2-aea7-509321d1bacc","ios":"levelo://app?vid=aee50722-2093-4df2-aea7-509321d1bacc"},"vehicle_type_id":"4","last_reported":1768227348,"current_range_meters":5600,"station_id":"ce4bhh12rcd13ifvqff0","pricing_plan_id":"cebpf4jnsgd1na2vs0mg"},{"bike_id":"0bca6eba-1299-4afb-ac37-73c0c09d85e9","system_id":"levelo_inurba_marseille","lat":43.22551,"lon":5.41617,"is_reserved":false,"is_disabled":false,"rental_uris":{"android":"levelo://app?vid=0bca6eba-1299-4afb-ac37-73c0c09d85e9","ios":"levelo://app?vid=0bca6eba-1299-4afb-ac37-73c0c09d85e9"},"vehicle_type_id":"4","last_reported":1768227348,"current_range_meters":5600,"station_id":"st_d2o4gvlbi1j2169b742g","pricing_plan_id":"cebpf4jnsgd1na2vs0mg"},{"bike_id":"539189ae-8f80-40cd-b04a-96f32054a91b","system_id":"levelo_inurba_marseille","lat":43.22935,"lon":5.35378,"is_reserved":false,"is_disabled":false,"rental_uris":{"android":"levelo://app?vid=539189ae-8f80-40cd-b04a-96f32054a91b","ios":"levelo://app?vid=539189ae-8f80-40cd-b04a-96f32054a91b"},"vehicle_type_id":"4","last_reported":1768227348,"current_range_meters":5600,"station_id":"cpo3532slgdg3j2ikp40","pricing_plan_id":"cebpf4jnsgd1na2vs0mg"},{"bike_id":"41733682-5bea-42d2-a207-b4cbdb5bb831","system_id":"levelo_inurba_marseille","lat":43.3108,"lon":5.4243,"is_reserved":false,"is_disabled":false,"rental_uris":{"android":"levelo://app?vid=41733682-5bea-42d2-a207-b4cbdb5bb831","ios":"levelo://app?vid=41733682-5bea-42d2-a207-b4cbdb5bb831"},"vehicle_type_id":"4","last_reported":1768227348,"current_range_meters":5600,"station_id":"ce4bhp92rcd13ifvqhag","pricing_plan_id":"cebpf4jnsgd1na2vs0mg"},{"bike_id":"a5e7a8c7-990f-4805-83c9-aa3dcc9287c4","system_id":"levelo_inurba_marseille","lat":43.22557,"lon":5.41628,"is_reserved":false,"is_disabled":false,"rental_uris":{"android":"levelo://app?vid=a5e7a8c7-990f-4805-83c9-aa3dcc9287c4","ios":"levelo://app?vid=a5e7a8c7-990f-4805-83c9-aa3dcc9287c4"},"vehicle_type_id":"4","last_reported":1768227348,"current_range_meters":5600,"station_id":"st_d2o4gvlbi1j2169b742g","pricing_plan_id":"cebpf4jnsgd1na2vs0mg"},{"bike_id":"64abf877-4f8b-4a9c-bbc2-70d851787ca6","system_id":"levelo_inurba_marseille","lat":43.2847,"lon":5.48399,"is_reserved":false,"is_disabled":false,"rental_uris":{"android":"levelo://app?vid=64abf877-4f8b-4a9c-bbc2-70d851787ca6","ios":"levelo://app?vid=64abf877-4f8b-4a9c-bbc2-70d851787ca6"},"vehicle_type_id":"4","last_reported":1768227348,"current_range_meters":5600,"station_id":"","pricing_plan_id":"cebpf4jnsgd1na2vs0mg"},{"bike_id":"43f42260-220f-4af5-8e5e-4939c850d0b8","system_id":"levelo_inurba_marseille","lat":43.33279,"lon":5.41247,"is_reserved":false,"is_disabled":false,"rental_uris":{"android":"levelo://app?vid=43f42260-220f-4af5-8e5e-4939c850d0b8","ios":"levelo://app?vid=43f42260-220f-4af5-8e5e-4939c850d0b8"},"vehicle_type_id":"4","last_reported":1768227348,"current_range_meters":5600,"station_id":"","pricing_plan_id":"cebpf4jnsgd1na2vs0mg"},{"bike_id":"5ec891af-3ddc-4ab2-8558-00c04b4aa648","system_id":"levelo_inurba_marseille","lat":43.30732,"lon":5.42438,"is_reserved":false,"is_disabled":false,"rental_uris":{"android":"levelo://app?vid=5ec891af-3ddc-4ab2-8558-00c04b4aa648","ios":"levelo://app?vid=5ec891af-3ddc-4ab2-8558-00c04b4aa648"},"vehicle_type_id":"4","last_reported":1768227348,"current_range_meters":6000,"station_id":"st_cvj6ca6bvosntc0bfgr0","pricing_plan_id":"cebpf4jnsgd1na2vs0mg"},{"bike_id":"23d32e9e-0234-4760-9b7c-ce798b878635","system_id":"levelo_inurba_marseille","lat":43.30182,"lon":5.38079,"is_reserved":false,"is_disabled":false,"rental_uris":{"android":"levelo://app?vid=23d32e9e-0234-4760-9b7c-ce798b878635","ios":"levelo://app?vid=23d32e9e-0234-4760-9b7c-ce798b878635"},"vehicle_type_id":"4","last_reported":1768227348,"current_range_meters":6000,"station_id":"ce4bgjp2rcd13ifvqbh0","pricing_plan_id":"cebpf4jnsgd1na2vs0mg"},{"bike_id":"781a299f-b672-4a4f-9914-f7d48ca09f1e","system_id":"levelo_inurba_marseille","lat":43.285171,"lon":5.429992,"is_reserved":false,"is_disabled":false,"rental_uris":{"android":"levelo://app?vid=781a299f-b672-4a4f-9914-f7d48ca09f1e","ios":"levelo://app?vid=781a299f-b672-4a4f-9914-f7d48ca09f1e"},"vehicle_type_id":"4","last_reported":1768227348,"current_range_meters":6000,"station_id":"","pricing_plan_id":"cebpf4jnsgd1na2vs0mg"},{"bike_id":"7f0cb521-e464-4fe2-9e92-1a979338c414","system_id":"levelo_inurba_marseille","lat":43.2749,"lon":5.42456,"is_reserved":false,"is_disabled":false,"rental_uris":{"android":"levelo://app?vid=7f0cb521-e464-4fe2-9e92-1a979338c414","ios":"levelo://app?vid=7f0cb521-e464-4fe2-9e92-1a979338c414"},"vehicle_type_id":"4","last_reported":1768227348,"current_range_meters":6000,"station_id":"ce4bhn92rcd13ifvqgrg","pricing_plan_id":"cebpf4jnsgd1na2vs0mg"},{"bike_id":"da8194f5-2ebb-4f50-9223-be517765a9fa","system_id":"levelo_inurba_marseille","lat":43.27495,"lon":5.42453,"is_reserved":false,"is_disabled":false,"rental_uris":{"android":"levelo://app?vid=da8194f5-2ebb-4f50-9223-be517765a9fa","ios":"levelo://app?vid=da8194f5-2ebb-4f50-9223-be517765a9fa"},"vehicle_type_id":"4","last_reported":1768227348,"current_range_meters":6000,"station_id":"ce4bhn92rcd13ifvqgrg","pricing_plan_id":"cebpf4jnsgd1na2vs0mg"},{"bike_id":"6e20a6ec-9be3-46ff-9a26-04c10f0e163d","system_id":"levelo_inurba_marseille","lat":43.2801,"lon":5.40901,"is_reserved":false,"is_disabled":false,"rental_uris":{"android":"levelo://app?vid=6e20a6ec-9be3-46ff-9a26-04c10f0e163d","ios":"levelo://app?vid=6e20a6ec-9be3-46ff-9a26-04c10f0e163d"},"vehicle_type_id":"4","last_reported":1768227348,"current_range_meters":6000,"station_id":"","pricing_plan_id":"cebpf4jnsgd1na2vs0mg"},{"bike_id":"8e5ac354-dc9d-4b1d-bd68-1eba54bbfaa3","system_id":"levelo_inurba_marseille","lat":43.29032,"lon":5.37555,"is_reserved":false,"is_disabled":false,"rental_uris":{"android":"levelo://app?vid=8e5ac354-dc9d-4b1d-bd68-1eba54bbfaa3","ios":"levelo://app?vid=8e5ac354-dc9d-4b1d-bd68-1eba54bbfaa3"},"vehicle_type_id":"4","last_reported":1768227348,"current_range_meters":6000,"station_id":"ce4bh692rcd13ifvqe90","pricing_plan_id":"cebpf4jnsgd1na2vs0mg"},{"bike_id":"019117bd-1ed6-42d0-8cb4-478ac8fd60d1","system_id":"levelo_inurba_marseille","lat":43.2987,"lon":5.39729,"is_reserved":false,"is_disabled":false,"rental_uris":{"android":"levelo://app?vid=019117bd-1ed6-42d0-8cb4-478ac8fd60d1","ios":"levelo://app?vid=019117bd-1ed6-42d0-8cb4-478ac8fd60d1"},"vehicle_type_id":"4","last_reported":1768227348,"current_range_meters":6000,"station_id":"ce4bh0h2rcd13ifvqd50","pricing_plan_id":"cebpf4jnsgd1na2vs0mg"},{"bike_id":"9231e244-bb23-4d08-b86e-d3bec87ef44a","system_id":"levelo_inurba_marseille","lat":43.28605,"lon":5.35105,"is_reserved":false,"is_disabled":false,"rental_uris":{"android":"levelo://app?vid=9231e244-bb23-4d08-b86e-d3bec87ef44a","ios":"levelo://app?vid=9231e244-bb23-4d08-b86e-d3bec87ef44a"},"vehicle_type_id":"4","last_reported":1768227348,"current_range_meters":6000,"station_id":"ce4bhch2rcd13ifvqeug","pricing_plan_id":"cebpf4jnsgd1na2vs0mg"},{"bike_id":"35aa2476-20d3-4639-83d2-bd6fb406ebc7","system_id":"levelo_inurba_marseille","lat":43.2749,"lon":5.42463,"is_reserved":false,"is_disabled":false,"rental_uris":{"android":"levelo://app?vid=35aa2476-20d3-4639-83d2-bd6fb406ebc7","ios":"levelo://app?vid=35aa2476-20d3-4639-83d2-bd6fb406ebc7"},"vehicle_type_id":"4","last_reported":1768227348,"current_range_meters":6000,"station_id":"ce4bhn92rcd13ifvqgrg","pricing_plan_id":"cebpf4jnsgd1na2vs0mg"},{"bike_id":"cd958440-37ff-4feb-915e-44938e618dc0","system_id":"levelo_inurba_marseille","lat":43.313909,"lon":5.368932,"is_reserved":false,"is_disabled":false,"rental_uris":{"android":"levelo://app?vid=cd958440-37ff-4feb-915e-44938e618dc0","ios":"levelo://app?vid=cd958440-37ff-4feb-915e-44938e618dc0"},"vehicle_type_id":"4","last_reported":1768227348,"current_range_meters":6000,"station_id":"","pricing_plan_id":"cebpf4jnsgd1na2vs0mg"},{"bike_id":"728f69d7-37cf-4b1e-8272-67fbd450c882","system_id":"levelo_inurba_marseille","lat":43.24998,"lon":5.38932,"is_reserved":false,"is_disabled":false,"rental_uris":{"android":"levelo://app?vid=728f69d7-37cf-4b1e-8272-67fbd450c882","ios":"levelo://app?vid=728f69d7-37cf-4b1e-8272-67fbd450c882"},"vehicle_type_id":"4","last_reported":1768227348,"current_range_meters":6000,"station_id":"ce4bhgp2rcd13ifvqfd0","pricing_plan_id":"cebpf4jnsgd1na2vs0mg"},{"bike_id":"b9ec9842-a32d-4209-b807-840ab3895464","system_id":"levelo_inurba_marseille","lat":43.297878,"lon":5.371059,"is_reserved":false,"is_disabled":false,"rental_uris":{"android":"levelo://app?vid=b9ec9842-a32d-4209-b807-840ab3895464","ios":"levelo://app?vid=b9ec9842-a32d-4209-b807-840ab3895464"},"vehicle_type_id":"4","last_reported":1768227348,"current_range_meters":6000,"station_id":"ce4bgop2rcd13ifvqc1g","pricing_plan_id":"cebpf4jnsgd1na2vs0mg"},{"bike_id":"d3b061ea-4a9c-4795-a465-bf6772714175","system_id":"levelo_inurba_marseille","lat":43.25336,"lon":5.42174,"is_reserved":false,"is_disabled":false,"rental_uris":{"android":"levelo://app?vid=d3b061ea-4a9c-4795-a465-bf6772714175","ios":"levelo://app?vid=d3b061ea-4a9c-4795-a465-bf6772714175"},"vehicle_type_id":"4","last_reported":1768227348,"current_range_meters":6000,"station_id":"st_d2m65c5bi1j21697t3ng","pricing_plan_id":"cebpf4jnsgd1na2vs0mg"},{"bike_id":"8f4c5aa9-3489-419b-bc65-be8369429a7d","system_id":"levelo_inurba_marseille","lat":43.262074,"lon":5.37927,"is_reserved":false,"is_disabled":true,"rental_uris":{"android":"levelo://app?vid=8f4c5aa9-3489-419b-bc65-be8369429a7d","ios":"levelo://app?vid=8f4c5aa9-3489-419b-bc65-be8369429a7d"},"vehicle_type_id":"4","last_reported":1768227348,"current_range_meters":6400,"station_id":"","pricing_plan_id":"cebpf4jnsgd1na2vs0mg"},{"bike_id":"0e03800e-b65d-47ab-abed-0119a66474ba","system_id":"levelo_inurba_marseille","lat":43.240719,"lon":5.37768,"is_reserved":false,"is_disabled":false,"rental_uris":{"android":"levelo://app?vid=0e03800e-b65d-47ab-abed-0119a66474ba","ios":"levelo://app?vid=0e03800e-b65d-47ab-abed-0119a66474ba"},"vehicle_type_id":"4","last_reported":1768227348,"current_range_meters":6400,"station_id":"ce4bhnp2rcd13ifvqgvg","pricing_plan_id":"cebpf4jnsgd1na2vs0mg"},{"bike_id":"d0f33b4a-24fd-4257-8d5c-fd10f6750fe8","system_id":"levelo_inurba_marseille","lat":43.253342,"lon":5.421732,"is_reserved":false,"is_disabled":false,"rental_uris":{"android":"levelo://app?vid=d0f33b4a-24fd-4257-8d5c-fd10f6750fe8","ios":"levelo://app?vid=d0f33b4a-24fd-4257-8d5c-fd10f6750fe8"},"vehicle_type_id":"4","last_reported":1768227348,"current_range_meters":6400,"station_id":"st_d2m65c5bi1j21697t3ng","pricing_plan_id":"cebpf4jnsgd1na2vs0mg"},{"bike_id":"64f2c2d6-c32a-42c8-9668-fcbadeeed537","system_id":"levelo_inurba_marseille","lat":43.23781,"lon":5.36631,"is_reserved":false,"is_disabled":false,"rental_uris":{"android":"levelo://app?vid=64f2c2d6-c32a-42c8-9668-fcbadeeed537","ios":"levelo://app?vid=64f2c2d6-c32a-42c8-9668-fcbadeeed537"},"vehicle_type_id":"4","last_reported":1768227348,"current_range_meters":6400,"station_id":"st_d3nk18o9ro0c73en2l3g","pricing_plan_id":"cebpf4jnsgd1na2vs0mg"},{"bike_id":"2c381f33-f50d-42f7-b9f2-2ecb363baad8","system_id":"levelo_inurba_marseille","lat":43.25931,"lon":5.40909,"is_reserved":false,"is_disabled":false,"rental_uris":{"android":"levelo://app?vid=2c381f33-f50d-42f7-b9f2-2ecb363baad8","ios":"levelo://app?vid=2c381f33-f50d-42f7-b9f2-2ecb363baad8"},"vehicle_type_id":"4","last_reported":1768227348,"current_range_meters":6400,"station_id":"ce4bhm92rcd13ifvqglg","pricing_plan_id":"cebpf4jnsgd1na2vs0mg"},{"bike_id":"615d3e67-ba61-49de-be0e-f5152d782a7d","system_id":"levelo_inurba_marseille","lat":43.31092,"lon":5.37755,"is_reserved":false,"is_disabled":false,"rental_uris":{"android":"levelo://app?vid=615d3e67-ba61-49de-be0e-f5152d782a7d","ios":"levelo://app?vid=615d3e67-ba61-49de-be0e-f5152d782a7d"},"vehicle_type_id":"4","last_reported":1768227348,"current_range_meters":6400,"station_id":"ce4bgt92rcd13ifvqcg0","pricing_plan_id":"cebpf4jnsgd1na2vs0mg"},{"bike_id":"882dd7ba-0ae9-4eea-a23c-b379119bd885","system_id":"levelo_inurba_marseille","lat":43.30014,"lon":5.37637,"is_reserved":false,"is_disabled":false,"rental_uris":{"android":"levelo://app?vid=882dd7ba-0ae9-4eea-a23c-b379119bd885","ios":"levelo://app?vid=882dd7ba-0ae9-4eea-a23c-b379119bd885"},"vehicle_type_id":"4","last_reported":1768227348,"current_range_meters":6400,"station_id":"","pricing_plan_id":"cebpf4jnsgd1na2vs0mg"},{"bike_id":"add22b5c-4237-4b86-93cd-24c865b74854","system_id":"levelo_inurba_marseille","lat":43.24081,"lon":5.37755,"is_reserved":false,"is_disabled":false,"rental_uris":{"android":"levelo://app?vid=add22b5c-4237-4b86-93cd-24c865b74854","ios":"levelo://app?vid=add22b5c-4237-4b86-93cd-24c865b74854"},"vehicle_type_id":"4","last_reported":1768227348,"current_range_meters":6400,"station_id":"ce4bhnp2rcd13ifvqgvg","pricing_plan_id":"cebpf4jnsgd1na2vs0mg"},{"bike_id":"a50e138d-8fb5-4cf3-899b-bc13e96ae4d1","system_id":"levelo_inurba_marseille","lat":43.31121,"lon":5.37749,"is_reserved":false,"is_disabled":false,"rental_uris":{"android":"levelo://app?vid=a50e138d-8fb5-4cf3-899b-bc13e96ae4d1","ios":"levelo://app?vid=a50e138d-8fb5-4cf3-899b-bc13e96ae4d1"},"vehicle_type_id":"4","last_reported":1768227348,"current_range_meters":6400,"station_id":"ce4bgt92rcd13ifvqcg0","pricing_plan_id":"cebpf4jnsgd1na2vs0mg"},{"bike_id":"c7e21aae-b51d-4a03-8692-0a56b38f185f","system_id":"levelo_inurba_marseille","lat":43.29144,"lon":5.37657,"is_reserved":false,"is_disabled":false,"rental_uris":{"android":"levelo://app?vid=c7e21aae-b51d-4a03-8692-0a56b38f185f","ios":"levelo://app?vid=c7e21aae-b51d-4a03-8692-0a56b38f185f"},"vehicle_type_id":"4","last_reported":1768227348,"current_range_meters":6400,"station_id":"","pricing_plan_id":"cebpf4jnsgd1na2vs0mg"},{"bike_id":"f8142173-a7a8-4883-a708-73b2bfbb8f21","system_id":"levelo_inurba_marseille","lat":43.2618,"lon":5.37435,"is_reserved":false,"is_disabled":false,"rental_uris":{"android":"levelo://app?vid=f8142173-a7a8-4883-a708-73b2bfbb8f21","ios":"levelo://app?vid=f8142173-a7a8-4883-a708-73b2bfbb8f21"},"vehicle_type_id":"4","last_reported":1768227348,"current_range_meters":6400,"station_id":"ce4bhgp2rcd13ifvqfc0","pricing_plan_id":"cebpf4jnsgd1na2vs0mg"},{"bike_id":"6a7656be-940f-42be-91a8-c1dd31e8e876","system_id":"levelo_inurba_marseille","lat":43.22925,"lon":5.3538,"is_reserved":false,"is_disabled":false,"rental_uris":{"android":"levelo://app?vid=6a7656be-940f-42be-91a8-c1dd31e8e876","ios":"levelo://app?vid=6a7656be-940f-42be-91a8-c1dd31e8e876"},"vehicle_type_id":"4","last_reported":1768227348,"current_range_meters":6400,"station_id":"cpo3532slgdg3j2ikp40","pricing_plan_id":"cebpf4jnsgd1na2vs0mg"},{"bike_id":"1fe0ca8f-e2d6-4162-ab84-4a8751166906","system_id":"levelo_inurba_marseille","lat":43.22569,"lon":5.41625,"is_reserved":false,"is_disabled":false,"rental_uris":{"android":"levelo://app?vid=1fe0ca8f-e2d6-4162-ab84-4a8751166906","ios":"levelo://app?vid=1fe0ca8f-e2d6-4162-ab84-4a8751166906"},"vehicle_type_id":"4","last_reported":1768227348,"current_range_meters":6400,"station_id":"st_d2o4gvlbi1j2169b742g","pricing_plan_id":"cebpf4jnsgd1na2vs0mg"},{"bike_id":"444d24c9-2d72-4877-b34b-bdf869024cd6","system_id":"levelo_inurba_marseille","lat":43.22553,"lon":5.41615,"is_reserved":false,"is_disabled":false,"rental_uris":{"android":"levelo://app?vid=444d24c9-2d72-4877-b34b-bdf869024cd6","ios":"levelo://app?vid=444d24c9-2d72-4877-b34b-bdf869024cd6"},"vehicle_type_id":"4","last_reported":1768227348,"current_range_meters":6400,"station_id":"st_d2o4gvlbi1j2169b742g","pricing_plan_id":"cebpf4jnsgd1na2vs0mg"},{"bike_id":"2b67170a-8cc7-4347-8cbb-0ce1ee7ad759","system_id":"levelo_inurba_marseille","lat":43.29832,"lon":5.37683,"is_reserved":false,"is_disabled":false,"rental_uris":{"android":"levelo://app?vid=2b67170a-8cc7-4347-8cbb-0ce1ee7ad759","ios":"levelo://app?vid=2b67170a-8cc7-4347-8cbb-0ce1ee7ad759"},"vehicle_type_id":"4","last_reported":1768227348,"current_range_meters":6400,"station_id":"","pricing_plan_id":"cebpf4jnsgd1na2vs0mg"},{"bike_id":"008ba143-6037-4e2d-8ef5-95a0934cab8d","system_id":"levelo_inurba_marseille","lat":43.301178,"lon":5.398628,"is_reserved":false,"is_disabled":false,"rental_uris":{"android":"levelo://app?vid=008ba143-6037-4e2d-8ef5-95a0934cab8d","ios":"levelo://app?vid=008ba143-6037-4e2d-8ef5-95a0934cab8d"},"vehicle_type_id":"4","last_reported":1768227348,"current_range_meters":6400,"station_id":"ce4bh0h2rcd13ifvqd40","pricing_plan_id":"cebpf4jnsgd1na2vs0mg"},{"bike_id":"19d3f4dd-0ead-4c30-a374-e64e1e69936c","system_id":"levelo_inurba_marseille","lat":43.24072,"lon":5.37764,"is_reserved":false,"is_disabled":false,"rental_uris":{"android":"levelo://app?vid=19d3f4dd-0ead-4c30-a374-e64e1e69936c","ios":"levelo://app?vid=19d3f4dd-0ead-4c30-a374-e64e1e69936c"},"vehicle_type_id":"4","last_reported":1768227348,"current_range_meters":6400,"station_id":"ce4bhnp2rcd13ifvqgvg","pricing_plan_id":"cebpf4jnsgd1na2vs0mg"},{"bike_id":"5eaa7009-e157-4b69-b935-83d5abdb0c3d","system_id":"levelo_inurba_marseille","lat":43.2416,"lon":5.36394,"is_reserved":false,"is_disabled":false,"rental_uris":{"android":"levelo://app?vid=5eaa7009-e157-4b69-b935-83d5abdb0c3d","ios":"levelo://app?vid=5eaa7009-e157-4b69-b935-83d5abdb0c3d"},"vehicle_type_id":"4","last_reported":1768227348,"current_range_meters":6400,"station_id":"cpo36qri1sfpv3e86is0","pricing_plan_id":"cebpf4jnsgd1na2vs0mg"},{"bike_id":"bb619c71-0835-43b9-b355-839f7d227a0d","system_id":"levelo_inurba_marseille","lat":43.25928,"lon":5.40897,"is_reserved":false,"is_disabled":false,"rental_uris":{"android":"levelo://app?vid=bb619c71-0835-43b9-b355-839f7d227a0d","ios":"levelo://app?vid=bb619c71-0835-43b9-b355-839f7d227a0d"},"vehicle_type_id":"4","last_reported":1768227348,"current_range_meters":6400,"station_id":"ce4bhm92rcd13ifvqglg","pricing_plan_id":"cebpf4jnsgd1na2vs0mg"},{"bike_id":"5d5df986-a9af-4aac-959f-24360dffaa68","system_id":"levelo_inurba_marseille","lat":43.23201,"lon":5.35569,"is_reserved":false,"is_disabled":false,"rental_uris":{"android":"levelo://app?vid=5d5df986-a9af-4aac-959f-24360dffaa68","ios":"levelo://app?vid=5d5df986-a9af-4aac-959f-24360dffaa68"},"vehicle_type_id":"4","last_reported":1768227348,"current_range_meters":6800,"station_id":"ce4bhu92rcd13ifvqi70","pricing_plan_id":"cebpf4jnsgd1na2vs0mg"},{"bike_id":"6e8b6460-c748-40f6-9463-78b40d49f59d","system_id":"levelo_inurba_marseille","lat":43.25573,"lon":5.38243,"is_reserved":false,"is_disabled":true,"rental_uris":{"android":"levelo://app?vid=6e8b6460-c748-40f6-9463-78b40d49f59d","ios":"levelo://app?vid=6e8b6460-c748-40f6-9463-78b40d49f59d"},"vehicle_type_id":"4","last_reported":1768227348,"current_range_meters":6800,"station_id":"ce4bhih2rcd13ifvqfs0","pricing_plan_id":"cebpf4jnsgd1na2vs0mg"},{"bike_id":"c89382d7-74ba-405f-8e02-71142871c1e4","system_id":"levelo_inurba_marseille","lat":43.30856,"lon":5.4058,"is_reserved":false,"is_disabled":false,"rental_uris":{"android":"levelo://app?vid=c89382d7-74ba-405f-8e02-71142871c1e4","ios":"levelo://app?vid=c89382d7-74ba-405f-8e02-71142871c1e4"},"vehicle_type_id":"4","last_reported":1768227348,"current_range_meters":6800,"station_id":"","pricing_plan_id":"cebpf4jnsgd1na2vs0mg"},{"bike_id":"594a75e9-663d-4136-a92e-c850f13505f6","system_id":"levelo_inurba_marseille","lat":43.3138,"lon":5.36807,"is_reserved":false,"is_disabled":false,"rental_uris":{"android":"levelo://app?vid=594a75e9-663d-4136-a92e-c850f13505f6","ios":"levelo://app?vid=594a75e9-663d-4136-a92e-c850f13505f6"},"vehicle_type_id":"4","last_reported":1768227348,"current_range_meters":6800,"station_id":"","pricing_plan_id":"cebpf4jnsgd1na2vs0mg"},{"bike_id":"70d27a35-4c80-44fa-95fa-1e2285e1b4f7","system_id":"levelo_inurba_marseille","lat":43.26208,"lon":5.37479,"is_reserved":false,"is_disabled":true,"rental_uris":{"android":"levelo://app?vid=70d27a35-4c80-44fa-95fa-1e2285e1b4f7","ios":"levelo://app?vid=70d27a35-4c80-44fa-95fa-1e2285e1b4f7"},"vehicle_type_id":"4","last_reported":1768227348,"current_range_meters":6800,"station_id":"ce4bhgp2rcd13ifvqfc0","pricing_plan_id":"cebpf4jnsgd1na2vs0mg"},{"bike_id":"662fa692-b6d7-4fa9-8c12-78c61f96f761","system_id":"levelo_inurba_marseille","lat":43.24072,"lon":5.37737,"is_reserved":false,"is_disabled":false,"rental_uris":{"android":"levelo://app?vid=662fa692-b6d7-4fa9-8c12-78c61f96f761","ios":"levelo://app?vid=662fa692-b6d7-4fa9-8c12-78c61f96f761"},"vehicle_type_id":"4","last_reported":1768227348,"current_range_meters":6800,"station_id":"ce4bhnp2rcd13ifvqgvg","pricing_plan_id":"cebpf4jnsgd1na2vs0mg"},{"bike_id":"e2f4b2db-8aa9-4f04-b302-11c754abf18e","system_id":"levelo_inurba_marseille","lat":43.22555,"lon":5.41626,"is_reserved":false,"is_disabled":false,"rental_uris":{"android":"levelo://app?vid=e2f4b2db-8aa9-4f04-b302-11c754abf18e","ios":"levelo://app?vid=e2f4b2db-8aa9-4f04-b302-11c754abf18e"},"vehicle_type_id":"4","last_reported":1768227348,"current_range_meters":6800,"station_id":"st_d2o4gvlbi1j2169b742g","pricing_plan_id":"cebpf4jnsgd1na2vs0mg"},{"bike_id":"026be423-163c-422d-9d5c-22ee0f503da9","system_id":"levelo_inurba_marseille","lat":43.246595,"lon":5.431481,"is_reserved":false,"is_disabled":false,"rental_uris":{"android":"levelo://app?vid=026be423-163c-422d-9d5c-22ee0f503da9","ios":"levelo://app?vid=026be423-163c-422d-9d5c-22ee0f503da9"},"vehicle_type_id":"4","last_reported":1768227348,"current_range_meters":6800,"station_id":"st_d2m6c4gdas8pm72e190g","pricing_plan_id":"cebpf4jnsgd1na2vs0mg"},{"bike_id":"9b068504-cee8-4c92-978c-5a1caf9751b6","system_id":"levelo_inurba_marseille","lat":43.27076,"lon":5.42265,"is_reserved":false,"is_disabled":false,"rental_uris":{"android":"levelo://app?vid=9b068504-cee8-4c92-978c-5a1caf9751b6","ios":"levelo://app?vid=9b068504-cee8-4c92-978c-5a1caf9751b6"},"vehicle_type_id":"4","last_reported":1768227348,"current_range_meters":6800,"station_id":"ce4bhk92rcd13ifvqgb0","pricing_plan_id":"cebpf4jnsgd1na2vs0mg"},{"bike_id":"7e1b8b05-445a-4c8d-9e80-9bb1809a853a","system_id":"levelo_inurba_marseille","lat":43.26695,"lon":5.38247,"is_reserved":false,"is_disabled":true,"rental_uris":{"android":"levelo://app?vid=7e1b8b05-445a-4c8d-9e80-9bb1809a853a","ios":"levelo://app?vid=7e1b8b05-445a-4c8d-9e80-9bb1809a853a"},"vehicle_type_id":"4","last_reported":1768227348,"current_range_meters":6800,"station_id":"ce4bhg92rcd13ifvqf90","pricing_plan_id":"cebpf4jnsgd1na2vs0mg"},{"bike_id":"aa001726-78af-498e-a28f-d4169e65c9f2","system_id":"levelo_inurba_marseille","lat":43.27703,"lon":5.39931,"is_reserved":false,"is_disabled":false,"rental_uris":{"android":"levelo://app?vid=aa001726-78af-498e-a28f-d4169e65c9f2","ios":"levelo://app?vid=aa001726-78af-498e-a28f-d4169e65c9f2"},"vehicle_type_id":"4","last_reported":1768227348,"current_range_meters":6800,"station_id":"","pricing_plan_id":"cebpf4jnsgd1na2vs0mg"},{"bike_id":"bd500946-12f8-43a3-a714-f05cc642f8fd","system_id":"levelo_inurba_marseille","lat":43.24617,"lon":5.43089,"is_reserved":false,"is_disabled":false,"rental_uris":{"android":"levelo://app?vid=bd500946-12f8-43a3-a714-f05cc642f8fd","ios":"levelo://app?vid=bd500946-12f8-43a3-a714-f05cc642f8fd"},"vehicle_type_id":"4","last_reported":1768227348,"current_range_meters":6800,"station_id":"st_d2m6c4gdas8pm72e190g","pricing_plan_id":"cebpf4jnsgd1na2vs0mg"},{"bike_id":"9db0c6a2-0532-47d6-9e11-4501d4349639","system_id":"levelo_inurba_marseille","lat":43.31056,"lon":5.371797,"is_reserved":false,"is_disabled":false,"rental_uris":{"android":"levelo://app?vid=9db0c6a2-0532-47d6-9e11-4501d4349639","ios":"levelo://app?vid=9db0c6a2-0532-47d6-9e11-4501d4349639"},"vehicle_type_id":"4","last_reported":1768227348,"current_range_meters":6800,"station_id":"st_d4kl2rp97mjs73e7tdfg","pricing_plan_id":"cebpf4jnsgd1na2vs0mg"},{"bike_id":"24ba2f80-60b7-4944-b7ed-dd0dea664de4","system_id":"levelo_inurba_marseille","lat":43.284754,"lon":5.483988,"is_reserved":false,"is_disabled":false,"rental_uris":{"android":"levelo://app?vid=24ba2f80-60b7-4944-b7ed-dd0dea664de4","ios":"levelo://app?vid=24ba2f80-60b7-4944-b7ed-dd0dea664de4"},"vehicle_type_id":"4","last_reported":1768227348,"current_range_meters":6800,"station_id":"st_d3svhcjqgbts73a3dn0g","pricing_plan_id":"cebpf4jnsgd1na2vs0mg"},{"bike_id":"a5528165-e9d4-4740-81b7-6a02a8ff196c","system_id":"levelo_inurba_marseille","lat":43.32288,"lon":5.38266,"is_reserved":false,"is_disabled":false,"rental_uris":{"android":"levelo://app?vid=a5528165-e9d4-4740-81b7-6a02a8ff196c","ios":"levelo://app?vid=a5528165-e9d4-4740-81b7-6a02a8ff196c"},"vehicle_type_id":"4","last_reported":1768227348,"current_range_meters":6800,"station_id":"ce4bhr12rcd13ifvqhqg","pricing_plan_id":"cebpf4jnsgd1na2vs0mg"},{"bike_id":"5f188eed-8638-4551-9668-478b429d53e6","system_id":"levelo_inurba_marseille","lat":43.24653,"lon":5.38171,"is_reserved":false,"is_disabled":false,"rental_uris":{"android":"levelo://app?vid=5f188eed-8638-4551-9668-478b429d53e6","ios":"levelo://app?vid=5f188eed-8638-4551-9668-478b429d53e6"},"vehicle_type_id":"4","last_reported":1768227348,"current_range_meters":6800,"station_id":"ce4bhih2rcd13ifvqfr0","pricing_plan_id":"cebpf4jnsgd1na2vs0mg"},{"bike_id":"4f117f99-66a4-4bae-b6a8-a51d757eea15","system_id":"levelo_inurba_marseille","lat":43.30155,"lon":5.3742,"is_reserved":false,"is_disabled":false,"rental_uris":{"android":"levelo://app?vid=4f117f99-66a4-4bae-b6a8-a51d757eea15","ios":"levelo://app?vid=4f117f99-66a4-4bae-b6a8-a51d757eea15"},"vehicle_type_id":"4","last_reported":1768227348,"current_range_meters":7200,"station_id":"ce4bgs92rcd13ifvqcc0","pricing_plan_id":"cebpf4jnsgd1na2vs0mg"},{"bike_id":"5320cb85-e713-436f-9879-5ef50b431f55","system_id":"levelo_inurba_marseille","lat":43.29714,"lon":5.378564,"is_reserved":false,"is_disabled":false,"rental_uris":{"android":"levelo://app?vid=5320cb85-e713-436f-9879-5ef50b431f55","ios":"levelo://app?vid=5320cb85-e713-436f-9879-5ef50b431f55"},"vehicle_type_id":"4","last_reported":1768227348,"current_range_meters":7200,"station_id":"","pricing_plan_id":"cebpf4jnsgd1na2vs0mg"},{"bike_id":"af5669f3-2922-4011-8c2b-dbc246b81b04","system_id":"levelo_inurba_marseille","lat":43.22558,"lon":5.41638,"is_reserved":false,"is_disabled":false,"rental_uris":{"android":"levelo://app?vid=af5669f3-2922-4011-8c2b-dbc246b81b04","ios":"levelo://app?vid=af5669f3-2922-4011-8c2b-dbc246b81b04"},"vehicle_type_id":"4","last_reported":1768227348,"current_range_meters":7200,"station_id":"st_d2o4gvlbi1j2169b742g","pricing_plan_id":"cebpf4jnsgd1na2vs0mg"},{"bike_id":"09641fd2-9c57-49e2-bfa9-b03186f6f5e3","system_id":"levelo_inurba_marseille","lat":43.28421,"lon":5.34988,"is_reserved":false,"is_disabled":false,"rental_uris":{"android":"levelo://app?vid=09641fd2-9c57-49e2-bfa9-b03186f6f5e3","ios":"levelo://app?vid=09641fd2-9c57-49e2-bfa9-b03186f6f5e3"},"vehicle_type_id":"4","last_reported":1768227348,"current_range_meters":7200,"station_id":"ce4bhbh2rcd13ifvqepg","pricing_plan_id":"cebpf4jnsgd1na2vs0mg"},{"bike_id":"2ba6848f-6e29-419a-a82a-5300f6b313ef","system_id":"levelo_inurba_marseille","lat":43.33153,"lon":5.37695,"is_reserved":false,"is_disabled":false,"rental_uris":{"android":"levelo://app?vid=2ba6848f-6e29-419a-a82a-5300f6b313ef","ios":"levelo://app?vid=2ba6848f-6e29-419a-a82a-5300f6b313ef"},"vehicle_type_id":"4","last_reported":1768227348,"current_range_meters":7200,"station_id":"st_d46cu089ee8s73dldbu0","pricing_plan_id":"cebpf4jnsgd1na2vs0mg"},{"bike_id":"8eb88ae7-6e57-4251-b99a-68efe62a37a7","system_id":"levelo_inurba_marseille","lat":43.309754,"lon":5.390527,"is_reserved":false,"is_disabled":false,"rental_uris":{"android":"levelo://app?vid=8eb88ae7-6e57-4251-b99a-68efe62a37a7","ios":"levelo://app?vid=8eb88ae7-6e57-4251-b99a-68efe62a37a7"},"vehicle_type_id":"4","last_reported":1768227348,"current_range_meters":7200,"station_id":"ce4bgup2rcd13ifvqco0","pricing_plan_id":"cebpf4jnsgd1na2vs0mg"},{"bike_id":"11af0c92-c06a-443e-9535-f40b72ae3dc7","system_id":"levelo_inurba_marseille","lat":43.28921,"lon":5.36389,"is_reserved":false,"is_disabled":true,"rental_uris":{"android":"levelo://app?vid=11af0c92-c06a-443e-9535-f40b72ae3dc7","ios":"levelo://app?vid=11af0c92-c06a-443e-9535-f40b72ae3dc7"},"vehicle_type_id":"4","last_reported":1768227348,"current_range_meters":7200,"station_id":"ce4bhc92rcd13ifvqetg","pricing_plan_id":"cebpf4jnsgd1na2vs0mg"},{"bike_id":"2d4a6806-c79d-459e-9e20-55eaaf0ce71e","system_id":"levelo_inurba_marseille","lat":43.27209,"lon":5.39194,"is_reserved":false,"is_disabled":false,"rental_uris":{"android":"levelo://app?vid=2d4a6806-c79d-459e-9e20-55eaaf0ce71e","ios":"levelo://app?vid=2d4a6806-c79d-459e-9e20-55eaaf0ce71e"},"vehicle_type_id":"4","last_reported":1768227348,"current_range_meters":7200,"station_id":"ce4bhhp2rcd13ifvqfm0","pricing_plan_id":"cebpf4jnsgd1na2vs0mg"},{"bike_id":"f75ed7de-6c2c-4836-8ef1-40173c9c6664","system_id":"levelo_inurba_marseille","lat":43.28625,"lon":5.35094,"is_reserved":false,"is_disabled":false,"rental_uris":{"android":"levelo://app?vid=f75ed7de-6c2c-4836-8ef1-40173c9c6664","ios":"levelo://app?vid=f75ed7de-6c2c-4836-8ef1-40173c9c6664"},"vehicle_type_id":"4","last_reported":1768227348,"current_range_meters":7200,"station_id":"ce4bhch2rcd13ifvqeug","pricing_plan_id":"cebpf4jnsgd1na2vs0mg"},{"bike_id":"43846e39-d512-471f-8683-3a740375e832","system_id":"levelo_inurba_marseille","lat":43.23959,"lon":5.36614,"is_reserved":false,"is_disabled":false,"rental_uris":{"android":"levelo://app?vid=43846e39-d512-471f-8683-3a740375e832","ios":"levelo://app?vid=43846e39-d512-471f-8683-3a740375e832"},"vehicle_type_id":"4","last_reported":1768227348,"current_range_meters":7200,"station_id":"ce4bhi12rcd13ifvqfp0","pricing_plan_id":"cebpf4jnsgd1na2vs0mg"},{"bike_id":"77594950-26d6-4043-a02a-b4fa6c431c28","system_id":"levelo_inurba_marseille","lat":43.3236,"lon":5.3674,"is_reserved":false,"is_disabled":false,"rental_uris":{"android":"levelo://app?vid=77594950-26d6-4043-a02a-b4fa6c431c28","ios":"levelo://app?vid=77594950-26d6-4043-a02a-b4fa6c431c28"},"vehicle_type_id":"4","last_reported":1768227348,"current_range_meters":7200,"station_id":"ce4bhsh2rcd13ifvqi2g","pricing_plan_id":"cebpf4jnsgd1na2vs0mg"},{"bike_id":"896e80f8-41a7-4291-8c2b-68ecc0866598","system_id":"levelo_inurba_marseille","lat":43.33138,"lon":5.3768,"is_reserved":false,"is_disabled":false,"rental_uris":{"android":"levelo://app?vid=896e80f8-41a7-4291-8c2b-68ecc0866598","ios":"levelo://app?vid=896e80f8-41a7-4291-8c2b-68ecc0866598"},"vehicle_type_id":"4","last_reported":1768227348,"current_range_meters":7200,"station_id":"st_d46cu089ee8s73dldbu0","pricing_plan_id":"cebpf4jnsgd1na2vs0mg"},{"bike_id":"91cd9020-7258-406c-a114-b067e1ae430e","system_id":"levelo_inurba_marseille","lat":43.31069,"lon":5.38351,"is_reserved":false,"is_disabled":false,"rental_uris":{"android":"levelo://app?vid=91cd9020-7258-406c-a114-b067e1ae430e","ios":"levelo://app?vid=91cd9020-7258-406c-a114-b067e1ae430e"},"vehicle_type_id":"4","last_reported":1768227348,"current_range_meters":7200,"station_id":"ce4bgv92rcd13ifvqcr0","pricing_plan_id":"cebpf4jnsgd1na2vs0mg"},{"bike_id":"0620df11-f12e-45ac-8b58-c6754705cf0e","system_id":"levelo_inurba_marseille","lat":43.323569,"lon":5.367491,"is_reserved":false,"is_disabled":false,"rental_uris":{"android":"levelo://app?vid=0620df11-f12e-45ac-8b58-c6754705cf0e","ios":"levelo://app?vid=0620df11-f12e-45ac-8b58-c6754705cf0e"},"vehicle_type_id":"4","last_reported":1768227348,"current_range_meters":7200,"station_id":"ce4bhsh2rcd13ifvqi2g","pricing_plan_id":"cebpf4jnsgd1na2vs0mg"},{"bike_id":"e3c158e9-3911-44c1-a8cf-1dfda367c0fe","system_id":"levelo_inurba_marseille","lat":43.28935,"lon":5.36633,"is_reserved":false,"is_disabled":false,"rental_uris":{"android":"levelo://app?vid=e3c158e9-3911-44c1-a8cf-1dfda367c0fe","ios":"levelo://app?vid=e3c158e9-3911-44c1-a8cf-1dfda367c0fe"},"vehicle_type_id":"4","last_reported":1768227348,"current_range_meters":7200,"station_id":"ce4bhap2rcd13ifvqek0","pricing_plan_id":"cebpf4jnsgd1na2vs0mg"},{"bike_id":"7162ddae-545f-42e2-a417-160b6a4f0f38","system_id":"levelo_inurba_marseille","lat":43.28167,"lon":5.42617,"is_reserved":false,"is_disabled":false,"rental_uris":{"android":"levelo://app?vid=7162ddae-545f-42e2-a417-160b6a4f0f38","ios":"levelo://app?vid=7162ddae-545f-42e2-a417-160b6a4f0f38"},"vehicle_type_id":"4","last_reported":1768227348,"current_range_meters":7200,"station_id":"ce4bhnh2rcd13ifvqgug","pricing_plan_id":"cebpf4jnsgd1na2vs0mg"},{"bike_id":"f5124e28-c467-4d76-882d-c4595c4f08f1","system_id":"levelo_inurba_marseille","lat":43.29896,"lon":5.43665,"is_reserved":false,"is_disabled":false,"rental_uris":{"android":"levelo://app?vid=f5124e28-c467-4d76-882d-c4595c4f08f1","ios":"levelo://app?vid=f5124e28-c467-4d76-882d-c4595c4f08f1"},"vehicle_type_id":"4","last_reported":1768227348,"current_range_meters":7200,"station_id":"ce4bhpp2rcd13ifvqhfg","pricing_plan_id":"cebpf4jnsgd1na2vs0mg"},{"bike_id":"18a790e3-67d4-451b-a4aa-9465f4aa5355","system_id":"levelo_inurba_marseille","lat":43.30416,"lon":5.3973,"is_reserved":false,"is_disabled":true,"rental_uris":{"android":"levelo://app?vid=18a790e3-67d4-451b-a4aa-9465f4aa5355","ios":"levelo://app?vid=18a790e3-67d4-451b-a4aa-9465f4aa5355"},"vehicle_type_id":"4","last_reported":1768227348,"current_range_meters":7200,"station_id":"ce4bh092rcd13ifvqd20","pricing_plan_id":"cebpf4jnsgd1na2vs0mg"},{"bike_id":"f5363abc-d9a9-4de1-82d1-e9b4b42eb678","system_id":"levelo_inurba_marseille","lat":43.2319,"lon":5.35555,"is_reserved":false,"is_disabled":false,"rental_uris":{"android":"levelo://app?vid=f5363abc-d9a9-4de1-82d1-e9b4b42eb678","ios":"levelo://app?vid=f5363abc-d9a9-4de1-82d1-e9b4b42eb678"},"vehicle_type_id":"4","last_reported":1768227348,"current_range_meters":7200,"station_id":"ce4bhu92rcd13ifvqi70","pricing_plan_id":"cebpf4jnsgd1na2vs0mg"},{"bike_id":"62bbe6d6-5621-46c1-97b8-3e71687c301f","system_id":"levelo_inurba_marseille","lat":43.30014,"lon":5.37348,"is_reserved":false,"is_disabled":false,"rental_uris":{"android":"levelo://app?vid=62bbe6d6-5621-46c1-97b8-3e71687c301f","ios":"levelo://app?vid=62bbe6d6-5621-46c1-97b8-3e71687c301f"},"vehicle_type_id":"4","last_reported":1768227348,"current_range_meters":7200,"station_id":"","pricing_plan_id":"cebpf4jnsgd1na2vs0mg"},{"bike_id":"e35c9136-f237-423f-b0f2-de97de65ec0d","system_id":"levelo_inurba_marseille","lat":43.22566,"lon":5.41609,"is_reserved":false,"is_disabled":true,"rental_uris":{"android":"levelo://app?vid=e35c9136-f237-423f-b0f2-de97de65ec0d","ios":"levelo://app?vid=e35c9136-f237-423f-b0f2-de97de65ec0d"},"vehicle_type_id":"4","last_reported":1768227348,"current_range_meters":7200,"station_id":"st_d2o4gvlbi1j2169b742g","pricing_plan_id":"cebpf4jnsgd1na2vs0mg"},{"bike_id":"e8267cd6-5f5b-4af1-b219-15c536600aa5","system_id":"levelo_inurba_marseille","lat":43.26554,"lon":5.37287,"is_reserved":false,"is_disabled":false,"rental_uris":{"android":"levelo://app?vid=e8267cd6-5f5b-4af1-b219-15c536600aa5","ios":"levelo://app?vid=e8267cd6-5f5b-4af1-b219-15c536600aa5"},"vehicle_type_id":"4","last_reported":1768227348,"current_range_meters":8000,"station_id":"ce4bhg12rcd13ifvqf70","pricing_plan_id":"cebpf4jnsgd1na2vs0mg"},{"bike_id":"bba85f89-d77b-457b-8f4b-4bdcaf95f0a2","system_id":"levelo_inurba_marseille","lat":43.3238,"lon":5.36742,"is_reserved":false,"is_disabled":false,"rental_uris":{"android":"levelo://app?vid=bba85f89-d77b-457b-8f4b-4bdcaf95f0a2","ios":"levelo://app?vid=bba85f89-d77b-457b-8f4b-4bdcaf95f0a2"},"vehicle_type_id":"4","last_reported":1768227348,"current_range_meters":8000,"station_id":"ce4bhsh2rcd13ifvqi2g","pricing_plan_id":"cebpf4jnsgd1na2vs0mg"},{"bike_id":"2402d3c5-b20a-4093-b1b6-b4dc5b6c527e","system_id":"levelo_inurba_marseille","lat":43.29071,"lon":5.37165,"is_reserved":false,"is_disabled":false,"rental_uris":{"android":"levelo://app?vid=2402d3c5-b20a-4093-b1b6-b4dc5b6c527e","ios":"levelo://app?vid=2402d3c5-b20a-4093-b1b6-b4dc5b6c527e"},"vehicle_type_id":"4","last_reported":1768227348,"current_range_meters":8000,"station_id":"ce4bh5p2rcd13ifvqe4g","pricing_plan_id":"cebpf4jnsgd1na2vs0mg"},{"bike_id":"92f1b25a-9244-4fe0-822d-53990af79731","system_id":"levelo_inurba_marseille","lat":43.2509,"lon":5.39506,"is_reserved":false,"is_disabled":false,"rental_uris":{"android":"levelo://app?vid=92f1b25a-9244-4fe0-822d-53990af79731","ios":"levelo://app?vid=92f1b25a-9244-4fe0-822d-53990af79731"},"vehicle_type_id":"4","last_reported":1768227348,"current_range_meters":8000,"station_id":"ce4bhm12rcd13ifvqgkg","pricing_plan_id":"cebpf4jnsgd1na2vs0mg"},{"bike_id":"6a30a85f-77e1-4465-a45e-0668dd9abc34","system_id":"levelo_inurba_marseille","lat":43.2447,"lon":5.42537,"is_reserved":false,"is_disabled":false,"rental_uris":{"android":"levelo://app?vid=6a30a85f-77e1-4465-a45e-0668dd9abc34","ios":"levelo://app?vid=6a30a85f-77e1-4465-a45e-0668dd9abc34"},"vehicle_type_id":"4","last_reported":1768227348,"current_range_meters":8000,"station_id":"st_d4a3vfp97mjs738cd8kg","pricing_plan_id":"cebpf4jnsgd1na2vs0mg"},{"bike_id":"d3dfa112-87af-4fa9-98a3-b770bcf4b460","system_id":"levelo_inurba_marseille","lat":43.26031,"lon":5.39376,"is_reserved":false,"is_disabled":false,"rental_uris":{"android":"levelo://app?vid=d3dfa112-87af-4fa9-98a3-b770bcf4b460","ios":"levelo://app?vid=d3dfa112-87af-4fa9-98a3-b770bcf4b460"},"vehicle_type_id":"4","last_reported":1768227348,"current_range_meters":8000,"station_id":"ce4bhh92rcd13ifvqfj0","pricing_plan_id":"cebpf4jnsgd1na2vs0mg"},{"bike_id":"74ad5475-095f-46a5-9199-3d2d20cb8ccc","system_id":"levelo_inurba_marseille","lat":43.26556,"lon":5.3733,"is_reserved":false,"is_disabled":false,"rental_uris":{"android":"levelo://app?vid=74ad5475-095f-46a5-9199-3d2d20cb8ccc","ios":"levelo://app?vid=74ad5475-095f-46a5-9199-3d2d20cb8ccc"},"vehicle_type_id":"4","last_reported":1768227348,"current_range_meters":8000,"station_id":"ce4bhg12rcd13ifvqf70","pricing_plan_id":"cebpf4jnsgd1na2vs0mg"},{"bike_id":"dd318c5a-f69e-477d-a72f-af46c0a68d04","system_id":"levelo_inurba_marseille","lat":43.282,"lon":5.40349,"is_reserved":false,"is_disabled":false,"rental_uris":{"android":"levelo://app?vid=dd318c5a-f69e-477d-a72f-af46c0a68d04","ios":"levelo://app?vid=dd318c5a-f69e-477d-a72f-af46c0a68d04"},"vehicle_type_id":"4","last_reported":1768227348,"current_range_meters":8000,"station_id":"","pricing_plan_id":"cebpf4jnsgd1na2vs0mg"},{"bike_id":"26361a8d-ad24-4b4a-afce-741428ed5e6d","system_id":"levelo_inurba_marseille","lat":43.24062,"lon":5.37734,"is_reserved":false,"is_disabled":false,"rental_uris":{"android":"levelo://app?vid=26361a8d-ad24-4b4a-afce-741428ed5e6d","ios":"levelo://app?vid=26361a8d-ad24-4b4a-afce-741428ed5e6d"},"vehicle_type_id":"4","last_reported":1768227348,"current_range_meters":8000,"station_id":"ce4bhnp2rcd13ifvqgvg","pricing_plan_id":"cebpf4jnsgd1na2vs0mg"},{"bike_id":"0c660d60-0595-405c-abcc-a70079f104cb","system_id":"levelo_inurba_marseille","lat":43.30818,"lon":5.38143,"is_reserved":false,"is_disabled":false,"rental_uris":{"android":"levelo://app?vid=0c660d60-0595-405c-abcc-a70079f104cb","ios":"levelo://app?vid=0c660d60-0595-405c-abcc-a70079f104cb"},"vehicle_type_id":"4","last_reported":1768227348,"current_range_meters":8000,"station_id":"ce4bgt12rcd13ifvqce0","pricing_plan_id":"cebpf4jnsgd1na2vs0mg"},{"bike_id":"12d57645-0841-45d8-9294-e38d7bb4ca77","system_id":"levelo_inurba_marseille","lat":43.28423,"lon":5.35012,"is_reserved":false,"is_disabled":false,"rental_uris":{"android":"levelo://app?vid=12d57645-0841-45d8-9294-e38d7bb4ca77","ios":"levelo://app?vid=12d57645-0841-45d8-9294-e38d7bb4ca77"},"vehicle_type_id":"4","last_reported":1768227348,"current_range_meters":8000,"station_id":"ce4bhbh2rcd13ifvqepg","pricing_plan_id":"cebpf4jnsgd1na2vs0mg"},{"bike_id":"68c8e350-b404-44d3-ac96-eff70f01d2d2","system_id":"levelo_inurba_marseille","lat":43.26389,"lon":5.41057,"is_reserved":false,"is_disabled":false,"rental_uris":{"android":"levelo://app?vid=68c8e350-b404-44d3-ac96-eff70f01d2d2","ios":"levelo://app?vid=68c8e350-b404-44d3-ac96-eff70f01d2d2"},"vehicle_type_id":"4","last_reported":1768227348,"current_range_meters":8000,"station_id":"st_d4e5ca6na9uc73bfl5fg","pricing_plan_id":"cebpf4jnsgd1na2vs0mg"},{"bike_id":"497cd64c-54a8-4320-9be8-e763160518b0","system_id":"levelo_inurba_marseille","lat":43.23192,"lon":5.35566,"is_reserved":false,"is_disabled":false,"rental_uris":{"android":"levelo://app?vid=497cd64c-54a8-4320-9be8-e763160518b0","ios":"levelo://app?vid=497cd64c-54a8-4320-9be8-e763160518b0"},"vehicle_type_id":"4","last_reported":1768227348,"current_range_meters":8000,"station_id":"ce4bhu92rcd13ifvqi70","pricing_plan_id":"cebpf4jnsgd1na2vs0mg"},{"bike_id":"5b4c5a9a-7ec1-466b-ad8a-c4021c7e77eb","system_id":"levelo_inurba_marseille","lat":43.3127,"lon":5.3683,"is_reserved":false,"is_disabled":false,"rental_uris":{"android":"levelo://app?vid=5b4c5a9a-7ec1-466b-ad8a-c4021c7e77eb","ios":"levelo://app?vid=5b4c5a9a-7ec1-466b-ad8a-c4021c7e77eb"},"vehicle_type_id":"4","last_reported":1768227348,"current_range_meters":8000,"station_id":"ce4bgl92rcd13ifvqbq0","pricing_plan_id":"cebpf4jnsgd1na2vs0mg"},{"bike_id":"2d384d68-f7f7-4819-995c-d1839008a799","system_id":"levelo_inurba_marseille","lat":43.23842,"lon":5.36651,"is_reserved":false,"is_disabled":false,"rental_uris":{"android":"levelo://app?vid=2d384d68-f7f7-4819-995c-d1839008a799","ios":"levelo://app?vid=2d384d68-f7f7-4819-995c-d1839008a799"},"vehicle_type_id":"4","last_reported":1768227348,"current_range_meters":8000,"station_id":"","pricing_plan_id":"cebpf4jnsgd1na2vs0mg"},{"bike_id":"221282a6-2216-4284-863a-a960ea01de63","system_id":"levelo_inurba_marseille","lat":43.25107,"lon":5.40322,"is_reserved":false,"is_disabled":false,"rental_uris":{"android":"levelo://app?vid=221282a6-2216-4284-863a-a960ea01de63","ios":"levelo://app?vid=221282a6-2216-4284-863a-a960ea01de63"},"vehicle_type_id":"4","last_reported":1768227348,"current_range_meters":8000,"station_id":"ce4bhlh2rcd13ifvqgig","pricing_plan_id":"cebpf4jnsgd1na2vs0mg"},{"bike_id":"950e32a8-ef25-49e6-8347-d58aa88f84a1","system_id":"levelo_inurba_marseille","lat":43.26944,"lon":5.40241,"is_reserved":false,"is_disabled":false,"rental_uris":{"android":"levelo://app?vid=950e32a8-ef25-49e6-8347-d58aa88f84a1","ios":"levelo://app?vid=950e32a8-ef25-49e6-8347-d58aa88f84a1"},"vehicle_type_id":"4","last_reported":1768227348,"current_range_meters":8000,"station_id":"cjm6bp8fraef2m0cb0m0","pricing_plan_id":"cebpf4jnsgd1na2vs0mg"},{"bike_id":"6fe7d9de-dee4-44f0-8901-753dc360de4c","system_id":"levelo_inurba_marseille","lat":43.32351,"lon":5.36719,"is_reserved":false,"is_disabled":false,"rental_uris":{"android":"levelo://app?vid=6fe7d9de-dee4-44f0-8901-753dc360de4c","ios":"levelo://app?vid=6fe7d9de-dee4-44f0-8901-753dc360de4c"},"vehicle_type_id":"4","last_reported":1768227348,"current_range_meters":8000,"station_id":"ce4bhsh2rcd13ifvqi2g","pricing_plan_id":"cebpf4jnsgd1na2vs0mg"},{"bike_id":"756a807d-a652-4964-9cf9-2263cf850be9","system_id":"levelo_inurba_marseille","lat":43.2795,"lon":5.41047,"is_reserved":false,"is_disabled":false,"rental_uris":{"android":"levelo://app?vid=756a807d-a652-4964-9cf9-2263cf850be9","ios":"levelo://app?vid=756a807d-a652-4964-9cf9-2263cf850be9"},"vehicle_type_id":"4","last_reported":1768227348,"current_range_meters":8000,"station_id":"ce4bhnp2rcd13ifvqh0g","pricing_plan_id":"cebpf4jnsgd1na2vs0mg"},{"bike_id":"c6ca6a62-320d-489f-b999-c2742ad5cad7","system_id":"levelo_inurba_marseille","lat":43.24073,"lon":5.37747,"is_reserved":false,"is_disabled":false,"rental_uris":{"android":"levelo://app?vid=c6ca6a62-320d-489f-b999-c2742ad5cad7","ios":"levelo://app?vid=c6ca6a62-320d-489f-b999-c2742ad5cad7"},"vehicle_type_id":"4","last_reported":1768227348,"current_range_meters":8400,"station_id":"ce4bhnp2rcd13ifvqgvg","pricing_plan_id":"cebpf4jnsgd1na2vs0mg"},{"bike_id":"3f791a4f-cd71-4f80-95b2-57cd6db19d1e","system_id":"levelo_inurba_marseille","lat":43.25935,"lon":5.40885,"is_reserved":false,"is_disabled":false,"rental_uris":{"android":"levelo://app?vid=3f791a4f-cd71-4f80-95b2-57cd6db19d1e","ios":"levelo://app?vid=3f791a4f-cd71-4f80-95b2-57cd6db19d1e"},"vehicle_type_id":"4","last_reported":1768227348,"current_range_meters":8400,"station_id":"ce4bhm92rcd13ifvqglg","pricing_plan_id":"cebpf4jnsgd1na2vs0mg"},{"bike_id":"df35ed26-495d-41c8-a8c1-3a14b9d9f7f9","system_id":"levelo_inurba_marseille","lat":43.28416,"lon":5.34984,"is_reserved":false,"is_disabled":false,"rental_uris":{"android":"levelo://app?vid=df35ed26-495d-41c8-a8c1-3a14b9d9f7f9","ios":"levelo://app?vid=df35ed26-495d-41c8-a8c1-3a14b9d9f7f9"},"vehicle_type_id":"4","last_reported":1768227348,"current_range_meters":8400,"station_id":"ce4bhbh2rcd13ifvqepg","pricing_plan_id":"cebpf4jnsgd1na2vs0mg"},{"bike_id":"e88dc2b8-16b0-46e6-a4e1-b09322f34b27","system_id":"levelo_inurba_marseille","lat":43.32506,"lon":5.36446,"is_reserved":false,"is_disabled":false,"rental_uris":{"android":"levelo://app?vid=e88dc2b8-16b0-46e6-a4e1-b09322f34b27","ios":"levelo://app?vid=e88dc2b8-16b0-46e6-a4e1-b09322f34b27"},"vehicle_type_id":"4","last_reported":1768227348,"current_range_meters":8400,"station_id":"","pricing_plan_id":"cebpf4jnsgd1na2vs0mg"},{"bike_id":"03e3fb13-d7a5-4cfe-a7ac-6b1f6be18ae0","system_id":"levelo_inurba_marseille","lat":43.31875,"lon":5.39998,"is_reserved":false,"is_disabled":false,"rental_uris":{"android":"levelo://app?vid=03e3fb13-d7a5-4cfe-a7ac-6b1f6be18ae0","ios":"levelo://app?vid=03e3fb13-d7a5-4cfe-a7ac-6b1f6be18ae0"},"vehicle_type_id":"4","last_reported":1768227348,"current_range_meters":8400,"station_id":"","pricing_plan_id":"cebpf4jnsgd1na2vs0mg"},{"bike_id":"6ccd0a7c-d978-4f54-a5a6-91c24f724d22","system_id":"levelo_inurba_marseille","lat":43.2828,"lon":5.35081,"is_reserved":false,"is_disabled":false,"rental_uris":{"android":"levelo://app?vid=6ccd0a7c-d978-4f54-a5a6-91c24f724d22","ios":"levelo://app?vid=6ccd0a7c-d978-4f54-a5a6-91c24f724d22"},"vehicle_type_id":"4","last_reported":1768227348,"current_range_meters":8400,"station_id":"ce4bhbp2rcd13ifvqerg","pricing_plan_id":"cebpf4jnsgd1na2vs0mg"},{"bike_id":"0b5ae2c9-ef05-4cf7-8260-1762ae5d6eb8","system_id":"levelo_inurba_marseille","lat":43.26938,"lon":5.4025,"is_reserved":false,"is_disabled":false,"rental_uris":{"android":"levelo://app?vid=0b5ae2c9-ef05-4cf7-8260-1762ae5d6eb8","ios":"levelo://app?vid=0b5ae2c9-ef05-4cf7-8260-1762ae5d6eb8"},"vehicle_type_id":"4","last_reported":1768227348,"current_range_meters":8400,"station_id":"cjm6bp8fraef2m0cb0m0","pricing_plan_id":"cebpf4jnsgd1na2vs0mg"},{"bike_id":"f602578d-c1b4-416f-8234-08d67640a0d1","system_id":"levelo_inurba_marseille","lat":43.24069,"lon":5.37761,"is_reserved":false,"is_disabled":false,"rental_uris":{"android":"levelo://app?vid=f602578d-c1b4-416f-8234-08d67640a0d1","ios":"levelo://app?vid=f602578d-c1b4-416f-8234-08d67640a0d1"},"vehicle_type_id":"4","last_reported":1768227348,"current_range_meters":8400,"station_id":"ce4bhnp2rcd13ifvqgvg","pricing_plan_id":"cebpf4jnsgd1na2vs0mg"},{"bike_id":"3ad02890-c33d-4360-be6d-058cb010065e","system_id":"levelo_inurba_marseille","lat":43.328989,"lon":5.389513,"is_reserved":false,"is_disabled":false,"rental_uris":{"android":"levelo://app?vid=3ad02890-c33d-4360-be6d-058cb010065e","ios":"levelo://app?vid=3ad02890-c33d-4360-be6d-058cb010065e"},"vehicle_type_id":"4","last_reported":1768227348,"current_range_meters":8400,"station_id":"","pricing_plan_id":"cebpf4jnsgd1na2vs0mg"},{"bike_id":"bda3e34b-cd73-4ed0-916a-acca04720cbe","system_id":"levelo_inurba_marseille","lat":43.26199,"lon":5.37918,"is_reserved":false,"is_disabled":true,"rental_uris":{"android":"levelo://app?vid=bda3e34b-cd73-4ed0-916a-acca04720cbe","ios":"levelo://app?vid=bda3e34b-cd73-4ed0-916a-acca04720cbe"},"vehicle_type_id":"4","last_reported":1768227348,"current_range_meters":8400,"station_id":"ce4bhjp2rcd13ifvqg90","pricing_plan_id":"cebpf4jnsgd1na2vs0mg"},{"bike_id":"9a751077-78e8-49b3-8944-6a638d6bed5e","system_id":"levelo_inurba_marseille","lat":43.29958,"lon":5.37347,"is_reserved":false,"is_disabled":false,"rental_uris":{"android":"levelo://app?vid=9a751077-78e8-49b3-8944-6a638d6bed5e","ios":"levelo://app?vid=9a751077-78e8-49b3-8944-6a638d6bed5e"},"vehicle_type_id":"4","last_reported":1768227348,"current_range_meters":8400,"station_id":"","pricing_plan_id":"cebpf4jnsgd1na2vs0mg"},{"bike_id":"ae868ec9-5710-45cc-a2d4-a472e9a20155","system_id":"levelo_inurba_marseille","lat":43.31275,"lon":5.36855,"is_reserved":false,"is_disabled":false,"rental_uris":{"android":"levelo://app?vid=ae868ec9-5710-45cc-a2d4-a472e9a20155","ios":"levelo://app?vid=ae868ec9-5710-45cc-a2d4-a472e9a20155"},"vehicle_type_id":"4","last_reported":1768227348,"current_range_meters":8400,"station_id":"","pricing_plan_id":"cebpf4jnsgd1na2vs0mg"},{"bike_id":"a8af2bc0-5857-4556-ad79-aa550dbde1f6","system_id":"levelo_inurba_marseille","lat":43.31367,"lon":5.36709,"is_reserved":false,"is_disabled":false,"rental_uris":{"android":"levelo://app?vid=a8af2bc0-5857-4556-ad79-aa550dbde1f6","ios":"levelo://app?vid=a8af2bc0-5857-4556-ad79-aa550dbde1f6"},"vehicle_type_id":"4","last_reported":1768227348,"current_range_meters":8400,"station_id":"ce4bgr92rcd13ifvqc6g","pricing_plan_id":"cebpf4jnsgd1na2vs0mg"},{"bike_id":"0119295c-b299-471d-bbba-e0cc01d0aa8d","system_id":"levelo_inurba_marseille","lat":43.29251,"lon":5.40234,"is_reserved":false,"is_disabled":false,"rental_uris":{"android":"levelo://app?vid=0119295c-b299-471d-bbba-e0cc01d0aa8d","ios":"levelo://app?vid=0119295c-b299-471d-bbba-e0cc01d0aa8d"},"vehicle_type_id":"4","last_reported":1768227348,"current_range_meters":8400,"station_id":"ce4bh312rcd13ifvqdk0","pricing_plan_id":"cebpf4jnsgd1na2vs0mg"},{"bike_id":"feb29159-4198-4b36-8679-2763c96f4194","system_id":"levelo_inurba_marseille","lat":43.260685,"lon":5.393893,"is_reserved":false,"is_disabled":false,"rental_uris":{"android":"levelo://app?vid=feb29159-4198-4b36-8679-2763c96f4194","ios":"levelo://app?vid=feb29159-4198-4b36-8679-2763c96f4194"},"vehicle_type_id":"4","last_reported":1768227348,"current_range_meters":8400,"station_id":"ce4bhh92rcd13ifvqfj0","pricing_plan_id":"cebpf4jnsgd1na2vs0mg"},{"bike_id":"5301c30f-c70c-4077-a90d-3c1f831d11bb","system_id":"levelo_inurba_marseille","lat":43.304344,"lon":5.38897,"is_reserved":false,"is_disabled":true,"rental_uris":{"android":"levelo://app?vid=5301c30f-c70c-4077-a90d-3c1f831d11bb","ios":"levelo://app?vid=5301c30f-c70c-4077-a90d-3c1f831d11bb"},"vehicle_type_id":"4","last_reported":1768227348,"current_range_meters":8400,"station_id":"ce4bgk12rcd13ifvqbi0","pricing_plan_id":"cebpf4jnsgd1na2vs0mg"},{"bike_id":"f3ab0268-17f8-48ca-905a-1726d768323c","system_id":"levelo_inurba_marseille","lat":43.33157,"lon":5.37695,"is_reserved":false,"is_disabled":false,"rental_uris":{"android":"levelo://app?vid=f3ab0268-17f8-48ca-905a-1726d768323c","ios":"levelo://app?vid=f3ab0268-17f8-48ca-905a-1726d768323c"},"vehicle_type_id":"4","last_reported":1768227348,"current_range_meters":8400,"station_id":"st_d46cu089ee8s73dldbu0","pricing_plan_id":"cebpf4jnsgd1na2vs0mg"},{"bike_id":"b5ad4e8b-9197-4522-92c3-604273331829","system_id":"levelo_inurba_marseille","lat":43.323591,"lon":5.367445,"is_reserved":false,"is_disabled":false,"rental_uris":{"android":"levelo://app?vid=b5ad4e8b-9197-4522-92c3-604273331829","ios":"levelo://app?vid=b5ad4e8b-9197-4522-92c3-604273331829"},"vehicle_type_id":"4","last_reported":1768227348,"current_range_meters":8400,"station_id":"ce4bhsh2rcd13ifvqi2g","pricing_plan_id":"cebpf4jnsgd1na2vs0mg"},{"bike_id":"24014062-b4a7-4858-b750-d2944e87677d","system_id":"levelo_inurba_marseille","lat":43.25924,"lon":5.40893,"is_reserved":false,"is_disabled":false,"rental_uris":{"android":"levelo://app?vid=24014062-b4a7-4858-b750-d2944e87677d","ios":"levelo://app?vid=24014062-b4a7-4858-b750-d2944e87677d"},"vehicle_type_id":"4","last_reported":1768227348,"current_range_meters":8400,"station_id":"ce4bhm92rcd13ifvqglg","pricing_plan_id":"cebpf4jnsgd1na2vs0mg"},{"bike_id":"134f1d6e-db49-425a-88b8-4335be29a6c2","system_id":"levelo_inurba_marseille","lat":43.24478,"lon":5.42545,"is_reserved":false,"is_disabled":false,"rental_uris":{"android":"levelo://app?vid=134f1d6e-db49-425a-88b8-4335be29a6c2","ios":"levelo://app?vid=134f1d6e-db49-425a-88b8-4335be29a6c2"},"vehicle_type_id":"4","last_reported":1768227348,"current_range_meters":8400,"station_id":"st_d4a3vfp97mjs738cd8kg","pricing_plan_id":"cebpf4jnsgd1na2vs0mg"},{"bike_id":"27906710-6f31-45c7-ac45-36660cf766b7","system_id":"levelo_inurba_marseille","lat":43.27958,"lon":5.3875,"is_reserved":false,"is_disabled":false,"rental_uris":{"android":"levelo://app?vid=27906710-6f31-45c7-ac45-36660cf766b7","ios":"levelo://app?vid=27906710-6f31-45c7-ac45-36660cf766b7"},"vehicle_type_id":"4","last_reported":1768227348,"current_range_meters":8400,"station_id":"ce4bhg12rcd13ifvqf80","pricing_plan_id":"cebpf4jnsgd1na2vs0mg"},{"bike_id":"71ea8545-9c98-4df0-9497-b31fe8e4483d","system_id":"levelo_inurba_marseille","lat":43.29284,"lon":5.37342,"is_reserved":false,"is_disabled":false,"rental_uris":{"android":"levelo://app?vid=71ea8545-9c98-4df0-9497-b31fe8e4483d","ios":"levelo://app?vid=71ea8545-9c98-4df0-9497-b31fe8e4483d"},"vehicle_type_id":"4","last_reported":1768227348,"current_range_meters":8400,"station_id":"","pricing_plan_id":"cebpf4jnsgd1na2vs0mg"},{"bike_id":"aabb3d52-bd00-4fec-8d2f-b298f4afbeaf","system_id":"levelo_inurba_marseille","lat":43.283448,"lon":5.38102,"is_reserved":false,"is_disabled":false,"rental_uris":{"android":"levelo://app?vid=aabb3d52-bd00-4fec-8d2f-b298f4afbeaf","ios":"levelo://app?vid=aabb3d52-bd00-4fec-8d2f-b298f4afbeaf"},"vehicle_type_id":"4","last_reported":1768227348,"current_range_meters":8400,"station_id":"ce4bh412rcd13ifvqdr0","pricing_plan_id":"cebpf4jnsgd1na2vs0mg"},{"bike_id":"7024df19-8d56-4af5-a149-b1dceaf85a84","system_id":"levelo_inurba_marseille","lat":43.26044,"lon":5.39401,"is_reserved":false,"is_disabled":false,"rental_uris":{"android":"levelo://app?vid=7024df19-8d56-4af5-a149-b1dceaf85a84","ios":"levelo://app?vid=7024df19-8d56-4af5-a149-b1dceaf85a84"},"vehicle_type_id":"4","last_reported":1768227348,"current_range_meters":8400,"station_id":"ce4bhh92rcd13ifvqfj0","pricing_plan_id":"cebpf4jnsgd1na2vs0mg"},{"bike_id":"4ebab746-a710-42ea-88e7-cadfdf777e8c","system_id":"levelo_inurba_marseille","lat":43.30649,"lon":5.40501,"is_reserved":false,"is_disabled":false,"rental_uris":{"android":"levelo://app?vid=4ebab746-a710-42ea-88e7-cadfdf777e8c","ios":"levelo://app?vid=4ebab746-a710-42ea-88e7-cadfdf777e8c"},"vehicle_type_id":"4","last_reported":1768227348,"current_range_meters":8400,"station_id":"ce4bh112rcd13ifvqda0","pricing_plan_id":"cebpf4jnsgd1na2vs0mg"},{"bike_id":"8cc58e78-2609-40ef-8d5d-f294a62a1432","system_id":"levelo_inurba_marseille","lat":43.2417,"lon":5.36401,"is_reserved":false,"is_disabled":false,"rental_uris":{"android":"levelo://app?vid=8cc58e78-2609-40ef-8d5d-f294a62a1432","ios":"levelo://app?vid=8cc58e78-2609-40ef-8d5d-f294a62a1432"},"vehicle_type_id":"4","last_reported":1768227348,"current_range_meters":8400,"station_id":"cpo36qri1sfpv3e86is0","pricing_plan_id":"cebpf4jnsgd1na2vs0mg"},{"bike_id":"12063ace-3cb9-4f6a-93dc-4b9ae8ca0f50","system_id":"levelo_inurba_marseille","lat":43.29222,"lon":5.36074,"is_reserved":false,"is_disabled":false,"rental_uris":{"android":"levelo://app?vid=12063ace-3cb9-4f6a-93dc-4b9ae8ca0f50","ios":"levelo://app?vid=12063ace-3cb9-4f6a-93dc-4b9ae8ca0f50"},"vehicle_type_id":"4","last_reported":1768227348,"current_range_meters":8400,"station_id":"ce4bhbh2rcd13ifvqeqg","pricing_plan_id":"cebpf4jnsgd1na2vs0mg"},{"bike_id":"afe6b74d-4c00-46fb-8159-e92d20ac6882","system_id":"levelo_inurba_marseille","lat":43.31307,"lon":5.38455,"is_reserved":false,"is_disabled":false,"rental_uris":{"android":"levelo://app?vid=afe6b74d-4c00-46fb-8159-e92d20ac6882","ios":"levelo://app?vid=afe6b74d-4c00-46fb-8159-e92d20ac6882"},"vehicle_type_id":"4","last_reported":1768227348,"current_range_meters":8800,"station_id":"","pricing_plan_id":"cebpf4jnsgd1na2vs0mg"},{"bike_id":"b65e184a-cee9-4a4f-aab5-6cfc354b8820","system_id":"levelo_inurba_marseille","lat":43.337525,"lon":5.374536,"is_reserved":false,"is_disabled":false,"rental_uris":{"android":"levelo://app?vid=b65e184a-cee9-4a4f-aab5-6cfc354b8820","ios":"levelo://app?vid=b65e184a-cee9-4a4f-aab5-6cfc354b8820"},"vehicle_type_id":"4","last_reported":1768227348,"current_range_meters":8800,"station_id":"","pricing_plan_id":"cebpf4jnsgd1na2vs0mg"},{"bike_id":"1a2b7a5b-5143-4890-a858-6f0385ebe13d","system_id":"levelo_inurba_marseille","lat":43.30237,"lon":5.39989,"is_reserved":false,"is_disabled":false,"rental_uris":{"android":"levelo://app?vid=1a2b7a5b-5143-4890-a858-6f0385ebe13d","ios":"levelo://app?vid=1a2b7a5b-5143-4890-a858-6f0385ebe13d"},"vehicle_type_id":"4","last_reported":1768227348,"current_range_meters":8800,"station_id":"","pricing_plan_id":"cebpf4jnsgd1na2vs0mg"},{"bike_id":"60fade31-777d-4fe8-8ebd-1c7b280b80b4","system_id":"levelo_inurba_marseille","lat":43.2352,"lon":5.35951,"is_reserved":false,"is_disabled":false,"rental_uris":{"android":"levelo://app?vid=60fade31-777d-4fe8-8ebd-1c7b280b80b4","ios":"levelo://app?vid=60fade31-777d-4fe8-8ebd-1c7b280b80b4"},"vehicle_type_id":"4","last_reported":1768227348,"current_range_meters":8800,"station_id":"","pricing_plan_id":"cebpf4jnsgd1na2vs0mg"},{"bike_id":"14633c52-4aad-4666-b2b6-e506aee2f3bc","system_id":"levelo_inurba_marseille","lat":43.25507,"lon":5.37663,"is_reserved":false,"is_disabled":false,"rental_uris":{"android":"levelo://app?vid=14633c52-4aad-4666-b2b6-e506aee2f3bc","ios":"levelo://app?vid=14633c52-4aad-4666-b2b6-e506aee2f3bc"},"vehicle_type_id":"4","last_reported":1768227348,"current_range_meters":8800,"station_id":"ce4bhh12rcd13ifvqff0","pricing_plan_id":"cebpf4jnsgd1na2vs0mg"},{"bike_id":"3462251d-b955-4217-b84c-62132c2aa1ec","system_id":"levelo_inurba_marseille","lat":43.2417,"lon":5.36398,"is_reserved":false,"is_disabled":false,"rental_uris":{"android":"levelo://app?vid=3462251d-b955-4217-b84c-62132c2aa1ec","ios":"levelo://app?vid=3462251d-b955-4217-b84c-62132c2aa1ec"},"vehicle_type_id":"4","last_reported":1768227348,"current_range_meters":8800,"station_id":"cpo36qri1sfpv3e86is0","pricing_plan_id":"cebpf4jnsgd1na2vs0mg"},{"bike_id":"8ffc6a6a-c605-47a5-9b48-e04d1754c86e","system_id":"levelo_inurba_marseille","lat":43.28071,"lon":5.40705,"is_reserved":false,"is_disabled":false,"rental_uris":{"android":"levelo://app?vid=8ffc6a6a-c605-47a5-9b48-e04d1754c86e","ios":"levelo://app?vid=8ffc6a6a-c605-47a5-9b48-e04d1754c86e"},"vehicle_type_id":"4","last_reported":1768227348,"current_range_meters":8800,"station_id":"","pricing_plan_id":"cebpf4jnsgd1na2vs0mg"},{"bike_id":"8283b3b6-ab9d-4995-83ec-916692eab7d5","system_id":"levelo_inurba_marseille","lat":43.27945,"lon":5.41031,"is_reserved":false,"is_disabled":false,"rental_uris":{"android":"levelo://app?vid=8283b3b6-ab9d-4995-83ec-916692eab7d5","ios":"levelo://app?vid=8283b3b6-ab9d-4995-83ec-916692eab7d5"},"vehicle_type_id":"4","last_reported":1768227348,"current_range_meters":8800,"station_id":"","pricing_plan_id":"cebpf4jnsgd1na2vs0mg"},{"bike_id":"8bbcb2ce-191c-41cc-b692-3ebf2a7f487f","system_id":"levelo_inurba_marseille","lat":43.26558,"lon":5.37284,"is_reserved":false,"is_disabled":false,"rental_uris":{"android":"levelo://app?vid=8bbcb2ce-191c-41cc-b692-3ebf2a7f487f","ios":"levelo://app?vid=8bbcb2ce-191c-41cc-b692-3ebf2a7f487f"},"vehicle_type_id":"4","last_reported":1768227348,"current_range_meters":8800,"station_id":"ce4bhg12rcd13ifvqf70","pricing_plan_id":"cebpf4jnsgd1na2vs0mg"},{"bike_id":"2139ad5f-0723-4b02-823f-3772dded945d","system_id":"levelo_inurba_marseille","lat":43.29932,"lon":5.36535,"is_reserved":false,"is_disabled":false,"rental_uris":{"android":"levelo://app?vid=2139ad5f-0723-4b02-823f-3772dded945d","ios":"levelo://app?vid=2139ad5f-0723-4b02-823f-3772dded945d"},"vehicle_type_id":"4","last_reported":1768227348,"current_range_meters":8800,"station_id":"ce4bgm92rcd13ifvqbr0","pricing_plan_id":"cebpf4jnsgd1na2vs0mg"},{"bike_id":"d9aa6db2-583e-49bd-87ec-f383ad3c7318","system_id":"levelo_inurba_marseille","lat":43.25567,"lon":5.38229,"is_reserved":false,"is_disabled":false,"rental_uris":{"android":"levelo://app?vid=d9aa6db2-583e-49bd-87ec-f383ad3c7318","ios":"levelo://app?vid=d9aa6db2-583e-49bd-87ec-f383ad3c7318"},"vehicle_type_id":"4","last_reported":1768227348,"current_range_meters":8800,"station_id":"ce4bhih2rcd13ifvqfs0","pricing_plan_id":"cebpf4jnsgd1na2vs0mg"},{"bike_id":"3fb59b37-5539-4129-81aa-6e5d75588597","system_id":"levelo_inurba_marseille","lat":43.250897,"lon":5.395231,"is_reserved":false,"is_disabled":false,"rental_uris":{"android":"levelo://app?vid=3fb59b37-5539-4129-81aa-6e5d75588597","ios":"levelo://app?vid=3fb59b37-5539-4129-81aa-6e5d75588597"},"vehicle_type_id":"4","last_reported":1768227348,"current_range_meters":8800,"station_id":"","pricing_plan_id":"cebpf4jnsgd1na2vs0mg"},{"bike_id":"22191022-1cde-4cff-a531-a8cefbf9d0e4","system_id":"levelo_inurba_marseille","lat":43.27943,"lon":5.41047,"is_reserved":false,"is_disabled":false,"rental_uris":{"android":"levelo://app?vid=22191022-1cde-4cff-a531-a8cefbf9d0e4","ios":"levelo://app?vid=22191022-1cde-4cff-a531-a8cefbf9d0e4"},"vehicle_type_id":"4","last_reported":1768227348,"current_range_meters":8800,"station_id":"ce4bhnp2rcd13ifvqh0g","pricing_plan_id":"cebpf4jnsgd1na2vs0mg"},{"bike_id":"9566a0c9-dffe-4b99-818a-1657ea1bdefc","system_id":"levelo_inurba_marseille","lat":43.32112,"lon":5.367692,"is_reserved":false,"is_disabled":false,"rental_uris":{"android":"levelo://app?vid=9566a0c9-dffe-4b99-818a-1657ea1bdefc","ios":"levelo://app?vid=9566a0c9-dffe-4b99-818a-1657ea1bdefc"},"vehicle_type_id":"4","last_reported":1768227348,"current_range_meters":8800,"station_id":"ce4bhrh2rcd13ifvqhug","pricing_plan_id":"cebpf4jnsgd1na2vs0mg"},{"bike_id":"187e88e6-3bd5-4d19-85f9-22e18b80f89f","system_id":"levelo_inurba_marseille","lat":43.313856,"lon":5.3849,"is_reserved":false,"is_disabled":false,"rental_uris":{"android":"levelo://app?vid=187e88e6-3bd5-4d19-85f9-22e18b80f89f","ios":"levelo://app?vid=187e88e6-3bd5-4d19-85f9-22e18b80f89f"},"vehicle_type_id":"4","last_reported":1768227348,"current_range_meters":8800,"station_id":"ce4bgt92rcd13ifvqcf0","pricing_plan_id":"cebpf4jnsgd1na2vs0mg"},{"bike_id":"30ef32cf-9a66-47a3-8503-0c915b8904e7","system_id":"levelo_inurba_marseille","lat":43.265348,"lon":5.37317,"is_reserved":false,"is_disabled":false,"rental_uris":{"android":"levelo://app?vid=30ef32cf-9a66-47a3-8503-0c915b8904e7","ios":"levelo://app?vid=30ef32cf-9a66-47a3-8503-0c915b8904e7"},"vehicle_type_id":"4","last_reported":1768227348,"current_range_meters":8800,"station_id":"ce4bhg12rcd13ifvqf70","pricing_plan_id":"cebpf4jnsgd1na2vs0mg"},{"bike_id":"343dae66-a7dc-4831-a0b8-1225fba34d25","system_id":"levelo_inurba_marseille","lat":43.26266,"lon":5.4053,"is_reserved":false,"is_disabled":false,"rental_uris":{"android":"levelo://app?vid=343dae66-a7dc-4831-a0b8-1225fba34d25","ios":"levelo://app?vid=343dae66-a7dc-4831-a0b8-1225fba34d25"},"vehicle_type_id":"4","last_reported":1768227348,"current_range_meters":8800,"station_id":"ce4bhmh2rcd13ifvqgmg","pricing_plan_id":"cebpf4jnsgd1na2vs0mg"},{"bike_id":"126ba925-9daf-43ae-b927-f599ac3816b2","system_id":"levelo_inurba_marseille","lat":43.29532,"lon":5.3855,"is_reserved":false,"is_disabled":false,"rental_uris":{"android":"levelo://app?vid=126ba925-9daf-43ae-b927-f599ac3816b2","ios":"levelo://app?vid=126ba925-9daf-43ae-b927-f599ac3816b2"},"vehicle_type_id":"4","last_reported":1768227348,"current_range_meters":8800,"station_id":"ce4bgih2rcd13ifvqba0","pricing_plan_id":"cebpf4jnsgd1na2vs0mg"},{"bike_id":"e14e9da5-a806-4a1d-bb3d-275d5d25eb1d","system_id":"levelo_inurba_marseille","lat":43.25911,"lon":5.40904,"is_reserved":false,"is_disabled":false,"rental_uris":{"android":"levelo://app?vid=e14e9da5-a806-4a1d-bb3d-275d5d25eb1d","ios":"levelo://app?vid=e14e9da5-a806-4a1d-bb3d-275d5d25eb1d"},"vehicle_type_id":"4","last_reported":1768227348,"current_range_meters":8800,"station_id":"","pricing_plan_id":"cebpf4jnsgd1na2vs0mg"},{"bike_id":"fec7a11b-8b18-4f8e-bb90-32df04a0160a","system_id":"levelo_inurba_marseille","lat":43.3015,"lon":5.38086,"is_reserved":false,"is_disabled":false,"rental_uris":{"android":"levelo://app?vid=fec7a11b-8b18-4f8e-bb90-32df04a0160a","ios":"levelo://app?vid=fec7a11b-8b18-4f8e-bb90-32df04a0160a"},"vehicle_type_id":"4","last_reported":1768227348,"current_range_meters":8800,"station_id":"ce4bgjp2rcd13ifvqbh0","pricing_plan_id":"cebpf4jnsgd1na2vs0mg"},{"bike_id":"6905340f-0333-48d1-8c9b-7dce85f9952e","system_id":"levelo_inurba_marseille","lat":43.27685,"lon":5.38936,"is_reserved":false,"is_disabled":false,"rental_uris":{"android":"levelo://app?vid=6905340f-0333-48d1-8c9b-7dce85f9952e","ios":"levelo://app?vid=6905340f-0333-48d1-8c9b-7dce85f9952e"},"vehicle_type_id":"4","last_reported":1768227348,"current_range_meters":8800,"station_id":"ce4bhi12rcd13ifvqfo0","pricing_plan_id":"cebpf4jnsgd1na2vs0mg"},{"bike_id":"b73f1287-84c2-4272-85e3-0cbf43e351ea","system_id":"levelo_inurba_marseille","lat":43.25722,"lon":5.41108,"is_reserved":false,"is_disabled":false,"rental_uris":{"android":"levelo://app?vid=b73f1287-84c2-4272-85e3-0cbf43e351ea","ios":"levelo://app?vid=b73f1287-84c2-4272-85e3-0cbf43e351ea"},"vehicle_type_id":"4","last_reported":1768227348,"current_range_meters":8800,"station_id":"ce4bhkp2rcd13ifvqgd0","pricing_plan_id":"cebpf4jnsgd1na2vs0mg"},{"bike_id":"2dc3a0ac-e79c-4a8f-aa09-4b3e95c0bad1","system_id":"levelo_inurba_marseille","lat":43.22577,"lon":5.41629,"is_reserved":false,"is_disabled":false,"rental_uris":{"android":"levelo://app?vid=2dc3a0ac-e79c-4a8f-aa09-4b3e95c0bad1","ios":"levelo://app?vid=2dc3a0ac-e79c-4a8f-aa09-4b3e95c0bad1"},"vehicle_type_id":"4","last_reported":1768227348,"current_range_meters":8800,"station_id":"st_d2o4gvlbi1j2169b742g","pricing_plan_id":"cebpf4jnsgd1na2vs0mg"},{"bike_id":"38467590-e1b1-4d62-afdd-3a676c2f2fc5","system_id":"levelo_inurba_marseille","lat":43.2317,"lon":5.35606,"is_reserved":false,"is_disabled":false,"rental_uris":{"android":"levelo://app?vid=38467590-e1b1-4d62-afdd-3a676c2f2fc5","ios":"levelo://app?vid=38467590-e1b1-4d62-afdd-3a676c2f2fc5"},"vehicle_type_id":"4","last_reported":1768227348,"current_range_meters":8800,"station_id":"ce4bhu92rcd13ifvqi70","pricing_plan_id":"cebpf4jnsgd1na2vs0mg"},{"bike_id":"b99cbea3-4b5c-46c6-90c3-fcfa05a94817","system_id":"levelo_inurba_marseille","lat":43.2417,"lon":5.36399,"is_reserved":false,"is_disabled":false,"rental_uris":{"android":"levelo://app?vid=b99cbea3-4b5c-46c6-90c3-fcfa05a94817","ios":"levelo://app?vid=b99cbea3-4b5c-46c6-90c3-fcfa05a94817"},"vehicle_type_id":"4","last_reported":1768227348,"current_range_meters":9200,"station_id":"cpo36qri1sfpv3e86is0","pricing_plan_id":"cebpf4jnsgd1na2vs0mg"},{"bike_id":"d6567499-749a-4eec-bc91-906e5b94021e","system_id":"levelo_inurba_marseille","lat":43.308075,"lon":5.383312,"is_reserved":false,"is_disabled":false,"rental_uris":{"android":"levelo://app?vid=d6567499-749a-4eec-bc91-906e5b94021e","ios":"levelo://app?vid=d6567499-749a-4eec-bc91-906e5b94021e"},"vehicle_type_id":"4","last_reported":1768227348,"current_range_meters":9200,"station_id":"","pricing_plan_id":"cebpf4jnsgd1na2vs0mg"},{"bike_id":"06c659f6-331e-4156-b1b9-3b09ce462b0d","system_id":"levelo_inurba_marseille","lat":43.24842,"lon":5.37421,"is_reserved":false,"is_disabled":false,"rental_uris":{"android":"levelo://app?vid=06c659f6-331e-4156-b1b9-3b09ce462b0d","ios":"levelo://app?vid=06c659f6-331e-4156-b1b9-3b09ce462b0d"},"vehicle_type_id":"4","last_reported":1768227348,"current_range_meters":9200,"station_id":"ce4bhgh2rcd13ifvqfb0","pricing_plan_id":"cebpf4jnsgd1na2vs0mg"},{"bike_id":"05398fbc-08a6-4e99-b27d-b0d0a133463e","system_id":"levelo_inurba_marseille","lat":43.26073,"lon":5.3938,"is_reserved":false,"is_disabled":false,"rental_uris":{"android":"levelo://app?vid=05398fbc-08a6-4e99-b27d-b0d0a133463e","ios":"levelo://app?vid=05398fbc-08a6-4e99-b27d-b0d0a133463e"},"vehicle_type_id":"4","last_reported":1768227348,"current_range_meters":9200,"station_id":"ce4bhh92rcd13ifvqfj0","pricing_plan_id":"cebpf4jnsgd1na2vs0mg"},{"bike_id":"1b85c500-d62e-4a4f-955c-4a070e2fa864","system_id":"levelo_inurba_marseille","lat":43.28479,"lon":5.48396,"is_reserved":false,"is_disabled":false,"rental_uris":{"android":"levelo://app?vid=1b85c500-d62e-4a4f-955c-4a070e2fa864","ios":"levelo://app?vid=1b85c500-d62e-4a4f-955c-4a070e2fa864"},"vehicle_type_id":"4","last_reported":1768227348,"current_range_meters":9200,"station_id":"","pricing_plan_id":"cebpf4jnsgd1na2vs0mg"},{"bike_id":"f705581a-5781-4bea-96a3-e9a4baa74b0b","system_id":"levelo_inurba_marseille","lat":43.24112,"lon":5.37758,"is_reserved":false,"is_disabled":false,"rental_uris":{"android":"levelo://app?vid=f705581a-5781-4bea-96a3-e9a4baa74b0b","ios":"levelo://app?vid=f705581a-5781-4bea-96a3-e9a4baa74b0b"},"vehicle_type_id":"4","last_reported":1768227348,"current_range_meters":9200,"station_id":"ce4bhnp2rcd13ifvqgvg","pricing_plan_id":"cebpf4jnsgd1na2vs0mg"},{"bike_id":"d7f50689-768d-4b47-9e63-adb66709df19","system_id":"levelo_inurba_marseille","lat":43.243996,"lon":5.370734,"is_reserved":false,"is_disabled":false,"rental_uris":{"android":"levelo://app?vid=d7f50689-768d-4b47-9e63-adb66709df19","ios":"levelo://app?vid=d7f50689-768d-4b47-9e63-adb66709df19"},"vehicle_type_id":"4","last_reported":1768227348,"current_range_meters":9200,"station_id":"ce4bhhh2rcd13ifvqfk0","pricing_plan_id":"cebpf4jnsgd1na2vs0mg"},{"bike_id":"806142aa-057c-4e12-94c7-713117008874","system_id":"levelo_inurba_marseille","lat":43.23969,"lon":5.36618,"is_reserved":false,"is_disabled":false,"rental_uris":{"android":"levelo://app?vid=806142aa-057c-4e12-94c7-713117008874","ios":"levelo://app?vid=806142aa-057c-4e12-94c7-713117008874"},"vehicle_type_id":"4","last_reported":1768227348,"current_range_meters":9200,"station_id":"ce4bhi12rcd13ifvqfp0","pricing_plan_id":"cebpf4jnsgd1na2vs0mg"},{"bike_id":"b324c40e-6bcb-411f-a693-684d336ca0e7","system_id":"levelo_inurba_marseille","lat":43.30146,"lon":5.38081,"is_reserved":false,"is_disabled":false,"rental_uris":{"android":"levelo://app?vid=b324c40e-6bcb-411f-a693-684d336ca0e7","ios":"levelo://app?vid=b324c40e-6bcb-411f-a693-684d336ca0e7"},"vehicle_type_id":"4","last_reported":1768227348,"current_range_meters":9200,"station_id":"ce4bgjp2rcd13ifvqbh0","pricing_plan_id":"cebpf4jnsgd1na2vs0mg"},{"bike_id":"ce4e09a5-219a-4817-807f-82a8f5a458e9","system_id":"levelo_inurba_marseille","lat":43.29898,"lon":5.37797,"is_reserved":false,"is_disabled":false,"rental_uris":{"android":"levelo://app?vid=ce4e09a5-219a-4817-807f-82a8f5a458e9","ios":"levelo://app?vid=ce4e09a5-219a-4817-807f-82a8f5a458e9"},"vehicle_type_id":"4","last_reported":1768227348,"current_range_meters":9200,"station_id":"","pricing_plan_id":"cebpf4jnsgd1na2vs0mg"},{"bike_id":"08ee76f6-e5bc-4569-816f-928f977b81fb","system_id":"levelo_inurba_marseille","lat":43.24808,"lon":5.37449,"is_reserved":false,"is_disabled":false,"rental_uris":{"android":"levelo://app?vid=08ee76f6-e5bc-4569-816f-928f977b81fb","ios":"levelo://app?vid=08ee76f6-e5bc-4569-816f-928f977b81fb"},"vehicle_type_id":"4","last_reported":1768227348,"current_range_meters":9200,"station_id":"ce4bhgh2rcd13ifvqfb0","pricing_plan_id":"cebpf4jnsgd1na2vs0mg"},