{"last_updated":1742199250,"ttl":60,"version":"2.2","data":{"bikes":[{"bike_id":"1ac0ebad-6828-4242-99b2-14a9f8209f79","system_id":"levelo_inurba_marseille","lat":43.232,"lon":5.356,"is_reserved":false,"is_disabled":false,"rental_uris":{"android":"levelo://app?vid=1ac0ebad-6828-4242-99b2-14a9f8209f79","ios":"levelo://app?vid=1ac0ebad-6828-4242-99b2-14a9f8209f79"},"vehicle_type_id":"4","last_reported":1742199251,"current_range_meters":2800,"station_id":"ce4bhu92rcd13ifvqi70","pricing_plan_id":"cebpf4jnsgd1na2vs0mg"},{"bike_id":"ef556b82-8cb3-4e5e-b874-76200be03f0b","system_id":"levelo_inurba_marseille","lat":43.30461,"lon":5.37905,"is_reserved":false,"is_disabled":false,"rental_uris":{"android":"levelo://app?vid=ef556b82-8cb3-4e5e-b874-76200be03f0b","ios":"levelo://app?vid=ef556b82-8cb3-4e5e-b874-76200be03f0b"},"vehicle_type_id":"4","last_reported":1742199251,"current_range_meters":2800,"station_id":"ce4bgup2rcd13ifvqcn0","pricing_plan_id":"cebpf4jnsgd1na2vs0mg"},{"bike_id":"f79ad0fd-d815-4ba7-b610-02c5f5f144ee","system_id":"levelo_inurba_marseille","lat":43.29911,"lon":5.3748,"is_reserved":false,"is_disabled":false,"rental_uris":{"android":"levelo://app?vid=f79ad0fd-d815-4ba7-b610-02c5f5f144ee","ios":"levelo://app?vid=f79ad0fd-d815-4ba7-b610-02c5f5f144ee"},"vehicle_type_id":"4","last_reported":1742199251,"current_range_meters":2800,"station_id":"ce4bgjh2rcd13ifvqbg0","pricing_plan_id":"cebpf4jnsgd1na2vs0mg"},{"bike_id":"857789e9-d4fa-418f-9b9a-0ad43cbfe9c2","system_id":"levelo_inurba_marseille","lat":43.33609,"lon":5.41016,"is_reserved":false,"is_disabled":false,"rental_uris":{"android":"levelo://app?vid=857789e9-d4fa-418f-9b9a-0ad43cbfe9c2","ios":"levelo://app?vid=857789e9-d4fa-418f-9b9a-0ad43cbfe9c2"},"vehicle_type_id":"4","last_reported":1742199251,"current_range_meters":2800,"station_id":"ce4bhqh2rcd13ifvqhmg","pricing_plan_id":"cebpf4jnsgd1na2vs0mg"},{"bike_id":"8cdbd628-c6c4-472f-b2de-5011e0e779f0","system_id":"levelo_inurba_marseille","lat":43.23942,"lon":5.36645,"is_reserved":false,"is_disabled":false,"rental_uris":{"android":"levelo://app?vid=8cdbd628-c6c4-472f-b2de-5011e0e779f0","ios":"levelo://app?vid=8cdbd628-c6c4-472f-b2de-5011e0e779f0"},"vehicle_type_id":"4","last_reported":1742199251,"current_range_meters":2800,"station_id":"ce4bhi12rcd13ifvqfp0","pricing_plan_id":"cebpf4jnsgd1na2vs0mg"},{"bike_id":"386c50eb-e2de-4698-8009-25ae5c5fc57f","system_id":"levelo_inurba_marseille","lat":43.29197,"lon":5.39319,"is_reserved":false,"is_disabled":true,"rental_uris":{"android":"levelo://app?vid=386c50eb-e2de-4698-8009-25ae5c5fc57f","ios":"levelo://app?vid=386c50eb-e2de-4698-8009-25ae5c5fc57f"},"vehicle_type_id":"4","last_reported":1742199251,"current_range_meters":2800,"station_id":"ce4bh192rcd13ifvqdd0","pricing_plan_id":"cebpf4jnsgd1na2vs0mg"},{"bike_id":"8573d09f-a7f4-4163-bd75-c3ce1e4f0075","system_id":"levelo_inurba_marseille","lat":43.31682,"lon":5.40459,"is_reserved":false,"is_disabled":false,"rental_uris":{"android":"levelo://app?vid=8573d09f-a7f4-4163-bd75-c3ce1e4f0075","ios":"levelo://app?vid=8573d09f-a7f4-4163-bd75-c3ce1e4f0075"},"vehicle_type_id":"4","last_reported":1742199251,"current_range_meters":2800,"station_id":"ce4bh012rcd13ifvqd00","pricing_plan_id":"cebpf4jnsgd1na2vs0mg"},{"bike_id":"6cff3099-fc62-4212-a5e6-1cc54ed7cc41","system_id":"levelo_inurba_marseille","lat":43.25006,"lon":5.38916,"is_reserved":false,"is_disabled":false,"rental_uris":{"android":"levelo://app?vid=6cff3099-fc62-4212-a5e6-1cc54ed7cc41","ios":"levelo://app?vid=6cff3099-fc62-4212-a5e6-1cc54ed7cc41"},"vehicle_type_id":"4","last_reported":1742199251,"current_range_meters":3200,"station_id":"ce4bhgp2rcd13ifvqfd0","pricing_plan_id":"cebpf4jnsgd1na2vs0mg"},{"bike_id":"82465aa7-55ed-4055-9cc8-5fdee15ebdd8","system_id":"levelo_inurba_marseille","lat":43.27641,"lon":5.419,"is_reserved":false,"is_disabled":false,"rental_uris":{"android":"levelo://app?vid=82465aa7-55ed-4055-9cc8-5fdee15ebdd8","ios":"levelo://app?vid=82465aa7-55ed-4055-9cc8-5fdee15ebdd8"},"vehicle_type_id":"4","last_reported":1742199251,"current_range_meters":3200,"station_id":"","pricing_plan_id":"cebpf4jnsgd1na2vs0mg"},{"bike_id":"b564ac1b-113a-4351-ab66-391f2d709765","system_id":"levelo_inurba_marseille","lat":43.29041,"lon":5.39956,"is_reserved":false,"is_disabled":false,"rental_uris":{"android":"levelo://app?vid=b564ac1b-113a-4351-ab66-391f2d709765","ios":"levelo://app?vid=b564ac1b-113a-4351-ab66-391f2d709765"},"vehicle_type_id":"4","last_reported":1742199251,"current_range_meters":3200,"station_id":"ce4bh392rcd13ifvqdm0","pricing_plan_id":"cebpf4jnsgd1na2vs0mg"},{"bike_id":"efb53dda-871b-483c-8dec-e716116f9234","system_id":"levelo_inurba_marseille","lat":43.31112,"lon":5.36762,"is_reserved":false,"is_disabled":false,"rental_uris":{"android":"levelo://app?vid=efb53dda-871b-483c-8dec-e716116f9234","ios":"levelo://app?vid=efb53dda-871b-483c-8dec-e716116f9234"},"vehicle_type_id":"4","last_reported":1742199251,"current_range_meters":3200,"station_id":"","pricing_plan_id":"cebpf4jnsgd1na2vs0mg"},{"bike_id":"2bf89355-9e7a-4cb6-82b8-15c7d6efb190","system_id":"levelo_inurba_marseille","lat":43.30397,"lon":5.42464,"is_reserved":false,"is_disabled":false,"rental_uris":{"android":"levelo://app?vid=2bf89355-9e7a-4cb6-82b8-15c7d6efb190","ios":"levelo://app?vid=2bf89355-9e7a-4cb6-82b8-15c7d6efb190"},"vehicle_type_id":"4","last_reported":1742199251,"current_range_meters":3200,"station_id":"ce4bghh2rcd13ifvqb60","pricing_plan_id":"cebpf4jnsgd1na2vs0mg"},{"bike_id":"a5d9a2f8-11e2-445b-9946-70463938f681","system_id":"levelo_inurba_marseille","lat":43.31164,"lon":5.38141,"is_reserved":false,"is_disabled":false,"rental_uris":{"android":"levelo://app?vid=a5d9a2f8-11e2-445b-9946-70463938f681","ios":"levelo://app?vid=a5d9a2f8-11e2-445b-9946-70463938f681"},"vehicle_type_id":"4","last_reported":1742199251,"current_range_meters":3600,"station_id":"","pricing_plan_id":"cebpf4jnsgd1na2vs0mg"},{"bike_id":"53c2d3f5-89ba-4013-b128-7a948cd2357a","system_id":"levelo_inurba_marseille","lat":43.28475,"lon":5.38551,"is_reserved":false,"is_disabled":false,"rental_uris":{"android":"levelo://app?vid=53c2d3f5-89ba-4013-b128-7a948cd2357a","ios":"levelo://app?vid=53c2d3f5-89ba-4013-b128-7a948cd2357a"},"vehicle_type_id":"4","last_reported":1742199251,"current_range_meters":3600,"station_id":"ce4bh8p2rcd13ifvqeb0","pricing_plan_id":"cebpf4jnsgd1na2vs0mg"},{"bike_id":"ce75c5dc-4374-4486-94c6-d5f89ab2af8f","system_id":"levelo_inurba_marseille","lat":43.27913,"lon":5.39584,"is_reserved":false,"is_disabled":false,"rental_uris":{"android":"levelo://app?vid=ce75c5dc-4374-4486-94c6-d5f89ab2af8f","ios":"levelo://app?vid=ce75c5dc-4374-4486-94c6-d5f89ab2af8f"},"vehicle_type_id":"4","last_reported":1742199251,"current_range_meters":3600,"station_id":"ce4bhf92rcd13ifvqf40","pricing_plan_id":"cebpf4jnsgd1na2vs0mg"},{"bike_id":"90938997-d41d-4ce3-a92e-cd3add466e56","system_id":"levelo_inurba_marseille","lat":43.31346,"lon":5.36719,"is_reserved":false,"is_disabled":false,"rental_uris":{"android":"levelo://app?vid=90938997-d41d-4ce3-a92e-cd3add466e56","ios":"levelo://app?vid=90938997-d41d-4ce3-a92e-cd3add466e56"},"vehicle_type_id":"4","last_reported":1742199251,"current_range_meters":3600,"station_id":"ce4bgr92rcd13ifvqc6g","pricing_plan_id":"cebpf4jnsgd1na2vs0mg"},{"bike_id":"0f919857-16a9-4fac-92dc-f964e1db8fd1","system_id":"levelo_inurba_marseille","lat":43.25934,"lon":5.40911,"is_reserved":false,"is_disabled":false,"rental_uris":{"android":"levelo://app?vid=0f919857-16a9-4fac-92dc-f964e1db8fd1","ios":"levelo://app?vid=0f919857-16a9-4fac-92dc-f964e1db8fd1"},"vehicle_type_id":"4","last_reported":1742199251,"current_range_meters":4000,"station_id":"ce4bhm92rcd13ifvqglg","pricing_plan_id":"cebpf4jnsgd1na2vs0mg"},{"bike_id":"a31c8df7-fe0f-4a8b-bce2-dd8072b090f5","system_id":"levelo_inurba_marseille","lat":43.290916,"lon":5.381223,"is_reserved":false,"is_disabled":false,"rental_uris":{"android":"levelo://app?vid=a31c8df7-fe0f-4a8b-bce2-dd8072b090f5","ios":"levelo://app?vid=a31c8df7-fe0f-4a8b-bce2-dd8072b090f5"},"vehicle_type_id":"4","last_reported":1742199251,"current_range_meters":4000,"station_id":"ce4bh512rcd13ifvqe2g","pricing_plan_id":"cebpf4jnsgd1na2vs0mg"},{"bike_id":"abccea58-1958-4307-8363-9597c3e8b419","system_id":"levelo_inurba_marseille","lat":43.3054,"lon":5.36554,"is_reserved":false,"is_disabled":false,"rental_uris":{"android":"levelo://app?vid=abccea58-1958-4307-8363-9597c3e8b419","ios":"levelo://app?vid=abccea58-1958-4307-8363-9597c3e8b419"},"vehicle_type_id":"4","last_reported":1742199251,"current_range_meters":4000,"station_id":"ce4bgs12rcd13ifvqcag","pricing_plan_id":"cebpf4jnsgd1na2vs0mg"},{"bike_id":"47d4618f-2ba8-4a99-a9c0-ae360b620a5f","system_id":"levelo_inurba_marseille","lat":43.27665,"lon":5.38882,"is_reserved":false,"is_disabled":false,"rental_uris":{"android":"levelo://app?vid=47d4618f-2ba8-4a99-a9c0-ae360b620a5f","ios":"levelo://app?vid=47d4618f-2ba8-4a99-a9c0-ae360b620a5f"},"vehicle_type_id":"4","last_reported":1742199251,"current_range_meters":4000,"station_id":"ce4bhi12rcd13ifvqfo0","pricing_plan_id":"cebpf4jnsgd1na2vs0mg"},{"bike_id":"195bb056-ad37-413e-9b51-a7a429fb1e6d","system_id":"levelo_inurba_marseille","lat":43.24167,"lon":5.39699,"is_reserved":false,"is_disabled":false,"rental_uris":{"android":"levelo://app?vid=195bb056-ad37-413e-9b51-a7a429fb1e6d","ios":"levelo://app?vid=195bb056-ad37-413e-9b51-a7a429fb1e6d"},"vehicle_type_id":"4","last_reported":1742199251,"current_range_meters":4000,"station_id":"ce4bhn12rcd13ifvqgpg","pricing_plan_id":"cebpf4jnsgd1na2vs0mg"},{"bike_id":"e5b27f0f-62c3-430b-9c74-3212be0257f3","system_id":"levelo_inurba_marseille","lat":43.337444,"lon":5.374475,"is_reserved":false,"is_disabled":false,"rental_uris":{"android":"levelo://app?vid=e5b27f0f-62c3-430b-9c74-3212be0257f3","ios":"levelo://app?vid=e5b27f0f-62c3-430b-9c74-3212be0257f3"},"vehicle_type_id":"4","last_reported":1742199251,"current_range_meters":4400,"station_id":"ce4bh192rcd13ifvqdb0","pricing_plan_id":"cebpf4jnsgd1na2vs0mg"},{"bike_id":"1ebee6af-6672-4475-8604-890591e5f769","system_id":"levelo_inurba_marseille","lat":43.31698,"lon":5.37799,"is_reserved":false,"is_disabled":false,"rental_uris":{"android":"levelo://app?vid=1ebee6af-6672-4475-8604-890591e5f769","ios":"levelo://app?vid=1ebee6af-6672-4475-8604-890591e5f769"},"vehicle_type_id":"4","last_reported":1742199251,"current_range_meters":4400,"station_id":"","pricing_plan_id":"cebpf4jnsgd1na2vs0mg"},{"bike_id":"2127c283-3bf3-4081-9791-ba201cf5a542","system_id":"levelo_inurba_marseille","lat":43.30476,"lon":5.37378,"is_reserved":false,"is_disabled":false,"rental_uris":{"android":"levelo://app?vid=2127c283-3bf3-4081-9791-ba201cf5a542","ios":"levelo://app?vid=2127c283-3bf3-4081-9791-ba201cf5a542"},"vehicle_type_id":"4","last_reported":1742199251,"current_range_meters":4400,"station_id":"","pricing_plan_id":"cebpf4jnsgd1na2vs0mg"},{"bike_id":"a019dd42-4725-4a2e-9a8b-5c0413dcf684","system_id":"levelo_inurba_marseille","lat":43.30146,"lon":5.38087,"is_reserved":false,"is_disabled":false,"rental_uris":{"android":"levelo://app?vid=a019dd42-4725-4a2e-9a8b-5c0413dcf684","ios":"levelo://app?vid=a019dd42-4725-4a2e-9a8b-5c0413dcf684"},"vehicle_type_id":"4","last_reported":1742199251,"current_range_meters":4400,"station_id":"ce4bgjp2rcd13ifvqbh0","pricing_plan_id":"cebpf4jnsgd1na2vs0mg"},{"bike_id":"8ac36ff0-95fa-4664-8e37-a03afd0a16e1","system_id":"levelo_inurba_marseille","lat":43.29012,"lon":5.37804,"is_reserved":false,"is_disabled":true,"rental_uris":{"android":"levelo://app?vid=8ac36ff0-95fa-4664-8e37-a03afd0a16e1","ios":"levelo://app?vid=8ac36ff0-95fa-4664-8e37-a03afd0a16e1"},"vehicle_type_id":"4","last_reported":1742199251,"current_range_meters":4400,"station_id":"ce4bh9p2rcd13ifvqed0","pricing_plan_id":"cebpf4jnsgd1na2vs0mg"},{"bike_id":"f2b7b04e-8089-4d6c-9db8-5e21bca75c26","system_id":"levelo_inurba_marseille","lat":43.2783,"lon":5.39199,"is_reserved":false,"is_disabled":true,"rental_uris":{"android":"levelo://app?vid=f2b7b04e-8089-4d6c-9db8-5e21bca75c26","ios":"levelo://app?vid=f2b7b04e-8089-4d6c-9db8-5e21bca75c26"},"vehicle_type_id":"4","last_reported":1742199251,"current_range_meters":4400,"station_id":"ce4bhjp2rcd13ifvqga0","pricing_plan_id":"cebpf4jnsgd1na2vs0mg"},{"bike_id":"27732475-d2c0-4b64-ba67-0fdd92e004b5","system_id":"levelo_inurba_marseille","lat":43.24176,"lon":5.39726,"is_reserved":false,"is_disabled":false,"rental_uris":{"android":"levelo://app?vid=27732475-d2c0-4b64-ba67-0fdd92e004b5","ios":"levelo://app?vid=27732475-d2c0-4b64-ba67-0fdd92e004b5"},"vehicle_type_id":"4","last_reported":1742199251,"current_range_meters":4400,"station_id":"ce4bhn12rcd13ifvqgpg","pricing_plan_id":"cebpf4jnsgd1na2vs0mg"},{"bike_id":"e94ba6e3-9606-42d7-9222-8ae2dc1a1268","system_id":"levelo_inurba_marseille","lat":43.33606,"lon":5.41031,"is_reserved":false,"is_disabled":false,"rental_uris":{"android":"levelo://app?vid=e94ba6e3-9606-42d7-9222-8ae2dc1a1268","ios":"levelo://app?vid=e94ba6e3-9606-42d7-9222-8ae2dc1a1268"},"vehicle_type_id":"4","last_reported":1742199251,"current_range_meters":4800,"station_id":"ce4bhqh2rcd13ifvqhmg","pricing_plan_id":"cebpf4jnsgd1na2vs0mg"},{"bike_id":"1f8b1522-0ced-4949-bd31-7e11da4f5a92","system_id":"levelo_inurba_marseille","lat":43.25695,"lon":5.41089,"is_reserved":false,"is_disabled":false,"rental_uris":{"android":"levelo://app?vid=1f8b1522-0ced-4949-bd31-7e11da4f5a92","ios":"levelo://app?vid=1f8b1522-0ced-4949-bd31-7e11da4f5a92"},"vehicle_type_id":"4","last_reported":1742199251,"current_range_meters":4800,"station_id":"ce4bhkp2rcd13ifvqgd0","pricing_plan_id":"cebpf4jnsgd1na2vs0mg"},{"bike_id":"af004255-93b1-4617-8c69-428414d7ebe9","system_id":"levelo_inurba_marseille","lat":43.25011,"lon":5.38923,"is_reserved":false,"is_disabled":false,"rental_uris":{"android":"levelo://app?vid=af004255-93b1-4617-8c69-428414d7ebe9","ios":"levelo://app?vid=af004255-93b1-4617-8c69-428414d7ebe9"},"vehicle_type_id":"4","last_reported":1742199251,"current_range_meters":4800,"station_id":"ce4bhgp2rcd13ifvqfd0","pricing_plan_id":"cebpf4jnsgd1na2vs0mg"},{"bike_id":"3850fcc8-9c5d-4890-93d1-1d89c4d11a96","system_id":"levelo_inurba_marseille","lat":43.33604,"lon":5.41032,"is_reserved":false,"is_disabled":false,"rental_uris":{"android":"levelo://app?vid=3850fcc8-9c5d-4890-93d1-1d89c4d11a96","ios":"levelo://app?vid=3850fcc8-9c5d-4890-93d1-1d89c4d11a96"},"vehicle_type_id":"4","last_reported":1742199251,"current_range_meters":4800,"station_id":"ce4bhqh2rcd13ifvqhmg","pricing_plan_id":"cebpf4jnsgd1na2vs0mg"},{"bike_id":"743c9fbf-42df-4986-bc8c-9b4a2bc386be","system_id":"levelo_inurba_marseille","lat":43.24083,"lon":5.37759,"is_reserved":false,"is_disabled":false,"rental_uris":{"android":"levelo://app?vid=743c9fbf-42df-4986-bc8c-9b4a2bc386be","ios":"levelo://app?vid=743c9fbf-42df-4986-bc8c-9b4a2bc386be"},"vehicle_type_id":"4","last_reported":1742199251,"current_range_meters":4800,"station_id":"ce4bhnp2rcd13ifvqgvg","pricing_plan_id":"cebpf4jnsgd1na2vs0mg"},{"bike_id":"1e9aea03-6937-4ee0-9e91-73eda13ab755","system_id":"levelo_inurba_marseille","lat":43.33592,"lon":5.41029,"is_reserved":false,"is_disabled":false,"rental_uris":{"android":"levelo://app?vid=1e9aea03-6937-4ee0-9e91-73eda13ab755","ios":"levelo://app?vid=1e9aea03-6937-4ee0-9e91-73eda13ab755"},"vehicle_type_id":"4","last_reported":1742199251,"current_range_meters":4800,"station_id":"ce4bhqh2rcd13ifvqhmg","pricing_plan_id":"cebpf4jnsgd1na2vs0mg"},{"bike_id":"c5ff76ac-c5f0-4e6d-872b-0339d85f51aa","system_id":"levelo_inurba_marseille","lat":43.24031,"lon":5.37757,"is_reserved":false,"is_disabled":false,"rental_uris":{"android":"levelo://app?vid=c5ff76ac-c5f0-4e6d-872b-0339d85f51aa","ios":"levelo://app?vid=c5ff76ac-c5f0-4e6d-872b-0339d85f51aa"},"vehicle_type_id":"4","last_reported":1742199251,"current_range_meters":4800,"station_id":"ce4bhnp2rcd13ifvqgvg","pricing_plan_id":"cebpf4jnsgd1na2vs0mg"},{"bike_id":"68f3bcfe-e20f-4ad8-9579-f569150feb8a","system_id":"levelo_inurba_marseille","lat":43.27609,"lon":5.36157,"is_reserved":false,"is_disabled":false,"rental_uris":{"android":"levelo://app?vid=68f3bcfe-e20f-4ad8-9579-f569150feb8a","ios":"levelo://app?vid=68f3bcfe-e20f-4ad8-9579-f569150feb8a"},"vehicle_type_id":"4","last_reported":1742199251,"current_range_meters":5600,"station_id":"ce4bgj92rcd13ifvqbe0","pricing_plan_id":"cebpf4jnsgd1na2vs0mg"},{"bike_id":"a7c2867d-5773-4094-afeb-f8a0f8af8355","system_id":"levelo_inurba_marseille","lat":43.30958,"lon":5.39031,"is_reserved":false,"is_disabled":false,"rental_uris":{"android":"levelo://app?vid=a7c2867d-5773-4094-afeb-f8a0f8af8355","ios":"levelo://app?vid=a7c2867d-5773-4094-afeb-f8a0f8af8355"},"vehicle_type_id":"4","last_reported":1742199251,"current_range_meters":5600,"station_id":"ce4bgup2rcd13ifvqco0","pricing_plan_id":"cebpf4jnsgd1na2vs0mg"},{"bike_id":"0b6f522b-780f-469b-8f01-7bade136ed7d","system_id":"levelo_inurba_marseille","lat":43.305358,"lon":5.384356,"is_reserved":false,"is_disabled":true,"rental_uris":{"android":"levelo://app?vid=0b6f522b-780f-469b-8f01-7bade136ed7d","ios":"levelo://app?vid=0b6f522b-780f-469b-8f01-7bade136ed7d"},"vehicle_type_id":"4","last_reported":1742199251,"current_range_meters":5600,"station_id":"","pricing_plan_id":"cebpf4jnsgd1na2vs0mg"},{"bike_id":"382cdfe8-d108-4edc-bc9b-6ec3acaf0296","system_id":"levelo_inurba_marseille","lat":43.30957,"lon":5.39013,"is_reserved":false,"is_disabled":false,"rental_uris":{"android":"levelo://app?vid=382cdfe8-d108-4edc-bc9b-6ec3acaf0296","ios":"levelo://app?vid=382cdfe8-d108-4edc-bc9b-6ec3acaf0296"},"vehicle_type_id":"4","last_reported":1742199251,"current_range_meters":5600,"station_id":"ce4bgup2rcd13ifvqco0","pricing_plan_id":"cebpf4jnsgd1na2vs0mg"},{"bike_id":"32fad369-c02c-461c-a1f1-ebd359a2c36b","system_id":"levelo_inurba_marseille","lat":43.31126,"lon":5.37773,"is_reserved":false,"is_disabled":false,"rental_uris":{"android":"levelo://app?vid=32fad369-c02c-461c-a1f1-ebd359a2c36b","ios":"levelo://app?vid=32fad369-c02c-461c-a1f1-ebd359a2c36b"},"vehicle_type_id":"4","last_reported":1742199251,"current_range_meters":5600,"station_id":"ce4bgt92rcd13ifvqcg0","pricing_plan_id":"cebpf4jnsgd1na2vs0mg"},{"bike_id":"76be802f-4190-4e84-bd4a-834d437007de","system_id":"levelo_inurba_marseille","lat":43.30292,"lon":5.36888,"is_reserved":false,"is_disabled":false,"rental_uris":{"android":"levelo://app?vid=76be802f-4190-4e84-bd4a-834d437007de","ios":"levelo://app?vid=76be802f-4190-4e84-bd4a-834d437007de"},"vehicle_type_id":"4","last_reported":1742199251,"current_range_meters":5600,"station_id":"ce4bgqh2rcd13ifvqc5g","pricing_plan_id":"cebpf4jnsgd1na2vs0mg"},{"bike_id":"d3bd0ca2-58e0-4f19-bd33-980724ab7a39","system_id":"levelo_inurba_marseille","lat":43.30867,"lon":5.39651,"is_reserved":false,"is_disabled":true,"rental_uris":{"android":"levelo://app?vid=d3bd0ca2-58e0-4f19-bd33-980724ab7a39","ios":"levelo://app?vid=d3bd0ca2-58e0-4f19-bd33-980724ab7a39"},"vehicle_type_id":"4","last_reported":1742199251,"current_range_meters":5600,"station_id":"ce4bh012rcd13ifvqcv0","pricing_plan_id":"cebpf4jnsgd1na2vs0mg"},{"bike_id":"31710fca-ccfa-43a5-ac6f-5ec923018ebf","system_id":"levelo_inurba_marseille","lat":43.27425,"lon":5.42054,"is_reserved":false,"is_disabled":false,"rental_uris":{"android":"levelo://app?vid=31710fca-ccfa-43a5-ac6f-5ec923018ebf","ios":"levelo://app?vid=31710fca-ccfa-43a5-ac6f-5ec923018ebf"},"vehicle_type_id":"4","last_reported":1742199251,"current_range_meters":5600,"station_id":"","pricing_plan_id":"cebpf4jnsgd1na2vs0mg"},{"bike_id":"2c2b70e5-e895-43c6-973c-cdd69db920eb","system_id":"levelo_inurba_marseille","lat":43.27929,"lon":5.41068,"is_reserved":false,"is_disabled":false,"rental_uris":{"android":"levelo://app?vid=2c2b70e5-e895-43c6-973c-cdd69db920eb","ios":"levelo://app?vid=2c2b70e5-e895-43c6-973c-cdd69db920eb"},"vehicle_type_id":"4","last_reported":1742199251,"current_range_meters":6000,"station_id":"ce4bhnp2rcd13ifvqh0g","pricing_plan_id":"cebpf4jnsgd1na2vs0mg"},{"bike_id":"97ef5f0b-10be-433e-adf5-8988ede4fe7c","system_id":"levelo_inurba_marseille","lat":43.29557,"lon":5.42283,"is_reserved":false,"is_disabled":false,"rental_uris":{"android":"levelo://app?vid=97ef5f0b-10be-433e-adf5-8988ede4fe7c","ios":"levelo://app?vid=97ef5f0b-10be-433e-adf5-8988ede4fe7c"},"vehicle_type_id":"4","last_reported":1742199251,"current_range_meters":6000,"station_id":"ce4bhph2rcd13ifvqhdg","pricing_plan_id":"cebpf4jnsgd1na2vs0mg"},{"bike_id":"3a766561-d5df-4bb1-accb-85c347f27a70","system_id":"levelo_inurba_marseille","lat":43.337314,"lon":5.391871,"is_reserved":false,"is_disabled":false,"rental_uris":{"android":"levelo://app?vid=3a766561-d5df-4bb1-accb-85c347f27a70","ios":"levelo://app?vid=3a766561-d5df-4bb1-accb-85c347f27a70"},"vehicle_type_id":"4","last_reported":1742199251,"current_range_meters":6000,"station_id":"ce4bhr92rcd13ifvqhsg","pricing_plan_id":"cebpf4jnsgd1na2vs0mg"},{"bike_id":"c1ccf9ca-98f0-4eaf-9c83-bb7b5133d125","system_id":"levelo_inurba_marseille","lat":43.321086,"lon":5.367762,"is_reserved":false,"is_disabled":false,"rental_uris":{"android":"levelo://app?vid=c1ccf9ca-98f0-4eaf-9c83-bb7b5133d125","ios":"levelo://app?vid=c1ccf9ca-98f0-4eaf-9c83-bb7b5133d125"},"vehicle_type_id":"4","last_reported":1742199251,"current_range_meters":6000,"station_id":"ce4bhrh2rcd13ifvqhug","pricing_plan_id":"cebpf4jnsgd1na2vs0mg"},{"bike_id":"e79d8ff5-5260-4cd2-877d-0bc7b1752ecb","system_id":"levelo_inurba_marseille","lat":43.31229,"lon":5.36866,"is_reserved":false,"is_disabled":false,"rental_uris":{"android":"levelo://app?vid=e79d8ff5-5260-4cd2-877d-0bc7b1752ecb","ios":"levelo://app?vid=e79d8ff5-5260-4cd2-877d-0bc7b1752ecb"},"vehicle_type_id":"4","last_reported":1742199251,"current_range_meters":6000,"station_id":"ce4bgl92rcd13ifvqbq0","pricing_plan_id":"cebpf4jnsgd1na2vs0mg"},{"bike_id":"66d32bc0-87bc-4009-b362-232cd68bde0e","system_id":"levelo_inurba_marseille","lat":43.25083,"lon":5.39523,"is_reserved":false,"is_disabled":false,"rental_uris":{"android":"levelo://app?vid=66d32bc0-87bc-4009-b362-232cd68bde0e","ios":"levelo://app?vid=66d32bc0-87bc-4009-b362-232cd68bde0e"},"vehicle_type_id":"4","last_reported":1742199251,"current_range_meters":6000,"station_id":"ce4bhm12rcd13ifvqgkg","pricing_plan_id":"cebpf4jnsgd1na2vs0mg"},{"bike_id":"23f402d9-dfb0-47f6-9db8-b03d1756c728","system_id":"levelo_inurba_marseille","lat":43.23154,"lon":5.43733,"is_reserved":false,"is_disabled":false,"rental_uris":{"android":"levelo://app?vid=23f402d9-dfb0-47f6-9db8-b03d1756c728","ios":"levelo://app?vid=23f402d9-dfb0-47f6-9db8-b03d1756c728"},"vehicle_type_id":"4","last_reported":1742199251,"current_range_meters":6400,"station_id":"ce4bhmp2rcd13ifvqgog","pricing_plan_id":"cebpf4jnsgd1na2vs0mg"},{"bike_id":"71b342b8-694b-40d5-99e8-310baf77a970","system_id":"levelo_inurba_marseille","lat":43.23054,"lon":5.35488,"is_reserved":false,"is_disabled":false,"rental_uris":{"android":"levelo://app?vid=71b342b8-694b-40d5-99e8-310baf77a970","ios":"levelo://app?vid=71b342b8-694b-40d5-99e8-310baf77a970"},"vehicle_type_id":"4","last_reported":1742199251,"current_range_meters":6400,"station_id":"cpo3342slgdg3j2ifvpg","pricing_plan_id":"cebpf4jnsgd1na2vs0mg"},{"bike_id":"6582e7c2-5aa5-4e6a-abc5-fa241e74aeb6","system_id":"levelo_inurba_marseille","lat":43.29908,"lon":5.4367,"is_reserved":false,"is_disabled":false,"rental_uris":{"android":"levelo://app?vid=6582e7c2-5aa5-4e6a-abc5-fa241e74aeb6","ios":"levelo://app?vid=6582e7c2-5aa5-4e6a-abc5-fa241e74aeb6"},"vehicle_type_id":"4","last_reported":1742199251,"current_range_meters":6400,"station_id":"ce4bhpp2rcd13ifvqhfg","pricing_plan_id":"cebpf4jnsgd1na2vs0mg"},{"bike_id":"e01eeb36-e655-41bb-9312-232d9d42dc33","system_id":"levelo_inurba_marseille","lat":43.32105,"lon":5.36765,"is_reserved":false,"is_disabled":false,"rental_uris":{"android":"levelo://app?vid=e01eeb36-e655-41bb-9312-232d9d42dc33","ios":"levelo://app?vid=e01eeb36-e655-41bb-9312-232d9d42dc33"},"vehicle_type_id":"4","last_reported":1742199251,"current_range_meters":6400,"station_id":"ce4bhrh2rcd13ifvqhug","pricing_plan_id":"cebpf4jnsgd1na2vs0mg"},{"bike_id":"af0e35b3-8dbd-46c7-96d1-8852cbb490f2","system_id":"levelo_inurba_marseille","lat":43.2654,"lon":5.37328,"is_reserved":false,"is_disabled":false,"rental_uris":{"android":"levelo://app?vid=af0e35b3-8dbd-46c7-96d1-8852cbb490f2","ios":"levelo://app?vid=af0e35b3-8dbd-46c7-96d1-8852cbb490f2"},"vehicle_type_id":"4","last_reported":1742199251,"current_range_meters":6400,"station_id":"ce4bhg12rcd13ifvqf70","pricing_plan_id":"cebpf4jnsgd1na2vs0mg"},{"bike_id":"ac6bf2a2-e8ad-4c79-8c37-419990f10784","system_id":"levelo_inurba_marseille","lat":43.31347,"lon":5.36718,"is_reserved":false,"is_disabled":false,"rental_uris":{"android":"levelo://app?vid=ac6bf2a2-e8ad-4c79-8c37-419990f10784","ios":"levelo://app?vid=ac6bf2a2-e8ad-4c79-8c37-419990f10784"},"vehicle_type_id":"4","last_reported":1742199251,"current_range_meters":6400,"station_id":"ce4bgr92rcd13ifvqc6g","pricing_plan_id":"cebpf4jnsgd1na2vs0mg"},{"bike_id":"25bb2ded-fba6-47cc-8f36-5c53dcdeec58","system_id":"levelo_inurba_marseille","lat":43.24205,"lon":5.39715,"is_reserved":false,"is_disabled":false,"rental_uris":{"android":"levelo://app?vid=25bb2ded-fba6-47cc-8f36-5c53dcdeec58","ios":"levelo://app?vid=25bb2ded-fba6-47cc-8f36-5c53dcdeec58"},"vehicle_type_id":"4","last_reported":1742199251,"current_range_meters":6400,"station_id":"ce4bhn12rcd13ifvqgpg","pricing_plan_id":"cebpf4jnsgd1na2vs0mg"},{"bike_id":"d41c908c-4dc6-4aaa-969d-73466d9b3b3d","system_id":"levelo_inurba_marseille","lat":43.275,"lon":5.42476,"is_reserved":false,"is_disabled":false,"rental_uris":{"android":"levelo://app?vid=d41c908c-4dc6-4aaa-969d-73466d9b3b3d","ios":"levelo://app?vid=d41c908c-4dc6-4aaa-969d-73466d9b3b3d"},"vehicle_type_id":"4","last_reported":1742199251,"current_range_meters":6400,"station_id":"ce4bhn92rcd13ifvqgrg","pricing_plan_id":"cebpf4jnsgd1na2vs0mg"},{"bike_id":"59920081-abf1-4535-9db5-36ae0ec18f97","system_id":"levelo_inurba_marseille","lat":43.26219,"lon":5.37427,"is_reserved":false,"is_disabled":false,"rental_uris":{"android":"levelo://app?vid=59920081-abf1-4535-9db5-36ae0ec18f97","ios":"levelo://app?vid=59920081-abf1-4535-9db5-36ae0ec18f97"},"vehicle_type_id":"4","last_reported":1742199251,"current_range_meters":6400,"station_id":"ce4bhgp2rcd13ifvqfc0","pricing_plan_id":"cebpf4jnsgd1na2vs0mg"},{"bike_id":"5f813939-abd0-4724-aebe-15fd911368cc","system_id":"levelo_inurba_marseille","lat":43.23197,"lon":5.35553,"is_reserved":false,"is_disabled":false,"rental_uris":{"android":"levelo://app?vid=5f813939-abd0-4724-aebe-15fd911368cc","ios":"levelo://app?vid=5f813939-abd0-4724-aebe-15fd911368cc"},"vehicle_type_id":"4","last_reported":1742199251,"current_range_meters":6400,"station_id":"ce4bhu92rcd13ifvqi70","pricing_plan_id":"cebpf4jnsgd1na2vs0mg"},{"bike_id":"555bf458-d1d6-4a2e-8876-071970d88ebd","system_id":"levelo_inurba_marseille","lat":43.26578,"lon":5.3903,"is_reserved":false,"is_disabled":false,"rental_uris":{"android":"levelo://app?vid=555bf458-d1d6-4a2e-8876-071970d88ebd","ios":"levelo://app?vid=555bf458-d1d6-4a2e-8876-071970d88ebd"},"vehicle_type_id":"4","last_reported":1742199251,"current_range_meters":6800,"station_id":"ce4bhe12rcd13ifvqf30","pricing_plan_id":"cebpf4jnsgd1na2vs0mg"},{"bike_id":"f19bbe83-0965-4f16-88ab-4e18b17393e5","system_id":"levelo_inurba_marseille","lat":43.29304,"lon":5.37476,"is_reserved":false,"is_disabled":false,"rental_uris":{"android":"levelo://app?vid=f19bbe83-0965-4f16-88ab-4e18b17393e5","ios":"levelo://app?vid=f19bbe83-0965-4f16-88ab-4e18b17393e5"},"vehicle_type_id":"4","last_reported":1742199251,"current_range_meters":6800,"station_id":"ce4bgi12rcd13ifvqb70","pricing_plan_id":"cebpf4jnsgd1na2vs0mg"},{"bike_id":"fc071de1-2cc0-488a-a43e-f8037a5a9a49","system_id":"levelo_inurba_marseille","lat":43.230712,"lon":5.354955,"is_reserved":false,"is_disabled":false,"rental_uris":{"android":"levelo://app?vid=fc071de1-2cc0-488a-a43e-f8037a5a9a49","ios":"levelo://app?vid=fc071de1-2cc0-488a-a43e-f8037a5a9a49"},"vehicle_type_id":"4","last_reported":1742199251,"current_range_meters":6800,"station_id":"cpo3342slgdg3j2ifvpg","pricing_plan_id":"cebpf4jnsgd1na2vs0mg"},{"bike_id":"174c9c66-b172-484e-b7f9-5752aa18aabf","system_id":"levelo_inurba_marseille","lat":43.23074,"lon":5.35497,"is_reserved":false,"is_disabled":false,"rental_uris":{"android":"levelo://app?vid=174c9c66-b172-484e-b7f9-5752aa18aabf","ios":"levelo://app?vid=174c9c66-b172-484e-b7f9-5752aa18aabf"},"vehicle_type_id":"4","last_reported":1742199251,"current_range_meters":6800,"station_id":"cpo3342slgdg3j2ifvpg","pricing_plan_id":"cebpf4jnsgd1na2vs0mg"},{"bike_id":"3e2e14c7-f5ed-4573-bf2b-84d788bc9968","system_id":"levelo_inurba_marseille","lat":43.33726,"lon":5.42095,"is_reserved":false,"is_disabled":false,"rental_uris":{"android":"levelo://app?vid=3e2e14c7-f5ed-4573-bf2b-84d788bc9968","ios":"levelo://app?vid=3e2e14c7-f5ed-4573-bf2b-84d788bc9968"},"vehicle_type_id":"4","last_reported":1742199251,"current_range_meters":6800,"station_id":"","pricing_plan_id":"cebpf4jnsgd1na2vs0mg"},{"bike_id":"90a7991c-94bb-4ec6-9fc6-82bbed816836","system_id":"levelo_inurba_marseille","lat":43.291254,"lon":5.380821,"is_reserved":false,"is_disabled":false,"rental_uris":{"android":"levelo://app?vid=90a7991c-94bb-4ec6-9fc6-82bbed816836","ios":"levelo://app?vid=90a7991c-94bb-4ec6-9fc6-82bbed816836"},"vehicle_type_id":"4","last_reported":1742199251,"current_range_meters":6800,"station_id":"ce4bghh2rcd13ifvqb60","pricing_plan_id":"cebpf4jnsgd1na2vs0mg"},{"bike_id":"9544e52b-7c59-430f-a85b-7c60f50c2f53","system_id":"levelo_inurba_marseille","lat":43.25816,"lon":5.39427,"is_reserved":false,"is_disabled":false,"rental_uris":{"android":"levelo://app?vid=9544e52b-7c59-430f-a85b-7c60f50c2f53","ios":"levelo://app?vid=9544e52b-7c59-430f-a85b-7c60f50c2f53"},"vehicle_type_id":"4","last_reported":1742199251,"current_range_meters":6800,"station_id":"ce4bhip2rcd13ifvqft0","pricing_plan_id":"cebpf4jnsgd1na2vs0mg"},{"bike_id":"76b415aa-d90d-4b4c-9954-2e46fdae4260","system_id":"levelo_inurba_marseille","lat":43.28999,"lon":5.35609,"is_reserved":false,"is_disabled":true,"rental_uris":{"android":"levelo://app?vid=76b415aa-d90d-4b4c-9954-2e46fdae4260","ios":"levelo://app?vid=76b415aa-d90d-4b4c-9954-2e46fdae4260"},"vehicle_type_id":"4","last_reported":1742199251,"current_range_meters":7200,"station_id":"ce4bhb92rcd13ifvqen0","pricing_plan_id":"cebpf4jnsgd1na2vs0mg"},{"bike_id":"fb85caa9-9fe9-4eb0-a97f-e551c6e38335","system_id":"levelo_inurba_marseille","lat":43.27422,"lon":5.39422,"is_reserved":false,"is_disabled":false,"rental_uris":{"android":"levelo://app?vid=fb85caa9-9fe9-4eb0-a97f-e551c6e38335","ios":"levelo://app?vid=fb85caa9-9fe9-4eb0-a97f-e551c6e38335"},"vehicle_type_id":"4","last_reported":1742199251,"current_range_meters":7200,"station_id":"ce4bhdp2rcd13ifvqf20","pricing_plan_id":"cebpf4jnsgd1na2vs0mg"},{"bike_id":"e170ffca-3c08-4995-91d0-1f337bd222bd","system_id":"levelo_inurba_marseille","lat":43.30795,"lon":5.37653,"is_reserved":false,"is_disabled":true,"rental_uris":{"android":"levelo://app?vid=e170ffca-3c08-4995-91d0-1f337bd222bd","ios":"levelo://app?vid=e170ffca-3c08-4995-91d0-1f337bd222bd"},"vehicle_type_id":"4","last_reported":1742199251,"current_range_meters":7200,"station_id":"ce4bgv92rcd13ifvqcq0","pricing_plan_id":"cebpf4jnsgd1na2vs0mg"},{"bike_id":"f876773a-fec2-4503-8f9a-c65b00603ae5","system_id":"levelo_inurba_marseille","lat":43.24072,"lon":5.37757,"is_reserved":false,"is_disabled":false,"rental_uris":{"android":"levelo://app?vid=f876773a-fec2-4503-8f9a-c65b00603ae5","ios":"levelo://app?vid=f876773a-fec2-4503-8f9a-c65b00603ae5"},"vehicle_type_id":"4","last_reported":1742199251,"current_range_meters":7200,"station_id":"ce4bhnp2rcd13ifvqgvg","pricing_plan_id":"cebpf4jnsgd1na2vs0mg"},{"bike_id":"8e1a59d7-1252-424d-a73a-bfc3709a283d","system_id":"levelo_inurba_marseille","lat":43.31352,"lon":5.3671,"is_reserved":false,"is_disabled":false,"rental_uris":{"android":"levelo://app?vid=8e1a59d7-1252-424d-a73a-bfc3709a283d","ios":"levelo://app?vid=8e1a59d7-1252-424d-a73a-bfc3709a283d"},"vehicle_type_id":"4","last_reported":1742199251,"current_range_meters":7200,"station_id":"ce4bgr92rcd13ifvqc6g","pricing_plan_id":"cebpf4jnsgd1na2vs0mg"},{"bike_id":"c46bec50-c693-405c-875f-3f20e5871328","system_id":"levelo_inurba_marseille","lat":43.24153,"lon":5.39727,"is_reserved":false,"is_disabled":false,"rental_uris":{"android":"levelo://app?vid=c46bec50-c693-405c-875f-3f20e5871328","ios":"levelo://app?vid=c46bec50-c693-405c-875f-3f20e5871328"},"vehicle_type_id":"4","last_reported":1742199251,"current_range_meters":7200,"station_id":"ce4bhn12rcd13ifvqgpg","pricing_plan_id":"cebpf4jnsgd1na2vs0mg"},{"bike_id":"d2140e8e-fc46-4fb8-a675-866428dbf6bb","system_id":"levelo_inurba_marseille","lat":43.23082,"lon":5.35503,"is_reserved":false,"is_disabled":false,"rental_uris":{"android":"levelo://app?vid=d2140e8e-fc46-4fb8-a675-866428dbf6bb","ios":"levelo://app?vid=d2140e8e-fc46-4fb8-a675-866428dbf6bb"},"vehicle_type_id":"4","last_reported":1742199251,"current_range_meters":7200,"station_id":"cpo3342slgdg3j2ifvpg","pricing_plan_id":"cebpf4jnsgd1na2vs0mg"},{"bike_id":"bd9dbf77-ce61-4400-848c-a25209161ad9","system_id":"levelo_inurba_marseille","lat":43.2796,"lon":5.3868,"is_reserved":false,"is_disabled":false,"rental_uris":{"android":"levelo://app?vid=bd9dbf77-ce61-4400-848c-a25209161ad9","ios":"levelo://app?vid=bd9dbf77-ce61-4400-848c-a25209161ad9"},"vehicle_type_id":"4","last_reported":1742199251,"current_range_meters":7200,"station_id":"ce4bhg12rcd13ifvqf80","pricing_plan_id":"cebpf4jnsgd1na2vs0mg"},{"bike_id":"f4806f6b-90cc-4357-8538-1ba6d4b0b5e4","system_id":"levelo_inurba_marseille","lat":43.23213,"lon":5.35606,"is_reserved":false,"is_disabled":false,"rental_uris":{"android":"levelo://app?vid=f4806f6b-90cc-4357-8538-1ba6d4b0b5e4","ios":"levelo://app?vid=f4806f6b-90cc-4357-8538-1ba6d4b0b5e4"},"vehicle_type_id":"4","last_reported":1742199251,"current_range_meters":8000,"station_id":"ce4bhu92rcd13ifvqi70","pricing_plan_id":"cebpf4jnsgd1na2vs0mg"},{"bike_id":"0a75b9be-4843-49b8-b389-4ce031569179","system_id":"levelo_inurba_marseille","lat":43.27944,"lon":5.40804,"is_reserved":false,"is_disabled":false,"rental_uris":{"android":"levelo://app?vid=0a75b9be-4843-49b8-b389-4ce031569179","ios":"levelo://app?vid=0a75b9be-4843-49b8-b389-4ce031569179"},"vehicle_type_id":"4","last_reported":1742199251,"current_range_meters":8000,"station_id":"","pricing_plan_id":"cebpf4jnsgd1na2vs0mg"},{"bike_id":"ec4c8fc9-399f-4f5a-b345-e19e03d811c3","system_id":"levelo_inurba_marseille","lat":43.27215,"lon":5.41016,"is_reserved":false,"is_disabled":true,"rental_uris":{"android":"levelo://app?vid=ec4c8fc9-399f-4f5a-b345-e19e03d811c3","ios":"levelo://app?vid=ec4c8fc9-399f-4f5a-b345-e19e03d811c3"},"vehicle_type_id":"4","last_reported":1742199251,"current_range_meters":8000,"station_id":"","pricing_plan_id":"cebpf4jnsgd1na2vs0mg"},{"bike_id":"79198dba-1fc9-452a-8c1d-6282c4e29640","system_id":"levelo_inurba_marseille","lat":43.24661,"lon":5.38166,"is_reserved":false,"is_disabled":false,"rental_uris":{"android":"levelo://app?vid=79198dba-1fc9-452a-8c1d-6282c4e29640","ios":"levelo://app?vid=79198dba-1fc9-452a-8c1d-6282c4e29640"},"vehicle_type_id":"4","last_reported":1742199251,"current_range_meters":8000,"station_id":"ce4bhih2rcd13ifvqfr0","pricing_plan_id":"cebpf4jnsgd1na2vs0mg"},{"bike_id":"cfca55c0-fecd-4bcd-8dab-5697f0a3af12","system_id":"levelo_inurba_marseille","lat":43.30463,"lon":5.3791,"is_reserved":false,"is_disabled":false,"rental_uris":{"android":"levelo://app?vid=cfca55c0-fecd-4bcd-8dab-5697f0a3af12","ios":"levelo://app?vid=cfca55c0-fecd-4bcd-8dab-5697f0a3af12"},"vehicle_type_id":"4","last_reported":1742199251,"current_range_meters":8000,"station_id":"ce4bgup2rcd13ifvqcn0","pricing_plan_id":"cebpf4jnsgd1na2vs0mg"},{"bike_id":"63ccaa1b-7302-45e3-82a8-d904a69351b6","system_id":"levelo_inurba_marseille","lat":43.2397,"lon":5.36632,"is_reserved":false,"is_disabled":true,"rental_uris":{"android":"levelo://app?vid=63ccaa1b-7302-45e3-82a8-d904a69351b6","ios":"levelo://app?vid=63ccaa1b-7302-45e3-82a8-d904a69351b6"},"vehicle_type_id":"4","last_reported":1742199251,"current_range_meters":8000,"station_id":"ce4bhi12rcd13ifvqfp0","pricing_plan_id":"cebpf4jnsgd1na2vs0mg"},{"bike_id":"bd35fbdf-85fe-4c70-a6a5-4ec7956393e1","system_id":"levelo_inurba_marseille","lat":43.29034,"lon":5.37575,"is_reserved":false,"is_disabled":false,"rental_uris":{"android":"levelo://app?vid=bd35fbdf-85fe-4c70-a6a5-4ec7956393e1","ios":"levelo://app?vid=bd35fbdf-85fe-4c70-a6a5-4ec7956393e1"},"vehicle_type_id":"4","last_reported":1742199251,"current_range_meters":7200,"station_id":"ce4bh692rcd13ifvqe90","pricing_plan_id":"cebpf4jnsgd1na2vs0mg"},{"bike_id":"66888de8-de96-4cd7-8bb3-3635b97b7b69","system_id":"levelo_inurba_marseille","lat":43.30194,"lon":5.39466,"is_reserved":false,"is_disabled":false,"rental_uris":{"android":"levelo://app?vid=66888de8-de96-4cd7-8bb3-3635b97b7b69","ios":"levelo://app?vid=66888de8-de96-4cd7-8bb3-3635b97b7b69"},"vehicle_type_id":"4","last_reported":1742199251,"current_range_meters":8000,"station_id":"ce4bh0p2rcd13ifvqd70","pricing_plan_id":"cebpf4jnsgd1na2vs0mg"},{"bike_id":"7099c38a-2986-4dc9-9398-307b562f7d30","system_id":"levelo_inurba_marseille","lat":43.25934,"lon":5.40898,"is_reserved":false,"is_disabled":false,"rental_uris":{"android":"levelo://app?vid=7099c38a-2986-4dc9-9398-307b562f7d30","ios":"levelo://app?vid=7099c38a-2986-4dc9-9398-307b562f7d30"},"vehicle_type_id":"4","last_reported":1742199251,"current_range_meters":8000,"station_id":"ce4bhm92rcd13ifvqglg","pricing_plan_id":"cebpf4jnsgd1na2vs0mg"},{"bike_id":"74e2e212-4a8f-4b5f-a338-d6fca90b75d6","system_id":"levelo_inurba_marseille","lat":43.26565,"lon":5.39008,"is_reserved":false,"is_disabled":false,"rental_uris":{"android":"levelo://app?vid=74e2e212-4a8f-4b5f-a338-d6fca90b75d6","ios":"levelo://app?vid=74e2e212-4a8f-4b5f-a338-d6fca90b75d6"},"vehicle_type_id":"4","last_reported":1742199251,"current_range_meters":8000,"station_id":"ce4bhe12rcd13ifvqf30","pricing_plan_id":"cebpf4jnsgd1na2vs0mg"},{"bike_id":"2e93b8fd-3cc5-47fd-be6f-2a7e66fa1616","system_id":"levelo_inurba_marseille","lat":43.26578,"lon":5.3903,"is_reserved":false,"is_disabled":false,"rental_uris":{"android":"levelo://app?vid=2e93b8fd-3cc5-47fd-be6f-2a7e66fa1616","ios":"levelo://app?vid=2e93b8fd-3cc5-47fd-be6f-2a7e66fa1616"},"vehicle_type_id":"4","last_reported":1742199251,"current_range_meters":8000,"station_id":"ce4bhe12rcd13ifvqf30","pricing_plan_id":"cebpf4jnsgd1na2vs0mg"},{"bike_id":"874f949e-a14e-4706-83fc-42c67b36c414","system_id":"levelo_inurba_marseille","lat":43.27206,"lon":5.39184,"is_reserved":false,"is_disabled":false,"rental_uris":{"android":"levelo://app?vid=874f949e-a14e-4706-83fc-42c67b36c414","ios":"levelo://app?vid=874f949e-a14e-4706-83fc-42c67b36c414"},"vehicle_type_id":"4","last_reported":1742199251,"current_range_meters":8000,"station_id":"ce4bhhp2rcd13ifvqfm0","pricing_plan_id":"cebpf4jnsgd1na2vs0mg"},{"bike_id":"259ffcdf-e02f-4aa6-8661-d47427a437c7","system_id":"levelo_inurba_marseille","lat":43.23147,"lon":5.43713,"is_reserved":false,"is_disabled":false,"rental_uris":{"android":"levelo://app?vid=259ffcdf-e02f-4aa6-8661-d47427a437c7","ios":"levelo://app?vid=259ffcdf-e02f-4aa6-8661-d47427a437c7"},"vehicle_type_id":"4","last_reported":1742199251,"current_range_meters":8400,"station_id":"ce4bhmp2rcd13ifvqgog","pricing_plan_id":"cebpf4jnsgd1na2vs0mg"},{"bike_id":"9fa32d52-1a07-4fd4-9a20-66dcec7bf1e9","system_id":"levelo_inurba_marseille","lat":43.30465,"lon":5.37908,"is_reserved":false,"is_disabled":false,"rental_uris":{"android":"levelo://app?vid=9fa32d52-1a07-4fd4-9a20-66dcec7bf1e9","ios":"levelo://app?vid=9fa32d52-1a07-4fd4-9a20-66dcec7bf1e9"},"vehicle_type_id":"4","last_reported":1742199251,"current_range_meters":8400,"station_id":"ce4bgup2rcd13ifvqcn0","pricing_plan_id":"cebpf4jnsgd1na2vs0mg"},{"bike_id":"b881a216-a8e0-47ad-9c6d-ce879391627c","system_id":"levelo_inurba_marseille","lat":43.29927,"lon":5.36563,"is_reserved":false,"is_disabled":true,"rental_uris":{"android":"levelo://app?vid=b881a216-a8e0-47ad-9c6d-ce879391627c","ios":"levelo://app?vid=b881a216-a8e0-47ad-9c6d-ce879391627c"},"vehicle_type_id":"4","last_reported":1742199251,"current_range_meters":8400,"station_id":"ce4bgm92rcd13ifvqbr0","pricing_plan_id":"cebpf4jnsgd1na2vs0mg"},{"bike_id":"607b9e25-1410-4db6-90a4-6ec685303db3","system_id":"levelo_inurba_marseille","lat":43.30539,"lon":5.36554,"is_reserved":false,"is_disabled":false,"rental_uris":{"android":"levelo://app?vid=607b9e25-1410-4db6-90a4-6ec685303db3","ios":"levelo://app?vid=607b9e25-1410-4db6-90a4-6ec685303db3"},"vehicle_type_id":"4","last_reported":1742199251,"current_range_meters":8400,"station_id":"ce4bgs12rcd13ifvqcag","pricing_plan_id":"cebpf4jnsgd1na2vs0mg"},{"bike_id":"b3ed1859-b1aa-4ede-b923-7a0446f5ed42","system_id":"levelo_inurba_marseille","lat":43.2408,"lon":5.37754,"is_reserved":false,"is_disabled":false,"rental_uris":{"android":"levelo://app?vid=b3ed1859-b1aa-4ede-b923-7a0446f5ed42","ios":"levelo://app?vid=b3ed1859-b1aa-4ede-b923-7a0446f5ed42"},"vehicle_type_id":"4","last_reported":1742199251,"current_range_meters":8400,"station_id":"ce4bhnp2rcd13ifvqgvg","pricing_plan_id":"cebpf4jnsgd1na2vs0mg"},{"bike_id":"da4806a2-464e-4697-9443-509a86ec40bf","system_id":"levelo_inurba_marseille","lat":43.267732,"lon":5.383466,"is_reserved":false,"is_disabled":false,"rental_uris":{"android":"levelo://app?vid=da4806a2-464e-4697-9443-509a86ec40bf","ios":"levelo://app?vid=da4806a2-464e-4697-9443-509a86ec40bf"},"vehicle_type_id":"4","last_reported":1742199251,"current_range_meters":8400,"station_id":"ce4bhg92rcd13ifvqf90","pricing_plan_id":"cebpf4jnsgd1na2vs0mg"},{"bike_id":"facf1153-3897-4847-8ce6-44038c0b4b86","system_id":"levelo_inurba_marseille","lat":43.24989,"lon":5.38945,"is_reserved":false,"is_disabled":false,"rental_uris":{"android":"levelo://app?vid=facf1153-3897-4847-8ce6-44038c0b4b86","ios":"levelo://app?vid=facf1153-3897-4847-8ce6-44038c0b4b86"},"vehicle_type_id":"4","last_reported":1742199251,"current_range_meters":8400,"station_id":"ce4bhgp2rcd13ifvqfd0","pricing_plan_id":"cebpf4jnsgd1na2vs0mg"},{"bike_id":"23d4689b-80a0-4957-9106-f572be80fe0e","system_id":"levelo_inurba_marseille","lat":43.27504,"lon":5.42462,"is_reserved":false,"is_disabled":false,"rental_uris":{"android":"levelo://app?vid=23d4689b-80a0-4957-9106-f572be80fe0e","ios":"levelo://app?vid=23d4689b-80a0-4957-9106-f572be80fe0e"},"vehicle_type_id":"4","last_reported":1742199251,"current_range_meters":8400,"station_id":"ce4bhn92rcd13ifvqgrg","pricing_plan_id":"cebpf4jnsgd1na2vs0mg"},{"bike_id":"2e6c3038-6eb8-46ce-bd43-53f0733e5db9","system_id":"levelo_inurba_marseille","lat":43.32118,"lon":5.36781,"is_reserved":false,"is_disabled":false,"rental_uris":{"android":"levelo://app?vid=2e6c3038-6eb8-46ce-bd43-53f0733e5db9","ios":"levelo://app?vid=2e6c3038-6eb8-46ce-bd43-53f0733e5db9"},"vehicle_type_id":"4","last_reported":1742199251,"current_range_meters":8400,"station_id":"ce4bhrh2rcd13ifvqhug","pricing_plan_id":"cebpf4jnsgd1na2vs0mg"},{"bike_id":"158ac11d-51ea-45c5-885b-753b84e974bb","system_id":"levelo_inurba_marseille","lat":43.33782,"lon":5.37436,"is_reserved":false,"is_disabled":false,"rental_uris":{"android":"levelo://app?vid=158ac11d-51ea-45c5-885b-753b84e974bb","ios":"levelo://app?vid=158ac11d-51ea-45c5-885b-753b84e974bb"},"vehicle_type_id":"4","last_reported":1742199251,"current_range_meters":8400,"station_id":"","pricing_plan_id":"cebpf4jnsgd1na2vs0mg"},{"bike_id":"5de05c31-2d52-4ac6-b921-7bd44a789b26","system_id":"levelo_inurba_marseille","lat":43.30548,"lon":5.36539,"is_reserved":false,"is_disabled":false,"rental_uris":{"android":"levelo://app?vid=5de05c31-2d52-4ac6-b921-7bd44a789b26","ios":"levelo://app?vid=5de05c31-2d52-4ac6-b921-7bd44a789b26"},"vehicle_type_id":"4","last_reported":1742199251,"current_range_meters":8400,"station_id":"ce4bgs12rcd13ifvqcag","pricing_plan_id":"cebpf4jnsgd1na2vs0mg"},{"bike_id":"10a5dfbf-3aa3-4cf3-ac17-cd4d12fd6782","system_id":"levelo_inurba_marseille","lat":43.32398,"lon":5.36809,"is_reserved":false,"is_disabled":false,"rental_uris":{"android":"levelo://app?vid=10a5dfbf-3aa3-4cf3-ac17-cd4d12fd6782","ios":"levelo://app?vid=10a5dfbf-3aa3-4cf3-ac17-cd4d12fd6782"},"vehicle_type_id":"4","last_reported":1742199251,"current_range_meters":8400,"station_id":"","pricing_plan_id":"cebpf4jnsgd1na2vs0mg"},{"bike_id":"4a7e2bd4-206f-417a-82b5-94661256b229","system_id":"levelo_inurba_marseille","lat":43.299146,"lon":5.385154,"is_reserved":false,"is_disabled":false,"rental_uris":{"android":"levelo://app?vid=4a7e2bd4-206f-417a-82b5-94661256b229","ios":"levelo://app?vid=4a7e2bd4-206f-417a-82b5-94661256b229"},"vehicle_type_id":"4","last_reported":1742199251,"current_range_meters":8400,"station_id":"ce4bgkp2rcd13ifvqbmg","pricing_plan_id":"cebpf4jnsgd1na2vs0mg"},{"bike_id":"4b1426cb-648f-45df-a095-ae89ed465b04","system_id":"levelo_inurba_marseille","lat":43.25009,"lon":5.38922,"is_reserved":false,"is_disabled":false,"rental_uris":{"android":"levelo://app?vid=4b1426cb-648f-45df-a095-ae89ed465b04","ios":"levelo://app?vid=4b1426cb-648f-45df-a095-ae89ed465b04"},"vehicle_type_id":"4","last_reported":1742199251,"current_range_meters":8400,"station_id":"ce4bhgp2rcd13ifvqfd0","pricing_plan_id":"cebpf4jnsgd1na2vs0mg"},{"bike_id":"d6f33984-2a1d-45ad-b419-93446d1bd8ae","system_id":"levelo_inurba_marseille","lat":43.24646,"lon":5.38889,"is_reserved":false,"is_disabled":false,"rental_uris":{"android":"levelo://app?vid=d6f33984-2a1d-45ad-b419-93446d1bd8ae","ios":"levelo://app?vid=d6f33984-2a1d-45ad-b419-93446d1bd8ae"},"vehicle_type_id":"4","last_reported":1742199251,"current_range_meters":8400,"station_id":"ce4bhg12rcd13ifvqf60","pricing_plan_id":"cebpf4jnsgd1na2vs0mg"},{"bike_id":"a85c462c-5e5b-4449-bcec-6ef578d74a29","system_id":"levelo_inurba_marseille","lat":43.26066,"lon":5.39396,"is_reserved":false,"is_disabled":false,"rental_uris":{"android":"levelo://app?vid=a85c462c-5e5b-4449-bcec-6ef578d74a29","ios":"levelo://app?vid=a85c462c-5e5b-4449-bcec-6ef578d74a29"},"vehicle_type_id":"4","last_reported":1742199251,"current_range_meters":8400,"station_id":"ce4bhh92rcd13ifvqfj0","pricing_plan_id":"cebpf4jnsgd1na2vs0mg"},{"bike_id":"2f97e577-a7f2-47bf-ab29-204992553693","system_id":"levelo_inurba_marseille","lat":43.24089,"lon":5.3775,"is_reserved":false,"is_disabled":false,"rental_uris":{"android":"levelo://app?vid=2f97e577-a7f2-47bf-ab29-204992553693","ios":"levelo://app?vid=2f97e577-a7f2-47bf-ab29-204992553693"},"vehicle_type_id":"4","last_reported":1742199251,"current_range_meters":8400,"station_id":"ce4bhnp2rcd13ifvqgvg","pricing_plan_id":"cebpf4jnsgd1na2vs0mg"},{"bike_id":"49fea2c2-9361-4fb5-954f-b44bbf354e43","system_id":"levelo_inurba_marseille","lat":43.32349,"lon":5.36742,"is_reserved":false,"is_disabled":false,"rental_uris":{"android":"levelo://app?vid=49fea2c2-9361-4fb5-954f-b44bbf354e43","ios":"levelo://app?vid=49fea2c2-9361-4fb5-954f-b44bbf354e43"},"vehicle_type_id":"4","last_reported":1742199251,"current_range_meters":8400,"station_id":"ce4bhsh2rcd13ifvqi2g","pricing_plan_id":"cebpf4jnsgd1na2vs0mg"},{"bike_id":"18f33ae7-3acb-407d-a5a7-4c104a302f2a","system_id":"levelo_inurba_marseille","lat":43.27616,"lon":5.36117,"is_reserved":false,"is_disabled":false,"rental_uris":{"android":"levelo://app?vid=18f33ae7-3acb-407d-a5a7-4c104a302f2a","ios":"levelo://app?vid=18f33ae7-3acb-407d-a5a7-4c104a302f2a"},"vehicle_type_id":"4","last_reported":1742199251,"current_range_meters":8400,"station_id":"ce4bgj92rcd13ifvqbe0","pricing_plan_id":"cebpf4jnsgd1na2vs0mg"},{"bike_id":"41d856e8-014d-42b4-85e9-2a0a980f469f","system_id":"levelo_inurba_marseille","lat":43.23187,"lon":5.35569,"is_reserved":false,"is_disabled":false,"rental_uris":{"android":"levelo://app?vid=41d856e8-014d-42b4-85e9-2a0a980f469f","ios":"levelo://app?vid=41d856e8-014d-42b4-85e9-2a0a980f469f"},"vehicle_type_id":"4","last_reported":1742199251,"current_range_meters":8800,"station_id":"ce4bhu92rcd13ifvqi70","pricing_plan_id":"cebpf4jnsgd1na2vs0mg"},{"bike_id":"d6cd0df4-ca0d-407c-ac60-8420479f0dd1","system_id":"levelo_inurba_marseille","lat":43.23042,"lon":5.35501,"is_reserved":false,"is_disabled":false,"rental_uris":{"android":"levelo://app?vid=d6cd0df4-ca0d-407c-ac60-8420479f0dd1","ios":"levelo://app?vid=d6cd0df4-ca0d-407c-ac60-8420479f0dd1"},"vehicle_type_id":"4","last_reported":1742199251,"current_range_meters":8800,"station_id":"cpo3342slgdg3j2ifvpg","pricing_plan_id":"cebpf4jnsgd1na2vs0mg"},{"bike_id":"c2cbcb9c-b7f4-4fd9-804c-0d53237f1b29","system_id":"levelo_inurba_marseille","lat":43.28487,"lon":5.38414,"is_reserved":false,"is_disabled":false,"rental_uris":{"android":"levelo://app?vid=c2cbcb9c-b7f4-4fd9-804c-0d53237f1b29","ios":"levelo://app?vid=c2cbcb9c-b7f4-4fd9-804c-0d53237f1b29"},"vehicle_type_id":"4","last_reported":1742199251,"current_range_meters":8800,"station_id":"ce4bh512rcd13ifvqe3g","pricing_plan_id":"cebpf4jnsgd1na2vs0mg"},{"bike_id":"8b917344-682e-4a2d-8b66-b59cfd2c13d6","system_id":"levelo_inurba_marseille","lat":43.313467,"lon":5.366934,"is_reserved":false,"is_disabled":false,"rental_uris":{"android":"levelo://app?vid=8b917344-682e-4a2d-8b66-b59cfd2c13d6","ios":"levelo://app?vid=8b917344-682e-4a2d-8b66-b59cfd2c13d6"},"vehicle_type_id":"4","last_reported":1742199251,"current_range_meters":8800,"station_id":"ce4bgr92rcd13ifvqc6g","pricing_plan_id":"cebpf4jnsgd1na2vs0mg"},{"bike_id":"5a61a616-683f-484d-83ae-d7f61143d634","system_id":"levelo_inurba_marseille","lat":43.29512,"lon":5.42486,"is_reserved":false,"is_disabled":false,"rental_uris":{"android":"levelo://app?vid=5a61a616-683f-484d-83ae-d7f61143d634","ios":"levelo://app?vid=5a61a616-683f-484d-83ae-d7f61143d634"},"vehicle_type_id":"4","last_reported":1742199251,"current_range_meters":8800,"station_id":"","pricing_plan_id":"cebpf4jnsgd1na2vs0mg"},{"bike_id":"bce6321c-509e-4dd3-9555-936abbbc3ab2","system_id":"levelo_inurba_marseille","lat":43.269498,"lon":5.386432,"is_reserved":false,"is_disabled":false,"rental_uris":{"android":"levelo://app?vid=bce6321c-509e-4dd3-9555-936abbbc3ab2","ios":"levelo://app?vid=bce6321c-509e-4dd3-9555-936abbbc3ab2"},"vehicle_type_id":"4","last_reported":1742199251,"current_range_meters":8400,"station_id":"ce4bhh92rcd13ifvqfh0","pricing_plan_id":"cebpf4jnsgd1na2vs0mg"},{"bike_id":"7fdaba83-9e71-4d79-962d-8e9bcb4ba61b","system_id":"levelo_inurba_marseille","lat":43.23192,"lon":5.35554,"is_reserved":false,"is_disabled":false,"rental_uris":{"android":"levelo://app?vid=7fdaba83-9e71-4d79-962d-8e9bcb4ba61b","ios":"levelo://app?vid=7fdaba83-9e71-4d79-962d-8e9bcb4ba61b"},"vehicle_type_id":"4","last_reported":1742199251,"current_range_meters":8800,"station_id":"ce4bhu92rcd13ifvqi70","pricing_plan_id":"cebpf4jnsgd1na2vs0mg"},{"bike_id":"502a3b3e-8957-45c1-a4dd-1cb7cf5ee2e2","system_id":"levelo_inurba_marseille","lat":43.321,"lon":5.36783,"is_reserved":false,"is_disabled":false,"rental_uris":{"android":"levelo://app?vid=502a3b3e-8957-45c1-a4dd-1cb7cf5ee2e2","ios":"levelo://app?vid=502a3b3e-8957-45c1-a4dd-1cb7cf5ee2e2"},"vehicle_type_id":"4","last_reported":1742199251,"current_range_meters":8800,"station_id":"ce4bhrh2rcd13ifvqhug","pricing_plan_id":"cebpf4jnsgd1na2vs0mg"},{"bike_id":"659cfc6c-f2ba-4758-b6de-6943e7c2dc48","system_id":"levelo_inurba_marseille","lat":43.28696,"lon":5.37393,"is_reserved":false,"is_disabled":true,"rental_uris":{"android":"levelo://app?vid=659cfc6c-f2ba-4758-b6de-6943e7c2dc48","ios":"levelo://app?vid=659cfc6c-f2ba-4758-b6de-6943e7c2dc48"},"vehicle_type_id":"4","last_reported":1742199251,"current_range_meters":8800,"station_id":"ce4bh3p2rcd13ifvqdq0","pricing_plan_id":"cebpf4jnsgd1na2vs0mg"},{"bike_id":"138ab415-0e42-44b2-93d0-7fced9b6ee9b","system_id":"levelo_inurba_marseille","lat":43.24654,"lon":5.38898,"is_reserved":false,"is_disabled":false,"rental_uris":{"android":"levelo://app?vid=138ab415-0e42-44b2-93d0-7fced9b6ee9b","ios":"levelo://app?vid=138ab415-0e42-44b2-93d0-7fced9b6ee9b"},"vehicle_type_id":"4","last_reported":1742199251,"current_range_meters":8800,"station_id":"ce4bhg12rcd13ifvqf60","pricing_plan_id":"cebpf4jnsgd1na2vs0mg"},{"bike_id":"26e00009-3182-438e-84e5-6edbeee9c331","system_id":"levelo_inurba_marseille","lat":43.2731,"lon":5.3908,"is_reserved":false,"is_disabled":false,"rental_uris":{"android":"levelo://app?vid=26e00009-3182-438e-84e5-6edbeee9c331","ios":"levelo://app?vid=26e00009-3182-438e-84e5-6edbeee9c331"},"vehicle_type_id":"4","last_reported":1742199251,"current_range_meters":8800,"station_id":"ce4bhgp2rcd13ifvqfe0","pricing_plan_id":"cebpf4jnsgd1na2vs0mg"},{"bike_id":"b12504a2-a649-4e69-8759-4dc56a1cd8bd","system_id":"levelo_inurba_marseille","lat":43.27896,"lon":5.38237,"is_reserved":false,"is_disabled":false,"rental_uris":{"android":"levelo://app?vid=b12504a2-a649-4e69-8759-4dc56a1cd8bd","ios":"levelo://app?vid=b12504a2-a649-4e69-8759-4dc56a1cd8bd"},"vehicle_type_id":"4","last_reported":1742199251,"current_range_meters":8800,"station_id":"","pricing_plan_id":"cebpf4jnsgd1na2vs0mg"},{"bike_id":"b60034db-a5de-4145-9a8b-89a445c4f874","system_id":"levelo_inurba_marseille","lat":43.27512,"lon":5.4249,"is_reserved":false,"is_disabled":false,"rental_uris":{"android":"levelo://app?vid=b60034db-a5de-4145-9a8b-89a445c4f874","ios":"levelo://app?vid=b60034db-a5de-4145-9a8b-89a445c4f874"},"vehicle_type_id":"4","last_reported":1742199251,"current_range_meters":8800,"station_id":"ce4bhn92rcd13ifvqgrg","pricing_plan_id":"cebpf4jnsgd1na2vs0mg"},{"bike_id":"61497c5a-8cdf-45ef-9829-88789f903a89","system_id":"levelo_inurba_marseille","lat":43.266797,"lon":5.382714,"is_reserved":false,"is_disabled":false,"rental_uris":{"android":"levelo://app?vid=61497c5a-8cdf-45ef-9829-88789f903a89","ios":"levelo://app?vid=61497c5a-8cdf-45ef-9829-88789f903a89"},"vehicle_type_id":"4","last_reported":1742199251,"current_range_meters":8800,"station_id":"ce4bhh12rcd13ifvqfg0","pricing_plan_id":"cebpf4jnsgd1na2vs0mg"},{"bike_id":"fe084692-c97c-4bc8-8f31-bfe6da77d8df","system_id":"levelo_inurba_marseille","lat":43.30141,"lon":5.38788,"is_reserved":false,"is_disabled":false,"rental_uris":{"android":"levelo://app?vid=fe084692-c97c-4bc8-8f31-bfe6da77d8df","ios":"levelo://app?vid=fe084692-c97c-4bc8-8f31-bfe6da77d8df"},"vehicle_type_id":"4","last_reported":1742199251,"current_range_meters":9200,"station_id":"ce4bghh2rcd13ifvqb60","pricing_plan_id":"cebpf4jnsgd1na2vs0mg"},{"bike_id":"939a1dc3-9f7d-44be-b212-be710211460c","system_id":"levelo_inurba_marseille","lat":43.30135,"lon":5.37427,"is_reserved":false,"is_disabled":false,"rental_uris":{"android":"levelo://app?vid=939a1dc3-9f7d-44be-b212-be710211460c","ios":"levelo://app?vid=939a1dc3-9f7d-44be-b212-be710211460c"},"vehicle_type_id":"4","last_reported":1742199251,"current_range_meters":9200,"station_id":"ce4bgs92rcd13ifvqcc0","pricing_plan_id":"cebpf4jnsgd1na2vs0mg"},{"bike_id":"dbc3c45d-087d-45d6-a547-3bd8f307c18e","system_id":"levelo_inurba_marseille","lat":43.276678,"lon":5.389102,"is_reserved":false,"is_disabled":false,"rental_uris":{"android":"levelo://app?vid=dbc3c45d-087d-45d6-a547-3bd8f307c18e","ios":"levelo://app?vid=dbc3c45d-087d-45d6-a547-3bd8f307c18e"},"vehicle_type_id":"4","last_reported":1742199251,"current_range_meters":9200,"station_id":"ce4bhi12rcd13ifvqfo0","pricing_plan_id":"cebpf4jnsgd1na2vs0mg"},{"bike_id":"d197fb03-ac58-430a-bf24-8ccc577a3428","system_id":"levelo_inurba_marseille","lat":43.29055,"lon":5.39988,"is_reserved":false,"is_disabled":false,"rental_uris":{"android":"levelo://app?vid=d197fb03-ac58-430a-bf24-8ccc577a3428","ios":"levelo://app?vid=d197fb03-ac58-430a-bf24-8ccc577a3428"},"vehicle_type_id":"4","last_reported":1742199251,"current_range_meters":9200,"station_id":"ce4bh392rcd13ifvqdm0","pricing_plan_id":"cebpf4jnsgd1na2vs0mg"},{"bike_id":"c551f2e0-5f8e-4cc9-9464-06b9d0710638","system_id":"levelo_inurba_marseille","lat":43.23147,"lon":5.43708,"is_reserved":false,"is_disabled":false,"rental_uris":{"android":"levelo://app?vid=c551f2e0-5f8e-4cc9-9464-06b9d0710638","ios":"levelo://app?vid=c551f2e0-5f8e-4cc9-9464-06b9d0710638"},"vehicle_type_id":"4","last_reported":1742199251,"current_range_meters":9200,"station_id":"ce4bhmp2rcd13ifvqgog","pricing_plan_id":"cebpf4jnsgd1na2vs0mg"},{"bike_id":"ce157c99-2b38-44c1-b6a5-db708ae225d5","system_id":"levelo_inurba_marseille","lat":43.2408,"lon":5.37753,"is_reserved":false,"is_disabled":false,"rental_uris":{"android":"levelo://app?vid=ce157c99-2b38-44c1-b6a5-db708ae225d5","ios":"levelo://app?vid=ce157c99-2b38-44c1-b6a5-db708ae225d5"},"vehicle_type_id":"4","last_reported":1742199251,"current_range_meters":9200,"station_id":"ce4bhnp2rcd13ifvqgvg","pricing_plan_id":"cebpf4jnsgd1na2vs0mg"},{"bike_id":"7a55bcc3-3e21-44f3-bcad-c99937c554b4","system_id":"levelo_inurba_marseille","lat":43.30134,"lon":5.3742,"is_reserved":false,"is_disabled":false,"rental_uris":{"android":"levelo://app?vid=7a55bcc3-3e21-44f3-bcad-c99937c554b4","ios":"levelo://app?vid=7a55bcc3-3e21-44f3-bcad-c99937c554b4"},"vehicle_type_id":"4","last_reported":1742199251,"current_range_meters":9200,"station_id":"ce4bgs92rcd13ifvqcc0","pricing_plan_id":"cebpf4jnsgd1na2vs0mg"},{"bike_id":"ea3faa2e-2727-4cd3-a354-57574da4893b","system_id":"levelo_inurba_marseille","lat":43.24165,"lon":5.36411,"is_reserved":false,"is_disabled":false,"rental_uris":{"android":"levelo://app?vid=ea3faa2e-2727-4cd3-a354-57574da4893b","ios":"levelo://app?vid=ea3faa2e-2727-4cd3-a354-57574da4893b"},"vehicle_type_id":"4","last_reported":1742199251,"current_range_meters":9200,"station_id":"cpo36qri1sfpv3e86is0","pricing_plan_id":"cebpf4jnsgd1na2vs0mg"},{"bike_id":"e789255e-840e-4e9d-926a-462347b0eff9","system_id":"levelo_inurba_marseille","lat":43.287048,"lon":5.399893,"is_reserved":false,"is_disabled":false,"rental_uris":{"android":"levelo://app?vid=e789255e-840e-4e9d-926a-462347b0eff9","ios":"levelo://app?vid=e789255e-840e-4e9d-926a-462347b0eff9"},"vehicle_type_id":"4","last_reported":1742199251,"current_range_meters":9600,"station_id":"ce4bho92rcd13ifvqh3g","pricing_plan_id":"cebpf4jnsgd1na2vs0mg"},{"bike_id":"6a142925-9df5-4e4b-8f5f-fc63dd5217b5","system_id":"levelo_inurba_marseille","lat":43.29203,"lon":5.39323,"is_reserved":false,"is_disabled":false,"rental_uris":{"android":"levelo://app?vid=6a142925-9df5-4e4b-8f5f-fc63dd5217b5","ios":"levelo://app?vid=6a142925-9df5-4e4b-8f5f-fc63dd5217b5"},"vehicle_type_id":"4","last_reported":1742199251,"current_range_meters":9600,"station_id":"ce4bh192rcd13ifvqdd0","pricing_plan_id":"cebpf4jnsgd1na2vs0mg"},{"bike_id":"e780d8bb-7fae-442e-90ed-61bbb93fc0ee","system_id":"levelo_inurba_marseille","lat":43.26217,"lon":5.37442,"is_reserved":false,"is_disabled":false,"rental_uris":{"android":"levelo://app?vid=e780d8bb-7fae-442e-90ed-61bbb93fc0ee","ios":"levelo://app?vid=e780d8bb-7fae-442e-90ed-61bbb93fc0ee"},"vehicle_type_id":"4","last_reported":1742199251,"current_range_meters":9600,"station_id":"ce4bhgp2rcd13ifvqfc0","pricing_plan_id":"cebpf4jnsgd1na2vs0mg"},{"bike_id":"eb9eafbf-18d1-4f66-b457-7c8dee269ad7","system_id":"levelo_inurba_marseille","lat":43.27634,"lon":5.36108,"is_reserved":false,"is_disabled":false,"rental_uris":{"android":"levelo://app?vid=eb9eafbf-18d1-4f66-b457-7c8dee269ad7","ios":"levelo://app?vid=eb9eafbf-18d1-4f66-b457-7c8dee269ad7"},"vehicle_type_id":"4","last_reported":1742199251,"current_range_meters":9600,"station_id":"ce4bgj92rcd13ifvqbe0","pricing_plan_id":"cebpf4jnsgd1na2vs0mg"},{"bike_id":"86b01c98-f8c5-4a21-b6ed-052e3afafd7f","system_id":"levelo_inurba_marseille","lat":43.30544,"lon":5.36714,"is_reserved":false,"is_disabled":false,"rental_uris":{"android":"levelo://app?vid=86b01c98-f8c5-4a21-b6ed-052e3afafd7f","ios":"levelo://app?vid=86b01c98-f8c5-4a21-b6ed-052e3afafd7f"},"vehicle_type_id":"4","last_reported":1742199251,"current_range_meters":9600,"station_id":"ce4bgrp2rcd13ifvqc9g","pricing_plan_id":"cebpf4jnsgd1na2vs0mg"},{"bike_id":"ad85b417-eae8-4211-9daa-e6a455b825e7","system_id":"levelo_inurba_marseille","lat":43.31228,"lon":5.36862,"is_reserved":false,"is_disabled":false,"rental_uris":{"android":"levelo://app?vid=ad85b417-eae8-4211-9daa-e6a455b825e7","ios":"levelo://app?vid=ad85b417-eae8-4211-9daa-e6a455b825e7"},"vehicle_type_id":"4","last_reported":1742199251,"current_range_meters":9600,"station_id":"ce4bgl92rcd13ifvqbq0","pricing_plan_id":"cebpf4jnsgd1na2vs0mg"},{"bike_id":"b585c7b3-0e88-4199-a41d-35cfa8edc2fb","system_id":"levelo_inurba_marseille","lat":43.2619,"lon":5.37927,"is_reserved":false,"is_disabled":false,"rental_uris":{"android":"levelo://app?vid=b585c7b3-0e88-4199-a41d-35cfa8edc2fb","ios":"levelo://app?vid=b585c7b3-0e88-4199-a41d-35cfa8edc2fb"},"vehicle_type_id":"4","last_reported":1742199251,"current_range_meters":9600,"station_id":"ce4bhjp2rcd13ifvqg90","pricing_plan_id":"cebpf4jnsgd1na2vs0mg"},{"bike_id":"dd98f38e-cdd6-4a77-a161-2adc7415e16c","system_id":"levelo_inurba_marseille","lat":43.2829,"lon":5.43127,"is_reserved":false,"is_disabled":true,"rental_uris":{"android":"levelo://app?vid=dd98f38e-cdd6-4a77-a161-2adc7415e16c","ios":"levelo://app?vid=dd98f38e-cdd6-4a77-a161-2adc7415e16c"},"vehicle_type_id":"4","last_reported":1742199251,"current_range_meters":9600,"station_id":"","pricing_plan_id":"cebpf4jnsgd1na2vs0mg"},{"bike_id":"a03e208e-94c1-4a5f-9d61-9150c74ebe8c","system_id":"levelo_inurba_marseille","lat":43.32353,"lon":5.36766,"is_reserved":false,"is_disabled":false,"rental_uris":{"android":"levelo://app?vid=a03e208e-94c1-4a5f-9d61-9150c74ebe8c","ios":"levelo://app?vid=a03e208e-94c1-4a5f-9d61-9150c74ebe8c"},"vehicle_type_id":"4","last_reported":1742199251,"current_range_meters":9600,"station_id":"ce4bhsh2rcd13ifvqi2g","pricing_plan_id":"cebpf4jnsgd1na2vs0mg"},{"bike_id":"a0226cb6-2cfc-439f-8908-87824371f5c4","system_id":"levelo_inurba_marseille","lat":43.270897,"lon":5.423,"is_reserved":false,"is_disabled":false,"rental_uris":{"android":"levelo://app?vid=a0226cb6-2cfc-439f-8908-87824371f5c4","ios":"levelo://app?vid=a0226cb6-2cfc-439f-8908-87824371f5c4"},"vehicle_type_id":"4","last_reported":1742199251,"current_range_meters":9600,"station_id":"ce4bhk92rcd13ifvqgb0","pricing_plan_id":"cebpf4jnsgd1na2vs0mg"},{"bike_id":"5189287a-880a-46a1-bc5e-d4c1d9f06a31","system_id":"levelo_inurba_marseille","lat":43.24065,"lon":5.37746,"is_reserved":false,"is_disabled":false,"rental_uris":{"android":"levelo://app?vid=5189287a-880a-46a1-bc5e-d4c1d9f06a31","ios":"levelo://app?vid=5189287a-880a-46a1-bc5e-d4c1d9f06a31"},"vehicle_type_id":"4","last_reported":1742199251,"current_range_meters":9600,"station_id":"ce4bhnp2rcd13ifvqgvg","pricing_plan_id":"cebpf4jnsgd1na2vs0mg"},{"bike_id":"e39aff96-0142-46d0-807b-703830dfcf78","system_id":"levelo_inurba_marseille","lat":43.286136,"lon":5.35108,"is_reserved":false,"is_disabled":true,"rental_uris":{"android":"levelo://app?vid=e39aff96-0142-46d0-807b-703830dfcf78","ios":"levelo://app?vid=e39aff96-0142-46d0-807b-703830dfcf78"},"vehicle_type_id":"4","last_reported":1742199251,"current_range_meters":9600,"station_id":"","pricing_plan_id":"cebpf4jnsgd1na2vs0mg"},{"bike_id":"db819791-27c1-48de-91ad-79208088cf91","system_id":"levelo_inurba_marseille","lat":43.23197,"lon":5.39987,"is_reserved":false,"is_disabled":false,"rental_uris":{"android":"levelo://app?vid=db819791-27c1-48de-91ad-79208088cf91","ios":"levelo://app?vid=db819791-27c1-48de-91ad-79208088cf91"},"vehicle_type_id":"4","last_reported":1742199251,"current_range_meters":9600,"station_id":"ce4bhn12rcd13ifvqgqg","pricing_plan_id":"cebpf4jnsgd1na2vs0mg"},{"bike_id":"dba0ecfc-0bb7-4670-ab8e-e4c122a8d90e","system_id":"levelo_inurba_marseille","lat":43.27659,"lon":5.4249,"is_reserved":false,"is_disabled":false,"rental_uris":{"android":"levelo://app?vid=dba0ecfc-0bb7-4670-ab8e-e4c122a8d90e","ios":"levelo://app?vid=dba0ecfc-0bb7-4670-ab8e-e4c122a8d90e"},"vehicle_type_id":"4","last_reported":1742199251,"current_range_meters":9600,"station_id":"","pricing_plan_id":"cebpf4jnsgd1na2vs0mg"},{"bike_id":"daa64a4c-e75c-4c33-be8d-5dbfe196e948","system_id":"levelo_inurba_marseille","lat":43.25941,"lon":5.40901,"is_reserved":false,"is_disabled":false,"rental_uris":{"android":"levelo://app?vid=daa64a4c-e75c-4c33-be8d-5dbfe196e948","ios":"levelo://app?vid=daa64a4c-e75c-4c33-be8d-5dbfe196e948"},"vehicle_type_id":"4","last_reported":1742199251,"current_range_meters":10000,"station_id":"ce4bhm92rcd13ifvqglg","pricing_plan_id":"cebpf4jnsgd1na2vs0mg"},{"bike_id":"0dba11c1-db3c-4349-bd60-4c1ec38c51b3","system_id":"levelo_inurba_marseille","lat":43.23197,"lon":5.35558,"is_reserved":false,"is_disabled":false,"rental_uris":{"android":"levelo://app?vid=0dba11c1-db3c-4349-bd60-4c1ec38c51b3","ios":"levelo://app?vid=0dba11c1-db3c-4349-bd60-4c1ec38c51b3"},"vehicle_type_id":"4","last_reported":1742199251,"current_range_meters":10000,"station_id":"ce4bhu92rcd13ifvqi70","pricing_plan_id":"cebpf4jnsgd1na2vs0mg"},{"bike_id":"024afde3-4c7e-4c72-9b6e-ff99a57526a9","system_id":"levelo_inurba_marseille","lat":43.23052,"lon":5.355,"is_reserved":false,"is_disabled":false,"rental_uris":{"android":"levelo://app?vid=024afde3-4c7e-4c72-9b6e-ff99a57526a9","ios":"levelo://app?vid=024afde3-4c7e-4c72-9b6e-ff99a57526a9"},"vehicle_type_id":"4","last_reported":1742199251,"current_range_meters":10000,"station_id":"cpo3342slgdg3j2ifvpg","pricing_plan_id":"cebpf4jnsgd1na2vs0mg"},{"bike_id":"5a4a7d35-0ef8-41e9-9195-6b8c171d9e40","system_id":"levelo_inurba_marseille","lat":43.25935,"lon":5.40889,"is_reserved":false,"is_disabled":false,"rental_uris":{"android":"levelo://app?vid=5a4a7d35-0ef8-41e9-9195-6b8c171d9e40","ios":"levelo://app?vid=5a4a7d35-0ef8-41e9-9195-6b8c171d9e40"},"vehicle_type_id":"4","last_reported":1742199251,"current_range_meters":10000,"station_id":"ce4bhm92rcd13ifvqglg","pricing_plan_id":"cebpf4jnsgd1na2vs0mg"},{"bike_id":"2388811e-3704-4759-bcaa-c92697e1751b","system_id":"levelo_inurba_marseille","lat":43.2407,"lon":5.3776,"is_reserved":false,"is_disabled":false,"rental_uris":{"android":"levelo://app?vid=2388811e-3704-4759-bcaa-c92697e1751b","ios":"levelo://app?vid=2388811e-3704-4759-bcaa-c92697e1751b"},"vehicle_type_id":"4","last_reported":1742199251,"current_range_meters":10000,"station_id":"ce4bhnp2rcd13ifvqgvg","pricing_plan_id":"cebpf4jnsgd1na2vs0mg"},{"bike_id":"f6ea2adf-076d-4022-9ca9-c0c59511cfd5","system_id":"levelo_inurba_marseille","lat":43.23192,"lon":5.35565,"is_reserved":false,"is_disabled":false,"rental_uris":{"android":"levelo://app?vid=f6ea2adf-076d-4022-9ca9-c0c59511cfd5","ios":"levelo://app?vid=f6ea2adf-076d-4022-9ca9-c0c59511cfd5"},"vehicle_type_id":"4","last_reported":1742199251,"current_range_meters":10000,"station_id":"ce4bhu92rcd13ifvqi70","pricing_plan_id":"cebpf4jnsgd1na2vs0mg"},{"bike_id":"13e278b3-c9cb-4550-ad8b-8b4c511558ae","system_id":"levelo_inurba_marseille","lat":43.27467,"lon":5.40887,"is_reserved":false,"is_disabled":false,"rental_uris":{"android":"levelo://app?vid=13e278b3-c9cb-4550-ad8b-8b4c511558ae","ios":"levelo://app?vid=13e278b3-c9cb-4550-ad8b-8b4c511558ae"},"vehicle_type_id":"4","last_reported":1742199251,"current_range_meters":10000,"station_id":"","pricing_plan_id":"cebpf4jnsgd1na2vs0mg"},{"bike_id":"88f8c158-df29-4c54-bb3c-d193c05cdb8b","system_id":"levelo_inurba_marseille","lat":43.31349,"lon":5.36725,"is_reserved":false,"is_disabled":false,"rental_uris":{"android":"levelo://app?vid=88f8c158-df29-4c54-bb3c-d193c05cdb8b","ios":"levelo://app?vid=88f8c158-df29-4c54-bb3c-d193c05cdb8b"},"vehicle_type_id":"4","last_reported":1742199251,"current_range_meters":10000,"station_id":"ce4bgr92rcd13ifvqc6g","pricing_plan_id":"cebpf4jnsgd1na2vs0mg"},{"bike_id":"56bf2e5f-7ec5-4839-81d4-dd8b7d9c4908","system_id":"levelo_inurba_marseille","lat":43.29555,"lon":5.4229,"is_reserved":false,"is_disabled":false,"rental_uris":{"android":"levelo://app?vid=56bf2e5f-7ec5-4839-81d4-dd8b7d9c4908","ios":"levelo://app?vid=56bf2e5f-7ec5-4839-81d4-dd8b7d9c4908"},"vehicle_type_id":"4","last_reported":1742199251,"current_range_meters":10000,"station_id":"ce4bhph2rcd13ifvqhdg","pricing_plan_id":"cebpf4jnsgd1na2vs0mg"},{"bike_id":"b4fb35ba-eaae-45a3-86ea-f938cfc35f60","system_id":"levelo_inurba_marseille","lat":43.2594,"lon":5.409,"is_reserved":false,"is_disabled":false,"rental_uris":{"android":"levelo://app?vid=b4fb35ba-eaae-45a3-86ea-f938cfc35f60","ios":"levelo://app?vid=b4fb35ba-eaae-45a3-86ea-f938cfc35f60"},"vehicle_type_id":"4","last_reported":1742199251,"current_range_meters":10000,"station_id":"ce4bhm92rcd13ifvqglg","pricing_plan_id":"cebpf4jnsgd1na2vs0mg"},{"bike_id":"c8ba958c-bebb-41b9-abb3-6b02e2a001c7","system_id":"levelo_inurba_marseille","lat":43.25933,"lon":5.40884,"is_reserved":false,"is_disabled":false,"rental_uris":{"android":"levelo://app?vid=c8ba958c-bebb-41b9-abb3-6b02e2a001c7","ios":"levelo://app?vid=c8ba958c-bebb-41b9-abb3-6b02e2a001c7"},"vehicle_type_id":"4","last_reported":1742199251,"current_range_meters":10000,"station_id":"ce4bhm92rcd13ifvqglg","pricing_plan_id":"cebpf4jnsgd1na2vs0mg"},{"bike_id":"24dd4337-618b-4771-83f7-03578c7756e5","system_id":"levelo_inurba_marseille","lat":43.29724,"lon":5.37699,"is_reserved":false,"is_disabled":true,"rental_uris":{"android":"levelo://app?vid=24dd4337-618b-4771-83f7-03578c7756e5","ios":"levelo://app?vid=24dd4337-618b-4771-83f7-03578c7756e5"},"vehicle_type_id":"4","last_reported":1742199251,"current_range_meters":10000,"station_id":"ce4bgkh2rcd13ifvqbl0","pricing_plan_id":"cebpf4jnsgd1na2vs0mg"},{"bike_id":"15114da5-30fb-4fb1-9632-866a9f4be863","system_id":"levelo_inurba_marseille","lat":43.29652,"lon":5.36535,"is_reserved":false,"is_disabled":true,"rental_uris":{"android":"levelo://app?vid=15114da5-30fb-4fb1-9632-866a9f4be863","ios":"levelo://app?vid=15114da5-30fb-4fb1-9632-866a9f4be863"},"vehicle_type_id":"4","last_reported":1742199251,"current_range_meters":10000,"station_id":"","pricing_plan_id":"cebpf4jnsgd1na2vs0mg"},{"bike_id":"19452eed-d82c-486d-9e09-02ab2b36db5b","system_id":"levelo_inurba_marseille","lat":43.292457,"lon":5.409153,"is_reserved":false,"is_disabled":false,"rental_uris":{"android":"levelo://app?vid=19452eed-d82c-486d-9e09-02ab2b36db5b","ios":"levelo://app?vid=19452eed-d82c-486d-9e09-02ab2b36db5b"},"vehicle_type_id":"4","last_reported":1742199251,"current_range_meters":10800,"station_id":"ce4bh192rcd13ifvqdc0","pricing_plan_id":"cebpf4jnsgd1na2vs0mg"},{"bike_id":"a80b708e-9960-477b-bb7d-a21f3fdfea6d","system_id":"levelo_inurba_marseille","lat":43.2318,"lon":5.39992,"is_reserved":false,"is_disabled":false,"rental_uris":{"android":"levelo://app?vid=a80b708e-9960-477b-bb7d-a21f3fdfea6d","ios":"levelo://app?vid=a80b708e-9960-477b-bb7d-a21f3fdfea6d"},"vehicle_type_id":"4","last_reported":1742199251,"current_range_meters":10800,"station_id":"ce4bhn12rcd13ifvqgqg","pricing_plan_id":"cebpf4jnsgd1na2vs0mg"},{"bike_id":"2f42e19e-22f1-4965-ad6e-662af5324e76","system_id":"levelo_inurba_marseille","lat":43.231921,"lon":5.35553,"is_reserved":false,"is_disabled":false,"rental_uris":{"android":"levelo://app?vid=2f42e19e-22f1-4965-ad6e-662af5324e76","ios":"levelo://app?vid=2f42e19e-22f1-4965-ad6e-662af5324e76"},"vehicle_type_id":"4","last_reported":1742199251,"current_range_meters":10800,"station_id":"ce4bhu92rcd13ifvqi70","pricing_plan_id":"cebpf4jnsgd1na2vs0mg"},{"bike_id":"840483eb-dec7-490f-b669-ee3773ac063c","system_id":"levelo_inurba_marseille","lat":43.2928,"lon":5.36845,"is_reserved":false,"is_disabled":true,"rental_uris":{"android":"levelo://app?vid=840483eb-dec7-490f-b669-ee3773ac063c","ios":"levelo://app?vid=840483eb-dec7-490f-b669-ee3773ac063c"},"vehicle_type_id":"4","last_reported":1742199251,"current_range_meters":10800,"station_id":"ce4bhbp2rcd13ifvqesg","pricing_plan_id":"cebpf4jnsgd1na2vs0mg"},{"bike_id":"acae015a-47e9-488b-96c7-da5370995513","system_id":"levelo_inurba_marseille","lat":43.23202,"lon":5.35562,"is_reserved":false,"is_disabled":false,"rental_uris":{"android":"levelo://app?vid=acae015a-47e9-488b-96c7-da5370995513","ios":"levelo://app?vid=acae015a-47e9-488b-96c7-da5370995513"},"vehicle_type_id":"4","last_reported":1742199251,"current_range_meters":10800,"station_id":"ce4bhu92rcd13ifvqi70","pricing_plan_id":"cebpf4jnsgd1na2vs0mg"},{"bike_id":"ca40f8d9-4c74-45e9-8112-b26b76ca6ffe","system_id":"levelo_inurba_marseille","lat":43.28686,"lon":5.37388,"is_reserved":false,"is_disabled":true,"rental_uris":{"android":"levelo://app?vid=ca40f8d9-4c74-45e9-8112-b26b76ca6ffe","ios":"levelo://app?vid=ca40f8d9-4c74-45e9-8112-b26b76ca6ffe"},"vehicle_type_id":"4","last_reported":1742199251,"current_range_meters":10800,"station_id":"ce4bh3p2rcd13ifvqdq0","pricing_plan_id":"cebpf4jnsgd1na2vs0mg"},{"bike_id":"8582a594-232f-4ecd-9ce1-980b2fb12fee","system_id":"levelo_inurba_marseille","lat":43.29555,"lon":5.42288,"is_reserved":false,"is_disabled":false,"rental_uris":{"android":"levelo://app?vid=8582a594-232f-4ecd-9ce1-980b2fb12fee","ios":"levelo://app?vid=8582a594-232f-4ecd-9ce1-980b2fb12fee"},"vehicle_type_id":"4","last_reported":1742199251,"current_range_meters":10800,"station_id":"ce4bhph2rcd13ifvqhdg","pricing_plan_id":"cebpf4jnsgd1na2vs0mg"},{"bike_id":"c6bdd7d1-5628-4b29-8823-7a6ba82962b1","system_id":"levelo_inurba_marseille","lat":43.30957,"lon":5.39033,"is_reserved":false,"is_disabled":true,"rental_uris":{"android":"levelo://app?vid=c6bdd7d1-5628-4b29-8823-7a6ba82962b1","ios":"levelo://app?vid=c6bdd7d1-5628-4b29-8823-7a6ba82962b1"},"vehicle_type_id":"4","last_reported":1742199251,"current_range_meters":10800,"station_id":"ce4bgup2rcd13ifvqco0","pricing_plan_id":"cebpf4jnsgd1na2vs0mg"},{"bike_id":"dc92cd49-8dd7-4674-bb8c-239caa4558a3","system_id":"levelo_inurba_marseille","lat":43.29725,"lon":5.37684,"is_reserved":false,"is_disabled":false,"rental_uris":{"android":"levelo://app?vid=dc92cd49-8dd7-4674-bb8c-239caa4558a3","ios":"levelo://app?vid=dc92cd49-8dd7-4674-bb8c-239caa4558a3"},"vehicle_type_id":"4","last_reported":1742199251,"current_range_meters":10800,"station_id":"ce4bgkh2rcd13ifvqbl0","pricing_plan_id":"cebpf4jnsgd1na2vs0mg"},{"bike_id":"ebba8650-e91a-4c7a-8436-52f630978d2c","system_id":"levelo_inurba_marseille","lat":43.26935,"lon":5.38644,"is_reserved":false,"is_disabled":false,"rental_uris":{"android":"levelo://app?vid=ebba8650-e91a-4c7a-8436-52f630978d2c","ios":"levelo://app?vid=ebba8650-e91a-4c7a-8436-52f630978d2c"},"vehicle_type_id":"4","last_reported":1742199251,"current_range_meters":10800,"station_id":"ce4bhh92rcd13ifvqfh0","pricing_plan_id":"cebpf4jnsgd1na2vs0mg"},{"bike_id":"a4e011c7-6f19-4681-84ea-4262f143037e","system_id":"levelo_inurba_marseille","lat":43.32361,"lon":5.36751,"is_reserved":false,"is_disabled":false,"rental_uris":{"android":"levelo://app?vid=a4e011c7-6f19-4681-84ea-4262f143037e","ios":"levelo://app?vid=a4e011c7-6f19-4681-84ea-4262f143037e"},"vehicle_type_id":"4","last_reported":1742199251,"current_range_meters":10800,"station_id":"ce4bhsh2rcd13ifvqi2g","pricing_plan_id":"cebpf4jnsgd1na2vs0mg"},{"bike_id":"ebff8e30-17dc-4455-8709-c63d79abf44d","system_id":"levelo_inurba_marseille","lat":43.31383,"lon":5.3672,"is_reserved":false,"is_disabled":false,"rental_uris":{"android":"levelo://app?vid=ebff8e30-17dc-4455-8709-c63d79abf44d","ios":"levelo://app?vid=ebff8e30-17dc-4455-8709-c63d79abf44d"},"vehicle_type_id":"4","last_reported":1742199251,"current_range_meters":10800,"station_id":"ce4bgr92rcd13ifvqc6g","pricing_plan_id":"cebpf4jnsgd1na2vs0mg"},{"bike_id":"02f851a7-faeb-48ff-b4b8-89131a62e00f","system_id":"levelo_inurba_marseille","lat":43.28477,"lon":5.38429,"is_reserved":false,"is_disabled":false,"rental_uris":{"android":"levelo://app?vid=02f851a7-faeb-48ff-b4b8-89131a62e00f","ios":"levelo://app?vid=02f851a7-faeb-48ff-b4b8-89131a62e00f"},"vehicle_type_id":"4","last_reported":1742199251,"current_range_meters":11200,"station_id":"ce4bh512rcd13ifvqe3g","pricing_plan_id":"cebpf4jnsgd1na2vs0mg"},{"bike_id":"a8d94902-ad1d-4db3-b5d1-d14b43f0fb59","system_id":"levelo_inurba_marseille","lat":43.30944,"lon":5.39025,"is_reserved":false,"is_disabled":false,"rental_uris":{"android":"levelo://app?vid=a8d94902-ad1d-4db3-b5d1-d14b43f0fb59","ios":"levelo://app?vid=a8d94902-ad1d-4db3-b5d1-d14b43f0fb59"},"vehicle_type_id":"4","last_reported":1742199251,"current_range_meters":11200,"station_id":"ce4bgup2rcd13ifvqco0","pricing_plan_id":"cebpf4jnsgd1na2vs0mg"},{"bike_id":"20c5e275-c004-4fea-84eb-5e6a013c0e40","system_id":"levelo_inurba_marseille","lat":43.30015,"lon":5.3727,"is_reserved":false,"is_disabled":true,"rental_uris":{"android":"levelo://app?vid=20c5e275-c004-4fea-84eb-5e6a013c0e40","ios":"levelo://app?vid=20c5e275-c004-4fea-84eb-5e6a013c0e40"},"vehicle_type_id":"4","last_reported":1742199251,"current_range_meters":11200,"station_id":"ce4bgr92rcd13ifvqc7g","pricing_plan_id":"cebpf4jnsgd1na2vs0mg"},{"bike_id":"aab95aeb-f5d4-4bef-bcdc-d835ba6c3583","system_id":"levelo_inurba_marseille","lat":43.23069,"lon":5.3552,"is_reserved":false,"is_disabled":false,"rental_uris":{"android":"levelo://app?vid=aab95aeb-f5d4-4bef-bcdc-d835ba6c3583","ios":"levelo://app?vid=aab95aeb-f5d4-4bef-bcdc-d835ba6c3583"},"vehicle_type_id":"4","last_reported":1742199251,"current_range_meters":11600,"station_id":"cpo3342slgdg3j2ifvpg","pricing_plan_id":"cebpf4jnsgd1na2vs0mg"},{"bike_id":"cc539c1f-b440-45b0-86ec-c2054cf3a800","system_id":"levelo_inurba_marseille","lat":43.24049,"lon":5.37747,"is_reserved":false,"is_disabled":false,"rental_uris":{"android":"levelo://app?vid=cc539c1f-b440-45b0-86ec-c2054cf3a800","ios":"levelo://app?vid=cc539c1f-b440-45b0-86ec-c2054cf3a800"},"vehicle_type_id":"4","last_reported":1742199251,"current_range_meters":11600,"station_id":"ce4bhnp2rcd13ifvqgvg","pricing_plan_id":"cebpf4jnsgd1na2vs0mg"},{"bike_id":"0c8237b6-b887-4fb3-8bfc-d84cb8935c7a","system_id":"levelo_inurba_marseille","lat":43.2816,"lon":5.42628,"is_reserved":false,"is_disabled":false,"rental_uris":{"android":"levelo://app?vid=0c8237b6-b887-4fb3-8bfc-d84cb8935c7a","ios":"levelo://app?vid=0c8237b6-b887-4fb3-8bfc-d84cb8935c7a"},"vehicle_type_id":"4","last_reported":1742199251,"current_range_meters":11600,"station_id":"ce4bhnh2rcd13ifvqgug","pricing_plan_id":"cebpf4jnsgd1na2vs0mg"},{"bike_id":"882ffc5d-3d7c-4533-805d-8739914a99fb","system_id":"levelo_inurba_marseille","lat":43.33602,"lon":5.41026,"is_reserved":false,"is_disabled":false,"rental_uris":{"android":"levelo://app?vid=882ffc5d-3d7c-4533-805d-8739914a99fb","ios":"levelo://app?vid=882ffc5d-3d7c-4533-805d-8739914a99fb"},"vehicle_type_id":"4","last_reported":1742199251,"current_range_meters":11600,"station_id":"ce4bhqh2rcd13ifvqhmg","pricing_plan_id":"cebpf4jnsgd1na2vs0mg"},{"bike_id":"15635ff2-75c0-4ddb-8788-29d93a5198ba","system_id":"levelo_inurba_marseille","lat":43.30329,"lon":5.40432,"is_reserved":false,"is_disabled":false,"rental_uris":{"android":"levelo://app?vid=15635ff2-75c0-4ddb-8788-29d93a5198ba","ios":"levelo://app?vid=15635ff2-75c0-4ddb-8788-29d93a5198ba"},"vehicle_type_id":"4","last_reported":1742199251,"current_range_meters":11600,"station_id":"ce4bh012rcd13ifvqd10","pricing_plan_id":"cebpf4jnsgd1na2vs0mg"},{"bike_id":"cd88cc99-a578-4f6a-93db-eacc85ece484","system_id":"levelo_inurba_marseille","lat":43.26052,"lon":5.39392,"is_reserved":false,"is_disabled":false,"rental_uris":{"android":"levelo://app?vid=cd88cc99-a578-4f6a-93db-eacc85ece484","ios":"levelo://app?vid=cd88cc99-a578-4f6a-93db-eacc85ece484"},"vehicle_type_id":"4","last_reported":1742199251,"current_range_meters":11600,"station_id":"ce4bhh92rcd13ifvqfj0","pricing_plan_id":"cebpf4jnsgd1na2vs0mg"},{"bike_id":"b7136dc7-a464-4b6b-b499-0275257b4d3f","system_id":"levelo_inurba_marseille","lat":43.27497,"lon":5.42463,"is_reserved":false,"is_disabled":false,"rental_uris":{"android":"levelo://app?vid=b7136dc7-a464-4b6b-b499-0275257b4d3f","ios":"levelo://app?vid=b7136dc7-a464-4b6b-b499-0275257b4d3f"},"vehicle_type_id":"4","last_reported":1742199251,"current_range_meters":11600,"station_id":"ce4bhn92rcd13ifvqgrg","pricing_plan_id":"cebpf4jnsgd1na2vs0mg"},{"bike_id":"061c3eab-ebbd-4760-8917-2528d6e29cbc","system_id":"levelo_inurba_marseille","lat":43.27138,"lon":5.42322,"is_reserved":false,"is_disabled":true,"rental_uris":{"android":"levelo://app?vid=061c3eab-ebbd-4760-8917-2528d6e29cbc","ios":"levelo://app?vid=061c3eab-ebbd-4760-8917-2528d6e29cbc"},"vehicle_type_id":"4","last_reported":1742199251,"current_range_meters":11600,"station_id":"","pricing_plan_id":"cebpf4jnsgd1na2vs0mg"},{"bike_id":"033f57ab-7987-47d5-a017-32fbd785fbe1","system_id":"levelo_inurba_marseille","lat":43.29032,"lon":5.3755,"is_reserved":false,"is_disabled":false,"rental_uris":{"android":"levelo://app?vid=033f57ab-7987-47d5-a017-32fbd785fbe1","ios":"levelo://app?vid=033f57ab-7987-47d5-a017-32fbd785fbe1"},"vehicle_type_id":"4","last_reported":1742199251,"current_range_meters":11600,"station_id":"ce4bh692rcd13ifvqe90","pricing_plan_id":"cebpf4jnsgd1na2vs0mg"},{"bike_id":"a110c3e8-a146-4d68-a9ad-64c5ddcb51fe","system_id":"levelo_inurba_marseille","lat":43.23138,"lon":5.43709,"is_reserved":false,"is_disabled":false,"rental_uris":{"android":"levelo://app?vid=a110c3e8-a146-4d68-a9ad-64c5ddcb51fe","ios":"levelo://app?vid=a110c3e8-a146-4d68-a9ad-64c5ddcb51fe"},"vehicle_type_id":"4","last_reported":1742199251,"current_range_meters":11600,"station_id":"ce4bhmp2rcd13ifvqgog","pricing_plan_id":"cebpf4jnsgd1na2vs0mg"},{"bike_id":"f8448f78-a39d-491e-a4a8-5b2b39ba3b73","system_id":"levelo_inurba_marseille","lat":43.310598,"lon":5.371464,"is_reserved":false,"is_disabled":false,"rental_uris":{"android":"levelo://app?vid=f8448f78-a39d-491e-a4a8-5b2b39ba3b73","ios":"levelo://app?vid=f8448f78-a39d-491e-a4a8-5b2b39ba3b73"},"vehicle_type_id":"4","last_reported":1742199251,"current_range_meters":12000,"station_id":"","pricing_plan_id":"cebpf4jnsgd1na2vs0mg"},{"bike_id":"c8cbded7-6ffd-4d7f-a814-f3b7094bdaf5","system_id":"levelo_inurba_marseille","lat":43.31883,"lon":5.4074,"is_reserved":false,"is_disabled":true,"rental_uris":{"android":"levelo://app?vid=c8cbded7-6ffd-4d7f-a814-f3b7094bdaf5","ios":"levelo://app?vid=c8cbded7-6ffd-4d7f-a814-f3b7094bdaf5"},"vehicle_type_id":"4","last_reported":1742199251,"current_range_meters":12000,"station_id":"ce4bhq12rcd13ifvqhig","pricing_plan_id":"cebpf4jnsgd1na2vs0mg"},{"bike_id":"da13238e-d41c-45e1-a56d-699763e37342","system_id":"levelo_inurba_marseille","lat":43.274965,"lon":5.424633,"is_reserved":false,"is_disabled":false,"rental_uris":{"android":"levelo://app?vid=da13238e-d41c-45e1-a56d-699763e37342","ios":"levelo://app?vid=da13238e-d41c-45e1-a56d-699763e37342"},"vehicle_type_id":"4","last_reported":1742199251,"current_range_meters":12000,"station_id":"ce4bhn92rcd13ifvqgrg","pricing_plan_id":"cebpf4jnsgd1na2vs0mg"},{"bike_id":"4db3a3ee-8b79-40b3-945e-3519745eced7","system_id":"levelo_inurba_marseille","lat":43.31686,"lon":5.40479,"is_reserved":false,"is_disabled":false,"rental_uris":{"android":"levelo://app?vid=4db3a3ee-8b79-40b3-945e-3519745eced7","ios":"levelo://app?vid=4db3a3ee-8b79-40b3-945e-3519745eced7"},"vehicle_type_id":"4","last_reported":1742199251,"current_range_meters":12000,"station_id":"ce4bh012rcd13ifvqd00","pricing_plan_id":"cebpf4jnsgd1na2vs0mg"},{"bike_id":"ddc7b6c6-a427-455e-b73c-18fbcd7692b8","system_id":"levelo_inurba_marseille","lat":43.31177,"lon":5.38711,"is_reserved":false,"is_disabled":false,"rental_uris":{"android":"levelo://app?vid=ddc7b6c6-a427-455e-b73c-18fbcd7692b8","ios":"levelo://app?vid=ddc7b6c6-a427-455e-b73c-18fbcd7692b8"},"vehicle_type_id":"4","last_reported":1742199251,"current_range_meters":12000,"station_id":"ce4bgv12rcd13ifvqcp0","pricing_plan_id":"cebpf4jnsgd1na2vs0mg"},{"bike_id":"b763467b-fcb1-47ab-9842-1db9f33d174c","system_id":"levelo_inurba_marseille","lat":43.231871,"lon":5.355666,"is_reserved":false,"is_disabled":false,"rental_uris":{"android":"levelo://app?vid=b763467b-fcb1-47ab-9842-1db9f33d174c","ios":"levelo://app?vid=b763467b-fcb1-47ab-9842-1db9f33d174c"},"vehicle_type_id":"4","last_reported":1742199251,"current_range_meters":12000,"station_id":"ce4bhu92rcd13ifvqi70","pricing_plan_id":"cebpf4jnsgd1na2vs0mg"},{"bike_id":"f6d26e90-c8a6-4832-a1c5-767d58aee5bc","system_id":"levelo_inurba_marseille","lat":43.23144,"lon":5.43711,"is_reserved":false,"is_disabled":false,"rental_uris":{"android":"levelo://app?vid=f6d26e90-c8a6-4832-a1c5-767d58aee5bc","ios":"levelo://app?vid=f6d26e90-c8a6-4832-a1c5-767d58aee5bc"},"vehicle_type_id":"4","last_reported":1742199251,"current_range_meters":12000,"station_id":"ce4bhmp2rcd13ifvqgog","pricing_plan_id":"cebpf4jnsgd1na2vs0mg"},{"bike_id":"e776dbaa-0028-4f81-b53e-429e1172be2e","system_id":"levelo_inurba_marseille","lat":43.30214,"lon":5.39474,"is_reserved":false,"is_disabled":false,"rental_uris":{"android":"levelo://app?vid=e776dbaa-0028-4f81-b53e-429e1172be2e","ios":"levelo://app?vid=e776dbaa-0028-4f81-b53e-429e1172be2e"},"vehicle_type_id":"4","last_reported":1742199251,"current_range_meters":12000,"station_id":"ce4bh0p2rcd13ifvqd70","pricing_plan_id":"cebpf4jnsgd1na2vs0mg"},{"bike_id":"79a0ee71-5e27-4d0f-9128-c9d94a9316a9","system_id":"levelo_inurba_marseille","lat":43.24172,"lon":5.36386,"is_reserved":false,"is_disabled":false,"rental_uris":{"android":"levelo://app?vid=79a0ee71-5e27-4d0f-9128-c9d94a9316a9","ios":"levelo://app?vid=79a0ee71-5e27-4d0f-9128-c9d94a9316a9"},"vehicle_type_id":"4","last_reported":1742199251,"current_range_meters":12000,"station_id":"cpo36qri1sfpv3e86is0","pricing_plan_id":"cebpf4jnsgd1na2vs0mg"},{"bike_id":"b616e71e-3e09-41cc-bf7b-f0a387ded038","system_id":"levelo_inurba_marseille","lat":43.30144,"lon":5.37415,"is_reserved":false,"is_disabled":false,"rental_uris":{"android":"levelo://app?vid=b616e71e-3e09-41cc-bf7b-f0a387ded038","ios":"levelo://app?vid=b616e71e-3e09-41cc-bf7b-f0a387ded038"},"vehicle_type_id":"4","last_reported":1742199251,"current_range_meters":12000,"station_id":"ce4bgs92rcd13ifvqcc0","pricing_plan_id":"cebpf4jnsgd1na2vs0mg"},{"bike_id":"ab390a76-0a57-4543-a76e-6d96e1e77958","system_id":"levelo_inurba_marseille","lat":43.23045,"lon":5.35511,"is_reserved":false,"is_disabled":false,"rental_uris":{"android":"levelo://app?vid=ab390a76-0a57-4543-a76e-6d96e1e77958","ios":"levelo://app?vid=ab390a76-0a57-4543-a76e-6d96e1e77958"},"vehicle_type_id":"4","last_reported":1742199251,"current_range_meters":12000,"station_id":"cpo3342slgdg3j2ifvpg","pricing_plan_id":"cebpf4jnsgd1na2vs0mg"},{"bike_id":"d9178df5-18f2-46df-a448-d529e133bb74","system_id":"levelo_inurba_marseille","lat":43.29936,"lon":5.37501,"is_reserved":false,"is_disabled":false,"rental_uris":{"android":"levelo://app?vid=d9178df5-18f2-46df-a448-d529e133bb74","ios":"levelo://app?vid=d9178df5-18f2-46df-a448-d529e133bb74"},"vehicle_type_id":"4","last_reported":1742199251,"current_range_meters":12000,"station_id":"ce4bgjh2rcd13ifvqbg0","pricing_plan_id":"cebpf4jnsgd1na2vs0mg"},{"bike_id":"f93f0d14-91b9-41fc-a4f1-6134ed03420c","system_id":"levelo_inurba_marseille","lat":43.29698,"lon":5.36611,"is_reserved":false,"is_disabled":false,"rental_uris":{"android":"levelo://app?vid=f93f0d14-91b9-41fc-a4f1-6134ed03420c","ios":"levelo://app?vid=f93f0d14-91b9-41fc-a4f1-6134ed03420c"},"vehicle_type_id":"4","last_reported":1742199251,"current_range_meters":12000,"station_id":"ce4bgn12rcd13ifvqbt0","pricing_plan_id":"cebpf4jnsgd1na2vs0mg"},{"bike_id":"7feea859-b4ac-43c2-a126-ab29c189eef5","system_id":"levelo_inurba_marseille","lat":43.23193,"lon":5.35553,"is_reserved":false,"is_disabled":false,"rental_uris":{"android":"levelo://app?vid=7feea859-b4ac-43c2-a126-ab29c189eef5","ios":"levelo://app?vid=7feea859-b4ac-43c2-a126-ab29c189eef5"},"vehicle_type_id":"4","last_reported":1742199251,"current_range_meters":12000,"station_id":"ce4bhu92rcd13ifvqi70","pricing_plan_id":"cebpf4jnsgd1na2vs0mg"},{"bike_id":"6e46b814-3eb3-4bc5-8438-aff0326ba365","system_id":"levelo_inurba_marseille","lat":43.24073,"lon":5.37742,"is_reserved":false,"is_disabled":false,"rental_uris":{"android":"levelo://app?vid=6e46b814-3eb3-4bc5-8438-aff0326ba365","ios":"levelo://app?vid=6e46b814-3eb3-4bc5-8438-aff0326ba365"},"vehicle_type_id":"4","last_reported":1742199251,"current_range_meters":12400,"station_id":"ce4bhnp2rcd13ifvqgvg","pricing_plan_id":"cebpf4jnsgd1na2vs0mg"},{"bike_id":"22ba7be9-14d8-4474-8bc7-8e9a8d5bf0fd","system_id":"levelo_inurba_marseille","lat":43.23188,"lon":5.39983,"is_reserved":false,"is_disabled":true,"rental_uris":{"android":"levelo://app?vid=22ba7be9-14d8-4474-8bc7-8e9a8d5bf0fd","ios":"levelo://app?vid=22ba7be9-14d8-4474-8bc7-8e9a8d5bf0fd"},"vehicle_type_id":"4","last_reported":1742199251,"current_range_meters":12400,"station_id":"ce4bhn12rcd13ifvqgqg","pricing_plan_id":"cebpf4jnsgd1na2vs0mg"},{"bike_id":"0b2c588e-ad18-4b5f-909d-2d111e78fbae","system_id":"levelo_inurba_marseille","lat":43.28483,"lon":5.38446,"is_reserved":false,"is_disabled":true,"rental_uris":{"android":"levelo://app?vid=0b2c588e-ad18-4b5f-909d-2d111e78fbae","ios":"levelo://app?vid=0b2c588e-ad18-4b5f-909d-2d111e78fbae"},"vehicle_type_id":"4","last_reported":1742199251,"current_range_meters":12400,"station_id":"ce4bh512rcd13ifvqe3g","pricing_plan_id":"cebpf4jnsgd1na2vs0mg"},{"bike_id":"eb68e8b7-38f3-4b46-bcf2-645e79c2103b","system_id":"levelo_inurba_marseille","lat":43.26567,"lon":5.38632,"is_reserved":false,"is_disabled":true,"rental_uris":{"android":"levelo://app?vid=eb68e8b7-38f3-4b46-bcf2-645e79c2103b","ios":"levelo://app?vid=eb68e8b7-38f3-4b46-bcf2-645e79c2103b"},"vehicle_type_id":"4","last_reported":1742199251,"current_range_meters":12400,"station_id":"","pricing_plan_id":"cebpf4jnsgd1na2vs0mg"},{"bike_id":"55717504-9c11-4bae-9db0-f57cde98cf7b","system_id":"levelo_inurba_marseille","lat":43.307913,"lon":5.376432,"is_reserved":false,"is_disabled":false,"rental_uris":{"android":"levelo://app?vid=55717504-9c11-4bae-9db0-f57cde98cf7b","ios":"levelo://app?vid=55717504-9c11-4bae-9db0-f57cde98cf7b"},"vehicle_type_id":"4","last_reported":1742199251,"current_range_meters":12400,"station_id":"ce4bgqh2rcd13ifvqc4g","pricing_plan_id":"cebpf4jnsgd1na2vs0mg"},{"bike_id":"04779c95-09a2-425e-927f-fb9e05ab6347","system_id":"levelo_inurba_marseille","lat":43.33761,"lon":5.37489,"is_reserved":false,"is_disabled":false,"rental_uris":{"android":"levelo://app?vid=04779c95-09a2-425e-927f-fb9e05ab6347","ios":"levelo://app?vid=04779c95-09a2-425e-927f-fb9e05ab6347"},"vehicle_type_id":"4","last_reported":1742199251,"current_range_meters":12400,"station_id":"","pricing_plan_id":"cebpf4jnsgd1na2vs0mg"},{"bike_id":"83819f5e-5da5-44d3-809c-c3cf439236d8","system_id":"levelo_inurba_marseille","lat":43.32485,"lon":5.36575,"is_reserved":false,"is_disabled":false,"rental_uris":{"android":"levelo://app?vid=83819f5e-5da5-44d3-809c-c3cf439236d8","ios":"levelo://app?vid=83819f5e-5da5-44d3-809c-c3cf439236d8"},"vehicle_type_id":"4","last_reported":1742199251,"current_range_meters":12000,"station_id":"ce4bhs12rcd13ifvqhvg","pricing_plan_id":"cebpf4jnsgd1na2vs0mg"},{"bike_id":"84cfc446-bf14-431e-a684-b664920352f0","system_id":"levelo_inurba_marseille","lat":43.24175,"lon":5.36442,"is_reserved":false,"is_disabled":true,"rental_uris":{"android":"levelo://app?vid=84cfc446-bf14-431e-a684-b664920352f0","ios":"levelo://app?vid=84cfc446-bf14-431e-a684-b664920352f0"},"vehicle_type_id":"4","last_reported":1742199251,"current_range_meters":12400,"station_id":"cpo36qri1sfpv3e86is0","pricing_plan_id":"cebpf4jnsgd1na2vs0mg"},{"bike_id":"c735a41e-8707-4425-9245-f2bfffe653b8","system_id":"levelo_inurba_marseille","lat":43.25931,"lon":5.40889,"is_reserved":false,"is_disabled":false,"rental_uris":{"android":"levelo://app?vid=c735a41e-8707-4425-9245-f2bfffe653b8","ios":"levelo://app?vid=c735a41e-8707-4425-9245-f2bfffe653b8"},"vehicle_type_id":"4","last_reported":1742199251,"current_range_meters":12400,"station_id":"ce4bhm92rcd13ifvqglg","pricing_plan_id":"cebpf4jnsgd1na2vs0mg"},{"bike_id":"5c7d3af7-81c2-462c-80cb-d705f57b5e51","system_id":"levelo_inurba_marseille","lat":43.25759,"lon":5.41139,"is_reserved":false,"is_disabled":true,"rental_uris":{"android":"levelo://app?vid=5c7d3af7-81c2-462c-80cb-d705f57b5e51","ios":"levelo://app?vid=5c7d3af7-81c2-462c-80cb-d705f57b5e51"},"vehicle_type_id":"4","last_reported":1742199251,"current_range_meters":12400,"station_id":"ce4bhkp2rcd13ifvqgd0","pricing_plan_id":"cebpf4jnsgd1na2vs0mg"},{"bike_id":"ccb8ecf4-8c18-40a8-ba37-1e15c095d278","system_id":"levelo_inurba_marseille","lat":43.32504,"lon":5.36543,"is_reserved":false,"is_disabled":true,"rental_uris":{"android":"levelo://app?vid=ccb8ecf4-8c18-40a8-ba37-1e15c095d278","ios":"levelo://app?vid=ccb8ecf4-8c18-40a8-ba37-1e15c095d278"},"vehicle_type_id":"4","last_reported":1742199251,"current_range_meters":12400,"station_id":"ce4bhs12rcd13ifvqhvg","pricing_plan_id":"cebpf4jnsgd1na2vs0mg"},{"bike_id":"611e1d18-f8ac-41a1-ace3-de54f198d91d","system_id":"levelo_inurba_marseille","lat":43.2886,"lon":5.35899,"is_reserved":false,"is_disabled":true,"rental_uris":{"android":"levelo://app?vid=611e1d18-f8ac-41a1-ace3-de54f198d91d","ios":"levelo://app?vid=611e1d18-f8ac-41a1-ace3-de54f198d91d"},"vehicle_type_id":"4","last_reported":1742199251,"current_range_meters":12800,"station_id":"","pricing_plan_id":"cebpf4jnsgd1na2vs0mg"},{"bike_id":"5d942a77-35f7-4dc1-a60a-5b36d532d893","system_id":"levelo_inurba_marseille","lat":43.3047,"lon":5.37917,"is_reserved":false,"is_disabled":false,"rental_uris":{"android":"levelo://app?vid=5d942a77-35f7-4dc1-a60a-5b36d532d893","ios":"levelo://app?vid=5d942a77-35f7-4dc1-a60a-5b36d532d893"},"vehicle_type_id":"4","last_reported":1742199251,"current_range_meters":12800,"station_id":"ce4bgup2rcd13ifvqcn0","pricing_plan_id":"cebpf4jnsgd1na2vs0mg"},{"bike_id":"66185ade-248f-45ad-bafe-ba5287d9512e","system_id":"levelo_inurba_marseille","lat":43.25931,"lon":5.40912,"is_reserved":false,"is_disabled":false,"rental_uris":{"android":"levelo://app?vid=66185ade-248f-45ad-bafe-ba5287d9512e","ios":"levelo://app?vid=66185ade-248f-45ad-bafe-ba5287d9512e"},"vehicle_type_id":"4","last_reported":1742199251,"current_range_meters":12800,"station_id":"ce4bhm92rcd13ifvqglg","pricing_plan_id":"cebpf4jnsgd1na2vs0mg"},{"bike_id":"3c0a0b9d-ab1b-4ecc-a265-5e422decaa33","system_id":"levelo_inurba_marseille","lat":43.27376,"lon":5.3626,"is_reserved":false,"is_disabled":true,"rental_uris":{"android":"levelo://app?vid=3c0a0b9d-ab1b-4ecc-a265-5e422decaa33","ios":"levelo://app?vid=3c0a0b9d-ab1b-4ecc-a265-5e422decaa33"},"vehicle_type_id":"4","last_reported":1742199251,"current_range_meters":12800,"station_id":"","pricing_plan_id":"cebpf4jnsgd1na2vs0mg"},{"bike_id":"82f2740b-aabb-4944-8011-64a453061c5b","system_id":"levelo_inurba_marseille","lat":43.24077,"lon":5.3774,"is_reserved":false,"is_disabled":false,"rental_uris":{"android":"levelo://app?vid=82f2740b-aabb-4944-8011-64a453061c5b","ios":"levelo://app?vid=82f2740b-aabb-4944-8011-64a453061c5b"},"vehicle_type_id":"4","last_reported":1742199251,"current_range_meters":12800,"station_id":"ce4bhnp2rcd13ifvqgvg","pricing_plan_id":"cebpf4jnsgd1na2vs0mg"},{"bike_id":"bc474d55-0c17-4122-81e3-199d738660c8","system_id":"levelo_inurba_marseille","lat":43.25084,"lon":5.39491,"is_reserved":false,"is_disabled":false,"rental_uris":{"android":"levelo://app?vid=bc474d55-0c17-4122-81e3-199d738660c8","ios":"levelo://app?vid=bc474d55-0c17-4122-81e3-199d738660c8"},"vehicle_type_id":"4","last_reported":1742199251,"current_range_meters":12800,"station_id":"ce4bhm12rcd13ifvqgkg","pricing_plan_id":"cebpf4jnsgd1na2vs0mg"},{"bike_id":"6684d2a8-fbec-4a14-a722-fad6e84c9a29","system_id":"levelo_inurba_marseille","lat":43.31349,"lon":5.36724,"is_reserved":false,"is_disabled":false,"rental_uris":{"android":"levelo://app?vid=6684d2a8-fbec-4a14-a722-fad6e84c9a29","ios":"levelo://app?vid=6684d2a8-fbec-4a14-a722-fad6e84c9a29"},"vehicle_type_id":"4","last_reported":1742199251,"current_range_meters":12800,"station_id":"ce4bgr92rcd13ifvqc6g","pricing_plan_id":"cebpf4jnsgd1na2vs0mg"},{"bike_id":"ee88f658-4164-4ec5-89ed-68bc268edc11","system_id":"levelo_inurba_marseille","lat":43.299,"lon":5.37481,"is_reserved":false,"is_disabled":false,"rental_uris":{"android":"levelo://app?vid=ee88f658-4164-4ec5-89ed-68bc268edc11","ios":"levelo://app?vid=ee88f658-4164-4ec5-89ed-68bc268edc11"},"vehicle_type_id":"4","last_reported":1742199251,"current_range_meters":13600,"station_id":"ce4bgjh2rcd13ifvqbg0","pricing_plan_id":"cebpf4jnsgd1na2vs0mg"},{"bike_id":"aed63976-b0c1-4776-bdf7-ae96389e67df","system_id":"levelo_inurba_marseille","lat":43.32472,"lon":5.36591,"is_reserved":false,"is_disabled":false,"rental_uris":{"android":"levelo://app?vid=aed63976-b0c1-4776-bdf7-ae96389e67df","ios":"levelo://app?vid=aed63976-b0c1-4776-bdf7-ae96389e67df"},"vehicle_type_id":"4","last_reported":1742199251,"current_range_meters":13600,"station_id":"ce4bhs12rcd13ifvqhvg","pricing_plan_id":"cebpf4jnsgd1na2vs0mg"},{"bike_id":"c0e54f67-036d-4b73-8259-31d68ad4a102","system_id":"levelo_inurba_marseille","lat":43.29483,"lon":5.373897,"is_reserved":false,"is_disabled":false,"rental_uris":{"android":"levelo://app?vid=c0e54f67-036d-4b73-8259-31d68ad4a102","ios":"levelo://app?vid=c0e54f67-036d-4b73-8259-31d68ad4a102"},"vehicle_type_id":"4","last_reported":1742199251,"current_range_meters":13600,"station_id":"ce4bgn92rcd13ifvqbvg","pricing_plan_id":"cebpf4jnsgd1na2vs0mg"},{"bike_id":"b4997037-d416-4dcb-8b57-061125878901","system_id":"levelo_inurba_marseille","lat":43.30966,"lon":5.39039,"is_reserved":false,"is_disabled":false,"rental_uris":{"android":"levelo://app?vid=b4997037-d416-4dcb-8b57-061125878901","ios":"levelo://app?vid=b4997037-d416-4dcb-8b57-061125878901"},"vehicle_type_id":"4","last_reported":1742199251,"current_range_meters":13600,"station_id":"ce4bgup2rcd13ifvqco0","pricing_plan_id":"cebpf4jnsgd1na2vs0mg"},{"bike_id":"057fb9ae-a65c-497c-9acf-2d3da5ae67aa","system_id":"levelo_inurba_marseille","lat":43.27805,"lon":5.40712,"is_reserved":false,"is_disabled":false,"rental_uris":{"android":"levelo://app?vid=057fb9ae-a65c-497c-9acf-2d3da5ae67aa","ios":"levelo://app?vid=057fb9ae-a65c-497c-9acf-2d3da5ae67aa"},"vehicle_type_id":"4","last_reported":1742199251,"current_range_meters":13600,"station_id":"ce4bhnh2rcd13ifvqgtg","pricing_plan_id":"cebpf4jnsgd1na2vs0mg"},{"bike_id":"9d15a776-6b02-4808-a303-18a0e043743b","system_id":"levelo_inurba_marseille","lat":43.29841,"lon":5.36266,"is_reserved":false,"is_disabled":false,"rental_uris":{"android":"levelo://app?vid=9d15a776-6b02-4808-a303-18a0e043743b","ios":"levelo://app?vid=9d15a776-6b02-4808-a303-18a0e043743b"},"vehicle_type_id":"4","last_reported":1742199251,"current_range_meters":14000,"station_id":"ce4bgpp2rcd13ifvqc3g","pricing_plan_id":"cebpf4jnsgd1na2vs0mg"},{"bike_id":"f3b6156c-2087-4f03-a6ba-2a9b58eef4d8","system_id":"levelo_inurba_marseille","lat":43.24074,"lon":5.37761,"is_reserved":false,"is_disabled":false,"rental_uris":{"android":"levelo://app?vid=f3b6156c-2087-4f03-a6ba-2a9b58eef4d8","ios":"levelo://app?vid=f3b6156c-2087-4f03-a6ba-2a9b58eef4d8"},"vehicle_type_id":"4","last_reported":1742199251,"current_range_meters":14000,"station_id":"ce4bhnp2rcd13ifvqgvg","pricing_plan_id":"cebpf4jnsgd1na2vs0mg"},{"bike_id":"421ffe78-25bf-4527-9fb4-a76483712f90","system_id":"levelo_inurba_marseille","lat":43.22924,"lon":5.35375,"is_reserved":false,"is_disabled":false,"rental_uris":{"android":"levelo://app?vid=421ffe78-25bf-4527-9fb4-a76483712f90","ios":"levelo://app?vid=421ffe78-25bf-4527-9fb4-a76483712f90"},"vehicle_type_id":"4","last_reported":1742199251,"current_range_meters":14000,"station_id":"cpo3532slgdg3j2ikp40","pricing_plan_id":"cebpf4jnsgd1na2vs0mg"},{"bike_id":"cabd52bd-50db-4e11-8830-bdda486c0bac","system_id":"levelo_inurba_marseille","lat":43.261901,"lon":5.420703,"is_reserved":false,"is_disabled":false,"rental_uris":{"android":"levelo://app?vid=cabd52bd-50db-4e11-8830-bdda486c0bac","ios":"levelo://app?vid=cabd52bd-50db-4e11-8830-bdda486c0bac"},"vehicle_type_id":"4","last_reported":1742199251,"current_range_meters":14400,"station_id":"","pricing_plan_id":"cebpf4jnsgd1na2vs0mg"},