{"last_updated":1717445293,"ttl":30,"version":"2.2","data":{"bikes":[{"bike_id":"e22ffee5-132b-4816-a94d-66ddf86af856","system_id":"levelo_inurba_marseille","lat":43.31341,"lon":5.367098,"is_reserved":false,"is_disabled":false,"rental_uris":{"android":"levelo://app?vid=e22ffee5-132b-4816-a94d-66ddf86af856","ios":"levelo://app?vid=e22ffee5-132b-4816-a94d-66ddf86af856"},"vehicle_type_id":"4","last_reported":1717445293,"current_range_meters":0,"station_id":"ce4bgr92rcd13ifvqc6g","pricing_plan_id":"cebpf4jnsgd1na2vs0mg"},{"bike_id":"883eeb81-bd0d-4755-bed8-9f39733c7fe6","system_id":"levelo_inurba_marseille","lat":43.313592,"lon":5.367117,"is_reserved":false,"is_disabled":false,"rental_uris":{"android":"levelo://app?vid=883eeb81-bd0d-4755-bed8-9f39733c7fe6","ios":"levelo://app?vid=883eeb81-bd0d-4755-bed8-9f39733c7fe6"},"vehicle_type_id":"4","last_reported":1717445293,"current_range_meters":0,"station_id":"ce4bgr92rcd13ifvqc6g","pricing_plan_id":"cebpf4jnsgd1na2vs0mg"},{"bike_id":"e60971a2-d542-4262-a6dc-6fa183b180bc","system_id":"levelo_inurba_marseille","lat":43.31492,"lon":5.36844,"is_reserved":false,"is_disabled":false,"rental_uris":{"android":"levelo://app?vid=e60971a2-d542-4262-a6dc-6fa183b180bc","ios":"levelo://app?vid=e60971a2-d542-4262-a6dc-6fa183b180bc"},"vehicle_type_id":"4","last_reported":1717445293,"current_range_meters":19600,"station_id":"","pricing_plan_id":"cebpf4jnsgd1na2vs0mg"},{"bike_id":"e469fe4f-aeb2-4a56-8301-e945da5e8450","system_id":"levelo_inurba_marseille","lat":43.309076,"lon":5.368465,"is_reserved":false,"is_disabled":false,"rental_uris":{"android":"levelo://app?vid=e469fe4f-aeb2-4a56-8301-e945da5e8450","ios":"levelo://app?vid=e469fe4f-aeb2-4a56-8301-e945da5e8450"},"vehicle_type_id":"4","last_reported":1717445293,"current_range_meters":23600,"station_id":"ce4bgn92rcd13ifvqbvg","pricing_plan_id":"cebpf4jnsgd1na2vs0mg"},{"bike_id":"88ea8973-a2b0-427b-b314-70d3a607d431","system_id":"levelo_inurba_marseille","lat":43.309076,"lon":5.368465,"is_reserved":false,"is_disabled":false,"rental_uris":{"android":"levelo://app?vid=88ea8973-a2b0-427b-b314-70d3a607d431","ios":"levelo://app?vid=88ea8973-a2b0-427b-b314-70d3a607d431"},"vehicle_type_id":"4","last_reported":1717445293,"current_range_meters":4800,"station_id":"ce4bgn92rcd13ifvqbvg","pricing_plan_id":"cebpf4jnsgd1na2vs0mg"},{"bike_id":"c8f50644-4b10-4b26-b9ea-3b5aebc64778","system_id":"levelo_inurba_marseille","lat":43.309076,"lon":5.368465,"is_reserved":false,"is_disabled":false,"rental_uris":{"android":"levelo://app?vid=c8f50644-4b10-4b26-b9ea-3b5aebc64778","ios":"levelo://app?vid=c8f50644-4b10-4b26-b9ea-3b5aebc64778"},"vehicle_type_id":"4","last_reported":1717445293,"current_range_meters":18000,"station_id":"ce4bgn92rcd13ifvqbvg","pricing_plan_id":"cebpf4jnsgd1na2vs0mg"},{"bike_id":"e046b89d-8eba-4908-bdd6-485542467b3e","system_id":"levelo_inurba_marseille","lat":43.314811,"lon":5.373104,"is_reserved":false,"is_disabled":false,"rental_uris":{"android":"levelo://app?vid=e046b89d-8eba-4908-bdd6-485542467b3e","ios":"levelo://app?vid=e046b89d-8eba-4908-bdd6-485542467b3e"},"vehicle_type_id":"4","last_reported":1717445293,"current_range_meters":2400,"station_id":"ce4bgt12rcd13ifvqcd0","pricing_plan_id":"cebpf4jnsgd1na2vs0mg"},{"bike_id":"c323b1c9-f3b6-49da-a560-6febd8a942a3","system_id":"levelo_inurba_marseille","lat":43.314811,"lon":5.373103,"is_reserved":false,"is_disabled":false,"rental_uris":{"android":"levelo://app?vid=c323b1c9-f3b6-49da-a560-6febd8a942a3","ios":"levelo://app?vid=c323b1c9-f3b6-49da-a560-6febd8a942a3"},"vehicle_type_id":"4","last_reported":1717445293,"current_range_meters":16000,"station_id":"ce4bgt12rcd13ifvqcd0","pricing_plan_id":"cebpf4jnsgd1na2vs0mg"},{"bike_id":"226c9190-0be5-4ef2-9531-18497a7ff15c","system_id":"levelo_inurba_marseille","lat":43.314811,"lon":5.373103,"is_reserved":false,"is_disabled":false,"rental_uris":{"android":"levelo://app?vid=226c9190-0be5-4ef2-9531-18497a7ff15c","ios":"levelo://app?vid=226c9190-0be5-4ef2-9531-18497a7ff15c"},"vehicle_type_id":"4","last_reported":1717445293,"current_range_meters":11200,"station_id":"ce4bgt12rcd13ifvqcd0","pricing_plan_id":"cebpf4jnsgd1na2vs0mg"},{"bike_id":"7c73c3b2-b3a0-4938-b9a7-6abfc846f34c","system_id":"levelo_inurba_marseille","lat":43.314902,"lon":5.373101,"is_reserved":false,"is_disabled":false,"rental_uris":{"android":"levelo://app?vid=7c73c3b2-b3a0-4938-b9a7-6abfc846f34c","ios":"levelo://app?vid=7c73c3b2-b3a0-4938-b9a7-6abfc846f34c"},"vehicle_type_id":"4","last_reported":1717445293,"current_range_meters":0,"station_id":"ce4bgt12rcd13ifvqcd0","pricing_plan_id":"cebpf4jnsgd1na2vs0mg"},{"bike_id":"6f81e8a5-3132-47da-bba0-d34cad3701e8","system_id":"levelo_inurba_marseille","lat":43.315062,"lon":5.372994,"is_reserved":false,"is_disabled":false,"rental_uris":{"android":"levelo://app?vid=6f81e8a5-3132-47da-bba0-d34cad3701e8","ios":"levelo://app?vid=6f81e8a5-3132-47da-bba0-d34cad3701e8"},"vehicle_type_id":"4","last_reported":1717445293,"current_range_meters":3600,"station_id":"ce4bgnh2rcd13ifvqc0g","pricing_plan_id":"cebpf4jnsgd1na2vs0mg"},{"bike_id":"2ae84133-2f15-4d85-816d-7b13f46165c8","system_id":"levelo_inurba_marseille","lat":43.305714,"lon":5.365633,"is_reserved":false,"is_disabled":false,"rental_uris":{"android":"levelo://app?vid=2ae84133-2f15-4d85-816d-7b13f46165c8","ios":"levelo://app?vid=2ae84133-2f15-4d85-816d-7b13f46165c8"},"vehicle_type_id":"4","last_reported":1717445293,"current_range_meters":0,"station_id":"ce4bgs12rcd13ifvqcag","pricing_plan_id":"cebpf4jnsgd1na2vs0mg"},{"bike_id":"f41a7604-7dda-4842-bd60-19f532284f00","system_id":"levelo_inurba_marseille","lat":43.305706,"lon":5.365654,"is_reserved":false,"is_disabled":false,"rental_uris":{"android":"levelo://app?vid=f41a7604-7dda-4842-bd60-19f532284f00","ios":"levelo://app?vid=f41a7604-7dda-4842-bd60-19f532284f00"},"vehicle_type_id":"4","last_reported":1717445293,"current_range_meters":6800,"station_id":"ce4bgs12rcd13ifvqcag","pricing_plan_id":"cebpf4jnsgd1na2vs0mg"},{"bike_id":"b1dd2d5c-eb84-48a6-aaae-2e2abf93fdf2","system_id":"levelo_inurba_marseille","lat":43.305989,"lon":5.37225,"is_reserved":false,"is_disabled":false,"rental_uris":{"android":"levelo://app?vid=b1dd2d5c-eb84-48a6-aaae-2e2abf93fdf2","ios":"levelo://app?vid=b1dd2d5c-eb84-48a6-aaae-2e2abf93fdf2"},"vehicle_type_id":"4","last_reported":1717445293,"current_range_meters":10400,"station_id":"ce4bgqh2rcd13ifvqc4g","pricing_plan_id":"cebpf4jnsgd1na2vs0mg"},{"bike_id":"9793577b-1b5e-4c45-89ae-f2a9b6c26e43","system_id":"levelo_inurba_marseille","lat":43.305368,"lon":5.367343,"is_reserved":false,"is_disabled":false,"rental_uris":{"android":"levelo://app?vid=9793577b-1b5e-4c45-89ae-f2a9b6c26e43","ios":"levelo://app?vid=9793577b-1b5e-4c45-89ae-f2a9b6c26e43"},"vehicle_type_id":"4","last_reported":1717445293,"current_range_meters":12000,"station_id":"ce4bgrp2rcd13ifvqc9g","pricing_plan_id":"cebpf4jnsgd1na2vs0mg"},{"bike_id":"76162bad-7f53-42db-8f03-96e365c672fa","system_id":"levelo_inurba_marseille","lat":43.305989,"lon":5.37225,"is_reserved":false,"is_disabled":false,"rental_uris":{"android":"levelo://app?vid=76162bad-7f53-42db-8f03-96e365c672fa","ios":"levelo://app?vid=76162bad-7f53-42db-8f03-96e365c672fa"},"vehicle_type_id":"4","last_reported":1717445293,"current_range_meters":21200,"station_id":"ce4bgqh2rcd13ifvqc4g","pricing_plan_id":"cebpf4jnsgd1na2vs0mg"},{"bike_id":"878e6d86-9750-4deb-aaac-fa95e09e0f92","system_id":"levelo_inurba_marseille","lat":43.305989,"lon":5.37225,"is_reserved":false,"is_disabled":false,"rental_uris":{"android":"levelo://app?vid=878e6d86-9750-4deb-aaac-fa95e09e0f92","ios":"levelo://app?vid=878e6d86-9750-4deb-aaac-fa95e09e0f92"},"vehicle_type_id":"4","last_reported":1717445293,"current_range_meters":20800,"station_id":"ce4bgqh2rcd13ifvqc4g","pricing_plan_id":"cebpf4jnsgd1na2vs0mg"},{"bike_id":"012e0e58-41c7-4b05-bf03-97b3fea089a2","system_id":"levelo_inurba_marseille","lat":43.305989,"lon":5.37225,"is_reserved":false,"is_disabled":false,"rental_uris":{"android":"levelo://app?vid=012e0e58-41c7-4b05-bf03-97b3fea089a2","ios":"levelo://app?vid=012e0e58-41c7-4b05-bf03-97b3fea089a2"},"vehicle_type_id":"4","last_reported":1717445293,"current_range_meters":9200,"station_id":"ce4bgqh2rcd13ifvqc4g","pricing_plan_id":"cebpf4jnsgd1na2vs0mg"},{"bike_id":"574c1363-96c0-448b-9298-d9589d2c792f","system_id":"levelo_inurba_marseille","lat":43.311125,"lon":5.377624,"is_reserved":false,"is_disabled":false,"rental_uris":{"android":"levelo://app?vid=574c1363-96c0-448b-9298-d9589d2c792f","ios":"levelo://app?vid=574c1363-96c0-448b-9298-d9589d2c792f"},"vehicle_type_id":"4","last_reported":1717445293,"current_range_meters":26800,"station_id":"ce4bgt92rcd13ifvqcg0","pricing_plan_id":"cebpf4jnsgd1na2vs0mg"},{"bike_id":"46c5160f-af13-4d3b-9c64-b6ad837575d8","system_id":"levelo_inurba_marseille","lat":43.3111,"lon":5.377501,"is_reserved":false,"is_disabled":false,"rental_uris":{"android":"levelo://app?vid=46c5160f-af13-4d3b-9c64-b6ad837575d8","ios":"levelo://app?vid=46c5160f-af13-4d3b-9c64-b6ad837575d8"},"vehicle_type_id":"4","last_reported":1717445293,"current_range_meters":2000,"station_id":"ce4bgt92rcd13ifvqcg0","pricing_plan_id":"cebpf4jnsgd1na2vs0mg"},{"bike_id":"59b41123-25e1-47a9-91b2-d5054a978b59","system_id":"levelo_inurba_marseille","lat":43.311125,"lon":5.377624,"is_reserved":false,"is_disabled":false,"rental_uris":{"android":"levelo://app?vid=59b41123-25e1-47a9-91b2-d5054a978b59","ios":"levelo://app?vid=59b41123-25e1-47a9-91b2-d5054a978b59"},"vehicle_type_id":"4","last_reported":1717445293,"current_range_meters":28400,"station_id":"ce4bgt92rcd13ifvqcg0","pricing_plan_id":"cebpf4jnsgd1na2vs0mg"},{"bike_id":"83a6fa4d-8dc1-4ee2-a8e6-841176b7ae88","system_id":"levelo_inurba_marseille","lat":43.307945,"lon":5.376487,"is_reserved":false,"is_disabled":false,"rental_uris":{"android":"levelo://app?vid=83a6fa4d-8dc1-4ee2-a8e6-841176b7ae88","ios":"levelo://app?vid=83a6fa4d-8dc1-4ee2-a8e6-841176b7ae88"},"vehicle_type_id":"4","last_reported":1717445293,"current_range_meters":11200,"station_id":"ce4bgv92rcd13ifvqcq0","pricing_plan_id":"cebpf4jnsgd1na2vs0mg"},{"bike_id":"b96ee3f6-792a-4a8c-8032-dc7b1fc701d9","system_id":"levelo_inurba_marseille","lat":43.307945,"lon":5.376487,"is_reserved":false,"is_disabled":false,"rental_uris":{"android":"levelo://app?vid=b96ee3f6-792a-4a8c-8032-dc7b1fc701d9","ios":"levelo://app?vid=b96ee3f6-792a-4a8c-8032-dc7b1fc701d9"},"vehicle_type_id":"4","last_reported":1717445293,"current_range_meters":22800,"station_id":"ce4bgv92rcd13ifvqcq0","pricing_plan_id":"cebpf4jnsgd1na2vs0mg"},{"bike_id":"b9c9bd62-b910-48b8-8cd3-cb38dfb4977b","system_id":"levelo_inurba_marseille","lat":43.307945,"lon":5.376487,"is_reserved":false,"is_disabled":false,"rental_uris":{"android":"levelo://app?vid=b9c9bd62-b910-48b8-8cd3-cb38dfb4977b","ios":"levelo://app?vid=b9c9bd62-b910-48b8-8cd3-cb38dfb4977b"},"vehicle_type_id":"4","last_reported":1717445293,"current_range_meters":7600,"station_id":"ce4bgv92rcd13ifvqcq0","pricing_plan_id":"cebpf4jnsgd1na2vs0mg"},{"bike_id":"170be44d-ab07-4969-8531-ce5cfa032400","system_id":"levelo_inurba_marseille","lat":43.307945,"lon":5.376487,"is_reserved":false,"is_disabled":false,"rental_uris":{"android":"levelo://app?vid=170be44d-ab07-4969-8531-ce5cfa032400","ios":"levelo://app?vid=170be44d-ab07-4969-8531-ce5cfa032400"},"vehicle_type_id":"4","last_reported":1717445293,"current_range_meters":12400,"station_id":"ce4bgv92rcd13ifvqcq0","pricing_plan_id":"cebpf4jnsgd1na2vs0mg"},{"bike_id":"cc07071e-5dbc-4025-a28f-397269fa4497","system_id":"levelo_inurba_marseille","lat":43.307945,"lon":5.376487,"is_reserved":false,"is_disabled":false,"rental_uris":{"android":"levelo://app?vid=cc07071e-5dbc-4025-a28f-397269fa4497","ios":"levelo://app?vid=cc07071e-5dbc-4025-a28f-397269fa4497"},"vehicle_type_id":"4","last_reported":1717445293,"current_range_meters":25600,"station_id":"ce4bgv92rcd13ifvqcq0","pricing_plan_id":"cebpf4jnsgd1na2vs0mg"},{"bike_id":"3b4cd898-3ae8-4f6d-8823-290db5aad0d9","system_id":"levelo_inurba_marseille","lat":43.307945,"lon":5.376487,"is_reserved":false,"is_disabled":false,"rental_uris":{"android":"levelo://app?vid=3b4cd898-3ae8-4f6d-8823-290db5aad0d9","ios":"levelo://app?vid=3b4cd898-3ae8-4f6d-8823-290db5aad0d9"},"vehicle_type_id":"4","last_reported":1717445293,"current_range_meters":13200,"station_id":"ce4bgv92rcd13ifvqcq0","pricing_plan_id":"cebpf4jnsgd1na2vs0mg"},{"bike_id":"3af26481-4777-4aa6-ac67-124c449cd5d4","system_id":"levelo_inurba_marseille","lat":43.317075,"lon":5.377367,"is_reserved":false,"is_disabled":false,"rental_uris":{"android":"levelo://app?vid=3af26481-4777-4aa6-ac67-124c449cd5d4","ios":"levelo://app?vid=3af26481-4777-4aa6-ac67-124c449cd5d4"},"vehicle_type_id":"4","last_reported":1717445293,"current_range_meters":18000,"station_id":"ce4bgth2rcd13ifvqch0","pricing_plan_id":"cebpf4jnsgd1na2vs0mg"},{"bike_id":"7710fb9b-b20f-4b36-bcb2-01f9ed3009e8","system_id":"levelo_inurba_marseille","lat":43.317075,"lon":5.377367,"is_reserved":false,"is_disabled":false,"rental_uris":{"android":"levelo://app?vid=7710fb9b-b20f-4b36-bcb2-01f9ed3009e8","ios":"levelo://app?vid=7710fb9b-b20f-4b36-bcb2-01f9ed3009e8"},"vehicle_type_id":"4","last_reported":1717445293,"current_range_meters":0,"station_id":"ce4bgth2rcd13ifvqch0","pricing_plan_id":"cebpf4jnsgd1na2vs0mg"},{"bike_id":"84360108-89ae-4bef-aa1c-8591ba2c3691","system_id":"levelo_inurba_marseille","lat":43.317075,"lon":5.377367,"is_reserved":false,"is_disabled":false,"rental_uris":{"android":"levelo://app?vid=84360108-89ae-4bef-aa1c-8591ba2c3691","ios":"levelo://app?vid=84360108-89ae-4bef-aa1c-8591ba2c3691"},"vehicle_type_id":"4","last_reported":1717445293,"current_range_meters":12000,"station_id":"ce4bgth2rcd13ifvqch0","pricing_plan_id":"cebpf4jnsgd1na2vs0mg"},{"bike_id":"63b1a303-6db0-4c0e-a30f-ab2843d13f85","system_id":"levelo_inurba_marseille","lat":43.317075,"lon":5.377436,"is_reserved":false,"is_disabled":false,"rental_uris":{"android":"levelo://app?vid=63b1a303-6db0-4c0e-a30f-ab2843d13f85","ios":"levelo://app?vid=63b1a303-6db0-4c0e-a30f-ab2843d13f85"},"vehicle_type_id":"4","last_reported":1717445293,"current_range_meters":31200,"station_id":"ce4bgth2rcd13ifvqch0","pricing_plan_id":"cebpf4jnsgd1na2vs0mg"},{"bike_id":"283499ba-19c4-4768-a9a4-5d6f46c97267","system_id":"levelo_inurba_marseille","lat":43.317075,"lon":5.377367,"is_reserved":false,"is_disabled":false,"rental_uris":{"android":"levelo://app?vid=283499ba-19c4-4768-a9a4-5d6f46c97267","ios":"levelo://app?vid=283499ba-19c4-4768-a9a4-5d6f46c97267"},"vehicle_type_id":"4","last_reported":1717445293,"current_range_meters":22400,"station_id":"ce4bgth2rcd13ifvqch0","pricing_plan_id":"cebpf4jnsgd1na2vs0mg"},{"bike_id":"27425302-dc9e-4ad9-b70c-e8cf18103468","system_id":"levelo_inurba_marseille","lat":43.31714,"lon":5.37757,"is_reserved":false,"is_disabled":false,"rental_uris":{"android":"levelo://app?vid=27425302-dc9e-4ad9-b70c-e8cf18103468","ios":"levelo://app?vid=27425302-dc9e-4ad9-b70c-e8cf18103468"},"vehicle_type_id":"4","last_reported":1717445293,"current_range_meters":12000,"station_id":"ce4bgth2rcd13ifvqch0","pricing_plan_id":"cebpf4jnsgd1na2vs0mg"},{"bike_id":"1687841f-3327-4cc5-bf1d-1a77f1ef9b56","system_id":"levelo_inurba_marseille","lat":43.307945,"lon":5.376487,"is_reserved":false,"is_disabled":false,"rental_uris":{"android":"levelo://app?vid=1687841f-3327-4cc5-bf1d-1a77f1ef9b56","ios":"levelo://app?vid=1687841f-3327-4cc5-bf1d-1a77f1ef9b56"},"vehicle_type_id":"4","last_reported":1717445293,"current_range_meters":26000,"station_id":"ce4bgv92rcd13ifvqcq0","pricing_plan_id":"cebpf4jnsgd1na2vs0mg"},{"bike_id":"ce18c51e-6f22-41fe-8244-bfd48dcb69ee","system_id":"levelo_inurba_marseille","lat":43.303046,"lon":5.368981,"is_reserved":false,"is_disabled":false,"rental_uris":{"android":"levelo://app?vid=ce18c51e-6f22-41fe-8244-bfd48dcb69ee","ios":"levelo://app?vid=ce18c51e-6f22-41fe-8244-bfd48dcb69ee"},"vehicle_type_id":"4","last_reported":1717445293,"current_range_meters":4400,"station_id":"ce4bgqh2rcd13ifvqc5g","pricing_plan_id":"cebpf4jnsgd1na2vs0mg"},{"bike_id":"a2bb7289-ea48-453a-b3db-11ff7e838aee","system_id":"levelo_inurba_marseille","lat":43.303046,"lon":5.368981,"is_reserved":false,"is_disabled":false,"rental_uris":{"android":"levelo://app?vid=a2bb7289-ea48-453a-b3db-11ff7e838aee","ios":"levelo://app?vid=a2bb7289-ea48-453a-b3db-11ff7e838aee"},"vehicle_type_id":"4","last_reported":1717445293,"current_range_meters":24000,"station_id":"ce4bgqh2rcd13ifvqc5g","pricing_plan_id":"cebpf4jnsgd1na2vs0mg"},{"bike_id":"50fa236d-9d9b-4512-a9f2-e31a517b8219","system_id":"levelo_inurba_marseille","lat":43.303046,"lon":5.368981,"is_reserved":false,"is_disabled":false,"rental_uris":{"android":"levelo://app?vid=50fa236d-9d9b-4512-a9f2-e31a517b8219","ios":"levelo://app?vid=50fa236d-9d9b-4512-a9f2-e31a517b8219"},"vehicle_type_id":"4","last_reported":1717445293,"current_range_meters":19600,"station_id":"ce4bgqh2rcd13ifvqc5g","pricing_plan_id":"cebpf4jnsgd1na2vs0mg"},{"bike_id":"09f1b7b8-a7d9-494f-8253-4c9fd1101d5d","system_id":"levelo_inurba_marseille","lat":43.303046,"lon":5.368981,"is_reserved":false,"is_disabled":false,"rental_uris":{"android":"levelo://app?vid=09f1b7b8-a7d9-494f-8253-4c9fd1101d5d","ios":"levelo://app?vid=09f1b7b8-a7d9-494f-8253-4c9fd1101d5d"},"vehicle_type_id":"4","last_reported":1717445293,"current_range_meters":25200,"station_id":"ce4bgqh2rcd13ifvqc5g","pricing_plan_id":"cebpf4jnsgd1na2vs0mg"},{"bike_id":"c2952b45-8356-4ffa-8c36-5fc13e5ee124","system_id":"levelo_inurba_marseille","lat":43.303046,"lon":5.368981,"is_reserved":false,"is_disabled":false,"rental_uris":{"android":"levelo://app?vid=c2952b45-8356-4ffa-8c36-5fc13e5ee124","ios":"levelo://app?vid=c2952b45-8356-4ffa-8c36-5fc13e5ee124"},"vehicle_type_id":"4","last_reported":1717445293,"current_range_meters":800,"station_id":"ce4bgqh2rcd13ifvqc5g","pricing_plan_id":"cebpf4jnsgd1na2vs0mg"},{"bike_id":"d2f5a31d-7570-4c66-a922-f6042c7ce9cb","system_id":"levelo_inurba_marseille","lat":43.315293,"lon":5.380349,"is_reserved":false,"is_disabled":false,"rental_uris":{"android":"levelo://app?vid=d2f5a31d-7570-4c66-a922-f6042c7ce9cb","ios":"levelo://app?vid=d2f5a31d-7570-4c66-a922-f6042c7ce9cb"},"vehicle_type_id":"4","last_reported":1717445293,"current_range_meters":29200,"station_id":"ce4bhsp2rcd13ifvqi50","pricing_plan_id":"cebpf4jnsgd1na2vs0mg"},{"bike_id":"5401ff84-06c4-4c94-b76e-411da2f5ffe9","system_id":"levelo_inurba_marseille","lat":43.322093,"lon":5.371261,"is_reserved":false,"is_disabled":false,"rental_uris":{"android":"levelo://app?vid=5401ff84-06c4-4c94-b76e-411da2f5ffe9","ios":"levelo://app?vid=5401ff84-06c4-4c94-b76e-411da2f5ffe9"},"vehicle_type_id":"4","last_reported":1717445293,"current_range_meters":15200,"station_id":"","pricing_plan_id":"cebpf4jnsgd1na2vs0mg"},{"bike_id":"9aab337a-d2e4-4915-9673-8a19cae261bd","system_id":"levelo_inurba_marseille","lat":43.315289,"lon":5.380349,"is_reserved":false,"is_disabled":false,"rental_uris":{"android":"levelo://app?vid=9aab337a-d2e4-4915-9673-8a19cae261bd","ios":"levelo://app?vid=9aab337a-d2e4-4915-9673-8a19cae261bd"},"vehicle_type_id":"4","last_reported":1717445293,"current_range_meters":15200,"station_id":"ce4bhsp2rcd13ifvqi50","pricing_plan_id":"cebpf4jnsgd1na2vs0mg"},{"bike_id":"688305a3-3cc9-49b8-8df6-918bfa13635b","system_id":"levelo_inurba_marseille","lat":43.315289,"lon":5.380349,"is_reserved":false,"is_disabled":false,"rental_uris":{"android":"levelo://app?vid=688305a3-3cc9-49b8-8df6-918bfa13635b","ios":"levelo://app?vid=688305a3-3cc9-49b8-8df6-918bfa13635b"},"vehicle_type_id":"4","last_reported":1717445293,"current_range_meters":23600,"station_id":"ce4bhsp2rcd13ifvqi50","pricing_plan_id":"cebpf4jnsgd1na2vs0mg"},{"bike_id":"fe9d639a-4170-4a78-9fd6-a715f67f54e6","system_id":"levelo_inurba_marseille","lat":43.303046,"lon":5.368981,"is_reserved":false,"is_disabled":false,"rental_uris":{"android":"levelo://app?vid=fe9d639a-4170-4a78-9fd6-a715f67f54e6","ios":"levelo://app?vid=fe9d639a-4170-4a78-9fd6-a715f67f54e6"},"vehicle_type_id":"4","last_reported":1717445293,"current_range_meters":0,"station_id":"ce4bgqh2rcd13ifvqc5g","pricing_plan_id":"cebpf4jnsgd1na2vs0mg"},{"bike_id":"aec6b321-177f-4440-899f-811c5133d439","system_id":"levelo_inurba_marseille","lat":43.301939,"lon":5.366286,"is_reserved":false,"is_disabled":false,"rental_uris":{"android":"levelo://app?vid=aec6b321-177f-4440-899f-811c5133d439","ios":"levelo://app?vid=aec6b321-177f-4440-899f-811c5133d439"},"vehicle_type_id":"4","last_reported":1717445293,"current_range_meters":18400,"station_id":"ce4bgrh2rcd13ifvqc8g","pricing_plan_id":"cebpf4jnsgd1na2vs0mg"},{"bike_id":"b30c12d0-d769-498d-9413-7303f9ebba85","system_id":"levelo_inurba_marseille","lat":43.308012,"lon":5.381511,"is_reserved":false,"is_disabled":false,"rental_uris":{"android":"levelo://app?vid=b30c12d0-d769-498d-9413-7303f9ebba85","ios":"levelo://app?vid=b30c12d0-d769-498d-9413-7303f9ebba85"},"vehicle_type_id":"4","last_reported":1717445293,"current_range_meters":24000,"station_id":"ce4bgt12rcd13ifvqce0","pricing_plan_id":"cebpf4jnsgd1na2vs0mg"},{"bike_id":"227a0678-8029-4836-b641-ef5768b0f466","system_id":"levelo_inurba_marseille","lat":43.324771,"lon":5.36557,"is_reserved":false,"is_disabled":false,"rental_uris":{"android":"levelo://app?vid=227a0678-8029-4836-b641-ef5768b0f466","ios":"levelo://app?vid=227a0678-8029-4836-b641-ef5768b0f466"},"vehicle_type_id":"4","last_reported":1717445293,"current_range_meters":11200,"station_id":"ce4bhs12rcd13ifvqhvg","pricing_plan_id":"cebpf4jnsgd1na2vs0mg"},{"bike_id":"c9167d46-b2de-4022-a2db-7257b8871b1f","system_id":"levelo_inurba_marseille","lat":43.324771,"lon":5.36557,"is_reserved":false,"is_disabled":false,"rental_uris":{"android":"levelo://app?vid=c9167d46-b2de-4022-a2db-7257b8871b1f","ios":"levelo://app?vid=c9167d46-b2de-4022-a2db-7257b8871b1f"},"vehicle_type_id":"4","last_reported":1717445293,"current_range_meters":9200,"station_id":"ce4bhs12rcd13ifvqhvg","pricing_plan_id":"cebpf4jnsgd1na2vs0mg"},{"bike_id":"2e9688a8-0e88-40d3-ad32-e192b82410a1","system_id":"levelo_inurba_marseille","lat":43.324771,"lon":5.36557,"is_reserved":false,"is_disabled":false,"rental_uris":{"android":"levelo://app?vid=2e9688a8-0e88-40d3-ad32-e192b82410a1","ios":"levelo://app?vid=2e9688a8-0e88-40d3-ad32-e192b82410a1"},"vehicle_type_id":"4","last_reported":1717445293,"current_range_meters":400,"station_id":"ce4bhs12rcd13ifvqhvg","pricing_plan_id":"cebpf4jnsgd1na2vs0mg"},{"bike_id":"5a0e4850-f4ce-4132-bb56-09bfd627d2a3","system_id":"levelo_inurba_marseille","lat":43.324771,"lon":5.36557,"is_reserved":false,"is_disabled":false,"rental_uris":{"android":"levelo://app?vid=5a0e4850-f4ce-4132-bb56-09bfd627d2a3","ios":"levelo://app?vid=5a0e4850-f4ce-4132-bb56-09bfd627d2a3"},"vehicle_type_id":"4","last_reported":1717445293,"current_range_meters":2400,"station_id":"ce4bhs12rcd13ifvqhvg","pricing_plan_id":"cebpf4jnsgd1na2vs0mg"},{"bike_id":"171dd67e-d6c2-49b8-9e65-26d9ed7719c3","system_id":"levelo_inurba_marseille","lat":43.310772,"lon":5.383434,"is_reserved":false,"is_disabled":false,"rental_uris":{"android":"levelo://app?vid=171dd67e-d6c2-49b8-9e65-26d9ed7719c3","ios":"levelo://app?vid=171dd67e-d6c2-49b8-9e65-26d9ed7719c3"},"vehicle_type_id":"4","last_reported":1717445293,"current_range_meters":400,"station_id":"ce4bgv92rcd13ifvqcr0","pricing_plan_id":"cebpf4jnsgd1na2vs0mg"},{"bike_id":"3eafb62c-faee-4b3f-8869-13234174d46e","system_id":"levelo_inurba_marseille","lat":43.310804,"lon":5.38359,"is_reserved":false,"is_disabled":false,"rental_uris":{"android":"levelo://app?vid=3eafb62c-faee-4b3f-8869-13234174d46e","ios":"levelo://app?vid=3eafb62c-faee-4b3f-8869-13234174d46e"},"vehicle_type_id":"4","last_reported":1717445293,"current_range_meters":8800,"station_id":"ce4bgv92rcd13ifvqcr0","pricing_plan_id":"cebpf4jnsgd1na2vs0mg"},{"bike_id":"298c70fc-f480-4486-8898-97cf5319ca46","system_id":"levelo_inurba_marseille","lat":43.310659,"lon":5.383492,"is_reserved":false,"is_disabled":false,"rental_uris":{"android":"levelo://app?vid=298c70fc-f480-4486-8898-97cf5319ca46","ios":"levelo://app?vid=298c70fc-f480-4486-8898-97cf5319ca46"},"vehicle_type_id":"4","last_reported":1717445293,"current_range_meters":0,"station_id":"ce4bgv92rcd13ifvqcr0","pricing_plan_id":"cebpf4jnsgd1na2vs0mg"},{"bike_id":"6fd5c1a4-cee2-41b0-a071-24c1fb77d7e4","system_id":"levelo_inurba_marseille","lat":43.310804,"lon":5.38359,"is_reserved":false,"is_disabled":false,"rental_uris":{"android":"levelo://app?vid=6fd5c1a4-cee2-41b0-a071-24c1fb77d7e4","ios":"levelo://app?vid=6fd5c1a4-cee2-41b0-a071-24c1fb77d7e4"},"vehicle_type_id":"4","last_reported":1717445293,"current_range_meters":0,"station_id":"ce4bgv92rcd13ifvqcr0","pricing_plan_id":"cebpf4jnsgd1na2vs0mg"},{"bike_id":"0edc4a37-ef57-4cab-8b7d-3196e3445d23","system_id":"levelo_inurba_marseille","lat":43.310741,"lon":5.383582,"is_reserved":false,"is_disabled":false,"rental_uris":{"android":"levelo://app?vid=0edc4a37-ef57-4cab-8b7d-3196e3445d23","ios":"levelo://app?vid=0edc4a37-ef57-4cab-8b7d-3196e3445d23"},"vehicle_type_id":"4","last_reported":1717445293,"current_range_meters":0,"station_id":"ce4bgv92rcd13ifvqcr0","pricing_plan_id":"cebpf4jnsgd1na2vs0mg"},{"bike_id":"044c10e6-c4b2-4423-824c-37148199a50b","system_id":"levelo_inurba_marseille","lat":43.310804,"lon":5.38359,"is_reserved":false,"is_disabled":false,"rental_uris":{"android":"levelo://app?vid=044c10e6-c4b2-4423-824c-37148199a50b","ios":"levelo://app?vid=044c10e6-c4b2-4423-824c-37148199a50b"},"vehicle_type_id":"4","last_reported":1717445293,"current_range_meters":20000,"station_id":"ce4bgv92rcd13ifvqcr0","pricing_plan_id":"cebpf4jnsgd1na2vs0mg"},{"bike_id":"682919ee-e9e0-41c4-9541-c3e5ac65ce22","system_id":"levelo_inurba_marseille","lat":43.301429,"lon":5.37413,"is_reserved":false,"is_disabled":false,"rental_uris":{"android":"levelo://app?vid=682919ee-e9e0-41c4-9541-c3e5ac65ce22","ios":"levelo://app?vid=682919ee-e9e0-41c4-9541-c3e5ac65ce22"},"vehicle_type_id":"4","last_reported":1717445293,"current_range_meters":30000,"station_id":"ce4bgs92rcd13ifvqcc0","pricing_plan_id":"cebpf4jnsgd1na2vs0mg"},{"bike_id":"2d59e3f4-648c-42a2-ad9f-e1ae3e8a19d7","system_id":"levelo_inurba_marseille","lat":43.302784,"lon":5.377158,"is_reserved":false,"is_disabled":false,"rental_uris":{"android":"levelo://app?vid=2d59e3f4-648c-42a2-ad9f-e1ae3e8a19d7","ios":"levelo://app?vid=2d59e3f4-648c-42a2-ad9f-e1ae3e8a19d7"},"vehicle_type_id":"4","last_reported":1717445293,"current_range_meters":16000,"station_id":"ce4bguh2rcd13ifvqcj0","pricing_plan_id":"cebpf4jnsgd1na2vs0mg"},{"bike_id":"e20801a2-7140-4feb-b9c0-96a2e80ebe19","system_id":"levelo_inurba_marseille","lat":43.302784,"lon":5.377158,"is_reserved":false,"is_disabled":false,"rental_uris":{"android":"levelo://app?vid=e20801a2-7140-4feb-b9c0-96a2e80ebe19","ios":"levelo://app?vid=e20801a2-7140-4feb-b9c0-96a2e80ebe19"},"vehicle_type_id":"4","last_reported":1717445293,"current_range_meters":11600,"station_id":"ce4bguh2rcd13ifvqcj0","pricing_plan_id":"cebpf4jnsgd1na2vs0mg"},{"bike_id":"20350782-2ef8-4180-a14b-4dd4e6627c9a","system_id":"levelo_inurba_marseille","lat":43.31998,"lon":5.38142,"is_reserved":false,"is_disabled":false,"rental_uris":{"android":"levelo://app?vid=20350782-2ef8-4180-a14b-4dd4e6627c9a","ios":"levelo://app?vid=20350782-2ef8-4180-a14b-4dd4e6627c9a"},"vehicle_type_id":"4","last_reported":1717445293,"current_range_meters":0,"station_id":"ce4bhr12rcd13ifvqhpg","pricing_plan_id":"cebpf4jnsgd1na2vs0mg"},{"bike_id":"cd53ab7c-f721-4797-a9f4-e306cc25bff0","system_id":"levelo_inurba_marseille","lat":43.31994,"lon":5.38169,"is_reserved":false,"is_disabled":false,"rental_uris":{"android":"levelo://app?vid=cd53ab7c-f721-4797-a9f4-e306cc25bff0","ios":"levelo://app?vid=cd53ab7c-f721-4797-a9f4-e306cc25bff0"},"vehicle_type_id":"4","last_reported":1717445293,"current_range_meters":2000,"station_id":"ce4bhr12rcd13ifvqhpg","pricing_plan_id":"cebpf4jnsgd1na2vs0mg"},{"bike_id":"b60702b7-e484-4f98-8fb5-47cb9a7a9b7a","system_id":"levelo_inurba_marseille","lat":43.313571,"lon":5.384829,"is_reserved":false,"is_disabled":false,"rental_uris":{"android":"levelo://app?vid=b60702b7-e484-4f98-8fb5-47cb9a7a9b7a","ios":"levelo://app?vid=b60702b7-e484-4f98-8fb5-47cb9a7a9b7a"},"vehicle_type_id":"4","last_reported":1717445293,"current_range_meters":11200,"station_id":"ce4bgt92rcd13ifvqcf0","pricing_plan_id":"cebpf4jnsgd1na2vs0mg"},{"bike_id":"83a9e9ee-e8e9-4b40-af65-95bf935afabc","system_id":"levelo_inurba_marseille","lat":43.313621,"lon":5.384979,"is_reserved":false,"is_disabled":false,"rental_uris":{"android":"levelo://app?vid=83a9e9ee-e8e9-4b40-af65-95bf935afabc","ios":"levelo://app?vid=83a9e9ee-e8e9-4b40-af65-95bf935afabc"},"vehicle_type_id":"4","last_reported":1717445293,"current_range_meters":5200,"station_id":"ce4bgt92rcd13ifvqcf0","pricing_plan_id":"cebpf4jnsgd1na2vs0mg"},{"bike_id":"3cf5bb7d-82c9-4389-823c-204d50bc7b90","system_id":"levelo_inurba_marseille","lat":43.299724,"lon":5.371829,"is_reserved":false,"is_disabled":false,"rental_uris":{"android":"levelo://app?vid=3cf5bb7d-82c9-4389-823c-204d50bc7b90","ios":"levelo://app?vid=3cf5bb7d-82c9-4389-823c-204d50bc7b90"},"vehicle_type_id":"4","last_reported":1717445293,"current_range_meters":6800,"station_id":"ce4bgr92rcd13ifvqc7g","pricing_plan_id":"cebpf4jnsgd1na2vs0mg"},{"bike_id":"82bd89c1-2f05-4d71-b0ba-d928463c36ee","system_id":"levelo_inurba_marseille","lat":43.299724,"lon":5.371829,"is_reserved":false,"is_disabled":false,"rental_uris":{"android":"levelo://app?vid=82bd89c1-2f05-4d71-b0ba-d928463c36ee","ios":"levelo://app?vid=82bd89c1-2f05-4d71-b0ba-d928463c36ee"},"vehicle_type_id":"4","last_reported":1717445293,"current_range_meters":24800,"station_id":"ce4bgr92rcd13ifvqc7g","pricing_plan_id":"cebpf4jnsgd1na2vs0mg"},{"bike_id":"6c195ee4-60bd-40a8-9eb6-b6cef0e860ac","system_id":"levelo_inurba_marseille","lat":43.299794,"lon":5.371752,"is_reserved":false,"is_disabled":false,"rental_uris":{"android":"levelo://app?vid=6c195ee4-60bd-40a8-9eb6-b6cef0e860ac","ios":"levelo://app?vid=6c195ee4-60bd-40a8-9eb6-b6cef0e860ac"},"vehicle_type_id":"4","last_reported":1717445293,"current_range_meters":28000,"station_id":"ce4bgr92rcd13ifvqc7g","pricing_plan_id":"cebpf4jnsgd1na2vs0mg"},{"bike_id":"c058036d-5b13-4d15-a45f-38da4229d43c","system_id":"levelo_inurba_marseille","lat":43.299222,"lon":5.365554,"is_reserved":false,"is_disabled":false,"rental_uris":{"android":"levelo://app?vid=c058036d-5b13-4d15-a45f-38da4229d43c","ios":"levelo://app?vid=c058036d-5b13-4d15-a45f-38da4229d43c"},"vehicle_type_id":"4","last_reported":1717445293,"current_range_meters":0,"station_id":"ce4bgm92rcd13ifvqbr0","pricing_plan_id":"cebpf4jnsgd1na2vs0mg"},{"bike_id":"a840f37b-e4e4-4242-a5ae-faca14fb4775","system_id":"levelo_inurba_marseille","lat":43.29975,"lon":5.37175,"is_reserved":false,"is_disabled":false,"rental_uris":{"android":"levelo://app?vid=a840f37b-e4e4-4242-a5ae-faca14fb4775","ios":"levelo://app?vid=a840f37b-e4e4-4242-a5ae-faca14fb4775"},"vehicle_type_id":"4","last_reported":1717445293,"current_range_meters":0,"station_id":"ce4bgr92rcd13ifvqc7g","pricing_plan_id":"cebpf4jnsgd1na2vs0mg"},{"bike_id":"bb1e3653-daeb-4846-b105-005028a44763","system_id":"levelo_inurba_marseille","lat":43.299222,"lon":5.365554,"is_reserved":false,"is_disabled":false,"rental_uris":{"android":"levelo://app?vid=bb1e3653-daeb-4846-b105-005028a44763","ios":"levelo://app?vid=bb1e3653-daeb-4846-b105-005028a44763"},"vehicle_type_id":"4","last_reported":1717445293,"current_range_meters":28000,"station_id":"ce4bgm92rcd13ifvqbr0","pricing_plan_id":"cebpf4jnsgd1na2vs0mg"},{"bike_id":"4e7c9528-ff20-4ae3-86b3-f78966728fff","system_id":"levelo_inurba_marseille","lat":43.29977,"lon":5.37193,"is_reserved":false,"is_disabled":false,"rental_uris":{"android":"levelo://app?vid=4e7c9528-ff20-4ae3-86b3-f78966728fff","ios":"levelo://app?vid=4e7c9528-ff20-4ae3-86b3-f78966728fff"},"vehicle_type_id":"4","last_reported":1717445293,"current_range_meters":7200,"station_id":"ce4bgr92rcd13ifvqc7g","pricing_plan_id":"cebpf4jnsgd1na2vs0mg"},{"bike_id":"bbafacca-459e-4854-a7a0-2e8b8f2b3b48","system_id":"levelo_inurba_marseille","lat":43.299693,"lon":5.371715,"is_reserved":false,"is_disabled":false,"rental_uris":{"android":"levelo://app?vid=bbafacca-459e-4854-a7a0-2e8b8f2b3b48","ios":"levelo://app?vid=bbafacca-459e-4854-a7a0-2e8b8f2b3b48"},"vehicle_type_id":"4","last_reported":1717445293,"current_range_meters":18800,"station_id":"ce4bgr92rcd13ifvqc7g","pricing_plan_id":"cebpf4jnsgd1na2vs0mg"},{"bike_id":"7c0279c4-785e-41cc-9875-11b1aa5697b0","system_id":"levelo_inurba_marseille","lat":43.298433,"lon":5.362774,"is_reserved":false,"is_disabled":false,"rental_uris":{"android":"levelo://app?vid=7c0279c4-785e-41cc-9875-11b1aa5697b0","ios":"levelo://app?vid=7c0279c4-785e-41cc-9875-11b1aa5697b0"},"vehicle_type_id":"4","last_reported":1717445293,"current_range_meters":27600,"station_id":"ce4bgpp2rcd13ifvqc3g","pricing_plan_id":"cebpf4jnsgd1na2vs0mg"},{"bike_id":"f1991d90-bb7b-4e73-b957-5d5ec833948d","system_id":"levelo_inurba_marseille","lat":43.298433,"lon":5.362774,"is_reserved":false,"is_disabled":false,"rental_uris":{"android":"levelo://app?vid=f1991d90-bb7b-4e73-b957-5d5ec833948d","ios":"levelo://app?vid=f1991d90-bb7b-4e73-b957-5d5ec833948d"},"vehicle_type_id":"4","last_reported":1717445293,"current_range_meters":0,"station_id":"ce4bgpp2rcd13ifvqc3g","pricing_plan_id":"cebpf4jnsgd1na2vs0mg"},{"bike_id":"944ceca1-4a69-41cb-896a-f249437dcf32","system_id":"levelo_inurba_marseille","lat":43.299249,"lon":5.374809,"is_reserved":false,"is_disabled":false,"rental_uris":{"android":"levelo://app?vid=944ceca1-4a69-41cb-896a-f249437dcf32","ios":"levelo://app?vid=944ceca1-4a69-41cb-896a-f249437dcf32"},"vehicle_type_id":"4","last_reported":1717445293,"current_range_meters":0,"station_id":"","pricing_plan_id":"cebpf4jnsgd1na2vs0mg"},{"bike_id":"8b7ef21e-7407-4829-8d59-49872feae290","system_id":"levelo_inurba_marseille","lat":43.30263,"lon":5.38159,"is_reserved":false,"is_disabled":false,"rental_uris":{"android":"levelo://app?vid=8b7ef21e-7407-4829-8d59-49872feae290","ios":"levelo://app?vid=8b7ef21e-7407-4829-8d59-49872feae290"},"vehicle_type_id":"4","last_reported":1717445293,"current_range_meters":6000,"station_id":"","pricing_plan_id":"cebpf4jnsgd1na2vs0mg"},{"bike_id":"c95717f8-8062-45df-a854-0a0b88689ed4","system_id":"levelo_inurba_marseille","lat":43.31182,"lon":5.38717,"is_reserved":false,"is_disabled":false,"rental_uris":{"android":"levelo://app?vid=c95717f8-8062-45df-a854-0a0b88689ed4","ios":"levelo://app?vid=c95717f8-8062-45df-a854-0a0b88689ed4"},"vehicle_type_id":"4","last_reported":1717445293,"current_range_meters":26400,"station_id":"ce4bgv12rcd13ifvqcp0","pricing_plan_id":"cebpf4jnsgd1na2vs0mg"},{"bike_id":"0bd0309e-daef-4cde-bfb5-25577dba628a","system_id":"levelo_inurba_marseille","lat":43.311722,"lon":5.387247,"is_reserved":false,"is_disabled":false,"rental_uris":{"android":"levelo://app?vid=0bd0309e-daef-4cde-bfb5-25577dba628a","ios":"levelo://app?vid=0bd0309e-daef-4cde-bfb5-25577dba628a"},"vehicle_type_id":"4","last_reported":1717445293,"current_range_meters":18000,"station_id":"ce4bgv12rcd13ifvqcp0","pricing_plan_id":"cebpf4jnsgd1na2vs0mg"},{"bike_id":"10fb4334-c940-4455-979b-d3f1ca32e262","system_id":"levelo_inurba_marseille","lat":43.297794,"lon":5.370888,"is_reserved":false,"is_disabled":false,"rental_uris":{"android":"levelo://app?vid=10fb4334-c940-4455-979b-d3f1ca32e262","ios":"levelo://app?vid=10fb4334-c940-4455-979b-d3f1ca32e262"},"vehicle_type_id":"4","last_reported":1717445293,"current_range_meters":30000,"station_id":"ce4bgop2rcd13ifvqc1g","pricing_plan_id":"cebpf4jnsgd1na2vs0mg"},{"bike_id":"9cb0a0fb-cba8-4161-9927-dea9fe7e0f97","system_id":"levelo_inurba_marseille","lat":43.297794,"lon":5.370888,"is_reserved":false,"is_disabled":false,"rental_uris":{"android":"levelo://app?vid=9cb0a0fb-cba8-4161-9927-dea9fe7e0f97","ios":"levelo://app?vid=9cb0a0fb-cba8-4161-9927-dea9fe7e0f97"},"vehicle_type_id":"4","last_reported":1717445293,"current_range_meters":800,"station_id":"ce4bgop2rcd13ifvqc1g","pricing_plan_id":"cebpf4jnsgd1na2vs0mg"},{"bike_id":"65bb2508-f289-4998-9a00-b0dc60c9f416","system_id":"levelo_inurba_marseille","lat":43.297774,"lon":5.370875,"is_reserved":false,"is_disabled":false,"rental_uris":{"android":"levelo://app?vid=65bb2508-f289-4998-9a00-b0dc60c9f416","ios":"levelo://app?vid=65bb2508-f289-4998-9a00-b0dc60c9f416"},"vehicle_type_id":"4","last_reported":1717445293,"current_range_meters":26800,"station_id":"ce4bgop2rcd13ifvqc1g","pricing_plan_id":"cebpf4jnsgd1na2vs0mg"},{"bike_id":"d963a423-9d7a-46b4-8355-5742c9c44187","system_id":"levelo_inurba_marseille","lat":43.297163,"lon":5.365866,"is_reserved":false,"is_disabled":false,"rental_uris":{"android":"levelo://app?vid=d963a423-9d7a-46b4-8355-5742c9c44187","ios":"levelo://app?vid=d963a423-9d7a-46b4-8355-5742c9c44187"},"vehicle_type_id":"4","last_reported":1717445293,"current_range_meters":0,"station_id":"ce4bgn12rcd13ifvqbt0","pricing_plan_id":"cebpf4jnsgd1na2vs0mg"},{"bike_id":"7e119674-ecfd-4067-92b9-f11886580daa","system_id":"levelo_inurba_marseille","lat":43.297794,"lon":5.370888,"is_reserved":false,"is_disabled":false,"rental_uris":{"android":"levelo://app?vid=7e119674-ecfd-4067-92b9-f11886580daa","ios":"levelo://app?vid=7e119674-ecfd-4067-92b9-f11886580daa"},"vehicle_type_id":"4","last_reported":1717445293,"current_range_meters":16400,"station_id":"ce4bgop2rcd13ifvqc1g","pricing_plan_id":"cebpf4jnsgd1na2vs0mg"},{"bike_id":"0ba126f4-dbec-4056-aed7-7a14ddfc6d32","system_id":"levelo_inurba_marseille","lat":43.297794,"lon":5.370888,"is_reserved":false,"is_disabled":false,"rental_uris":{"android":"levelo://app?vid=0ba126f4-dbec-4056-aed7-7a14ddfc6d32","ios":"levelo://app?vid=0ba126f4-dbec-4056-aed7-7a14ddfc6d32"},"vehicle_type_id":"4","last_reported":1717445293,"current_range_meters":21200,"station_id":"ce4bgop2rcd13ifvqc1g","pricing_plan_id":"cebpf4jnsgd1na2vs0mg"},{"bike_id":"5a3f9f2f-b26e-4269-b367-16a1b814429c","system_id":"levelo_inurba_marseille","lat":43.2968,"lon":5.37291,"is_reserved":false,"is_disabled":false,"rental_uris":{"android":"levelo://app?vid=5a3f9f2f-b26e-4269-b367-16a1b814429c","ios":"levelo://app?vid=5a3f9f2f-b26e-4269-b367-16a1b814429c"},"vehicle_type_id":"4","last_reported":1717445293,"current_range_meters":12000,"station_id":"ce4bgk12rcd13ifvqbj0","pricing_plan_id":"cebpf4jnsgd1na2vs0mg"},{"bike_id":"566c95b1-19e6-4e0b-bd10-4fc3db6c04b5","system_id":"levelo_inurba_marseille","lat":43.296273,"lon":5.371529,"is_reserved":false,"is_disabled":false,"rental_uris":{"android":"levelo://app?vid=566c95b1-19e6-4e0b-bd10-4fc3db6c04b5","ios":"levelo://app?vid=566c95b1-19e6-4e0b-bd10-4fc3db6c04b5"},"vehicle_type_id":"4","last_reported":1717445293,"current_range_meters":0,"station_id":"ce4bgnh2rcd13ifvqc0g","pricing_plan_id":"cebpf4jnsgd1na2vs0mg"},{"bike_id":"019283a0-a80a-4282-a459-a373057f9918","system_id":"levelo_inurba_marseille","lat":43.296129,"lon":5.370777,"is_reserved":false,"is_disabled":false,"rental_uris":{"android":"levelo://app?vid=019283a0-a80a-4282-a459-a373057f9918","ios":"levelo://app?vid=019283a0-a80a-4282-a459-a373057f9918"},"vehicle_type_id":"4","last_reported":1717445293,"current_range_meters":23200,"station_id":"ce4bgnh2rcd13ifvqc0g","pricing_plan_id":"cebpf4jnsgd1na2vs0mg"},{"bike_id":"bf2fe413-f63c-4a64-9e6f-3c4f96b11631","system_id":"levelo_inurba_marseille","lat":43.29579,"lon":5.36748,"is_reserved":false,"is_disabled":false,"rental_uris":{"android":"levelo://app?vid=bf2fe413-f63c-4a64-9e6f-3c4f96b11631","ios":"levelo://app?vid=bf2fe413-f63c-4a64-9e6f-3c4f96b11631"},"vehicle_type_id":"4","last_reported":1717445293,"current_range_meters":0,"station_id":"ce4bgph2rcd13ifvqc2g","pricing_plan_id":"cebpf4jnsgd1na2vs0mg"},{"bike_id":"a435af6f-fcc8-4aa4-9cd9-8ab4585ec100","system_id":"levelo_inurba_marseille","lat":43.317557,"lon":5.390173,"is_reserved":false,"is_disabled":false,"rental_uris":{"android":"levelo://app?vid=a435af6f-fcc8-4aa4-9cd9-8ab4585ec100","ios":"levelo://app?vid=a435af6f-fcc8-4aa4-9cd9-8ab4585ec100"},"vehicle_type_id":"4","last_reported":1717445293,"current_range_meters":4000,"station_id":"ce4bhqp2rcd13ifvqhng","pricing_plan_id":"cebpf4jnsgd1na2vs0mg"},{"bike_id":"7e3c6ec1-eb15-4cee-b5fc-6fc62af57b7a","system_id":"levelo_inurba_marseille","lat":43.296921,"lon":5.376579,"is_reserved":false,"is_disabled":false,"rental_uris":{"android":"levelo://app?vid=7e3c6ec1-eb15-4cee-b5fc-6fc62af57b7a","ios":"levelo://app?vid=7e3c6ec1-eb15-4cee-b5fc-6fc62af57b7a"},"vehicle_type_id":"4","last_reported":1717445293,"current_range_meters":9200,"station_id":"ce4bgkh2rcd13ifvqbl0","pricing_plan_id":"cebpf4jnsgd1na2vs0mg"},{"bike_id":"6f519e7e-8a79-4c11-a78a-5d5fc2c808dd","system_id":"levelo_inurba_marseille","lat":43.296935,"lon":5.376544,"is_reserved":false,"is_disabled":false,"rental_uris":{"android":"levelo://app?vid=6f519e7e-8a79-4c11-a78a-5d5fc2c808dd","ios":"levelo://app?vid=6f519e7e-8a79-4c11-a78a-5d5fc2c808dd"},"vehicle_type_id":"4","last_reported":1717445293,"current_range_meters":13600,"station_id":"ce4bgkh2rcd13ifvqbl0","pricing_plan_id":"cebpf4jnsgd1na2vs0mg"},{"bike_id":"4220e567-e4b7-45d4-a02f-22e3db8c3610","system_id":"levelo_inurba_marseille","lat":43.317541,"lon":5.390005,"is_reserved":false,"is_disabled":false,"rental_uris":{"android":"levelo://app?vid=4220e567-e4b7-45d4-a02f-22e3db8c3610","ios":"levelo://app?vid=4220e567-e4b7-45d4-a02f-22e3db8c3610"},"vehicle_type_id":"4","last_reported":1717445293,"current_range_meters":0,"station_id":"ce4bhqp2rcd13ifvqhng","pricing_plan_id":"cebpf4jnsgd1na2vs0mg"},{"bike_id":"dc248556-4e96-4abe-8c65-14e32a20fc69","system_id":"levelo_inurba_marseille","lat":43.31758,"lon":5.39015,"is_reserved":false,"is_disabled":false,"rental_uris":{"android":"levelo://app?vid=dc248556-4e96-4abe-8c65-14e32a20fc69","ios":"levelo://app?vid=dc248556-4e96-4abe-8c65-14e32a20fc69"},"vehicle_type_id":"4","last_reported":1717445293,"current_range_meters":14400,"station_id":"ce4bhqp2rcd13ifvqhng","pricing_plan_id":"cebpf4jnsgd1na2vs0mg"},{"bike_id":"53f73770-7e22-453d-bfb6-0674642033fc","system_id":"levelo_inurba_marseille","lat":43.317562,"lon":5.390165,"is_reserved":false,"is_disabled":false,"rental_uris":{"android":"levelo://app?vid=53f73770-7e22-453d-bfb6-0674642033fc","ios":"levelo://app?vid=53f73770-7e22-453d-bfb6-0674642033fc"},"vehicle_type_id":"4","last_reported":1717445293,"current_range_meters":14000,"station_id":"ce4bhqp2rcd13ifvqhng","pricing_plan_id":"cebpf4jnsgd1na2vs0mg"},{"bike_id":"1b99b27f-85fa-4747-b190-ab8d712e5964","system_id":"levelo_inurba_marseille","lat":43.31762,"lon":5.39015,"is_reserved":false,"is_disabled":false,"rental_uris":{"android":"levelo://app?vid=1b99b27f-85fa-4747-b190-ab8d712e5964","ios":"levelo://app?vid=1b99b27f-85fa-4747-b190-ab8d712e5964"},"vehicle_type_id":"4","last_reported":1717445293,"current_range_meters":11600,"station_id":"ce4bhqp2rcd13ifvqhng","pricing_plan_id":"cebpf4jnsgd1na2vs0mg"},{"bike_id":"0598330f-23e0-4adb-92e1-2932f82e2f19","system_id":"levelo_inurba_marseille","lat":43.29802,"lon":5.3808,"is_reserved":false,"is_disabled":false,"rental_uris":{"android":"levelo://app?vid=0598330f-23e0-4adb-92e1-2932f82e2f19","ios":"levelo://app?vid=0598330f-23e0-4adb-92e1-2932f82e2f19"},"vehicle_type_id":"4","last_reported":1717445293,"current_range_meters":12400,"station_id":"ce4bgl12rcd13ifvqbo0","pricing_plan_id":"cebpf4jnsgd1na2vs0mg"},{"bike_id":"e4b44585-6851-4564-8a02-f120f035bf91","system_id":"levelo_inurba_marseille","lat":43.298037,"lon":5.381066,"is_reserved":false,"is_disabled":false,"rental_uris":{"android":"levelo://app?vid=e4b44585-6851-4564-8a02-f120f035bf91","ios":"levelo://app?vid=e4b44585-6851-4564-8a02-f120f035bf91"},"vehicle_type_id":"4","last_reported":1717445293,"current_range_meters":25200,"station_id":"ce4bgip2rcd13ifvqbb0","pricing_plan_id":"cebpf4jnsgd1na2vs0mg"},{"bike_id":"69a0a08a-b1fc-47d5-af0b-e3c25f3988de","system_id":"levelo_inurba_marseille","lat":43.296935,"lon":5.376544,"is_reserved":false,"is_disabled":false,"rental_uris":{"android":"levelo://app?vid=69a0a08a-b1fc-47d5-af0b-e3c25f3988de","ios":"levelo://app?vid=69a0a08a-b1fc-47d5-af0b-e3c25f3988de"},"vehicle_type_id":"4","last_reported":1717445293,"current_range_meters":6400,"station_id":"ce4bgkh2rcd13ifvqbl0","pricing_plan_id":"cebpf4jnsgd1na2vs0mg"},{"bike_id":"26626997-5792-406d-97a0-6fa69948b242","system_id":"levelo_inurba_marseille","lat":43.297101,"lon":5.378986,"is_reserved":false,"is_disabled":false,"rental_uris":{"android":"levelo://app?vid=26626997-5792-406d-97a0-6fa69948b242","ios":"levelo://app?vid=26626997-5792-406d-97a0-6fa69948b242"},"vehicle_type_id":"4","last_reported":1717445293,"current_range_meters":17600,"station_id":"ce4bgvh2rcd13ifvqcs0","pricing_plan_id":"cebpf4jnsgd1na2vs0mg"},{"bike_id":"37c4cb9d-f72e-419b-850d-787055b10da1","system_id":"levelo_inurba_marseille","lat":43.299369,"lon":5.383513,"is_reserved":false,"is_disabled":false,"rental_uris":{"android":"levelo://app?vid=37c4cb9d-f72e-419b-850d-787055b10da1","ios":"levelo://app?vid=37c4cb9d-f72e-419b-850d-787055b10da1"},"vehicle_type_id":"4","last_reported":1717445293,"current_range_meters":19200,"station_id":"","pricing_plan_id":"cebpf4jnsgd1na2vs0mg"},{"bike_id":"dc336fb1-9ac5-4bf5-9de5-3468198ef793","system_id":"levelo_inurba_marseille","lat":43.304274,"lon":5.388873,"is_reserved":false,"is_disabled":false,"rental_uris":{"android":"levelo://app?vid=dc336fb1-9ac5-4bf5-9de5-3468198ef793","ios":"levelo://app?vid=dc336fb1-9ac5-4bf5-9de5-3468198ef793"},"vehicle_type_id":"4","last_reported":1717445293,"current_range_meters":20400,"station_id":"ce4bgk12rcd13ifvqbi0","pricing_plan_id":"cebpf4jnsgd1na2vs0mg"},{"bike_id":"c6e7fa69-3a39-430d-b24b-27a785c33cf2","system_id":"levelo_inurba_marseille","lat":43.304278,"lon":5.388868,"is_reserved":false,"is_disabled":false,"rental_uris":{"android":"levelo://app?vid=c6e7fa69-3a39-430d-b24b-27a785c33cf2","ios":"levelo://app?vid=c6e7fa69-3a39-430d-b24b-27a785c33cf2"},"vehicle_type_id":"4","last_reported":1717445293,"current_range_meters":24000,"station_id":"ce4bgk12rcd13ifvqbi0","pricing_plan_id":"cebpf4jnsgd1na2vs0mg"},{"bike_id":"99c71478-1935-42ee-96c2-df1fad272d63","system_id":"levelo_inurba_marseille","lat":43.296231,"lon":5.377045,"is_reserved":false,"is_disabled":false,"rental_uris":{"android":"levelo://app?vid=99c71478-1935-42ee-96c2-df1fad272d63","ios":"levelo://app?vid=99c71478-1935-42ee-96c2-df1fad272d63"},"vehicle_type_id":"4","last_reported":1717445293,"current_range_meters":4400,"station_id":"ce4bgi92rcd13ifvqb90","pricing_plan_id":"cebpf4jnsgd1na2vs0mg"},{"bike_id":"1b010fca-ab02-4c41-8c3d-0a64635a0147","system_id":"levelo_inurba_marseille","lat":43.304274,"lon":5.388873,"is_reserved":false,"is_disabled":false,"rental_uris":{"android":"levelo://app?vid=1b010fca-ab02-4c41-8c3d-0a64635a0147","ios":"levelo://app?vid=1b010fca-ab02-4c41-8c3d-0a64635a0147"},"vehicle_type_id":"4","last_reported":1717445293,"current_range_meters":17200,"station_id":"ce4bgk12rcd13ifvqbi0","pricing_plan_id":"cebpf4jnsgd1na2vs0mg"},{"bike_id":"4409a101-051d-4da3-8db2-cf47f5ac8e1d","system_id":"levelo_inurba_marseille","lat":43.279742,"lon":5.38744,"is_reserved":false,"is_disabled":false,"rental_uris":{"android":"levelo://app?vid=4409a101-051d-4da3-8db2-cf47f5ac8e1d","ios":"levelo://app?vid=4409a101-051d-4da3-8db2-cf47f5ac8e1d"},"vehicle_type_id":"4","last_reported":1717445293,"current_range_meters":13200,"station_id":"ce4bhg12rcd13ifvqf80","pricing_plan_id":"cebpf4jnsgd1na2vs0mg"},{"bike_id":"3e0b3b51-8f2b-49c1-beac-aac7ff7c0b6e","system_id":"levelo_inurba_marseille","lat":43.304274,"lon":5.388873,"is_reserved":false,"is_disabled":false,"rental_uris":{"android":"levelo://app?vid=3e0b3b51-8f2b-49c1-beac-aac7ff7c0b6e","ios":"levelo://app?vid=3e0b3b51-8f2b-49c1-beac-aac7ff7c0b6e"},"vehicle_type_id":"4","last_reported":1717445293,"current_range_meters":22400,"station_id":"ce4bgk12rcd13ifvqbi0","pricing_plan_id":"cebpf4jnsgd1na2vs0mg"},{"bike_id":"c9468caa-5228-407b-809b-36afaa3cf2f7","system_id":"levelo_inurba_marseille","lat":43.298037,"lon":5.381066,"is_reserved":false,"is_disabled":false,"rental_uris":{"android":"levelo://app?vid=c9468caa-5228-407b-809b-36afaa3cf2f7","ios":"levelo://app?vid=c9468caa-5228-407b-809b-36afaa3cf2f7"},"vehicle_type_id":"4","last_reported":1717445293,"current_range_meters":16000,"station_id":"ce4bgip2rcd13ifvqbb0","pricing_plan_id":"cebpf4jnsgd1na2vs0mg"},{"bike_id":"bba62ce6-e583-4244-9cc7-340fbee098b1","system_id":"levelo_inurba_marseille","lat":43.29531,"lon":5.37451,"is_reserved":false,"is_disabled":false,"rental_uris":{"android":"levelo://app?vid=bba62ce6-e583-4244-9cc7-340fbee098b1","ios":"levelo://app?vid=bba62ce6-e583-4244-9cc7-340fbee098b1"},"vehicle_type_id":"4","last_reported":1717445293,"current_range_meters":0,"station_id":"ce4bgkp2rcd13ifvqbmg","pricing_plan_id":"cebpf4jnsgd1na2vs0mg"},{"bike_id":"aa46cce9-f5d1-4626-93f9-b03368994470","system_id":"levelo_inurba_marseille","lat":43.29512,"lon":5.37383,"is_reserved":false,"is_disabled":false,"rental_uris":{"android":"levelo://app?vid=aa46cce9-f5d1-4626-93f9-b03368994470","ios":"levelo://app?vid=aa46cce9-f5d1-4626-93f9-b03368994470"},"vehicle_type_id":"4","last_reported":1717445293,"current_range_meters":0,"station_id":"","pricing_plan_id":"cebpf4jnsgd1na2vs0mg"},{"bike_id":"806b1697-a8f8-4488-ac57-08a465451d59","system_id":"levelo_inurba_marseille","lat":43.304278,"lon":5.388868,"is_reserved":false,"is_disabled":false,"rental_uris":{"android":"levelo://app?vid=806b1697-a8f8-4488-ac57-08a465451d59","ios":"levelo://app?vid=806b1697-a8f8-4488-ac57-08a465451d59"},"vehicle_type_id":"4","last_reported":1717445293,"current_range_meters":22800,"station_id":"ce4bgk12rcd13ifvqbi0","pricing_plan_id":"cebpf4jnsgd1na2vs0mg"},{"bike_id":"9e2d28b3-b65b-4189-91e3-09be9421abfd","system_id":"levelo_inurba_marseille","lat":43.299689,"lon":5.38493,"is_reserved":false,"is_disabled":false,"rental_uris":{"android":"levelo://app?vid=9e2d28b3-b65b-4189-91e3-09be9421abfd","ios":"levelo://app?vid=9e2d28b3-b65b-4189-91e3-09be9421abfd"},"vehicle_type_id":"4","last_reported":1717445293,"current_range_meters":0,"station_id":"ce4bgj92rcd13ifvqbd0","pricing_plan_id":"cebpf4jnsgd1na2vs0mg"},{"bike_id":"f5c364c0-7b45-4cf7-ab3f-22f56d2847f2","system_id":"levelo_inurba_marseille","lat":43.299717,"lon":5.384845,"is_reserved":false,"is_disabled":false,"rental_uris":{"android":"levelo://app?vid=f5c364c0-7b45-4cf7-ab3f-22f56d2847f2","ios":"levelo://app?vid=f5c364c0-7b45-4cf7-ab3f-22f56d2847f2"},"vehicle_type_id":"4","last_reported":1717445293,"current_range_meters":21200,"station_id":"ce4bgj92rcd13ifvqbd0","pricing_plan_id":"cebpf4jnsgd1na2vs0mg"},{"bike_id":"ba9481f5-18f5-4ff3-9143-a54849bd9987","system_id":"levelo_inurba_marseille","lat":43.304278,"lon":5.388868,"is_reserved":false,"is_disabled":false,"rental_uris":{"android":"levelo://app?vid=ba9481f5-18f5-4ff3-9143-a54849bd9987","ios":"levelo://app?vid=ba9481f5-18f5-4ff3-9143-a54849bd9987"},"vehicle_type_id":"4","last_reported":1717445293,"current_range_meters":2800,"station_id":"ce4bgk12rcd13ifvqbi0","pricing_plan_id":"cebpf4jnsgd1na2vs0mg"},{"bike_id":"06a6853c-e4c2-4603-9ed1-4a9c3e8ef55b","system_id":"levelo_inurba_marseille","lat":43.310394,"lon":5.39307,"is_reserved":false,"is_disabled":false,"rental_uris":{"android":"levelo://app?vid=06a6853c-e4c2-4603-9ed1-4a9c3e8ef55b","ios":"levelo://app?vid=06a6853c-e4c2-4603-9ed1-4a9c3e8ef55b"},"vehicle_type_id":"4","last_reported":1717445293,"current_range_meters":4800,"station_id":"","pricing_plan_id":"cebpf4jnsgd1na2vs0mg"},{"bike_id":"de425594-1d7a-416a-b1f2-5a19978920f0","system_id":"levelo_inurba_marseille","lat":43.32367,"lon":5.38888,"is_reserved":false,"is_disabled":false,"rental_uris":{"android":"levelo://app?vid=de425594-1d7a-416a-b1f2-5a19978920f0","ios":"levelo://app?vid=de425594-1d7a-416a-b1f2-5a19978920f0"},"vehicle_type_id":"4","last_reported":1717445293,"current_range_meters":3600,"station_id":"ce4bhqp2rcd13ifvqhog","pricing_plan_id":"cebpf4jnsgd1na2vs0mg"},{"bike_id":"95310373-a3bc-4266-9cf1-a267850db416","system_id":"levelo_inurba_marseille","lat":43.312026,"lon":5.39369,"is_reserved":false,"is_disabled":false,"rental_uris":{"android":"levelo://app?vid=95310373-a3bc-4266-9cf1-a267850db416","ios":"levelo://app?vid=95310373-a3bc-4266-9cf1-a267850db416"},"vehicle_type_id":"4","last_reported":1717445293,"current_range_meters":6000,"station_id":"","pricing_plan_id":"cebpf4jnsgd1na2vs0mg"},{"bike_id":"06550258-9448-4ed0-a191-b2b99a496791","system_id":"levelo_inurba_marseille","lat":43.304278,"lon":5.388868,"is_reserved":false,"is_disabled":false,"rental_uris":{"android":"levelo://app?vid=06550258-9448-4ed0-a191-b2b99a496791","ios":"levelo://app?vid=06550258-9448-4ed0-a191-b2b99a496791"},"vehicle_type_id":"4","last_reported":1717445293,"current_range_meters":16800,"station_id":"ce4bgk12rcd13ifvqbi0","pricing_plan_id":"cebpf4jnsgd1na2vs0mg"},{"bike_id":"a5c67311-fbdc-4ef8-91d0-726b5d1a18dd","system_id":"levelo_inurba_marseille","lat":43.292749,"lon":5.368398,"is_reserved":false,"is_disabled":false,"rental_uris":{"android":"levelo://app?vid=a5c67311-fbdc-4ef8-91d0-726b5d1a18dd","ios":"levelo://app?vid=a5c67311-fbdc-4ef8-91d0-726b5d1a18dd"},"vehicle_type_id":"4","last_reported":1717445293,"current_range_meters":1600,"station_id":"ce4bhbp2rcd13ifvqesg","pricing_plan_id":"cebpf4jnsgd1na2vs0mg"},{"bike_id":"20d2be00-1f96-4009-a9f8-1c3c67ee9f11","system_id":"levelo_inurba_marseille","lat":43.30248,"lon":5.39045,"is_reserved":false,"is_disabled":false,"rental_uris":{"android":"levelo://app?vid=20d2be00-1f96-4009-a9f8-1c3c67ee9f11","ios":"levelo://app?vid=20d2be00-1f96-4009-a9f8-1c3c67ee9f11"},"vehicle_type_id":"4","last_reported":1717445293,"current_range_meters":0,"station_id":"","pricing_plan_id":"cebpf4jnsgd1na2vs0mg"},{"bike_id":"c43f21fd-377b-4de5-a10a-575ce1569344","system_id":"levelo_inurba_marseille","lat":43.293259,"lon":5.371586,"is_reserved":false,"is_disabled":false,"rental_uris":{"android":"levelo://app?vid=c43f21fd-377b-4de5-a10a-575ce1569344","ios":"levelo://app?vid=c43f21fd-377b-4de5-a10a-575ce1569344"},"vehicle_type_id":"4","last_reported":1717445293,"current_range_meters":26000,"station_id":"ce4bgh92rcd13ifvqb40","pricing_plan_id":"cebpf4jnsgd1na2vs0mg"},{"bike_id":"6c71bc0a-56e0-4714-a147-f9d534e5cbaf","system_id":"levelo_inurba_marseille","lat":43.29274,"lon":5.3684,"is_reserved":false,"is_disabled":false,"rental_uris":{"android":"levelo://app?vid=6c71bc0a-56e0-4714-a147-f9d534e5cbaf","ios":"levelo://app?vid=6c71bc0a-56e0-4714-a147-f9d534e5cbaf"},"vehicle_type_id":"4","last_reported":1717445293,"current_range_meters":0,"station_id":"ce4bhbp2rcd13ifvqesg","pricing_plan_id":"cebpf4jnsgd1na2vs0mg"},{"bike_id":"1d7bdaa2-34f4-45e1-905b-479700add00e","system_id":"levelo_inurba_marseille","lat":43.293009,"lon":5.374584,"is_reserved":false,"is_disabled":false,"rental_uris":{"android":"levelo://app?vid=1d7bdaa2-34f4-45e1-905b-479700add00e","ios":"levelo://app?vid=1d7bdaa2-34f4-45e1-905b-479700add00e"},"vehicle_type_id":"4","last_reported":1717445293,"current_range_meters":11600,"station_id":"ce4bgi12rcd13ifvqb70","pricing_plan_id":"cebpf4jnsgd1na2vs0mg"},{"bike_id":"8e8497c9-3957-4e26-919e-bd4b34ae9bd8","system_id":"levelo_inurba_marseille","lat":43.305994,"lon":5.393687,"is_reserved":false,"is_disabled":false,"rental_uris":{"android":"levelo://app?vid=8e8497c9-3957-4e26-919e-bd4b34ae9bd8","ios":"levelo://app?vid=8e8497c9-3957-4e26-919e-bd4b34ae9bd8"},"vehicle_type_id":"4","last_reported":1717445293,"current_range_meters":18000,"station_id":"ce4bh0p2rcd13ifvqd80","pricing_plan_id":"cebpf4jnsgd1na2vs0mg"},{"bike_id":"82ec3614-5bae-4389-b627-93b70ecfd75a","system_id":"levelo_inurba_marseille","lat":43.305994,"lon":5.393687,"is_reserved":false,"is_disabled":false,"rental_uris":{"android":"levelo://app?vid=82ec3614-5bae-4389-b627-93b70ecfd75a","ios":"levelo://app?vid=82ec3614-5bae-4389-b627-93b70ecfd75a"},"vehicle_type_id":"4","last_reported":1717445293,"current_range_meters":16800,"station_id":"ce4bh0p2rcd13ifvqd80","pricing_plan_id":"cebpf4jnsgd1na2vs0mg"},{"bike_id":"12e6e575-499e-4696-b239-09860bc504ea","system_id":"levelo_inurba_marseille","lat":43.293009,"lon":5.374584,"is_reserved":false,"is_disabled":false,"rental_uris":{"android":"levelo://app?vid=12e6e575-499e-4696-b239-09860bc504ea","ios":"levelo://app?vid=12e6e575-499e-4696-b239-09860bc504ea"},"vehicle_type_id":"4","last_reported":1717445293,"current_range_meters":5200,"station_id":"ce4bgi12rcd13ifvqb70","pricing_plan_id":"cebpf4jnsgd1na2vs0mg"},{"bike_id":"66a7563b-9b59-485b-8957-93a82aa8f39a","system_id":"levelo_inurba_marseille","lat":43.305994,"lon":5.393687,"is_reserved":false,"is_disabled":false,"rental_uris":{"android":"levelo://app?vid=66a7563b-9b59-485b-8957-93a82aa8f39a","ios":"levelo://app?vid=66a7563b-9b59-485b-8957-93a82aa8f39a"},"vehicle_type_id":"4","last_reported":1717445293,"current_range_meters":11600,"station_id":"ce4bh0p2rcd13ifvqd80","pricing_plan_id":"cebpf4jnsgd1na2vs0mg"},{"bike_id":"49fe8cbf-b2c8-4b36-9e02-01643f7aaee3","system_id":"levelo_inurba_marseille","lat":43.303002,"lon":5.392142,"is_reserved":false,"is_disabled":false,"rental_uris":{"android":"levelo://app?vid=49fe8cbf-b2c8-4b36-9e02-01643f7aaee3","ios":"levelo://app?vid=49fe8cbf-b2c8-4b36-9e02-01643f7aaee3"},"vehicle_type_id":"4","last_reported":1717445293,"current_range_meters":25600,"station_id":"ce4bgkh2rcd13ifvqbk0","pricing_plan_id":"cebpf4jnsgd1na2vs0mg"},{"bike_id":"d230ea82-3518-426c-a8c0-8fe77098f4e8","system_id":"levelo_inurba_marseille","lat":43.302992,"lon":5.392136,"is_reserved":false,"is_disabled":false,"rental_uris":{"android":"levelo://app?vid=d230ea82-3518-426c-a8c0-8fe77098f4e8","ios":"levelo://app?vid=d230ea82-3518-426c-a8c0-8fe77098f4e8"},"vehicle_type_id":"4","last_reported":1717445293,"current_range_meters":29600,"station_id":"ce4bgkh2rcd13ifvqbk0","pricing_plan_id":"cebpf4jnsgd1na2vs0mg"},{"bike_id":"d94500cf-8073-4f18-a731-395403ffdb5e","system_id":"levelo_inurba_marseille","lat":43.2936,"lon":5.37835,"is_reserved":false,"is_disabled":false,"rental_uris":{"android":"levelo://app?vid=d94500cf-8073-4f18-a731-395403ffdb5e","ios":"levelo://app?vid=d94500cf-8073-4f18-a731-395403ffdb5e"},"vehicle_type_id":"4","last_reported":1717445293,"current_range_meters":0,"station_id":"ce4bgjh2rcd13ifvqbf0","pricing_plan_id":"cebpf4jnsgd1na2vs0mg"},{"bike_id":"91a261e6-1d2b-4def-976e-d70af5404364","system_id":"levelo_inurba_marseille","lat":43.303002,"lon":5.392142,"is_reserved":false,"is_disabled":false,"rental_uris":{"android":"levelo://app?vid=91a261e6-1d2b-4def-976e-d70af5404364","ios":"levelo://app?vid=91a261e6-1d2b-4def-976e-d70af5404364"},"vehicle_type_id":"4","last_reported":1717445293,"current_range_meters":1200,"station_id":"ce4bgkh2rcd13ifvqbk0","pricing_plan_id":"cebpf4jnsgd1na2vs0mg"},{"bike_id":"5c9d78d2-1927-4417-9a60-7da9a73926ff","system_id":"levelo_inurba_marseille","lat":43.305994,"lon":5.393687,"is_reserved":false,"is_disabled":false,"rental_uris":{"android":"levelo://app?vid=5c9d78d2-1927-4417-9a60-7da9a73926ff","ios":"levelo://app?vid=5c9d78d2-1927-4417-9a60-7da9a73926ff"},"vehicle_type_id":"4","last_reported":1717445293,"current_range_meters":16400,"station_id":"ce4bh0p2rcd13ifvqd80","pricing_plan_id":"cebpf4jnsgd1na2vs0mg"},{"bike_id":"1a9ee2ea-5835-4424-8c05-1ada29f85b2b","system_id":"levelo_inurba_marseille","lat":43.2936,"lon":5.37835,"is_reserved":false,"is_disabled":false,"rental_uris":{"android":"levelo://app?vid=1a9ee2ea-5835-4424-8c05-1ada29f85b2b","ios":"levelo://app?vid=1a9ee2ea-5835-4424-8c05-1ada29f85b2b"},"vehicle_type_id":"4","last_reported":1717445293,"current_range_meters":0,"station_id":"ce4bgjh2rcd13ifvqbf0","pricing_plan_id":"cebpf4jnsgd1na2vs0mg"},{"bike_id":"1a02f348-baf8-4190-ac6b-4116cd091ef6","system_id":"levelo_inurba_marseille","lat":43.2936,"lon":5.37835,"is_reserved":false,"is_disabled":false,"rental_uris":{"android":"levelo://app?vid=1a02f348-baf8-4190-ac6b-4116cd091ef6","ios":"levelo://app?vid=1a02f348-baf8-4190-ac6b-4116cd091ef6"},"vehicle_type_id":"4","last_reported":1717445293,"current_range_meters":19600,"station_id":"ce4bgjh2rcd13ifvqbf0","pricing_plan_id":"cebpf4jnsgd1na2vs0mg"},{"bike_id":"fd96fef2-3f3f-4aae-91e6-cb5e5c684ad4","system_id":"levelo_inurba_marseille","lat":43.30337,"lon":5.39252,"is_reserved":false,"is_disabled":false,"rental_uris":{"android":"levelo://app?vid=fd96fef2-3f3f-4aae-91e6-cb5e5c684ad4","ios":"levelo://app?vid=fd96fef2-3f3f-4aae-91e6-cb5e5c684ad4"},"vehicle_type_id":"4","last_reported":1717445293,"current_range_meters":8400,"station_id":"","pricing_plan_id":"cebpf4jnsgd1na2vs0mg"},{"bike_id":"04d5c211-1482-4a32-9ee8-b2191039ee1f","system_id":"levelo_inurba_marseille","lat":43.2936,"lon":5.37835,"is_reserved":false,"is_disabled":false,"rental_uris":{"android":"levelo://app?vid=04d5c211-1482-4a32-9ee8-b2191039ee1f","ios":"levelo://app?vid=04d5c211-1482-4a32-9ee8-b2191039ee1f"},"vehicle_type_id":"4","last_reported":1717445293,"current_range_meters":2000,"station_id":"ce4bgjh2rcd13ifvqbf0","pricing_plan_id":"cebpf4jnsgd1na2vs0mg"},{"bike_id":"972d5a42-1b35-481f-b0ee-971e577eeb61","system_id":"levelo_inurba_marseille","lat":43.298976,"lon":5.388554,"is_reserved":false,"is_disabled":false,"rental_uris":{"android":"levelo://app?vid=972d5a42-1b35-481f-b0ee-971e577eeb61","ios":"levelo://app?vid=972d5a42-1b35-481f-b0ee-971e577eeb61"},"vehicle_type_id":"4","last_reported":1717445293,"current_range_meters":27600,"station_id":"ce4bh392rcd13ifvqdl0","pricing_plan_id":"cebpf4jnsgd1na2vs0mg"},{"bike_id":"564a8ca1-1b04-4bd8-bc24-5cc34ea7a574","system_id":"levelo_inurba_marseille","lat":43.30102,"lon":5.39074,"is_reserved":false,"is_disabled":false,"rental_uris":{"android":"levelo://app?vid=564a8ca1-1b04-4bd8-bc24-5cc34ea7a574","ios":"levelo://app?vid=564a8ca1-1b04-4bd8-bc24-5cc34ea7a574"},"vehicle_type_id":"4","last_reported":1717445293,"current_range_meters":15200,"station_id":"ce4bh192rcd13ifvqdb0","pricing_plan_id":"cebpf4jnsgd1na2vs0mg"},{"bike_id":"cd1de856-4d88-4e90-b771-3c4d588f4b36","system_id":"levelo_inurba_marseille","lat":43.300862,"lon":5.390639,"is_reserved":false,"is_disabled":false,"rental_uris":{"android":"levelo://app?vid=cd1de856-4d88-4e90-b771-3c4d588f4b36","ios":"levelo://app?vid=cd1de856-4d88-4e90-b771-3c4d588f4b36"},"vehicle_type_id":"4","last_reported":1717445293,"current_range_meters":4400,"station_id":"ce4bh192rcd13ifvqdb0","pricing_plan_id":"cebpf4jnsgd1na2vs0mg"},{"bike_id":"fde8d6df-a904-4fb9-9eab-9ee873bb8819","system_id":"levelo_inurba_marseille","lat":43.30094,"lon":5.39072,"is_reserved":false,"is_disabled":false,"rental_uris":{"android":"levelo://app?vid=fde8d6df-a904-4fb9-9eab-9ee873bb8819","ios":"levelo://app?vid=fde8d6df-a904-4fb9-9eab-9ee873bb8819"},"vehicle_type_id":"4","last_reported":1717445293,"current_range_meters":6400,"station_id":"ce4bh192rcd13ifvqdb0","pricing_plan_id":"cebpf4jnsgd1na2vs0mg"},{"bike_id":"7747193d-c6ea-4aad-bb9f-ac7473bf3c4e","system_id":"levelo_inurba_marseille","lat":43.30085,"lon":5.390856,"is_reserved":false,"is_disabled":false,"rental_uris":{"android":"levelo://app?vid=7747193d-c6ea-4aad-bb9f-ac7473bf3c4e","ios":"levelo://app?vid=7747193d-c6ea-4aad-bb9f-ac7473bf3c4e"},"vehicle_type_id":"4","last_reported":1717445293,"current_range_meters":16800,"station_id":"ce4bh192rcd13ifvqdb0","pricing_plan_id":"cebpf4jnsgd1na2vs0mg"},{"bike_id":"cd540f56-c6d8-43db-82e6-8e924ed8a7bd","system_id":"levelo_inurba_marseille","lat":43.30094,"lon":5.39076,"is_reserved":false,"is_disabled":false,"rental_uris":{"android":"levelo://app?vid=cd540f56-c6d8-43db-82e6-8e924ed8a7bd","ios":"levelo://app?vid=cd540f56-c6d8-43db-82e6-8e924ed8a7bd"},"vehicle_type_id":"4","last_reported":1717445293,"current_range_meters":18000,"station_id":"ce4bh192rcd13ifvqdb0","pricing_plan_id":"cebpf4jnsgd1na2vs0mg"},{"bike_id":"916c5c58-d3e9-4213-a157-cc8b842c3b06","system_id":"levelo_inurba_marseille","lat":43.292311,"lon":5.360731,"is_reserved":false,"is_disabled":false,"rental_uris":{"android":"levelo://app?vid=916c5c58-d3e9-4213-a157-cc8b842c3b06","ios":"levelo://app?vid=916c5c58-d3e9-4213-a157-cc8b842c3b06"},"vehicle_type_id":"4","last_reported":1717445293,"current_range_meters":31200,"station_id":"ce4bhbh2rcd13ifvqeqg","pricing_plan_id":"cebpf4jnsgd1na2vs0mg"},{"bike_id":"17d19355-f4e9-4b79-8510-17ead31d78d1","system_id":"levelo_inurba_marseille","lat":43.30085,"lon":5.39075,"is_reserved":false,"is_disabled":false,"rental_uris":{"android":"levelo://app?vid=17d19355-f4e9-4b79-8510-17ead31d78d1","ios":"levelo://app?vid=17d19355-f4e9-4b79-8510-17ead31d78d1"},"vehicle_type_id":"4","last_reported":1717445293,"current_range_meters":23200,"station_id":"ce4bh192rcd13ifvqdb0","pricing_plan_id":"cebpf4jnsgd1na2vs0mg"},{"bike_id":"3ef8bf8d-bd9d-46ba-befa-e40b015f22b3","system_id":"levelo_inurba_marseille","lat":43.30085,"lon":5.390856,"is_reserved":false,"is_disabled":false,"rental_uris":{"android":"levelo://app?vid=3ef8bf8d-bd9d-46ba-befa-e40b015f22b3","ios":"levelo://app?vid=3ef8bf8d-bd9d-46ba-befa-e40b015f22b3"},"vehicle_type_id":"4","last_reported":1717445293,"current_range_meters":0,"station_id":"ce4bh192rcd13ifvqdb0","pricing_plan_id":"cebpf4jnsgd1na2vs0mg"},{"bike_id":"2819e542-9192-422c-8b84-2e1e03b5ac55","system_id":"levelo_inurba_marseille","lat":43.30081,"lon":5.39075,"is_reserved":false,"is_disabled":false,"rental_uris":{"android":"levelo://app?vid=2819e542-9192-422c-8b84-2e1e03b5ac55","ios":"levelo://app?vid=2819e542-9192-422c-8b84-2e1e03b5ac55"},"vehicle_type_id":"4","last_reported":1717445293,"current_range_meters":22800,"station_id":"ce4bh192rcd13ifvqdb0","pricing_plan_id":"cebpf4jnsgd1na2vs0mg"},{"bike_id":"a30d97d5-a174-429f-ac1a-a954326f069c","system_id":"levelo_inurba_marseille","lat":43.30094,"lon":5.39096,"is_reserved":false,"is_disabled":false,"rental_uris":{"android":"levelo://app?vid=a30d97d5-a174-429f-ac1a-a954326f069c","ios":"levelo://app?vid=a30d97d5-a174-429f-ac1a-a954326f069c"},"vehicle_type_id":"4","last_reported":1717445293,"current_range_meters":0,"station_id":"ce4bh192rcd13ifvqdb0","pricing_plan_id":"cebpf4jnsgd1na2vs0mg"},{"bike_id":"7395c5e1-7869-4a3c-84bd-af64055a96d1","system_id":"levelo_inurba_marseille","lat":43.298509,"lon":5.388485,"is_reserved":false,"is_disabled":false,"rental_uris":{"android":"levelo://app?vid=7395c5e1-7869-4a3c-84bd-af64055a96d1","ios":"levelo://app?vid=7395c5e1-7869-4a3c-84bd-af64055a96d1"},"vehicle_type_id":"4","last_reported":1717445293,"current_range_meters":2800,"station_id":"ce4bgvp2rcd13ifvqcu0","pricing_plan_id":"cebpf4jnsgd1na2vs0mg"},{"bike_id":"5d5cfbbc-b910-482d-b725-2aa568ba9cd8","system_id":"levelo_inurba_marseille","lat":43.301117,"lon":5.398795,"is_reserved":false,"is_disabled":false,"rental_uris":{"android":"levelo://app?vid=5d5cfbbc-b910-482d-b725-2aa568ba9cd8","ios":"levelo://app?vid=5d5cfbbc-b910-482d-b725-2aa568ba9cd8"},"vehicle_type_id":"4","last_reported":1717445293,"current_range_meters":5200,"station_id":"ce4bh0h2rcd13ifvqd40","pricing_plan_id":"cebpf4jnsgd1na2vs0mg"},{"bike_id":"b383eb87-f02b-43db-bb06-945d9056afe1","system_id":"levelo_inurba_marseille","lat":43.30085,"lon":5.390856,"is_reserved":false,"is_disabled":false,"rental_uris":{"android":"levelo://app?vid=b383eb87-f02b-43db-bb06-945d9056afe1","ios":"levelo://app?vid=b383eb87-f02b-43db-bb06-945d9056afe1"},"vehicle_type_id":"4","last_reported":1717445293,"current_range_meters":5200,"station_id":"ce4bh192rcd13ifvqdb0","pricing_plan_id":"cebpf4jnsgd1na2vs0mg"},{"bike_id":"8fb56bab-e847-498a-a1c2-c09a786d14ff","system_id":"levelo_inurba_marseille","lat":43.297815,"lon":5.393548,"is_reserved":false,"is_disabled":false,"rental_uris":{"android":"levelo://app?vid=8fb56bab-e847-498a-a1c2-c09a786d14ff","ios":"levelo://app?vid=8fb56bab-e847-498a-a1c2-c09a786d14ff"},"vehicle_type_id":"4","last_reported":1717445293,"current_range_meters":27200,"station_id":"chh1huq6cuj3fo74tm60","pricing_plan_id":"cebpf4jnsgd1na2vs0mg"},{"bike_id":"dc68e4d7-30ce-4d08-9aff-312acaa43c57","system_id":"levelo_inurba_marseille","lat":43.298764,"lon":5.388973,"is_reserved":false,"is_disabled":false,"rental_uris":{"android":"levelo://app?vid=dc68e4d7-30ce-4d08-9aff-312acaa43c57","ios":"levelo://app?vid=dc68e4d7-30ce-4d08-9aff-312acaa43c57"},"vehicle_type_id":"4","last_reported":1717445293,"current_range_meters":12000,"station_id":"ce4bh392rcd13ifvqdl0","pricing_plan_id":"cebpf4jnsgd1na2vs0mg"},{"bike_id":"7e7897af-c3ab-4e6a-8f87-72b3326341ab","system_id":"levelo_inurba_marseille","lat":43.298764,"lon":5.388973,"is_reserved":false,"is_disabled":false,"rental_uris":{"android":"levelo://app?vid=7e7897af-c3ab-4e6a-8f87-72b3326341ab","ios":"levelo://app?vid=7e7897af-c3ab-4e6a-8f87-72b3326341ab"},"vehicle_type_id":"4","last_reported":1717445293,"current_range_meters":29200,"station_id":"ce4bh392rcd13ifvqdl0","pricing_plan_id":"cebpf4jnsgd1na2vs0mg"},{"bike_id":"082083fa-ec61-48b5-9bf6-9ddbb743bec2","system_id":"levelo_inurba_marseille","lat":43.291675,"lon":5.371583,"is_reserved":false,"is_disabled":false,"rental_uris":{"android":"levelo://app?vid=082083fa-ec61-48b5-9bf6-9ddbb743bec2","ios":"levelo://app?vid=082083fa-ec61-48b5-9bf6-9ddbb743bec2"},"vehicle_type_id":"4","last_reported":1717445293,"current_range_meters":12000,"station_id":"ce4bha92rcd13ifvqeh0","pricing_plan_id":"cebpf4jnsgd1na2vs0mg"},{"bike_id":"e4d3f24f-099d-4348-b14f-9beed459606a","system_id":"levelo_inurba_marseille","lat":43.29879,"lon":5.38917,"is_reserved":false,"is_disabled":false,"rental_uris":{"android":"levelo://app?vid=e4d3f24f-099d-4348-b14f-9beed459606a","ios":"levelo://app?vid=e4d3f24f-099d-4348-b14f-9beed459606a"},"vehicle_type_id":"4","last_reported":1717445293,"current_range_meters":27600,"station_id":"ce4bh392rcd13ifvqdl0","pricing_plan_id":"cebpf4jnsgd1na2vs0mg"},{"bike_id":"2c6da825-f0be-4c73-8f41-6a2cc7a3caa8","system_id":"levelo_inurba_marseille","lat":43.29877,"lon":5.38918,"is_reserved":false,"is_disabled":false,"rental_uris":{"android":"levelo://app?vid=2c6da825-f0be-4c73-8f41-6a2cc7a3caa8","ios":"levelo://app?vid=2c6da825-f0be-4c73-8f41-6a2cc7a3caa8"},"vehicle_type_id":"4","last_reported":1717445293,"current_range_meters":31200,"station_id":"ce4bh392rcd13ifvqdl0","pricing_plan_id":"cebpf4jnsgd1na2vs0mg"},{"bike_id":"7d6f6b7f-ac2b-4865-91c0-d136be56d7cc","system_id":"levelo_inurba_marseille","lat":43.29869,"lon":5.38921,"is_reserved":false,"is_disabled":false,"rental_uris":{"android":"levelo://app?vid=7d6f6b7f-ac2b-4865-91c0-d136be56d7cc","ios":"levelo://app?vid=7d6f6b7f-ac2b-4865-91c0-d136be56d7cc"},"vehicle_type_id":"4","last_reported":1717445293,"current_range_meters":30000,"station_id":"ce4bh392rcd13ifvqdl0","pricing_plan_id":"cebpf4jnsgd1na2vs0mg"},{"bike_id":"18e3e0fa-dc0d-4797-b916-b774b33402b5","system_id":"levelo_inurba_marseille","lat":43.308166,"lon":5.396002,"is_reserved":false,"is_disabled":false,"rental_uris":{"android":"levelo://app?vid=18e3e0fa-dc0d-4797-b916-b774b33402b5","ios":"levelo://app?vid=18e3e0fa-dc0d-4797-b916-b774b33402b5"},"vehicle_type_id":"4","last_reported":1717445293,"current_range_meters":8800,"station_id":"ce4bh012rcd13ifvqcv0","pricing_plan_id":"cebpf4jnsgd1na2vs0mg"},{"bike_id":"b811fbac-ad93-44e7-b6ce-80d6d8e10cf0","system_id":"levelo_inurba_marseille","lat":43.313291,"lon":5.396838,"is_reserved":false,"is_disabled":false,"rental_uris":{"android":"levelo://app?vid=b811fbac-ad93-44e7-b6ce-80d6d8e10cf0","ios":"levelo://app?vid=b811fbac-ad93-44e7-b6ce-80d6d8e10cf0"},"vehicle_type_id":"4","last_reported":1717445293,"current_range_meters":30000,"station_id":"ce4bgvp2rcd13ifvqcu0","pricing_plan_id":"cebpf4jnsgd1na2vs0mg"},{"bike_id":"04d390bb-df88-4050-b396-f9ba4a6ee525","system_id":"levelo_inurba_marseille","lat":43.309038,"lon":5.396546,"is_reserved":false,"is_disabled":false,"rental_uris":{"android":"levelo://app?vid=04d390bb-df88-4050-b396-f9ba4a6ee525","ios":"levelo://app?vid=04d390bb-df88-4050-b396-f9ba4a6ee525"},"vehicle_type_id":"4","last_reported":1717445293,"current_range_meters":8000,"station_id":"ce4bh012rcd13ifvqcv0","pricing_plan_id":"cebpf4jnsgd1na2vs0mg"},{"bike_id":"4e635632-991a-4db8-bab9-515ec40a2976","system_id":"levelo_inurba_marseille","lat":43.292005,"lon":5.357875,"is_reserved":false,"is_disabled":false,"rental_uris":{"android":"levelo://app?vid=4e635632-991a-4db8-bab9-515ec40a2976","ios":"levelo://app?vid=4e635632-991a-4db8-bab9-515ec40a2976"},"vehicle_type_id":"4","last_reported":1717445293,"current_range_meters":31600,"station_id":"ce4bhb12rcd13ifvqel0","pricing_plan_id":"cebpf4jnsgd1na2vs0mg"},{"bike_id":"b0e62f19-cfd5-4a7f-a809-aa2f15fd2665","system_id":"levelo_inurba_marseille","lat":43.309047,"lon":5.396551,"is_reserved":false,"is_disabled":false,"rental_uris":{"android":"levelo://app?vid=b0e62f19-cfd5-4a7f-a809-aa2f15fd2665","ios":"levelo://app?vid=b0e62f19-cfd5-4a7f-a809-aa2f15fd2665"},"vehicle_type_id":"4","last_reported":1717445293,"current_range_meters":19600,"station_id":"ce4bh012rcd13ifvqcv0","pricing_plan_id":"cebpf4jnsgd1na2vs0mg"},{"bike_id":"1f649f26-1066-4a5f-ad2e-53a05de859b4","system_id":"levelo_inurba_marseille","lat":43.31335,"lon":5.3969,"is_reserved":false,"is_disabled":false,"rental_uris":{"android":"levelo://app?vid=1f649f26-1066-4a5f-ad2e-53a05de859b4","ios":"levelo://app?vid=1f649f26-1066-4a5f-ad2e-53a05de859b4"},"vehicle_type_id":"4","last_reported":1717445293,"current_range_meters":23200,"station_id":"ce4bgvp2rcd13ifvqcu0","pricing_plan_id":"cebpf4jnsgd1na2vs0mg"},{"bike_id":"bf838e39-c0b6-433f-8f23-379c6999f64c","system_id":"levelo_inurba_marseille","lat":43.3133,"lon":5.39691,"is_reserved":false,"is_disabled":false,"rental_uris":{"android":"levelo://app?vid=bf838e39-c0b6-433f-8f23-379c6999f64c","ios":"levelo://app?vid=bf838e39-c0b6-433f-8f23-379c6999f64c"},"vehicle_type_id":"4","last_reported":1717445293,"current_range_meters":2000,"station_id":"ce4bgvp2rcd13ifvqcu0","pricing_plan_id":"cebpf4jnsgd1na2vs0mg"},{"bike_id":"01c3de49-38ae-4867-89b6-06ffde7a1adf","system_id":"levelo_inurba_marseille","lat":43.313291,"lon":5.396838,"is_reserved":false,"is_disabled":false,"rental_uris":{"android":"levelo://app?vid=01c3de49-38ae-4867-89b6-06ffde7a1adf","ios":"levelo://app?vid=01c3de49-38ae-4867-89b6-06ffde7a1adf"},"vehicle_type_id":"4","last_reported":1717445293,"current_range_meters":1200,"station_id":"ce4bgvp2rcd13ifvqcu0","pricing_plan_id":"cebpf4jnsgd1na2vs0mg"},{"bike_id":"1bf8cc81-ac89-45d4-8159-3e9da8e5c7d0","system_id":"levelo_inurba_marseille","lat":43.313291,"lon":5.396838,"is_reserved":false,"is_disabled":false,"rental_uris":{"android":"levelo://app?vid=1bf8cc81-ac89-45d4-8159-3e9da8e5c7d0","ios":"levelo://app?vid=1bf8cc81-ac89-45d4-8159-3e9da8e5c7d0"},"vehicle_type_id":"4","last_reported":1717445293,"current_range_meters":3600,"station_id":"ce4bgvp2rcd13ifvqcu0","pricing_plan_id":"cebpf4jnsgd1na2vs0mg"},{"bike_id":"5cb95b48-0a4d-4ff5-8f5d-2e4e9361d1c4","system_id":"levelo_inurba_marseille","lat":43.309047,"lon":5.396551,"is_reserved":false,"is_disabled":false,"rental_uris":{"android":"levelo://app?vid=5cb95b48-0a4d-4ff5-8f5d-2e4e9361d1c4","ios":"levelo://app?vid=5cb95b48-0a4d-4ff5-8f5d-2e4e9361d1c4"},"vehicle_type_id":"4","last_reported":1717445293,"current_range_meters":5200,"station_id":"ce4bh012rcd13ifvqcv0","pricing_plan_id":"cebpf4jnsgd1na2vs0mg"},{"bike_id":"bb1a07ac-29a6-4a06-9429-de982c03eec6","system_id":"levelo_inurba_marseille","lat":43.313291,"lon":5.396838,"is_reserved":false,"is_disabled":false,"rental_uris":{"android":"levelo://app?vid=bb1a07ac-29a6-4a06-9429-de982c03eec6","ios":"levelo://app?vid=bb1a07ac-29a6-4a06-9429-de982c03eec6"},"vehicle_type_id":"4","last_reported":1717445293,"current_range_meters":3200,"station_id":"ce4bgvp2rcd13ifvqcu0","pricing_plan_id":"cebpf4jnsgd1na2vs0mg"},{"bike_id":"12f59f1f-766a-429e-98d9-e6640ff29335","system_id":"levelo_inurba_marseille","lat":43.313291,"lon":5.396838,"is_reserved":false,"is_disabled":false,"rental_uris":{"android":"levelo://app?vid=12f59f1f-766a-429e-98d9-e6640ff29335","ios":"levelo://app?vid=12f59f1f-766a-429e-98d9-e6640ff29335"},"vehicle_type_id":"4","last_reported":1717445293,"current_range_meters":21200,"station_id":"ce4bgvp2rcd13ifvqcu0","pricing_plan_id":"cebpf4jnsgd1na2vs0mg"},{"bike_id":"89eed356-02e4-48cc-9a01-ab31d3b01ffe","system_id":"levelo_inurba_marseille","lat":43.291994,"lon":5.357886,"is_reserved":false,"is_disabled":false,"rental_uris":{"android":"levelo://app?vid=89eed356-02e4-48cc-9a01-ab31d3b01ffe","ios":"levelo://app?vid=89eed356-02e4-48cc-9a01-ab31d3b01ffe"},"vehicle_type_id":"4","last_reported":1717445293,"current_range_meters":14800,"station_id":"ce4bhb12rcd13ifvqel0","pricing_plan_id":"cebpf4jnsgd1na2vs0mg"},{"bike_id":"eb6887a5-2f2a-429b-b1ba-af0867c28cf3","system_id":"levelo_inurba_marseille","lat":43.309047,"lon":5.396551,"is_reserved":false,"is_disabled":false,"rental_uris":{"android":"levelo://app?vid=eb6887a5-2f2a-429b-b1ba-af0867c28cf3","ios":"levelo://app?vid=eb6887a5-2f2a-429b-b1ba-af0867c28cf3"},"vehicle_type_id":"4","last_reported":1717445293,"current_range_meters":3200,"station_id":"ce4bh012rcd13ifvqcv0","pricing_plan_id":"cebpf4jnsgd1na2vs0mg"},{"bike_id":"5808cbfe-93db-498b-ab2e-eca7c1c145d5","system_id":"levelo_inurba_marseille","lat":43.29529,"lon":5.385581,"is_reserved":false,"is_disabled":false,"rental_uris":{"android":"levelo://app?vid=5808cbfe-93db-498b-ab2e-eca7c1c145d5","ios":"levelo://app?vid=5808cbfe-93db-498b-ab2e-eca7c1c145d5"},"vehicle_type_id":"4","last_reported":1717445293,"current_range_meters":24400,"station_id":"ce4bgih2rcd13ifvqba0","pricing_plan_id":"cebpf4jnsgd1na2vs0mg"},{"bike_id":"d864516c-2941-4b0b-80a4-32b5646db76f","system_id":"levelo_inurba_marseille","lat":43.309047,"lon":5.396551,"is_reserved":false,"is_disabled":false,"rental_uris":{"android":"levelo://app?vid=d864516c-2941-4b0b-80a4-32b5646db76f","ios":"levelo://app?vid=d864516c-2941-4b0b-80a4-32b5646db76f"},"vehicle_type_id":"4","last_reported":1717445293,"current_range_meters":17200,"station_id":"ce4bh012rcd13ifvqcv0","pricing_plan_id":"cebpf4jnsgd1na2vs0mg"},{"bike_id":"1c6e0d38-439a-4469-8929-169da8bfaeb8","system_id":"levelo_inurba_marseille","lat":43.309047,"lon":5.396551,"is_reserved":false,"is_disabled":false,"rental_uris":{"android":"levelo://app?vid=1c6e0d38-439a-4469-8929-169da8bfaeb8","ios":"levelo://app?vid=1c6e0d38-439a-4469-8929-169da8bfaeb8"},"vehicle_type_id":"4","last_reported":1717445293,"current_range_meters":0,"station_id":"ce4bh012rcd13ifvqcv0","pricing_plan_id":"cebpf4jnsgd1na2vs0mg"},{"bike_id":"3e58cec3-a0a2-4a13-97e6-4c773d54aeb4","system_id":"levelo_inurba_marseille","lat":43.309047,"lon":5.396551,"is_reserved":false,"is_disabled":false,"rental_uris":{"android":"levelo://app?vid=3e58cec3-a0a2-4a13-97e6-4c773d54aeb4","ios":"levelo://app?vid=3e58cec3-a0a2-4a13-97e6-4c773d54aeb4"},"vehicle_type_id":"4","last_reported":1717445293,"current_range_meters":13200,"station_id":"ce4bh012rcd13ifvqcv0","pricing_plan_id":"cebpf4jnsgd1na2vs0mg"},{"bike_id":"c1c08ebe-82c5-43c1-ac5d-9f23210b9244","system_id":"levelo_inurba_marseille","lat":43.313291,"lon":5.396838,"is_reserved":false,"is_disabled":false,"rental_uris":{"android":"levelo://app?vid=c1c08ebe-82c5-43c1-ac5d-9f23210b9244","ios":"levelo://app?vid=c1c08ebe-82c5-43c1-ac5d-9f23210b9244"},"vehicle_type_id":"4","last_reported":1717445293,"current_range_meters":22000,"station_id":"ce4bgvp2rcd13ifvqcu0","pricing_plan_id":"cebpf4jnsgd1na2vs0mg"},{"bike_id":"4d3c82a3-c6c6-4d5c-a61a-301f82f9bcdc","system_id":"levelo_inurba_marseille","lat":43.313291,"lon":5.396838,"is_reserved":false,"is_disabled":false,"rental_uris":{"android":"levelo://app?vid=4d3c82a3-c6c6-4d5c-a61a-301f82f9bcdc","ios":"levelo://app?vid=4d3c82a3-c6c6-4d5c-a61a-301f82f9bcdc"},"vehicle_type_id":"4","last_reported":1717445293,"current_range_meters":28400,"station_id":"ce4bgvp2rcd13ifvqcu0","pricing_plan_id":"cebpf4jnsgd1na2vs0mg"},{"bike_id":"af2ab395-fe1f-4ef1-98af-c3e410cc9582","system_id":"levelo_inurba_marseille","lat":43.309047,"lon":5.396551,"is_reserved":false,"is_disabled":false,"rental_uris":{"android":"levelo://app?vid=af2ab395-fe1f-4ef1-98af-c3e410cc9582","ios":"levelo://app?vid=af2ab395-fe1f-4ef1-98af-c3e410cc9582"},"vehicle_type_id":"4","last_reported":1717445293,"current_range_meters":11200,"station_id":"ce4bh012rcd13ifvqcv0","pricing_plan_id":"cebpf4jnsgd1na2vs0mg"},{"bike_id":"fd58661c-9b46-4691-a6b2-9fbed91972d8","system_id":"levelo_inurba_marseille","lat":43.309038,"lon":5.396546,"is_reserved":false,"is_disabled":false,"rental_uris":{"android":"levelo://app?vid=fd58661c-9b46-4691-a6b2-9fbed91972d8","ios":"levelo://app?vid=fd58661c-9b46-4691-a6b2-9fbed91972d8"},"vehicle_type_id":"4","last_reported":1717445293,"current_range_meters":7600,"station_id":"ce4bh012rcd13ifvqcv0","pricing_plan_id":"cebpf4jnsgd1na2vs0mg"},{"bike_id":"a456f48f-aeca-403d-840a-560c5ab5617d","system_id":"levelo_inurba_marseille","lat":43.309038,"lon":5.396546,"is_reserved":false,"is_disabled":false,"rental_uris":{"android":"levelo://app?vid=a456f48f-aeca-403d-840a-560c5ab5617d","ios":"levelo://app?vid=a456f48f-aeca-403d-840a-560c5ab5617d"},"vehicle_type_id":"4","last_reported":1717445293,"current_range_meters":27600,"station_id":"ce4bh012rcd13ifvqcv0","pricing_plan_id":"cebpf4jnsgd1na2vs0mg"},{"bike_id":"97c1ee96-2678-4f05-975f-0d4406924d99","system_id":"levelo_inurba_marseille","lat":43.313175,"lon":5.397056,"is_reserved":false,"is_disabled":false,"rental_uris":{"android":"levelo://app?vid=97c1ee96-2678-4f05-975f-0d4406924d99","ios":"levelo://app?vid=97c1ee96-2678-4f05-975f-0d4406924d99"},"vehicle_type_id":"4","last_reported":1717445293,"current_range_meters":22400,"station_id":"ce4bgvp2rcd13ifvqcu0","pricing_plan_id":"cebpf4jnsgd1na2vs0mg"},{"bike_id":"9cfdac46-0bd4-435a-93b3-81a97fd9c45a","system_id":"levelo_inurba_marseille","lat":43.313291,"lon":5.396838,"is_reserved":false,"is_disabled":false,"rental_uris":{"android":"levelo://app?vid=9cfdac46-0bd4-435a-93b3-81a97fd9c45a","ios":"levelo://app?vid=9cfdac46-0bd4-435a-93b3-81a97fd9c45a"},"vehicle_type_id":"4","last_reported":1717445293,"current_range_meters":10400,"station_id":"ce4bgvp2rcd13ifvqcu0","pricing_plan_id":"cebpf4jnsgd1na2vs0mg"},{"bike_id":"be1494f5-091d-47ea-96c1-7f3ba4846a68","system_id":"levelo_inurba_marseille","lat":43.29529,"lon":5.385581,"is_reserved":false,"is_disabled":false,"rental_uris":{"android":"levelo://app?vid=be1494f5-091d-47ea-96c1-7f3ba4846a68","ios":"levelo://app?vid=be1494f5-091d-47ea-96c1-7f3ba4846a68"},"vehicle_type_id":"4","last_reported":1717445293,"current_range_meters":20000,"station_id":"ce4bgih2rcd13ifvqba0","pricing_plan_id":"cebpf4jnsgd1na2vs0mg"},{"bike_id":"de4a4302-ba7e-4d94-b136-ac6954f6854c","system_id":"levelo_inurba_marseille","lat":43.29529,"lon":5.385581,"is_reserved":false,"is_disabled":false,"rental_uris":{"android":"levelo://app?vid=de4a4302-ba7e-4d94-b136-ac6954f6854c","ios":"levelo://app?vid=de4a4302-ba7e-4d94-b136-ac6954f6854c"},"vehicle_type_id":"4","last_reported":1717445293,"current_range_meters":25600,"station_id":"ce4bgih2rcd13ifvqba0","pricing_plan_id":"cebpf4jnsgd1na2vs0mg"},{"bike_id":"123219d3-f220-4384-b43a-ffdff7587338","system_id":"levelo_inurba_marseille","lat":43.29529,"lon":5.385581,"is_reserved":false,"is_disabled":false,"rental_uris":{"android":"levelo://app?vid=123219d3-f220-4384-b43a-ffdff7587338","ios":"levelo://app?vid=123219d3-f220-4384-b43a-ffdff7587338"},"vehicle_type_id":"4","last_reported":1717445293,"current_range_meters":22400,"station_id":"ce4bgih2rcd13ifvqba0","pricing_plan_id":"cebpf4jnsgd1na2vs0mg"},{"bike_id":"f67eb1bc-31a8-4478-9bd8-6ec8c83fbf7e","system_id":"levelo_inurba_marseille","lat":43.29529,"lon":5.385581,"is_reserved":false,"is_disabled":false,"rental_uris":{"android":"levelo://app?vid=f67eb1bc-31a8-4478-9bd8-6ec8c83fbf7e","ios":"levelo://app?vid=f67eb1bc-31a8-4478-9bd8-6ec8c83fbf7e"},"vehicle_type_id":"4","last_reported":1717445293,"current_range_meters":27600,"station_id":"ce4bgih2rcd13ifvqba0","pricing_plan_id":"cebpf4jnsgd1na2vs0mg"},{"bike_id":"18116d3f-5ed4-4263-9a0c-f38b3e1bff09","system_id":"levelo_inurba_marseille","lat":43.29529,"lon":5.385581,"is_reserved":false,"is_disabled":false,"rental_uris":{"android":"levelo://app?vid=18116d3f-5ed4-4263-9a0c-f38b3e1bff09","ios":"levelo://app?vid=18116d3f-5ed4-4263-9a0c-f38b3e1bff09"},"vehicle_type_id":"4","last_reported":1717445293,"current_range_meters":3600,"station_id":"ce4bgih2rcd13ifvqba0","pricing_plan_id":"cebpf4jnsgd1na2vs0mg"},{"bike_id":"ade8cd57-3ee0-471f-af80-119e8c4c9e60","system_id":"levelo_inurba_marseille","lat":43.29529,"lon":5.385581,"is_reserved":false,"is_disabled":false,"rental_uris":{"android":"levelo://app?vid=ade8cd57-3ee0-471f-af80-119e8c4c9e60","ios":"levelo://app?vid=ade8cd57-3ee0-471f-af80-119e8c4c9e60"},"vehicle_type_id":"4","last_reported":1717445293,"current_range_meters":4400,"station_id":"ce4bgih2rcd13ifvqba0","pricing_plan_id":"cebpf4jnsgd1na2vs0mg"},{"bike_id":"73e8f4e2-d4cb-4520-89af-d273c876e895","system_id":"levelo_inurba_marseille","lat":43.29529,"lon":5.385581,"is_reserved":false,"is_disabled":false,"rental_uris":{"android":"levelo://app?vid=73e8f4e2-d4cb-4520-89af-d273c876e895","ios":"levelo://app?vid=73e8f4e2-d4cb-4520-89af-d273c876e895"},"vehicle_type_id":"4","last_reported":1717445293,"current_range_meters":31600,"station_id":"ce4bgih2rcd13ifvqba0","pricing_plan_id":"cebpf4jnsgd1na2vs0mg"},{"bike_id":"1bf04f4c-9cd1-45b1-aca2-106242ec17ea","system_id":"levelo_inurba_marseille","lat":43.29529,"lon":5.385581,"is_reserved":false,"is_disabled":false,"rental_uris":{"android":"levelo://app?vid=1bf04f4c-9cd1-45b1-aca2-106242ec17ea","ios":"levelo://app?vid=1bf04f4c-9cd1-45b1-aca2-106242ec17ea"},"vehicle_type_id":"4","last_reported":1717445293,"current_range_meters":28800,"station_id":"ce4bgih2rcd13ifvqba0","pricing_plan_id":"cebpf4jnsgd1na2vs0mg"},{"bike_id":"37666141-7480-4f4c-a950-0d8ad2c28652","system_id":"levelo_inurba_marseille","lat":43.29529,"lon":5.385581,"is_reserved":false,"is_disabled":false,"rental_uris":{"android":"levelo://app?vid=37666141-7480-4f4c-a950-0d8ad2c28652","ios":"levelo://app?vid=37666141-7480-4f4c-a950-0d8ad2c28652"},"vehicle_type_id":"4","last_reported":1717445293,"current_range_meters":11600,"station_id":"ce4bgih2rcd13ifvqba0","pricing_plan_id":"cebpf4jnsgd1na2vs0mg"},{"bike_id":"2812af77-ce19-465e-97fc-978aaab8bfe6","system_id":"levelo_inurba_marseille","lat":43.290779,"lon":5.371482,"is_reserved":false,"is_disabled":false,"rental_uris":{"android":"levelo://app?vid=2812af77-ce19-465e-97fc-978aaab8bfe6","ios":"levelo://app?vid=2812af77-ce19-465e-97fc-978aaab8bfe6"},"vehicle_type_id":"4","last_reported":1717445293,"current_range_meters":1200,"station_id":"ce4bh5p2rcd13ifvqe4g","pricing_plan_id":"cebpf4jnsgd1na2vs0mg"},{"bike_id":"598e807e-c3bf-4445-8d05-196c8d000375","system_id":"levelo_inurba_marseille","lat":43.290779,"lon":5.371482,"is_reserved":false,"is_disabled":false,"rental_uris":{"android":"levelo://app?vid=598e807e-c3bf-4445-8d05-196c8d000375","ios":"levelo://app?vid=598e807e-c3bf-4445-8d05-196c8d000375"},"vehicle_type_id":"4","last_reported":1717445293,"current_range_meters":19200,"station_id":"ce4bh5p2rcd13ifvqe4g","pricing_plan_id":"cebpf4jnsgd1na2vs0mg"},{"bike_id":"7ea2da8c-6e1d-4dbe-a076-dad323b68455","system_id":"levelo_inurba_marseille","lat":43.30209,"lon":5.39465,"is_reserved":false,"is_disabled":false,"rental_uris":{"android":"levelo://app?vid=7ea2da8c-6e1d-4dbe-a076-dad323b68455","ios":"levelo://app?vid=7ea2da8c-6e1d-4dbe-a076-dad323b68455"},"vehicle_type_id":"4","last_reported":1717445293,"current_range_meters":24800,"station_id":"ce4bh0p2rcd13ifvqd70","pricing_plan_id":"cebpf4jnsgd1na2vs0mg"},{"bike_id":"d688f50f-22e8-4df3-bb49-35480b9a60b1","system_id":"levelo_inurba_marseille","lat":43.302137,"lon":5.394692,"is_reserved":false,"is_disabled":false,"rental_uris":{"android":"levelo://app?vid=d688f50f-22e8-4df3-bb49-35480b9a60b1","ios":"levelo://app?vid=d688f50f-22e8-4df3-bb49-35480b9a60b1"},"vehicle_type_id":"4","last_reported":1717445293,"current_range_meters":3200,"station_id":"ce4bh0p2rcd13ifvqd70","pricing_plan_id":"cebpf4jnsgd1na2vs0mg"},{"bike_id":"40fd90cd-4233-4454-ac6b-7c44a0f47048","system_id":"levelo_inurba_marseille","lat":43.302008,"lon":5.394694,"is_reserved":false,"is_disabled":false,"rental_uris":{"android":"levelo://app?vid=40fd90cd-4233-4454-ac6b-7c44a0f47048","ios":"levelo://app?vid=40fd90cd-4233-4454-ac6b-7c44a0f47048"},"vehicle_type_id":"4","last_reported":1717445293,"current_range_meters":6000,"station_id":"ce4bh0p2rcd13ifvqd70","pricing_plan_id":"cebpf4jnsgd1na2vs0mg"},{"bike_id":"89fc41cd-5a2e-4d19-b7be-f2bc1c78ca63","system_id":"levelo_inurba_marseille","lat":43.30213,"lon":5.39471,"is_reserved":false,"is_disabled":false,"rental_uris":{"android":"levelo://app?vid=89fc41cd-5a2e-4d19-b7be-f2bc1c78ca63","ios":"levelo://app?vid=89fc41cd-5a2e-4d19-b7be-f2bc1c78ca63"},"vehicle_type_id":"4","last_reported":1717445293,"current_range_meters":3200,"station_id":"ce4bh0p2rcd13ifvqd70","pricing_plan_id":"cebpf4jnsgd1na2vs0mg"},{"bike_id":"456e8f1d-7bea-4ad0-bf3e-5dfc25b738b2","system_id":"levelo_inurba_marseille","lat":43.302008,"lon":5.394694,"is_reserved":false,"is_disabled":false,"rental_uris":{"android":"levelo://app?vid=456e8f1d-7bea-4ad0-bf3e-5dfc25b738b2","ios":"levelo://app?vid=456e8f1d-7bea-4ad0-bf3e-5dfc25b738b2"},"vehicle_type_id":"4","last_reported":1717445293,"current_range_meters":12400,"station_id":"ce4bh0p2rcd13ifvqd70","pricing_plan_id":"cebpf4jnsgd1na2vs0mg"},{"bike_id":"970e6d41-56f8-455b-8448-2619213be576","system_id":"levelo_inurba_marseille","lat":43.29095,"lon":5.37636,"is_reserved":false,"is_disabled":false,"rental_uris":{"android":"levelo://app?vid=970e6d41-56f8-455b-8448-2619213be576","ios":"levelo://app?vid=970e6d41-56f8-455b-8448-2619213be576"},"vehicle_type_id":"4","last_reported":1717445293,"current_range_meters":1200,"station_id":"","pricing_plan_id":"cebpf4jnsgd1na2vs0mg"},{"bike_id":"dee258d3-19e1-48fe-8660-d985dcb6f0ff","system_id":"levelo_inurba_marseille","lat":43.3021,"lon":5.39471,"is_reserved":false,"is_disabled":false,"rental_uris":{"android":"levelo://app?vid=dee258d3-19e1-48fe-8660-d985dcb6f0ff","ios":"levelo://app?vid=dee258d3-19e1-48fe-8660-d985dcb6f0ff"},"vehicle_type_id":"4","last_reported":1717445293,"current_range_meters":27600,"station_id":"ce4bh0p2rcd13ifvqd70","pricing_plan_id":"cebpf4jnsgd1na2vs0mg"},{"bike_id":"fdc148bd-e294-4ce9-9711-4e616a274faa","system_id":"levelo_inurba_marseille","lat":43.302008,"lon":5.394694,"is_reserved":false,"is_disabled":false,"rental_uris":{"android":"levelo://app?vid=fdc148bd-e294-4ce9-9711-4e616a274faa","ios":"levelo://app?vid=fdc148bd-e294-4ce9-9711-4e616a274faa"},"vehicle_type_id":"4","last_reported":1717445293,"current_range_meters":10400,"station_id":"ce4bh0p2rcd13ifvqd70","pricing_plan_id":"cebpf4jnsgd1na2vs0mg"},{"bike_id":"0e4c7fe0-9312-4e9d-ae48-7992e3e882e6","system_id":"levelo_inurba_marseille","lat":43.293544,"lon":5.384124,"is_reserved":false,"is_disabled":false,"rental_uris":{"android":"levelo://app?vid=0e4c7fe0-9312-4e9d-ae48-7992e3e882e6","ios":"levelo://app?vid=0e4c7fe0-9312-4e9d-ae48-7992e3e882e6"},"vehicle_type_id":"4","last_reported":1717445293,"current_range_meters":12400,"station_id":"","pricing_plan_id":"cebpf4jnsgd1na2vs0mg"},{"bike_id":"69a2712d-1ede-4bfd-bd70-229360b6eda7","system_id":"levelo_inurba_marseille","lat":43.294153,"lon":5.386305,"is_reserved":false,"is_disabled":false,"rental_uris":{"android":"levelo://app?vid=69a2712d-1ede-4bfd-bd70-229360b6eda7","ios":"levelo://app?vid=69a2712d-1ede-4bfd-bd70-229360b6eda7"},"vehicle_type_id":"4","last_reported":1717445293,"current_range_meters":6800,"station_id":"ce4bh2h2rcd13ifvqdh0","pricing_plan_id":"cebpf4jnsgd1na2vs0mg"},{"bike_id":"67b1db35-3994-4ac7-8fd1-42b4f31d21af","system_id":"levelo_inurba_marseille","lat":43.294222,"lon":5.386178,"is_reserved":false,"is_disabled":false,"rental_uris":{"android":"levelo://app?vid=67b1db35-3994-4ac7-8fd1-42b4f31d21af","ios":"levelo://app?vid=67b1db35-3994-4ac7-8fd1-42b4f31d21af"},"vehicle_type_id":"4","last_reported":1717445293,"current_range_meters":7600,"station_id":"ce4bh2h2rcd13ifvqdh0","pricing_plan_id":"cebpf4jnsgd1na2vs0mg"},{"bike_id":"1405acd3-e6dd-4162-b60d-c8ae3d548a28","system_id":"levelo_inurba_marseille","lat":43.294193,"lon":5.386219,"is_reserved":false,"is_disabled":false,"rental_uris":{"android":"levelo://app?vid=1405acd3-e6dd-4162-b60d-c8ae3d548a28","ios":"levelo://app?vid=1405acd3-e6dd-4162-b60d-c8ae3d548a28"},"vehicle_type_id":"4","last_reported":1717445293,"current_range_meters":0,"station_id":"ce4bh2h2rcd13ifvqdh0","pricing_plan_id":"cebpf4jnsgd1na2vs0mg"},{"bike_id":"7ef3ad8f-9070-43f5-9336-78bb279af3b2","system_id":"levelo_inurba_marseille","lat":43.29421,"lon":5.38625,"is_reserved":false,"is_disabled":false,"rental_uris":{"android":"levelo://app?vid=7ef3ad8f-9070-43f5-9336-78bb279af3b2","ios":"levelo://app?vid=7ef3ad8f-9070-43f5-9336-78bb279af3b2"},"vehicle_type_id":"4","last_reported":1717445293,"current_range_meters":5200,"station_id":"ce4bh2h2rcd13ifvqdh0","pricing_plan_id":"cebpf4jnsgd1na2vs0mg"},{"bike_id":"887aa00b-142a-488b-9ad9-cf9c30bf81ad","system_id":"levelo_inurba_marseille","lat":43.289474,"lon":5.366387,"is_reserved":false,"is_disabled":false,"rental_uris":{"android":"levelo://app?vid=887aa00b-142a-488b-9ad9-cf9c30bf81ad","ios":"levelo://app?vid=887aa00b-142a-488b-9ad9-cf9c30bf81ad"},"vehicle_type_id":"4","last_reported":1717445293,"current_range_meters":25600,"station_id":"ce4bhap2rcd13ifvqek0","pricing_plan_id":"cebpf4jnsgd1na2vs0mg"},{"bike_id":"c1f23f99-a1d8-40a8-b04e-37b57c460cfe","system_id":"levelo_inurba_marseille","lat":43.294203,"lon":5.386266,"is_reserved":false,"is_disabled":false,"rental_uris":{"android":"levelo://app?vid=c1f23f99-a1d8-40a8-b04e-37b57c460cfe","ios":"levelo://app?vid=c1f23f99-a1d8-40a8-b04e-37b57c460cfe"},"vehicle_type_id":"4","last_reported":1717445293,"current_range_meters":0,"station_id":"ce4bh2h2rcd13ifvqdh0","pricing_plan_id":"cebpf4jnsgd1na2vs0mg"},{"bike_id":"5b8416c6-4b8e-43c0-ada6-046078753d8a","system_id":"levelo_inurba_marseille","lat":43.294166,"lon":5.386201,"is_reserved":false,"is_disabled":false,"rental_uris":{"android":"levelo://app?vid=5b8416c6-4b8e-43c0-ada6-046078753d8a","ios":"levelo://app?vid=5b8416c6-4b8e-43c0-ada6-046078753d8a"},"vehicle_type_id":"4","last_reported":1717445293,"current_range_meters":400,"station_id":"ce4bh2h2rcd13ifvqdh0","pricing_plan_id":"cebpf4jnsgd1na2vs0mg"},{"bike_id":"df340ce0-9426-41de-b7f7-91d0d6f14bb1","system_id":"levelo_inurba_marseille","lat":43.29418,"lon":5.38624,"is_reserved":false,"is_disabled":false,"rental_uris":{"android":"levelo://app?vid=df340ce0-9426-41de-b7f7-91d0d6f14bb1","ios":"levelo://app?vid=df340ce0-9426-41de-b7f7-91d0d6f14bb1"},"vehicle_type_id":"4","last_reported":1717445293,"current_range_meters":25200,"station_id":"ce4bh2h2rcd13ifvqdh0","pricing_plan_id":"cebpf4jnsgd1na2vs0mg"},{"bike_id":"584748dc-5dce-4ce5-864e-655adafafa05","system_id":"levelo_inurba_marseille","lat":43.290327,"lon":5.375711,"is_reserved":false,"is_disabled":false,"rental_uris":{"android":"levelo://app?vid=584748dc-5dce-4ce5-864e-655adafafa05","ios":"levelo://app?vid=584748dc-5dce-4ce5-864e-655adafafa05"},"vehicle_type_id":"4","last_reported":1717445293,"current_range_meters":400,"station_id":"ce4bh692rcd13ifvqe90","pricing_plan_id":"cebpf4jnsgd1na2vs0mg"},{"bike_id":"f26113f6-05d2-43b8-8361-226811d675da","system_id":"levelo_inurba_marseille","lat":43.29417,"lon":5.38625,"is_reserved":false,"is_disabled":false,"rental_uris":{"android":"levelo://app?vid=f26113f6-05d2-43b8-8361-226811d675da","ios":"levelo://app?vid=f26113f6-05d2-43b8-8361-226811d675da"},"vehicle_type_id":"4","last_reported":1717445293,"current_range_meters":1200,"station_id":"ce4bh2h2rcd13ifvqdh0","pricing_plan_id":"cebpf4jnsgd1na2vs0mg"},{"bike_id":"1db2adaf-769a-4151-95f2-d0da1b932bf3","system_id":"levelo_inurba_marseille","lat":43.28945,"lon":5.3663,"is_reserved":false,"is_disabled":false,"rental_uris":{"android":"levelo://app?vid=1db2adaf-769a-4151-95f2-d0da1b932bf3","ios":"levelo://app?vid=1db2adaf-769a-4151-95f2-d0da1b932bf3"},"vehicle_type_id":"4","last_reported":1717445293,"current_range_meters":31200,"station_id":"ce4bhap2rcd13ifvqek0","pricing_plan_id":"cebpf4jnsgd1na2vs0mg"},{"bike_id":"c5562c9e-aa3e-4ac7-873f-c573cb622f1b","system_id":"levelo_inurba_marseille","lat":43.289184,"lon":5.366408,"is_reserved":false,"is_disabled":false,"rental_uris":{"android":"levelo://app?vid=c5562c9e-aa3e-4ac7-873f-c573cb622f1b","ios":"levelo://app?vid=c5562c9e-aa3e-4ac7-873f-c573cb622f1b"},"vehicle_type_id":"4","last_reported":1717445293,"current_range_meters":31600,"station_id":"ce4bhap2rcd13ifvqek0","pricing_plan_id":"cebpf4jnsgd1na2vs0mg"},{"bike_id":"94f398ef-da2d-41f4-87a1-121095dd8440","system_id":"levelo_inurba_marseille","lat":43.289426,"lon":5.366349,"is_reserved":false,"is_disabled":false,"rental_uris":{"android":"levelo://app?vid=94f398ef-da2d-41f4-87a1-121095dd8440","ios":"levelo://app?vid=94f398ef-da2d-41f4-87a1-121095dd8440"},"vehicle_type_id":"4","last_reported":1717445293,"current_range_meters":31200,"station_id":"ce4bhap2rcd13ifvqek0","pricing_plan_id":"cebpf4jnsgd1na2vs0mg"},{"bike_id":"517ea72b-a649-4303-8768-dbef715a63bf","system_id":"levelo_inurba_marseille","lat":43.28941,"lon":5.36629,"is_reserved":false,"is_disabled":false,"rental_uris":{"android":"levelo://app?vid=517ea72b-a649-4303-8768-dbef715a63bf","ios":"levelo://app?vid=517ea72b-a649-4303-8768-dbef715a63bf"},"vehicle_type_id":"4","last_reported":1717445293,"current_range_meters":31200,"station_id":"ce4bhap2rcd13ifvqek0","pricing_plan_id":"cebpf4jnsgd1na2vs0mg"},{"bike_id":"d92b60ef-6401-4aed-9649-83c810982887","system_id":"levelo_inurba_marseille","lat":43.279952,"lon":5.400085,"is_reserved":false,"is_disabled":false,"rental_uris":{"android":"levelo://app?vid=d92b60ef-6401-4aed-9649-83c810982887","ios":"levelo://app?vid=d92b60ef-6401-4aed-9649-83c810982887"},"vehicle_type_id":"4","last_reported":1717445293,"current_range_meters":19200,"station_id":"ce4bho92rcd13ifvqh4g","pricing_plan_id":"cebpf4jnsgd1na2vs0mg"},{"bike_id":"985af6a4-2600-430f-b568-1fead5cdeedb","system_id":"levelo_inurba_marseille","lat":43.286961,"lon":5.373785,"is_reserved":false,"is_disabled":false,"rental_uris":{"android":"levelo://app?vid=985af6a4-2600-430f-b568-1fead5cdeedb","ios":"levelo://app?vid=985af6a4-2600-430f-b568-1fead5cdeedb"},"vehicle_type_id":"4","last_reported":1717445293,"current_range_meters":0,"station_id":"ce4bh3p2rcd13ifvqdq0","pricing_plan_id":"cebpf4jnsgd1na2vs0mg"},{"bike_id":"609a84d9-875e-48e1-bf6b-870cea8677c4","system_id":"levelo_inurba_marseille","lat":43.2894,"lon":5.366363,"is_reserved":false,"is_disabled":false,"rental_uris":{"android":"levelo://app?vid=609a84d9-875e-48e1-bf6b-870cea8677c4","ios":"levelo://app?vid=609a84d9-875e-48e1-bf6b-870cea8677c4"},"vehicle_type_id":"4","last_reported":1717445293,"current_range_meters":24800,"station_id":"ce4bhap2rcd13ifvqek0","pricing_plan_id":"cebpf4jnsgd1na2vs0mg"},{"bike_id":"04c98622-cea3-4498-87e2-d63e34cceebb","system_id":"levelo_inurba_marseille","lat":43.289399,"lon":5.366261,"is_reserved":false,"is_disabled":false,"rental_uris":{"android":"levelo://app?vid=04c98622-cea3-4498-87e2-d63e34cceebb","ios":"levelo://app?vid=04c98622-cea3-4498-87e2-d63e34cceebb"},"vehicle_type_id":"4","last_reported":1717445293,"current_range_meters":31200,"station_id":"ce4bhap2rcd13ifvqek0","pricing_plan_id":"cebpf4jnsgd1na2vs0mg"},{"bike_id":"e6f88080-3485-4856-924a-b181d4c8171f","system_id":"levelo_inurba_marseille","lat":43.28939,"lon":5.36638,"is_reserved":false,"is_disabled":false,"rental_uris":{"android":"levelo://app?vid=e6f88080-3485-4856-924a-b181d4c8171f","ios":"levelo://app?vid=e6f88080-3485-4856-924a-b181d4c8171f"},