{"last_updated":1771366742,"ttl":60,"version":"2.2","data":{"bikes":[{"bike_id":"9b7f7732-1691-4a0c-bc4f-a0818e3781d5","system_id":"levelo_inurba_marseille","lat":43.29788,"lon":5.39343,"is_reserved":false,"is_disabled":false,"rental_uris":{"android":"levelo://app?vid=9b7f7732-1691-4a0c-bc4f-a0818e3781d5","ios":"levelo://app?vid=9b7f7732-1691-4a0c-bc4f-a0818e3781d5"},"vehicle_type_id":"4","last_reported":1771366742,"current_range_meters":4400,"station_id":"chh1huq6cuj3fo74tm60","pricing_plan_id":"cebpf4jnsgd1na2vs0mg"},{"bike_id":"0dec7a6e-29d0-41f4-a0f3-1dcc86f38028","system_id":"levelo_inurba_marseille","lat":43.24952,"lon":5.40484,"is_reserved":false,"is_disabled":false,"rental_uris":{"android":"levelo://app?vid=0dec7a6e-29d0-41f4-a0f3-1dcc86f38028","ios":"levelo://app?vid=0dec7a6e-29d0-41f4-a0f3-1dcc86f38028"},"vehicle_type_id":"4","last_reported":1771366742,"current_range_meters":28800,"station_id":"st_d2ngiaodas8pm72gd1h0","pricing_plan_id":"cebpf4jnsgd1na2vs0mg"},{"bike_id":"d5c39038-a196-442c-a8de-b272561ff450","system_id":"levelo_inurba_marseille","lat":43.31223,"lon":5.36901,"is_reserved":false,"is_disabled":false,"rental_uris":{"android":"levelo://app?vid=d5c39038-a196-442c-a8de-b272561ff450","ios":"levelo://app?vid=d5c39038-a196-442c-a8de-b272561ff450"},"vehicle_type_id":"4","last_reported":1771366742,"current_range_meters":12800,"station_id":"ce4bgl92rcd13ifvqbq0","pricing_plan_id":"cebpf4jnsgd1na2vs0mg"},{"bike_id":"9e80a46a-e212-4568-b8f2-e7bfcbbc6fb2","system_id":"levelo_inurba_marseille","lat":43.33159,"lon":5.37684,"is_reserved":false,"is_disabled":false,"rental_uris":{"android":"levelo://app?vid=9e80a46a-e212-4568-b8f2-e7bfcbbc6fb2","ios":"levelo://app?vid=9e80a46a-e212-4568-b8f2-e7bfcbbc6fb2"},"vehicle_type_id":"4","last_reported":1771366742,"current_range_meters":27600,"station_id":"st_d46cu089ee8s73dldbu0","pricing_plan_id":"cebpf4jnsgd1na2vs0mg"},{"bike_id":"06a35ccd-b33f-4049-bbfa-98f79e3425d6","system_id":"levelo_inurba_marseille","lat":43.26229,"lon":5.40453,"is_reserved":false,"is_disabled":false,"rental_uris":{"android":"levelo://app?vid=06a35ccd-b33f-4049-bbfa-98f79e3425d6","ios":"levelo://app?vid=06a35ccd-b33f-4049-bbfa-98f79e3425d6"},"vehicle_type_id":"4","last_reported":1771366742,"current_range_meters":19600,"station_id":"ce4bhmh2rcd13ifvqgmg","pricing_plan_id":"cebpf4jnsgd1na2vs0mg"},{"bike_id":"ee54c607-6e00-4039-ab4a-07f8b3f1b720","system_id":"levelo_inurba_marseille","lat":43.29628,"lon":5.3822,"is_reserved":false,"is_disabled":false,"rental_uris":{"android":"levelo://app?vid=ee54c607-6e00-4039-ab4a-07f8b3f1b720","ios":"levelo://app?vid=ee54c607-6e00-4039-ab4a-07f8b3f1b720"},"vehicle_type_id":"4","last_reported":1771366742,"current_range_meters":24800,"station_id":"","pricing_plan_id":"cebpf4jnsgd1na2vs0mg"},{"bike_id":"ca208522-c5c5-415c-9069-124a5d2f7bd4","system_id":"levelo_inurba_marseille","lat":43.24553,"lon":5.395293,"is_reserved":false,"is_disabled":false,"rental_uris":{"android":"levelo://app?vid=ca208522-c5c5-415c-9069-124a5d2f7bd4","ios":"levelo://app?vid=ca208522-c5c5-415c-9069-124a5d2f7bd4"},"vehicle_type_id":"4","last_reported":1771366742,"current_range_meters":30800,"station_id":"ce4bhlp2rcd13ifvqgjg","pricing_plan_id":"cebpf4jnsgd1na2vs0mg"},{"bike_id":"402492b2-75b7-4a30-b15f-baf2edef3968","system_id":"levelo_inurba_marseille","lat":43.265439,"lon":5.372989,"is_reserved":false,"is_disabled":true,"rental_uris":{"android":"levelo://app?vid=402492b2-75b7-4a30-b15f-baf2edef3968","ios":"levelo://app?vid=402492b2-75b7-4a30-b15f-baf2edef3968"},"vehicle_type_id":"4","last_reported":1771366742,"current_range_meters":36800,"station_id":"ce4bhg12rcd13ifvqf70","pricing_plan_id":"cebpf4jnsgd1na2vs0mg"},{"bike_id":"572bc761-8879-44f9-beaf-5779abd95762","system_id":"levelo_inurba_marseille","lat":43.26078,"lon":5.39387,"is_reserved":false,"is_disabled":false,"rental_uris":{"android":"levelo://app?vid=572bc761-8879-44f9-beaf-5779abd95762","ios":"levelo://app?vid=572bc761-8879-44f9-beaf-5779abd95762"},"vehicle_type_id":"4","last_reported":1771366742,"current_range_meters":9200,"station_id":"ce4bhh92rcd13ifvqfj0","pricing_plan_id":"cebpf4jnsgd1na2vs0mg"},{"bike_id":"5a983a63-0def-4441-a187-04ff64118d4b","system_id":"levelo_inurba_marseille","lat":43.304207,"lon":5.412811,"is_reserved":false,"is_disabled":false,"rental_uris":{"android":"levelo://app?vid=5a983a63-0def-4441-a187-04ff64118d4b","ios":"levelo://app?vid=5a983a63-0def-4441-a187-04ff64118d4b"},"vehicle_type_id":"4","last_reported":1771366742,"current_range_meters":6400,"station_id":"ce4bhop2rcd13ifvqh8g","pricing_plan_id":"cebpf4jnsgd1na2vs0mg"},{"bike_id":"a378116d-7a7e-4011-b826-d27e4ca1e68f","system_id":"levelo_inurba_marseille","lat":43.28854,"lon":5.35825,"is_reserved":false,"is_disabled":false,"rental_uris":{"android":"levelo://app?vid=a378116d-7a7e-4011-b826-d27e4ca1e68f","ios":"levelo://app?vid=a378116d-7a7e-4011-b826-d27e4ca1e68f"},"vehicle_type_id":"4","last_reported":1771366742,"current_range_meters":32000,"station_id":"ce4bhb12rcd13ifvqem0","pricing_plan_id":"cebpf4jnsgd1na2vs0mg"},{"bike_id":"9841a2c9-a744-4514-8e9d-f889fd03281f","system_id":"levelo_inurba_marseille","lat":43.2847,"lon":5.48421,"is_reserved":false,"is_disabled":false,"rental_uris":{"android":"levelo://app?vid=9841a2c9-a744-4514-8e9d-f889fd03281f","ios":"levelo://app?vid=9841a2c9-a744-4514-8e9d-f889fd03281f"},"vehicle_type_id":"4","last_reported":1771366742,"current_range_meters":39200,"station_id":"","pricing_plan_id":"cebpf4jnsgd1na2vs0mg"},{"bike_id":"b695ba7c-c632-47e6-a91d-f4c171a088a3","system_id":"levelo_inurba_marseille","lat":43.24387,"lon":5.3708,"is_reserved":false,"is_disabled":false,"rental_uris":{"android":"levelo://app?vid=b695ba7c-c632-47e6-a91d-f4c171a088a3","ios":"levelo://app?vid=b695ba7c-c632-47e6-a91d-f4c171a088a3"},"vehicle_type_id":"4","last_reported":1771366742,"current_range_meters":10000,"station_id":"ce4bhhh2rcd13ifvqfk0","pricing_plan_id":"cebpf4jnsgd1na2vs0mg"},{"bike_id":"c8d7905d-30fa-4ab7-85d3-c8ae64d2f8ec","system_id":"levelo_inurba_marseille","lat":43.29568,"lon":5.39976,"is_reserved":false,"is_disabled":false,"rental_uris":{"android":"levelo://app?vid=c8d7905d-30fa-4ab7-85d3-c8ae64d2f8ec","ios":"levelo://app?vid=c8d7905d-30fa-4ab7-85d3-c8ae64d2f8ec"},"vehicle_type_id":"4","last_reported":1771366742,"current_range_meters":7200,"station_id":"ce4bh312rcd13ifvqdj0","pricing_plan_id":"cebpf4jnsgd1na2vs0mg"},{"bike_id":"0627be6e-3375-4c42-b348-012e7c3a1e25","system_id":"levelo_inurba_marseille","lat":43.28925,"lon":5.3665,"is_reserved":false,"is_disabled":false,"rental_uris":{"android":"levelo://app?vid=0627be6e-3375-4c42-b348-012e7c3a1e25","ios":"levelo://app?vid=0627be6e-3375-4c42-b348-012e7c3a1e25"},"vehicle_type_id":"4","last_reported":1771366742,"current_range_meters":32400,"station_id":"ce4bhap2rcd13ifvqek0","pricing_plan_id":"cebpf4jnsgd1na2vs0mg"},{"bike_id":"0ee84456-b561-44d6-9de8-8dd933fbade9","system_id":"levelo_inurba_marseille","lat":43.289385,"lon":5.3641,"is_reserved":false,"is_disabled":false,"rental_uris":{"android":"levelo://app?vid=0ee84456-b561-44d6-9de8-8dd933fbade9","ios":"levelo://app?vid=0ee84456-b561-44d6-9de8-8dd933fbade9"},"vehicle_type_id":"4","last_reported":1771366742,"current_range_meters":39200,"station_id":"ce4bhc92rcd13ifvqetg","pricing_plan_id":"cebpf4jnsgd1na2vs0mg"},{"bike_id":"7a1503bf-6a88-4661-9521-ad54bb0a0a33","system_id":"levelo_inurba_marseille","lat":43.29759,"lon":5.37113,"is_reserved":false,"is_disabled":false,"rental_uris":{"android":"levelo://app?vid=7a1503bf-6a88-4661-9521-ad54bb0a0a33","ios":"levelo://app?vid=7a1503bf-6a88-4661-9521-ad54bb0a0a33"},"vehicle_type_id":"4","last_reported":1771366742,"current_range_meters":25600,"station_id":"ce4bgop2rcd13ifvqc1g","pricing_plan_id":"cebpf4jnsgd1na2vs0mg"},{"bike_id":"b16b6d76-9c13-4277-91b0-a5dc345d4f57","system_id":"levelo_inurba_marseille","lat":43.2981,"lon":5.404,"is_reserved":false,"is_disabled":false,"rental_uris":{"android":"levelo://app?vid=b16b6d76-9c13-4277-91b0-a5dc345d4f57","ios":"levelo://app?vid=b16b6d76-9c13-4277-91b0-a5dc345d4f57"},"vehicle_type_id":"4","last_reported":1771366742,"current_range_meters":38800,"station_id":"ce4bh112rcd13ifvqd90","pricing_plan_id":"cebpf4jnsgd1na2vs0mg"},{"bike_id":"06fbad56-b200-43dd-8bf6-f0b5d190c345","system_id":"levelo_inurba_marseille","lat":43.283514,"lon":5.381035,"is_reserved":false,"is_disabled":false,"rental_uris":{"android":"levelo://app?vid=06fbad56-b200-43dd-8bf6-f0b5d190c345","ios":"levelo://app?vid=06fbad56-b200-43dd-8bf6-f0b5d190c345"},"vehicle_type_id":"4","last_reported":1771366742,"current_range_meters":39200,"station_id":"ce4bh412rcd13ifvqdr0","pricing_plan_id":"cebpf4jnsgd1na2vs0mg"},{"bike_id":"77981940-8b3f-4695-8477-b34f59e0613e","system_id":"levelo_inurba_marseille","lat":43.31904,"lon":5.4072,"is_reserved":false,"is_disabled":false,"rental_uris":{"android":"levelo://app?vid=77981940-8b3f-4695-8477-b34f59e0613e","ios":"levelo://app?vid=77981940-8b3f-4695-8477-b34f59e0613e"},"vehicle_type_id":"4","last_reported":1771366742,"current_range_meters":30400,"station_id":"ce4bhq12rcd13ifvqhig","pricing_plan_id":"cebpf4jnsgd1na2vs0mg"},{"bike_id":"252ffab4-b7b6-4e0c-9da0-6b22d38b30ab","system_id":"levelo_inurba_marseille","lat":43.295259,"lon":5.393957,"is_reserved":false,"is_disabled":false,"rental_uris":{"android":"levelo://app?vid=252ffab4-b7b6-4e0c-9da0-6b22d38b30ab","ios":"levelo://app?vid=252ffab4-b7b6-4e0c-9da0-6b22d38b30ab"},"vehicle_type_id":"4","last_reported":1771366742,"current_range_meters":8400,"station_id":"ce4bh292rcd13ifvqdf0","pricing_plan_id":"cebpf4jnsgd1na2vs0mg"},{"bike_id":"4fe7dfed-728c-4d67-8f14-2b0427547e43","system_id":"levelo_inurba_marseille","lat":43.289305,"lon":5.366406,"is_reserved":false,"is_disabled":false,"rental_uris":{"android":"levelo://app?vid=4fe7dfed-728c-4d67-8f14-2b0427547e43","ios":"levelo://app?vid=4fe7dfed-728c-4d67-8f14-2b0427547e43"},"vehicle_type_id":"4","last_reported":1771366742,"current_range_meters":37600,"station_id":"ce4bhap2rcd13ifvqek0","pricing_plan_id":"cebpf4jnsgd1na2vs0mg"},{"bike_id":"523be3a1-7aac-4998-b646-37ab41bb0d4f","system_id":"levelo_inurba_marseille","lat":43.27833,"lon":5.406716,"is_reserved":false,"is_disabled":false,"rental_uris":{"android":"levelo://app?vid=523be3a1-7aac-4998-b646-37ab41bb0d4f","ios":"levelo://app?vid=523be3a1-7aac-4998-b646-37ab41bb0d4f"},"vehicle_type_id":"4","last_reported":1771366742,"current_range_meters":29600,"station_id":"ce4bhnh2rcd13ifvqgtg","pricing_plan_id":"cebpf4jnsgd1na2vs0mg"},{"bike_id":"8bd80c7e-2396-45e2-bd85-175291f18cec","system_id":"levelo_inurba_marseille","lat":43.28725,"lon":5.36079,"is_reserved":false,"is_disabled":false,"rental_uris":{"android":"levelo://app?vid=8bd80c7e-2396-45e2-bd85-175291f18cec","ios":"levelo://app?vid=8bd80c7e-2396-45e2-bd85-175291f18cec"},"vehicle_type_id":"4","last_reported":1771366742,"current_range_meters":34000,"station_id":"cki0cbj6b192h4jlfktg","pricing_plan_id":"cebpf4jnsgd1na2vs0mg"},{"bike_id":"282dbedf-0523-49c3-b1d1-8b4c40d39507","system_id":"levelo_inurba_marseille","lat":43.29518,"lon":5.394,"is_reserved":false,"is_disabled":false,"rental_uris":{"android":"levelo://app?vid=282dbedf-0523-49c3-b1d1-8b4c40d39507","ios":"levelo://app?vid=282dbedf-0523-49c3-b1d1-8b4c40d39507"},"vehicle_type_id":"4","last_reported":1771366742,"current_range_meters":26800,"station_id":"ce4bh292rcd13ifvqdf0","pricing_plan_id":"cebpf4jnsgd1na2vs0mg"},{"bike_id":"67bb091a-4272-4395-a3f1-8278fd4c1692","system_id":"levelo_inurba_marseille","lat":43.30453,"lon":5.38865,"is_reserved":false,"is_disabled":false,"rental_uris":{"android":"levelo://app?vid=67bb091a-4272-4395-a3f1-8278fd4c1692","ios":"levelo://app?vid=67bb091a-4272-4395-a3f1-8278fd4c1692"},"vehicle_type_id":"4","last_reported":1771366742,"current_range_meters":35600,"station_id":"ce4bgk12rcd13ifvqbi0","pricing_plan_id":"cebpf4jnsgd1na2vs0mg"},{"bike_id":"bade6b24-73d5-47df-8808-1e7c1a6f2206","system_id":"levelo_inurba_marseille","lat":43.295957,"lon":5.381093,"is_reserved":false,"is_disabled":false,"rental_uris":{"android":"levelo://app?vid=bade6b24-73d5-47df-8808-1e7c1a6f2206","ios":"levelo://app?vid=bade6b24-73d5-47df-8808-1e7c1a6f2206"},"vehicle_type_id":"4","last_reported":1771366742,"current_range_meters":34800,"station_id":"ce4bgl12rcd13ifvqbo0","pricing_plan_id":"cebpf4jnsgd1na2vs0mg"},{"bike_id":"13a92af8-e043-4e9c-b17f-e15ce8758a34","system_id":"levelo_inurba_marseille","lat":43.25096,"lon":5.40336,"is_reserved":false,"is_disabled":false,"rental_uris":{"android":"levelo://app?vid=13a92af8-e043-4e9c-b17f-e15ce8758a34","ios":"levelo://app?vid=13a92af8-e043-4e9c-b17f-e15ce8758a34"},"vehicle_type_id":"4","last_reported":1771366742,"current_range_meters":37600,"station_id":"ce4bhlh2rcd13ifvqgig","pricing_plan_id":"cebpf4jnsgd1na2vs0mg"},{"bike_id":"e3ac6f9c-8fbb-476b-90d6-33def770eb60","system_id":"levelo_inurba_marseille","lat":43.2859,"lon":5.39947,"is_reserved":false,"is_disabled":false,"rental_uris":{"android":"levelo://app?vid=e3ac6f9c-8fbb-476b-90d6-33def770eb60","ios":"levelo://app?vid=e3ac6f9c-8fbb-476b-90d6-33def770eb60"},"vehicle_type_id":"4","last_reported":1771366742,"current_range_meters":20400,"station_id":"","pricing_plan_id":"cebpf4jnsgd1na2vs0mg"},{"bike_id":"8bfcd6d8-47cd-4971-830c-5f2e4b7e61dc","system_id":"levelo_inurba_marseille","lat":43.28107,"lon":5.37822,"is_reserved":false,"is_disabled":false,"rental_uris":{"android":"levelo://app?vid=8bfcd6d8-47cd-4971-830c-5f2e4b7e61dc","ios":"levelo://app?vid=8bfcd6d8-47cd-4971-830c-5f2e4b7e61dc"},"vehicle_type_id":"4","last_reported":1771366742,"current_range_meters":19600,"station_id":"ce4bha12rcd13ifvqee0","pricing_plan_id":"cebpf4jnsgd1na2vs0mg"},{"bike_id":"aefb1450-b459-4a94-a897-a7c76311a608","system_id":"levelo_inurba_marseille","lat":43.30267,"lon":5.40067,"is_reserved":false,"is_disabled":false,"rental_uris":{"android":"levelo://app?vid=aefb1450-b459-4a94-a897-a7c76311a608","ios":"levelo://app?vid=aefb1450-b459-4a94-a897-a7c76311a608"},"vehicle_type_id":"4","last_reported":1771366742,"current_range_meters":28400,"station_id":"ce4bgvh2rcd13ifvqcs0","pricing_plan_id":"cebpf4jnsgd1na2vs0mg"},{"bike_id":"e912068c-3cc9-4a24-bce5-6b86d68f7737","system_id":"levelo_inurba_marseille","lat":43.28453,"lon":5.35882,"is_reserved":false,"is_disabled":false,"rental_uris":{"android":"levelo://app?vid=e912068c-3cc9-4a24-bce5-6b86d68f7737","ios":"levelo://app?vid=e912068c-3cc9-4a24-bce5-6b86d68f7737"},"vehicle_type_id":"4","last_reported":1771366742,"current_range_meters":8000,"station_id":"ce4bhah2rcd13ifvqei0","pricing_plan_id":"cebpf4jnsgd1na2vs0mg"},{"bike_id":"9ff4abfd-95d7-4e78-8b3a-bd3a4985e275","system_id":"levelo_inurba_marseille","lat":43.3108,"lon":5.42434,"is_reserved":false,"is_disabled":false,"rental_uris":{"android":"levelo://app?vid=9ff4abfd-95d7-4e78-8b3a-bd3a4985e275","ios":"levelo://app?vid=9ff4abfd-95d7-4e78-8b3a-bd3a4985e275"},"vehicle_type_id":"4","last_reported":1771366742,"current_range_meters":28800,"station_id":"ce4bhp92rcd13ifvqhag","pricing_plan_id":"cebpf4jnsgd1na2vs0mg"},{"bike_id":"91e18b06-e43f-4689-81f7-7af2dc71414d","system_id":"levelo_inurba_marseille","lat":43.26457,"lon":5.3958,"is_reserved":false,"is_disabled":false,"rental_uris":{"android":"levelo://app?vid=91e18b06-e43f-4689-81f7-7af2dc71414d","ios":"levelo://app?vid=91e18b06-e43f-4689-81f7-7af2dc71414d"},"vehicle_type_id":"4","last_reported":1771366742,"current_range_meters":35600,"station_id":"","pricing_plan_id":"cebpf4jnsgd1na2vs0mg"},{"bike_id":"6de5e299-d1ca-4f6f-bb0e-37f0d2361727","system_id":"levelo_inurba_marseille","lat":43.28842,"lon":5.358637,"is_reserved":false,"is_disabled":false,"rental_uris":{"android":"levelo://app?vid=6de5e299-d1ca-4f6f-bb0e-37f0d2361727","ios":"levelo://app?vid=6de5e299-d1ca-4f6f-bb0e-37f0d2361727"},"vehicle_type_id":"4","last_reported":1771366742,"current_range_meters":38000,"station_id":"ce4bhb12rcd13ifvqem0","pricing_plan_id":"cebpf4jnsgd1na2vs0mg"},{"bike_id":"0f39b697-4a2b-43a3-ada4-ce8c43776e1f","system_id":"levelo_inurba_marseille","lat":43.31208,"lon":5.3689,"is_reserved":false,"is_disabled":false,"rental_uris":{"android":"levelo://app?vid=0f39b697-4a2b-43a3-ada4-ce8c43776e1f","ios":"levelo://app?vid=0f39b697-4a2b-43a3-ada4-ce8c43776e1f"},"vehicle_type_id":"4","last_reported":1771366742,"current_range_meters":15200,"station_id":"ce4bgl92rcd13ifvqbq0","pricing_plan_id":"cebpf4jnsgd1na2vs0mg"},{"bike_id":"76a0d4aa-0887-4be6-bfc2-d5259dc7e99e","system_id":"levelo_inurba_marseille","lat":43.29216,"lon":5.36077,"is_reserved":false,"is_disabled":false,"rental_uris":{"android":"levelo://app?vid=76a0d4aa-0887-4be6-bfc2-d5259dc7e99e","ios":"levelo://app?vid=76a0d4aa-0887-4be6-bfc2-d5259dc7e99e"},"vehicle_type_id":"4","last_reported":1771366742,"current_range_meters":39200,"station_id":"ce4bhbh2rcd13ifvqeqg","pricing_plan_id":"cebpf4jnsgd1na2vs0mg"},{"bike_id":"ec532e3d-01fc-41fe-bfbc-45c5b470be82","system_id":"levelo_inurba_marseille","lat":43.25086,"lon":5.40319,"is_reserved":false,"is_disabled":false,"rental_uris":{"android":"levelo://app?vid=ec532e3d-01fc-41fe-bfbc-45c5b470be82","ios":"levelo://app?vid=ec532e3d-01fc-41fe-bfbc-45c5b470be82"},"vehicle_type_id":"4","last_reported":1771366742,"current_range_meters":29600,"station_id":"ce4bhlh2rcd13ifvqgig","pricing_plan_id":"cebpf4jnsgd1na2vs0mg"},{"bike_id":"0b73333e-38b9-4d9d-ba71-b38073e6feef","system_id":"levelo_inurba_marseille","lat":43.26535,"lon":5.3907,"is_reserved":false,"is_disabled":true,"rental_uris":{"android":"levelo://app?vid=0b73333e-38b9-4d9d-ba71-b38073e6feef","ios":"levelo://app?vid=0b73333e-38b9-4d9d-ba71-b38073e6feef"},"vehicle_type_id":"4","last_reported":1771366742,"current_range_meters":0,"station_id":"","pricing_plan_id":"cebpf4jnsgd1na2vs0mg"},{"bike_id":"14882e89-b425-4c13-9142-98ee45ab9fb7","system_id":"levelo_inurba_marseille","lat":43.30311,"lon":5.36898,"is_reserved":false,"is_disabled":false,"rental_uris":{"android":"levelo://app?vid=14882e89-b425-4c13-9142-98ee45ab9fb7","ios":"levelo://app?vid=14882e89-b425-4c13-9142-98ee45ab9fb7"},"vehicle_type_id":"4","last_reported":1771366742,"current_range_meters":38400,"station_id":"ce4bgqh2rcd13ifvqc5g","pricing_plan_id":"cebpf4jnsgd1na2vs0mg"},{"bike_id":"cb91b214-7a23-4a3b-bcc3-fae72a1d3b02","system_id":"levelo_inurba_marseille","lat":43.26215,"lon":5.40481,"is_reserved":false,"is_disabled":false,"rental_uris":{"android":"levelo://app?vid=cb91b214-7a23-4a3b-bcc3-fae72a1d3b02","ios":"levelo://app?vid=cb91b214-7a23-4a3b-bcc3-fae72a1d3b02"},"vehicle_type_id":"4","last_reported":1771366742,"current_range_meters":8400,"station_id":"ce4bhmh2rcd13ifvqgmg","pricing_plan_id":"cebpf4jnsgd1na2vs0mg"},{"bike_id":"a297b937-d94a-41b7-a7fa-274c5de42c2e","system_id":"levelo_inurba_marseille","lat":43.2649,"lon":5.39554,"is_reserved":false,"is_disabled":false,"rental_uris":{"android":"levelo://app?vid=a297b937-d94a-41b7-a7fa-274c5de42c2e","ios":"levelo://app?vid=a297b937-d94a-41b7-a7fa-274c5de42c2e"},"vehicle_type_id":"4","last_reported":1771366742,"current_range_meters":34800,"station_id":"ce4bhi12rcd13ifvqfq0","pricing_plan_id":"cebpf4jnsgd1na2vs0mg"},{"bike_id":"550eff93-0876-42bc-b35d-34db5e5290ce","system_id":"levelo_inurba_marseille","lat":43.26059,"lon":5.39392,"is_reserved":false,"is_disabled":true,"rental_uris":{"android":"levelo://app?vid=550eff93-0876-42bc-b35d-34db5e5290ce","ios":"levelo://app?vid=550eff93-0876-42bc-b35d-34db5e5290ce"},"vehicle_type_id":"4","last_reported":1771366742,"current_range_meters":8000,"station_id":"ce4bhh92rcd13ifvqfj0","pricing_plan_id":"cebpf4jnsgd1na2vs0mg"},{"bike_id":"ef3f0443-e181-4ab7-b489-4a9a20005b24","system_id":"levelo_inurba_marseille","lat":43.30117,"lon":5.39857,"is_reserved":false,"is_disabled":false,"rental_uris":{"android":"levelo://app?vid=ef3f0443-e181-4ab7-b489-4a9a20005b24","ios":"levelo://app?vid=ef3f0443-e181-4ab7-b489-4a9a20005b24"},"vehicle_type_id":"4","last_reported":1771366742,"current_range_meters":38400,"station_id":"ce4bh0h2rcd13ifvqd40","pricing_plan_id":"cebpf4jnsgd1na2vs0mg"},{"bike_id":"5d6be8ea-44f1-4b2e-80b5-f19f2036681d","system_id":"levelo_inurba_marseille","lat":43.295233,"lon":5.394008,"is_reserved":false,"is_disabled":false,"rental_uris":{"android":"levelo://app?vid=5d6be8ea-44f1-4b2e-80b5-f19f2036681d","ios":"levelo://app?vid=5d6be8ea-44f1-4b2e-80b5-f19f2036681d"},"vehicle_type_id":"4","last_reported":1771366742,"current_range_meters":35600,"station_id":"ce4bh292rcd13ifvqdf0","pricing_plan_id":"cebpf4jnsgd1na2vs0mg"},{"bike_id":"e308d050-502a-44ad-8fb8-6a23ebc18376","system_id":"levelo_inurba_marseille","lat":43.29207,"lon":5.36085,"is_reserved":false,"is_disabled":false,"rental_uris":{"android":"levelo://app?vid=e308d050-502a-44ad-8fb8-6a23ebc18376","ios":"levelo://app?vid=e308d050-502a-44ad-8fb8-6a23ebc18376"},"vehicle_type_id":"4","last_reported":1771366742,"current_range_meters":26000,"station_id":"ce4bhbh2rcd13ifvqeqg","pricing_plan_id":"cebpf4jnsgd1na2vs0mg"},{"bike_id":"fd6355cc-42f9-4dbe-a973-b15df5fc7293","system_id":"levelo_inurba_marseille","lat":43.30123,"lon":5.38782,"is_reserved":false,"is_disabled":false,"rental_uris":{"android":"levelo://app?vid=fd6355cc-42f9-4dbe-a973-b15df5fc7293","ios":"levelo://app?vid=fd6355cc-42f9-4dbe-a973-b15df5fc7293"},"vehicle_type_id":"4","last_reported":1771366742,"current_range_meters":3600,"station_id":"ce4bghh2rcd13ifvqb60","pricing_plan_id":"cebpf4jnsgd1na2vs0mg"},{"bike_id":"5a965df6-6bde-443d-bd53-103df330df07","system_id":"levelo_inurba_marseille","lat":43.33753,"lon":5.3749,"is_reserved":false,"is_disabled":false,"rental_uris":{"android":"levelo://app?vid=5a965df6-6bde-443d-bd53-103df330df07","ios":"levelo://app?vid=5a965df6-6bde-443d-bd53-103df330df07"},"vehicle_type_id":"4","last_reported":1771366742,"current_range_meters":37600,"station_id":"","pricing_plan_id":"cebpf4jnsgd1na2vs0mg"},{"bike_id":"9a9f21dd-a2ab-4c13-826e-1fe089cc70e2","system_id":"levelo_inurba_marseille","lat":43.29529,"lon":5.38533,"is_reserved":false,"is_disabled":false,"rental_uris":{"android":"levelo://app?vid=9a9f21dd-a2ab-4c13-826e-1fe089cc70e2","ios":"levelo://app?vid=9a9f21dd-a2ab-4c13-826e-1fe089cc70e2"},"vehicle_type_id":"4","last_reported":1771366742,"current_range_meters":19200,"station_id":"ce4bgih2rcd13ifvqba0","pricing_plan_id":"cebpf4jnsgd1na2vs0mg"},{"bike_id":"bd2e0b30-7eff-4350-9215-ff4d3f7250a7","system_id":"levelo_inurba_marseille","lat":43.308881,"lon":5.39647,"is_reserved":false,"is_disabled":false,"rental_uris":{"android":"levelo://app?vid=bd2e0b30-7eff-4350-9215-ff4d3f7250a7","ios":"levelo://app?vid=bd2e0b30-7eff-4350-9215-ff4d3f7250a7"},"vehicle_type_id":"4","last_reported":1771366742,"current_range_meters":15200,"station_id":"","pricing_plan_id":"cebpf4jnsgd1na2vs0mg"},{"bike_id":"e041f392-b8c5-44a1-8028-4931d6269d88","system_id":"levelo_inurba_marseille","lat":43.29268,"lon":5.40915,"is_reserved":false,"is_disabled":false,"rental_uris":{"android":"levelo://app?vid=e041f392-b8c5-44a1-8028-4931d6269d88","ios":"levelo://app?vid=e041f392-b8c5-44a1-8028-4931d6269d88"},"vehicle_type_id":"4","last_reported":1771366742,"current_range_meters":8000,"station_id":"ce4bh192rcd13ifvqdc0","pricing_plan_id":"cebpf4jnsgd1na2vs0mg"},{"bike_id":"47f35b00-a73e-4536-a92c-a33e9719b2bc","system_id":"levelo_inurba_marseille","lat":43.29552,"lon":5.38531,"is_reserved":false,"is_disabled":false,"rental_uris":{"android":"levelo://app?vid=47f35b00-a73e-4536-a92c-a33e9719b2bc","ios":"levelo://app?vid=47f35b00-a73e-4536-a92c-a33e9719b2bc"},"vehicle_type_id":"4","last_reported":1771366742,"current_range_meters":7200,"station_id":"ce4bgih2rcd13ifvqba0","pricing_plan_id":"cebpf4jnsgd1na2vs0mg"},{"bike_id":"c6257056-1773-40b3-8420-fe95746c06e4","system_id":"levelo_inurba_marseille","lat":43.29526,"lon":5.38535,"is_reserved":false,"is_disabled":false,"rental_uris":{"android":"levelo://app?vid=c6257056-1773-40b3-8420-fe95746c06e4","ios":"levelo://app?vid=c6257056-1773-40b3-8420-fe95746c06e4"},"vehicle_type_id":"4","last_reported":1771366742,"current_range_meters":12800,"station_id":"ce4bgih2rcd13ifvqba0","pricing_plan_id":"cebpf4jnsgd1na2vs0mg"},{"bike_id":"6e1b6725-bd2a-450f-8fbb-87285b7c6526","system_id":"levelo_inurba_marseille","lat":43.24172,"lon":5.36394,"is_reserved":false,"is_disabled":false,"rental_uris":{"android":"levelo://app?vid=6e1b6725-bd2a-450f-8fbb-87285b7c6526","ios":"levelo://app?vid=6e1b6725-bd2a-450f-8fbb-87285b7c6526"},"vehicle_type_id":"4","last_reported":1771366742,"current_range_meters":2800,"station_id":"cpo36qri1sfpv3e86is0","pricing_plan_id":"cebpf4jnsgd1na2vs0mg"},{"bike_id":"95904b6e-2009-48fa-862a-1b6fa5c38934","system_id":"levelo_inurba_marseille","lat":43.3109,"lon":5.42448,"is_reserved":false,"is_disabled":false,"rental_uris":{"android":"levelo://app?vid=95904b6e-2009-48fa-862a-1b6fa5c38934","ios":"levelo://app?vid=95904b6e-2009-48fa-862a-1b6fa5c38934"},"vehicle_type_id":"4","last_reported":1771366742,"current_range_meters":39200,"station_id":"ce4bhp92rcd13ifvqhag","pricing_plan_id":"cebpf4jnsgd1na2vs0mg"},{"bike_id":"0d23b456-724b-4079-b11e-9aa74649509e","system_id":"levelo_inurba_marseille","lat":43.28856,"lon":5.39302,"is_reserved":false,"is_disabled":false,"rental_uris":{"android":"levelo://app?vid=0d23b456-724b-4079-b11e-9aa74649509e","ios":"levelo://app?vid=0d23b456-724b-4079-b11e-9aa74649509e"},"vehicle_type_id":"4","last_reported":1771366742,"current_range_meters":40000,"station_id":"ce4bh2p2rcd13ifvqdi0","pricing_plan_id":"cebpf4jnsgd1na2vs0mg"},{"bike_id":"9b132a11-5853-4bf4-9d46-e54d41ccb5d0","system_id":"levelo_inurba_marseille","lat":43.26222,"lon":5.40453,"is_reserved":false,"is_disabled":false,"rental_uris":{"android":"levelo://app?vid=9b132a11-5853-4bf4-9d46-e54d41ccb5d0","ios":"levelo://app?vid=9b132a11-5853-4bf4-9d46-e54d41ccb5d0"},"vehicle_type_id":"4","last_reported":1771366742,"current_range_meters":32000,"station_id":"ce4bhmh2rcd13ifvqgmg","pricing_plan_id":"cebpf4jnsgd1na2vs0mg"},{"bike_id":"5d163bc2-8174-495c-b234-639c4a69ac92","system_id":"levelo_inurba_marseille","lat":43.311397,"lon":5.377846,"is_reserved":false,"is_disabled":false,"rental_uris":{"android":"levelo://app?vid=5d163bc2-8174-495c-b234-639c4a69ac92","ios":"levelo://app?vid=5d163bc2-8174-495c-b234-639c4a69ac92"},"vehicle_type_id":"4","last_reported":1771366742,"current_range_meters":38000,"station_id":"ce4bgt92rcd13ifvqcg0","pricing_plan_id":"cebpf4jnsgd1na2vs0mg"},{"bike_id":"061ee33a-0cb8-48bc-a843-c564ef436c43","system_id":"levelo_inurba_marseille","lat":43.28156,"lon":5.42648,"is_reserved":false,"is_disabled":false,"rental_uris":{"android":"levelo://app?vid=061ee33a-0cb8-48bc-a843-c564ef436c43","ios":"levelo://app?vid=061ee33a-0cb8-48bc-a843-c564ef436c43"},"vehicle_type_id":"4","last_reported":1771366742,"current_range_meters":38400,"station_id":"ce4bhnh2rcd13ifvqgug","pricing_plan_id":"cebpf4jnsgd1na2vs0mg"},{"bike_id":"5b8de0cc-7d3e-4222-8509-d21d6ce44619","system_id":"levelo_inurba_marseille","lat":43.24639,"lon":5.43132,"is_reserved":false,"is_disabled":false,"rental_uris":{"android":"levelo://app?vid=5b8de0cc-7d3e-4222-8509-d21d6ce44619","ios":"levelo://app?vid=5b8de0cc-7d3e-4222-8509-d21d6ce44619"},"vehicle_type_id":"4","last_reported":1771366742,"current_range_meters":11200,"station_id":"st_d2m6c4gdas8pm72e190g","pricing_plan_id":"cebpf4jnsgd1na2vs0mg"},{"bike_id":"86192d04-a141-409d-b724-3e354a3ed317","system_id":"levelo_inurba_marseille","lat":43.30957,"lon":5.38357,"is_reserved":false,"is_disabled":false,"rental_uris":{"android":"levelo://app?vid=86192d04-a141-409d-b724-3e354a3ed317","ios":"levelo://app?vid=86192d04-a141-409d-b724-3e354a3ed317"},"vehicle_type_id":"4","last_reported":1771366742,"current_range_meters":5600,"station_id":"","pricing_plan_id":"cebpf4jnsgd1na2vs0mg"},{"bike_id":"7f7e6064-6c05-4e1f-a4b0-120e50364b3a","system_id":"levelo_inurba_marseille","lat":43.26133,"lon":5.39374,"is_reserved":false,"is_disabled":false,"rental_uris":{"android":"levelo://app?vid=7f7e6064-6c05-4e1f-a4b0-120e50364b3a","ios":"levelo://app?vid=7f7e6064-6c05-4e1f-a4b0-120e50364b3a"},"vehicle_type_id":"4","last_reported":1771366742,"current_range_meters":28400,"station_id":"","pricing_plan_id":"cebpf4jnsgd1na2vs0mg"},{"bike_id":"a2e5bf71-7c3d-47d2-a17c-d169a49e878b","system_id":"levelo_inurba_marseille","lat":43.29622,"lon":5.40619,"is_reserved":false,"is_disabled":false,"rental_uris":{"android":"levelo://app?vid=a2e5bf71-7c3d-47d2-a17c-d169a49e878b","ios":"levelo://app?vid=a2e5bf71-7c3d-47d2-a17c-d169a49e878b"},"vehicle_type_id":"4","last_reported":1771366742,"current_range_meters":38400,"station_id":"ce4bh0h2rcd13ifvqd60","pricing_plan_id":"cebpf4jnsgd1na2vs0mg"},{"bike_id":"71d8f09f-3c65-4fba-a72d-01b5fd7ccd01","system_id":"levelo_inurba_marseille","lat":43.2303,"lon":5.40298,"is_reserved":false,"is_disabled":false,"rental_uris":{"android":"levelo://app?vid=71d8f09f-3c65-4fba-a72d-01b5fd7ccd01","ios":"levelo://app?vid=71d8f09f-3c65-4fba-a72d-01b5fd7ccd01"},"vehicle_type_id":"4","last_reported":1771366742,"current_range_meters":27600,"station_id":"","pricing_plan_id":"cebpf4jnsgd1na2vs0mg"},{"bike_id":"6bb36a9f-067d-4eef-9d07-1ddb3347be78","system_id":"levelo_inurba_marseille","lat":43.2902,"lon":5.38145,"is_reserved":false,"is_disabled":false,"rental_uris":{"android":"levelo://app?vid=6bb36a9f-067d-4eef-9d07-1ddb3347be78","ios":"levelo://app?vid=6bb36a9f-067d-4eef-9d07-1ddb3347be78"},"vehicle_type_id":"4","last_reported":1771366742,"current_range_meters":37600,"station_id":"ce4bh4p2rcd13ifvqe1g","pricing_plan_id":"cebpf4jnsgd1na2vs0mg"},{"bike_id":"6f566a9d-10ed-406d-af83-64e27e638094","system_id":"levelo_inurba_marseille","lat":43.30121,"lon":5.39883,"is_reserved":false,"is_disabled":false,"rental_uris":{"android":"levelo://app?vid=6f566a9d-10ed-406d-af83-64e27e638094","ios":"levelo://app?vid=6f566a9d-10ed-406d-af83-64e27e638094"},"vehicle_type_id":"4","last_reported":1771366742,"current_range_meters":4000,"station_id":"ce4bh0h2rcd13ifvqd40","pricing_plan_id":"cebpf4jnsgd1na2vs0mg"},{"bike_id":"459af572-5c73-4d66-a7b6-54d1719e2d1f","system_id":"levelo_inurba_marseille","lat":43.31268,"lon":5.36859,"is_reserved":false,"is_disabled":false,"rental_uris":{"android":"levelo://app?vid=459af572-5c73-4d66-a7b6-54d1719e2d1f","ios":"levelo://app?vid=459af572-5c73-4d66-a7b6-54d1719e2d1f"},"vehicle_type_id":"4","last_reported":1771366742,"current_range_meters":37600,"station_id":"ce4bgl92rcd13ifvqbq0","pricing_plan_id":"cebpf4jnsgd1na2vs0mg"},{"bike_id":"ececbe0e-0e34-4d8d-94e2-d6a8f1b03bbe","system_id":"levelo_inurba_marseille","lat":43.33151,"lon":5.37666,"is_reserved":false,"is_disabled":false,"rental_uris":{"android":"levelo://app?vid=ececbe0e-0e34-4d8d-94e2-d6a8f1b03bbe","ios":"levelo://app?vid=ececbe0e-0e34-4d8d-94e2-d6a8f1b03bbe"},"vehicle_type_id":"4","last_reported":1771366742,"current_range_meters":36400,"station_id":"st_d46cu089ee8s73dldbu0","pricing_plan_id":"cebpf4jnsgd1na2vs0mg"},{"bike_id":"d9414eea-4822-4c71-bae1-8fc190606b9b","system_id":"levelo_inurba_marseille","lat":43.2869,"lon":5.35513,"is_reserved":false,"is_disabled":true,"rental_uris":{"android":"levelo://app?vid=d9414eea-4822-4c71-bae1-8fc190606b9b","ios":"levelo://app?vid=d9414eea-4822-4c71-bae1-8fc190606b9b"},"vehicle_type_id":"4","last_reported":1771366742,"current_range_meters":37600,"station_id":"","pricing_plan_id":"cebpf4jnsgd1na2vs0mg"},{"bike_id":"fb096680-6d55-4449-8a05-ad414cfb3745","system_id":"levelo_inurba_marseille","lat":43.29277,"lon":5.40111,"is_reserved":false,"is_disabled":false,"rental_uris":{"android":"levelo://app?vid=fb096680-6d55-4449-8a05-ad414cfb3745","ios":"levelo://app?vid=fb096680-6d55-4449-8a05-ad414cfb3745"},"vehicle_type_id":"4","last_reported":1771366742,"current_range_meters":33200,"station_id":"ce4bh312rcd13ifvqdk0","pricing_plan_id":"cebpf4jnsgd1na2vs0mg"},{"bike_id":"fc522677-07d6-4e90-979c-17c8f21c8c74","system_id":"levelo_inurba_marseille","lat":43.29513,"lon":5.37524,"is_reserved":false,"is_disabled":false,"rental_uris":{"android":"levelo://app?vid=fc522677-07d6-4e90-979c-17c8f21c8c74","ios":"levelo://app?vid=fc522677-07d6-4e90-979c-17c8f21c8c74"},"vehicle_type_id":"4","last_reported":1771366742,"current_range_meters":8800,"station_id":"ce4bgkp2rcd13ifvqbmg","pricing_plan_id":"cebpf4jnsgd1na2vs0mg"},{"bike_id":"0b80e1be-8f2b-4513-82b3-2450c7c69a23","system_id":"levelo_inurba_marseille","lat":43.29161,"lon":5.37182,"is_reserved":false,"is_disabled":false,"rental_uris":{"android":"levelo://app?vid=0b80e1be-8f2b-4513-82b3-2450c7c69a23","ios":"levelo://app?vid=0b80e1be-8f2b-4513-82b3-2450c7c69a23"},"vehicle_type_id":"4","last_reported":1771366742,"current_range_meters":34000,"station_id":"ce4bha92rcd13ifvqeh0","pricing_plan_id":"cebpf4jnsgd1na2vs0mg"},{"bike_id":"4fffa687-113e-4c17-9149-88fa57491723","system_id":"levelo_inurba_marseille","lat":43.28613,"lon":5.35111,"is_reserved":false,"is_disabled":false,"rental_uris":{"android":"levelo://app?vid=4fffa687-113e-4c17-9149-88fa57491723","ios":"levelo://app?vid=4fffa687-113e-4c17-9149-88fa57491723"},"vehicle_type_id":"4","last_reported":1771366742,"current_range_meters":19200,"station_id":"ce4bhch2rcd13ifvqeug","pricing_plan_id":"cebpf4jnsgd1na2vs0mg"},{"bike_id":"e1973e49-c22d-4cfc-9fd1-01bb239b8af6","system_id":"levelo_inurba_marseille","lat":43.27451,"lon":5.42438,"is_reserved":false,"is_disabled":false,"rental_uris":{"android":"levelo://app?vid=e1973e49-c22d-4cfc-9fd1-01bb239b8af6","ios":"levelo://app?vid=e1973e49-c22d-4cfc-9fd1-01bb239b8af6"},"vehicle_type_id":"4","last_reported":1771366742,"current_range_meters":9600,"station_id":"","pricing_plan_id":"cebpf4jnsgd1na2vs0mg"},{"bike_id":"82cea78d-13cb-47cb-bf53-d4e236e14283","system_id":"levelo_inurba_marseille","lat":43.30197,"lon":5.39473,"is_reserved":false,"is_disabled":false,"rental_uris":{"android":"levelo://app?vid=82cea78d-13cb-47cb-bf53-d4e236e14283","ios":"levelo://app?vid=82cea78d-13cb-47cb-bf53-d4e236e14283"},"vehicle_type_id":"4","last_reported":1771366742,"current_range_meters":24000,"station_id":"ce4bh0p2rcd13ifvqd70","pricing_plan_id":"cebpf4jnsgd1na2vs0mg"},{"bike_id":"ce337af0-3677-42e2-813a-b1acbff1e286","system_id":"levelo_inurba_marseille","lat":43.30123,"lon":5.39884,"is_reserved":false,"is_disabled":false,"rental_uris":{"android":"levelo://app?vid=ce337af0-3677-42e2-813a-b1acbff1e286","ios":"levelo://app?vid=ce337af0-3677-42e2-813a-b1acbff1e286"},"vehicle_type_id":"4","last_reported":1771366742,"current_range_meters":39200,"station_id":"ce4bh0h2rcd13ifvqd40","pricing_plan_id":"cebpf4jnsgd1na2vs0mg"},{"bike_id":"d97537ae-36ee-4f17-b523-a6c7d44c7ba4","system_id":"levelo_inurba_marseille","lat":43.28663,"lon":5.36337,"is_reserved":false,"is_disabled":false,"rental_uris":{"android":"levelo://app?vid=d97537ae-36ee-4f17-b523-a6c7d44c7ba4","ios":"levelo://app?vid=d97537ae-36ee-4f17-b523-a6c7d44c7ba4"},"vehicle_type_id":"4","last_reported":1771366742,"current_range_meters":37600,"station_id":"ce4bhah2rcd13ifvqej0","pricing_plan_id":"cebpf4jnsgd1na2vs0mg"},{"bike_id":"252b9549-a329-4719-8fa9-46cd4e11de92","system_id":"levelo_inurba_marseille","lat":43.30317,"lon":5.4028,"is_reserved":false,"is_disabled":false,"rental_uris":{"android":"levelo://app?vid=252b9549-a329-4719-8fa9-46cd4e11de92","ios":"levelo://app?vid=252b9549-a329-4719-8fa9-46cd4e11de92"},"vehicle_type_id":"4","last_reported":1771366742,"current_range_meters":10800,"station_id":"","pricing_plan_id":"cebpf4jnsgd1na2vs0mg"},{"bike_id":"19646293-cfd9-4b47-83b4-12ec7e7f9547","system_id":"levelo_inurba_marseille","lat":43.23059,"lon":5.35493,"is_reserved":false,"is_disabled":false,"rental_uris":{"android":"levelo://app?vid=19646293-cfd9-4b47-83b4-12ec7e7f9547","ios":"levelo://app?vid=19646293-cfd9-4b47-83b4-12ec7e7f9547"},"vehicle_type_id":"4","last_reported":1771366742,"current_range_meters":39200,"station_id":"cpo3342slgdg3j2ifvpg","pricing_plan_id":"cebpf4jnsgd1na2vs0mg"},{"bike_id":"4fe1486c-d131-4c1a-b65b-ae3c2f4a4045","system_id":"levelo_inurba_marseille","lat":43.29594,"lon":5.3811,"is_reserved":false,"is_disabled":false,"rental_uris":{"android":"levelo://app?vid=4fe1486c-d131-4c1a-b65b-ae3c2f4a4045","ios":"levelo://app?vid=4fe1486c-d131-4c1a-b65b-ae3c2f4a4045"},"vehicle_type_id":"4","last_reported":1771366742,"current_range_meters":38400,"station_id":"ce4bgl12rcd13ifvqbo0","pricing_plan_id":"cebpf4jnsgd1na2vs0mg"},{"bike_id":"2378b382-40a9-4c25-b5e5-863cfb124533","system_id":"levelo_inurba_marseille","lat":43.24805,"lon":5.37442,"is_reserved":false,"is_disabled":false,"rental_uris":{"android":"levelo://app?vid=2378b382-40a9-4c25-b5e5-863cfb124533","ios":"levelo://app?vid=2378b382-40a9-4c25-b5e5-863cfb124533"},"vehicle_type_id":"4","last_reported":1771366742,"current_range_meters":39200,"station_id":"ce4bhgh2rcd13ifvqfb0","pricing_plan_id":"cebpf4jnsgd1na2vs0mg"},{"bike_id":"806ea4e8-cc70-4baf-a5d9-7617dfd81486","system_id":"levelo_inurba_marseille","lat":43.313652,"lon":5.36703,"is_reserved":false,"is_disabled":true,"rental_uris":{"android":"levelo://app?vid=806ea4e8-cc70-4baf-a5d9-7617dfd81486","ios":"levelo://app?vid=806ea4e8-cc70-4baf-a5d9-7617dfd81486"},"vehicle_type_id":"4","last_reported":1771366742,"current_range_meters":29600,"station_id":"ce4bgrh2rcd13ifvqc8g","pricing_plan_id":"cebpf4jnsgd1na2vs0mg"},{"bike_id":"5fe132fc-2d78-405f-b38f-5bde934a2713","system_id":"levelo_inurba_marseille","lat":43.27816,"lon":5.40707,"is_reserved":false,"is_disabled":false,"rental_uris":{"android":"levelo://app?vid=5fe132fc-2d78-405f-b38f-5bde934a2713","ios":"levelo://app?vid=5fe132fc-2d78-405f-b38f-5bde934a2713"},"vehicle_type_id":"4","last_reported":1771366742,"current_range_meters":19200,"station_id":"ce4bhnh2rcd13ifvqgtg","pricing_plan_id":"cebpf4jnsgd1na2vs0mg"},{"bike_id":"57d39c93-89e8-44cb-bfc5-1cb21d4ac583","system_id":"levelo_inurba_marseille","lat":43.28723,"lon":5.39953,"is_reserved":false,"is_disabled":false,"rental_uris":{"android":"levelo://app?vid=57d39c93-89e8-44cb-bfc5-1cb21d4ac583","ios":"levelo://app?vid=57d39c93-89e8-44cb-bfc5-1cb21d4ac583"},"vehicle_type_id":"4","last_reported":1771366742,"current_range_meters":38400,"station_id":"ce4bho92rcd13ifvqh3g","pricing_plan_id":"cebpf4jnsgd1na2vs0mg"},{"bike_id":"4ae54365-08a4-4214-90ef-eb3c127f344d","system_id":"levelo_inurba_marseille","lat":43.25118,"lon":5.40297,"is_reserved":false,"is_disabled":false,"rental_uris":{"android":"levelo://app?vid=4ae54365-08a4-4214-90ef-eb3c127f344d","ios":"levelo://app?vid=4ae54365-08a4-4214-90ef-eb3c127f344d"},"vehicle_type_id":"4","last_reported":1771366742,"current_range_meters":38400,"station_id":"ce4bhlh2rcd13ifvqgig","pricing_plan_id":"cebpf4jnsgd1na2vs0mg"},{"bike_id":"c3dd4774-a84d-4ae8-ae37-e3f0b6793cdf","system_id":"levelo_inurba_marseille","lat":43.29793,"lon":5.38092,"is_reserved":false,"is_disabled":false,"rental_uris":{"android":"levelo://app?vid=c3dd4774-a84d-4ae8-ae37-e3f0b6793cdf","ios":"levelo://app?vid=c3dd4774-a84d-4ae8-ae37-e3f0b6793cdf"},"vehicle_type_id":"4","last_reported":1771366742,"current_range_meters":25600,"station_id":"ce4bgip2rcd13ifvqbb0","pricing_plan_id":"cebpf4jnsgd1na2vs0mg"},{"bike_id":"38035274-1c3e-4698-9764-fe0351f002bc","system_id":"levelo_inurba_marseille","lat":43.28413,"lon":5.35003,"is_reserved":false,"is_disabled":false,"rental_uris":{"android":"levelo://app?vid=38035274-1c3e-4698-9764-fe0351f002bc","ios":"levelo://app?vid=38035274-1c3e-4698-9764-fe0351f002bc"},"vehicle_type_id":"4","last_reported":1771366742,"current_range_meters":21600,"station_id":"ce4bhbh2rcd13ifvqepg","pricing_plan_id":"cebpf4jnsgd1na2vs0mg"},{"bike_id":"5cf34e17-6234-42d4-b0cc-647bc7c6ce27","system_id":"levelo_inurba_marseille","lat":43.31878,"lon":5.40739,"is_reserved":false,"is_disabled":false,"rental_uris":{"android":"levelo://app?vid=5cf34e17-6234-42d4-b0cc-647bc7c6ce27","ios":"levelo://app?vid=5cf34e17-6234-42d4-b0cc-647bc7c6ce27"},"vehicle_type_id":"4","last_reported":1771366742,"current_range_meters":38800,"station_id":"ce4bhq12rcd13ifvqhig","pricing_plan_id":"cebpf4jnsgd1na2vs0mg"},{"bike_id":"0c1481f4-3fb3-4fb6-b890-f767c7cf1052","system_id":"levelo_inurba_marseille","lat":43.23105,"lon":5.4006,"is_reserved":false,"is_disabled":false,"rental_uris":{"android":"levelo://app?vid=0c1481f4-3fb3-4fb6-b890-f767c7cf1052","ios":"levelo://app?vid=0c1481f4-3fb3-4fb6-b890-f767c7cf1052"},"vehicle_type_id":"4","last_reported":1771366742,"current_range_meters":8400,"station_id":"","pricing_plan_id":"cebpf4jnsgd1na2vs0mg"},{"bike_id":"233d0435-985b-4801-a8e5-aec49fd54c71","system_id":"levelo_inurba_marseille","lat":43.29698,"lon":5.36607,"is_reserved":false,"is_disabled":false,"rental_uris":{"android":"levelo://app?vid=233d0435-985b-4801-a8e5-aec49fd54c71","ios":"levelo://app?vid=233d0435-985b-4801-a8e5-aec49fd54c71"},"vehicle_type_id":"4","last_reported":1771366742,"current_range_meters":16400,"station_id":"ce4bgn12rcd13ifvqbt0","pricing_plan_id":"cebpf4jnsgd1na2vs0mg"},{"bike_id":"de548fdd-4d75-45d0-98b5-bf7935d8a529","system_id":"levelo_inurba_marseille","lat":43.29978,"lon":5.37166,"is_reserved":false,"is_disabled":false,"rental_uris":{"android":"levelo://app?vid=de548fdd-4d75-45d0-98b5-bf7935d8a529","ios":"levelo://app?vid=de548fdd-4d75-45d0-98b5-bf7935d8a529"},"vehicle_type_id":"4","last_reported":1771366742,"current_range_meters":25200,"station_id":"ce4bgr92rcd13ifvqc7g","pricing_plan_id":"cebpf4jnsgd1na2vs0mg"},{"bike_id":"4477481c-6ee7-4b64-a85c-b50b2241d99a","system_id":"levelo_inurba_marseille","lat":43.24396,"lon":5.37068,"is_reserved":false,"is_disabled":false,"rental_uris":{"android":"levelo://app?vid=4477481c-6ee7-4b64-a85c-b50b2241d99a","ios":"levelo://app?vid=4477481c-6ee7-4b64-a85c-b50b2241d99a"},"vehicle_type_id":"4","last_reported":1771366742,"current_range_meters":24800,"station_id":"ce4bhhh2rcd13ifvqfk0","pricing_plan_id":"cebpf4jnsgd1na2vs0mg"},{"bike_id":"0ad60f25-2a40-4ffc-b6c5-914b1a807825","system_id":"levelo_inurba_marseille","lat":43.30797,"lon":5.37634,"is_reserved":false,"is_disabled":false,"rental_uris":{"android":"levelo://app?vid=0ad60f25-2a40-4ffc-b6c5-914b1a807825","ios":"levelo://app?vid=0ad60f25-2a40-4ffc-b6c5-914b1a807825"},"vehicle_type_id":"4","last_reported":1771366742,"current_range_meters":17600,"station_id":"ce4bgv92rcd13ifvqcq0","pricing_plan_id":"cebpf4jnsgd1na2vs0mg"},{"bike_id":"2acdd632-5939-4755-8df5-db0e237b99fb","system_id":"levelo_inurba_marseille","lat":43.26567,"lon":5.403256,"is_reserved":false,"is_disabled":false,"rental_uris":{"android":"levelo://app?vid=2acdd632-5939-4755-8df5-db0e237b99fb","ios":"levelo://app?vid=2acdd632-5939-4755-8df5-db0e237b99fb"},"vehicle_type_id":"4","last_reported":1771366742,"current_range_meters":24800,"station_id":"ce4bhmp2rcd13ifvqgng","pricing_plan_id":"cebpf4jnsgd1na2vs0mg"},{"bike_id":"24cb7b6e-2362-46af-8f1a-97e7727b6c72","system_id":"levelo_inurba_marseille","lat":43.25585,"lon":5.3824,"is_reserved":false,"is_disabled":false,"rental_uris":{"android":"levelo://app?vid=24cb7b6e-2362-46af-8f1a-97e7727b6c72","ios":"levelo://app?vid=24cb7b6e-2362-46af-8f1a-97e7727b6c72"},"vehicle_type_id":"4","last_reported":1771366742,"current_range_meters":40000,"station_id":"ce4bhih2rcd13ifvqfs0","pricing_plan_id":"cebpf4jnsgd1na2vs0mg"},{"bike_id":"154563d7-c416-4fa7-a542-c2fa7f9eacbc","system_id":"levelo_inurba_marseille","lat":43.2848,"lon":5.48397,"is_reserved":false,"is_disabled":false,"rental_uris":{"android":"levelo://app?vid=154563d7-c416-4fa7-a542-c2fa7f9eacbc","ios":"levelo://app?vid=154563d7-c416-4fa7-a542-c2fa7f9eacbc"},"vehicle_type_id":"4","last_reported":1771366742,"current_range_meters":30000,"station_id":"","pricing_plan_id":"cebpf4jnsgd1na2vs0mg"},{"bike_id":"7d58deb0-d3df-4cba-b032-66e10c7a0925","system_id":"levelo_inurba_marseille","lat":43.24818,"lon":5.37482,"is_reserved":false,"is_disabled":false,"rental_uris":{"android":"levelo://app?vid=7d58deb0-d3df-4cba-b032-66e10c7a0925","ios":"levelo://app?vid=7d58deb0-d3df-4cba-b032-66e10c7a0925"},"vehicle_type_id":"4","last_reported":1771366742,"current_range_meters":30400,"station_id":"ce4bhgh2rcd13ifvqfb0","pricing_plan_id":"cebpf4jnsgd1na2vs0mg"},{"bike_id":"670d0d8c-ce12-446b-a80d-34edad4ac1ae","system_id":"levelo_inurba_marseille","lat":43.29625,"lon":5.40597,"is_reserved":false,"is_disabled":false,"rental_uris":{"android":"levelo://app?vid=670d0d8c-ce12-446b-a80d-34edad4ac1ae","ios":"levelo://app?vid=670d0d8c-ce12-446b-a80d-34edad4ac1ae"},"vehicle_type_id":"4","last_reported":1771366742,"current_range_meters":9200,"station_id":"ce4bh0h2rcd13ifvqd60","pricing_plan_id":"cebpf4jnsgd1na2vs0mg"},{"bike_id":"b20b74a5-2b7e-49d3-ae44-1cf4c91f5db3","system_id":"levelo_inurba_marseille","lat":43.22547,"lon":5.4163,"is_reserved":false,"is_disabled":false,"rental_uris":{"android":"levelo://app?vid=b20b74a5-2b7e-49d3-ae44-1cf4c91f5db3","ios":"levelo://app?vid=b20b74a5-2b7e-49d3-ae44-1cf4c91f5db3"},"vehicle_type_id":"4","last_reported":1771366742,"current_range_meters":4400,"station_id":"st_d2o4gvlbi1j2169b742g","pricing_plan_id":"cebpf4jnsgd1na2vs0mg"},{"bike_id":"2e62e3c6-0b27-4130-bb68-0925f0a95e9a","system_id":"levelo_inurba_marseille","lat":43.2731,"lon":5.39101,"is_reserved":false,"is_disabled":true,"rental_uris":{"android":"levelo://app?vid=2e62e3c6-0b27-4130-bb68-0925f0a95e9a","ios":"levelo://app?vid=2e62e3c6-0b27-4130-bb68-0925f0a95e9a"},"vehicle_type_id":"4","last_reported":1771366742,"current_range_meters":32400,"station_id":"ce4bhgp2rcd13ifvqfe0","pricing_plan_id":"cebpf4jnsgd1na2vs0mg"},{"bike_id":"220cefcc-9413-4a04-8be2-d38b460fccf6","system_id":"levelo_inurba_marseille","lat":43.26494,"lon":5.39526,"is_reserved":false,"is_disabled":false,"rental_uris":{"android":"levelo://app?vid=220cefcc-9413-4a04-8be2-d38b460fccf6","ios":"levelo://app?vid=220cefcc-9413-4a04-8be2-d38b460fccf6"},"vehicle_type_id":"4","last_reported":1771366742,"current_range_meters":32000,"station_id":"ce4bhi12rcd13ifvqfq0","pricing_plan_id":"cebpf4jnsgd1na2vs0mg"},{"bike_id":"016e4389-a149-4190-8f7a-e29c62519426","system_id":"levelo_inurba_marseille","lat":43.31076,"lon":5.42433,"is_reserved":false,"is_disabled":false,"rental_uris":{"android":"levelo://app?vid=016e4389-a149-4190-8f7a-e29c62519426","ios":"levelo://app?vid=016e4389-a149-4190-8f7a-e29c62519426"},"vehicle_type_id":"4","last_reported":1771366742,"current_range_meters":24000,"station_id":"ce4bhp92rcd13ifvqhag","pricing_plan_id":"cebpf4jnsgd1na2vs0mg"},{"bike_id":"1a2ea741-05bf-4380-8a0f-a87f70178db6","system_id":"levelo_inurba_marseille","lat":43.31121,"lon":5.37749,"is_reserved":false,"is_disabled":false,"rental_uris":{"android":"levelo://app?vid=1a2ea741-05bf-4380-8a0f-a87f70178db6","ios":"levelo://app?vid=1a2ea741-05bf-4380-8a0f-a87f70178db6"},"vehicle_type_id":"4","last_reported":1771366742,"current_range_meters":28000,"station_id":"ce4bgt92rcd13ifvqcg0","pricing_plan_id":"cebpf4jnsgd1na2vs0mg"},{"bike_id":"d541d312-8957-468f-98f5-5438278aaf0a","system_id":"levelo_inurba_marseille","lat":43.30306,"lon":5.36886,"is_reserved":false,"is_disabled":false,"rental_uris":{"android":"levelo://app?vid=d541d312-8957-468f-98f5-5438278aaf0a","ios":"levelo://app?vid=d541d312-8957-468f-98f5-5438278aaf0a"},"vehicle_type_id":"4","last_reported":1771366742,"current_range_meters":22400,"station_id":"ce4bgqh2rcd13ifvqc5g","pricing_plan_id":"cebpf4jnsgd1na2vs0mg"},{"bike_id":"dcfc4996-4d68-4874-bf59-5ac226b21e31","system_id":"levelo_inurba_marseille","lat":43.29181,"lon":5.35841,"is_reserved":false,"is_disabled":false,"rental_uris":{"android":"levelo://app?vid=dcfc4996-4d68-4874-bf59-5ac226b21e31","ios":"levelo://app?vid=dcfc4996-4d68-4874-bf59-5ac226b21e31"},"vehicle_type_id":"4","last_reported":1771366742,"current_range_meters":36800,"station_id":"ce4bhb12rcd13ifvqel0","pricing_plan_id":"cebpf4jnsgd1na2vs0mg"},{"bike_id":"e9be978a-fe42-4e37-8c73-6b487f73cb3e","system_id":"levelo_inurba_marseille","lat":43.29589,"lon":5.38116,"is_reserved":false,"is_disabled":false,"rental_uris":{"android":"levelo://app?vid=e9be978a-fe42-4e37-8c73-6b487f73cb3e","ios":"levelo://app?vid=e9be978a-fe42-4e37-8c73-6b487f73cb3e"},"vehicle_type_id":"4","last_reported":1771366742,"current_range_meters":34800,"station_id":"ce4bgl12rcd13ifvqbo0","pricing_plan_id":"cebpf4jnsgd1na2vs0mg"},{"bike_id":"b6c30772-7fe7-470e-9b7a-2bad54106238","system_id":"levelo_inurba_marseille","lat":43.29564,"lon":5.37508,"is_reserved":false,"is_disabled":false,"rental_uris":{"android":"levelo://app?vid=b6c30772-7fe7-470e-9b7a-2bad54106238","ios":"levelo://app?vid=b6c30772-7fe7-470e-9b7a-2bad54106238"},"vehicle_type_id":"4","last_reported":1771366742,"current_range_meters":19600,"station_id":"ce4bgh92rcd13ifvqb50","pricing_plan_id":"cebpf4jnsgd1na2vs0mg"},{"bike_id":"ae856a39-f29a-4e7b-92fd-4cf9b8e26220","system_id":"levelo_inurba_marseille","lat":43.2845,"lon":5.38404,"is_reserved":false,"is_disabled":false,"rental_uris":{"android":"levelo://app?vid=ae856a39-f29a-4e7b-92fd-4cf9b8e26220","ios":"levelo://app?vid=ae856a39-f29a-4e7b-92fd-4cf9b8e26220"},"vehicle_type_id":"4","last_reported":1771366742,"current_range_meters":39200,"station_id":"ce4bh512rcd13ifvqe3g","pricing_plan_id":"cebpf4jnsgd1na2vs0mg"},{"bike_id":"d2caf9d8-1a11-4658-97a9-300561939203","system_id":"levelo_inurba_marseille","lat":43.22933,"lon":5.35385,"is_reserved":false,"is_disabled":false,"rental_uris":{"android":"levelo://app?vid=d2caf9d8-1a11-4658-97a9-300561939203","ios":"levelo://app?vid=d2caf9d8-1a11-4658-97a9-300561939203"},"vehicle_type_id":"4","last_reported":1771366742,"current_range_meters":35600,"station_id":"cpo3532slgdg3j2ikp40","pricing_plan_id":"cebpf4jnsgd1na2vs0mg"},{"bike_id":"f24fb0ee-87d2-499a-896b-a0906dffe0dd","system_id":"levelo_inurba_marseille","lat":43.29581,"lon":5.36743,"is_reserved":false,"is_disabled":false,"rental_uris":{"android":"levelo://app?vid=f24fb0ee-87d2-499a-896b-a0906dffe0dd","ios":"levelo://app?vid=f24fb0ee-87d2-499a-896b-a0906dffe0dd"},"vehicle_type_id":"4","last_reported":1771366742,"current_range_meters":5600,"station_id":"ce4bgph2rcd13ifvqc2g","pricing_plan_id":"cebpf4jnsgd1na2vs0mg"},{"bike_id":"00c28752-f221-4bd4-97d7-65bda8150774","system_id":"levelo_inurba_marseille","lat":43.24543,"lon":5.39522,"is_reserved":false,"is_disabled":false,"rental_uris":{"android":"levelo://app?vid=00c28752-f221-4bd4-97d7-65bda8150774","ios":"levelo://app?vid=00c28752-f221-4bd4-97d7-65bda8150774"},"vehicle_type_id":"4","last_reported":1771366742,"current_range_meters":19600,"station_id":"ce4bhlp2rcd13ifvqgjg","pricing_plan_id":"cebpf4jnsgd1na2vs0mg"},{"bike_id":"1de97570-ae76-4d69-959d-68b6161997f7","system_id":"levelo_inurba_marseille","lat":43.26483,"lon":5.39544,"is_reserved":false,"is_disabled":false,"rental_uris":{"android":"levelo://app?vid=1de97570-ae76-4d69-959d-68b6161997f7","ios":"levelo://app?vid=1de97570-ae76-4d69-959d-68b6161997f7"},"vehicle_type_id":"4","last_reported":1771366742,"current_range_meters":40000,"station_id":"ce4bhi12rcd13ifvqfq0","pricing_plan_id":"cebpf4jnsgd1na2vs0mg"},{"bike_id":"3b41e299-098a-4799-95cd-1d1c98eef8e8","system_id":"levelo_inurba_marseille","lat":43.31071,"lon":5.37165,"is_reserved":false,"is_disabled":true,"rental_uris":{"android":"levelo://app?vid=3b41e299-098a-4799-95cd-1d1c98eef8e8","ios":"levelo://app?vid=3b41e299-098a-4799-95cd-1d1c98eef8e8"},"vehicle_type_id":"4","last_reported":1771366742,"current_range_meters":38400,"station_id":"st_d4kl2rp97mjs73e7tdfg","pricing_plan_id":"cebpf4jnsgd1na2vs0mg"},{"bike_id":"4c4b2d38-e0cd-4075-84ef-befc377b3c30","system_id":"levelo_inurba_marseille","lat":43.23184,"lon":5.39969,"is_reserved":false,"is_disabled":false,"rental_uris":{"android":"levelo://app?vid=4c4b2d38-e0cd-4075-84ef-befc377b3c30","ios":"levelo://app?vid=4c4b2d38-e0cd-4075-84ef-befc377b3c30"},"vehicle_type_id":"4","last_reported":1771366742,"current_range_meters":22400,"station_id":"ce4bhn12rcd13ifvqgqg","pricing_plan_id":"cebpf4jnsgd1na2vs0mg"},{"bike_id":"b806b432-bc29-4549-b638-cb5a5287d8d1","system_id":"levelo_inurba_marseille","lat":43.30769,"lon":5.37661,"is_reserved":false,"is_disabled":false,"rental_uris":{"android":"levelo://app?vid=b806b432-bc29-4549-b638-cb5a5287d8d1","ios":"levelo://app?vid=b806b432-bc29-4549-b638-cb5a5287d8d1"},"vehicle_type_id":"4","last_reported":1771366742,"current_range_meters":16000,"station_id":"ce4bgv92rcd13ifvqcq0","pricing_plan_id":"cebpf4jnsgd1na2vs0mg"},{"bike_id":"aa040cc4-2fbe-4a96-9f32-8824c9a0fced","system_id":"levelo_inurba_marseille","lat":43.30244,"lon":5.40044,"is_reserved":false,"is_disabled":false,"rental_uris":{"android":"levelo://app?vid=aa040cc4-2fbe-4a96-9f32-8824c9a0fced","ios":"levelo://app?vid=aa040cc4-2fbe-4a96-9f32-8824c9a0fced"},"vehicle_type_id":"4","last_reported":1771366742,"current_range_meters":4400,"station_id":"ce4bgvh2rcd13ifvqcs0","pricing_plan_id":"cebpf4jnsgd1na2vs0mg"},{"bike_id":"38c77bad-2974-430e-b0cc-cadbbf837617","system_id":"levelo_inurba_marseille","lat":43.28476,"lon":5.48403,"is_reserved":false,"is_disabled":false,"rental_uris":{"android":"levelo://app?vid=38c77bad-2974-430e-b0cc-cadbbf837617","ios":"levelo://app?vid=38c77bad-2974-430e-b0cc-cadbbf837617"},"vehicle_type_id":"4","last_reported":1771366742,"current_range_meters":17200,"station_id":"","pricing_plan_id":"cebpf4jnsgd1na2vs0mg"},{"bike_id":"22a0464a-3c34-4238-8400-24a574769a0b","system_id":"levelo_inurba_marseille","lat":43.28865,"lon":5.4252,"is_reserved":false,"is_disabled":false,"rental_uris":{"android":"levelo://app?vid=22a0464a-3c34-4238-8400-24a574769a0b","ios":"levelo://app?vid=22a0464a-3c34-4238-8400-24a574769a0b"},"vehicle_type_id":"4","last_reported":1771366742,"current_range_meters":39200,"station_id":"st_d3b462108ojc7389ooeg","pricing_plan_id":"cebpf4jnsgd1na2vs0mg"},{"bike_id":"f92fe039-65e2-4628-bb9e-2237a29c9497","system_id":"levelo_inurba_marseille","lat":43.275477,"lon":5.38429,"is_reserved":false,"is_disabled":false,"rental_uris":{"android":"levelo://app?vid=f92fe039-65e2-4628-bb9e-2237a29c9497","ios":"levelo://app?vid=f92fe039-65e2-4628-bb9e-2237a29c9497"},"vehicle_type_id":"4","last_reported":1771366742,"current_range_meters":31200,"station_id":"ce4bhh92rcd13ifvqfi0","pricing_plan_id":"cebpf4jnsgd1na2vs0mg"},{"bike_id":"00074e61-b7cf-4eb0-bb49-03f978d3c9cd","system_id":"levelo_inurba_marseille","lat":43.31121,"lon":5.37757,"is_reserved":false,"is_disabled":false,"rental_uris":{"android":"levelo://app?vid=00074e61-b7cf-4eb0-bb49-03f978d3c9cd","ios":"levelo://app?vid=00074e61-b7cf-4eb0-bb49-03f978d3c9cd"},"vehicle_type_id":"4","last_reported":1771366742,"current_range_meters":11600,"station_id":"","pricing_plan_id":"cebpf4jnsgd1na2vs0mg"},{"bike_id":"4aa80c02-2128-444f-a9a4-268d19aa2420","system_id":"levelo_inurba_marseille","lat":43.24471,"lon":5.42531,"is_reserved":false,"is_disabled":false,"rental_uris":{"android":"levelo://app?vid=4aa80c02-2128-444f-a9a4-268d19aa2420","ios":"levelo://app?vid=4aa80c02-2128-444f-a9a4-268d19aa2420"},"vehicle_type_id":"4","last_reported":1771366742,"current_range_meters":22800,"station_id":"st_d4a3vfp97mjs738cd8kg","pricing_plan_id":"cebpf4jnsgd1na2vs0mg"},{"bike_id":"8e8da903-a03d-40a0-811b-498a57902980","system_id":"levelo_inurba_marseille","lat":43.29553,"lon":5.39967,"is_reserved":false,"is_disabled":false,"rental_uris":{"android":"levelo://app?vid=8e8da903-a03d-40a0-811b-498a57902980","ios":"levelo://app?vid=8e8da903-a03d-40a0-811b-498a57902980"},"vehicle_type_id":"4","last_reported":1771366742,"current_range_meters":38000,"station_id":"ce4bh312rcd13ifvqdj0","pricing_plan_id":"cebpf4jnsgd1na2vs0mg"},{"bike_id":"22d1bb3b-f1af-43f7-bfee-dba1d668695b","system_id":"levelo_inurba_marseille","lat":43.26539,"lon":5.39039,"is_reserved":false,"is_disabled":false,"rental_uris":{"android":"levelo://app?vid=22d1bb3b-f1af-43f7-bfee-dba1d668695b","ios":"levelo://app?vid=22d1bb3b-f1af-43f7-bfee-dba1d668695b"},"vehicle_type_id":"4","last_reported":1771366742,"current_range_meters":16400,"station_id":"ce4bhe12rcd13ifvqf30","pricing_plan_id":"cebpf4jnsgd1na2vs0mg"},{"bike_id":"b1b97095-599c-4f9a-a098-49f06d4d9de4","system_id":"levelo_inurba_marseille","lat":43.31593,"lon":5.38774,"is_reserved":false,"is_disabled":false,"rental_uris":{"android":"levelo://app?vid=b1b97095-599c-4f9a-a098-49f06d4d9de4","ios":"levelo://app?vid=b1b97095-599c-4f9a-a098-49f06d4d9de4"},"vehicle_type_id":"4","last_reported":1771366742,"current_range_meters":6400,"station_id":"","pricing_plan_id":"cebpf4jnsgd1na2vs0mg"},{"bike_id":"68274cbd-590c-45aa-9a28-61b725a4285b","system_id":"levelo_inurba_marseille","lat":43.241707,"lon":5.363957,"is_reserved":false,"is_disabled":true,"rental_uris":{"android":"levelo://app?vid=68274cbd-590c-45aa-9a28-61b725a4285b","ios":"levelo://app?vid=68274cbd-590c-45aa-9a28-61b725a4285b"},"vehicle_type_id":"4","last_reported":1771366742,"current_range_meters":20800,"station_id":"cpo36qri1sfpv3e86is0","pricing_plan_id":"cebpf4jnsgd1na2vs0mg"},{"bike_id":"983eb652-cf21-4903-9d46-362b64bdd8e3","system_id":"levelo_inurba_marseille","lat":43.29563,"lon":5.39961,"is_reserved":false,"is_disabled":false,"rental_uris":{"android":"levelo://app?vid=983eb652-cf21-4903-9d46-362b64bdd8e3","ios":"levelo://app?vid=983eb652-cf21-4903-9d46-362b64bdd8e3"},"vehicle_type_id":"4","last_reported":1771366742,"current_range_meters":12000,"station_id":"ce4bh312rcd13ifvqdj0","pricing_plan_id":"cebpf4jnsgd1na2vs0mg"},{"bike_id":"40eeeab4-41c7-4c71-8808-5d3468b1f11d","system_id":"levelo_inurba_marseille","lat":43.2872,"lon":5.37955,"is_reserved":false,"is_disabled":false,"rental_uris":{"android":"levelo://app?vid=40eeeab4-41c7-4c71-8808-5d3468b1f11d","ios":"levelo://app?vid=40eeeab4-41c7-4c71-8808-5d3468b1f11d"},"vehicle_type_id":"4","last_reported":1771366742,"current_range_meters":16800,"station_id":"ce4bh9p2rcd13ifvqec0","pricing_plan_id":"cebpf4jnsgd1na2vs0mg"},{"bike_id":"6519ffcc-e63c-44b1-aec4-9b1a3b8e7dba","system_id":"levelo_inurba_marseille","lat":43.25581,"lon":5.38231,"is_reserved":false,"is_disabled":false,"rental_uris":{"android":"levelo://app?vid=6519ffcc-e63c-44b1-aec4-9b1a3b8e7dba","ios":"levelo://app?vid=6519ffcc-e63c-44b1-aec4-9b1a3b8e7dba"},"vehicle_type_id":"4","last_reported":1771366742,"current_range_meters":28400,"station_id":"ce4bhih2rcd13ifvqfs0","pricing_plan_id":"cebpf4jnsgd1na2vs0mg"},{"bike_id":"1ce24394-305c-4488-b178-aa7abf68971e","system_id":"levelo_inurba_marseille","lat":43.27354,"lon":5.36246,"is_reserved":false,"is_disabled":false,"rental_uris":{"android":"levelo://app?vid=1ce24394-305c-4488-b178-aa7abf68971e","ios":"levelo://app?vid=1ce24394-305c-4488-b178-aa7abf68971e"},"vehicle_type_id":"4","last_reported":1771366742,"current_range_meters":16800,"station_id":"ce4bhbh2rcd13ifvqeo0","pricing_plan_id":"cebpf4jnsgd1na2vs0mg"},{"bike_id":"56c5fd4d-25de-4c31-8167-196c77cdef14","system_id":"levelo_inurba_marseille","lat":43.29575,"lon":5.36743,"is_reserved":false,"is_disabled":false,"rental_uris":{"android":"levelo://app?vid=56c5fd4d-25de-4c31-8167-196c77cdef14","ios":"levelo://app?vid=56c5fd4d-25de-4c31-8167-196c77cdef14"},"vehicle_type_id":"4","last_reported":1771366742,"current_range_meters":25200,"station_id":"ce4bgph2rcd13ifvqc2g","pricing_plan_id":"cebpf4jnsgd1na2vs0mg"},{"bike_id":"73ca6e34-d057-4fe3-9b77-caa0c62686b4","system_id":"levelo_inurba_marseille","lat":43.30322,"lon":5.40454,"is_reserved":false,"is_disabled":false,"rental_uris":{"android":"levelo://app?vid=73ca6e34-d057-4fe3-9b77-caa0c62686b4","ios":"levelo://app?vid=73ca6e34-d057-4fe3-9b77-caa0c62686b4"},"vehicle_type_id":"4","last_reported":1771366742,"current_range_meters":28800,"station_id":"ce4bh012rcd13ifvqd10","pricing_plan_id":"cebpf4jnsgd1na2vs0mg"},{"bike_id":"43ee0588-c27a-4ccf-a93d-19fae64c8940","system_id":"levelo_inurba_marseille","lat":43.260579,"lon":5.393952,"is_reserved":false,"is_disabled":false,"rental_uris":{"android":"levelo://app?vid=43ee0588-c27a-4ccf-a93d-19fae64c8940","ios":"levelo://app?vid=43ee0588-c27a-4ccf-a93d-19fae64c8940"},"vehicle_type_id":"4","last_reported":1771366742,"current_range_meters":39200,"station_id":"ce4bhh92rcd13ifvqfj0","pricing_plan_id":"cebpf4jnsgd1na2vs0mg"},{"bike_id":"51856490-b1ea-41ec-b7e3-1417d88d36a2","system_id":"levelo_inurba_marseille","lat":43.25111,"lon":5.39491,"is_reserved":false,"is_disabled":false,"rental_uris":{"android":"levelo://app?vid=51856490-b1ea-41ec-b7e3-1417d88d36a2","ios":"levelo://app?vid=51856490-b1ea-41ec-b7e3-1417d88d36a2"},"vehicle_type_id":"4","last_reported":1771366742,"current_range_meters":39200,"station_id":"ce4bhm12rcd13ifvqgkg","pricing_plan_id":"cebpf4jnsgd1na2vs0mg"},{"bike_id":"e9991c87-6785-4dbb-814f-912667b2e07d","system_id":"levelo_inurba_marseille","lat":43.27073,"lon":5.42278,"is_reserved":false,"is_disabled":false,"rental_uris":{"android":"levelo://app?vid=e9991c87-6785-4dbb-814f-912667b2e07d","ios":"levelo://app?vid=e9991c87-6785-4dbb-814f-912667b2e07d"},"vehicle_type_id":"4","last_reported":1771366742,"current_range_meters":40000,"station_id":"ce4bhk92rcd13ifvqgb0","pricing_plan_id":"cebpf4jnsgd1na2vs0mg"},{"bike_id":"04824bb7-2f09-4c07-8a19-48a1c8f49c78","system_id":"levelo_inurba_marseille","lat":43.29026,"lon":5.39973,"is_reserved":false,"is_disabled":false,"rental_uris":{"android":"levelo://app?vid=04824bb7-2f09-4c07-8a19-48a1c8f49c78","ios":"levelo://app?vid=04824bb7-2f09-4c07-8a19-48a1c8f49c78"},"vehicle_type_id":"4","last_reported":1771366742,"current_range_meters":31200,"station_id":"ce4bh392rcd13ifvqdm0","pricing_plan_id":"cebpf4jnsgd1na2vs0mg"},{"bike_id":"62c4ee00-00d3-4573-89db-bcd49a4e4fd7","system_id":"levelo_inurba_marseille","lat":43.270734,"lon":5.42279,"is_reserved":false,"is_disabled":false,"rental_uris":{"android":"levelo://app?vid=62c4ee00-00d3-4573-89db-bcd49a4e4fd7","ios":"levelo://app?vid=62c4ee00-00d3-4573-89db-bcd49a4e4fd7"},"vehicle_type_id":"4","last_reported":1771366742,"current_range_meters":35600,"station_id":"ce4bhk92rcd13ifvqgb0","pricing_plan_id":"cebpf4jnsgd1na2vs0mg"},{"bike_id":"eee86da4-3e34-439e-b8c9-f79c4c504015","system_id":"levelo_inurba_marseille","lat":43.2956,"lon":5.37538,"is_reserved":false,"is_disabled":false,"rental_uris":{"android":"levelo://app?vid=eee86da4-3e34-439e-b8c9-f79c4c504015","ios":"levelo://app?vid=eee86da4-3e34-439e-b8c9-f79c4c504015"},"vehicle_type_id":"4","last_reported":1771366742,"current_range_meters":26000,"station_id":"ce4bgh92rcd13ifvqb50","pricing_plan_id":"cebpf4jnsgd1na2vs0mg"},{"bike_id":"c9c844ed-fdda-4f6a-98cd-491031ced005","system_id":"levelo_inurba_marseille","lat":43.28845,"lon":5.39339,"is_reserved":false,"is_disabled":false,"rental_uris":{"android":"levelo://app?vid=c9c844ed-fdda-4f6a-98cd-491031ced005","ios":"levelo://app?vid=c9c844ed-fdda-4f6a-98cd-491031ced005"},"vehicle_type_id":"4","last_reported":1771366742,"current_range_meters":28400,"station_id":"ce4bh2p2rcd13ifvqdi0","pricing_plan_id":"cebpf4jnsgd1na2vs0mg"},{"bike_id":"b0ec81ff-dda6-4283-8aeb-3f480899c63f","system_id":"levelo_inurba_marseille","lat":43.290277,"lon":5.386218,"is_reserved":false,"is_disabled":false,"rental_uris":{"android":"levelo://app?vid=b0ec81ff-dda6-4283-8aeb-3f480899c63f","ios":"levelo://app?vid=b0ec81ff-dda6-4283-8aeb-3f480899c63f"},"vehicle_type_id":"4","last_reported":1771366742,"current_range_meters":39200,"station_id":"ce4bh4p2rcd13ifvqe0g","pricing_plan_id":"cebpf4jnsgd1na2vs0mg"},{"bike_id":"0cfceae5-a32b-4c1f-b802-b5e4660a01e1","system_id":"levelo_inurba_marseille","lat":43.28854,"lon":5.3583,"is_reserved":false,"is_disabled":false,"rental_uris":{"android":"levelo://app?vid=0cfceae5-a32b-4c1f-b802-b5e4660a01e1","ios":"levelo://app?vid=0cfceae5-a32b-4c1f-b802-b5e4660a01e1"},"vehicle_type_id":"4","last_reported":1771366742,"current_range_meters":37600,"station_id":"ce4bhb12rcd13ifvqem0","pricing_plan_id":"cebpf4jnsgd1na2vs0mg"},{"bike_id":"d5fe3e37-6d89-4e6d-b318-54196ffd1123","system_id":"levelo_inurba_marseille","lat":43.289828,"lon":5.387531,"is_reserved":false,"is_disabled":false,"rental_uris":{"android":"levelo://app?vid=d5fe3e37-6d89-4e6d-b318-54196ffd1123","ios":"levelo://app?vid=d5fe3e37-6d89-4e6d-b318-54196ffd1123"},"vehicle_type_id":"4","last_reported":1771366742,"current_range_meters":4000,"station_id":"","pricing_plan_id":"cebpf4jnsgd1na2vs0mg"},{"bike_id":"fd120410-c4a6-4872-a15e-73e33a0c8e13","system_id":"levelo_inurba_marseille","lat":43.28052,"lon":5.36954,"is_reserved":false,"is_disabled":false,"rental_uris":{"android":"levelo://app?vid=fd120410-c4a6-4872-a15e-73e33a0c8e13","ios":"levelo://app?vid=fd120410-c4a6-4872-a15e-73e33a0c8e13"},"vehicle_type_id":"4","last_reported":1771366742,"current_range_meters":39200,"station_id":"ce4bha12rcd13ifvqef0","pricing_plan_id":"cebpf4jnsgd1na2vs0mg"},{"bike_id":"6874a728-2036-45e6-b6c2-69ff6fd8b41b","system_id":"levelo_inurba_marseille","lat":43.26494,"lon":5.39537,"is_reserved":false,"is_disabled":false,"rental_uris":{"android":"levelo://app?vid=6874a728-2036-45e6-b6c2-69ff6fd8b41b","ios":"levelo://app?vid=6874a728-2036-45e6-b6c2-69ff6fd8b41b"},"vehicle_type_id":"4","last_reported":1771366742,"current_range_meters":16800,"station_id":"ce4bhi12rcd13ifvqfq0","pricing_plan_id":"cebpf4jnsgd1na2vs0mg"},{"bike_id":"c17f44cd-8a4b-4c4e-90da-1b538fcc39f6","system_id":"levelo_inurba_marseille","lat":43.297003,"lon":5.376916,"is_reserved":false,"is_disabled":false,"rental_uris":{"android":"levelo://app?vid=c17f44cd-8a4b-4c4e-90da-1b538fcc39f6","ios":"levelo://app?vid=c17f44cd-8a4b-4c4e-90da-1b538fcc39f6"},"vehicle_type_id":"4","last_reported":1771366742,"current_range_meters":32800,"station_id":"ce4bh4p2rcd13ifvqe1g","pricing_plan_id":"cebpf4jnsgd1na2vs0mg"},{"bike_id":"5c72476a-9212-4c44-ab1d-c5117cf2ed5f","system_id":"levelo_inurba_marseille","lat":43.33538,"lon":5.37447,"is_reserved":false,"is_disabled":false,"rental_uris":{"android":"levelo://app?vid=5c72476a-9212-4c44-ab1d-c5117cf2ed5f","ios":"levelo://app?vid=5c72476a-9212-4c44-ab1d-c5117cf2ed5f"},"vehicle_type_id":"4","last_reported":1771366742,"current_range_meters":27200,"station_id":"st_d46tts09ee8s73dlu43g","pricing_plan_id":"cebpf4jnsgd1na2vs0mg"},{"bike_id":"dbdd8196-53c1-4d97-97e1-f913d3089af2","system_id":"levelo_inurba_marseille","lat":43.29031,"lon":5.38658,"is_reserved":false,"is_disabled":false,"rental_uris":{"android":"levelo://app?vid=dbdd8196-53c1-4d97-97e1-f913d3089af2","ios":"levelo://app?vid=dbdd8196-53c1-4d97-97e1-f913d3089af2"},"vehicle_type_id":"4","last_reported":1771366742,"current_range_meters":13600,"station_id":"ce4bh4p2rcd13ifvqe0g","pricing_plan_id":"cebpf4jnsgd1na2vs0mg"},{"bike_id":"fc01cc9d-533a-4c48-813b-04abe2bf0ba6","system_id":"levelo_inurba_marseille","lat":43.29755,"lon":5.42787,"is_reserved":false,"is_disabled":false,"rental_uris":{"android":"levelo://app?vid=fc01cc9d-533a-4c48-813b-04abe2bf0ba6","ios":"levelo://app?vid=fc01cc9d-533a-4c48-813b-04abe2bf0ba6"},"vehicle_type_id":"4","last_reported":1771366742,"current_range_meters":33600,"station_id":"st_d3md5207bmas73dh9klg","pricing_plan_id":"cebpf4jnsgd1na2vs0mg"},{"bike_id":"24e98e5d-096e-4b5b-a836-ec8cf23bd5a0","system_id":"levelo_inurba_marseille","lat":43.248056,"lon":5.374574,"is_reserved":false,"is_disabled":false,"rental_uris":{"android":"levelo://app?vid=24e98e5d-096e-4b5b-a836-ec8cf23bd5a0","ios":"levelo://app?vid=24e98e5d-096e-4b5b-a836-ec8cf23bd5a0"},"vehicle_type_id":"4","last_reported":1771366742,"current_range_meters":22800,"station_id":"ce4bhgh2rcd13ifvqfb0","pricing_plan_id":"cebpf4jnsgd1na2vs0mg"},{"bike_id":"73e5c9a8-e130-4e2a-b97c-5db880d3b0dc","system_id":"levelo_inurba_marseille","lat":43.30306,"lon":5.39212,"is_reserved":false,"is_disabled":false,"rental_uris":{"android":"levelo://app?vid=73e5c9a8-e130-4e2a-b97c-5db880d3b0dc","ios":"levelo://app?vid=73e5c9a8-e130-4e2a-b97c-5db880d3b0dc"},"vehicle_type_id":"4","last_reported":1771366742,"current_range_meters":28000,"station_id":"ce4bgkh2rcd13ifvqbk0","pricing_plan_id":"cebpf4jnsgd1na2vs0mg"},{"bike_id":"53aa1b58-0cf2-4281-8aca-5dbc346c9e9e","system_id":"levelo_inurba_marseille","lat":43.27992,"lon":5.41678,"is_reserved":false,"is_disabled":false,"rental_uris":{"android":"levelo://app?vid=53aa1b58-0cf2-4281-8aca-5dbc346c9e9e","ios":"levelo://app?vid=53aa1b58-0cf2-4281-8aca-5dbc346c9e9e"},"vehicle_type_id":"4","last_reported":1771366742,"current_range_meters":38400,"station_id":"ce4bho12rcd13ifvqh1g","pricing_plan_id":"cebpf4jnsgd1na2vs0mg"},{"bike_id":"819da65f-4600-4ae7-b59f-7223a1bca979","system_id":"levelo_inurba_marseille","lat":43.248047,"lon":5.374523,"is_reserved":false,"is_disabled":false,"rental_uris":{"android":"levelo://app?vid=819da65f-4600-4ae7-b59f-7223a1bca979","ios":"levelo://app?vid=819da65f-4600-4ae7-b59f-7223a1bca979"},"vehicle_type_id":"4","last_reported":1771366742,"current_range_meters":39200,"station_id":"ce4bhgh2rcd13ifvqfb0","pricing_plan_id":"cebpf4jnsgd1na2vs0mg"},{"bike_id":"c6b89208-df95-4016-b6a6-e7860bb27cba","system_id":"levelo_inurba_marseille","lat":43.33552,"lon":5.37466,"is_reserved":false,"is_disabled":false,"rental_uris":{"android":"levelo://app?vid=c6b89208-df95-4016-b6a6-e7860bb27cba","ios":"levelo://app?vid=c6b89208-df95-4016-b6a6-e7860bb27cba"},"vehicle_type_id":"4","last_reported":1771366742,"current_range_meters":27600,"station_id":"st_d46tts09ee8s73dlu43g","pricing_plan_id":"cebpf4jnsgd1na2vs0mg"},{"bike_id":"7f78dc5c-ee96-4a9b-afe5-88fe3c8a6680","system_id":"levelo_inurba_marseille","lat":43.29977,"lon":5.38515,"is_reserved":false,"is_disabled":false,"rental_uris":{"android":"levelo://app?vid=7f78dc5c-ee96-4a9b-afe5-88fe3c8a6680","ios":"levelo://app?vid=7f78dc5c-ee96-4a9b-afe5-88fe3c8a6680"},"vehicle_type_id":"4","last_reported":1771366742,"current_range_meters":17600,"station_id":"ce4bgj92rcd13ifvqbd0","pricing_plan_id":"cebpf4jnsgd1na2vs0mg"},{"bike_id":"55123204-7a7b-4253-8d03-c340b96aa077","system_id":"levelo_inurba_marseille","lat":43.29255,"lon":5.38436,"is_reserved":false,"is_disabled":false,"rental_uris":{"android":"levelo://app?vid=55123204-7a7b-4253-8d03-c340b96aa077","ios":"levelo://app?vid=55123204-7a7b-4253-8d03-c340b96aa077"},"vehicle_type_id":"4","last_reported":1771366742,"current_range_meters":3200,"station_id":"ce4bh692rcd13ifvqea0","pricing_plan_id":"cebpf4jnsgd1na2vs0mg"},{"bike_id":"cba59a9d-c58d-4a67-a69b-b0c3f03357f2","system_id":"levelo_inurba_marseille","lat":43.33125,"lon":5.39271,"is_reserved":false,"is_disabled":false,"rental_uris":{"android":"levelo://app?vid=cba59a9d-c58d-4a67-a69b-b0c3f03357f2","ios":"levelo://app?vid=cba59a9d-c58d-4a67-a69b-b0c3f03357f2"},"vehicle_type_id":"4","last_reported":1771366742,"current_range_meters":19200,"station_id":"","pricing_plan_id":"cebpf4jnsgd1na2vs0mg"},{"bike_id":"0d56c936-b384-4851-bbb5-943b49818f15","system_id":"levelo_inurba_marseille","lat":43.28611,"lon":5.35096,"is_reserved":false,"is_disabled":false,"rental_uris":{"android":"levelo://app?vid=0d56c936-b384-4851-bbb5-943b49818f15","ios":"levelo://app?vid=0d56c936-b384-4851-bbb5-943b49818f15"},"vehicle_type_id":"4","last_reported":1771366742,"current_range_meters":10800,"station_id":"ce4bhch2rcd13ifvqeug","pricing_plan_id":"cebpf4jnsgd1na2vs0mg"},{"bike_id":"37e06210-33d1-49b6-b4b7-edff021bda30","system_id":"levelo_inurba_marseille","lat":43.32099,"lon":5.36795,"is_reserved":false,"is_disabled":false,"rental_uris":{"android":"levelo://app?vid=37e06210-33d1-49b6-b4b7-edff021bda30","ios":"levelo://app?vid=37e06210-33d1-49b6-b4b7-edff021bda30"},"vehicle_type_id":"4","last_reported":1771366742,"current_range_meters":21600,"station_id":"ce4bhrh2rcd13ifvqhug","pricing_plan_id":"cebpf4jnsgd1na2vs0mg"},{"bike_id":"6e31aed5-b016-4873-b3e5-55d6cf695abd","system_id":"levelo_inurba_marseille","lat":43.269456,"lon":5.386514,"is_reserved":false,"is_disabled":false,"rental_uris":{"android":"levelo://app?vid=6e31aed5-b016-4873-b3e5-55d6cf695abd","ios":"levelo://app?vid=6e31aed5-b016-4873-b3e5-55d6cf695abd"},"vehicle_type_id":"4","last_reported":1771366742,"current_range_meters":16000,"station_id":"ce4bhh92rcd13ifvqfh0","pricing_plan_id":"cebpf4jnsgd1na2vs0mg"},{"bike_id":"9cb74265-5de6-40fe-bfec-dbba4c0edacf","system_id":"levelo_inurba_marseille","lat":43.24665,"lon":5.38162,"is_reserved":false,"is_disabled":false,"rental_uris":{"android":"levelo://app?vid=9cb74265-5de6-40fe-bfec-dbba4c0edacf","ios":"levelo://app?vid=9cb74265-5de6-40fe-bfec-dbba4c0edacf"},"vehicle_type_id":"4","last_reported":1771366742,"current_range_meters":12400,"station_id":"ce4bhih2rcd13ifvqfr0","pricing_plan_id":"cebpf4jnsgd1na2vs0mg"},{"bike_id":"ec723023-d52e-4e05-836a-9da1981ac6c3","system_id":"levelo_inurba_marseille","lat":43.28616,"lon":5.35102,"is_reserved":false,"is_disabled":false,"rental_uris":{"android":"levelo://app?vid=ec723023-d52e-4e05-836a-9da1981ac6c3","ios":"levelo://app?vid=ec723023-d52e-4e05-836a-9da1981ac6c3"},"vehicle_type_id":"4","last_reported":1771366742,"current_range_meters":36000,"station_id":"ce4bhch2rcd13ifvqeug","pricing_plan_id":"cebpf4jnsgd1na2vs0mg"},{"bike_id":"69ceabdb-4c8e-4458-8fbc-6cf19f9adad4","system_id":"levelo_inurba_marseille","lat":43.28409,"lon":5.37519,"is_reserved":false,"is_disabled":false,"rental_uris":{"android":"levelo://app?vid=69ceabdb-4c8e-4458-8fbc-6cf19f9adad4","ios":"levelo://app?vid=69ceabdb-4c8e-4458-8fbc-6cf19f9adad4"},"vehicle_type_id":"4","last_reported":1771366742,"current_range_meters":8800,"station_id":"ce4bh412rcd13ifvqds0","pricing_plan_id":"cebpf4jnsgd1na2vs0mg"},{"bike_id":"2a84dada-a119-4dd5-a0a1-9644ad5b9ada","system_id":"levelo_inurba_marseille","lat":43.23969,"lon":5.36631,"is_reserved":false,"is_disabled":false,"rental_uris":{"android":"levelo://app?vid=2a84dada-a119-4dd5-a0a1-9644ad5b9ada","ios":"levelo://app?vid=2a84dada-a119-4dd5-a0a1-9644ad5b9ada"},"vehicle_type_id":"4","last_reported":1771366742,"current_range_meters":2800,"station_id":"ce4bhi12rcd13ifvqfp0","pricing_plan_id":"cebpf4jnsgd1na2vs0mg"},{"bike_id":"979867e6-f531-4279-b2b8-099588a9201e","system_id":"levelo_inurba_marseille","lat":43.25112,"lon":5.39482,"is_reserved":false,"is_disabled":false,"rental_uris":{"android":"levelo://app?vid=979867e6-f531-4279-b2b8-099588a9201e","ios":"levelo://app?vid=979867e6-f531-4279-b2b8-099588a9201e"},"vehicle_type_id":"4","last_reported":1771366742,"current_range_meters":3600,"station_id":"ce4bhm12rcd13ifvqgkg","pricing_plan_id":"cebpf4jnsgd1na2vs0mg"},{"bike_id":"ad6d85d6-789c-4fb5-b702-1313a4cd817f","system_id":"levelo_inurba_marseille","lat":43.33518,"lon":5.37446,"is_reserved":false,"is_disabled":false,"rental_uris":{"android":"levelo://app?vid=ad6d85d6-789c-4fb5-b702-1313a4cd817f","ios":"levelo://app?vid=ad6d85d6-789c-4fb5-b702-1313a4cd817f"},"vehicle_type_id":"4","last_reported":1771366742,"current_range_meters":16800,"station_id":"st_d46tts09ee8s73dlu43g","pricing_plan_id":"cebpf4jnsgd1na2vs0mg"},{"bike_id":"2205f806-2b4e-4d2e-9a52-ff5479da41b9","system_id":"levelo_inurba_marseille","lat":43.22914,"lon":5.35387,"is_reserved":false,"is_disabled":false,"rental_uris":{"android":"levelo://app?vid=2205f806-2b4e-4d2e-9a52-ff5479da41b9","ios":"levelo://app?vid=2205f806-2b4e-4d2e-9a52-ff5479da41b9"},"vehicle_type_id":"4","last_reported":1771366742,"current_range_meters":12400,"station_id":"cpo3532slgdg3j2ikp40","pricing_plan_id":"cebpf4jnsgd1na2vs0mg"},{"bike_id":"4ba95c3b-c026-4c62-8562-d1a9d931cdb5","system_id":"levelo_inurba_marseille","lat":43.25334,"lon":5.42172,"is_reserved":false,"is_disabled":false,"rental_uris":{"android":"levelo://app?vid=4ba95c3b-c026-4c62-8562-d1a9d931cdb5","ios":"levelo://app?vid=4ba95c3b-c026-4c62-8562-d1a9d931cdb5"},"vehicle_type_id":"4","last_reported":1771366742,"current_range_meters":27600,"station_id":"st_d2m65c5bi1j21697t3ng","pricing_plan_id":"cebpf4jnsgd1na2vs0mg"},{"bike_id":"36f301fb-c160-4225-9a43-f57e64075002","system_id":"levelo_inurba_marseille","lat":43.305502,"lon":5.365259,"is_reserved":false,"is_disabled":false,"rental_uris":{"android":"levelo://app?vid=36f301fb-c160-4225-9a43-f57e64075002","ios":"levelo://app?vid=36f301fb-c160-4225-9a43-f57e64075002"},"vehicle_type_id":"4","last_reported":1771366742,"current_range_meters":12000,"station_id":"ce4bgs12rcd13ifvqcag","pricing_plan_id":"cebpf4jnsgd1na2vs0mg"},{"bike_id":"99ec35f0-e147-4ca4-ac89-90348b5d45a6","system_id":"levelo_inurba_marseille","lat":43.2319,"lon":5.35558,"is_reserved":false,"is_disabled":false,"rental_uris":{"android":"levelo://app?vid=99ec35f0-e147-4ca4-ac89-90348b5d45a6","ios":"levelo://app?vid=99ec35f0-e147-4ca4-ac89-90348b5d45a6"},"vehicle_type_id":"4","last_reported":1771366742,"current_range_meters":8000,"station_id":"ce4bhu92rcd13ifvqi70","pricing_plan_id":"cebpf4jnsgd1na2vs0mg"},{"bike_id":"65b4b61c-8832-4a25-9b7e-f85a2aa8b499","system_id":"levelo_inurba_marseille","lat":43.28072,"lon":5.39652,"is_reserved":false,"is_disabled":false,"rental_uris":{"android":"levelo://app?vid=65b4b61c-8832-4a25-9b7e-f85a2aa8b499","ios":"levelo://app?vid=65b4b61c-8832-4a25-9b7e-f85a2aa8b499"},"vehicle_type_id":"4","last_reported":1771366742,"current_range_meters":34000,"station_id":"ce4bho12rcd13ifvqh2g","pricing_plan_id":"cebpf4jnsgd1na2vs0mg"},{"bike_id":"3b4af1bd-7155-46cc-bbe4-71c75df76dd2","system_id":"levelo_inurba_marseille","lat":43.25736,"lon":5.41098,"is_reserved":false,"is_disabled":false,"rental_uris":{"android":"levelo://app?vid=3b4af1bd-7155-46cc-bbe4-71c75df76dd2","ios":"levelo://app?vid=3b4af1bd-7155-46cc-bbe4-71c75df76dd2"},"vehicle_type_id":"4","last_reported":1771366742,"current_range_meters":29600,"station_id":"ce4bhkp2rcd13ifvqgd0","pricing_plan_id":"cebpf4jnsgd1na2vs0mg"},{"bike_id":"46f832db-6db1-4193-9443-e88fffb4a52a","system_id":"levelo_inurba_marseille","lat":43.30919,"lon":5.40145,"is_reserved":false,"is_disabled":false,"rental_uris":{"android":"levelo://app?vid=46f832db-6db1-4193-9443-e88fffb4a52a","ios":"levelo://app?vid=46f832db-6db1-4193-9443-e88fffb4a52a"},"vehicle_type_id":"4","last_reported":1771366742,"current_range_meters":26800,"station_id":"ce4bgvp2rcd13ifvqct0","pricing_plan_id":"cebpf4jnsgd1na2vs0mg"},{"bike_id":"4eab0a12-2f3c-439d-a674-9e7f25cace4a","system_id":"levelo_inurba_marseille","lat":43.3128,"lon":5.40173,"is_reserved":false,"is_disabled":false,"rental_uris":{"android":"levelo://app?vid=4eab0a12-2f3c-439d-a674-9e7f25cace4a","ios":"levelo://app?vid=4eab0a12-2f3c-439d-a674-9e7f25cace4a"},"vehicle_type_id":"4","last_reported":1771366742,"current_range_meters":6000,"station_id":"ce4bh092rcd13ifvqd30","pricing_plan_id":"cebpf4jnsgd1na2vs0mg"},{"bike_id":"cff4a59b-4a5f-4b9f-813d-63f325141d2d","system_id":"levelo_inurba_marseille","lat":43.24941,"lon":5.40499,"is_reserved":false,"is_disabled":false,"rental_uris":{"android":"levelo://app?vid=cff4a59b-4a5f-4b9f-813d-63f325141d2d","ios":"levelo://app?vid=cff4a59b-4a5f-4b9f-813d-63f325141d2d"},"vehicle_type_id":"4","last_reported":1771366742,"current_range_meters":27600,"station_id":"st_d2ngiaodas8pm72gd1h0","pricing_plan_id":"cebpf4jnsgd1na2vs0mg"},{"bike_id":"d800483e-e4b5-4dba-b8af-f5caf11048b6","system_id":"levelo_inurba_marseille","lat":43.29803,"lon":5.44071,"is_reserved":false,"is_disabled":false,"rental_uris":{"android":"levelo://app?vid=d800483e-e4b5-4dba-b8af-f5caf11048b6","ios":"levelo://app?vid=d800483e-e4b5-4dba-b8af-f5caf11048b6"},"vehicle_type_id":"4","last_reported":1771366742,"current_range_meters":26000,"station_id":"st_d3jp68qikq2c7381ktn0","pricing_plan_id":"cebpf4jnsgd1na2vs0mg"},{"bike_id":"810b45c1-5945-4742-896a-5d291fa10e02","system_id":"levelo_inurba_marseille","lat":43.2927,"lon":5.38418,"is_reserved":false,"is_disabled":false,"rental_uris":{"android":"levelo://app?vid=810b45c1-5945-4742-896a-5d291fa10e02","ios":"levelo://app?vid=810b45c1-5945-4742-896a-5d291fa10e02"},"vehicle_type_id":"4","last_reported":1771366742,"current_range_meters":17600,"station_id":"ce4bh692rcd13ifvqea0","pricing_plan_id":"cebpf4jnsgd1na2vs0mg"},{"bike_id":"c18896dc-dcd6-4005-80ac-fa6ffb39ee8f","system_id":"levelo_inurba_marseille","lat":43.27076,"lon":5.40259,"is_reserved":false,"is_disabled":true,"rental_uris":{"android":"levelo://app?vid=c18896dc-dcd6-4005-80ac-fa6ffb39ee8f","ios":"levelo://app?vid=c18896dc-dcd6-4005-80ac-fa6ffb39ee8f"},"vehicle_type_id":"4","last_reported":1771366742,"current_range_meters":32400,"station_id":"ce4bhk92rcd13ifvqgc0","pricing_plan_id":"cebpf4jnsgd1na2vs0mg"},{"bike_id":"073b8035-ddf9-467b-948b-8f8e9e2c0088","system_id":"levelo_inurba_marseille","lat":43.29444,"lon":5.3976,"is_reserved":false,"is_disabled":false,"rental_uris":{"android":"levelo://app?vid=073b8035-ddf9-467b-948b-8f8e9e2c0088","ios":"levelo://app?vid=073b8035-ddf9-467b-948b-8f8e9e2c0088"},"vehicle_type_id":"4","last_reported":1771366742,"current_range_meters":30400,"station_id":"ce4bh3h2rcd13ifvqdo0","pricing_plan_id":"cebpf4jnsgd1na2vs0mg"},{"bike_id":"bd7ab447-da9f-4a0e-a8cf-f8397aa89d64","system_id":"levelo_inurba_marseille","lat":43.29541,"lon":5.37488,"is_reserved":false,"is_disabled":false,"rental_uris":{"android":"levelo://app?vid=bd7ab447-da9f-4a0e-a8cf-f8397aa89d64","ios":"levelo://app?vid=bd7ab447-da9f-4a0e-a8cf-f8397aa89d64"},"vehicle_type_id":"4","last_reported":1771366742,"current_range_meters":23200,"station_id":"ce4bgkp2rcd13ifvqbmg","pricing_plan_id":"cebpf4jnsgd1na2vs0mg"},{"bike_id":"15e1fc28-99d6-43c7-9f32-04379b96a74d","system_id":"levelo_inurba_marseille","lat":43.30126,"lon":5.38781,"is_reserved":false,"is_disabled":false,"rental_uris":{"android":"levelo://app?vid=15e1fc28-99d6-43c7-9f32-04379b96a74d","ios":"levelo://app?vid=15e1fc28-99d6-43c7-9f32-04379b96a74d"},"vehicle_type_id":"4","last_reported":1771366742,"current_range_meters":40000,"station_id":"ce4bghh2rcd13ifvqb60","pricing_plan_id":"cebpf4jnsgd1na2vs0mg"},{"bike_id":"5dc940fd-b94c-4fda-8ec0-cf4b3e72d965","system_id":"levelo_inurba_marseille","lat":43.26309,"lon":5.40368,"is_reserved":false,"is_disabled":false,"rental_uris":{"android":"levelo://app?vid=5dc940fd-b94c-4fda-8ec0-cf4b3e72d965","ios":"levelo://app?vid=5dc940fd-b94c-4fda-8ec0-cf4b3e72d965"},"vehicle_type_id":"4","last_reported":1771366742,"current_range_meters":38400,"station_id":"","pricing_plan_id":"cebpf4jnsgd1na2vs0mg"},{"bike_id":"fafd63cc-2841-4f45-9878-ea3ea32210ac","system_id":"levelo_inurba_marseille","lat":43.29584,"lon":5.43903,"is_reserved":false,"is_disabled":false,"rental_uris":{"android":"levelo://app?vid=fafd63cc-2841-4f45-9878-ea3ea32210ac","ios":"levelo://app?vid=fafd63cc-2841-4f45-9878-ea3ea32210ac"},"vehicle_type_id":"4","last_reported":1771366742,"current_range_meters":20800,"station_id":"","pricing_plan_id":"cebpf4jnsgd1na2vs0mg"},{"bike_id":"94be7206-4019-4e13-8173-32e2b499366b","system_id":"levelo_inurba_marseille","lat":43.27999,"lon":5.41663,"is_reserved":false,"is_disabled":false,"rental_uris":{"android":"levelo://app?vid=94be7206-4019-4e13-8173-32e2b499366b","ios":"levelo://app?vid=94be7206-4019-4e13-8173-32e2b499366b"},"vehicle_type_id":"4","last_reported":1771366742,"current_range_meters":10800,"station_id":"ce4bho12rcd13ifvqh1g","pricing_plan_id":"cebpf4jnsgd1na2vs0mg"},{"bike_id":"b7d6fab8-8b76-4e16-bb64-3d9edbacae63","system_id":"levelo_inurba_marseille","lat":43.2898,"lon":5.37834,"is_reserved":false,"is_disabled":false,"rental_uris":{"android":"levelo://app?vid=b7d6fab8-8b76-4e16-bb64-3d9edbacae63","ios":"levelo://app?vid=b7d6fab8-8b76-4e16-bb64-3d9edbacae63"},"vehicle_type_id":"4","last_reported":1771366742,"current_range_meters":16400,"station_id":"ce4bh9p2rcd13ifvqed0","pricing_plan_id":"cebpf4jnsgd1na2vs0mg"},{"bike_id":"5fe0ea20-36a5-4e78-a8d5-548aefdf5520","system_id":"levelo_inurba_marseille","lat":43.30198,"lon":5.36605,"is_reserved":false,"is_disabled":false,"rental_uris":{"android":"levelo://app?vid=5fe0ea20-36a5-4e78-a8d5-548aefdf5520","ios":"levelo://app?vid=5fe0ea20-36a5-4e78-a8d5-548aefdf5520"},"vehicle_type_id":"4","last_reported":1771366742,"current_range_meters":28000,"station_id":"ce4bgrh2rcd13ifvqc8g","pricing_plan_id":"cebpf4jnsgd1na2vs0mg"},{"bike_id":"b1580f69-98fe-42f7-934f-0f45b1bf4003","system_id":"levelo_inurba_marseille","lat":43.27927,"lon":5.38712,"is_reserved":false,"is_disabled":false,"rental_uris":{"android":"levelo://app?vid=b1580f69-98fe-42f7-934f-0f45b1bf4003","ios":"levelo://app?vid=b1580f69-98fe-42f7-934f-0f45b1bf4003"},"vehicle_type_id":"4","last_reported":1771366742,"current_range_meters":10800,"station_id":"ce4bhg12rcd13ifvqf80","pricing_plan_id":"cebpf4jnsgd1na2vs0mg"},{"bike_id":"091c26ef-a67a-48f4-8694-33aea309e055","system_id":"levelo_inurba_marseille","lat":43.25736,"lon":5.41128,"is_reserved":false,"is_disabled":false,"rental_uris":{"android":"levelo://app?vid=091c26ef-a67a-48f4-8694-33aea309e055","ios":"levelo://app?vid=091c26ef-a67a-48f4-8694-33aea309e055"},"vehicle_type_id":"4","last_reported":1771366742,"current_range_meters":36800,"station_id":"ce4bhkp2rcd13ifvqgd0","pricing_plan_id":"cebpf4jnsgd1na2vs0mg"},{"bike_id":"a6a81681-4b6a-4b37-a5f2-d092bfb159e0","system_id":"levelo_inurba_marseille","lat":43.26058,"lon":5.39389,"is_reserved":false,"is_disabled":false,"rental_uris":{"android":"levelo://app?vid=a6a81681-4b6a-4b37-a5f2-d092bfb159e0","ios":"levelo://app?vid=a6a81681-4b6a-4b37-a5f2-d092bfb159e0"},"vehicle_type_id":"4","last_reported":1771366742,"current_range_meters":37600,"station_id":"ce4bhh92rcd13ifvqfj0","pricing_plan_id":"cebpf4jnsgd1na2vs0mg"},{"bike_id":"a422cbe2-1485-4885-a94e-b526b365eac4","system_id":"levelo_inurba_marseille","lat":43.27975,"lon":5.38731,"is_reserved":false,"is_disabled":true,"rental_uris":{"android":"levelo://app?vid=a422cbe2-1485-4885-a94e-b526b365eac4","ios":"levelo://app?vid=a422cbe2-1485-4885-a94e-b526b365eac4"},"vehicle_type_id":"4","last_reported":1771366742,"current_range_meters":18000,"station_id":"ce4bhg12rcd13ifvqf80","pricing_plan_id":"cebpf4jnsgd1na2vs0mg"},{"bike_id":"d0addae8-3758-4956-867d-9e2fdb78dcfb","system_id":"levelo_inurba_marseille","lat":43.24643,"lon":5.38885,"is_reserved":false,"is_disabled":false,"rental_uris":{"android":"levelo://app?vid=d0addae8-3758-4956-867d-9e2fdb78dcfb","ios":"levelo://app?vid=d0addae8-3758-4956-867d-9e2fdb78dcfb"},"vehicle_type_id":"4","last_reported":1771366742,"current_range_meters":17600,"station_id":"ce4bhg12rcd13ifvqf60","pricing_plan_id":"cebpf4jnsgd1na2vs0mg"},{"bike_id":"d5de7bd4-eba0-4aa4-9d8e-a352a4b87ba2","system_id":"levelo_inurba_marseille","lat":43.29521,"lon":5.3785,"is_reserved":false,"is_disabled":false,"rental_uris":{"android":"levelo://app?vid=d5de7bd4-eba0-4aa4-9d8e-a352a4b87ba2","ios":"levelo://app?vid=d5de7bd4-eba0-4aa4-9d8e-a352a4b87ba2"},"vehicle_type_id":"4","last_reported":1771366742,"current_range_meters":34000,"station_id":"","pricing_plan_id":"cebpf4jnsgd1na2vs0mg"},{"bike_id":"75d7ae73-fb00-4d37-81ab-7e01ef083d2d","system_id":"levelo_inurba_marseille","lat":43.25353,"lon":5.42166,"is_reserved":false,"is_disabled":false,"rental_uris":{"android":"levelo://app?vid=75d7ae73-fb00-4d37-81ab-7e01ef083d2d","ios":"levelo://app?vid=75d7ae73-fb00-4d37-81ab-7e01ef083d2d"},"vehicle_type_id":"4","last_reported":1771366742,"current_range_meters":8400,"station_id":"st_d2m65c5bi1j21697t3ng","pricing_plan_id":"cebpf4jnsgd1na2vs0mg"},{"bike_id":"e9be80b4-7a2c-4bb2-8baa-f182f64dba9a","system_id":"levelo_inurba_marseille","lat":43.298775,"lon":5.397313,"is_reserved":false,"is_disabled":false,"rental_uris":{"android":"levelo://app?vid=e9be80b4-7a2c-4bb2-8baa-f182f64dba9a","ios":"levelo://app?vid=e9be80b4-7a2c-4bb2-8baa-f182f64dba9a"},"vehicle_type_id":"4","last_reported":1771366742,"current_range_meters":10000,"station_id":"ce4bh0h2rcd13ifvqd50","pricing_plan_id":"cebpf4jnsgd1na2vs0mg"},{"bike_id":"ac064fc2-6573-4a40-910b-f16cb9a30d31","system_id":"levelo_inurba_marseille","lat":43.29542,"lon":5.38526,"is_reserved":false,"is_disabled":false,"rental_uris":{"android":"levelo://app?vid=ac064fc2-6573-4a40-910b-f16cb9a30d31","ios":"levelo://app?vid=ac064fc2-6573-4a40-910b-f16cb9a30d31"},"vehicle_type_id":"4","last_reported":1771366742,"current_range_meters":38000,"station_id":"ce4bgih2rcd13ifvqba0","pricing_plan_id":"cebpf4jnsgd1na2vs0mg"},{"bike_id":"52822dfb-05a3-4831-b448-ea2d23feb569","system_id":"levelo_inurba_marseille","lat":43.295389,"lon":5.385412,"is_reserved":false,"is_disabled":false,"rental_uris":{"android":"levelo://app?vid=52822dfb-05a3-4831-b448-ea2d23feb569","ios":"levelo://app?vid=52822dfb-05a3-4831-b448-ea2d23feb569"},"vehicle_type_id":"4","last_reported":1771366742,"current_range_meters":14000,"station_id":"ce4bgih2rcd13ifvqba0","pricing_plan_id":"cebpf4jnsgd1na2vs0mg"},{"bike_id":"740f8f2e-710e-4b2e-8ba1-0f60d50869bd","system_id":"levelo_inurba_marseille","lat":43.287301,"lon":5.360848,"is_reserved":false,"is_disabled":false,"rental_uris":{"android":"levelo://app?vid=740f8f2e-710e-4b2e-8ba1-0f60d50869bd","ios":"levelo://app?vid=740f8f2e-710e-4b2e-8ba1-0f60d50869bd"},"vehicle_type_id":"4","last_reported":1771366742,"current_range_meters":17600,"station_id":"cki0cbj6b192h4jlfktg","pricing_plan_id":"cebpf4jnsgd1na2vs0mg"},{"bike_id":"e9749b0e-def4-4ccd-a6ad-31e91d22746a","system_id":"levelo_inurba_marseille","lat":43.26215,"lon":5.40452,"is_reserved":false,"is_disabled":false,"rental_uris":{"android":"levelo://app?vid=e9749b0e-def4-4ccd-a6ad-31e91d22746a","ios":"levelo://app?vid=e9749b0e-def4-4ccd-a6ad-31e91d22746a"},"vehicle_type_id":"4","last_reported":1771366742,"current_range_meters":29600,"station_id":"ce4bhmh2rcd13ifvqgmg","pricing_plan_id":"cebpf4jnsgd1na2vs0mg"},{"bike_id":"62e692db-f7dc-4aa5-abd5-05a186ddbe25","system_id":"levelo_inurba_marseille","lat":43.29168,"lon":5.37141,"is_reserved":false,"is_disabled":false,"rental_uris":{"android":"levelo://app?vid=62e692db-f7dc-4aa5-abd5-05a186ddbe25","ios":"levelo://app?vid=62e692db-f7dc-4aa5-abd5-05a186ddbe25"},"vehicle_type_id":"4","last_reported":1771366742,"current_range_meters":26000,"station_id":"ce4bha92rcd13ifvqeh0","pricing_plan_id":"cebpf4jnsgd1na2vs0mg"},{"bike_id":"c62c8bb8-5105-49ac-b6a0-75ac314fbf1f","system_id":"levelo_inurba_marseille","lat":43.29822,"lon":5.44056,"is_reserved":false,"is_disabled":false,"rental_uris":{"android":"levelo://app?vid=c62c8bb8-5105-49ac-b6a0-75ac314fbf1f","ios":"levelo://app?vid=c62c8bb8-5105-49ac-b6a0-75ac314fbf1f"},"vehicle_type_id":"4","last_reported":1771366742,"current_range_meters":8000,"station_id":"st_d3jp68qikq2c7381ktn0","pricing_plan_id":"cebpf4jnsgd1na2vs0mg"},{"bike_id":"b7da893d-92af-47ba-b9b1-7cadcb22e395","system_id":"levelo_inurba_marseille","lat":43.29931,"lon":5.36533,"is_reserved":false,"is_disabled":false,"rental_uris":{"android":"levelo://app?vid=b7da893d-92af-47ba-b9b1-7cadcb22e395","ios":"levelo://app?vid=b7da893d-92af-47ba-b9b1-7cadcb22e395"},"vehicle_type_id":"4","last_reported":1771366742,"current_range_meters":36400,"station_id":"ce4bgm92rcd13ifvqbr0","pricing_plan_id":"cebpf4jnsgd1na2vs0mg"},{"bike_id":"7f8ec848-8645-4d0d-a741-bb2ba6ea7af2","system_id":"levelo_inurba_marseille","lat":43.25347,"lon":5.42179,"is_reserved":false,"is_disabled":false,"rental_uris":{"android":"levelo://app?vid=7f8ec848-8645-4d0d-a741-bb2ba6ea7af2","ios":"levelo://app?vid=7f8ec848-8645-4d0d-a741-bb2ba6ea7af2"},"vehicle_type_id":"4","last_reported":1771366742,"current_range_meters":6400,"station_id":"st_d2m65c5bi1j21697t3ng","pricing_plan_id":"cebpf4jnsgd1na2vs0mg"},{"bike_id":"740b48f3-2d6b-4972-b072-d161ac54aa4d","system_id":"levelo_inurba_marseille","lat":43.28832,"lon":5.3585,"is_reserved":false,"is_disabled":false,"rental_uris":{"android":"levelo://app?vid=740b48f3-2d6b-4972-b072-d161ac54aa4d","ios":"levelo://app?vid=740b48f3-2d6b-4972-b072-d161ac54aa4d"},"vehicle_type_id":"4","last_reported":1771366742,"current_range_meters":38800,"station_id":"ce4bhb12rcd13ifvqem0","pricing_plan_id":"cebpf4jnsgd1na2vs0mg"},{"bike_id":"38c30afd-bece-416e-933d-1a2e080dab16","system_id":"levelo_inurba_marseille","lat":43.23185,"lon":5.35563,"is_reserved":false,"is_disabled":false,"rental_uris":{"android":"levelo://app?vid=38c30afd-bece-416e-933d-1a2e080dab16","ios":"levelo://app?vid=38c30afd-bece-416e-933d-1a2e080dab16"},"vehicle_type_id":"4","last_reported":1771366742,"current_range_meters":22400,"station_id":"ce4bhu92rcd13ifvqi70","pricing_plan_id":"cebpf4jnsgd1na2vs0mg"},{"bike_id":"3f6e6d5b-9c66-4d26-b0b8-f270d679b2a6","system_id":"levelo_inurba_marseille","lat":43.284789,"lon":5.483927,"is_reserved":false,"is_disabled":false,"rental_uris":{"android":"levelo://app?vid=3f6e6d5b-9c66-4d26-b0b8-f270d679b2a6","ios":"levelo://app?vid=3f6e6d5b-9c66-4d26-b0b8-f270d679b2a6"},"vehicle_type_id":"4","last_reported":1771366742,"current_range_meters":8000,"station_id":"st_d3svhcjqgbts73a3dn0g","pricing_plan_id":"cebpf4jnsgd1na2vs0mg"},{"bike_id":"2f122ab6-c090-49e8-8eec-fa28bed93c24","system_id":"levelo_inurba_marseille","lat":43.24387,"lon":5.37055,"is_reserved":false,"is_disabled":false,"rental_uris":{"android":"levelo://app?vid=2f122ab6-c090-49e8-8eec-fa28bed93c24","ios":"levelo://app?vid=2f122ab6-c090-49e8-8eec-fa28bed93c24"},"vehicle_type_id":"4","last_reported":1771366742,"current_range_meters":27200,"station_id":"ce4bhhh2rcd13ifvqfk0","pricing_plan_id":"cebpf4jnsgd1na2vs0mg"},{"bike_id":"6204de4e-c2ca-41d8-8d5f-db2ef75c6e2c","system_id":"levelo_inurba_marseille","lat":43.30441,"lon":5.38865,"is_reserved":false,"is_disabled":false,"rental_uris":{"android":"levelo://app?vid=6204de4e-c2ca-41d8-8d5f-db2ef75c6e2c","ios":"levelo://app?vid=6204de4e-c2ca-41d8-8d5f-db2ef75c6e2c"},"vehicle_type_id":"4","last_reported":1771366742,"current_range_meters":10000,"station_id":"ce4bgk12rcd13ifvqbi0","pricing_plan_id":"cebpf4jnsgd1na2vs0mg"},{"bike_id":"766d9f18-d35e-4a5e-9734-d80789a6bbb1","system_id":"levelo_inurba_marseille","lat":43.28555,"lon":5.39515,"is_reserved":false,"is_disabled":false,"rental_uris":{"android":"levelo://app?vid=766d9f18-d35e-4a5e-9734-d80789a6bbb1","ios":"levelo://app?vid=766d9f18-d35e-4a5e-9734-d80789a6bbb1"},"vehicle_type_id":"4","last_reported":1771366742,"current_range_meters":40000,"station_id":"ce4bh292rcd13ifvqdg0","pricing_plan_id":"cebpf4jnsgd1na2vs0mg"},{"bike_id":"8afbe5f1-e31f-497c-82ed-db86cdcdec29","system_id":"levelo_inurba_marseille","lat":43.33764,"lon":5.3744,"is_reserved":false,"is_disabled":false,"rental_uris":{"android":"levelo://app?vid=8afbe5f1-e31f-497c-82ed-db86cdcdec29","ios":"levelo://app?vid=8afbe5f1-e31f-497c-82ed-db86cdcdec29"},"vehicle_type_id":"4","last_reported":1771366742,"current_range_meters":23200,"station_id":"","pricing_plan_id":"cebpf4jnsgd1na2vs0mg"},{"bike_id":"1b60499d-1ad5-4151-a6be-cac165979eda","system_id":"levelo_inurba_marseille","lat":43.29888,"lon":5.3974,"is_reserved":false,"is_disabled":false,"rental_uris":{"android":"levelo://app?vid=1b60499d-1ad5-4151-a6be-cac165979eda","ios":"levelo://app?vid=1b60499d-1ad5-4151-a6be-cac165979eda"},"vehicle_type_id":"4","last_reported":1771366742,"current_range_meters":39200,"station_id":"ce4bh0h2rcd13ifvqd50","pricing_plan_id":"cebpf4jnsgd1na2vs0mg"},{"bike_id":"bf763d5f-3925-4930-9d6b-2b57c49f4d4c","system_id":"levelo_inurba_marseille","lat":43.231841,"lon":5.437036,"is_reserved":false,"is_disabled":true,"rental_uris":{"android":"levelo://app?vid=bf763d5f-3925-4930-9d6b-2b57c49f4d4c","ios":"levelo://app?vid=bf763d5f-3925-4930-9d6b-2b57c49f4d4c"},"vehicle_type_id":"4","last_reported":1771366742,"current_range_meters":39200,"station_id":"ce4bhmp2rcd13ifvqgog","pricing_plan_id":"cebpf4jnsgd1na2vs0mg"},{"bike_id":"32964fb5-6dca-474a-8574-fca984f5340f","system_id":"levelo_inurba_marseille","lat":43.24087,"lon":5.37741,"is_reserved":false,"is_disabled":false,"rental_uris":{"android":"levelo://app?vid=32964fb5-6dca-474a-8574-fca984f5340f","ios":"levelo://app?vid=32964fb5-6dca-474a-8574-fca984f5340f"},"vehicle_type_id":"4","last_reported":1771366742,"current_range_meters":38000,"station_id":"ce4bhnp2rcd13ifvqgvg","pricing_plan_id":"cebpf4jnsgd1na2vs0mg"},{"bike_id":"cf657348-7d1b-4093-a144-9f75124506c9","system_id":"levelo_inurba_marseille","lat":43.28852,"lon":5.35844,"is_reserved":false,"is_disabled":false,"rental_uris":{"android":"levelo://app?vid=cf657348-7d1b-4093-a144-9f75124506c9","ios":"levelo://app?vid=cf657348-7d1b-4093-a144-9f75124506c9"},"vehicle_type_id":"4","last_reported":1771366742,"current_range_meters":21600,"station_id":"ce4bhb12rcd13ifvqem0","pricing_plan_id":"cebpf4jnsgd1na2vs0mg"},{"bike_id":"283791dc-d214-48e3-8f4f-83169ba6e613","system_id":"levelo_inurba_marseille","lat":43.30147,"lon":5.3988,"is_reserved":false,"is_disabled":false,"rental_uris":{"android":"levelo://app?vid=283791dc-d214-48e3-8f4f-83169ba6e613","ios":"levelo://app?vid=283791dc-d214-48e3-8f4f-83169ba6e613"},"vehicle_type_id":"4","last_reported":1771366742,"current_range_meters":27600,"station_id":"ce4bh0h2rcd13ifvqd40","pricing_plan_id":"cebpf4jnsgd1na2vs0mg"},{"bike_id":"2328bb42-38da-434f-9da6-21140eda5f58","system_id":"levelo_inurba_marseille","lat":43.29024,"lon":5.38649,"is_reserved":false,"is_disabled":false,"rental_uris":{"android":"levelo://app?vid=2328bb42-38da-434f-9da6-21140eda5f58","ios":"levelo://app?vid=2328bb42-38da-434f-9da6-21140eda5f58"},"vehicle_type_id":"4","last_reported":1771366742,"current_range_meters":39200,"station_id":"ce4bh4p2rcd13ifvqe0g","pricing_plan_id":"cebpf4jnsgd1na2vs0mg"},{"bike_id":"1dd48f8f-cb6b-4d62-b8e8-350c6ef9d882","system_id":"levelo_inurba_marseille","lat":43.28038,"lon":5.36939,"is_reserved":false,"is_disabled":false,"rental_uris":{"android":"levelo://app?vid=1dd48f8f-cb6b-4d62-b8e8-350c6ef9d882","ios":"levelo://app?vid=1dd48f8f-cb6b-4d62-b8e8-350c6ef9d882"},"vehicle_type_id":"4","last_reported":1771366742,"current_range_meters":14000,"station_id":"ce4bha12rcd13ifvqef0","pricing_plan_id":"cebpf4jnsgd1na2vs0mg"},{"bike_id":"3ee955de-ebfc-4597-9214-e3fb8357ac34","system_id":"levelo_inurba_marseille","lat":43.28991,"lon":5.35613,"is_reserved":false,"is_disabled":false,"rental_uris":{"android":"levelo://app?vid=3ee955de-ebfc-4597-9214-e3fb8357ac34","ios":"levelo://app?vid=3ee955de-ebfc-4597-9214-e3fb8357ac34"},"vehicle_type_id":"4","last_reported":1771366742,"current_range_meters":27200,"station_id":"ce4bhb92rcd13ifvqen0","pricing_plan_id":"cebpf4jnsgd1na2vs0mg"},{"bike_id":"545dc8fc-3d05-4488-8a11-59bac457030f","system_id":"levelo_inurba_marseille","lat":43.29604,"lon":5.38101,"is_reserved":false,"is_disabled":false,"rental_uris":{"android":"levelo://app?vid=545dc8fc-3d05-4488-8a11-59bac457030f","ios":"levelo://app?vid=545dc8fc-3d05-4488-8a11-59bac457030f"},"vehicle_type_id":"4","last_reported":1771366742,"current_range_meters":26000,"station_id":"ce4bgl12rcd13ifvqbo0","pricing_plan_id":"cebpf4jnsgd1na2vs0mg"},{"bike_id":"4c414910-202a-4e84-8e4b-c0f0a3714b59","system_id":"levelo_inurba_marseille","lat":43.2952,"lon":5.38554,"is_reserved":false,"is_disabled":false,"rental_uris":{"android":"levelo://app?vid=4c414910-202a-4e84-8e4b-c0f0a3714b59","ios":"levelo://app?vid=4c414910-202a-4e84-8e4b-c0f0a3714b59"},"vehicle_type_id":"4","last_reported":1771366742,"current_range_meters":22800,"station_id":"ce4bgih2rcd13ifvqba0","pricing_plan_id":"cebpf4jnsgd1na2vs0mg"},{"bike_id":"8aaaaffc-4fd7-41b9-b4d1-8ec182d0d63d","system_id":"levelo_inurba_marseille","lat":43.31709,"lon":5.43732,"is_reserved":false,"is_disabled":false,"rental_uris":{"android":"levelo://app?vid=8aaaaffc-4fd7-41b9-b4d1-8ec182d0d63d","ios":"levelo://app?vid=8aaaaffc-4fd7-41b9-b4d1-8ec182d0d63d"},"vehicle_type_id":"4","last_reported":1771366742,"current_range_meters":26000,"station_id":"ce4bhp92rcd13ifvqhcg","pricing_plan_id":"cebpf4jnsgd1na2vs0mg"},{"bike_id":"6e9dbbc0-aa6c-4868-b06c-e7eaa68c09c7","system_id":"levelo_inurba_marseille","lat":43.24549,"lon":5.39546,"is_reserved":false,"is_disabled":false,"rental_uris":{"android":"levelo://app?vid=6e9dbbc0-aa6c-4868-b06c-e7eaa68c09c7","ios":"levelo://app?vid=6e9dbbc0-aa6c-4868-b06c-e7eaa68c09c7"},"vehicle_type_id":"4","last_reported":1771366742,"current_range_meters":32800,"station_id":"ce4bhlp2rcd13ifvqgjg","pricing_plan_id":"cebpf4jnsgd1na2vs0mg"},{"bike_id":"21a18c0d-55fa-4b63-ada7-1905ba4ecfca","system_id":"levelo_inurba_marseille","lat":43.29851,"lon":5.39763,"is_reserved":false,"is_disabled":false,"rental_uris":{"android":"levelo://app?vid=21a18c0d-55fa-4b63-ada7-1905ba4ecfca","ios":"levelo://app?vid=21a18c0d-55fa-4b63-ada7-1905ba4ecfca"},