{"last_updated":1736950066,"ttl":60,"version":"2.2","data":{"bikes":[{"bike_id":"49800851-ba94-41f0-9710-42a97a90cd5c","system_id":"levelo_inurba_marseille","lat":43.29042,"lon":5.39965,"is_reserved":false,"is_disabled":false,"rental_uris":{"android":"levelo://app?vid=49800851-ba94-41f0-9710-42a97a90cd5c","ios":"levelo://app?vid=49800851-ba94-41f0-9710-42a97a90cd5c"},"vehicle_type_id":"4","last_reported":1736950066,"current_range_meters":24000,"station_id":"ce4bh392rcd13ifvqdm0","pricing_plan_id":"cebpf4jnsgd1na2vs0mg"},{"bike_id":"8950994e-141b-4c16-ae82-ef1e6827f7d4","system_id":"levelo_inurba_marseille","lat":43.27872,"lon":5.407,"is_reserved":false,"is_disabled":false,"rental_uris":{"android":"levelo://app?vid=8950994e-141b-4c16-ae82-ef1e6827f7d4","ios":"levelo://app?vid=8950994e-141b-4c16-ae82-ef1e6827f7d4"},"vehicle_type_id":"4","last_reported":1736950066,"current_range_meters":5600,"station_id":"","pricing_plan_id":"cebpf4jnsgd1na2vs0mg"},{"bike_id":"4805b49a-5a71-4c02-bacb-6ab8793208f4","system_id":"levelo_inurba_marseille","lat":43.29275,"lon":5.36847,"is_reserved":false,"is_disabled":false,"rental_uris":{"android":"levelo://app?vid=4805b49a-5a71-4c02-bacb-6ab8793208f4","ios":"levelo://app?vid=4805b49a-5a71-4c02-bacb-6ab8793208f4"},"vehicle_type_id":"4","last_reported":1736950066,"current_range_meters":12400,"station_id":"ce4bhbp2rcd13ifvqesg","pricing_plan_id":"cebpf4jnsgd1na2vs0mg"},{"bike_id":"9a6b4e17-666c-448f-bef4-cde79c4dfef8","system_id":"levelo_inurba_marseille","lat":43.31115,"lon":5.37767,"is_reserved":false,"is_disabled":false,"rental_uris":{"android":"levelo://app?vid=9a6b4e17-666c-448f-bef4-cde79c4dfef8","ios":"levelo://app?vid=9a6b4e17-666c-448f-bef4-cde79c4dfef8"},"vehicle_type_id":"4","last_reported":1736950066,"current_range_meters":34800,"station_id":"ce4bgt92rcd13ifvqcg0","pricing_plan_id":"cebpf4jnsgd1na2vs0mg"},{"bike_id":"46cd3a02-8b2f-4b2e-a52d-372b2e1329e8","system_id":"levelo_inurba_marseille","lat":43.29026,"lon":5.35909,"is_reserved":false,"is_disabled":false,"rental_uris":{"android":"levelo://app?vid=46cd3a02-8b2f-4b2e-a52d-372b2e1329e8","ios":"levelo://app?vid=46cd3a02-8b2f-4b2e-a52d-372b2e1329e8"},"vehicle_type_id":"4","last_reported":1736950066,"current_range_meters":30800,"station_id":"ce4bha92rcd13ifvqeg0","pricing_plan_id":"cebpf4jnsgd1na2vs0mg"},{"bike_id":"c33d2a95-3706-4d2b-9d34-a71ba19d7faf","system_id":"levelo_inurba_marseille","lat":43.2511,"lon":5.40322,"is_reserved":false,"is_disabled":true,"rental_uris":{"android":"levelo://app?vid=c33d2a95-3706-4d2b-9d34-a71ba19d7faf","ios":"levelo://app?vid=c33d2a95-3706-4d2b-9d34-a71ba19d7faf"},"vehicle_type_id":"4","last_reported":1736950066,"current_range_meters":0,"station_id":"ce4bhlh2rcd13ifvqgig","pricing_plan_id":"cebpf4jnsgd1na2vs0mg"},{"bike_id":"285748c1-6896-4ae6-8125-72bccce001f9","system_id":"levelo_inurba_marseille","lat":43.31365,"lon":5.38498,"is_reserved":false,"is_disabled":false,"rental_uris":{"android":"levelo://app?vid=285748c1-6896-4ae6-8125-72bccce001f9","ios":"levelo://app?vid=285748c1-6896-4ae6-8125-72bccce001f9"},"vehicle_type_id":"4","last_reported":1736950066,"current_range_meters":9200,"station_id":"ce4bgt92rcd13ifvqcf0","pricing_plan_id":"cebpf4jnsgd1na2vs0mg"},{"bike_id":"910e1867-d7b5-4106-bbaa-4ba87bfa707f","system_id":"levelo_inurba_marseille","lat":43.28452,"lon":5.35888,"is_reserved":false,"is_disabled":false,"rental_uris":{"android":"levelo://app?vid=910e1867-d7b5-4106-bbaa-4ba87bfa707f","ios":"levelo://app?vid=910e1867-d7b5-4106-bbaa-4ba87bfa707f"},"vehicle_type_id":"4","last_reported":1736950066,"current_range_meters":19200,"station_id":"ce4bhah2rcd13ifvqei0","pricing_plan_id":"cebpf4jnsgd1na2vs0mg"},{"bike_id":"5bbdba29-3f63-48a2-9338-63c51c75a5ac","system_id":"levelo_inurba_marseille","lat":43.246502,"lon":5.389006,"is_reserved":false,"is_disabled":true,"rental_uris":{"android":"levelo://app?vid=5bbdba29-3f63-48a2-9338-63c51c75a5ac","ios":"levelo://app?vid=5bbdba29-3f63-48a2-9338-63c51c75a5ac"},"vehicle_type_id":"4","last_reported":1736950066,"current_range_meters":1200,"station_id":"ce4bhg12rcd13ifvqf60","pricing_plan_id":"cebpf4jnsgd1na2vs0mg"},{"bike_id":"09c518dd-7483-48eb-80c0-b0801920799f","system_id":"levelo_inurba_marseille","lat":43.29026,"lon":5.35593,"is_reserved":false,"is_disabled":false,"rental_uris":{"android":"levelo://app?vid=09c518dd-7483-48eb-80c0-b0801920799f","ios":"levelo://app?vid=09c518dd-7483-48eb-80c0-b0801920799f"},"vehicle_type_id":"4","last_reported":1736950066,"current_range_meters":38800,"station_id":"ce4bhb92rcd13ifvqen0","pricing_plan_id":"cebpf4jnsgd1na2vs0mg"},{"bike_id":"5bb5758f-37be-496e-ac0a-3712e6b43125","system_id":"levelo_inurba_marseille","lat":43.26209,"lon":5.37909,"is_reserved":false,"is_disabled":false,"rental_uris":{"android":"levelo://app?vid=5bb5758f-37be-496e-ac0a-3712e6b43125","ios":"levelo://app?vid=5bb5758f-37be-496e-ac0a-3712e6b43125"},"vehicle_type_id":"4","last_reported":1736950066,"current_range_meters":38800,"station_id":"ce4bhjp2rcd13ifvqg90","pricing_plan_id":"cebpf4jnsgd1na2vs0mg"},{"bike_id":"4fa358ca-b741-467a-a03f-b8033021b471","system_id":"levelo_inurba_marseille","lat":43.337571,"lon":5.374567,"is_reserved":false,"is_disabled":false,"rental_uris":{"android":"levelo://app?vid=4fa358ca-b741-467a-a03f-b8033021b471","ios":"levelo://app?vid=4fa358ca-b741-467a-a03f-b8033021b471"},"vehicle_type_id":"4","last_reported":1736950066,"current_range_meters":36800,"station_id":"","pricing_plan_id":"cebpf4jnsgd1na2vs0mg"},{"bike_id":"5db5f749-55d7-4666-b989-2cc4222957b1","system_id":"levelo_inurba_marseille","lat":43.28446,"lon":5.39185,"is_reserved":false,"is_disabled":true,"rental_uris":{"android":"levelo://app?vid=5db5f749-55d7-4666-b989-2cc4222957b1","ios":"levelo://app?vid=5db5f749-55d7-4666-b989-2cc4222957b1"},"vehicle_type_id":"4","last_reported":1736950066,"current_range_meters":24400,"station_id":"ce4bhoh2rcd13ifvqh5g","pricing_plan_id":"cebpf4jnsgd1na2vs0mg"},{"bike_id":"6c72276d-8e89-4c2f-8150-2735b7561b95","system_id":"levelo_inurba_marseille","lat":43.275,"lon":5.42454,"is_reserved":false,"is_disabled":true,"rental_uris":{"android":"levelo://app?vid=6c72276d-8e89-4c2f-8150-2735b7561b95","ios":"levelo://app?vid=6c72276d-8e89-4c2f-8150-2735b7561b95"},"vehicle_type_id":"4","last_reported":1736950066,"current_range_meters":0,"station_id":"ce4bhn92rcd13ifvqgrg","pricing_plan_id":"cebpf4jnsgd1na2vs0mg"},{"bike_id":"12735cc0-5806-4a63-b867-b2c0df2b22b6","system_id":"levelo_inurba_marseille","lat":43.29158,"lon":5.37161,"is_reserved":false,"is_disabled":false,"rental_uris":{"android":"levelo://app?vid=12735cc0-5806-4a63-b867-b2c0df2b22b6","ios":"levelo://app?vid=12735cc0-5806-4a63-b867-b2c0df2b22b6"},"vehicle_type_id":"4","last_reported":1736950066,"current_range_meters":15200,"station_id":"ce4bha92rcd13ifvqeh0","pricing_plan_id":"cebpf4jnsgd1na2vs0mg"},{"bike_id":"04ca7d58-6107-4c23-b020-0d87521c21e5","system_id":"levelo_inurba_marseille","lat":43.29181,"lon":5.35825,"is_reserved":false,"is_disabled":false,"rental_uris":{"android":"levelo://app?vid=04ca7d58-6107-4c23-b020-0d87521c21e5","ios":"levelo://app?vid=04ca7d58-6107-4c23-b020-0d87521c21e5"},"vehicle_type_id":"4","last_reported":1736950066,"current_range_meters":38800,"station_id":"ce4bhb12rcd13ifvqel0","pricing_plan_id":"cebpf4jnsgd1na2vs0mg"},{"bike_id":"6cf1ef65-b448-4034-8c81-a102abe157e0","system_id":"levelo_inurba_marseille","lat":43.29696,"lon":5.37693,"is_reserved":false,"is_disabled":false,"rental_uris":{"android":"levelo://app?vid=6cf1ef65-b448-4034-8c81-a102abe157e0","ios":"levelo://app?vid=6cf1ef65-b448-4034-8c81-a102abe157e0"},"vehicle_type_id":"4","last_reported":1736950066,"current_range_meters":33200,"station_id":"ce4bgkh2rcd13ifvqbl0","pricing_plan_id":"cebpf4jnsgd1na2vs0mg"},{"bike_id":"ccbd796f-0853-4438-83a6-7ee13405bafc","system_id":"levelo_inurba_marseille","lat":43.27818,"lon":5.39206,"is_reserved":false,"is_disabled":true,"rental_uris":{"android":"levelo://app?vid=ccbd796f-0853-4438-83a6-7ee13405bafc","ios":"levelo://app?vid=ccbd796f-0853-4438-83a6-7ee13405bafc"},"vehicle_type_id":"4","last_reported":1736950066,"current_range_meters":800,"station_id":"ce4bhjp2rcd13ifvqga0","pricing_plan_id":"cebpf4jnsgd1na2vs0mg"},{"bike_id":"bc87cc61-2748-41e6-8980-bf1ceca3a82a","system_id":"levelo_inurba_marseille","lat":43.24073,"lon":5.37737,"is_reserved":false,"is_disabled":false,"rental_uris":{"android":"levelo://app?vid=bc87cc61-2748-41e6-8980-bf1ceca3a82a","ios":"levelo://app?vid=bc87cc61-2748-41e6-8980-bf1ceca3a82a"},"vehicle_type_id":"4","last_reported":1736950066,"current_range_meters":37600,"station_id":"ce4bhnp2rcd13ifvqgvg","pricing_plan_id":"cebpf4jnsgd1na2vs0mg"},{"bike_id":"d87ccf1d-04a2-4124-ab20-2a832bc0fcf4","system_id":"levelo_inurba_marseille","lat":43.29689,"lon":5.37715,"is_reserved":false,"is_disabled":false,"rental_uris":{"android":"levelo://app?vid=d87ccf1d-04a2-4124-ab20-2a832bc0fcf4","ios":"levelo://app?vid=d87ccf1d-04a2-4124-ab20-2a832bc0fcf4"},"vehicle_type_id":"4","last_reported":1736950066,"current_range_meters":36800,"station_id":"ce4bgkh2rcd13ifvqbl0","pricing_plan_id":"cebpf4jnsgd1na2vs0mg"},{"bike_id":"9af689e6-20d8-41ca-a4cc-69ce120ab77b","system_id":"levelo_inurba_marseille","lat":43.30892,"lon":5.3962,"is_reserved":false,"is_disabled":false,"rental_uris":{"android":"levelo://app?vid=9af689e6-20d8-41ca-a4cc-69ce120ab77b","ios":"levelo://app?vid=9af689e6-20d8-41ca-a4cc-69ce120ab77b"},"vehicle_type_id":"4","last_reported":1736950066,"current_range_meters":30800,"station_id":"ce4bh012rcd13ifvqcv0","pricing_plan_id":"cebpf4jnsgd1na2vs0mg"},{"bike_id":"7a9b94fb-95d9-4d88-8dbd-50fe353ff810","system_id":"levelo_inurba_marseille","lat":43.33015,"lon":5.3905,"is_reserved":false,"is_disabled":false,"rental_uris":{"android":"levelo://app?vid=7a9b94fb-95d9-4d88-8dbd-50fe353ff810","ios":"levelo://app?vid=7a9b94fb-95d9-4d88-8dbd-50fe353ff810"},"vehicle_type_id":"4","last_reported":1736950066,"current_range_meters":33600,"station_id":"ce4bhr92rcd13ifvqhrg","pricing_plan_id":"cebpf4jnsgd1na2vs0mg"},{"bike_id":"1546f697-d82b-4e5d-a850-a9023302096e","system_id":"levelo_inurba_marseille","lat":43.25019,"lon":5.38931,"is_reserved":false,"is_disabled":false,"rental_uris":{"android":"levelo://app?vid=1546f697-d82b-4e5d-a850-a9023302096e","ios":"levelo://app?vid=1546f697-d82b-4e5d-a850-a9023302096e"},"vehicle_type_id":"4","last_reported":1736950066,"current_range_meters":39200,"station_id":"ce4bhgp2rcd13ifvqfd0","pricing_plan_id":"cebpf4jnsgd1na2vs0mg"},{"bike_id":"a05bd889-5f47-4435-a653-f868055678ed","system_id":"levelo_inurba_marseille","lat":43.25012,"lon":5.38932,"is_reserved":false,"is_disabled":false,"rental_uris":{"android":"levelo://app?vid=a05bd889-5f47-4435-a653-f868055678ed","ios":"levelo://app?vid=a05bd889-5f47-4435-a653-f868055678ed"},"vehicle_type_id":"4","last_reported":1736950066,"current_range_meters":27200,"station_id":"ce4bhgp2rcd13ifvqfd0","pricing_plan_id":"cebpf4jnsgd1na2vs0mg"},{"bike_id":"5dc3dd3e-37d2-4dd0-b33d-d2f8ed1e3625","system_id":"levelo_inurba_marseille","lat":43.25935,"lon":5.40898,"is_reserved":false,"is_disabled":false,"rental_uris":{"android":"levelo://app?vid=5dc3dd3e-37d2-4dd0-b33d-d2f8ed1e3625","ios":"levelo://app?vid=5dc3dd3e-37d2-4dd0-b33d-d2f8ed1e3625"},"vehicle_type_id":"4","last_reported":1736950066,"current_range_meters":7200,"station_id":"ce4bhm92rcd13ifvqglg","pricing_plan_id":"cebpf4jnsgd1na2vs0mg"},{"bike_id":"ce30391b-c7d3-4416-9d1e-aea797233304","system_id":"levelo_inurba_marseille","lat":43.27371,"lon":5.36257,"is_reserved":false,"is_disabled":false,"rental_uris":{"android":"levelo://app?vid=ce30391b-c7d3-4416-9d1e-aea797233304","ios":"levelo://app?vid=ce30391b-c7d3-4416-9d1e-aea797233304"},"vehicle_type_id":"4","last_reported":1736950066,"current_range_meters":33200,"station_id":"ce4bhbh2rcd13ifvqeo0","pricing_plan_id":"cebpf4jnsgd1na2vs0mg"},{"bike_id":"8453db75-3167-4ff1-8aa6-48e00cb37721","system_id":"levelo_inurba_marseille","lat":43.25587,"lon":5.3824,"is_reserved":false,"is_disabled":false,"rental_uris":{"android":"levelo://app?vid=8453db75-3167-4ff1-8aa6-48e00cb37721","ios":"levelo://app?vid=8453db75-3167-4ff1-8aa6-48e00cb37721"},"vehicle_type_id":"4","last_reported":1736950066,"current_range_meters":16400,"station_id":"ce4bhih2rcd13ifvqfs0","pricing_plan_id":"cebpf4jnsgd1na2vs0mg"},{"bike_id":"ae5947c9-e1d7-47d4-aa65-2a6be661e306","system_id":"levelo_inurba_marseille","lat":43.25941,"lon":5.40919,"is_reserved":false,"is_disabled":false,"rental_uris":{"android":"levelo://app?vid=ae5947c9-e1d7-47d4-aa65-2a6be661e306","ios":"levelo://app?vid=ae5947c9-e1d7-47d4-aa65-2a6be661e306"},"vehicle_type_id":"4","last_reported":1736950066,"current_range_meters":30000,"station_id":"ce4bhm92rcd13ifvqglg","pricing_plan_id":"cebpf4jnsgd1na2vs0mg"},{"bike_id":"6451e2ed-7def-45ea-94da-bf390bc8af85","system_id":"levelo_inurba_marseille","lat":43.24997,"lon":5.38936,"is_reserved":false,"is_disabled":false,"rental_uris":{"android":"levelo://app?vid=6451e2ed-7def-45ea-94da-bf390bc8af85","ios":"levelo://app?vid=6451e2ed-7def-45ea-94da-bf390bc8af85"},"vehicle_type_id":"4","last_reported":1736950066,"current_range_meters":30000,"station_id":"ce4bhgp2rcd13ifvqfd0","pricing_plan_id":"cebpf4jnsgd1na2vs0mg"},{"bike_id":"8407a36e-c4a3-4734-83db-62091b367019","system_id":"levelo_inurba_marseille","lat":43.32657,"lon":5.40974,"is_reserved":false,"is_disabled":false,"rental_uris":{"android":"levelo://app?vid=8407a36e-c4a3-4734-83db-62091b367019","ios":"levelo://app?vid=8407a36e-c4a3-4734-83db-62091b367019"},"vehicle_type_id":"4","last_reported":1736950066,"current_range_meters":27200,"station_id":"ce4bhpp2rcd13ifvqhgg","pricing_plan_id":"cebpf4jnsgd1na2vs0mg"},{"bike_id":"cbdd97a4-499e-4a2f-9aef-de63b1e35fd4","system_id":"levelo_inurba_marseille","lat":43.23157,"lon":5.43712,"is_reserved":false,"is_disabled":false,"rental_uris":{"android":"levelo://app?vid=cbdd97a4-499e-4a2f-9aef-de63b1e35fd4","ios":"levelo://app?vid=cbdd97a4-499e-4a2f-9aef-de63b1e35fd4"},"vehicle_type_id":"4","last_reported":1736950066,"current_range_meters":8400,"station_id":"ce4bhmp2rcd13ifvqgog","pricing_plan_id":"cebpf4jnsgd1na2vs0mg"},{"bike_id":"b544ab56-db1f-459e-a299-93f0621b7554","system_id":"levelo_inurba_marseille","lat":43.26561,"lon":5.3729,"is_reserved":false,"is_disabled":false,"rental_uris":{"android":"levelo://app?vid=b544ab56-db1f-459e-a299-93f0621b7554","ios":"levelo://app?vid=b544ab56-db1f-459e-a299-93f0621b7554"},"vehicle_type_id":"4","last_reported":1736950066,"current_range_meters":27600,"station_id":"ce4bhg12rcd13ifvqf70","pricing_plan_id":"cebpf4jnsgd1na2vs0mg"},{"bike_id":"dc437cc2-5af3-413a-a2ba-399a67d9929a","system_id":"levelo_inurba_marseille","lat":43.30321,"lon":5.40439,"is_reserved":false,"is_disabled":false,"rental_uris":{"android":"levelo://app?vid=dc437cc2-5af3-413a-a2ba-399a67d9929a","ios":"levelo://app?vid=dc437cc2-5af3-413a-a2ba-399a67d9929a"},"vehicle_type_id":"4","last_reported":1736950066,"current_range_meters":16400,"station_id":"ce4bh012rcd13ifvqd10","pricing_plan_id":"cebpf4jnsgd1na2vs0mg"},{"bike_id":"49c9ebdc-fe75-40e3-9c63-b5b78132234a","system_id":"levelo_inurba_marseille","lat":43.27834,"lon":5.39219,"is_reserved":false,"is_disabled":false,"rental_uris":{"android":"levelo://app?vid=49c9ebdc-fe75-40e3-9c63-b5b78132234a","ios":"levelo://app?vid=49c9ebdc-fe75-40e3-9c63-b5b78132234a"},"vehicle_type_id":"4","last_reported":1736950066,"current_range_meters":36800,"station_id":"ce4bhjp2rcd13ifvqga0","pricing_plan_id":"cebpf4jnsgd1na2vs0mg"},{"bike_id":"a402044d-1041-4786-a63f-9d18af3bc82f","system_id":"levelo_inurba_marseille","lat":43.241615,"lon":5.364165,"is_reserved":false,"is_disabled":false,"rental_uris":{"android":"levelo://app?vid=a402044d-1041-4786-a63f-9d18af3bc82f","ios":"levelo://app?vid=a402044d-1041-4786-a63f-9d18af3bc82f"},"vehicle_type_id":"4","last_reported":1736950066,"current_range_meters":36400,"station_id":"cpo36qri1sfpv3e86is0","pricing_plan_id":"cebpf4jnsgd1na2vs0mg"},{"bike_id":"0a894bfa-7c41-4e7a-92e0-afeaf0790304","system_id":"levelo_inurba_marseille","lat":43.34141,"lon":5.40907,"is_reserved":false,"is_disabled":false,"rental_uris":{"android":"levelo://app?vid=0a894bfa-7c41-4e7a-92e0-afeaf0790304","ios":"levelo://app?vid=0a894bfa-7c41-4e7a-92e0-afeaf0790304"},"vehicle_type_id":"4","last_reported":1736950066,"current_range_meters":26800,"station_id":"ce4bhqh2rcd13ifvqhlg","pricing_plan_id":"cebpf4jnsgd1na2vs0mg"},{"bike_id":"c8334207-f5c0-442a-8167-934adbff4575","system_id":"levelo_inurba_marseille","lat":43.2508,"lon":5.3952,"is_reserved":false,"is_disabled":false,"rental_uris":{"android":"levelo://app?vid=c8334207-f5c0-442a-8167-934adbff4575","ios":"levelo://app?vid=c8334207-f5c0-442a-8167-934adbff4575"},"vehicle_type_id":"4","last_reported":1736950066,"current_range_meters":18000,"station_id":"ce4bhm12rcd13ifvqgkg","pricing_plan_id":"cebpf4jnsgd1na2vs0mg"},{"bike_id":"902edfe6-251a-49fc-8548-2023567b8c62","system_id":"levelo_inurba_marseille","lat":43.30309,"lon":5.36908,"is_reserved":false,"is_disabled":false,"rental_uris":{"android":"levelo://app?vid=902edfe6-251a-49fc-8548-2023567b8c62","ios":"levelo://app?vid=902edfe6-251a-49fc-8548-2023567b8c62"},"vehicle_type_id":"4","last_reported":1736950066,"current_range_meters":38800,"station_id":"ce4bgqh2rcd13ifvqc5g","pricing_plan_id":"cebpf4jnsgd1na2vs0mg"},{"bike_id":"4e98bc14-30bb-4b0d-977c-6476716423cb","system_id":"levelo_inurba_marseille","lat":43.31168,"lon":5.38714,"is_reserved":false,"is_disabled":false,"rental_uris":{"android":"levelo://app?vid=4e98bc14-30bb-4b0d-977c-6476716423cb","ios":"levelo://app?vid=4e98bc14-30bb-4b0d-977c-6476716423cb"},"vehicle_type_id":"4","last_reported":1736950066,"current_range_meters":38400,"station_id":"ce4bgv12rcd13ifvqcp0","pricing_plan_id":"cebpf4jnsgd1na2vs0mg"},{"bike_id":"c8e997c0-8580-4d0f-8d9f-0766596381e1","system_id":"levelo_inurba_marseille","lat":43.33918,"lon":5.37562,"is_reserved":false,"is_disabled":true,"rental_uris":{"android":"levelo://app?vid=c8e997c0-8580-4d0f-8d9f-0766596381e1","ios":"levelo://app?vid=c8e997c0-8580-4d0f-8d9f-0766596381e1"},"vehicle_type_id":"4","last_reported":1736950066,"current_range_meters":0,"station_id":"","pricing_plan_id":"cebpf4jnsgd1na2vs0mg"},{"bike_id":"c0921cf0-5ed1-4075-b525-0763614a3f04","system_id":"levelo_inurba_marseille","lat":43.32082,"lon":5.41534,"is_reserved":false,"is_disabled":false,"rental_uris":{"android":"levelo://app?vid=c0921cf0-5ed1-4075-b525-0763614a3f04","ios":"levelo://app?vid=c0921cf0-5ed1-4075-b525-0763614a3f04"},"vehicle_type_id":"4","last_reported":1736950066,"current_range_meters":36400,"station_id":"ce4bhq92rcd13ifvqhkg","pricing_plan_id":"cebpf4jnsgd1na2vs0mg"},{"bike_id":"7a01fbe9-064e-4bb0-9200-81a1eeced978","system_id":"levelo_inurba_marseille","lat":43.24174,"lon":5.36406,"is_reserved":false,"is_disabled":false,"rental_uris":{"android":"levelo://app?vid=7a01fbe9-064e-4bb0-9200-81a1eeced978","ios":"levelo://app?vid=7a01fbe9-064e-4bb0-9200-81a1eeced978"},"vehicle_type_id":"4","last_reported":1736950066,"current_range_meters":13600,"station_id":"cpo36qri1sfpv3e86is0","pricing_plan_id":"cebpf4jnsgd1na2vs0mg"},{"bike_id":"174e3e7b-e2c2-460a-9a0b-bbc9b4e91c9f","system_id":"levelo_inurba_marseille","lat":43.28838,"lon":5.39321,"is_reserved":false,"is_disabled":false,"rental_uris":{"android":"levelo://app?vid=174e3e7b-e2c2-460a-9a0b-bbc9b4e91c9f","ios":"levelo://app?vid=174e3e7b-e2c2-460a-9a0b-bbc9b4e91c9f"},"vehicle_type_id":"4","last_reported":1736950066,"current_range_meters":17600,"station_id":"ce4bh2p2rcd13ifvqdi0","pricing_plan_id":"cebpf4jnsgd1na2vs0mg"},{"bike_id":"6320f8c7-03de-4692-9a7b-f0d62828e359","system_id":"levelo_inurba_marseille","lat":43.29705,"lon":5.37691,"is_reserved":false,"is_disabled":false,"rental_uris":{"android":"levelo://app?vid=6320f8c7-03de-4692-9a7b-f0d62828e359","ios":"levelo://app?vid=6320f8c7-03de-4692-9a7b-f0d62828e359"},"vehicle_type_id":"4","last_reported":1736950066,"current_range_meters":24800,"station_id":"ce4bgkh2rcd13ifvqbl0","pricing_plan_id":"cebpf4jnsgd1na2vs0mg"},{"bike_id":"5582c2bd-ef80-4a6c-bd86-fdc6558d33d3","system_id":"levelo_inurba_marseille","lat":43.29049,"lon":5.35914,"is_reserved":false,"is_disabled":false,"rental_uris":{"android":"levelo://app?vid=5582c2bd-ef80-4a6c-bd86-fdc6558d33d3","ios":"levelo://app?vid=5582c2bd-ef80-4a6c-bd86-fdc6558d33d3"},"vehicle_type_id":"4","last_reported":1736950066,"current_range_meters":25600,"station_id":"ce4bha92rcd13ifvqeg0","pricing_plan_id":"cebpf4jnsgd1na2vs0mg"},{"bike_id":"7b693463-6b82-4e9a-aa2d-726f031e21f9","system_id":"levelo_inurba_marseille","lat":43.30791,"lon":5.43507,"is_reserved":false,"is_disabled":false,"rental_uris":{"android":"levelo://app?vid=7b693463-6b82-4e9a-aa2d-726f031e21f9","ios":"levelo://app?vid=7b693463-6b82-4e9a-aa2d-726f031e21f9"},"vehicle_type_id":"4","last_reported":1736950066,"current_range_meters":25600,"station_id":"ce4bhph2rcd13ifvqheg","pricing_plan_id":"cebpf4jnsgd1na2vs0mg"},{"bike_id":"916e7d21-70c7-4807-bbc1-ea12441299c6","system_id":"levelo_inurba_marseille","lat":43.29623,"lon":5.37175,"is_reserved":false,"is_disabled":false,"rental_uris":{"android":"levelo://app?vid=916e7d21-70c7-4807-bbc1-ea12441299c6","ios":"levelo://app?vid=916e7d21-70c7-4807-bbc1-ea12441299c6"},"vehicle_type_id":"4","last_reported":1736950066,"current_range_meters":38800,"station_id":"ce4bgnh2rcd13ifvqc0g","pricing_plan_id":"cebpf4jnsgd1na2vs0mg"},{"bike_id":"e81ef256-d7a3-4c28-9bcc-58b1fdfe2d9d","system_id":"levelo_inurba_marseille","lat":43.25149,"lon":5.40325,"is_reserved":false,"is_disabled":false,"rental_uris":{"android":"levelo://app?vid=e81ef256-d7a3-4c28-9bcc-58b1fdfe2d9d","ios":"levelo://app?vid=e81ef256-d7a3-4c28-9bcc-58b1fdfe2d9d"},"vehicle_type_id":"4","last_reported":1736950066,"current_range_meters":38000,"station_id":"","pricing_plan_id":"cebpf4jnsgd1na2vs0mg"},{"bike_id":"db27b2af-171c-4aa7-b50e-e2ab13f4af0b","system_id":"levelo_inurba_marseille","lat":43.30543,"lon":5.36533,"is_reserved":false,"is_disabled":false,"rental_uris":{"android":"levelo://app?vid=db27b2af-171c-4aa7-b50e-e2ab13f4af0b","ios":"levelo://app?vid=db27b2af-171c-4aa7-b50e-e2ab13f4af0b"},"vehicle_type_id":"4","last_reported":1736950066,"current_range_meters":11600,"station_id":"ce4bgs12rcd13ifvqcag","pricing_plan_id":"cebpf4jnsgd1na2vs0mg"},{"bike_id":"42538076-d468-4c14-96a6-9d3026e95b54","system_id":"levelo_inurba_marseille","lat":43.2958,"lon":5.37501,"is_reserved":false,"is_disabled":false,"rental_uris":{"android":"levelo://app?vid=42538076-d468-4c14-96a6-9d3026e95b54","ios":"levelo://app?vid=42538076-d468-4c14-96a6-9d3026e95b54"},"vehicle_type_id":"4","last_reported":1736950066,"current_range_meters":27600,"station_id":"ce4bgh92rcd13ifvqb50","pricing_plan_id":"cebpf4jnsgd1na2vs0mg"},{"bike_id":"4cd29692-9aea-4560-8529-44b6bd5b3c30","system_id":"levelo_inurba_marseille","lat":43.23064,"lon":5.35492,"is_reserved":false,"is_disabled":false,"rental_uris":{"android":"levelo://app?vid=4cd29692-9aea-4560-8529-44b6bd5b3c30","ios":"levelo://app?vid=4cd29692-9aea-4560-8529-44b6bd5b3c30"},"vehicle_type_id":"4","last_reported":1736950066,"current_range_meters":12000,"station_id":"cpo3342slgdg3j2ifvpg","pricing_plan_id":"cebpf4jnsgd1na2vs0mg"},{"bike_id":"f8800adc-29e9-47fc-86f1-25a46dbbb4db","system_id":"levelo_inurba_marseille","lat":43.30528,"lon":5.36534,"is_reserved":false,"is_disabled":false,"rental_uris":{"android":"levelo://app?vid=f8800adc-29e9-47fc-86f1-25a46dbbb4db","ios":"levelo://app?vid=f8800adc-29e9-47fc-86f1-25a46dbbb4db"},"vehicle_type_id":"4","last_reported":1736950066,"current_range_meters":11200,"station_id":"ce4bgs12rcd13ifvqcag","pricing_plan_id":"cebpf4jnsgd1na2vs0mg"},{"bike_id":"b04bca53-7737-4ef3-b26d-f6b2d60c721f","system_id":"levelo_inurba_marseille","lat":43.31478,"lon":5.37307,"is_reserved":false,"is_disabled":false,"rental_uris":{"android":"levelo://app?vid=b04bca53-7737-4ef3-b26d-f6b2d60c721f","ios":"levelo://app?vid=b04bca53-7737-4ef3-b26d-f6b2d60c721f"},"vehicle_type_id":"4","last_reported":1736950066,"current_range_meters":27200,"station_id":"ce4bgt12rcd13ifvqcd0","pricing_plan_id":"cebpf4jnsgd1na2vs0mg"},{"bike_id":"fea1b24d-bbfb-474a-b028-8645483cd7e6","system_id":"levelo_inurba_marseille","lat":43.27642,"lon":5.38909,"is_reserved":false,"is_disabled":false,"rental_uris":{"android":"levelo://app?vid=fea1b24d-bbfb-474a-b028-8645483cd7e6","ios":"levelo://app?vid=fea1b24d-bbfb-474a-b028-8645483cd7e6"},"vehicle_type_id":"4","last_reported":1736950066,"current_range_meters":37600,"station_id":"","pricing_plan_id":"cebpf4jnsgd1na2vs0mg"},{"bike_id":"1455126f-f41c-4f0c-a717-77bb0d641fab","system_id":"levelo_inurba_marseille","lat":43.28281,"lon":5.3507,"is_reserved":false,"is_disabled":false,"rental_uris":{"android":"levelo://app?vid=1455126f-f41c-4f0c-a717-77bb0d641fab","ios":"levelo://app?vid=1455126f-f41c-4f0c-a717-77bb0d641fab"},"vehicle_type_id":"4","last_reported":1736950066,"current_range_meters":38800,"station_id":"ce4bhbp2rcd13ifvqerg","pricing_plan_id":"cebpf4jnsgd1na2vs0mg"},{"bike_id":"98c9b57f-b727-44d5-ab39-539e4817921c","system_id":"levelo_inurba_marseille","lat":43.26705,"lon":5.38253,"is_reserved":false,"is_disabled":false,"rental_uris":{"android":"levelo://app?vid=98c9b57f-b727-44d5-ab39-539e4817921c","ios":"levelo://app?vid=98c9b57f-b727-44d5-ab39-539e4817921c"},"vehicle_type_id":"4","last_reported":1736950066,"current_range_meters":34000,"station_id":"ce4bhg92rcd13ifvqf90","pricing_plan_id":"cebpf4jnsgd1na2vs0mg"},{"bike_id":"0ada6c01-b17d-4394-a9d3-60e5c6157127","system_id":"levelo_inurba_marseille","lat":43.31988,"lon":5.38161,"is_reserved":false,"is_disabled":false,"rental_uris":{"android":"levelo://app?vid=0ada6c01-b17d-4394-a9d3-60e5c6157127","ios":"levelo://app?vid=0ada6c01-b17d-4394-a9d3-60e5c6157127"},"vehicle_type_id":"4","last_reported":1736950066,"current_range_meters":38800,"station_id":"ce4bhr12rcd13ifvqhpg","pricing_plan_id":"cebpf4jnsgd1na2vs0mg"},{"bike_id":"6ea1b519-de74-47fa-ac99-fd7857015b5e","system_id":"levelo_inurba_marseille","lat":43.30134,"lon":5.38771,"is_reserved":false,"is_disabled":false,"rental_uris":{"android":"levelo://app?vid=6ea1b519-de74-47fa-ac99-fd7857015b5e","ios":"levelo://app?vid=6ea1b519-de74-47fa-ac99-fd7857015b5e"},"vehicle_type_id":"4","last_reported":1736950066,"current_range_meters":8400,"station_id":"ce4bghh2rcd13ifvqb60","pricing_plan_id":"cebpf4jnsgd1na2vs0mg"},{"bike_id":"0de1c0c3-224c-470c-9c40-92abbb1e542e","system_id":"levelo_inurba_marseille","lat":43.27424,"lon":5.39407,"is_reserved":false,"is_disabled":true,"rental_uris":{"android":"levelo://app?vid=0de1c0c3-224c-470c-9c40-92abbb1e542e","ios":"levelo://app?vid=0de1c0c3-224c-470c-9c40-92abbb1e542e"},"vehicle_type_id":"4","last_reported":1736950066,"current_range_meters":28000,"station_id":"ce4bhdp2rcd13ifvqf20","pricing_plan_id":"cebpf4jnsgd1na2vs0mg"},{"bike_id":"73f1c851-1049-430e-8368-87296464dcce","system_id":"levelo_inurba_marseille","lat":43.32443,"lon":5.36593,"is_reserved":false,"is_disabled":false,"rental_uris":{"android":"levelo://app?vid=73f1c851-1049-430e-8368-87296464dcce","ios":"levelo://app?vid=73f1c851-1049-430e-8368-87296464dcce"},"vehicle_type_id":"4","last_reported":1736950066,"current_range_meters":32800,"station_id":"ce4bhs12rcd13ifvqhvg","pricing_plan_id":"cebpf4jnsgd1na2vs0mg"},{"bike_id":"c056450f-8550-4ac8-ba65-6c2e707fee50","system_id":"levelo_inurba_marseille","lat":43.26501,"lon":5.39543,"is_reserved":false,"is_disabled":false,"rental_uris":{"android":"levelo://app?vid=c056450f-8550-4ac8-ba65-6c2e707fee50","ios":"levelo://app?vid=c056450f-8550-4ac8-ba65-6c2e707fee50"},"vehicle_type_id":"4","last_reported":1736950066,"current_range_meters":35600,"station_id":"ce4bhi12rcd13ifvqfq0","pricing_plan_id":"cebpf4jnsgd1na2vs0mg"},{"bike_id":"1f149e26-9d4e-4970-96ec-1b76430b914b","system_id":"levelo_inurba_marseille","lat":43.24388,"lon":5.37053,"is_reserved":false,"is_disabled":false,"rental_uris":{"android":"levelo://app?vid=1f149e26-9d4e-4970-96ec-1b76430b914b","ios":"levelo://app?vid=1f149e26-9d4e-4970-96ec-1b76430b914b"},"vehicle_type_id":"4","last_reported":1736950066,"current_range_meters":38000,"station_id":"ce4bhhh2rcd13ifvqfk0","pricing_plan_id":"cebpf4jnsgd1na2vs0mg"},{"bike_id":"da3afe3c-5cdd-453f-9551-77e8476e7381","system_id":"levelo_inurba_marseille","lat":43.29537,"lon":5.38548,"is_reserved":false,"is_disabled":true,"rental_uris":{"android":"levelo://app?vid=da3afe3c-5cdd-453f-9551-77e8476e7381","ios":"levelo://app?vid=da3afe3c-5cdd-453f-9551-77e8476e7381"},"vehicle_type_id":"4","last_reported":1736950066,"current_range_meters":800,"station_id":"ce4bgih2rcd13ifvqba0","pricing_plan_id":"cebpf4jnsgd1na2vs0mg"},{"bike_id":"006cbbed-a8c4-4caa-84c8-9b87817f75fc","system_id":"levelo_inurba_marseille","lat":43.28985,"lon":5.37824,"is_reserved":false,"is_disabled":false,"rental_uris":{"android":"levelo://app?vid=006cbbed-a8c4-4caa-84c8-9b87817f75fc","ios":"levelo://app?vid=006cbbed-a8c4-4caa-84c8-9b87817f75fc"},"vehicle_type_id":"4","last_reported":1736950066,"current_range_meters":38800,"station_id":"ce4bh9p2rcd13ifvqed0","pricing_plan_id":"cebpf4jnsgd1na2vs0mg"},{"bike_id":"28402812-2437-4cb5-805b-4b740e765b45","system_id":"levelo_inurba_marseille","lat":43.30551,"lon":5.36576,"is_reserved":false,"is_disabled":false,"rental_uris":{"android":"levelo://app?vid=28402812-2437-4cb5-805b-4b740e765b45","ios":"levelo://app?vid=28402812-2437-4cb5-805b-4b740e765b45"},"vehicle_type_id":"4","last_reported":1736950066,"current_range_meters":30400,"station_id":"ce4bgs12rcd13ifvqcag","pricing_plan_id":"cebpf4jnsgd1na2vs0mg"},{"bike_id":"a1a925c1-025a-4e52-b724-c9c5776b8317","system_id":"levelo_inurba_marseille","lat":43.25099,"lon":5.40336,"is_reserved":false,"is_disabled":false,"rental_uris":{"android":"levelo://app?vid=a1a925c1-025a-4e52-b724-c9c5776b8317","ios":"levelo://app?vid=a1a925c1-025a-4e52-b724-c9c5776b8317"},"vehicle_type_id":"4","last_reported":1736950066,"current_range_meters":38800,"station_id":"ce4bhlh2rcd13ifvqgig","pricing_plan_id":"cebpf4jnsgd1na2vs0mg"},{"bike_id":"e33339f2-b70f-41b1-b7e1-5fbb564813c9","system_id":"levelo_inurba_marseille","lat":43.28428,"lon":5.34992,"is_reserved":false,"is_disabled":false,"rental_uris":{"android":"levelo://app?vid=e33339f2-b70f-41b1-b7e1-5fbb564813c9","ios":"levelo://app?vid=e33339f2-b70f-41b1-b7e1-5fbb564813c9"},"vehicle_type_id":"4","last_reported":1736950066,"current_range_meters":33600,"station_id":"ce4bhbh2rcd13ifvqepg","pricing_plan_id":"cebpf4jnsgd1na2vs0mg"},{"bike_id":"2f7f8f97-233b-49c1-a73b-02bd22f3a824","system_id":"levelo_inurba_marseille","lat":43.266793,"lon":5.382632,"is_reserved":false,"is_disabled":false,"rental_uris":{"android":"levelo://app?vid=2f7f8f97-233b-49c1-a73b-02bd22f3a824","ios":"levelo://app?vid=2f7f8f97-233b-49c1-a73b-02bd22f3a824"},"vehicle_type_id":"4","last_reported":1736950066,"current_range_meters":38400,"station_id":"ce4bhg92rcd13ifvqf90","pricing_plan_id":"cebpf4jnsgd1na2vs0mg"},{"bike_id":"630176c4-3295-4036-b1b3-ee28595dbef1","system_id":"levelo_inurba_marseille","lat":43.30882,"lon":5.39625,"is_reserved":false,"is_disabled":false,"rental_uris":{"android":"levelo://app?vid=630176c4-3295-4036-b1b3-ee28595dbef1","ios":"levelo://app?vid=630176c4-3295-4036-b1b3-ee28595dbef1"},"vehicle_type_id":"4","last_reported":1736950066,"current_range_meters":38800,"station_id":"ce4bh012rcd13ifvqcv0","pricing_plan_id":"cebpf4jnsgd1na2vs0mg"},{"bike_id":"b84030c8-a1a5-40d5-9aa9-73762c154ee0","system_id":"levelo_inurba_marseille","lat":43.291914,"lon":5.383049,"is_reserved":false,"is_disabled":false,"rental_uris":{"android":"levelo://app?vid=b84030c8-a1a5-40d5-9aa9-73762c154ee0","ios":"levelo://app?vid=b84030c8-a1a5-40d5-9aa9-73762c154ee0"},"vehicle_type_id":"4","last_reported":1736950066,"current_range_meters":4800,"station_id":"ce4bh512rcd13ifvqe2g","pricing_plan_id":"cebpf4jnsgd1na2vs0mg"},{"bike_id":"2c839bfc-228b-4afd-9c45-0e54b8f36672","system_id":"levelo_inurba_marseille","lat":43.24662,"lon":5.38893,"is_reserved":false,"is_disabled":false,"rental_uris":{"android":"levelo://app?vid=2c839bfc-228b-4afd-9c45-0e54b8f36672","ios":"levelo://app?vid=2c839bfc-228b-4afd-9c45-0e54b8f36672"},"vehicle_type_id":"4","last_reported":1736950066,"current_range_meters":38800,"station_id":"ce4bhg12rcd13ifvqf60","pricing_plan_id":"cebpf4jnsgd1na2vs0mg"},{"bike_id":"0154ac5f-a11b-4c51-8c93-81949924afb2","system_id":"levelo_inurba_marseille","lat":43.27847,"lon":5.40711,"is_reserved":false,"is_disabled":false,"rental_uris":{"android":"levelo://app?vid=0154ac5f-a11b-4c51-8c93-81949924afb2","ios":"levelo://app?vid=0154ac5f-a11b-4c51-8c93-81949924afb2"},"vehicle_type_id":"4","last_reported":1736950066,"current_range_meters":38000,"station_id":"ce4bhnh2rcd13ifvqgtg","pricing_plan_id":"cebpf4jnsgd1na2vs0mg"},{"bike_id":"b51a67e3-98a5-4053-8e5c-016081376755","system_id":"levelo_inurba_marseille","lat":43.27199,"lon":5.39185,"is_reserved":false,"is_disabled":false,"rental_uris":{"android":"levelo://app?vid=b51a67e3-98a5-4053-8e5c-016081376755","ios":"levelo://app?vid=b51a67e3-98a5-4053-8e5c-016081376755"},"vehicle_type_id":"4","last_reported":1736950066,"current_range_meters":37600,"station_id":"ce4bhhp2rcd13ifvqfm0","pricing_plan_id":"cebpf4jnsgd1na2vs0mg"},{"bike_id":"501a3598-7a32-4c77-bb25-544b83aa1c6c","system_id":"levelo_inurba_marseille","lat":43.32457,"lon":5.3657,"is_reserved":false,"is_disabled":false,"rental_uris":{"android":"levelo://app?vid=501a3598-7a32-4c77-bb25-544b83aa1c6c","ios":"levelo://app?vid=501a3598-7a32-4c77-bb25-544b83aa1c6c"},"vehicle_type_id":"4","last_reported":1736950066,"current_range_meters":12800,"station_id":"ce4bhs12rcd13ifvqhvg","pricing_plan_id":"cebpf4jnsgd1na2vs0mg"},{"bike_id":"1e532559-6003-4319-9021-c663930106a4","system_id":"levelo_inurba_marseille","lat":43.32337,"lon":5.40625,"is_reserved":false,"is_disabled":false,"rental_uris":{"android":"levelo://app?vid=1e532559-6003-4319-9021-c663930106a4","ios":"levelo://app?vid=1e532559-6003-4319-9021-c663930106a4"},"vehicle_type_id":"4","last_reported":1736950066,"current_range_meters":20000,"station_id":"ce4bhq92rcd13ifvqhjg","pricing_plan_id":"cebpf4jnsgd1na2vs0mg"},{"bike_id":"36f88621-bbfd-41a7-b1c5-65b5058829a7","system_id":"levelo_inurba_marseille","lat":43.31104,"lon":5.37769,"is_reserved":false,"is_disabled":true,"rental_uris":{"android":"levelo://app?vid=36f88621-bbfd-41a7-b1c5-65b5058829a7","ios":"levelo://app?vid=36f88621-bbfd-41a7-b1c5-65b5058829a7"},"vehicle_type_id":"4","last_reported":1736950066,"current_range_meters":1600,"station_id":"ce4bgt92rcd13ifvqcg0","pricing_plan_id":"cebpf4jnsgd1na2vs0mg"},{"bike_id":"a15980ac-c225-4e68-8982-6cc8c4cbfd79","system_id":"levelo_inurba_marseille","lat":43.23188,"lon":5.35564,"is_reserved":false,"is_disabled":false,"rental_uris":{"android":"levelo://app?vid=a15980ac-c225-4e68-8982-6cc8c4cbfd79","ios":"levelo://app?vid=a15980ac-c225-4e68-8982-6cc8c4cbfd79"},"vehicle_type_id":"4","last_reported":1736950066,"current_range_meters":39200,"station_id":"ce4bhu92rcd13ifvqi70","pricing_plan_id":"cebpf4jnsgd1na2vs0mg"},{"bike_id":"c1e4c3f1-3e89-4762-b660-b562a1538ef0","system_id":"levelo_inurba_marseille","lat":43.25115,"lon":5.40242,"is_reserved":false,"is_disabled":false,"rental_uris":{"android":"levelo://app?vid=c1e4c3f1-3e89-4762-b660-b562a1538ef0","ios":"levelo://app?vid=c1e4c3f1-3e89-4762-b660-b562a1538ef0"},"vehicle_type_id":"4","last_reported":1736950066,"current_range_meters":38800,"station_id":"ce4bhlh2rcd13ifvqgig","pricing_plan_id":"cebpf4jnsgd1na2vs0mg"},{"bike_id":"e6eaf2af-aee2-4e14-b6de-c187ade62849","system_id":"levelo_inurba_marseille","lat":43.24993,"lon":5.38935,"is_reserved":false,"is_disabled":false,"rental_uris":{"android":"levelo://app?vid=e6eaf2af-aee2-4e14-b6de-c187ade62849","ios":"levelo://app?vid=e6eaf2af-aee2-4e14-b6de-c187ade62849"},"vehicle_type_id":"4","last_reported":1736950066,"current_range_meters":8000,"station_id":"ce4bhgp2rcd13ifvqfd0","pricing_plan_id":"cebpf4jnsgd1na2vs0mg"},{"bike_id":"daf2a5c9-a5ef-4552-9acd-3b93dc852d55","system_id":"levelo_inurba_marseille","lat":43.27311,"lon":5.39098,"is_reserved":false,"is_disabled":false,"rental_uris":{"android":"levelo://app?vid=daf2a5c9-a5ef-4552-9acd-3b93dc852d55","ios":"levelo://app?vid=daf2a5c9-a5ef-4552-9acd-3b93dc852d55"},"vehicle_type_id":"4","last_reported":1736950066,"current_range_meters":16400,"station_id":"ce4bhgp2rcd13ifvqfe0","pricing_plan_id":"cebpf4jnsgd1na2vs0mg"},{"bike_id":"4c4bef53-5754-44cb-8635-3778ea2b06ec","system_id":"levelo_inurba_marseille","lat":43.30563,"lon":5.36516,"is_reserved":false,"is_disabled":false,"rental_uris":{"android":"levelo://app?vid=4c4bef53-5754-44cb-8635-3778ea2b06ec","ios":"levelo://app?vid=4c4bef53-5754-44cb-8635-3778ea2b06ec"},"vehicle_type_id":"4","last_reported":1736950066,"current_range_meters":37600,"station_id":"ce4bgs12rcd13ifvqcag","pricing_plan_id":"cebpf4jnsgd1na2vs0mg"},{"bike_id":"b54bc948-fafc-43ef-8637-52bfa6f8250c","system_id":"levelo_inurba_marseille","lat":43.23195,"lon":5.35553,"is_reserved":false,"is_disabled":false,"rental_uris":{"android":"levelo://app?vid=b54bc948-fafc-43ef-8637-52bfa6f8250c","ios":"levelo://app?vid=b54bc948-fafc-43ef-8637-52bfa6f8250c"},"vehicle_type_id":"4","last_reported":1736950066,"current_range_meters":10000,"station_id":"ce4bhu92rcd13ifvqi70","pricing_plan_id":"cebpf4jnsgd1na2vs0mg"},{"bike_id":"c793dcc4-2df3-40f3-b5d0-3b44dae1aada","system_id":"levelo_inurba_marseille","lat":43.2658,"lon":5.39025,"is_reserved":false,"is_disabled":false,"rental_uris":{"android":"levelo://app?vid=c793dcc4-2df3-40f3-b5d0-3b44dae1aada","ios":"levelo://app?vid=c793dcc4-2df3-40f3-b5d0-3b44dae1aada"},"vehicle_type_id":"4","last_reported":1736950066,"current_range_meters":28400,"station_id":"ce4bhe12rcd13ifvqf30","pricing_plan_id":"cebpf4jnsgd1na2vs0mg"},{"bike_id":"5e4e4f4c-73fe-49c3-b2c1-6288532fac88","system_id":"levelo_inurba_marseille","lat":43.297,"lon":5.37703,"is_reserved":false,"is_disabled":false,"rental_uris":{"android":"levelo://app?vid=5e4e4f4c-73fe-49c3-b2c1-6288532fac88","ios":"levelo://app?vid=5e4e4f4c-73fe-49c3-b2c1-6288532fac88"},"vehicle_type_id":"4","last_reported":1736950066,"current_range_meters":11200,"station_id":"ce4bgkh2rcd13ifvqbl0","pricing_plan_id":"cebpf4jnsgd1na2vs0mg"},{"bike_id":"d7ba0e14-4cde-4fb3-9b34-12776f6cec7d","system_id":"levelo_inurba_marseille","lat":43.301747,"lon":5.36637,"is_reserved":false,"is_disabled":false,"rental_uris":{"android":"levelo://app?vid=d7ba0e14-4cde-4fb3-9b34-12776f6cec7d","ios":"levelo://app?vid=d7ba0e14-4cde-4fb3-9b34-12776f6cec7d"},"vehicle_type_id":"4","last_reported":1736950066,"current_range_meters":38800,"station_id":"ce4bgrh2rcd13ifvqc8g","pricing_plan_id":"cebpf4jnsgd1na2vs0mg"},{"bike_id":"51bb6953-dea8-4e82-96bf-52696267905f","system_id":"levelo_inurba_marseille","lat":43.23077,"lon":5.35549,"is_reserved":false,"is_disabled":false,"rental_uris":{"android":"levelo://app?vid=51bb6953-dea8-4e82-96bf-52696267905f","ios":"levelo://app?vid=51bb6953-dea8-4e82-96bf-52696267905f"},"vehicle_type_id":"4","last_reported":1736950066,"current_range_meters":38800,"station_id":"","pricing_plan_id":"cebpf4jnsgd1na2vs0mg"},{"bike_id":"8c6739ac-fc4b-4446-93e5-573627213987","system_id":"levelo_inurba_marseille","lat":43.27941,"lon":5.41029,"is_reserved":false,"is_disabled":false,"rental_uris":{"android":"levelo://app?vid=8c6739ac-fc4b-4446-93e5-573627213987","ios":"levelo://app?vid=8c6739ac-fc4b-4446-93e5-573627213987"},"vehicle_type_id":"4","last_reported":1736950066,"current_range_meters":16800,"station_id":"ce4bhnp2rcd13ifvqh0g","pricing_plan_id":"cebpf4jnsgd1na2vs0mg"},{"bike_id":"d8a955fd-2fc3-4456-b3b0-325067a93714","system_id":"levelo_inurba_marseille","lat":43.28721,"lon":5.37934,"is_reserved":false,"is_disabled":false,"rental_uris":{"android":"levelo://app?vid=d8a955fd-2fc3-4456-b3b0-325067a93714","ios":"levelo://app?vid=d8a955fd-2fc3-4456-b3b0-325067a93714"},"vehicle_type_id":"4","last_reported":1736950066,"current_range_meters":36000,"station_id":"ce4bh9p2rcd13ifvqec0","pricing_plan_id":"cebpf4jnsgd1na2vs0mg"},{"bike_id":"c3fd4a15-54c7-4bf7-8e92-aec52d2a8162","system_id":"levelo_inurba_marseille","lat":43.26686,"lon":5.38253,"is_reserved":false,"is_disabled":false,"rental_uris":{"android":"levelo://app?vid=c3fd4a15-54c7-4bf7-8e92-aec52d2a8162","ios":"levelo://app?vid=c3fd4a15-54c7-4bf7-8e92-aec52d2a8162"},"vehicle_type_id":"4","last_reported":1736950066,"current_range_meters":32400,"station_id":"ce4bhg92rcd13ifvqf90","pricing_plan_id":"cebpf4jnsgd1na2vs0mg"},{"bike_id":"8f689d93-96c4-4ef6-b8c3-1e05071b86b0","system_id":"levelo_inurba_marseille","lat":43.28933,"lon":5.36639,"is_reserved":false,"is_disabled":false,"rental_uris":{"android":"levelo://app?vid=8f689d93-96c4-4ef6-b8c3-1e05071b86b0","ios":"levelo://app?vid=8f689d93-96c4-4ef6-b8c3-1e05071b86b0"},"vehicle_type_id":"4","last_reported":1736950066,"current_range_meters":38800,"station_id":"ce4bhap2rcd13ifvqek0","pricing_plan_id":"cebpf4jnsgd1na2vs0mg"},{"bike_id":"a3919318-bf6c-4fd7-a53c-94839662c2dc","system_id":"levelo_inurba_marseille","lat":43.33021,"lon":5.39045,"is_reserved":false,"is_disabled":false,"rental_uris":{"android":"levelo://app?vid=a3919318-bf6c-4fd7-a53c-94839662c2dc","ios":"levelo://app?vid=a3919318-bf6c-4fd7-a53c-94839662c2dc"},"vehicle_type_id":"4","last_reported":1736950066,"current_range_meters":38800,"station_id":"ce4bhr92rcd13ifvqhrg","pricing_plan_id":"cebpf4jnsgd1na2vs0mg"},{"bike_id":"2844ea74-3d47-4632-961c-c96ebdb1994a","system_id":"levelo_inurba_marseille","lat":43.24081,"lon":5.37756,"is_reserved":false,"is_disabled":false,"rental_uris":{"android":"levelo://app?vid=2844ea74-3d47-4632-961c-c96ebdb1994a","ios":"levelo://app?vid=2844ea74-3d47-4632-961c-c96ebdb1994a"},"vehicle_type_id":"4","last_reported":1736950066,"current_range_meters":37600,"station_id":"ce4bhnp2rcd13ifvqgvg","pricing_plan_id":"cebpf4jnsgd1na2vs0mg"},{"bike_id":"ca98b027-a6b1-4ad4-9122-1548fee4bbda","system_id":"levelo_inurba_marseille","lat":43.25502,"lon":5.37651,"is_reserved":false,"is_disabled":false,"rental_uris":{"android":"levelo://app?vid=ca98b027-a6b1-4ad4-9122-1548fee4bbda","ios":"levelo://app?vid=ca98b027-a6b1-4ad4-9122-1548fee4bbda"},"vehicle_type_id":"4","last_reported":1736950066,"current_range_meters":35200,"station_id":"ce4bhh12rcd13ifvqff0","pricing_plan_id":"cebpf4jnsgd1na2vs0mg"},{"bike_id":"1a88b36a-bdcc-4ab6-a257-59715f73d204","system_id":"levelo_inurba_marseille","lat":43.26699,"lon":5.38267,"is_reserved":false,"is_disabled":false,"rental_uris":{"android":"levelo://app?vid=1a88b36a-bdcc-4ab6-a257-59715f73d204","ios":"levelo://app?vid=1a88b36a-bdcc-4ab6-a257-59715f73d204"},"vehicle_type_id":"4","last_reported":1736950066,"current_range_meters":25200,"station_id":"ce4bhg92rcd13ifvqf90","pricing_plan_id":"cebpf4jnsgd1na2vs0mg"},{"bike_id":"f6b5a21b-caca-4bab-9767-62a516c88435","system_id":"levelo_inurba_marseille","lat":43.24654,"lon":5.38889,"is_reserved":false,"is_disabled":false,"rental_uris":{"android":"levelo://app?vid=f6b5a21b-caca-4bab-9767-62a516c88435","ios":"levelo://app?vid=f6b5a21b-caca-4bab-9767-62a516c88435"},"vehicle_type_id":"4","last_reported":1736950066,"current_range_meters":39200,"station_id":"ce4bhg12rcd13ifvqf60","pricing_plan_id":"cebpf4jnsgd1na2vs0mg"},{"bike_id":"1ab3f322-8e8f-40bf-b46a-ad736fdeffee","system_id":"levelo_inurba_marseille","lat":43.231537,"lon":5.437133,"is_reserved":false,"is_disabled":false,"rental_uris":{"android":"levelo://app?vid=1ab3f322-8e8f-40bf-b46a-ad736fdeffee","ios":"levelo://app?vid=1ab3f322-8e8f-40bf-b46a-ad736fdeffee"},"vehicle_type_id":"4","last_reported":1736950066,"current_range_meters":38000,"station_id":"ce4bhmp2rcd13ifvqgog","pricing_plan_id":"cebpf4jnsgd1na2vs0mg"},{"bike_id":"4a8c20d9-670a-4029-9219-52996fd0718d","system_id":"levelo_inurba_marseille","lat":43.28076,"lon":5.39634,"is_reserved":false,"is_disabled":true,"rental_uris":{"android":"levelo://app?vid=4a8c20d9-670a-4029-9219-52996fd0718d","ios":"levelo://app?vid=4a8c20d9-670a-4029-9219-52996fd0718d"},"vehicle_type_id":"4","last_reported":1736950066,"current_range_meters":800,"station_id":"ce4bho12rcd13ifvqh2g","pricing_plan_id":"cebpf4jnsgd1na2vs0mg"},{"bike_id":"39604ccf-2b46-4e1c-bf31-27cb75f70772","system_id":"levelo_inurba_marseille","lat":43.30154,"lon":5.38074,"is_reserved":false,"is_disabled":false,"rental_uris":{"android":"levelo://app?vid=39604ccf-2b46-4e1c-bf31-27cb75f70772","ios":"levelo://app?vid=39604ccf-2b46-4e1c-bf31-27cb75f70772"},"vehicle_type_id":"4","last_reported":1736950066,"current_range_meters":18800,"station_id":"ce4bgjp2rcd13ifvqbh0","pricing_plan_id":"cebpf4jnsgd1na2vs0mg"},{"bike_id":"cb57f13e-0f96-498a-b9ca-57c0b42e7a64","system_id":"levelo_inurba_marseille","lat":43.23963,"lon":5.36633,"is_reserved":false,"is_disabled":false,"rental_uris":{"android":"levelo://app?vid=cb57f13e-0f96-498a-b9ca-57c0b42e7a64","ios":"levelo://app?vid=cb57f13e-0f96-498a-b9ca-57c0b42e7a64"},"vehicle_type_id":"4","last_reported":1736950066,"current_range_meters":22800,"station_id":"ce4bhi12rcd13ifvqfp0","pricing_plan_id":"cebpf4jnsgd1na2vs0mg"},{"bike_id":"a56bdef2-14b8-4e02-b3bc-538917283971","system_id":"levelo_inurba_marseille","lat":43.25079,"lon":5.39522,"is_reserved":false,"is_disabled":false,"rental_uris":{"android":"levelo://app?vid=a56bdef2-14b8-4e02-b3bc-538917283971","ios":"levelo://app?vid=a56bdef2-14b8-4e02-b3bc-538917283971"},"vehicle_type_id":"4","last_reported":1736950066,"current_range_meters":27600,"station_id":"ce4bhm12rcd13ifvqgkg","pricing_plan_id":"cebpf4jnsgd1na2vs0mg"},{"bike_id":"2578cab6-a967-48c2-884c-de4de961fa05","system_id":"levelo_inurba_marseille","lat":43.2592,"lon":5.40887,"is_reserved":false,"is_disabled":false,"rental_uris":{"android":"levelo://app?vid=2578cab6-a967-48c2-884c-de4de961fa05","ios":"levelo://app?vid=2578cab6-a967-48c2-884c-de4de961fa05"},"vehicle_type_id":"4","last_reported":1736950066,"current_range_meters":8000,"station_id":"ce4bhm92rcd13ifvqglg","pricing_plan_id":"cebpf4jnsgd1na2vs0mg"},{"bike_id":"ab72bab7-dad1-439c-a66d-b4dd886f9569","system_id":"levelo_inurba_marseille","lat":43.3137,"lon":5.38493,"is_reserved":false,"is_disabled":false,"rental_uris":{"android":"levelo://app?vid=ab72bab7-dad1-439c-a66d-b4dd886f9569","ios":"levelo://app?vid=ab72bab7-dad1-439c-a66d-b4dd886f9569"},"vehicle_type_id":"4","last_reported":1736950066,"current_range_meters":9600,"station_id":"ce4bgt92rcd13ifvqcf0","pricing_plan_id":"cebpf4jnsgd1na2vs0mg"},{"bike_id":"36b9279c-a830-47ad-a411-ee77e1de6f7b","system_id":"levelo_inurba_marseille","lat":43.2904,"lon":5.4203,"is_reserved":false,"is_disabled":false,"rental_uris":{"android":"levelo://app?vid=36b9279c-a830-47ad-a411-ee77e1de6f7b","ios":"levelo://app?vid=36b9279c-a830-47ad-a411-ee77e1de6f7b"},"vehicle_type_id":"4","last_reported":1736950066,"current_range_meters":21600,"station_id":"ce4bhph2rcd13ifvqheg","pricing_plan_id":"cebpf4jnsgd1na2vs0mg"},{"bike_id":"e5b9252e-eebf-4c90-b028-b53cc4934330","system_id":"levelo_inurba_marseille","lat":43.30389,"lon":5.4187,"is_reserved":false,"is_disabled":true,"rental_uris":{"android":"levelo://app?vid=e5b9252e-eebf-4c90-b028-b53cc4934330","ios":"levelo://app?vid=e5b9252e-eebf-4c90-b028-b53cc4934330"},"vehicle_type_id":"4","last_reported":1736950066,"current_range_meters":16800,"station_id":"ce4bhop2rcd13ifvqh7g","pricing_plan_id":"cebpf4jnsgd1na2vs0mg"},{"bike_id":"c6f23a59-3554-42b4-82a4-19169d922143","system_id":"levelo_inurba_marseille","lat":43.29032,"lon":5.35925,"is_reserved":false,"is_disabled":false,"rental_uris":{"android":"levelo://app?vid=c6f23a59-3554-42b4-82a4-19169d922143","ios":"levelo://app?vid=c6f23a59-3554-42b4-82a4-19169d922143"},"vehicle_type_id":"4","last_reported":1736950066,"current_range_meters":36800,"station_id":"ce4bha92rcd13ifvqeg0","pricing_plan_id":"cebpf4jnsgd1na2vs0mg"},{"bike_id":"041b27fe-f947-45fe-8459-73eedb41d5f5","system_id":"levelo_inurba_marseille","lat":43.23145,"lon":5.43713,"is_reserved":false,"is_disabled":false,"rental_uris":{"android":"levelo://app?vid=041b27fe-f947-45fe-8459-73eedb41d5f5","ios":"levelo://app?vid=041b27fe-f947-45fe-8459-73eedb41d5f5"},"vehicle_type_id":"4","last_reported":1736950066,"current_range_meters":26800,"station_id":"ce4bhmp2rcd13ifvqgog","pricing_plan_id":"cebpf4jnsgd1na2vs0mg"},{"bike_id":"dc9a82c5-2de2-4e84-9b8e-718780ce1ab9","system_id":"levelo_inurba_marseille","lat":43.29283,"lon":5.40133,"is_reserved":false,"is_disabled":false,"rental_uris":{"android":"levelo://app?vid=dc9a82c5-2de2-4e84-9b8e-718780ce1ab9","ios":"levelo://app?vid=dc9a82c5-2de2-4e84-9b8e-718780ce1ab9"},"vehicle_type_id":"4","last_reported":1736950066,"current_range_meters":25600,"station_id":"ce4bh312rcd13ifvqdk0","pricing_plan_id":"cebpf4jnsgd1na2vs0mg"},{"bike_id":"3b3ff05d-cedd-4f1f-96d1-3afd86d2639b","system_id":"levelo_inurba_marseille","lat":43.24104,"lon":5.37762,"is_reserved":false,"is_disabled":false,"rental_uris":{"android":"levelo://app?vid=3b3ff05d-cedd-4f1f-96d1-3afd86d2639b","ios":"levelo://app?vid=3b3ff05d-cedd-4f1f-96d1-3afd86d2639b"},"vehicle_type_id":"4","last_reported":1736950066,"current_range_meters":39200,"station_id":"ce4bhnp2rcd13ifvqgvg","pricing_plan_id":"cebpf4jnsgd1na2vs0mg"},{"bike_id":"802ca875-2d03-4b7b-bef4-372cbaf8d101","system_id":"levelo_inurba_marseille","lat":43.29801,"lon":5.40404,"is_reserved":false,"is_disabled":false,"rental_uris":{"android":"levelo://app?vid=802ca875-2d03-4b7b-bef4-372cbaf8d101","ios":"levelo://app?vid=802ca875-2d03-4b7b-bef4-372cbaf8d101"},"vehicle_type_id":"4","last_reported":1736950066,"current_range_meters":27200,"station_id":"ce4bh112rcd13ifvqd90","pricing_plan_id":"cebpf4jnsgd1na2vs0mg"},{"bike_id":"db11193f-e588-4a85-900e-70724fc8f9fe","system_id":"levelo_inurba_marseille","lat":43.29,"lon":5.35599,"is_reserved":false,"is_disabled":false,"rental_uris":{"android":"levelo://app?vid=db11193f-e588-4a85-900e-70724fc8f9fe","ios":"levelo://app?vid=db11193f-e588-4a85-900e-70724fc8f9fe"},"vehicle_type_id":"4","last_reported":1736950066,"current_range_meters":37600,"station_id":"ce4bhb92rcd13ifvqen0","pricing_plan_id":"cebpf4jnsgd1na2vs0mg"},{"bike_id":"bf9fa473-406d-4cf1-9a0a-a19c23399b29","system_id":"levelo_inurba_marseille","lat":43.313313,"lon":5.396927,"is_reserved":false,"is_disabled":false,"rental_uris":{"android":"levelo://app?vid=bf9fa473-406d-4cf1-9a0a-a19c23399b29","ios":"levelo://app?vid=bf9fa473-406d-4cf1-9a0a-a19c23399b29"},"vehicle_type_id":"4","last_reported":1736950066,"current_range_meters":38000,"station_id":"ce4bgvp2rcd13ifvqcu0","pricing_plan_id":"cebpf4jnsgd1na2vs0mg"},{"bike_id":"0adbfa65-465c-487a-8c44-6247250163c9","system_id":"levelo_inurba_marseille","lat":43.31302,"lon":5.36849,"is_reserved":false,"is_disabled":true,"rental_uris":{"android":"levelo://app?vid=0adbfa65-465c-487a-8c44-6247250163c9","ios":"levelo://app?vid=0adbfa65-465c-487a-8c44-6247250163c9"},"vehicle_type_id":"4","last_reported":1736950066,"current_range_meters":5600,"station_id":"ce4bgl92rcd13ifvqbq0","pricing_plan_id":"cebpf4jnsgd1na2vs0mg"},{"bike_id":"c57f7411-350c-444f-bc55-fcab7a54283f","system_id":"levelo_inurba_marseille","lat":43.27951,"lon":5.41048,"is_reserved":false,"is_disabled":false,"rental_uris":{"android":"levelo://app?vid=c57f7411-350c-444f-bc55-fcab7a54283f","ios":"levelo://app?vid=c57f7411-350c-444f-bc55-fcab7a54283f"},"vehicle_type_id":"4","last_reported":1736950066,"current_range_meters":34800,"station_id":"ce4bhnp2rcd13ifvqh0g","pricing_plan_id":"cebpf4jnsgd1na2vs0mg"},{"bike_id":"d8e3941b-0cae-4b8e-ae3c-c34a4b3b2c65","system_id":"levelo_inurba_marseille","lat":43.31996,"lon":5.38158,"is_reserved":false,"is_disabled":false,"rental_uris":{"android":"levelo://app?vid=d8e3941b-0cae-4b8e-ae3c-c34a4b3b2c65","ios":"levelo://app?vid=d8e3941b-0cae-4b8e-ae3c-c34a4b3b2c65"},"vehicle_type_id":"4","last_reported":1736950066,"current_range_meters":38800,"station_id":"ce4bhr12rcd13ifvqhpg","pricing_plan_id":"cebpf4jnsgd1na2vs0mg"},{"bike_id":"9db02719-0257-42d2-a2f1-eb9f3f010788","system_id":"levelo_inurba_marseille","lat":43.28576,"lon":5.38457,"is_reserved":false,"is_disabled":true,"rental_uris":{"android":"levelo://app?vid=9db02719-0257-42d2-a2f1-eb9f3f010788","ios":"levelo://app?vid=9db02719-0257-42d2-a2f1-eb9f3f010788"},"vehicle_type_id":"4","last_reported":1736950066,"current_range_meters":0,"station_id":"","pricing_plan_id":"cebpf4jnsgd1na2vs0mg"},{"bike_id":"ef7adbc7-f956-407a-a3eb-ebdd3e60d992","system_id":"levelo_inurba_marseille","lat":43.30527,"lon":5.36463,"is_reserved":false,"is_disabled":true,"rental_uris":{"android":"levelo://app?vid=ef7adbc7-f956-407a-a3eb-ebdd3e60d992","ios":"levelo://app?vid=ef7adbc7-f956-407a-a3eb-ebdd3e60d992"},"vehicle_type_id":"4","last_reported":1736950066,"current_range_meters":38000,"station_id":"","pricing_plan_id":"cebpf4jnsgd1na2vs0mg"},{"bike_id":"a9520c4e-f780-4daf-969d-838e5a646013","system_id":"levelo_inurba_marseille","lat":43.29541,"lon":5.37497,"is_reserved":false,"is_disabled":false,"rental_uris":{"android":"levelo://app?vid=a9520c4e-f780-4daf-969d-838e5a646013","ios":"levelo://app?vid=a9520c4e-f780-4daf-969d-838e5a646013"},"vehicle_type_id":"4","last_reported":1736950066,"current_range_meters":38000,"station_id":"ce4bgkp2rcd13ifvqbmg","pricing_plan_id":"cebpf4jnsgd1na2vs0mg"},{"bike_id":"4df542d4-5bbd-4c6e-9c5e-d149bbcd1660","system_id":"levelo_inurba_marseille","lat":43.26209,"lon":5.37927,"is_reserved":false,"is_disabled":false,"rental_uris":{"android":"levelo://app?vid=4df542d4-5bbd-4c6e-9c5e-d149bbcd1660","ios":"levelo://app?vid=4df542d4-5bbd-4c6e-9c5e-d149bbcd1660"},"vehicle_type_id":"4","last_reported":1736950066,"current_range_meters":16400,"station_id":"ce4bhjp2rcd13ifvqg90","pricing_plan_id":"cebpf4jnsgd1na2vs0mg"},{"bike_id":"2fdb76bc-14e5-4fe0-89b9-6f1e982ff33e","system_id":"levelo_inurba_marseille","lat":43.32987,"lon":5.38997,"is_reserved":false,"is_disabled":false,"rental_uris":{"android":"levelo://app?vid=2fdb76bc-14e5-4fe0-89b9-6f1e982ff33e","ios":"levelo://app?vid=2fdb76bc-14e5-4fe0-89b9-6f1e982ff33e"},"vehicle_type_id":"4","last_reported":1736950066,"current_range_meters":38800,"station_id":"ce4bhr92rcd13ifvqhrg","pricing_plan_id":"cebpf4jnsgd1na2vs0mg"},{"bike_id":"9cb2b16e-64b0-4575-8c77-40f602ef060c","system_id":"levelo_inurba_marseille","lat":43.28936,"lon":5.36401,"is_reserved":false,"is_disabled":false,"rental_uris":{"android":"levelo://app?vid=9cb2b16e-64b0-4575-8c77-40f602ef060c","ios":"levelo://app?vid=9cb2b16e-64b0-4575-8c77-40f602ef060c"},"vehicle_type_id":"4","last_reported":1736950066,"current_range_meters":37600,"station_id":"ce4bhc92rcd13ifvqetg","pricing_plan_id":"cebpf4jnsgd1na2vs0mg"},{"bike_id":"403439f7-8e74-4d85-913e-67da90f92235","system_id":"levelo_inurba_marseille","lat":43.29186,"lon":5.358,"is_reserved":false,"is_disabled":false,"rental_uris":{"android":"levelo://app?vid=403439f7-8e74-4d85-913e-67da90f92235","ios":"levelo://app?vid=403439f7-8e74-4d85-913e-67da90f92235"},"vehicle_type_id":"4","last_reported":1736950066,"current_range_meters":26000,"station_id":"ce4bhb12rcd13ifvqel0","pricing_plan_id":"cebpf4jnsgd1na2vs0mg"},{"bike_id":"e02a9549-b281-4f69-a34c-4208f5511fef","system_id":"levelo_inurba_marseille","lat":43.24998,"lon":5.38935,"is_reserved":false,"is_disabled":false,"rental_uris":{"android":"levelo://app?vid=e02a9549-b281-4f69-a34c-4208f5511fef","ios":"levelo://app?vid=e02a9549-b281-4f69-a34c-4208f5511fef"},"vehicle_type_id":"4","last_reported":1736950066,"current_range_meters":30400,"station_id":"ce4bhgp2rcd13ifvqfd0","pricing_plan_id":"cebpf4jnsgd1na2vs0mg"},{"bike_id":"a1cbf57f-0d37-4cde-a4f4-e53c7978be93","system_id":"levelo_inurba_marseille","lat":43.26067,"lon":5.39396,"is_reserved":false,"is_disabled":false,"rental_uris":{"android":"levelo://app?vid=a1cbf57f-0d37-4cde-a4f4-e53c7978be93","ios":"levelo://app?vid=a1cbf57f-0d37-4cde-a4f4-e53c7978be93"},"vehicle_type_id":"4","last_reported":1736950066,"current_range_meters":8000,"station_id":"ce4bhh92rcd13ifvqfj0","pricing_plan_id":"cebpf4jnsgd1na2vs0mg"},{"bike_id":"20b42ccb-0411-4ccb-9208-7ac954900656","system_id":"levelo_inurba_marseille","lat":43.31485,"lon":5.36866,"is_reserved":false,"is_disabled":false,"rental_uris":{"android":"levelo://app?vid=20b42ccb-0411-4ccb-9208-7ac954900656","ios":"levelo://app?vid=20b42ccb-0411-4ccb-9208-7ac954900656"},"vehicle_type_id":"4","last_reported":1736950066,"current_range_meters":38800,"station_id":"","pricing_plan_id":"cebpf4jnsgd1na2vs0mg"},{"bike_id":"9841b7f3-8c78-4d71-b8f8-768333bcfcee","system_id":"levelo_inurba_marseille","lat":43.30212,"lon":5.39474,"is_reserved":false,"is_disabled":false,"rental_uris":{"android":"levelo://app?vid=9841b7f3-8c78-4d71-b8f8-768333bcfcee","ios":"levelo://app?vid=9841b7f3-8c78-4d71-b8f8-768333bcfcee"},"vehicle_type_id":"4","last_reported":1736950066,"current_range_meters":38800,"station_id":"ce4bh0p2rcd13ifvqd70","pricing_plan_id":"cebpf4jnsgd1na2vs0mg"},{"bike_id":"0ad6f0f5-2cfe-40ff-8076-e9ff8eee4651","system_id":"levelo_inurba_marseille","lat":43.29221,"lon":5.36077,"is_reserved":false,"is_disabled":false,"rental_uris":{"android":"levelo://app?vid=0ad6f0f5-2cfe-40ff-8076-e9ff8eee4651","ios":"levelo://app?vid=0ad6f0f5-2cfe-40ff-8076-e9ff8eee4651"},"vehicle_type_id":"4","last_reported":1736950066,"current_range_meters":12800,"station_id":"ce4bhbh2rcd13ifvqeqg","pricing_plan_id":"cebpf4jnsgd1na2vs0mg"},{"bike_id":"7a26b63c-652f-4d2d-8353-1a9dfb4e945a","system_id":"levelo_inurba_marseille","lat":43.33736,"lon":5.39192,"is_reserved":false,"is_disabled":false,"rental_uris":{"android":"levelo://app?vid=7a26b63c-652f-4d2d-8353-1a9dfb4e945a","ios":"levelo://app?vid=7a26b63c-652f-4d2d-8353-1a9dfb4e945a"},"vehicle_type_id":"4","last_reported":1736950066,"current_range_meters":38800,"station_id":"ce4bhr92rcd13ifvqhsg","pricing_plan_id":"cebpf4jnsgd1na2vs0mg"},{"bike_id":"56e0ff8f-f385-4150-9c69-b0a3357e7adb","system_id":"levelo_inurba_marseille","lat":43.26024,"lon":5.37553,"is_reserved":false,"is_disabled":false,"rental_uris":{"android":"levelo://app?vid=56e0ff8f-f385-4150-9c69-b0a3357e7adb","ios":"levelo://app?vid=56e0ff8f-f385-4150-9c69-b0a3357e7adb"},"vehicle_type_id":"4","last_reported":1736950066,"current_range_meters":8400,"station_id":"ce4bhgh2rcd13ifvqfa0","pricing_plan_id":"cebpf4jnsgd1na2vs0mg"},{"bike_id":"beae90ea-de3b-4a50-b97e-d77bd8538a84","system_id":"levelo_inurba_marseille","lat":43.23144,"lon":5.43732,"is_reserved":false,"is_disabled":false,"rental_uris":{"android":"levelo://app?vid=beae90ea-de3b-4a50-b97e-d77bd8538a84","ios":"levelo://app?vid=beae90ea-de3b-4a50-b97e-d77bd8538a84"},"vehicle_type_id":"4","last_reported":1736950066,"current_range_meters":8000,"station_id":"ce4bhmp2rcd13ifvqgog","pricing_plan_id":"cebpf4jnsgd1na2vs0mg"},{"bike_id":"d0af1c07-1a54-4ce6-a0bb-ac1ef8a0ce54","system_id":"levelo_inurba_marseille","lat":43.29035,"lon":5.39964,"is_reserved":false,"is_disabled":false,"rental_uris":{"android":"levelo://app?vid=d0af1c07-1a54-4ce6-a0bb-ac1ef8a0ce54","ios":"levelo://app?vid=d0af1c07-1a54-4ce6-a0bb-ac1ef8a0ce54"},"vehicle_type_id":"4","last_reported":1736950066,"current_range_meters":5600,"station_id":"ce4bh392rcd13ifvqdm0","pricing_plan_id":"cebpf4jnsgd1na2vs0mg"},{"bike_id":"d6c4e32b-6ea9-4f17-90c5-f831deea104e","system_id":"levelo_inurba_marseille","lat":43.29682,"lon":5.37318,"is_reserved":false,"is_disabled":false,"rental_uris":{"android":"levelo://app?vid=d6c4e32b-6ea9-4f17-90c5-f831deea104e","ios":"levelo://app?vid=d6c4e32b-6ea9-4f17-90c5-f831deea104e"},"vehicle_type_id":"4","last_reported":1736950066,"current_range_meters":38800,"station_id":"ce4bgk12rcd13ifvqbj0","pricing_plan_id":"cebpf4jnsgd1na2vs0mg"},{"bike_id":"886c2bbb-1b99-4795-80cb-99bf8240c559","system_id":"levelo_inurba_marseille","lat":43.24662,"lon":5.38878,"is_reserved":false,"is_disabled":false,"rental_uris":{"android":"levelo://app?vid=886c2bbb-1b99-4795-80cb-99bf8240c559","ios":"levelo://app?vid=886c2bbb-1b99-4795-80cb-99bf8240c559"},"vehicle_type_id":"4","last_reported":1736950066,"current_range_meters":26800,"station_id":"ce4bhg12rcd13ifvqf60","pricing_plan_id":"cebpf4jnsgd1na2vs0mg"},{"bike_id":"5f23a61a-7e7d-465e-942d-98e84a6e0f49","system_id":"levelo_inurba_marseille","lat":43.248169,"lon":5.374715,"is_reserved":false,"is_disabled":false,"rental_uris":{"android":"levelo://app?vid=5f23a61a-7e7d-465e-942d-98e84a6e0f49","ios":"levelo://app?vid=5f23a61a-7e7d-465e-942d-98e84a6e0f49"},"vehicle_type_id":"4","last_reported":1736950066,"current_range_meters":28000,"station_id":"ce4bhgh2rcd13ifvqfb0","pricing_plan_id":"cebpf4jnsgd1na2vs0mg"},{"bike_id":"f6bb3330-51df-4aaa-8269-ab7638db39bd","system_id":"levelo_inurba_marseille","lat":43.24387,"lon":5.37055,"is_reserved":false,"is_disabled":false,"rental_uris":{"android":"levelo://app?vid=f6bb3330-51df-4aaa-8269-ab7638db39bd","ios":"levelo://app?vid=f6bb3330-51df-4aaa-8269-ab7638db39bd"},"vehicle_type_id":"4","last_reported":1736950066,"current_range_meters":31200,"station_id":"ce4bhhh2rcd13ifvqfk0","pricing_plan_id":"cebpf4jnsgd1na2vs0mg"},{"bike_id":"b72f5c81-7da9-44ab-bae7-4902cb063865","system_id":"levelo_inurba_marseille","lat":43.25714,"lon":5.41112,"is_reserved":false,"is_disabled":false,"rental_uris":{"android":"levelo://app?vid=b72f5c81-7da9-44ab-bae7-4902cb063865","ios":"levelo://app?vid=b72f5c81-7da9-44ab-bae7-4902cb063865"},"vehicle_type_id":"4","last_reported":1736950066,"current_range_meters":38800,"station_id":"ce4bhkp2rcd13ifvqgd0","pricing_plan_id":"cebpf4jnsgd1na2vs0mg"},{"bike_id":"28fdba24-e4dd-42f3-aed2-9fd37f7e166c","system_id":"levelo_inurba_marseille","lat":43.3053,"lon":5.36526,"is_reserved":false,"is_disabled":false,"rental_uris":{"android":"levelo://app?vid=28fdba24-e4dd-42f3-aed2-9fd37f7e166c","ios":"levelo://app?vid=28fdba24-e4dd-42f3-aed2-9fd37f7e166c"},"vehicle_type_id":"4","last_reported":1736950066,"current_range_meters":23200,"station_id":"ce4bgs12rcd13ifvqcag","pricing_plan_id":"cebpf4jnsgd1na2vs0mg"},{"bike_id":"4901c72d-40ee-409a-b6e4-1404ee7c48db","system_id":"levelo_inurba_marseille","lat":43.3091,"lon":5.36846,"is_reserved":false,"is_disabled":false,"rental_uris":{"android":"levelo://app?vid=4901c72d-40ee-409a-b6e4-1404ee7c48db","ios":"levelo://app?vid=4901c72d-40ee-409a-b6e4-1404ee7c48db"},"vehicle_type_id":"4","last_reported":1736950066,"current_range_meters":17600,"station_id":"ce4bgn92rcd13ifvqbvg","pricing_plan_id":"cebpf4jnsgd1na2vs0mg"},{"bike_id":"293537b8-faa4-4512-9781-add1f5857757","system_id":"levelo_inurba_marseille","lat":43.27378,"lon":5.36247,"is_reserved":false,"is_disabled":false,"rental_uris":{"android":"levelo://app?vid=293537b8-faa4-4512-9781-add1f5857757","ios":"levelo://app?vid=293537b8-faa4-4512-9781-add1f5857757"},"vehicle_type_id":"4","last_reported":1736950066,"current_range_meters":38800,"station_id":"ce4bhbh2rcd13ifvqeo0","pricing_plan_id":"cebpf4jnsgd1na2vs0mg"},{"bike_id":"ae6a24c6-71f9-417a-adfe-c09c90280637","system_id":"levelo_inurba_marseille","lat":43.26565,"lon":5.37325,"is_reserved":false,"is_disabled":false,"rental_uris":{"android":"levelo://app?vid=ae6a24c6-71f9-417a-adfe-c09c90280637","ios":"levelo://app?vid=ae6a24c6-71f9-417a-adfe-c09c90280637"},"vehicle_type_id":"4","last_reported":1736950066,"current_range_meters":37600,"station_id":"ce4bhg12rcd13ifvqf70","pricing_plan_id":"cebpf4jnsgd1na2vs0mg"},{"bike_id":"c5748c79-66ea-4909-9026-e66a2b573a47","system_id":"levelo_inurba_marseille","lat":43.30335,"lon":5.36909,"is_reserved":false,"is_disabled":true,"rental_uris":{"android":"levelo://app?vid=c5748c79-66ea-4909-9026-e66a2b573a47","ios":"levelo://app?vid=c5748c79-66ea-4909-9026-e66a2b573a47"},"vehicle_type_id":"4","last_reported":1736950066,"current_range_meters":28400,"station_id":"ce4bgqh2rcd13ifvqc5g","pricing_plan_id":"cebpf4jnsgd1na2vs0mg"},{"bike_id":"5af21288-6a78-4bf0-98f0-2634bd9f0280","system_id":"levelo_inurba_marseille","lat":43.29778,"lon":5.37053,"is_reserved":false,"is_disabled":false,"rental_uris":{"android":"levelo://app?vid=5af21288-6a78-4bf0-98f0-2634bd9f0280","ios":"levelo://app?vid=5af21288-6a78-4bf0-98f0-2634bd9f0280"},"vehicle_type_id":"4","last_reported":1736950066,"current_range_meters":36000,"station_id":"ce4bgop2rcd13ifvqc1g","pricing_plan_id":"cebpf4jnsgd1na2vs0mg"},{"bike_id":"b36a1c0d-0330-4dd2-a728-642e1e22ff71","system_id":"levelo_inurba_marseille","lat":43.26926,"lon":5.40269,"is_reserved":false,"is_disabled":false,"rental_uris":{"android":"levelo://app?vid=b36a1c0d-0330-4dd2-a728-642e1e22ff71","ios":"levelo://app?vid=b36a1c0d-0330-4dd2-a728-642e1e22ff71"},"vehicle_type_id":"4","last_reported":1736950066,"current_range_meters":38800,"station_id":"cjm6bp8fraef2m0cb0m0","pricing_plan_id":"cebpf4jnsgd1na2vs0mg"},{"bike_id":"60c48e84-151f-4edd-83cd-789ff87c7f63","system_id":"levelo_inurba_marseille","lat":43.28698,"lon":5.37388,"is_reserved":false,"is_disabled":true,"rental_uris":{"android":"levelo://app?vid=60c48e84-151f-4edd-83cd-789ff87c7f63","ios":"levelo://app?vid=60c48e84-151f-4edd-83cd-789ff87c7f63"},"vehicle_type_id":"4","last_reported":1736950066,"current_range_meters":28400,"station_id":"ce4bh3p2rcd13ifvqdq0","pricing_plan_id":"cebpf4jnsgd1na2vs0mg"},{"bike_id":"c359d983-8dc1-4d71-a640-ffd66230aa2e","system_id":"levelo_inurba_marseille","lat":43.28616,"lon":5.35106,"is_reserved":false,"is_disabled":false,"rental_uris":{"android":"levelo://app?vid=c359d983-8dc1-4d71-a640-ffd66230aa2e","ios":"levelo://app?vid=c359d983-8dc1-4d71-a640-ffd66230aa2e"},"vehicle_type_id":"4","last_reported":1736950066,"current_range_meters":27600,"station_id":"ce4bhch2rcd13ifvqeug","pricing_plan_id":"cebpf4jnsgd1na2vs0mg"},{"bike_id":"a57ad4d3-5dfb-4aec-b397-7a5bacd15227","system_id":"levelo_inurba_marseille","lat":43.32482,"lon":5.36564,"is_reserved":false,"is_disabled":false,"rental_uris":{"android":"levelo://app?vid=a57ad4d3-5dfb-4aec-b397-7a5bacd15227","ios":"levelo://app?vid=a57ad4d3-5dfb-4aec-b397-7a5bacd15227"},"vehicle_type_id":"4","last_reported":1736950066,"current_range_meters":26000,"station_id":"ce4bhs12rcd13ifvqhvg","pricing_plan_id":"cebpf4jnsgd1na2vs0mg"},{"bike_id":"e05770dc-4ca5-42f6-8928-9e060772c93d","system_id":"levelo_inurba_marseille","lat":43.32377,"lon":5.38939,"is_reserved":false,"is_disabled":false,"rental_uris":{"android":"levelo://app?vid=e05770dc-4ca5-42f6-8928-9e060772c93d","ios":"levelo://app?vid=e05770dc-4ca5-42f6-8928-9e060772c93d"},"vehicle_type_id":"4","last_reported":1736950066,"current_range_meters":37600,"station_id":"ce4bhqp2rcd13ifvqhog","pricing_plan_id":"cebpf4jnsgd1na2vs0mg"},{"bike_id":"63b1e83e-e7a2-471e-b7a6-e38689a79038","system_id":"levelo_inurba_marseille","lat":43.30144,"lon":5.39849,"is_reserved":false,"is_disabled":false,"rental_uris":{"android":"levelo://app?vid=63b1e83e-e7a2-471e-b7a6-e38689a79038","ios":"levelo://app?vid=63b1e83e-e7a2-471e-b7a6-e38689a79038"},"vehicle_type_id":"4","last_reported":1736950066,"current_range_meters":9600,"station_id":"ce4bh0h2rcd13ifvqd40","pricing_plan_id":"cebpf4jnsgd1na2vs0mg"},{"bike_id":"de05f028-7450-4792-8d5b-e268410faa9d","system_id":"levelo_inurba_marseille","lat":43.32085,"lon":5.36806,"is_reserved":false,"is_disabled":false,"rental_uris":{"android":"levelo://app?vid=de05f028-7450-4792-8d5b-e268410faa9d","ios":"levelo://app?vid=de05f028-7450-4792-8d5b-e268410faa9d"},"vehicle_type_id":"4","last_reported":1736950066,"current_range_meters":25200,"station_id":"ce4bhrh2rcd13ifvqhug","pricing_plan_id":"cebpf4jnsgd1na2vs0mg"},{"bike_id":"b354b3ea-f7ff-42ac-a645-9e5cbfe3e2e2","system_id":"levelo_inurba_marseille","lat":43.30552,"lon":5.36579,"is_reserved":false,"is_disabled":false,"rental_uris":{"android":"levelo://app?vid=b354b3ea-f7ff-42ac-a645-9e5cbfe3e2e2","ios":"levelo://app?vid=b354b3ea-f7ff-42ac-a645-9e5cbfe3e2e2"},"vehicle_type_id":"4","last_reported":1736950066,"current_range_meters":38800,"station_id":"ce4bgs12rcd13ifvqcag","pricing_plan_id":"cebpf4jnsgd1na2vs0mg"},{"bike_id":"bf4e0278-7d9c-4211-9747-94b49d335185","system_id":"levelo_inurba_marseille","lat":43.28469,"lon":5.38418,"is_reserved":false,"is_disabled":false,"rental_uris":{"android":"levelo://app?vid=bf4e0278-7d9c-4211-9747-94b49d335185","ios":"levelo://app?vid=bf4e0278-7d9c-4211-9747-94b49d335185"},"vehicle_type_id":"4","last_reported":1736950066,"current_range_meters":29600,"station_id":"ce4bh512rcd13ifvqe3g","pricing_plan_id":"cebpf4jnsgd1na2vs0mg"},{"bike_id":"3345b302-c6e5-4089-8cca-37b2dd681680","system_id":"levelo_inurba_marseille","lat":43.29007,"lon":5.35622,"is_reserved":false,"is_disabled":false,"rental_uris":{"android":"levelo://app?vid=3345b302-c6e5-4089-8cca-37b2dd681680","ios":"levelo://app?vid=3345b302-c6e5-4089-8cca-37b2dd681680"},"vehicle_type_id":"4","last_reported":1736950066,"current_range_meters":38800,"station_id":"ce4bhb92rcd13ifvqen0","pricing_plan_id":"cebpf4jnsgd1na2vs0mg"},{"bike_id":"b4e5917f-ad4f-488f-98af-ef26da7570cb","system_id":"levelo_inurba_marseille","lat":43.29162,"lon":5.37146,"is_reserved":false,"is_disabled":false,"rental_uris":{"android":"levelo://app?vid=b4e5917f-ad4f-488f-98af-ef26da7570cb","ios":"levelo://app?vid=b4e5917f-ad4f-488f-98af-ef26da7570cb"},"vehicle_type_id":"4","last_reported":1736950066,"current_range_meters":33600,"station_id":"ce4bha92rcd13ifvqeh0","pricing_plan_id":"cebpf4jnsgd1na2vs0mg"},{"bike_id":"a7a23fdf-076c-4d85-8690-7a8aa7dce1ec","system_id":"levelo_inurba_marseille","lat":43.28118,"lon":5.3786,"is_reserved":false,"is_disabled":false,"rental_uris":{"android":"levelo://app?vid=a7a23fdf-076c-4d85-8690-7a8aa7dce1ec","ios":"levelo://app?vid=a7a23fdf-076c-4d85-8690-7a8aa7dce1ec"},"vehicle_type_id":"4","last_reported":1736950066,"current_range_meters":34000,"station_id":"ce4bha12rcd13ifvqee0","pricing_plan_id":"cebpf4jnsgd1na2vs0mg"},{"bike_id":"02d44c0a-962d-4386-a061-0ad017a5041a","system_id":"levelo_inurba_marseille","lat":43.27556,"lon":5.384,"is_reserved":false,"is_disabled":false,"rental_uris":{"android":"levelo://app?vid=02d44c0a-962d-4386-a061-0ad017a5041a","ios":"levelo://app?vid=02d44c0a-962d-4386-a061-0ad017a5041a"},"vehicle_type_id":"4","last_reported":1736950066,"current_range_meters":14000,"station_id":"ce4bhh92rcd13ifvqfi0","pricing_plan_id":"cebpf4jnsgd1na2vs0mg"},{"bike_id":"29f8b52d-1b60-455c-8e64-474feab0ffde","system_id":"levelo_inurba_marseille","lat":43.27058,"lon":5.40249,"is_reserved":false,"is_disabled":false,"rental_uris":{"android":"levelo://app?vid=29f8b52d-1b60-455c-8e64-474feab0ffde","ios":"levelo://app?vid=29f8b52d-1b60-455c-8e64-474feab0ffde"},"vehicle_type_id":"4","last_reported":1736950066,"current_range_meters":33600,"station_id":"ce4bhk92rcd13ifvqgc0","pricing_plan_id":"cebpf4jnsgd1na2vs0mg"},{"bike_id":"1eefa864-aca9-4502-9a4b-4df29d96df7a","system_id":"levelo_inurba_marseille","lat":43.33025,"lon":5.39042,"is_reserved":false,"is_disabled":false,"rental_uris":{"android":"levelo://app?vid=1eefa864-aca9-4502-9a4b-4df29d96df7a","ios":"levelo://app?vid=1eefa864-aca9-4502-9a4b-4df29d96df7a"},"vehicle_type_id":"4","last_reported":1736950066,"current_range_meters":20800,"station_id":"ce4bhr92rcd13ifvqhrg","pricing_plan_id":"cebpf4jnsgd1na2vs0mg"},{"bike_id":"2d7f3353-743b-41e1-85f2-e32181d4ae48","system_id":"levelo_inurba_marseille","lat":43.31991,"lon":5.38139,"is_reserved":false,"is_disabled":false,"rental_uris":{"android":"levelo://app?vid=2d7f3353-743b-41e1-85f2-e32181d4ae48","ios":"levelo://app?vid=2d7f3353-743b-41e1-85f2-e32181d4ae48"},"vehicle_type_id":"4","last_reported":1736950066,"current_range_meters":37600,"station_id":"ce4bhr12rcd13ifvqhpg","pricing_plan_id":"cebpf4jnsgd1na2vs0mg"},{"bike_id":"511cb4a9-2f4b-4d3e-be2f-819d95791ee6","system_id":"levelo_inurba_marseille","lat":43.27972,"lon":5.41673,"is_reserved":false,"is_disabled":true,"rental_uris":{"android":"levelo://app?vid=511cb4a9-2f4b-4d3e-be2f-819d95791ee6","ios":"levelo://app?vid=511cb4a9-2f4b-4d3e-be2f-819d95791ee6"},"vehicle_type_id":"4","last_reported":1736950066,"current_range_meters":34800,"station_id":"ce4bho12rcd13ifvqh1g","pricing_plan_id":"cebpf4jnsgd1na2vs0mg"},{"bike_id":"6ddc98b1-b7ce-45ea-823f-4ac71b5fa355","system_id":"levelo_inurba_marseille","lat":43.29188,"lon":5.35808,"is_reserved":false,"is_disabled":false,"rental_uris":{"android":"levelo://app?vid=6ddc98b1-b7ce-45ea-823f-4ac71b5fa355","ios":"levelo://app?vid=6ddc98b1-b7ce-45ea-823f-4ac71b5fa355"},"vehicle_type_id":"4","last_reported":1736950066,"current_range_meters":11600,"station_id":"ce4bhb12rcd13ifvqel0","pricing_plan_id":"cebpf4jnsgd1na2vs0mg"},{"bike_id":"a2416806-79c7-43e5-806b-68ab3111f8b7","system_id":"levelo_inurba_marseille","lat":43.25922,"lon":5.40905,"is_reserved":false,"is_disabled":false,"rental_uris":{"android":"levelo://app?vid=a2416806-79c7-43e5-806b-68ab3111f8b7","ios":"levelo://app?vid=a2416806-79c7-43e5-806b-68ab3111f8b7"},"vehicle_type_id":"4","last_reported":1736950066,"current_range_meters":19600,"station_id":"ce4bhm92rcd13ifvqglg","pricing_plan_id":"cebpf4jnsgd1na2vs0mg"},{"bike_id":"aef1419c-5766-4259-bc32-32416444be28","system_id":"levelo_inurba_marseille","lat":43.29971,"lon":5.37169,"is_reserved":false,"is_disabled":false,"rental_uris":{"android":"levelo://app?vid=aef1419c-5766-4259-bc32-32416444be28","ios":"levelo://app?vid=aef1419c-5766-4259-bc32-32416444be28"},"vehicle_type_id":"4","last_reported":1736950066,"current_range_meters":36800,"station_id":"ce4bgr92rcd13ifvqc7g","pricing_plan_id":"cebpf4jnsgd1na2vs0mg"},{"bike_id":"22045315-1b89-42e5-92f2-597283ef610b","system_id":"levelo_inurba_marseille","lat":43.23178,"lon":5.39997,"is_reserved":false,"is_disabled":false,"rental_uris":{"android":"levelo://app?vid=22045315-1b89-42e5-92f2-597283ef610b","ios":"levelo://app?vid=22045315-1b89-42e5-92f2-597283ef610b"},"vehicle_type_id":"4","last_reported":1736950066,"current_range_meters":38800,"station_id":"ce4bhn12rcd13ifvqgqg","pricing_plan_id":"cebpf4jnsgd1na2vs0mg"},{"bike_id":"5dac8937-41c4-4b7b-a840-d9286c80b047","system_id":"levelo_inurba_marseille","lat":43.26567,"lon":5.39005,"is_reserved":false,"is_disabled":false,"rental_uris":{"android":"levelo://app?vid=5dac8937-41c4-4b7b-a840-d9286c80b047","ios":"levelo://app?vid=5dac8937-41c4-4b7b-a840-d9286c80b047"},"vehicle_type_id":"4","last_reported":1736950066,"current_range_meters":32400,"station_id":"ce4bhe12rcd13ifvqf30","pricing_plan_id":"cebpf4jnsgd1na2vs0mg"},{"bike_id":"07707271-2e63-4e44-8938-6537d0cfbbe2","system_id":"levelo_inurba_marseille","lat":43.31712,"lon":5.42411,"is_reserved":false,"is_disabled":false,"rental_uris":{"android":"levelo://app?vid=07707271-2e63-4e44-8938-6537d0cfbbe2","ios":"levelo://app?vid=07707271-2e63-4e44-8938-6537d0cfbbe2"},"vehicle_type_id":"4","last_reported":1736950066,"current_range_meters":37600,"station_id":"ce4bhp92rcd13ifvqhbg","pricing_plan_id":"cebpf4jnsgd1na2vs0mg"},{"bike_id":"b583689d-4b3b-4fec-a4c3-0358dd755494","system_id":"levelo_inurba_marseille","lat":43.26684,"lon":5.38271,"is_reserved":false,"is_disabled":false,"rental_uris":{"android":"levelo://app?vid=b583689d-4b3b-4fec-a4c3-0358dd755494","ios":"levelo://app?vid=b583689d-4b3b-4fec-a4c3-0358dd755494"},"vehicle_type_id":"4","last_reported":1736950066,"current_range_meters":27600,"station_id":"ce4bhg92rcd13ifvqf90","pricing_plan_id":"cebpf4jnsgd1na2vs0mg"},{"bike_id":"bdbd16f5-cde6-4c85-958e-8f9700189ae9","system_id":"levelo_inurba_marseille","lat":43.31316,"lon":5.36736,"is_reserved":false,"is_disabled":false,"rental_uris":{"android":"levelo://app?vid=bdbd16f5-cde6-4c85-958e-8f9700189ae9","ios":"levelo://app?vid=bdbd16f5-cde6-4c85-958e-8f9700189ae9"},"vehicle_type_id":"4","last_reported":1736950066,"current_range_meters":35200,"station_id":"ce4bgr92rcd13ifvqc6g","pricing_plan_id":"cebpf4jnsgd1na2vs0mg"},{"bike_id":"e4259690-3fb4-4dd4-b235-d449ed58344f","system_id":"levelo_inurba_marseille","lat":43.26579,"lon":5.3727,"is_reserved":false,"is_disabled":false,"rental_uris":{"android":"levelo://app?vid=e4259690-3fb4-4dd4-b235-d449ed58344f","ios":"levelo://app?vid=e4259690-3fb4-4dd4-b235-d449ed58344f"},"vehicle_type_id":"4","last_reported":1736950066,"current_range_meters":26800,"station_id":"ce4bhg12rcd13ifvqf70","pricing_plan_id":"cebpf4jnsgd1na2vs0mg"},{"bike_id":"8534aaf4-535f-4db5-8998-0f97ef68ef36","system_id":"levelo_inurba_marseille","lat":43.24389,"lon":5.3707,"is_reserved":false,"is_disabled":false,"rental_uris":{"android":"levelo://app?vid=8534aaf4-535f-4db5-8998-0f97ef68ef36","ios":"levelo://app?vid=8534aaf4-535f-4db5-8998-0f97ef68ef36"},"vehicle_type_id":"4","last_reported":1736950066,"current_range_meters":15200,"station_id":"ce4bhhh2rcd13ifvqfk0","pricing_plan_id":"cebpf4jnsgd1na2vs0mg"},{"bike_id":"6224a091-6cd6-4e68-9dd0-32c06859fcf9","system_id":"levelo_inurba_marseille","lat":43.29696,"lon":5.37704,"is_reserved":false,"is_disabled":false,"rental_uris":{"android":"levelo://app?vid=6224a091-6cd6-4e68-9dd0-32c06859fcf9","ios":"levelo://app?vid=6224a091-6cd6-4e68-9dd0-32c06859fcf9"},"vehicle_type_id":"4","last_reported":1736950066,"current_range_meters":38800,"station_id":"ce4bgkh2rcd13ifvqbl0","pricing_plan_id":"cebpf4jnsgd1na2vs0mg"},{"bike_id":"b2c33e7b-da8a-4cda-ab12-4bcf5000aca5","system_id":"levelo_inurba_marseille","lat":43.27613,"lon":5.36124,"is_reserved":false,"is_disabled":false,"rental_uris":{"android":"levelo://app?vid=b2c33e7b-da8a-4cda-ab12-4bcf5000aca5","ios":"levelo://app?vid=b2c33e7b-da8a-4cda-ab12-4bcf5000aca5"},"vehicle_type_id":"4","last_reported":1736950066,"current_range_meters":28400,"station_id":"ce4bgj92rcd13ifvqbe0","pricing_plan_id":"cebpf4jnsgd1na2vs0mg"},{"bike_id":"4319c367-e344-48b7-83ee-a4d688a120a4","system_id":"levelo_inurba_marseille","lat":43.293579,"lon":5.374403,"is_reserved":false,"is_disabled":false,"rental_uris":{"android":"levelo://app?vid=4319c367-e344-48b7-83ee-a4d688a120a4","ios":"levelo://app?vid=4319c367-e344-48b7-83ee-a4d688a120a4"},"vehicle_type_id":"4","last_reported":1736950066,"current_range_meters":32800,"station_id":"ce4bgi12rcd13ifvqb70","pricing_plan_id":"cebpf4jnsgd1na2vs0mg"},{"bike_id":"6972ffb5-b91e-4711-9114-1e0ca2451244","system_id":"levelo_inurba_marseille","lat":43.30557,"lon":5.36719,"is_reserved":false,"is_disabled":false,"rental_uris":{"android":"levelo://app?vid=6972ffb5-b91e-4711-9114-1e0ca2451244","ios":"levelo://app?vid=6972ffb5-b91e-4711-9114-1e0ca2451244"},"vehicle_type_id":"4","last_reported":1736950066,"current_range_meters":22800,"station_id":"ce4bgrp2rcd13ifvqc9g","pricing_plan_id":"cebpf4jnsgd1na2vs0mg"},{"bike_id":"6c02ae22-4e33-4b73-a0d5-7fa499611cc2","system_id":"levelo_inurba_marseille","lat":43.23153,"lon":5.43712,"is_reserved":false,"is_disabled":false,"rental_uris":{"android":"levelo://app?vid=6c02ae22-4e33-4b73-a0d5-7fa499611cc2","ios":"levelo://app?vid=6c02ae22-4e33-4b73-a0d5-7fa499611cc2"},"vehicle_type_id":"4","last_reported":1736950066,"current_range_meters":37600,"station_id":"ce4bhmp2rcd13ifvqgog","pricing_plan_id":"cebpf4jnsgd1na2vs0mg"},{"bike_id":"02908220-1c55-4c15-9a97-ca442f0ecb98","system_id":"levelo_inurba_marseille","lat":43.23144,"lon":5.43714,"is_reserved":false,"is_disabled":false,"rental_uris":{"android":"levelo://app?vid=02908220-1c55-4c15-9a97-ca442f0ecb98","ios":"levelo://app?vid=02908220-1c55-4c15-9a97-ca442f0ecb98"},"vehicle_type_id":"4","last_reported":1736950066,"current_range_meters":38800,"station_id":"ce4bhmp2rcd13ifvqgog","pricing_plan_id":"cebpf4jnsgd1na2vs0mg"},{"bike_id":"814a199b-b269-460d-9d08-4a88a4a7a87e","system_id":"levelo_inurba_marseille","lat":43.24074,"lon":5.37755,"is_reserved":false,"is_disabled":false,"rental_uris":{"android":"levelo://app?vid=814a199b-b269-460d-9d08-4a88a4a7a87e","ios":"levelo://app?vid=814a199b-b269-460d-9d08-4a88a4a7a87e"},"vehicle_type_id":"4","last_reported":1736950066,"current_range_meters":38800,"station_id":"ce4bhnp2rcd13ifvqgvg","pricing_plan_id":"cebpf4jnsgd1na2vs0mg"},{"bike_id":"1ac66b2f-3713-43a8-bee1-1a7f413f5233","system_id":"levelo_inurba_marseille","lat":43.24179,"lon":5.39734,"is_reserved":false,"is_disabled":false,"rental_uris":{"android":"levelo://app?vid=1ac66b2f-3713-43a8-bee1-1a7f413f5233","ios":"levelo://app?vid=1ac66b2f-3713-43a8-bee1-1a7f413f5233"},"vehicle_type_id":"4","last_reported":1736950066,"current_range_meters":32000,"station_id":"ce4bhn12rcd13ifvqgpg","pricing_plan_id":"cebpf4jnsgd1na2vs0mg"},{"bike_id":"df9eda3b-a2a7-4b70-af43-c718c3f0a902","system_id":"levelo_inurba_marseille","lat":43.24804,"lon":5.37454,"is_reserved":false,"is_disabled":false,"rental_uris":{"android":"levelo://app?vid=df9eda3b-a2a7-4b70-af43-c718c3f0a902","ios":"levelo://app?vid=df9eda3b-a2a7-4b70-af43-c718c3f0a902"},"vehicle_type_id":"4","last_reported":1736950066,"current_range_meters":27600,"station_id":"ce4bhgh2rcd13ifvqfb0","pricing_plan_id":"cebpf4jnsgd1na2vs0mg"},{"bike_id":"46b085a4-365d-4826-b595-25b000e620ac","system_id":"levelo_inurba_marseille","lat":43.29708,"lon":5.37687,"is_reserved":false,"is_disabled":false,"rental_uris":{"android":"levelo://app?vid=46b085a4-365d-4826-b595-25b000e620ac","ios":"levelo://app?vid=46b085a4-365d-4826-b595-25b000e620ac"},"vehicle_type_id":"4","last_reported":1736950066,"current_range_meters":31200,"station_id":"ce4bgkh2rcd13ifvqbl0","pricing_plan_id":"cebpf4jnsgd1na2vs0mg"},{"bike_id":"79f830cc-4aa0-41d5-903a-ab426e05e42f","system_id":"levelo_inurba_marseille","lat":43.30457,"lon":5.37909,"is_reserved":false,"is_disabled":false,"rental_uris":{"android":"levelo://app?vid=79f830cc-4aa0-41d5-903a-ab426e05e42f","ios":"levelo://app?vid=79f830cc-4aa0-41d5-903a-ab426e05e42f"},"vehicle_type_id":"4","last_reported":1736950066,"current_range_meters":20400,"station_id":"ce4bgup2rcd13ifvqcn0","pricing_plan_id":"cebpf4jnsgd1na2vs0mg"},{"bike_id":"e65f38d5-6017-4a2a-a823-9db3d7e3ecc2","system_id":"levelo_inurba_marseille","lat":43.26562,"lon":5.37286,"is_reserved":false,"is_disabled":false,"rental_uris":{"android":"levelo://app?vid=e65f38d5-6017-4a2a-a823-9db3d7e3ecc2","ios":"levelo://app?vid=e65f38d5-6017-4a2a-a823-9db3d7e3ecc2"},"vehicle_type_id":"4","last_reported":1736950066,"current_range_meters":22400,"station_id":"ce4bhg12rcd13ifvqf70","pricing_plan_id":"cebpf4jnsgd1na2vs0mg"},{"bike_id":"41922604-c7b8-4e93-9da5-3903771d7233","system_id":"levelo_inurba_marseille","lat":43.24808,"lon":5.37469,"is_reserved":false,"is_disabled":false,"rental_uris":{"android":"levelo://app?vid=41922604-c7b8-4e93-9da5-3903771d7233","ios":"levelo://app?vid=41922604-c7b8-4e93-9da5-3903771d7233"},"vehicle_type_id":"4","last_reported":1736950066,"current_range_meters":16800,"station_id":"ce4bhgh2rcd13ifvqfb0","pricing_plan_id":"cebpf4jnsgd1na2vs0mg"},{"bike_id":"f4379103-5c7a-441b-8d0b-c1f41d81485c","system_id":"levelo_inurba_marseille","lat":43.26209,"lon":5.37445,"is_reserved":false,"is_disabled":false,"rental_uris":{"android":"levelo://app?vid=f4379103-5c7a-441b-8d0b-c1f41d81485c","ios":"levelo://app?vid=f4379103-5c7a-441b-8d0b-c1f41d81485c"},"vehicle_type_id":"4","last_reported":1736950066,"current_range_meters":24400,"station_id":"ce4bhgp2rcd13ifvqfc0","pricing_plan_id":"cebpf4jnsgd1na2vs0mg"},{"bike_id":"d2cbab28-a637-458b-95f2-8d44f859c91d","system_id":"levelo_inurba_marseille","lat":43.33027,"lon":5.39039,"is_reserved":false,"is_disabled":false,"rental_uris":{"android":"levelo://app?vid=d2cbab28-a637-458b-95f2-8d44f859c91d","ios":"levelo://app?vid=d2cbab28-a637-458b-95f2-8d44f859c91d"},"vehicle_type_id":"4","last_reported":1736950066,"current_range_meters":24800,"station_id":"ce4bhr92rcd13ifvqhrg","pricing_plan_id":"cebpf4jnsgd1na2vs0mg"},{"bike_id":"8394f5a8-31fa-4d89-9cc7-8ec508751ca2","system_id":"levelo_inurba_marseille","lat":43.25869,"lon":5.39935,"is_reserved":false,"is_disabled":false,"rental_uris":{"android":"levelo://app?vid=8394f5a8-31fa-4d89-9cc7-8ec508751ca2","ios":"levelo://app?vid=8394f5a8-31fa-4d89-9cc7-8ec508751ca2"},"vehicle_type_id":"4","last_reported":1736950066,"current_range_meters":22800,"station_id":"ce4bhl92rcd13ifvqghg","pricing_plan_id":"cebpf4jnsgd1na2vs0mg"},{"bike_id":"bb804e28-0607-493e-806c-37e58a339016","system_id":"levelo_inurba_marseille","lat":43.25809,"lon":5.39424,"is_reserved":false,"is_disabled":false,"rental_uris":{"android":"levelo://app?vid=bb804e28-0607-493e-806c-37e58a339016","ios":"levelo://app?vid=bb804e28-0607-493e-806c-37e58a339016"},"vehicle_type_id":"4","last_reported":1736950066,"current_range_meters":39200,"station_id":"ce4bhip2rcd13ifvqft0","pricing_plan_id":"cebpf4jnsgd1na2vs0mg"},{"bike_id":"b22d77c3-f37f-47b6-bfd3-17f35050e9db","system_id":"levelo_inurba_marseille","lat":43.27621,"lon":5.36132,"is_reserved":false,"is_disabled":true,"rental_uris":{"android":"levelo://app?vid=b22d77c3-f37f-47b6-bfd3-17f35050e9db","ios":"levelo://app?vid=b22d77c3-f37f-47b6-bfd3-17f35050e9db"},"vehicle_type_id":"4","last_reported":1736950066,"current_range_meters":2000,"station_id":"ce4bgj92rcd13ifvqbe0","pricing_plan_id":"cebpf4jnsgd1na2vs0mg"},{"bike_id":"cb1e2b1c-f8d7-4cb8-aaa2-00d5e7f3fd54","system_id":"levelo_inurba_marseille","lat":43.32338,"lon":5.40617,"is_reserved":false,"is_disabled":false,"rental_uris":{"android":"levelo://app?vid=cb1e2b1c-f8d7-4cb8-aaa2-00d5e7f3fd54","ios":"levelo://app?vid=cb1e2b1c-f8d7-4cb8-aaa2-00d5e7f3fd54"},"vehicle_type_id":"4","last_reported":1736950066,"current_range_meters":38800,"station_id":"ce4bhq92rcd13ifvqhjg","pricing_plan_id":"cebpf4jnsgd1na2vs0mg"},{"bike_id":"190659af-f5e3-4f89-9ea3-55480b891b0a","system_id":"levelo_inurba_marseille","lat":43.27564,"lon":5.3842,"is_reserved":false,"is_disabled":false,"rental_uris":{"android":"levelo://app?vid=190659af-f5e3-4f89-9ea3-55480b891b0a","ios":"levelo://app?vid=190659af-f5e3-4f89-9ea3-55480b891b0a"},"vehicle_type_id":"4","last_reported":1736950066,"current_range_meters":19200,"station_id":"ce4bhh92rcd13ifvqfi0","pricing_plan_id":"cebpf4jnsgd1na2vs0mg"},{"bike_id":"489255cf-6ef8-4acc-9a59-3fc2634d71c8","system_id":"levelo_inurba_marseille","lat":43.26557,"lon":5.3729,"is_reserved":false,"is_disabled":false,"rental_uris":{"android":"levelo://app?vid=489255cf-6ef8-4acc-9a59-3fc2634d71c8","ios":"levelo://app?vid=489255cf-6ef8-4acc-9a59-3fc2634d71c8"},"vehicle_type_id":"4","last_reported":1736950066,"current_range_meters":33600,"station_id":"ce4bhg12rcd13ifvqf70","pricing_plan_id":"cebpf4jnsgd1na2vs0mg"},{"bike_id":"d2aee8af-446d-4d9f-9d87-83aecb2c4da0","system_id":"levelo_inurba_marseille","lat":43.23191,"lon":5.39981,"is_reserved":false,"is_disabled":false,"rental_uris":{"android":"levelo://app?vid=d2aee8af-446d-4d9f-9d87-83aecb2c4da0","ios":"levelo://app?vid=d2aee8af-446d-4d9f-9d87-83aecb2c4da0"},"vehicle_type_id":"4","last_reported":1736950066,"current_range_meters":38400,"station_id":"ce4bhn12rcd13ifvqgqg","pricing_plan_id":"cebpf4jnsgd1na2vs0mg"},{"bike_id":"17fbe066-9bc9-4967-80bc-cbe70e18d732","system_id":"levelo_inurba_marseille","lat":43.2318,"lon":5.3999,"is_reserved":false,"is_disabled":false,"rental_uris":{"android":"levelo://app?vid=17fbe066-9bc9-4967-80bc-cbe70e18d732","ios":"levelo://app?vid=17fbe066-9bc9-4967-80bc-cbe70e18d732"},"vehicle_type_id":"4","last_reported":1736950066,"current_range_meters":32800,"station_id":"ce4bhn12rcd13ifvqgqg","pricing_plan_id":"cebpf4jnsgd1na2vs0mg"},{"bike_id":"8b58afa8-cd0f-41a2-a484-67a76b5a8528","system_id":"levelo_inurba_marseille","lat":43.27968,"lon":5.3874,"is_reserved":false,"is_disabled":false,"rental_uris":{"android":"levelo://app?vid=8b58afa8-cd0f-41a2-a484-67a76b5a8528","ios":"levelo://app?vid=8b58afa8-cd0f-41a2-a484-67a76b5a8528"},"vehicle_type_id":"4","last_reported":1736950066,"current_range_meters":36400,"station_id":"ce4bhg12rcd13ifvqf80","pricing_plan_id":"cebpf4jnsgd1na2vs0mg"},{"bike_id":"f1fd4be7-e793-4d12-9911-9e6f5e4ef81e","system_id":"levelo_inurba_marseille","lat":43.31487,"lon":5.37303,"is_reserved":false,"is_disabled":false,"rental_uris":{"android":"levelo://app?vid=f1fd4be7-e793-4d12-9911-9e6f5e4ef81e","ios":"levelo://app?vid=f1fd4be7-e793-4d12-9911-9e6f5e4ef81e"},"vehicle_type_id":"4","last_reported":1736950066,"current_range_meters":20400,"station_id":"ce4bgt12rcd13ifvqcd0","pricing_plan_id":"cebpf4jnsgd1na2vs0mg"},{"bike_id":"a1d7faff-5242-4f33-884d-2179ea4c9811","system_id":"levelo_inurba_marseille","lat":43.25122,"lon":5.40316,"is_reserved":false,"is_disabled":false,"rental_uris":{"android":"levelo://app?vid=a1d7faff-5242-4f33-884d-2179ea4c9811","ios":"levelo://app?vid=a1d7faff-5242-4f33-884d-2179ea4c9811"},"vehicle_type_id":"4","last_reported":1736950066,"current_range_meters":30800,"station_id":"ce4bhlh2rcd13ifvqgig","pricing_plan_id":"cebpf4jnsgd1na2vs0mg"},{"bike_id":"f15d55d3-6b0a-4ea3-b664-c2a77586c703","system_id":"levelo_inurba_marseille","lat":43.31248,"lon":5.36878,"is_reserved":false,"is_disabled":false,"rental_uris":{"android":"levelo://app?vid=f15d55d3-6b0a-4ea3-b664-c2a77586c703","ios":"levelo://app?vid=f15d55d3-6b0a-4ea3-b664-c2a77586c703"},"vehicle_type_id":"4","last_reported":1736950066,"current_range_meters":30400,"station_id":"ce4bgl92rcd13ifvqbq0","pricing_plan_id":"cebpf4jnsgd1na2vs0mg"},{"bike_id":"59e39e6e-07d2-4c0d-a96b-2eece172dc89","system_id":"levelo_inurba_marseille","lat":43.26213,"lon":5.37437,"is_reserved":false,"is_disabled":true,"rental_uris":{"android":"levelo://app?vid=59e39e6e-07d2-4c0d-a96b-2eece172dc89","ios":"levelo://app?vid=59e39e6e-07d2-4c0d-a96b-2eece172dc89"},"vehicle_type_id":"4","last_reported":1736950066,"current_range_meters":38400,"station_id":"ce4bhgp2rcd13ifvqfc0","pricing_plan_id":"cebpf4jnsgd1na2vs0mg"},{"bike_id":"685a7f88-d28b-4dd7-a290-b13b24decd47","system_id":"levelo_inurba_marseille","lat":43.25723,"lon":5.41115,"is_reserved":false,"is_disabled":false,"rental_uris":{"android":"levelo://app?vid=685a7f88-d28b-4dd7-a290-b13b24decd47","ios":"levelo://app?vid=685a7f88-d28b-4dd7-a290-b13b24decd47"},"vehicle_type_id":"4","last_reported":1736950066,"current_range_meters":17600,"station_id":"ce4bhkp2rcd13ifvqgd0","pricing_plan_id":"cebpf4jnsgd1na2vs0mg"},{"bike_id":"0f2fc33a-dd07-43b0-a263-065a69bf42ea","system_id":"levelo_inurba_marseille","lat":43.26077,"lon":5.39388,"is_reserved":false,"is_disabled":false,"rental_uris":{"android":"levelo://app?vid=0f2fc33a-dd07-43b0-a263-065a69bf42ea","ios":"levelo://app?vid=0f2fc33a-dd07-43b0-a263-065a69bf42ea"},"vehicle_type_id":"4","last_reported":1736950066,"current_range_meters":38400,"station_id":"ce4bhh92rcd13ifvqfj0","pricing_plan_id":"cebpf4jnsgd1na2vs0mg"},{"bike_id":"e244918c-eee4-486c-8b77-df4ce1861dcd","system_id":"levelo_inurba_marseille","lat":43.27665,"lon":5.38928,"is_reserved":false,"is_disabled":false,"rental_uris":{"android":"levelo://app?vid=e244918c-eee4-486c-8b77-df4ce1861dcd","ios":"levelo://app?vid=e244918c-eee4-486c-8b77-df4ce1861dcd"},"vehicle_type_id":"4","last_reported":1736950066,"current_range_meters":3600,"station_id":"ce4bhi12rcd13ifvqfo0","pricing_plan_id":"cebpf4jnsgd1na2vs0mg"},{"bike_id":"aa37f7b6-9be1-42e3-b91d-8e9e14f63651","system_id":"levelo_inurba_marseille","lat":43.27951,"lon":5.41045,"is_reserved":false,"is_disabled":false,"rental_uris":{"android":"levelo://app?vid=aa37f7b6-9be1-42e3-b91d-8e9e14f63651","ios":"levelo://app?vid=aa37f7b6-9be1-42e3-b91d-8e9e14f63651"},"vehicle_type_id":"4","last_reported":1736950066,"current_range_meters":32000,"station_id":"ce4bhnp2rcd13ifvqh0g","pricing_plan_id":"cebpf4jnsgd1na2vs0mg"},{"bike_id":"a2acbd59-835d-49a5-be65-bf1391599127","system_id":"levelo_inurba_marseille","lat":43.25934,"lon":5.40905,"is_reserved":false,"is_disabled":false,"rental_uris":{"android":"levelo://app?vid=a2acbd59-835d-49a5-be65-bf1391599127","ios":"levelo://app?vid=a2acbd59-835d-49a5-be65-bf1391599127"},"vehicle_type_id":"4","last_reported":1736950066,"current_range_meters":17200,"station_id":"ce4bhm92rcd13ifvqglg","pricing_plan_id":"cebpf4jnsgd1na2vs0mg"},{"bike_id":"fd297d36-9d5e-45fb-aad1-93e529c9029a","system_id":"levelo_inurba_marseille","lat":43.313622,"lon":5.385102,"is_reserved":false,"is_disabled":false,"rental_uris":{"android":"levelo://app?vid=fd297d36-9d5e-45fb-aad1-93e529c9029a","ios":"levelo://app?vid=fd297d36-9d5e-45fb-aad1-93e529c9029a"},"vehicle_type_id":"4","last_reported":1736950066,"current_range_meters":34800,"station_id":"ce4bgt92rcd13ifvqcf0","pricing_plan_id":"cebpf4jnsgd1na2vs0mg"},{"bike_id":"7b2751da-c371-44e2-98c9-6eeeee6b9d45","system_id":"levelo_inurba_marseille","lat":43.25934,"lon":5.40893,"is_reserved":false,"is_disabled":false,"rental_uris":{"android":"levelo://app?vid=7b2751da-c371-44e2-98c9-6eeeee6b9d45","ios":"levelo://app?vid=7b2751da-c371-44e2-98c9-6eeeee6b9d45"},"vehicle_type_id":"4","last_reported":1736950066,"current_range_meters":32000,"station_id":"ce4bhm92rcd13ifvqglg","pricing_plan_id":"cebpf4jnsgd1na2vs0mg"},{"bike_id":"73c49789-f682-4291-b183-cd469bff96fa","system_id":"levelo_inurba_marseille","lat":43.23149,"lon":5.43708,"is_reserved":false,"is_disabled":false,"rental_uris":{"android":"levelo://app?vid=73c49789-f682-4291-b183-cd469bff96fa","ios":"levelo://app?vid=73c49789-f682-4291-b183-cd469bff96fa"},"vehicle_type_id":"4","last_reported":1736950066,"current_range_meters":38800,"station_id":"ce4bhmp2rcd13ifvqgog","pricing_plan_id":"cebpf4jnsgd1na2vs0mg"},{"bike_id":"4fda0037-5dc9-4260-b28a-69c626e19ed4","system_id":"levelo_inurba_marseille","lat":43.30541,"lon":5.3655,"is_reserved":false,"is_disabled":false,"rental_uris":{"android":"levelo://app?vid=4fda0037-5dc9-4260-b28a-69c626e19ed4","ios":"levelo://app?vid=4fda0037-5dc9-4260-b28a-69c626e19ed4"},"vehicle_type_id":"4","last_reported":1736950066,"current_range_meters":39200,"station_id":"ce4bgs12rcd13ifvqcag","pricing_plan_id":"cebpf4jnsgd1na2vs0mg"},{"bike_id":"c2c82788-b202-470d-b586-64fe34685b7b","system_id":"levelo_inurba_marseille","lat":43.304321,"lon":5.388991,"is_reserved":false,"is_disabled":false,"rental_uris":{"android":"levelo://app?vid=c2c82788-b202-470d-b586-64fe34685b7b","ios":"levelo://app?vid=c2c82788-b202-470d-b586-64fe34685b7b"},"vehicle_type_id":"4","last_reported":1736950066,"current_range_meters":38800,"station_id":"ce4bgk12rcd13ifvqbi0","pricing_plan_id":"cebpf4jnsgd1na2vs0mg"},{"bike_id":"4fcc1908-dbb1-4637-a5c7-041abdcb6bdd","system_id":"levelo_inurba_marseille","lat":43.30566,"lon":5.36523,"is_reserved":false,"is_disabled":false,"rental_uris":{"android":"levelo://app?vid=4fcc1908-dbb1-4637-a5c7-041abdcb6bdd","ios":"levelo://app?vid=4fcc1908-dbb1-4637-a5c7-041abdcb6bdd"},"vehicle_type_id":"4","last_reported":1736950066,"current_range_meters":37600,"station_id":"ce4bgs12rcd13ifvqcag","pricing_plan_id":"cebpf4jnsgd1na2vs0mg"},{"bike_id":"8e1700e2-2825-47f3-9373-6fc227095b7d","system_id":"levelo_inurba_marseille","lat":43.24165,"lon":5.36414,"is_reserved":false,"is_disabled":false,"rental_uris":{"android":"levelo://app?vid=8e1700e2-2825-47f3-9373-6fc227095b7d","ios":"levelo://app?vid=8e1700e2-2825-47f3-9373-6fc227095b7d"},"vehicle_type_id":"4","last_reported":1736950066,"current_range_meters":36400,"station_id":"cpo36qri1sfpv3e86is0","pricing_plan_id":"cebpf4jnsgd1na2vs0mg"},{"bike_id":"f0a5246f-a04e-4913-a007-7b1de0fa333b","system_id":"levelo_inurba_marseille","lat":43.3125,"lon":5.36857,"is_reserved":false,"is_disabled":false,"rental_uris":{"android":"levelo://app?vid=f0a5246f-a04e-4913-a007-7b1de0fa333b","ios":"levelo://app?vid=f0a5246f-a04e-4913-a007-7b1de0fa333b"},"vehicle_type_id":"4","last_reported":1736950066,"current_range_meters":36400,"station_id":"ce4bgl92rcd13ifvqbq0","pricing_plan_id":"cebpf4jnsgd1na2vs0mg"},{"bike_id":"5258efc2-c8fc-49b2-81a1-c5ad52c1bb9f","system_id":"levelo_inurba_marseille","lat":43.31493,"lon":5.3732,"is_reserved":false,"is_disabled":false,"rental_uris":{"android":"levelo://app?vid=5258efc2-c8fc-49b2-81a1-c5ad52c1bb9f","ios":"levelo://app?vid=5258efc2-c8fc-49b2-81a1-c5ad52c1bb9f"},"vehicle_type_id":"4","last_reported":1736950066,"current_range_meters":39200,"station_id":"ce4bgt12rcd13ifvqcd0","pricing_plan_id":"cebpf4jnsgd1na2vs0mg"},{"bike_id":"4a4d296c-e71a-4d73-8515-0b49a9079d8d","system_id":"levelo_inurba_marseille","lat":43.24564,"lon":5.3957,"is_reserved":false,"is_disabled":false,"rental_uris":{"android":"levelo://app?vid=4a4d296c-e71a-4d73-8515-0b49a9079d8d","ios":"levelo://app?vid=4a4d296c-e71a-4d73-8515-0b49a9079d8d"},"vehicle_type_id":"4","last_reported":1736950066,"current_range_meters":38800,"station_id":"","pricing_plan_id":"cebpf4jnsgd1na2vs0mg"},{"bike_id":"f6f6a71b-b625-4020-bff4-8a83c993b7b7","system_id":"levelo_inurba_marseille","lat":43.31485,"lon":5.37303,"is_reserved":false,"is_disabled":false,"rental_uris":{"android":"levelo://app?vid=f6f6a71b-b625-4020-bff4-8a83c993b7b7","ios":"levelo://app?vid=f6f6a71b-b625-4020-bff4-8a83c993b7b7"},"vehicle_type_id":"4","last_reported":1736950066,"current_range_meters":38800,"station_id":"ce4bgt12rcd13ifvqcd0","pricing_plan_id":"cebpf4jnsgd1na2vs0mg"},{"bike_id":"e1359080-73ad-4c1a-aaa4-a3ab493e3535","system_id":"levelo_inurba_marseille","lat":43.2984,"lon":5.36265,"is_reserved":false,"is_disabled":false,"rental_uris":{"android":"levelo://app?vid=e1359080-73ad-4c1a-aaa4-a3ab493e3535","ios":"levelo://app?vid=e1359080-73ad-4c1a-aaa4-a3ab493e3535"},"vehicle_type_id":"4","last_reported":1736950066,"current_range_meters":38000,"station_id":"ce4bgpp2rcd13ifvqc3g","pricing_plan_id":"cebpf4jnsgd1na2vs0mg"},{"bike_id":"d28c64db-672d-4dc2-9aa8-36d7327fadae","system_id":"levelo_inurba_marseille","lat":43.31443,"lon":5.37439,"is_reserved":false,"is_disabled":false,"rental_uris":{"android":"levelo://app?vid=d28c64db-672d-4dc2-9aa8-36d7327fadae","ios":"levelo://app?vid=d28c64db-672d-4dc2-9aa8-36d7327fadae"},"vehicle_type_id":"4","last_reported":1736950066,"current_range_meters":8000,"station_id":"","pricing_plan_id":"cebpf4jnsgd1na2vs0mg"},{"bike_id":"b438a536-2826-455d-89c2-219747efc24e","system_id":"levelo_inurba_marseille","lat":43.27368,"lon":5.36259,"is_reserved":false,"is_disabled":false,"rental_uris":{"android":"levelo://app?vid=b438a536-2826-455d-89c2-219747efc24e","ios":"levelo://app?vid=b438a536-2826-455d-89c2-219747efc24e"},"vehicle_type_id":"4","last_reported":1736950066,"current_range_meters":39200,"station_id":"ce4bhbh2rcd13ifvqeo0","pricing_plan_id":"cebpf4jnsgd1na2vs0mg"},{"bike_id":"6027163c-6e0b-44a2-bfed-3a477a83b455","system_id":"levelo_inurba_marseille","lat":43.317,"lon":5.37777,"is_reserved":false,"is_disabled":true,"rental_uris":{"android":"levelo://app?vid=6027163c-6e0b-44a2-bfed-3a477a83b455","ios":"levelo://app?vid=6027163c-6e0b-44a2-bfed-3a477a83b455"},"vehicle_type_id":"4","last_reported":1736950066,"current_range_meters":39200,"station_id":"ce4bgth2rcd13ifvqch0","pricing_plan_id":"cebpf4jnsgd1na2vs0mg"},{"bike_id":"6d7035bc-03fb-481d-bb1e-5df61a4e2711","system_id":"levelo_inurba_marseille","lat":43.255,"lon":5.3765,"is_reserved":false,"is_disabled":false,"rental_uris":{"android":"levelo://app?vid=6d7035bc-03fb-481d-bb1e-5df61a4e2711","ios":"levelo://app?vid=6d7035bc-03fb-481d-bb1e-5df61a4e2711"},"vehicle_type_id":"4","last_reported":1736950066,"current_range_meters":30800,"station_id":"ce4bhh12rcd13ifvqff0","pricing_plan_id":"cebpf4jnsgd1na2vs0mg"},{"bike_id":"2f583df8-7c5b-472c-a0c7-fb2c4c603593","system_id":"levelo_inurba_marseille","lat":43.29549,"lon":5.42275,"is_reserved":false,"is_disabled":true,"rental_uris":{"android":"levelo://app?vid=2f583df8-7c5b-472c-a0c7-fb2c4c603593","ios":"levelo://app?vid=2f583df8-7c5b-472c-a0c7-fb2c4c603593"},"vehicle_type_id":"4","last_reported":1736950066,"current_range_meters":1200,"station_id":"ce4bhph2rcd13ifvqhdg","pricing_plan_id":"cebpf4jnsgd1na2vs0mg"},{"bike_id":"43658d22-5851-4bed-b9db-5bf39a816d3e","system_id":"levelo_inurba_marseille","lat":43.30329,"lon":5.4044,"is_reserved":false,"is_disabled":false,"rental_uris":{"android":"levelo://app?vid=43658d22-5851-4bed-b9db-5bf39a816d3e","ios":"levelo://app?vid=43658d22-5851-4bed-b9db-5bf39a816d3e"},"vehicle_type_id":"4","last_reported":1736950066,"current_range_meters":36800,"station_id":"ce4bh012rcd13ifvqd10","pricing_plan_id":"cebpf4jnsgd1na2vs0mg"},