{"last_updated":1779036205,"ttl":60,"version":"2.2","data":{"bikes":[{"bike_id":"50f8de8d-976c-4d0f-bd1d-20dbc035547b","system_id":"levelo_inurba_marseille","lat":43.28357,"lon":5.38104,"is_reserved":false,"is_disabled":false,"rental_uris":{"android":"levelo://app?vid=50f8de8d-976c-4d0f-bd1d-20dbc035547b","ios":"levelo://app?vid=50f8de8d-976c-4d0f-bd1d-20dbc035547b"},"vehicle_type_id":"4","last_reported":1779036205,"current_range_meters":2800,"station_id":"ce4bh412rcd13ifvqdr0","pricing_plan_id":"cebpf4jnsgd1na2vs0mg"},{"bike_id":"968627c9-5ed5-4834-903e-e48bd218c4f7","system_id":"levelo_inurba_marseille","lat":43.25085,"lon":5.39521,"is_reserved":false,"is_disabled":false,"rental_uris":{"android":"levelo://app?vid=968627c9-5ed5-4834-903e-e48bd218c4f7","ios":"levelo://app?vid=968627c9-5ed5-4834-903e-e48bd218c4f7"},"vehicle_type_id":"4","last_reported":1779036205,"current_range_meters":2800,"station_id":"ce4bhm12rcd13ifvqgkg","pricing_plan_id":"cebpf4jnsgd1na2vs0mg"},{"bike_id":"83395a78-e9e9-4d05-b914-9cab090a7e41","system_id":"levelo_inurba_marseille","lat":43.22572,"lon":5.41633,"is_reserved":false,"is_disabled":false,"rental_uris":{"android":"levelo://app?vid=83395a78-e9e9-4d05-b914-9cab090a7e41","ios":"levelo://app?vid=83395a78-e9e9-4d05-b914-9cab090a7e41"},"vehicle_type_id":"4","last_reported":1779036205,"current_range_meters":2800,"station_id":"st_d2o4gvlbi1j2169b742g","pricing_plan_id":"cebpf4jnsgd1na2vs0mg"},{"bike_id":"6a76c813-ff6e-4cfd-83a4-741f655c0e1f","system_id":"levelo_inurba_marseille","lat":43.29082,"lon":5.37132,"is_reserved":false,"is_disabled":false,"rental_uris":{"android":"levelo://app?vid=6a76c813-ff6e-4cfd-83a4-741f655c0e1f","ios":"levelo://app?vid=6a76c813-ff6e-4cfd-83a4-741f655c0e1f"},"vehicle_type_id":"4","last_reported":1779036205,"current_range_meters":2800,"station_id":"ce4bh5p2rcd13ifvqe4g","pricing_plan_id":"cebpf4jnsgd1na2vs0mg"},{"bike_id":"ac143135-2dce-4572-9a85-18bed40976dc","system_id":"levelo_inurba_marseille","lat":43.23971,"lon":5.36635,"is_reserved":false,"is_disabled":false,"rental_uris":{"android":"levelo://app?vid=ac143135-2dce-4572-9a85-18bed40976dc","ios":"levelo://app?vid=ac143135-2dce-4572-9a85-18bed40976dc"},"vehicle_type_id":"4","last_reported":1779036205,"current_range_meters":2800,"station_id":"ce4bhi12rcd13ifvqfp0","pricing_plan_id":"cebpf4jnsgd1na2vs0mg"},{"bike_id":"addb8ae3-1522-4c4d-bb26-10534369a0b4","system_id":"levelo_inurba_marseille","lat":43.27933,"lon":5.38691,"is_reserved":false,"is_disabled":false,"rental_uris":{"android":"levelo://app?vid=addb8ae3-1522-4c4d-bb26-10534369a0b4","ios":"levelo://app?vid=addb8ae3-1522-4c4d-bb26-10534369a0b4"},"vehicle_type_id":"4","last_reported":1779036205,"current_range_meters":2800,"station_id":"ce4bhg12rcd13ifvqf80","pricing_plan_id":"cebpf4jnsgd1na2vs0mg"},{"bike_id":"aeb873e5-8b9f-4ca8-b4f2-6d92791622cb","system_id":"levelo_inurba_marseille","lat":43.29899,"lon":5.38897,"is_reserved":false,"is_disabled":false,"rental_uris":{"android":"levelo://app?vid=aeb873e5-8b9f-4ca8-b4f2-6d92791622cb","ios":"levelo://app?vid=aeb873e5-8b9f-4ca8-b4f2-6d92791622cb"},"vehicle_type_id":"4","last_reported":1779036205,"current_range_meters":2800,"station_id":"ce4bh392rcd13ifvqdl0","pricing_plan_id":"cebpf4jnsgd1na2vs0mg"},{"bike_id":"b43502c3-f0ae-4f17-ab07-9790ef8bb80d","system_id":"levelo_inurba_marseille","lat":43.2466,"lon":5.38888,"is_reserved":false,"is_disabled":false,"rental_uris":{"android":"levelo://app?vid=b43502c3-f0ae-4f17-ab07-9790ef8bb80d","ios":"levelo://app?vid=b43502c3-f0ae-4f17-ab07-9790ef8bb80d"},"vehicle_type_id":"4","last_reported":1779036205,"current_range_meters":2800,"station_id":"ce4bhg12rcd13ifvqf60","pricing_plan_id":"cebpf4jnsgd1na2vs0mg"},{"bike_id":"d0107dff-3f78-4e5a-bf56-3720637f190f","system_id":"levelo_inurba_marseille","lat":43.28456,"lon":5.35895,"is_reserved":false,"is_disabled":false,"rental_uris":{"android":"levelo://app?vid=d0107dff-3f78-4e5a-bf56-3720637f190f","ios":"levelo://app?vid=d0107dff-3f78-4e5a-bf56-3720637f190f"},"vehicle_type_id":"4","last_reported":1779036205,"current_range_meters":2800,"station_id":"ce4bhah2rcd13ifvqei0","pricing_plan_id":"cebpf4jnsgd1na2vs0mg"},{"bike_id":"d765a3c5-25bb-45bc-8d49-490dda71da9d","system_id":"levelo_inurba_marseille","lat":43.2519,"lon":5.37503,"is_reserved":false,"is_disabled":false,"rental_uris":{"android":"levelo://app?vid=d765a3c5-25bb-45bc-8d49-490dda71da9d","ios":"levelo://app?vid=d765a3c5-25bb-45bc-8d49-490dda71da9d"},"vehicle_type_id":"4","last_reported":1779036205,"current_range_meters":2800,"station_id":"","pricing_plan_id":"cebpf4jnsgd1na2vs0mg"},{"bike_id":"1fae0a8a-d80d-482c-8435-8c215d283107","system_id":"levelo_inurba_marseille","lat":43.28718,"lon":5.37951,"is_reserved":false,"is_disabled":false,"rental_uris":{"android":"levelo://app?vid=1fae0a8a-d80d-482c-8435-8c215d283107","ios":"levelo://app?vid=1fae0a8a-d80d-482c-8435-8c215d283107"},"vehicle_type_id":"4","last_reported":1779036205,"current_range_meters":2800,"station_id":"ce4bh9p2rcd13ifvqec0","pricing_plan_id":"cebpf4jnsgd1na2vs0mg"},{"bike_id":"25729f17-e2b4-48c8-9843-a9345cd97f4e","system_id":"levelo_inurba_marseille","lat":43.28717,"lon":5.3794,"is_reserved":false,"is_disabled":false,"rental_uris":{"android":"levelo://app?vid=25729f17-e2b4-48c8-9843-a9345cd97f4e","ios":"levelo://app?vid=25729f17-e2b4-48c8-9843-a9345cd97f4e"},"vehicle_type_id":"4","last_reported":1779036205,"current_range_meters":2800,"station_id":"ce4bh9p2rcd13ifvqec0","pricing_plan_id":"cebpf4jnsgd1na2vs0mg"},{"bike_id":"bf19b0b6-2abd-4cc7-8495-1655e5dc96ec","system_id":"levelo_inurba_marseille","lat":43.2417,"lon":5.3973,"is_reserved":false,"is_disabled":false,"rental_uris":{"android":"levelo://app?vid=bf19b0b6-2abd-4cc7-8495-1655e5dc96ec","ios":"levelo://app?vid=bf19b0b6-2abd-4cc7-8495-1655e5dc96ec"},"vehicle_type_id":"4","last_reported":1779036205,"current_range_meters":2800,"station_id":"ce4bhn12rcd13ifvqgpg","pricing_plan_id":"cebpf4jnsgd1na2vs0mg"},{"bike_id":"d1c1fead-fe04-4196-9748-3f6e20a96633","system_id":"levelo_inurba_marseille","lat":43.27581,"lon":5.36115,"is_reserved":false,"is_disabled":true,"rental_uris":{"android":"levelo://app?vid=d1c1fead-fe04-4196-9748-3f6e20a96633","ios":"levelo://app?vid=d1c1fead-fe04-4196-9748-3f6e20a96633"},"vehicle_type_id":"4","last_reported":1779036205,"current_range_meters":3200,"station_id":"ce4bgj92rcd13ifvqbe0","pricing_plan_id":"cebpf4jnsgd1na2vs0mg"},{"bike_id":"91663ed4-d04a-416b-87bb-7356255a0cef","system_id":"levelo_inurba_marseille","lat":43.21753,"lon":5.346,"is_reserved":false,"is_disabled":false,"rental_uris":{"android":"levelo://app?vid=91663ed4-d04a-416b-87bb-7356255a0cef","ios":"levelo://app?vid=91663ed4-d04a-416b-87bb-7356255a0cef"},"vehicle_type_id":"4","last_reported":1779036205,"current_range_meters":3200,"station_id":"st_cvj6r9ubvosntc0bgbag","pricing_plan_id":"cebpf4jnsgd1na2vs0mg"},{"bike_id":"123c63a6-b081-46b1-9079-48833e6310a5","system_id":"levelo_inurba_marseille","lat":43.24812,"lon":5.37449,"is_reserved":false,"is_disabled":false,"rental_uris":{"android":"levelo://app?vid=123c63a6-b081-46b1-9079-48833e6310a5","ios":"levelo://app?vid=123c63a6-b081-46b1-9079-48833e6310a5"},"vehicle_type_id":"4","last_reported":1779036205,"current_range_meters":3200,"station_id":"ce4bhgh2rcd13ifvqfb0","pricing_plan_id":"cebpf4jnsgd1na2vs0mg"},{"bike_id":"754801e1-a83c-4a7b-934a-210994a36623","system_id":"levelo_inurba_marseille","lat":43.2657,"lon":5.39008,"is_reserved":false,"is_disabled":false,"rental_uris":{"android":"levelo://app?vid=754801e1-a83c-4a7b-934a-210994a36623","ios":"levelo://app?vid=754801e1-a83c-4a7b-934a-210994a36623"},"vehicle_type_id":"4","last_reported":1779036205,"current_range_meters":3200,"station_id":"ce4bhe12rcd13ifvqf30","pricing_plan_id":"cebpf4jnsgd1na2vs0mg"},{"bike_id":"185df8b4-a70a-4038-be4b-654032a148cc","system_id":"levelo_inurba_marseille","lat":43.26952,"lon":5.38638,"is_reserved":false,"is_disabled":false,"rental_uris":{"android":"levelo://app?vid=185df8b4-a70a-4038-be4b-654032a148cc","ios":"levelo://app?vid=185df8b4-a70a-4038-be4b-654032a148cc"},"vehicle_type_id":"4","last_reported":1779036205,"current_range_meters":3200,"station_id":"ce4bhh92rcd13ifvqfh0","pricing_plan_id":"cebpf4jnsgd1na2vs0mg"},{"bike_id":"bffa2715-2a39-482a-a3f9-4abe122b7ddf","system_id":"levelo_inurba_marseille","lat":43.212,"lon":5.35079,"is_reserved":false,"is_disabled":false,"rental_uris":{"android":"levelo://app?vid=bffa2715-2a39-482a-a3f9-4abe122b7ddf","ios":"levelo://app?vid=bffa2715-2a39-482a-a3f9-4abe122b7ddf"},"vehicle_type_id":"4","last_reported":1779036205,"current_range_meters":3200,"station_id":"st_cvj6sg6p6f1abm77japg","pricing_plan_id":"cebpf4jnsgd1na2vs0mg"},{"bike_id":"4e5c40bd-7bd5-413f-88f8-7aa6b5d562cd","system_id":"levelo_inurba_marseille","lat":43.299227,"lon":5.365559,"is_reserved":false,"is_disabled":false,"rental_uris":{"android":"levelo://app?vid=4e5c40bd-7bd5-413f-88f8-7aa6b5d562cd","ios":"levelo://app?vid=4e5c40bd-7bd5-413f-88f8-7aa6b5d562cd"},"vehicle_type_id":"4","last_reported":1779036205,"current_range_meters":3200,"station_id":"ce4bgm92rcd13ifvqbr0","pricing_plan_id":"cebpf4jnsgd1na2vs0mg"},{"bike_id":"c4df9a32-2c02-41b7-b43b-8a5c21ed47ef","system_id":"levelo_inurba_marseille","lat":43.28693,"lon":5.4668,"is_reserved":false,"is_disabled":false,"rental_uris":{"android":"levelo://app?vid=c4df9a32-2c02-41b7-b43b-8a5c21ed47ef","ios":"levelo://app?vid=c4df9a32-2c02-41b7-b43b-8a5c21ed47ef"},"vehicle_type_id":"4","last_reported":1779036205,"current_range_meters":3200,"station_id":"st_d6tc3vkotcvc738tfjhg","pricing_plan_id":"cebpf4jnsgd1na2vs0mg"},{"bike_id":"454f6a56-bd78-45d3-a830-65d016fa90f7","system_id":"levelo_inurba_marseille","lat":43.2944,"lon":5.3865,"is_reserved":false,"is_disabled":false,"rental_uris":{"android":"levelo://app?vid=454f6a56-bd78-45d3-a830-65d016fa90f7","ios":"levelo://app?vid=454f6a56-bd78-45d3-a830-65d016fa90f7"},"vehicle_type_id":"4","last_reported":1779036205,"current_range_meters":3200,"station_id":"","pricing_plan_id":"cebpf4jnsgd1na2vs0mg"},{"bike_id":"98451b2e-8ed9-4862-bb3b-e42cd121a982","system_id":"levelo_inurba_marseille","lat":43.29709,"lon":5.36605,"is_reserved":false,"is_disabled":false,"rental_uris":{"android":"levelo://app?vid=98451b2e-8ed9-4862-bb3b-e42cd121a982","ios":"levelo://app?vid=98451b2e-8ed9-4862-bb3b-e42cd121a982"},"vehicle_type_id":"4","last_reported":1779036205,"current_range_meters":3200,"station_id":"ce4bgn12rcd13ifvqbt0","pricing_plan_id":"cebpf4jnsgd1na2vs0mg"},{"bike_id":"d34e4908-c104-47b0-b3a9-d0187ab32b7e","system_id":"levelo_inurba_marseille","lat":43.260267,"lon":5.375484,"is_reserved":false,"is_disabled":false,"rental_uris":{"android":"levelo://app?vid=d34e4908-c104-47b0-b3a9-d0187ab32b7e","ios":"levelo://app?vid=d34e4908-c104-47b0-b3a9-d0187ab32b7e"},"vehicle_type_id":"4","last_reported":1779036205,"current_range_meters":3200,"station_id":"ce4bhgh2rcd13ifvqfa0","pricing_plan_id":"cebpf4jnsgd1na2vs0mg"},{"bike_id":"3686cd93-ca6b-490b-8851-66fb19f1cbc1","system_id":"levelo_inurba_marseille","lat":43.27217,"lon":5.39189,"is_reserved":false,"is_disabled":false,"rental_uris":{"android":"levelo://app?vid=3686cd93-ca6b-490b-8851-66fb19f1cbc1","ios":"levelo://app?vid=3686cd93-ca6b-490b-8851-66fb19f1cbc1"},"vehicle_type_id":"4","last_reported":1779036205,"current_range_meters":3200,"station_id":"ce4bhhp2rcd13ifvqfm0","pricing_plan_id":"cebpf4jnsgd1na2vs0mg"},{"bike_id":"7f436857-a226-47e2-9915-31d31bf1a844","system_id":"levelo_inurba_marseille","lat":43.30179,"lon":5.38698,"is_reserved":false,"is_disabled":false,"rental_uris":{"android":"levelo://app?vid=7f436857-a226-47e2-9915-31d31bf1a844","ios":"levelo://app?vid=7f436857-a226-47e2-9915-31d31bf1a844"},"vehicle_type_id":"4","last_reported":1779036205,"current_range_meters":3200,"station_id":"","pricing_plan_id":"cebpf4jnsgd1na2vs0mg"},{"bike_id":"1964ea9a-220d-4f06-a161-da7d7b0032c7","system_id":"levelo_inurba_marseille","lat":43.2722,"lon":5.39165,"is_reserved":false,"is_disabled":false,"rental_uris":{"android":"levelo://app?vid=1964ea9a-220d-4f06-a161-da7d7b0032c7","ios":"levelo://app?vid=1964ea9a-220d-4f06-a161-da7d7b0032c7"},"vehicle_type_id":"4","last_reported":1779036205,"current_range_meters":3600,"station_id":"ce4bhhp2rcd13ifvqfm0","pricing_plan_id":"cebpf4jnsgd1na2vs0mg"},{"bike_id":"ab869954-75c9-4ce0-91af-b0e811bbc3c2","system_id":"levelo_inurba_marseille","lat":43.26929,"lon":5.40246,"is_reserved":false,"is_disabled":false,"rental_uris":{"android":"levelo://app?vid=ab869954-75c9-4ce0-91af-b0e811bbc3c2","ios":"levelo://app?vid=ab869954-75c9-4ce0-91af-b0e811bbc3c2"},"vehicle_type_id":"4","last_reported":1779036205,"current_range_meters":3600,"station_id":"cjm6bp8fraef2m0cb0m0","pricing_plan_id":"cebpf4jnsgd1na2vs0mg"},{"bike_id":"751cf57f-0d7d-46e4-acc0-711e0d03d079","system_id":"levelo_inurba_marseille","lat":43.26216,"lon":5.37436,"is_reserved":false,"is_disabled":false,"rental_uris":{"android":"levelo://app?vid=751cf57f-0d7d-46e4-acc0-711e0d03d079","ios":"levelo://app?vid=751cf57f-0d7d-46e4-acc0-711e0d03d079"},"vehicle_type_id":"4","last_reported":1779036205,"current_range_meters":3600,"station_id":"ce4bhgp2rcd13ifvqfc0","pricing_plan_id":"cebpf4jnsgd1na2vs0mg"},{"bike_id":"45416c1e-83b2-4dd3-a46f-a2d8eb08a267","system_id":"levelo_inurba_marseille","lat":43.29703,"lon":5.3769,"is_reserved":false,"is_disabled":true,"rental_uris":{"android":"levelo://app?vid=45416c1e-83b2-4dd3-a46f-a2d8eb08a267","ios":"levelo://app?vid=45416c1e-83b2-4dd3-a46f-a2d8eb08a267"},"vehicle_type_id":"4","last_reported":1779036205,"current_range_meters":3600,"station_id":"ce4bgkh2rcd13ifvqbl0","pricing_plan_id":"cebpf4jnsgd1na2vs0mg"},{"bike_id":"3b12bd5e-e1a8-4bad-971d-90fc9a5d6737","system_id":"levelo_inurba_marseille","lat":43.24813,"lon":5.37436,"is_reserved":false,"is_disabled":false,"rental_uris":{"android":"levelo://app?vid=3b12bd5e-e1a8-4bad-971d-90fc9a5d6737","ios":"levelo://app?vid=3b12bd5e-e1a8-4bad-971d-90fc9a5d6737"},"vehicle_type_id":"4","last_reported":1779036205,"current_range_meters":3600,"station_id":"ce4bhgh2rcd13ifvqfb0","pricing_plan_id":"cebpf4jnsgd1na2vs0mg"},{"bike_id":"197c93b8-3e23-4d0a-b55b-cd47be18bad4","system_id":"levelo_inurba_marseille","lat":43.27219,"lon":5.39172,"is_reserved":false,"is_disabled":false,"rental_uris":{"android":"levelo://app?vid=197c93b8-3e23-4d0a-b55b-cd47be18bad4","ios":"levelo://app?vid=197c93b8-3e23-4d0a-b55b-cd47be18bad4"},"vehicle_type_id":"4","last_reported":1779036205,"current_range_meters":3600,"station_id":"ce4bhhp2rcd13ifvqfm0","pricing_plan_id":"cebpf4jnsgd1na2vs0mg"},{"bike_id":"61c9b49a-b7a7-4944-b1ef-ae7b4f3816eb","system_id":"levelo_inurba_marseille","lat":43.28599,"lon":5.36402,"is_reserved":false,"is_disabled":false,"rental_uris":{"android":"levelo://app?vid=61c9b49a-b7a7-4944-b1ef-ae7b4f3816eb","ios":"levelo://app?vid=61c9b49a-b7a7-4944-b1ef-ae7b4f3816eb"},"vehicle_type_id":"4","last_reported":1779036205,"current_range_meters":3600,"station_id":"","pricing_plan_id":"cebpf4jnsgd1na2vs0mg"},{"bike_id":"1fcf1fe6-3a5b-42d2-bfcf-8d013b2941cc","system_id":"levelo_inurba_marseille","lat":43.33539,"lon":5.37458,"is_reserved":false,"is_disabled":false,"rental_uris":{"android":"levelo://app?vid=1fcf1fe6-3a5b-42d2-bfcf-8d013b2941cc","ios":"levelo://app?vid=1fcf1fe6-3a5b-42d2-bfcf-8d013b2941cc"},"vehicle_type_id":"4","last_reported":1779036205,"current_range_meters":3600,"station_id":"st_d46tts09ee8s73dlu43g","pricing_plan_id":"cebpf4jnsgd1na2vs0mg"},{"bike_id":"1f739346-4ae4-4ed7-afef-9ecf0ab6914e","system_id":"levelo_inurba_marseille","lat":43.25506,"lon":5.37652,"is_reserved":false,"is_disabled":true,"rental_uris":{"android":"levelo://app?vid=1f739346-4ae4-4ed7-afef-9ecf0ab6914e","ios":"levelo://app?vid=1f739346-4ae4-4ed7-afef-9ecf0ab6914e"},"vehicle_type_id":"4","last_reported":1779036205,"current_range_meters":3600,"station_id":"ce4bhh12rcd13ifvqff0","pricing_plan_id":"cebpf4jnsgd1na2vs0mg"},{"bike_id":"bf3f2887-505f-4d7c-b9ec-de77e1b530c9","system_id":"levelo_inurba_marseille","lat":43.27944,"lon":5.41044,"is_reserved":false,"is_disabled":false,"rental_uris":{"android":"levelo://app?vid=bf3f2887-505f-4d7c-b9ec-de77e1b530c9","ios":"levelo://app?vid=bf3f2887-505f-4d7c-b9ec-de77e1b530c9"},"vehicle_type_id":"4","last_reported":1779036205,"current_range_meters":3600,"station_id":"ce4bhnp2rcd13ifvqh0g","pricing_plan_id":"cebpf4jnsgd1na2vs0mg"},{"bike_id":"d712c6ad-51f6-437c-9555-6695df650f1e","system_id":"levelo_inurba_marseille","lat":43.31898,"lon":5.36803,"is_reserved":false,"is_disabled":false,"rental_uris":{"android":"levelo://app?vid=d712c6ad-51f6-437c-9555-6695df650f1e","ios":"levelo://app?vid=d712c6ad-51f6-437c-9555-6695df650f1e"},"vehicle_type_id":"4","last_reported":1779036205,"current_range_meters":3600,"station_id":"st_d6o2h0d0559c73evc1b0","pricing_plan_id":"cebpf4jnsgd1na2vs0mg"},{"bike_id":"eea3795e-b3ce-4b0f-a023-35543be6aad7","system_id":"levelo_inurba_marseille","lat":43.29604,"lon":5.3773,"is_reserved":false,"is_disabled":false,"rental_uris":{"android":"levelo://app?vid=eea3795e-b3ce-4b0f-a023-35543be6aad7","ios":"levelo://app?vid=eea3795e-b3ce-4b0f-a023-35543be6aad7"},"vehicle_type_id":"4","last_reported":1779036205,"current_range_meters":3600,"station_id":"ce4bgi92rcd13ifvqb90","pricing_plan_id":"cebpf4jnsgd1na2vs0mg"},{"bike_id":"6d646e98-b4e6-4229-940f-9c736a0942fc","system_id":"levelo_inurba_marseille","lat":43.26939,"lon":5.40247,"is_reserved":false,"is_disabled":false,"rental_uris":{"android":"levelo://app?vid=6d646e98-b4e6-4229-940f-9c736a0942fc","ios":"levelo://app?vid=6d646e98-b4e6-4229-940f-9c736a0942fc"},"vehicle_type_id":"4","last_reported":1779036205,"current_range_meters":3600,"station_id":"cjm6bp8fraef2m0cb0m0","pricing_plan_id":"cebpf4jnsgd1na2vs0mg"},{"bike_id":"6398db5f-59a0-4df8-bdc6-2bc76217ec0f","system_id":"levelo_inurba_marseille","lat":43.2885,"lon":5.39313,"is_reserved":false,"is_disabled":false,"rental_uris":{"android":"levelo://app?vid=6398db5f-59a0-4df8-bdc6-2bc76217ec0f","ios":"levelo://app?vid=6398db5f-59a0-4df8-bdc6-2bc76217ec0f"},"vehicle_type_id":"4","last_reported":1779036205,"current_range_meters":4000,"station_id":"ce4bh2p2rcd13ifvqdi0","pricing_plan_id":"cebpf4jnsgd1na2vs0mg"},{"bike_id":"0eec5137-cd05-4421-87a9-fdebbdb1c0f9","system_id":"levelo_inurba_marseille","lat":43.33547,"lon":5.37459,"is_reserved":false,"is_disabled":false,"rental_uris":{"android":"levelo://app?vid=0eec5137-cd05-4421-87a9-fdebbdb1c0f9","ios":"levelo://app?vid=0eec5137-cd05-4421-87a9-fdebbdb1c0f9"},"vehicle_type_id":"4","last_reported":1779036205,"current_range_meters":4000,"station_id":"st_d46tts09ee8s73dlu43g","pricing_plan_id":"cebpf4jnsgd1na2vs0mg"},{"bike_id":"74c5a63b-2f80-4bb3-9618-e60d8f59c76b","system_id":"levelo_inurba_marseille","lat":43.28709,"lon":5.4669,"is_reserved":false,"is_disabled":false,"rental_uris":{"android":"levelo://app?vid=74c5a63b-2f80-4bb3-9618-e60d8f59c76b","ios":"levelo://app?vid=74c5a63b-2f80-4bb3-9618-e60d8f59c76b"},"vehicle_type_id":"4","last_reported":1779036205,"current_range_meters":4000,"station_id":"st_d6tc3vkotcvc738tfjhg","pricing_plan_id":"cebpf4jnsgd1na2vs0mg"},{"bike_id":"cc4d3a9f-820b-4968-b146-a1e09c7d7b0c","system_id":"levelo_inurba_marseille","lat":43.25091,"lon":5.39506,"is_reserved":false,"is_disabled":false,"rental_uris":{"android":"levelo://app?vid=cc4d3a9f-820b-4968-b146-a1e09c7d7b0c","ios":"levelo://app?vid=cc4d3a9f-820b-4968-b146-a1e09c7d7b0c"},"vehicle_type_id":"4","last_reported":1779036205,"current_range_meters":4000,"station_id":"ce4bhm12rcd13ifvqgkg","pricing_plan_id":"cebpf4jnsgd1na2vs0mg"},{"bike_id":"99d7866e-fa7f-4a02-916e-f324ea057ea4","system_id":"levelo_inurba_marseille","lat":43.24778,"lon":5.37449,"is_reserved":false,"is_disabled":false,"rental_uris":{"android":"levelo://app?vid=99d7866e-fa7f-4a02-916e-f324ea057ea4","ios":"levelo://app?vid=99d7866e-fa7f-4a02-916e-f324ea057ea4"},"vehicle_type_id":"4","last_reported":1779036205,"current_range_meters":4000,"station_id":"ce4bhgh2rcd13ifvqfb0","pricing_plan_id":"cebpf4jnsgd1na2vs0mg"},{"bike_id":"084a15e1-5253-46ae-abb0-2123f63032d9","system_id":"levelo_inurba_marseille","lat":43.27644,"lon":5.41384,"is_reserved":false,"is_disabled":false,"rental_uris":{"android":"levelo://app?vid=084a15e1-5253-46ae-abb0-2123f63032d9","ios":"levelo://app?vid=084a15e1-5253-46ae-abb0-2123f63032d9"},"vehicle_type_id":"4","last_reported":1779036205,"current_range_meters":4000,"station_id":"","pricing_plan_id":"cebpf4jnsgd1na2vs0mg"},{"bike_id":"d43c2591-91dd-43fc-ac51-30b75b96220c","system_id":"levelo_inurba_marseille","lat":43.225326,"lon":5.34833,"is_reserved":false,"is_disabled":false,"rental_uris":{"android":"levelo://app?vid=d43c2591-91dd-43fc-ac51-30b75b96220c","ios":"levelo://app?vid=d43c2591-91dd-43fc-ac51-30b75b96220c"},"vehicle_type_id":"4","last_reported":1779036205,"current_range_meters":4000,"station_id":"st_cvj5dfep6f1abm77gieg","pricing_plan_id":"cebpf4jnsgd1na2vs0mg"},{"bike_id":"4d6ea699-e98c-41af-9fc1-791c357ab3d6","system_id":"levelo_inurba_marseille","lat":43.30461,"lon":5.37913,"is_reserved":false,"is_disabled":false,"rental_uris":{"android":"levelo://app?vid=4d6ea699-e98c-41af-9fc1-791c357ab3d6","ios":"levelo://app?vid=4d6ea699-e98c-41af-9fc1-791c357ab3d6"},"vehicle_type_id":"4","last_reported":1779036205,"current_range_meters":4000,"station_id":"ce4bgup2rcd13ifvqcn0","pricing_plan_id":"cebpf4jnsgd1na2vs0mg"},{"bike_id":"ddc3bf1a-99f5-4794-a812-95dc9e2e165b","system_id":"levelo_inurba_marseille","lat":43.23897,"lon":5.37464,"is_reserved":false,"is_disabled":true,"rental_uris":{"android":"levelo://app?vid=ddc3bf1a-99f5-4794-a812-95dc9e2e165b","ios":"levelo://app?vid=ddc3bf1a-99f5-4794-a812-95dc9e2e165b"},"vehicle_type_id":"4","last_reported":1779036205,"current_range_meters":4000,"station_id":"st_d6sm7csbq4hs73f8fpjg","pricing_plan_id":"cebpf4jnsgd1na2vs0mg"},{"bike_id":"745e5c03-61e2-43ba-8a12-c02f8816de13","system_id":"levelo_inurba_marseille","lat":43.21215,"lon":5.34985,"is_reserved":false,"is_disabled":false,"rental_uris":{"android":"levelo://app?vid=745e5c03-61e2-43ba-8a12-c02f8816de13","ios":"levelo://app?vid=745e5c03-61e2-43ba-8a12-c02f8816de13"},"vehicle_type_id":"4","last_reported":1779036205,"current_range_meters":4000,"station_id":"","pricing_plan_id":"cebpf4jnsgd1na2vs0mg"},{"bike_id":"ddbdd3a8-44aa-42d4-bb01-44f8fbd9b486","system_id":"levelo_inurba_marseille","lat":43.290336,"lon":5.3864,"is_reserved":false,"is_disabled":false,"rental_uris":{"android":"levelo://app?vid=ddbdd3a8-44aa-42d4-bb01-44f8fbd9b486","ios":"levelo://app?vid=ddbdd3a8-44aa-42d4-bb01-44f8fbd9b486"},"vehicle_type_id":"4","last_reported":1779036205,"current_range_meters":4000,"station_id":"ce4bh4p2rcd13ifvqe0g","pricing_plan_id":"cebpf4jnsgd1na2vs0mg"},{"bike_id":"8396cec4-0d34-4d94-a454-895e6c420ef9","system_id":"levelo_inurba_marseille","lat":43.26589,"lon":5.39027,"is_reserved":false,"is_disabled":true,"rental_uris":{"android":"levelo://app?vid=8396cec4-0d34-4d94-a454-895e6c420ef9","ios":"levelo://app?vid=8396cec4-0d34-4d94-a454-895e6c420ef9"},"vehicle_type_id":"4","last_reported":1779036205,"current_range_meters":4000,"station_id":"ce4bhe12rcd13ifvqf30","pricing_plan_id":"cebpf4jnsgd1na2vs0mg"},{"bike_id":"8112da1c-b03d-49ad-91fa-d38c5c1a2c58","system_id":"levelo_inurba_marseille","lat":43.26225,"lon":5.37437,"is_reserved":false,"is_disabled":false,"rental_uris":{"android":"levelo://app?vid=8112da1c-b03d-49ad-91fa-d38c5c1a2c58","ios":"levelo://app?vid=8112da1c-b03d-49ad-91fa-d38c5c1a2c58"},"vehicle_type_id":"4","last_reported":1779036205,"current_range_meters":4000,"station_id":"","pricing_plan_id":"cebpf4jnsgd1na2vs0mg"},{"bike_id":"84a343c7-92c0-42ee-869d-43310954b8b1","system_id":"levelo_inurba_marseille","lat":43.225281,"lon":5.348366,"is_reserved":false,"is_disabled":true,"rental_uris":{"android":"levelo://app?vid=84a343c7-92c0-42ee-869d-43310954b8b1","ios":"levelo://app?vid=84a343c7-92c0-42ee-869d-43310954b8b1"},"vehicle_type_id":"4","last_reported":1779036205,"current_range_meters":4000,"station_id":"st_cvj5dfep6f1abm77gieg","pricing_plan_id":"cebpf4jnsgd1na2vs0mg"},{"bike_id":"6c2000d6-446d-407f-9c51-7f605fa9a7bc","system_id":"levelo_inurba_marseille","lat":43.31713,"lon":5.43705,"is_reserved":false,"is_disabled":false,"rental_uris":{"android":"levelo://app?vid=6c2000d6-446d-407f-9c51-7f605fa9a7bc","ios":"levelo://app?vid=6c2000d6-446d-407f-9c51-7f605fa9a7bc"},"vehicle_type_id":"4","last_reported":1779036205,"current_range_meters":4000,"station_id":"ce4bhp92rcd13ifvqhcg","pricing_plan_id":"cebpf4jnsgd1na2vs0mg"},{"bike_id":"314ed82b-0e0d-4385-be6c-0a511711d36f","system_id":"levelo_inurba_marseille","lat":43.27496,"lon":5.42443,"is_reserved":false,"is_disabled":false,"rental_uris":{"android":"levelo://app?vid=314ed82b-0e0d-4385-be6c-0a511711d36f","ios":"levelo://app?vid=314ed82b-0e0d-4385-be6c-0a511711d36f"},"vehicle_type_id":"4","last_reported":1779036205,"current_range_meters":4000,"station_id":"ce4bhn92rcd13ifvqgrg","pricing_plan_id":"cebpf4jnsgd1na2vs0mg"},{"bike_id":"12592ed2-a202-4898-ae40-928d7a075107","system_id":"levelo_inurba_marseille","lat":43.30418,"lon":5.39758,"is_reserved":false,"is_disabled":false,"rental_uris":{"android":"levelo://app?vid=12592ed2-a202-4898-ae40-928d7a075107","ios":"levelo://app?vid=12592ed2-a202-4898-ae40-928d7a075107"},"vehicle_type_id":"4","last_reported":1779036205,"current_range_meters":4000,"station_id":"ce4bh092rcd13ifvqd20","pricing_plan_id":"cebpf4jnsgd1na2vs0mg"},{"bike_id":"a637258b-f7ca-4517-aa48-7e338bee49ef","system_id":"levelo_inurba_marseille","lat":43.3042,"lon":5.38884,"is_reserved":false,"is_disabled":false,"rental_uris":{"android":"levelo://app?vid=a637258b-f7ca-4517-aa48-7e338bee49ef","ios":"levelo://app?vid=a637258b-f7ca-4517-aa48-7e338bee49ef"},"vehicle_type_id":"4","last_reported":1779036205,"current_range_meters":4000,"station_id":"ce4bgk12rcd13ifvqbi0","pricing_plan_id":"cebpf4jnsgd1na2vs0mg"},{"bike_id":"efec0f5e-de3c-4d58-bd6a-818ef4098bac","system_id":"levelo_inurba_marseille","lat":43.25588,"lon":5.38236,"is_reserved":false,"is_disabled":false,"rental_uris":{"android":"levelo://app?vid=efec0f5e-de3c-4d58-bd6a-818ef4098bac","ios":"levelo://app?vid=efec0f5e-de3c-4d58-bd6a-818ef4098bac"},"vehicle_type_id":"4","last_reported":1779036205,"current_range_meters":4400,"station_id":"ce4bhih2rcd13ifvqfs0","pricing_plan_id":"cebpf4jnsgd1na2vs0mg"},{"bike_id":"e21e19db-59df-42d7-b22f-d64fa7f835d0","system_id":"levelo_inurba_marseille","lat":43.21183,"lon":5.35081,"is_reserved":false,"is_disabled":false,"rental_uris":{"android":"levelo://app?vid=e21e19db-59df-42d7-b22f-d64fa7f835d0","ios":"levelo://app?vid=e21e19db-59df-42d7-b22f-d64fa7f835d0"},"vehicle_type_id":"4","last_reported":1779036205,"current_range_meters":4400,"station_id":"st_cvj6sg6p6f1abm77japg","pricing_plan_id":"cebpf4jnsgd1na2vs0mg"},{"bike_id":"1ec12642-728f-4af7-9b5e-69b35826fc34","system_id":"levelo_inurba_marseille","lat":43.27034,"lon":5.38751,"is_reserved":false,"is_disabled":false,"rental_uris":{"android":"levelo://app?vid=1ec12642-728f-4af7-9b5e-69b35826fc34","ios":"levelo://app?vid=1ec12642-728f-4af7-9b5e-69b35826fc34"},"vehicle_type_id":"4","last_reported":1779036205,"current_range_meters":4400,"station_id":"","pricing_plan_id":"cebpf4jnsgd1na2vs0mg"},{"bike_id":"5a316ea6-734d-4336-855b-514e65f52c3f","system_id":"levelo_inurba_marseille","lat":43.24432,"lon":5.42527,"is_reserved":false,"is_disabled":false,"rental_uris":{"android":"levelo://app?vid=5a316ea6-734d-4336-855b-514e65f52c3f","ios":"levelo://app?vid=5a316ea6-734d-4336-855b-514e65f52c3f"},"vehicle_type_id":"4","last_reported":1779036205,"current_range_meters":4400,"station_id":"st_d4a3vfp97mjs738cd8kg","pricing_plan_id":"cebpf4jnsgd1na2vs0mg"},{"bike_id":"c4213db6-d80a-458c-896d-c0f83a19c9e5","system_id":"levelo_inurba_marseille","lat":43.26026,"lon":5.3754,"is_reserved":false,"is_disabled":true,"rental_uris":{"android":"levelo://app?vid=c4213db6-d80a-458c-896d-c0f83a19c9e5","ios":"levelo://app?vid=c4213db6-d80a-458c-896d-c0f83a19c9e5"},"vehicle_type_id":"4","last_reported":1779036205,"current_range_meters":4400,"station_id":"ce4bhgh2rcd13ifvqfa0","pricing_plan_id":"cebpf4jnsgd1na2vs0mg"},{"bike_id":"3ef48343-c9f3-458c-9fc1-b3c1efd77be5","system_id":"levelo_inurba_marseille","lat":43.2319,"lon":5.35552,"is_reserved":false,"is_disabled":false,"rental_uris":{"android":"levelo://app?vid=3ef48343-c9f3-458c-9fc1-b3c1efd77be5","ios":"levelo://app?vid=3ef48343-c9f3-458c-9fc1-b3c1efd77be5"},"vehicle_type_id":"4","last_reported":1779036205,"current_range_meters":4400,"station_id":"ce4bhu92rcd13ifvqi70","pricing_plan_id":"cebpf4jnsgd1na2vs0mg"},{"bike_id":"3a554f90-86fd-43e8-b5c8-44324e24dd38","system_id":"levelo_inurba_marseille","lat":43.296163,"lon":5.377139,"is_reserved":false,"is_disabled":false,"rental_uris":{"android":"levelo://app?vid=3a554f90-86fd-43e8-b5c8-44324e24dd38","ios":"levelo://app?vid=3a554f90-86fd-43e8-b5c8-44324e24dd38"},"vehicle_type_id":"4","last_reported":1779036205,"current_range_meters":4400,"station_id":"ce4bgi92rcd13ifvqb90","pricing_plan_id":"cebpf4jnsgd1na2vs0mg"},{"bike_id":"6a3c5a30-41cf-4a31-b315-b47587b402b2","system_id":"levelo_inurba_marseille","lat":43.21195,"lon":5.35076,"is_reserved":false,"is_disabled":false,"rental_uris":{"android":"levelo://app?vid=6a3c5a30-41cf-4a31-b315-b47587b402b2","ios":"levelo://app?vid=6a3c5a30-41cf-4a31-b315-b47587b402b2"},"vehicle_type_id":"4","last_reported":1779036205,"current_range_meters":4400,"station_id":"st_cvj6sg6p6f1abm77japg","pricing_plan_id":"cebpf4jnsgd1na2vs0mg"},{"bike_id":"21b0bd8f-21b6-460e-92a7-f93f16f3939a","system_id":"levelo_inurba_marseille","lat":43.30302,"lon":5.39213,"is_reserved":false,"is_disabled":true,"rental_uris":{"android":"levelo://app?vid=21b0bd8f-21b6-460e-92a7-f93f16f3939a","ios":"levelo://app?vid=21b0bd8f-21b6-460e-92a7-f93f16f3939a"},"vehicle_type_id":"4","last_reported":1779036205,"current_range_meters":4400,"station_id":"ce4bgkh2rcd13ifvqbk0","pricing_plan_id":"cebpf4jnsgd1na2vs0mg"},{"bike_id":"eec41002-0186-481d-aa7e-30c5854ebc2d","system_id":"levelo_inurba_marseille","lat":43.30508,"lon":5.36701,"is_reserved":false,"is_disabled":false,"rental_uris":{"android":"levelo://app?vid=eec41002-0186-481d-aa7e-30c5854ebc2d","ios":"levelo://app?vid=eec41002-0186-481d-aa7e-30c5854ebc2d"},"vehicle_type_id":"4","last_reported":1779036205,"current_range_meters":4400,"station_id":"ce4bgrp2rcd13ifvqc9g","pricing_plan_id":"cebpf4jnsgd1na2vs0mg"},{"bike_id":"fcfbaa59-ce32-42ed-9b12-f4e06295f40f","system_id":"levelo_inurba_marseille","lat":43.31921,"lon":5.40729,"is_reserved":false,"is_disabled":true,"rental_uris":{"android":"levelo://app?vid=fcfbaa59-ce32-42ed-9b12-f4e06295f40f","ios":"levelo://app?vid=fcfbaa59-ce32-42ed-9b12-f4e06295f40f"},"vehicle_type_id":"4","last_reported":1779036205,"current_range_meters":4400,"station_id":"ce4bhq12rcd13ifvqhig","pricing_plan_id":"cebpf4jnsgd1na2vs0mg"},{"bike_id":"1e04d863-123a-4cc1-a4a2-24a2cd7ad9e8","system_id":"levelo_inurba_marseille","lat":43.28987,"lon":5.37819,"is_reserved":false,"is_disabled":false,"rental_uris":{"android":"levelo://app?vid=1e04d863-123a-4cc1-a4a2-24a2cd7ad9e8","ios":"levelo://app?vid=1e04d863-123a-4cc1-a4a2-24a2cd7ad9e8"},"vehicle_type_id":"4","last_reported":1779036205,"current_range_meters":4400,"station_id":"ce4bh9p2rcd13ifvqed0","pricing_plan_id":"cebpf4jnsgd1na2vs0mg"},{"bike_id":"3d255066-3672-4abc-8926-1d102d197142","system_id":"levelo_inurba_marseille","lat":43.31068,"lon":5.37155,"is_reserved":false,"is_disabled":false,"rental_uris":{"android":"levelo://app?vid=3d255066-3672-4abc-8926-1d102d197142","ios":"levelo://app?vid=3d255066-3672-4abc-8926-1d102d197142"},"vehicle_type_id":"4","last_reported":1779036205,"current_range_meters":4400,"station_id":"st_d4kl2rp97mjs73e7tdfg","pricing_plan_id":"cebpf4jnsgd1na2vs0mg"},{"bike_id":"7018d291-db24-4937-bdb6-7a5e0d410594","system_id":"levelo_inurba_marseille","lat":43.23057,"lon":5.35496,"is_reserved":false,"is_disabled":false,"rental_uris":{"android":"levelo://app?vid=7018d291-db24-4937-bdb6-7a5e0d410594","ios":"levelo://app?vid=7018d291-db24-4937-bdb6-7a5e0d410594"},"vehicle_type_id":"4","last_reported":1779036205,"current_range_meters":4800,"station_id":"cpo3342slgdg3j2ifvpg","pricing_plan_id":"cebpf4jnsgd1na2vs0mg"},{"bike_id":"2bda3d52-eb88-438c-a8f8-3ab51be2eac2","system_id":"levelo_inurba_marseille","lat":43.31712,"lon":5.40459,"is_reserved":false,"is_disabled":false,"rental_uris":{"android":"levelo://app?vid=2bda3d52-eb88-438c-a8f8-3ab51be2eac2","ios":"levelo://app?vid=2bda3d52-eb88-438c-a8f8-3ab51be2eac2"},"vehicle_type_id":"4","last_reported":1779036205,"current_range_meters":4800,"station_id":"ce4bh012rcd13ifvqd00","pricing_plan_id":"cebpf4jnsgd1na2vs0mg"},{"bike_id":"edbc47ff-3ed4-48c3-afcd-a3384172f684","system_id":"levelo_inurba_marseille","lat":43.29933,"lon":5.36557,"is_reserved":false,"is_disabled":false,"rental_uris":{"android":"levelo://app?vid=edbc47ff-3ed4-48c3-afcd-a3384172f684","ios":"levelo://app?vid=edbc47ff-3ed4-48c3-afcd-a3384172f684"},"vehicle_type_id":"4","last_reported":1779036205,"current_range_meters":4800,"station_id":"ce4bgm92rcd13ifvqbr0","pricing_plan_id":"cebpf4jnsgd1na2vs0mg"},{"bike_id":"96282728-8c30-4705-9f44-b996a4ed3664","system_id":"levelo_inurba_marseille","lat":43.27835,"lon":5.39202,"is_reserved":false,"is_disabled":true,"rental_uris":{"android":"levelo://app?vid=96282728-8c30-4705-9f44-b996a4ed3664","ios":"levelo://app?vid=96282728-8c30-4705-9f44-b996a4ed3664"},"vehicle_type_id":"4","last_reported":1779036205,"current_range_meters":4800,"station_id":"ce4bhjp2rcd13ifvqga0","pricing_plan_id":"cebpf4jnsgd1na2vs0mg"},{"bike_id":"2b39fe83-dc4f-402f-a609-a5128922291a","system_id":"levelo_inurba_marseille","lat":43.24391,"lon":5.3707,"is_reserved":false,"is_disabled":false,"rental_uris":{"android":"levelo://app?vid=2b39fe83-dc4f-402f-a609-a5128922291a","ios":"levelo://app?vid=2b39fe83-dc4f-402f-a609-a5128922291a"},"vehicle_type_id":"4","last_reported":1779036205,"current_range_meters":4800,"station_id":"ce4bhhh2rcd13ifvqfk0","pricing_plan_id":"cebpf4jnsgd1na2vs0mg"},{"bike_id":"6ee3e468-cfc8-434d-b2d6-0dc77d01482d","system_id":"levelo_inurba_marseille","lat":43.30211,"lon":5.3947,"is_reserved":false,"is_disabled":false,"rental_uris":{"android":"levelo://app?vid=6ee3e468-cfc8-434d-b2d6-0dc77d01482d","ios":"levelo://app?vid=6ee3e468-cfc8-434d-b2d6-0dc77d01482d"},"vehicle_type_id":"4","last_reported":1779036205,"current_range_meters":4800,"station_id":"ce4bh0p2rcd13ifvqd70","pricing_plan_id":"cebpf4jnsgd1na2vs0mg"},{"bike_id":"1fd9de75-8fc6-4566-b4ca-12b503f39047","system_id":"levelo_inurba_marseille","lat":43.23877,"lon":5.37474,"is_reserved":false,"is_disabled":false,"rental_uris":{"android":"levelo://app?vid=1fd9de75-8fc6-4566-b4ca-12b503f39047","ios":"levelo://app?vid=1fd9de75-8fc6-4566-b4ca-12b503f39047"},"vehicle_type_id":"4","last_reported":1779036205,"current_range_meters":4800,"station_id":"st_d6sm7csbq4hs73f8fpjg","pricing_plan_id":"cebpf4jnsgd1na2vs0mg"},{"bike_id":"a5e73a4e-9cd7-4b8f-b2bc-6ae4162339c9","system_id":"levelo_inurba_marseille","lat":43.25117,"lon":5.39469,"is_reserved":false,"is_disabled":false,"rental_uris":{"android":"levelo://app?vid=a5e73a4e-9cd7-4b8f-b2bc-6ae4162339c9","ios":"levelo://app?vid=a5e73a4e-9cd7-4b8f-b2bc-6ae4162339c9"},"vehicle_type_id":"4","last_reported":1779036205,"current_range_meters":4800,"station_id":"ce4bhm12rcd13ifvqgkg","pricing_plan_id":"cebpf4jnsgd1na2vs0mg"},{"bike_id":"4a7bd635-a00e-4439-89eb-fbe3f4f5c61b","system_id":"levelo_inurba_marseille","lat":43.309506,"lon":5.390294,"is_reserved":false,"is_disabled":false,"rental_uris":{"android":"levelo://app?vid=4a7bd635-a00e-4439-89eb-fbe3f4f5c61b","ios":"levelo://app?vid=4a7bd635-a00e-4439-89eb-fbe3f4f5c61b"},"vehicle_type_id":"4","last_reported":1779036205,"current_range_meters":4800,"station_id":"ce4bgup2rcd13ifvqco0","pricing_plan_id":"cebpf4jnsgd1na2vs0mg"},{"bike_id":"2900ac0b-ff12-48ee-a257-0c70083c0f6a","system_id":"levelo_inurba_marseille","lat":43.24654,"lon":5.38177,"is_reserved":false,"is_disabled":false,"rental_uris":{"android":"levelo://app?vid=2900ac0b-ff12-48ee-a257-0c70083c0f6a","ios":"levelo://app?vid=2900ac0b-ff12-48ee-a257-0c70083c0f6a"},"vehicle_type_id":"4","last_reported":1779036205,"current_range_meters":4800,"station_id":"ce4bhih2rcd13ifvqfr0","pricing_plan_id":"cebpf4jnsgd1na2vs0mg"},{"bike_id":"c7234c5c-5d45-4d97-85cc-779e72ef56a5","system_id":"levelo_inurba_marseille","lat":43.29745,"lon":5.42773,"is_reserved":false,"is_disabled":false,"rental_uris":{"android":"levelo://app?vid=c7234c5c-5d45-4d97-85cc-779e72ef56a5","ios":"levelo://app?vid=c7234c5c-5d45-4d97-85cc-779e72ef56a5"},"vehicle_type_id":"4","last_reported":1779036205,"current_range_meters":4800,"station_id":"st_d3md5207bmas73dh9klg","pricing_plan_id":"cebpf4jnsgd1na2vs0mg"},{"bike_id":"b1c00839-5a8b-4a83-af96-6c0cb7235fea","system_id":"levelo_inurba_marseille","lat":43.28433,"lon":5.35004,"is_reserved":false,"is_disabled":false,"rental_uris":{"android":"levelo://app?vid=b1c00839-5a8b-4a83-af96-6c0cb7235fea","ios":"levelo://app?vid=b1c00839-5a8b-4a83-af96-6c0cb7235fea"},"vehicle_type_id":"4","last_reported":1779036205,"current_range_meters":4800,"station_id":"ce4bhbh2rcd13ifvqepg","pricing_plan_id":"cebpf4jnsgd1na2vs0mg"},{"bike_id":"6d5c12e7-ee14-431f-90a1-7d378eb9ef4e","system_id":"levelo_inurba_marseille","lat":43.240161,"lon":5.362556,"is_reserved":false,"is_disabled":false,"rental_uris":{"android":"levelo://app?vid=6d5c12e7-ee14-431f-90a1-7d378eb9ef4e","ios":"levelo://app?vid=6d5c12e7-ee14-431f-90a1-7d378eb9ef4e"},"vehicle_type_id":"4","last_reported":1779036205,"current_range_meters":4800,"station_id":"","pricing_plan_id":"cebpf4jnsgd1na2vs0mg"},{"bike_id":"d71406e8-ea8e-4a21-8d01-2aee74bbb001","system_id":"levelo_inurba_marseille","lat":43.249952,"lon":5.389289,"is_reserved":false,"is_disabled":false,"rental_uris":{"android":"levelo://app?vid=d71406e8-ea8e-4a21-8d01-2aee74bbb001","ios":"levelo://app?vid=d71406e8-ea8e-4a21-8d01-2aee74bbb001"},"vehicle_type_id":"4","last_reported":1779036205,"current_range_meters":4800,"station_id":"ce4bhgp2rcd13ifvqfd0","pricing_plan_id":"cebpf4jnsgd1na2vs0mg"},{"bike_id":"25711a43-df4e-467e-8e16-065542f02483","system_id":"levelo_inurba_marseille","lat":43.27943,"lon":5.38716,"is_reserved":false,"is_disabled":true,"rental_uris":{"android":"levelo://app?vid=25711a43-df4e-467e-8e16-065542f02483","ios":"levelo://app?vid=25711a43-df4e-467e-8e16-065542f02483"},"vehicle_type_id":"4","last_reported":1779036205,"current_range_meters":4800,"station_id":"ce4bhg12rcd13ifvqf80","pricing_plan_id":"cebpf4jnsgd1na2vs0mg"},{"bike_id":"6fdba22d-b489-49a8-aadd-8de3ab29893c","system_id":"levelo_inurba_marseille","lat":43.272064,"lon":5.391816,"is_reserved":false,"is_disabled":false,"rental_uris":{"android":"levelo://app?vid=6fdba22d-b489-49a8-aadd-8de3ab29893c","ios":"levelo://app?vid=6fdba22d-b489-49a8-aadd-8de3ab29893c"},"vehicle_type_id":"4","last_reported":1779036205,"current_range_meters":4800,"station_id":"ce4bhhp2rcd13ifvqfm0","pricing_plan_id":"cebpf4jnsgd1na2vs0mg"},{"bike_id":"b1dd7dc7-192d-48f1-80c1-27794307c003","system_id":"levelo_inurba_marseille","lat":43.26229,"lon":5.40452,"is_reserved":false,"is_disabled":false,"rental_uris":{"android":"levelo://app?vid=b1dd7dc7-192d-48f1-80c1-27794307c003","ios":"levelo://app?vid=b1dd7dc7-192d-48f1-80c1-27794307c003"},"vehicle_type_id":"4","last_reported":1779036205,"current_range_meters":4800,"station_id":"ce4bhmh2rcd13ifvqgmg","pricing_plan_id":"cebpf4jnsgd1na2vs0mg"},{"bike_id":"41b3475c-b4dc-49e0-952f-b67dbb744dfc","system_id":"levelo_inurba_marseille","lat":43.272075,"lon":5.39185,"is_reserved":false,"is_disabled":false,"rental_uris":{"android":"levelo://app?vid=41b3475c-b4dc-49e0-952f-b67dbb744dfc","ios":"levelo://app?vid=41b3475c-b4dc-49e0-952f-b67dbb744dfc"},"vehicle_type_id":"4","last_reported":1779036205,"current_range_meters":4800,"station_id":"ce4bhhp2rcd13ifvqfm0","pricing_plan_id":"cebpf4jnsgd1na2vs0mg"},{"bike_id":"debcd401-caf4-427c-ab46-557da66dc721","system_id":"levelo_inurba_marseille","lat":43.29961,"lon":5.37203,"is_reserved":false,"is_disabled":false,"rental_uris":{"android":"levelo://app?vid=debcd401-caf4-427c-ab46-557da66dc721","ios":"levelo://app?vid=debcd401-caf4-427c-ab46-557da66dc721"},"vehicle_type_id":"4","last_reported":1779036205,"current_range_meters":4800,"station_id":"ce4bgr92rcd13ifvqc7g","pricing_plan_id":"cebpf4jnsgd1na2vs0mg"},{"bike_id":"8941f223-2cdc-47e6-9a22-b380fd84624b","system_id":"levelo_inurba_marseille","lat":43.26927,"lon":5.38916,"is_reserved":false,"is_disabled":false,"rental_uris":{"android":"levelo://app?vid=8941f223-2cdc-47e6-9a22-b380fd84624b","ios":"levelo://app?vid=8941f223-2cdc-47e6-9a22-b380fd84624b"},"vehicle_type_id":"4","last_reported":1779036205,"current_range_meters":4800,"station_id":"ce4bhhh2rcd13ifvqfl0","pricing_plan_id":"cebpf4jnsgd1na2vs0mg"},{"bike_id":"1272ecd4-910b-4664-ae3c-81a653670289","system_id":"levelo_inurba_marseille","lat":43.295101,"lon":5.393957,"is_reserved":false,"is_disabled":false,"rental_uris":{"android":"levelo://app?vid=1272ecd4-910b-4664-ae3c-81a653670289","ios":"levelo://app?vid=1272ecd4-910b-4664-ae3c-81a653670289"},"vehicle_type_id":"4","last_reported":1779036205,"current_range_meters":4800,"station_id":"ce4bh3h2rcd13ifvqdo0","pricing_plan_id":"cebpf4jnsgd1na2vs0mg"},{"bike_id":"6759a002-ee3e-49d0-b782-db71494e95a1","system_id":"levelo_inurba_marseille","lat":43.32537,"lon":5.41482,"is_reserved":false,"is_disabled":false,"rental_uris":{"android":"levelo://app?vid=6759a002-ee3e-49d0-b782-db71494e95a1","ios":"levelo://app?vid=6759a002-ee3e-49d0-b782-db71494e95a1"},"vehicle_type_id":"4","last_reported":1779036205,"current_range_meters":5600,"station_id":"ce4bhq12rcd13ifvqhhg","pricing_plan_id":"cebpf4jnsgd1na2vs0mg"},{"bike_id":"09adb6f3-c725-41a7-99ec-4e63ba18049e","system_id":"levelo_inurba_marseille","lat":43.30424,"lon":5.41278,"is_reserved":false,"is_disabled":false,"rental_uris":{"android":"levelo://app?vid=09adb6f3-c725-41a7-99ec-4e63ba18049e","ios":"levelo://app?vid=09adb6f3-c725-41a7-99ec-4e63ba18049e"},"vehicle_type_id":"4","last_reported":1779036205,"current_range_meters":5600,"station_id":"ce4bhop2rcd13ifvqh8g","pricing_plan_id":"cebpf4jnsgd1na2vs0mg"},{"bike_id":"022e51cb-279a-4609-b370-abe8caa13479","system_id":"levelo_inurba_marseille","lat":43.30307,"lon":5.36879,"is_reserved":false,"is_disabled":false,"rental_uris":{"android":"levelo://app?vid=022e51cb-279a-4609-b370-abe8caa13479","ios":"levelo://app?vid=022e51cb-279a-4609-b370-abe8caa13479"},"vehicle_type_id":"4","last_reported":1779036205,"current_range_meters":5600,"station_id":"ce4bgqh2rcd13ifvqc5g","pricing_plan_id":"cebpf4jnsgd1na2vs0mg"},{"bike_id":"1e65d5ae-2425-485a-89d7-529a7bb576c6","system_id":"levelo_inurba_marseille","lat":43.28406,"lon":5.34986,"is_reserved":false,"is_disabled":false,"rental_uris":{"android":"levelo://app?vid=1e65d5ae-2425-485a-89d7-529a7bb576c6","ios":"levelo://app?vid=1e65d5ae-2425-485a-89d7-529a7bb576c6"},"vehicle_type_id":"4","last_reported":1779036205,"current_range_meters":5600,"station_id":"ce4bhbh2rcd13ifvqepg","pricing_plan_id":"cebpf4jnsgd1na2vs0mg"},{"bike_id":"d8ecac28-3095-4aae-87b7-52789de452ee","system_id":"levelo_inurba_marseille","lat":43.290672,"lon":5.37572,"is_reserved":false,"is_disabled":false,"rental_uris":{"android":"levelo://app?vid=d8ecac28-3095-4aae-87b7-52789de452ee","ios":"levelo://app?vid=d8ecac28-3095-4aae-87b7-52789de452ee"},"vehicle_type_id":"4","last_reported":1779036205,"current_range_meters":5600,"station_id":"ce4bh692rcd13ifvqe90","pricing_plan_id":"cebpf4jnsgd1na2vs0mg"},{"bike_id":"5aa10e82-15c0-4d8f-8644-82d5f20cf2e3","system_id":"levelo_inurba_marseille","lat":43.24539,"lon":5.39515,"is_reserved":false,"is_disabled":true,"rental_uris":{"android":"levelo://app?vid=5aa10e82-15c0-4d8f-8644-82d5f20cf2e3","ios":"levelo://app?vid=5aa10e82-15c0-4d8f-8644-82d5f20cf2e3"},"vehicle_type_id":"4","last_reported":1779036205,"current_range_meters":5600,"station_id":"ce4bhlp2rcd13ifvqgjg","pricing_plan_id":"cebpf4jnsgd1na2vs0mg"},{"bike_id":"f62de583-1c87-47b9-88a7-41f211ddcd21","system_id":"levelo_inurba_marseille","lat":43.310457,"lon":5.371778,"is_reserved":false,"is_disabled":false,"rental_uris":{"android":"levelo://app?vid=f62de583-1c87-47b9-88a7-41f211ddcd21","ios":"levelo://app?vid=f62de583-1c87-47b9-88a7-41f211ddcd21"},"vehicle_type_id":"4","last_reported":1779036205,"current_range_meters":5600,"station_id":"st_d4kl2rp97mjs73e7tdfg","pricing_plan_id":"cebpf4jnsgd1na2vs0mg"},{"bike_id":"b5d9497a-4684-46b2-ad68-72f8937b64e0","system_id":"levelo_inurba_marseille","lat":43.23965,"lon":5.36627,"is_reserved":false,"is_disabled":false,"rental_uris":{"android":"levelo://app?vid=b5d9497a-4684-46b2-ad68-72f8937b64e0","ios":"levelo://app?vid=b5d9497a-4684-46b2-ad68-72f8937b64e0"},"vehicle_type_id":"4","last_reported":1779036205,"current_range_meters":5600,"station_id":"ce4bhi12rcd13ifvqfp0","pricing_plan_id":"cebpf4jnsgd1na2vs0mg"},{"bike_id":"d91be688-ba8f-4c74-9591-125b1291b671","system_id":"levelo_inurba_marseille","lat":43.27904,"lon":5.38013,"is_reserved":false,"is_disabled":false,"rental_uris":{"android":"levelo://app?vid=d91be688-ba8f-4c74-9591-125b1291b671","ios":"levelo://app?vid=d91be688-ba8f-4c74-9591-125b1291b671"},"vehicle_type_id":"4","last_reported":1779036205,"current_range_meters":5600,"station_id":"ce4bhf92rcd13ifvqf50","pricing_plan_id":"cebpf4jnsgd1na2vs0mg"},{"bike_id":"10d53228-fdf2-4180-8fdd-7cea3d46b9e9","system_id":"levelo_inurba_marseille","lat":43.27307,"lon":5.39069,"is_reserved":false,"is_disabled":false,"rental_uris":{"android":"levelo://app?vid=10d53228-fdf2-4180-8fdd-7cea3d46b9e9","ios":"levelo://app?vid=10d53228-fdf2-4180-8fdd-7cea3d46b9e9"},"vehicle_type_id":"4","last_reported":1779036205,"current_range_meters":5600,"station_id":"ce4bhgp2rcd13ifvqfe0","pricing_plan_id":"cebpf4jnsgd1na2vs0mg"},{"bike_id":"581202fc-90ea-41a0-936c-4361c9b945ba","system_id":"levelo_inurba_marseille","lat":43.28488,"lon":5.38437,"is_reserved":false,"is_disabled":false,"rental_uris":{"android":"levelo://app?vid=581202fc-90ea-41a0-936c-4361c9b945ba","ios":"levelo://app?vid=581202fc-90ea-41a0-936c-4361c9b945ba"},"vehicle_type_id":"4","last_reported":1779036205,"current_range_meters":5600,"station_id":"ce4bh512rcd13ifvqe3g","pricing_plan_id":"cebpf4jnsgd1na2vs0mg"},{"bike_id":"bd6a599d-2041-4ef8-8d33-0848e6a09560","system_id":"levelo_inurba_marseille","lat":43.21196,"lon":5.35078,"is_reserved":false,"is_disabled":false,"rental_uris":{"android":"levelo://app?vid=bd6a599d-2041-4ef8-8d33-0848e6a09560","ios":"levelo://app?vid=bd6a599d-2041-4ef8-8d33-0848e6a09560"},"vehicle_type_id":"4","last_reported":1779036205,"current_range_meters":5600,"station_id":"st_cvj6sg6p6f1abm77japg","pricing_plan_id":"cebpf4jnsgd1na2vs0mg"},{"bike_id":"24236d8c-e198-41dd-9bf7-a4a196011f22","system_id":"levelo_inurba_marseille","lat":43.29076,"lon":5.37156,"is_reserved":false,"is_disabled":false,"rental_uris":{"android":"levelo://app?vid=24236d8c-e198-41dd-9bf7-a4a196011f22","ios":"levelo://app?vid=24236d8c-e198-41dd-9bf7-a4a196011f22"},"vehicle_type_id":"4","last_reported":1779036205,"current_range_meters":5600,"station_id":"ce4bh5p2rcd13ifvqe4g","pricing_plan_id":"cebpf4jnsgd1na2vs0mg"},{"bike_id":"c44f5603-79c5-489c-940c-e9a03c34a576","system_id":"levelo_inurba_marseille","lat":43.26794,"lon":5.40828,"is_reserved":false,"is_disabled":false,"rental_uris":{"android":"levelo://app?vid=c44f5603-79c5-489c-940c-e9a03c34a576","ios":"levelo://app?vid=c44f5603-79c5-489c-940c-e9a03c34a576"},"vehicle_type_id":"4","last_reported":1779036205,"current_range_meters":5600,"station_id":"","pricing_plan_id":"cebpf4jnsgd1na2vs0mg"},{"bike_id":"88eca8bb-fba9-4929-86dd-f1213b380daa","system_id":"levelo_inurba_marseille","lat":43.27485,"lon":5.36266,"is_reserved":false,"is_disabled":false,"rental_uris":{"android":"levelo://app?vid=88eca8bb-fba9-4929-86dd-f1213b380daa","ios":"levelo://app?vid=88eca8bb-fba9-4929-86dd-f1213b380daa"},"vehicle_type_id":"4","last_reported":1779036205,"current_range_meters":5600,"station_id":"","pricing_plan_id":"cebpf4jnsgd1na2vs0mg"},{"bike_id":"dea9e9e1-74e5-4a5e-8b6f-a9149ad99517","system_id":"levelo_inurba_marseille","lat":43.26772,"lon":5.39421,"is_reserved":false,"is_disabled":false,"rental_uris":{"android":"levelo://app?vid=dea9e9e1-74e5-4a5e-8b6f-a9149ad99517","ios":"levelo://app?vid=dea9e9e1-74e5-4a5e-8b6f-a9149ad99517"},"vehicle_type_id":"4","last_reported":1779036205,"current_range_meters":5600,"station_id":"ce4bhh12rcd13ifvqfg0","pricing_plan_id":"cebpf4jnsgd1na2vs0mg"},{"bike_id":"174908e5-1a8a-4e75-9ffe-42c831b3d107","system_id":"levelo_inurba_marseille","lat":43.28693,"lon":5.46685,"is_reserved":false,"is_disabled":false,"rental_uris":{"android":"levelo://app?vid=174908e5-1a8a-4e75-9ffe-42c831b3d107","ios":"levelo://app?vid=174908e5-1a8a-4e75-9ffe-42c831b3d107"},"vehicle_type_id":"4","last_reported":1779036205,"current_range_meters":5600,"station_id":"st_d6tc3vkotcvc738tfjhg","pricing_plan_id":"cebpf4jnsgd1na2vs0mg"},{"bike_id":"e865a1b4-770f-44d9-a22d-44198b1912a8","system_id":"levelo_inurba_marseille","lat":43.23984,"lon":5.36605,"is_reserved":false,"is_disabled":false,"rental_uris":{"android":"levelo://app?vid=e865a1b4-770f-44d9-a22d-44198b1912a8","ios":"levelo://app?vid=e865a1b4-770f-44d9-a22d-44198b1912a8"},"vehicle_type_id":"4","last_reported":1779036205,"current_range_meters":5600,"station_id":"ce4bhi12rcd13ifvqfp0","pricing_plan_id":"cebpf4jnsgd1na2vs0mg"},{"bike_id":"c64d6a09-97d2-4f45-9210-692a5f5bdd0d","system_id":"levelo_inurba_marseille","lat":43.30313,"lon":5.40096,"is_reserved":false,"is_disabled":false,"rental_uris":{"android":"levelo://app?vid=c64d6a09-97d2-4f45-9210-692a5f5bdd0d","ios":"levelo://app?vid=c64d6a09-97d2-4f45-9210-692a5f5bdd0d"},"vehicle_type_id":"4","last_reported":1779036205,"current_range_meters":6000,"station_id":"ce4bgvh2rcd13ifvqcs0","pricing_plan_id":"cebpf4jnsgd1na2vs0mg"},{"bike_id":"55be906b-c469-4b4e-98e2-0ce0a6163e85","system_id":"levelo_inurba_marseille","lat":43.24802,"lon":5.37459,"is_reserved":false,"is_disabled":false,"rental_uris":{"android":"levelo://app?vid=55be906b-c469-4b4e-98e2-0ce0a6163e85","ios":"levelo://app?vid=55be906b-c469-4b4e-98e2-0ce0a6163e85"},"vehicle_type_id":"4","last_reported":1779036205,"current_range_meters":6000,"station_id":"ce4bhgh2rcd13ifvqfb0","pricing_plan_id":"cebpf4jnsgd1na2vs0mg"},{"bike_id":"8732f434-3b7c-4637-96d6-d5cefefac22b","system_id":"levelo_inurba_marseille","lat":43.24645,"lon":5.38892,"is_reserved":false,"is_disabled":false,"rental_uris":{"android":"levelo://app?vid=8732f434-3b7c-4637-96d6-d5cefefac22b","ios":"levelo://app?vid=8732f434-3b7c-4637-96d6-d5cefefac22b"},"vehicle_type_id":"4","last_reported":1779036205,"current_range_meters":6000,"station_id":"ce4bhg12rcd13ifvqf60","pricing_plan_id":"cebpf4jnsgd1na2vs0mg"},{"bike_id":"b80a56c5-1869-4844-9ba0-29aa8ba5fb70","system_id":"levelo_inurba_marseille","lat":43.280087,"lon":5.400096,"is_reserved":false,"is_disabled":false,"rental_uris":{"android":"levelo://app?vid=b80a56c5-1869-4844-9ba0-29aa8ba5fb70","ios":"levelo://app?vid=b80a56c5-1869-4844-9ba0-29aa8ba5fb70"},"vehicle_type_id":"4","last_reported":1779036205,"current_range_meters":6000,"station_id":"ce4bho92rcd13ifvqh4g","pricing_plan_id":"cebpf4jnsgd1na2vs0mg"},{"bike_id":"e7863ee4-5f60-423b-8817-3fb9a1063a2f","system_id":"levelo_inurba_marseille","lat":43.30214,"lon":5.36826,"is_reserved":false,"is_disabled":false,"rental_uris":{"android":"levelo://app?vid=e7863ee4-5f60-423b-8817-3fb9a1063a2f","ios":"levelo://app?vid=e7863ee4-5f60-423b-8817-3fb9a1063a2f"},"vehicle_type_id":"4","last_reported":1779036205,"current_range_meters":6000,"station_id":"","pricing_plan_id":"cebpf4jnsgd1na2vs0mg"},{"bike_id":"bd259cf5-51e4-4449-aa5d-aa733a767861","system_id":"levelo_inurba_marseille","lat":43.301399,"lon":5.374037,"is_reserved":false,"is_disabled":false,"rental_uris":{"android":"levelo://app?vid=bd259cf5-51e4-4449-aa5d-aa733a767861","ios":"levelo://app?vid=bd259cf5-51e4-4449-aa5d-aa733a767861"},"vehicle_type_id":"4","last_reported":1779036205,"current_range_meters":6000,"station_id":"ce4bgs92rcd13ifvqcc0","pricing_plan_id":"cebpf4jnsgd1na2vs0mg"},{"bike_id":"59f64eb1-92c1-4a8e-91f4-78ba5ad935c2","system_id":"levelo_inurba_marseille","lat":43.24809,"lon":5.37463,"is_reserved":false,"is_disabled":false,"rental_uris":{"android":"levelo://app?vid=59f64eb1-92c1-4a8e-91f4-78ba5ad935c2","ios":"levelo://app?vid=59f64eb1-92c1-4a8e-91f4-78ba5ad935c2"},"vehicle_type_id":"4","last_reported":1779036205,"current_range_meters":6000,"station_id":"ce4bhgh2rcd13ifvqfb0","pricing_plan_id":"cebpf4jnsgd1na2vs0mg"},{"bike_id":"53bcec8f-d1b8-402e-b8f3-a6e4cd531c14","system_id":"levelo_inurba_marseille","lat":43.21197,"lon":5.35072,"is_reserved":false,"is_disabled":false,"rental_uris":{"android":"levelo://app?vid=53bcec8f-d1b8-402e-b8f3-a6e4cd531c14","ios":"levelo://app?vid=53bcec8f-d1b8-402e-b8f3-a6e4cd531c14"},"vehicle_type_id":"4","last_reported":1779036205,"current_range_meters":6000,"station_id":"st_cvj6sg6p6f1abm77japg","pricing_plan_id":"cebpf4jnsgd1na2vs0mg"},{"bike_id":"6fcf8acc-275b-4901-b471-534112fe731a","system_id":"levelo_inurba_marseille","lat":43.30356,"lon":5.42459,"is_reserved":false,"is_disabled":false,"rental_uris":{"android":"levelo://app?vid=6fcf8acc-275b-4901-b471-534112fe731a","ios":"levelo://app?vid=6fcf8acc-275b-4901-b471-534112fe731a"},"vehicle_type_id":"4","last_reported":1779036205,"current_range_meters":6000,"station_id":"ce4bhoh2rcd13ifvqh6g","pricing_plan_id":"cebpf4jnsgd1na2vs0mg"},{"bike_id":"a40dda42-3edd-4425-ab25-e38db376426a","system_id":"levelo_inurba_marseille","lat":43.30246,"lon":5.400643,"is_reserved":false,"is_disabled":false,"rental_uris":{"android":"levelo://app?vid=a40dda42-3edd-4425-ab25-e38db376426a","ios":"levelo://app?vid=a40dda42-3edd-4425-ab25-e38db376426a"},"vehicle_type_id":"4","last_reported":1779036205,"current_range_meters":6000,"station_id":"ce4bgvh2rcd13ifvqcs0","pricing_plan_id":"cebpf4jnsgd1na2vs0mg"},{"bike_id":"fec715d1-672d-4fa1-aeeb-bdd51f957c6e","system_id":"levelo_inurba_marseille","lat":43.30908,"lon":5.36827,"is_reserved":false,"is_disabled":false,"rental_uris":{"android":"levelo://app?vid=fec715d1-672d-4fa1-aeeb-bdd51f957c6e","ios":"levelo://app?vid=fec715d1-672d-4fa1-aeeb-bdd51f957c6e"},"vehicle_type_id":"4","last_reported":1779036205,"current_range_meters":6000,"station_id":"ce4bgn92rcd13ifvqbvg","pricing_plan_id":"cebpf4jnsgd1na2vs0mg"},{"bike_id":"50480fc9-ce63-426a-afcd-2114987cece8","system_id":"levelo_inurba_marseille","lat":43.26221,"lon":5.38767,"is_reserved":false,"is_disabled":false,"rental_uris":{"android":"levelo://app?vid=50480fc9-ce63-426a-afcd-2114987cece8","ios":"levelo://app?vid=50480fc9-ce63-426a-afcd-2114987cece8"},"vehicle_type_id":"4","last_reported":1779036205,"current_range_meters":6000,"station_id":"","pricing_plan_id":"cebpf4jnsgd1na2vs0mg"},{"bike_id":"22d0e8c9-dbc4-43c8-af79-922d36d85718","system_id":"levelo_inurba_marseille","lat":43.27831,"lon":5.40633,"is_reserved":false,"is_disabled":false,"rental_uris":{"android":"levelo://app?vid=22d0e8c9-dbc4-43c8-af79-922d36d85718","ios":"levelo://app?vid=22d0e8c9-dbc4-43c8-af79-922d36d85718"},"vehicle_type_id":"4","last_reported":1779036205,"current_range_meters":6000,"station_id":"ce4bhnh2rcd13ifvqgtg","pricing_plan_id":"cebpf4jnsgd1na2vs0mg"},{"bike_id":"8900e8ab-46ae-42e1-b666-a4477f5aee9e","system_id":"levelo_inurba_marseille","lat":43.25721,"lon":5.41112,"is_reserved":false,"is_disabled":false,"rental_uris":{"android":"levelo://app?vid=8900e8ab-46ae-42e1-b666-a4477f5aee9e","ios":"levelo://app?vid=8900e8ab-46ae-42e1-b666-a4477f5aee9e"},"vehicle_type_id":"4","last_reported":1779036205,"current_range_meters":6000,"station_id":"ce4bhkp2rcd13ifvqgd0","pricing_plan_id":"cebpf4jnsgd1na2vs0mg"},{"bike_id":"6cc1ef96-a5ad-49c0-b811-23047d9343ce","system_id":"levelo_inurba_marseille","lat":43.30093,"lon":5.39082,"is_reserved":false,"is_disabled":false,"rental_uris":{"android":"levelo://app?vid=6cc1ef96-a5ad-49c0-b811-23047d9343ce","ios":"levelo://app?vid=6cc1ef96-a5ad-49c0-b811-23047d9343ce"},"vehicle_type_id":"4","last_reported":1779036205,"current_range_meters":6000,"station_id":"ce4bh192rcd13ifvqdb0","pricing_plan_id":"cebpf4jnsgd1na2vs0mg"},{"bike_id":"3b597934-0b4f-4d56-88c9-766ce7d74994","system_id":"levelo_inurba_marseille","lat":43.27368,"lon":5.36256,"is_reserved":false,"is_disabled":false,"rental_uris":{"android":"levelo://app?vid=3b597934-0b4f-4d56-88c9-766ce7d74994","ios":"levelo://app?vid=3b597934-0b4f-4d56-88c9-766ce7d74994"},"vehicle_type_id":"4","last_reported":1779036205,"current_range_meters":6400,"station_id":"ce4bhbh2rcd13ifvqeo0","pricing_plan_id":"cebpf4jnsgd1na2vs0mg"},{"bike_id":"39d7a397-3e44-43aa-8c59-d03f7a4e3b9f","system_id":"levelo_inurba_marseille","lat":43.289886,"lon":5.376135,"is_reserved":false,"is_disabled":false,"rental_uris":{"android":"levelo://app?vid=39d7a397-3e44-43aa-8c59-d03f7a4e3b9f","ios":"levelo://app?vid=39d7a397-3e44-43aa-8c59-d03f7a4e3b9f"},"vehicle_type_id":"4","last_reported":1779036205,"current_range_meters":6400,"station_id":"","pricing_plan_id":"cebpf4jnsgd1na2vs0mg"},{"bike_id":"85605534-12cb-4b8b-ae81-c18bab62a5d8","system_id":"levelo_inurba_marseille","lat":43.25202,"lon":5.37395,"is_reserved":false,"is_disabled":false,"rental_uris":{"android":"levelo://app?vid=85605534-12cb-4b8b-ae81-c18bab62a5d8","ios":"levelo://app?vid=85605534-12cb-4b8b-ae81-c18bab62a5d8"},"vehicle_type_id":"4","last_reported":1779036205,"current_range_meters":6400,"station_id":"","pricing_plan_id":"cebpf4jnsgd1na2vs0mg"},{"bike_id":"7e2f8744-20a5-4844-a745-4002e2cb05c9","system_id":"levelo_inurba_marseille","lat":43.2971,"lon":5.36609,"is_reserved":false,"is_disabled":false,"rental_uris":{"android":"levelo://app?vid=7e2f8744-20a5-4844-a745-4002e2cb05c9","ios":"levelo://app?vid=7e2f8744-20a5-4844-a745-4002e2cb05c9"},"vehicle_type_id":"4","last_reported":1779036205,"current_range_meters":6400,"station_id":"ce4bgn12rcd13ifvqbt0","pricing_plan_id":"cebpf4jnsgd1na2vs0mg"},{"bike_id":"068d39c8-a457-48e8-92f8-6a754e54b6ab","system_id":"levelo_inurba_marseille","lat":43.28435,"lon":5.34979,"is_reserved":false,"is_disabled":false,"rental_uris":{"android":"levelo://app?vid=068d39c8-a457-48e8-92f8-6a754e54b6ab","ios":"levelo://app?vid=068d39c8-a457-48e8-92f8-6a754e54b6ab"},"vehicle_type_id":"4","last_reported":1779036205,"current_range_meters":6400,"station_id":"ce4bhbh2rcd13ifvqepg","pricing_plan_id":"cebpf4jnsgd1na2vs0mg"},{"bike_id":"70307b5b-24a6-43c6-ab81-112ae3176821","system_id":"levelo_inurba_marseille","lat":43.24814,"lon":5.37462,"is_reserved":false,"is_disabled":false,"rental_uris":{"android":"levelo://app?vid=70307b5b-24a6-43c6-ab81-112ae3176821","ios":"levelo://app?vid=70307b5b-24a6-43c6-ab81-112ae3176821"},"vehicle_type_id":"4","last_reported":1779036205,"current_range_meters":6400,"station_id":"ce4bhgh2rcd13ifvqfb0","pricing_plan_id":"cebpf4jnsgd1na2vs0mg"},{"bike_id":"fa641db2-c66a-4bfe-a307-e59114bcf715","system_id":"levelo_inurba_marseille","lat":43.289274,"lon":5.383929,"is_reserved":false,"is_disabled":false,"rental_uris":{"android":"levelo://app?vid=fa641db2-c66a-4bfe-a307-e59114bcf715","ios":"levelo://app?vid=fa641db2-c66a-4bfe-a307-e59114bcf715"},"vehicle_type_id":"4","last_reported":1779036205,"current_range_meters":6400,"station_id":"ce4bh612rcd13ifvqe6g","pricing_plan_id":"cebpf4jnsgd1na2vs0mg"},{"bike_id":"580896bf-b492-43fc-8279-5562767be9d8","system_id":"levelo_inurba_marseille","lat":43.25494,"lon":5.3764,"is_reserved":false,"is_disabled":false,"rental_uris":{"android":"levelo://app?vid=580896bf-b492-43fc-8279-5562767be9d8","ios":"levelo://app?vid=580896bf-b492-43fc-8279-5562767be9d8"},"vehicle_type_id":"4","last_reported":1779036205,"current_range_meters":6400,"station_id":"ce4bhh12rcd13ifvqff0","pricing_plan_id":"cebpf4jnsgd1na2vs0mg"},{"bike_id":"d8472712-34e6-4294-a1fa-094c561be0cf","system_id":"levelo_inurba_marseille","lat":43.24936,"lon":5.3892,"is_reserved":false,"is_disabled":false,"rental_uris":{"android":"levelo://app?vid=d8472712-34e6-4294-a1fa-094c561be0cf","ios":"levelo://app?vid=d8472712-34e6-4294-a1fa-094c561be0cf"},"vehicle_type_id":"4","last_reported":1779036205,"current_range_meters":6400,"station_id":"","pricing_plan_id":"cebpf4jnsgd1na2vs0mg"},{"bike_id":"15dd6edb-d290-4a48-bace-29d9de512572","system_id":"levelo_inurba_marseille","lat":43.30126,"lon":5.43118,"is_reserved":false,"is_disabled":false,"rental_uris":{"android":"levelo://app?vid=15dd6edb-d290-4a48-bace-29d9de512572","ios":"levelo://app?vid=15dd6edb-d290-4a48-bace-29d9de512572"},"vehicle_type_id":"4","last_reported":1779036205,"current_range_meters":6400,"station_id":"st_d3js3co5814s73ftftug","pricing_plan_id":"cebpf4jnsgd1na2vs0mg"},{"bike_id":"8303a7b4-418f-48c7-b219-9635d8d57054","system_id":"levelo_inurba_marseille","lat":43.29041,"lon":5.37551,"is_reserved":false,"is_disabled":false,"rental_uris":{"android":"levelo://app?vid=8303a7b4-418f-48c7-b219-9635d8d57054","ios":"levelo://app?vid=8303a7b4-418f-48c7-b219-9635d8d57054"},"vehicle_type_id":"4","last_reported":1779036205,"current_range_meters":6400,"station_id":"ce4bh692rcd13ifvqe90","pricing_plan_id":"cebpf4jnsgd1na2vs0mg"},{"bike_id":"047ce5c5-a236-48fc-8daf-6a6ae1ed264e","system_id":"levelo_inurba_marseille","lat":43.296239,"lon":5.377137,"is_reserved":false,"is_disabled":false,"rental_uris":{"android":"levelo://app?vid=047ce5c5-a236-48fc-8daf-6a6ae1ed264e","ios":"levelo://app?vid=047ce5c5-a236-48fc-8daf-6a6ae1ed264e"},"vehicle_type_id":"4","last_reported":1779036205,"current_range_meters":6400,"station_id":"ce4bgi92rcd13ifvqb90","pricing_plan_id":"cebpf4jnsgd1na2vs0mg"},{"bike_id":"66a77d10-4302-429d-a9ee-49589f060277","system_id":"levelo_inurba_marseille","lat":43.24401,"lon":5.37039,"is_reserved":false,"is_disabled":false,"rental_uris":{"android":"levelo://app?vid=66a77d10-4302-429d-a9ee-49589f060277","ios":"levelo://app?vid=66a77d10-4302-429d-a9ee-49589f060277"},"vehicle_type_id":"4","last_reported":1779036205,"current_range_meters":6400,"station_id":"ce4bhhh2rcd13ifvqfk0","pricing_plan_id":"cebpf4jnsgd1na2vs0mg"},{"bike_id":"1dae63ef-4de2-49ef-8c70-0c66bd3e64af","system_id":"levelo_inurba_marseille","lat":43.24812,"lon":5.37443,"is_reserved":false,"is_disabled":false,"rental_uris":{"android":"levelo://app?vid=1dae63ef-4de2-49ef-8c70-0c66bd3e64af","ios":"levelo://app?vid=1dae63ef-4de2-49ef-8c70-0c66bd3e64af"},"vehicle_type_id":"4","last_reported":1779036205,"current_range_meters":6400,"station_id":"ce4bhgh2rcd13ifvqfb0","pricing_plan_id":"cebpf4jnsgd1na2vs0mg"},{"bike_id":"b6c8f0a2-a1b0-4982-9f90-1cc17f8e0f2f","system_id":"levelo_inurba_marseille","lat":43.28616,"lon":5.35107,"is_reserved":false,"is_disabled":false,"rental_uris":{"android":"levelo://app?vid=b6c8f0a2-a1b0-4982-9f90-1cc17f8e0f2f","ios":"levelo://app?vid=b6c8f0a2-a1b0-4982-9f90-1cc17f8e0f2f"},"vehicle_type_id":"4","last_reported":1779036205,"current_range_meters":6400,"station_id":"ce4bhch2rcd13ifvqeug","pricing_plan_id":"cebpf4jnsgd1na2vs0mg"},{"bike_id":"2652d5c7-a521-4404-a7e8-ae393d5045bc","system_id":"levelo_inurba_marseille","lat":43.29746,"lon":5.37115,"is_reserved":false,"is_disabled":false,"rental_uris":{"android":"levelo://app?vid=2652d5c7-a521-4404-a7e8-ae393d5045bc","ios":"levelo://app?vid=2652d5c7-a521-4404-a7e8-ae393d5045bc"},"vehicle_type_id":"4","last_reported":1779036205,"current_range_meters":6400,"station_id":"ce4bgop2rcd13ifvqc1g","pricing_plan_id":"cebpf4jnsgd1na2vs0mg"},{"bike_id":"0352eefe-467c-419c-b455-7caf64ee275f","system_id":"levelo_inurba_marseille","lat":43.31905,"lon":5.36778,"is_reserved":false,"is_disabled":false,"rental_uris":{"android":"levelo://app?vid=0352eefe-467c-419c-b455-7caf64ee275f","ios":"levelo://app?vid=0352eefe-467c-419c-b455-7caf64ee275f"},"vehicle_type_id":"4","last_reported":1779036205,"current_range_meters":6800,"station_id":"st_d6o2h0d0559c73evc1b0","pricing_plan_id":"cebpf4jnsgd1na2vs0mg"},{"bike_id":"4c973194-0cb8-4bb0-88bb-df8e8d1b722b","system_id":"levelo_inurba_marseille","lat":43.29617,"lon":5.37797,"is_reserved":false,"is_disabled":false,"rental_uris":{"android":"levelo://app?vid=4c973194-0cb8-4bb0-88bb-df8e8d1b722b","ios":"levelo://app?vid=4c973194-0cb8-4bb0-88bb-df8e8d1b722b"},"vehicle_type_id":"4","last_reported":1779036205,"current_range_meters":6800,"station_id":"","pricing_plan_id":"cebpf4jnsgd1na2vs0mg"},{"bike_id":"4dbaece0-a3ad-475d-8b05-ae022f5e7bb3","system_id":"levelo_inurba_marseille","lat":43.22557,"lon":5.41639,"is_reserved":false,"is_disabled":false,"rental_uris":{"android":"levelo://app?vid=4dbaece0-a3ad-475d-8b05-ae022f5e7bb3","ios":"levelo://app?vid=4dbaece0-a3ad-475d-8b05-ae022f5e7bb3"},"vehicle_type_id":"4","last_reported":1779036205,"current_range_meters":6800,"station_id":"st_d2o4gvlbi1j2169b742g","pricing_plan_id":"cebpf4jnsgd1na2vs0mg"},{"bike_id":"68b40e57-e116-4f10-afe9-4a48761ea86e","system_id":"levelo_inurba_marseille","lat":43.292801,"lon":5.401149,"is_reserved":false,"is_disabled":true,"rental_uris":{"android":"levelo://app?vid=68b40e57-e116-4f10-afe9-4a48761ea86e","ios":"levelo://app?vid=68b40e57-e116-4f10-afe9-4a48761ea86e"},"vehicle_type_id":"4","last_reported":1779036205,"current_range_meters":6800,"station_id":"ce4bh312rcd13ifvqdk0","pricing_plan_id":"cebpf4jnsgd1na2vs0mg"},{"bike_id":"d0e54cc1-c946-4f1d-b462-74c31199a59b","system_id":"levelo_inurba_marseille","lat":43.28868,"lon":5.42521,"is_reserved":false,"is_disabled":false,"rental_uris":{"android":"levelo://app?vid=d0e54cc1-c946-4f1d-b462-74c31199a59b","ios":"levelo://app?vid=d0e54cc1-c946-4f1d-b462-74c31199a59b"},"vehicle_type_id":"4","last_reported":1779036205,"current_range_meters":6800,"station_id":"st_d3b462108ojc7389ooeg","pricing_plan_id":"cebpf4jnsgd1na2vs0mg"},{"bike_id":"b4af981f-f721-4e28-b70c-2d8275b8d785","system_id":"levelo_inurba_marseille","lat":43.23954,"lon":5.36637,"is_reserved":false,"is_disabled":false,"rental_uris":{"android":"levelo://app?vid=b4af981f-f721-4e28-b70c-2d8275b8d785","ios":"levelo://app?vid=b4af981f-f721-4e28-b70c-2d8275b8d785"},"vehicle_type_id":"4","last_reported":1779036205,"current_range_meters":6800,"station_id":"ce4bhi12rcd13ifvqfp0","pricing_plan_id":"cebpf4jnsgd1na2vs0mg"},{"bike_id":"56c720ba-bffe-4565-baf2-dce22a3b2511","system_id":"levelo_inurba_marseille","lat":43.28265,"lon":5.35084,"is_reserved":false,"is_disabled":true,"rental_uris":{"android":"levelo://app?vid=56c720ba-bffe-4565-baf2-dce22a3b2511","ios":"levelo://app?vid=56c720ba-bffe-4565-baf2-dce22a3b2511"},"vehicle_type_id":"4","last_reported":1779036205,"current_range_meters":6800,"station_id":"ce4bhbp2rcd13ifvqerg","pricing_plan_id":"cebpf4jnsgd1na2vs0mg"},{"bike_id":"b2b27dc8-f0be-4458-a9a6-bb5a344ed6e1","system_id":"levelo_inurba_marseille","lat":43.27498,"lon":5.41603,"is_reserved":false,"is_disabled":false,"rental_uris":{"android":"levelo://app?vid=b2b27dc8-f0be-4458-a9a6-bb5a344ed6e1","ios":"levelo://app?vid=b2b27dc8-f0be-4458-a9a6-bb5a344ed6e1"},"vehicle_type_id":"4","last_reported":1779036205,"current_range_meters":6800,"station_id":"st_d6im8g6chgec73a5pndg","pricing_plan_id":"cebpf4jnsgd1na2vs0mg"},{"bike_id":"871000e2-0cb5-451a-9bc2-ec86a0102adf","system_id":"levelo_inurba_marseille","lat":43.31719,"lon":5.43705,"is_reserved":false,"is_disabled":false,"rental_uris":{"android":"levelo://app?vid=871000e2-0cb5-451a-9bc2-ec86a0102adf","ios":"levelo://app?vid=871000e2-0cb5-451a-9bc2-ec86a0102adf"},"vehicle_type_id":"4","last_reported":1779036205,"current_range_meters":6800,"station_id":"ce4bhp92rcd13ifvqhcg","pricing_plan_id":"cebpf4jnsgd1na2vs0mg"},{"bike_id":"63b8f132-7d7f-4a07-9eb4-94cf702e88c9","system_id":"levelo_inurba_marseille","lat":43.21193,"lon":5.3506,"is_reserved":false,"is_disabled":false,"rental_uris":{"android":"levelo://app?vid=63b8f132-7d7f-4a07-9eb4-94cf702e88c9","ios":"levelo://app?vid=63b8f132-7d7f-4a07-9eb4-94cf702e88c9"},"vehicle_type_id":"4","last_reported":1779036205,"current_range_meters":6800,"station_id":"st_cvj6sg6p6f1abm77japg","pricing_plan_id":"cebpf4jnsgd1na2vs0mg"},{"bike_id":"8d44d028-7a4e-4b2d-9a91-71920fe5a35d","system_id":"levelo_inurba_marseille","lat":43.21177,"lon":5.35085,"is_reserved":false,"is_disabled":false,"rental_uris":{"android":"levelo://app?vid=8d44d028-7a4e-4b2d-9a91-71920fe5a35d","ios":"levelo://app?vid=8d44d028-7a4e-4b2d-9a91-71920fe5a35d"},"vehicle_type_id":"4","last_reported":1779036205,"current_range_meters":6800,"station_id":"st_cvj6sg6p6f1abm77japg","pricing_plan_id":"cebpf4jnsgd1na2vs0mg"},{"bike_id":"4bd6cc61-2e1c-4984-a986-4585da8a6771","system_id":"levelo_inurba_marseille","lat":43.24167,"lon":5.36392,"is_reserved":false,"is_disabled":false,"rental_uris":{"android":"levelo://app?vid=4bd6cc61-2e1c-4984-a986-4585da8a6771","ios":"levelo://app?vid=4bd6cc61-2e1c-4984-a986-4585da8a6771"},"vehicle_type_id":"4","last_reported":1779036205,"current_range_meters":6800,"station_id":"cpo36qri1sfpv3e86is0","pricing_plan_id":"cebpf4jnsgd1na2vs0mg"},{"bike_id":"ad1d135c-f911-4889-bc21-1ece213c2745","system_id":"levelo_inurba_marseille","lat":43.250912,"lon":5.395248,"is_reserved":false,"is_disabled":false,"rental_uris":{"android":"levelo://app?vid=ad1d135c-f911-4889-bc21-1ece213c2745","ios":"levelo://app?vid=ad1d135c-f911-4889-bc21-1ece213c2745"},"vehicle_type_id":"4","last_reported":1779036205,"current_range_meters":6800,"station_id":"ce4bhm12rcd13ifvqgkg","pricing_plan_id":"cebpf4jnsgd1na2vs0mg"},{"bike_id":"5bd92aa3-317d-4b99-a12d-a3a6a414398c","system_id":"levelo_inurba_marseille","lat":43.24174,"lon":5.36391,"is_reserved":false,"is_disabled":false,"rental_uris":{"android":"levelo://app?vid=5bd92aa3-317d-4b99-a12d-a3a6a414398c","ios":"levelo://app?vid=5bd92aa3-317d-4b99-a12d-a3a6a414398c"},"vehicle_type_id":"4","last_reported":1779036205,"current_range_meters":6800,"station_id":"cpo36qri1sfpv3e86is0","pricing_plan_id":"cebpf4jnsgd1na2vs0mg"},{"bike_id":"914bd8a8-3824-4d9a-a167-c931d7f89b05","system_id":"levelo_inurba_marseille","lat":43.29916,"lon":5.37483,"is_reserved":false,"is_disabled":false,"rental_uris":{"android":"levelo://app?vid=914bd8a8-3824-4d9a-a167-c931d7f89b05","ios":"levelo://app?vid=914bd8a8-3824-4d9a-a167-c931d7f89b05"},"vehicle_type_id":"4","last_reported":1779036205,"current_range_meters":6800,"station_id":"ce4bgjh2rcd13ifvqbg0","pricing_plan_id":"cebpf4jnsgd1na2vs0mg"},{"bike_id":"b5850d74-a999-4714-b56b-24eefe109bce","system_id":"levelo_inurba_marseille","lat":43.30933,"lon":5.40142,"is_reserved":false,"is_disabled":false,"rental_uris":{"android":"levelo://app?vid=b5850d74-a999-4714-b56b-24eefe109bce","ios":"levelo://app?vid=b5850d74-a999-4714-b56b-24eefe109bce"},"vehicle_type_id":"4","last_reported":1779036205,"current_range_meters":6800,"station_id":"ce4bgvp2rcd13ifvqct0","pricing_plan_id":"cebpf4jnsgd1na2vs0mg"},{"bike_id":"8a1b2e51-e2db-41c9-b093-247a1a3cb14e","system_id":"levelo_inurba_marseille","lat":43.29291,"lon":5.40284,"is_reserved":false,"is_disabled":false,"rental_uris":{"android":"levelo://app?vid=8a1b2e51-e2db-41c9-b093-247a1a3cb14e","ios":"levelo://app?vid=8a1b2e51-e2db-41c9-b093-247a1a3cb14e"},"vehicle_type_id":"4","last_reported":1779036205,"current_range_meters":6800,"station_id":"","pricing_plan_id":"cebpf4jnsgd1na2vs0mg"},{"bike_id":"7bf52e93-3c4a-4f79-92b9-9d58970aba60","system_id":"levelo_inurba_marseille","lat":43.2439,"lon":5.3708,"is_reserved":false,"is_disabled":false,"rental_uris":{"android":"levelo://app?vid=7bf52e93-3c4a-4f79-92b9-9d58970aba60","ios":"levelo://app?vid=7bf52e93-3c4a-4f79-92b9-9d58970aba60"},"vehicle_type_id":"4","last_reported":1779036205,"current_range_meters":6800,"station_id":"ce4bhhh2rcd13ifvqfk0","pricing_plan_id":"cebpf4jnsgd1na2vs0mg"},{"bike_id":"54ada953-ca41-49be-806e-9398c45e74b8","system_id":"levelo_inurba_marseille","lat":43.32097,"lon":5.36779,"is_reserved":false,"is_disabled":false,"rental_uris":{"android":"levelo://app?vid=54ada953-ca41-49be-806e-9398c45e74b8","ios":"levelo://app?vid=54ada953-ca41-49be-806e-9398c45e74b8"},"vehicle_type_id":"4","last_reported":1779036205,"current_range_meters":6800,"station_id":"ce4bhrh2rcd13ifvqhug","pricing_plan_id":"cebpf4jnsgd1na2vs0mg"},{"bike_id":"7c752984-1578-4126-9f49-9ece6cdcc401","system_id":"levelo_inurba_marseille","lat":43.2557,"lon":5.38237,"is_reserved":false,"is_disabled":false,"rental_uris":{"android":"levelo://app?vid=7c752984-1578-4126-9f49-9ece6cdcc401","ios":"levelo://app?vid=7c752984-1578-4126-9f49-9ece6cdcc401"},"vehicle_type_id":"4","last_reported":1779036205,"current_range_meters":6800,"station_id":"ce4bhih2rcd13ifvqfs0","pricing_plan_id":"cebpf4jnsgd1na2vs0mg"},{"bike_id":"f92f6fcd-9c41-4496-aa8c-376bbc87dfb4","system_id":"levelo_inurba_marseille","lat":43.23892,"lon":5.37464,"is_reserved":false,"is_disabled":true,"rental_uris":{"android":"levelo://app?vid=f92f6fcd-9c41-4496-aa8c-376bbc87dfb4","ios":"levelo://app?vid=f92f6fcd-9c41-4496-aa8c-376bbc87dfb4"},"vehicle_type_id":"4","last_reported":1779036205,"current_range_meters":6800,"station_id":"st_d6sm7csbq4hs73f8fpjg","pricing_plan_id":"cebpf4jnsgd1na2vs0mg"},{"bike_id":"5f0ac283-b66a-488c-ba40-6c2784bdad69","system_id":"levelo_inurba_marseille","lat":43.29228,"lon":5.36055,"is_reserved":false,"is_disabled":false,"rental_uris":{"android":"levelo://app?vid=5f0ac283-b66a-488c-ba40-6c2784bdad69","ios":"levelo://app?vid=5f0ac283-b66a-488c-ba40-6c2784bdad69"},"vehicle_type_id":"4","last_reported":1779036205,"current_range_meters":6800,"station_id":"ce4bhbh2rcd13ifvqeqg","pricing_plan_id":"cebpf4jnsgd1na2vs0mg"},{"bike_id":"9d258fa2-38bd-432a-b389-3947c9469e02","system_id":"levelo_inurba_marseille","lat":43.28405,"lon":5.34989,"is_reserved":false,"is_disabled":false,"rental_uris":{"android":"levelo://app?vid=9d258fa2-38bd-432a-b389-3947c9469e02","ios":"levelo://app?vid=9d258fa2-38bd-432a-b389-3947c9469e02"},"vehicle_type_id":"4","last_reported":1779036205,"current_range_meters":6800,"station_id":"ce4bhbh2rcd13ifvqepg","pricing_plan_id":"cebpf4jnsgd1na2vs0mg"},{"bike_id":"03cbf105-cf6b-4651-8454-43ef533cbb5e","system_id":"levelo_inurba_marseille","lat":43.27379,"lon":5.36253,"is_reserved":false,"is_disabled":false,"rental_uris":{"android":"levelo://app?vid=03cbf105-cf6b-4651-8454-43ef533cbb5e","ios":"levelo://app?vid=03cbf105-cf6b-4651-8454-43ef533cbb5e"},"vehicle_type_id":"4","last_reported":1779036205,"current_range_meters":6800,"station_id":"ce4bhbh2rcd13ifvqeo0","pricing_plan_id":"cebpf4jnsgd1na2vs0mg"},{"bike_id":"54d168f4-082e-46e5-ae25-8c28e25db536","system_id":"levelo_inurba_marseille","lat":43.26231,"lon":5.37579,"is_reserved":false,"is_disabled":false,"rental_uris":{"android":"levelo://app?vid=54d168f4-082e-46e5-ae25-8c28e25db536","ios":"levelo://app?vid=54d168f4-082e-46e5-ae25-8c28e25db536"},"vehicle_type_id":"4","last_reported":1779036205,"current_range_meters":6800,"station_id":"","pricing_plan_id":"cebpf4jnsgd1na2vs0mg"},{"bike_id":"182f56d1-c770-4bae-bf7a-b9a3a417c54c","system_id":"levelo_inurba_marseille","lat":43.32112,"lon":5.36761,"is_reserved":false,"is_disabled":false,"rental_uris":{"android":"levelo://app?vid=182f56d1-c770-4bae-bf7a-b9a3a417c54c","ios":"levelo://app?vid=182f56d1-c770-4bae-bf7a-b9a3a417c54c"},"vehicle_type_id":"4","last_reported":1779036205,"current_range_meters":6800,"station_id":"ce4bhrh2rcd13ifvqhug","pricing_plan_id":"cebpf4jnsgd1na2vs0mg"},{"bike_id":"ba975ed5-3578-433e-9fb5-efc4d9d094e6","system_id":"levelo_inurba_marseille","lat":43.24164,"lon":5.36395,"is_reserved":false,"is_disabled":false,"rental_uris":{"android":"levelo://app?vid=ba975ed5-3578-433e-9fb5-efc4d9d094e6","ios":"levelo://app?vid=ba975ed5-3578-433e-9fb5-efc4d9d094e6"},"vehicle_type_id":"4","last_reported":1779036205,"current_range_meters":7200,"station_id":"cpo36qri1sfpv3e86is0","pricing_plan_id":"cebpf4jnsgd1na2vs0mg"},{"bike_id":"656f7c56-164d-4184-9440-28fab6d55f2d","system_id":"levelo_inurba_marseille","lat":43.24391,"lon":5.3705,"is_reserved":false,"is_disabled":false,"rental_uris":{"android":"levelo://app?vid=656f7c56-164d-4184-9440-28fab6d55f2d","ios":"levelo://app?vid=656f7c56-164d-4184-9440-28fab6d55f2d"},"vehicle_type_id":"4","last_reported":1779036205,"current_range_meters":7200,"station_id":"ce4bhhh2rcd13ifvqfk0","pricing_plan_id":"cebpf4jnsgd1na2vs0mg"},{"bike_id":"08f2f3de-09e4-4451-8c67-d915318ee445","system_id":"levelo_inurba_marseille","lat":43.2909,"lon":5.3714,"is_reserved":false,"is_disabled":true,"rental_uris":{"android":"levelo://app?vid=08f2f3de-09e4-4451-8c67-d915318ee445","ios":"levelo://app?vid=08f2f3de-09e4-4451-8c67-d915318ee445"},"vehicle_type_id":"4","last_reported":1779036205,"current_range_meters":7200,"station_id":"ce4bh5p2rcd13ifvqe4g","pricing_plan_id":"cebpf4jnsgd1na2vs0mg"},{"bike_id":"a0d48bfc-0c46-4e18-abed-54a555e2c39a","system_id":"levelo_inurba_marseille","lat":43.2795,"lon":5.38737,"is_reserved":false,"is_disabled":true,"rental_uris":{"android":"levelo://app?vid=a0d48bfc-0c46-4e18-abed-54a555e2c39a","ios":"levelo://app?vid=a0d48bfc-0c46-4e18-abed-54a555e2c39a"},"vehicle_type_id":"4","last_reported":1779036205,"current_range_meters":7200,"station_id":"ce4bhg12rcd13ifvqf80","pricing_plan_id":"cebpf4jnsgd1na2vs0mg"},{"bike_id":"d721118e-4169-4f8c-8cb7-94cd8f8380ce","system_id":"levelo_inurba_marseille","lat":43.21213,"lon":5.35052,"is_reserved":false,"is_disabled":false,"rental_uris":{"android":"levelo://app?vid=d721118e-4169-4f8c-8cb7-94cd8f8380ce","ios":"levelo://app?vid=d721118e-4169-4f8c-8cb7-94cd8f8380ce"},"vehicle_type_id":"4","last_reported":1779036205,"current_range_meters":7200,"station_id":"st_cvj6sg6p6f1abm77japg","pricing_plan_id":"cebpf4jnsgd1na2vs0mg"},{"bike_id":"bf6ef11e-a79f-44d0-b2a6-29c5f67dc201","system_id":"levelo_inurba_marseille","lat":43.24649,"lon":5.38886,"is_reserved":false,"is_disabled":false,"rental_uris":{"android":"levelo://app?vid=bf6ef11e-a79f-44d0-b2a6-29c5f67dc201","ios":"levelo://app?vid=bf6ef11e-a79f-44d0-b2a6-29c5f67dc201"},"vehicle_type_id":"4","last_reported":1779036205,"current_range_meters":7200,"station_id":"ce4bhg12rcd13ifvqf60","pricing_plan_id":"cebpf4jnsgd1na2vs0mg"},{"bike_id":"96d1b7af-f895-4490-be19-b0f3d9010d6e","system_id":"levelo_inurba_marseille","lat":43.26812,"lon":5.40261,"is_reserved":false,"is_disabled":false,"rental_uris":{"android":"levelo://app?vid=96d1b7af-f895-4490-be19-b0f3d9010d6e","ios":"levelo://app?vid=96d1b7af-f895-4490-be19-b0f3d9010d6e"},"vehicle_type_id":"4","last_reported":1779036205,"current_range_meters":7200,"station_id":"ce501612rcd8frsf0b60","pricing_plan_id":"cebpf4jnsgd1na2vs0mg"},{"bike_id":"137b778a-b95c-4eee-800c-547a0fa54ea6","system_id":"levelo_inurba_marseille","lat":43.24317,"lon":5.38426,"is_reserved":false,"is_disabled":false,"rental_uris":{"android":"levelo://app?vid=137b778a-b95c-4eee-800c-547a0fa54ea6","ios":"levelo://app?vid=137b778a-b95c-4eee-800c-547a0fa54ea6"},"vehicle_type_id":"4","last_reported":1779036205,"current_range_meters":7200,"station_id":"","pricing_plan_id":"cebpf4jnsgd1na2vs0mg"},{"bike_id":"18f58277-722f-404d-938b-b1ac3c240040","system_id":"levelo_inurba_marseille","lat":43.30303,"lon":5.36886,"is_reserved":false,"is_disabled":false,"rental_uris":{"android":"levelo://app?vid=18f58277-722f-404d-938b-b1ac3c240040","ios":"levelo://app?vid=18f58277-722f-404d-938b-b1ac3c240040"},"vehicle_type_id":"4","last_reported":1779036205,"current_range_meters":7200,"station_id":"ce4bgqh2rcd13ifvqc5g","pricing_plan_id":"cebpf4jnsgd1na2vs0mg"},{"bike_id":"2b074ea8-7a30-45a0-8ba4-dfec0b43bffd","system_id":"levelo_inurba_marseille","lat":43.25002,"lon":5.38933,"is_reserved":false,"is_disabled":false,"rental_uris":{"android":"levelo://app?vid=2b074ea8-7a30-45a0-8ba4-dfec0b43bffd","ios":"levelo://app?vid=2b074ea8-7a30-45a0-8ba4-dfec0b43bffd"},"vehicle_type_id":"4","last_reported":1779036205,"current_range_meters":7200,"station_id":"ce4bhgp2rcd13ifvqfd0","pricing_plan_id":"cebpf4jnsgd1na2vs0mg"},{"bike_id":"e73eff0f-2ba8-44d9-8b90-42e36386d346","system_id":"levelo_inurba_marseille","lat":43.31365,"lon":5.38504,"is_reserved":false,"is_disabled":false,"rental_uris":{"android":"levelo://app?vid=e73eff0f-2ba8-44d9-8b90-42e36386d346","ios":"levelo://app?vid=e73eff0f-2ba8-44d9-8b90-42e36386d346"},"vehicle_type_id":"4","last_reported":1779036205,"current_range_meters":7200,"station_id":"ce4bgt92rcd13ifvqcf0","pricing_plan_id":"cebpf4jnsgd1na2vs0mg"},{"bike_id":"eb9c0195-49bc-4789-a9a4-63c6e767b3e2","system_id":"levelo_inurba_marseille","lat":43.29089,"lon":5.38153,"is_reserved":false,"is_disabled":false,"rental_uris":{"android":"levelo://app?vid=eb9c0195-49bc-4789-a9a4-63c6e767b3e2","ios":"levelo://app?vid=eb9c0195-49bc-4789-a9a4-63c6e767b3e2"},"vehicle_type_id":"4","last_reported":1779036205,"current_range_meters":7200,"station_id":"ce4bh512rcd13ifvqe2g","pricing_plan_id":"cebpf4jnsgd1na2vs0mg"},{"bike_id":"1d0b8c40-e6ef-4875-8054-e58b811d8899","system_id":"levelo_inurba_marseille","lat":43.23898,"lon":5.37447,"is_reserved":false,"is_disabled":false,"rental_uris":{"android":"levelo://app?vid=1d0b8c40-e6ef-4875-8054-e58b811d8899","ios":"levelo://app?vid=1d0b8c40-e6ef-4875-8054-e58b811d8899"},"vehicle_type_id":"4","last_reported":1779036205,"current_range_meters":7200,"station_id":"st_d6sm7csbq4hs73f8fpjg","pricing_plan_id":"cebpf4jnsgd1na2vs0mg"},{"bike_id":"92ecf340-b42a-44df-b83a-034187b7cf7d","system_id":"levelo_inurba_marseille","lat":43.29262,"lon":5.38446,"is_reserved":false,"is_disabled":false,"rental_uris":{"android":"levelo://app?vid=92ecf340-b42a-44df-b83a-034187b7cf7d","ios":"levelo://app?vid=92ecf340-b42a-44df-b83a-034187b7cf7d"},"vehicle_type_id":"4","last_reported":1779036205,"current_range_meters":7200,"station_id":"ce4bh692rcd13ifvqea0","pricing_plan_id":"cebpf4jnsgd1na2vs0mg"},{"bike_id":"17a59c13-ae66-4002-8249-0c4b3a419500","system_id":"levelo_inurba_marseille","lat":43.284556,"lon":5.358823,"is_reserved":false,"is_disabled":false,"rental_uris":{"android":"levelo://app?vid=17a59c13-ae66-4002-8249-0c4b3a419500","ios":"levelo://app?vid=17a59c13-ae66-4002-8249-0c4b3a419500"},"vehicle_type_id":"4","last_reported":1779036205,"current_range_meters":7200,"station_id":"ce4bhah2rcd13ifvqei0","pricing_plan_id":"cebpf4jnsgd1na2vs0mg"},{"bike_id":"55fc92ed-6373-49c6-b02d-c1eb6acdffa6","system_id":"levelo_inurba_marseille","lat":43.30074,"lon":5.39084,"is_reserved":false,"is_disabled":false,"rental_uris":{"android":"levelo://app?vid=55fc92ed-6373-49c6-b02d-c1eb6acdffa6","ios":"levelo://app?vid=55fc92ed-6373-49c6-b02d-c1eb6acdffa6"},"vehicle_type_id":"4","last_reported":1779036205,"current_range_meters":7200,"station_id":"ce4bh192rcd13ifvqdb0","pricing_plan_id":"cebpf4jnsgd1na2vs0mg"},{"bike_id":"7bb85bb9-095b-4eda-82bb-a5e9466a0e2a","system_id":"levelo_inurba_marseille","lat":43.31044,"lon":5.37183,"is_reserved":false,"is_disabled":false,"rental_uris":{"android":"levelo://app?vid=7bb85bb9-095b-4eda-82bb-a5e9466a0e2a","ios":"levelo://app?vid=7bb85bb9-095b-4eda-82bb-a5e9466a0e2a"},"vehicle_type_id":"4","last_reported":1779036205,"current_range_meters":7200,"station_id":"st_d4kl2rp97mjs73e7tdfg","pricing_plan_id":"cebpf4jnsgd1na2vs0mg"},{"bike_id":"bdc9e2e1-1b9e-4162-b371-c1c86344143b","system_id":"levelo_inurba_marseille","lat":43.29605,"lon":5.38101,"is_reserved":false,"is_disabled":false,"rental_uris":{"android":"levelo://app?vid=bdc9e2e1-1b9e-4162-b371-c1c86344143b","ios":"levelo://app?vid=bdc9e2e1-1b9e-4162-b371-c1c86344143b"},"vehicle_type_id":"4","last_reported":1779036205,"current_range_meters":7200,"station_id":"ce4bgl12rcd13ifvqbo0","pricing_plan_id":"cebpf4jnsgd1na2vs0mg"},{"bike_id":"b7fad9a6-6a2f-429e-99e6-374f9ba7fbf4","system_id":"levelo_inurba_marseille","lat":43.21193,"lon":5.35073,"is_reserved":false,"is_disabled":false,"rental_uris":{"android":"levelo://app?vid=b7fad9a6-6a2f-429e-99e6-374f9ba7fbf4","ios":"levelo://app?vid=b7fad9a6-6a2f-429e-99e6-374f9ba7fbf4"},"vehicle_type_id":"4","last_reported":1779036205,"current_range_meters":7200,"station_id":"st_cvj6sg6p6f1abm77japg","pricing_plan_id":"cebpf4jnsgd1na2vs0mg"},{"bike_id":"d7950f57-2b46-4767-914d-35be4bed065d","system_id":"levelo_inurba_marseille","lat":43.2418,"lon":5.36389,"is_reserved":false,"is_disabled":false,"rental_uris":{"android":"levelo://app?vid=d7950f57-2b46-4767-914d-35be4bed065d","ios":"levelo://app?vid=d7950f57-2b46-4767-914d-35be4bed065d"},"vehicle_type_id":"4","last_reported":1779036205,"current_range_meters":7200,"station_id":"cpo36qri1sfpv3e86is0","pricing_plan_id":"cebpf4jnsgd1na2vs0mg"},{"bike_id":"523c7722-5507-4072-b87e-f85a09df72bb","system_id":"levelo_inurba_marseille","lat":43.30262,"lon":5.40084,"is_reserved":false,"is_disabled":false,"rental_uris":{"android":"levelo://app?vid=523c7722-5507-4072-b87e-f85a09df72bb","ios":"levelo://app?vid=523c7722-5507-4072-b87e-f85a09df72bb"},"vehicle_type_id":"4","last_reported":1779036205,"current_range_meters":7200,"station_id":"ce4bgvh2rcd13ifvqcs0","pricing_plan_id":"cebpf4jnsgd1na2vs0mg"},{"bike_id":"cff76e20-e3ee-46b3-880c-12cb2683ae54","system_id":"levelo_inurba_marseille","lat":43.28406,"lon":5.34986,"is_reserved":false,"is_disabled":false,"rental_uris":{"android":"levelo://app?vid=cff76e20-e3ee-46b3-880c-12cb2683ae54","ios":"levelo://app?vid=cff76e20-e3ee-46b3-880c-12cb2683ae54"},"vehicle_type_id":"4","last_reported":1779036205,"current_range_meters":7200,"station_id":"ce4bhbh2rcd13ifvqepg","pricing_plan_id":"cebpf4jnsgd1na2vs0mg"},{"bike_id":"0ca266b4-e43b-4acc-a0a9-ab242cc7399f","system_id":"levelo_inurba_marseille","lat":43.26606,"lon":5.39774,"is_reserved":false,"is_disabled":false,"rental_uris":{"android":"levelo://app?vid=0ca266b4-e43b-4acc-a0a9-ab242cc7399f","ios":"levelo://app?vid=0ca266b4-e43b-4acc-a0a9-ab242cc7399f"},"vehicle_type_id":"4","last_reported":1779036205,"current_range_meters":8000,"station_id":"","pricing_plan_id":"cebpf4jnsgd1na2vs0mg"},{"bike_id":"0335f9ce-a8e4-4f58-b0c9-592088e1f662","system_id":"levelo_inurba_marseille","lat":43.29881,"lon":5.37491,"is_reserved":false,"is_disabled":false,"rental_uris":{"android":"levelo://app?vid=0335f9ce-a8e4-4f58-b0c9-592088e1f662","ios":"levelo://app?vid=0335f9ce-a8e4-4f58-b0c9-592088e1f662"},"vehicle_type_id":"4","last_reported":1779036205,"current_range_meters":8000,"station_id":"ce4bgjh2rcd13ifvqbg0","pricing_plan_id":"cebpf4jnsgd1na2vs0mg"},{"bike_id":"b87347bd-0e32-478d-b659-488fdba32135","system_id":"levelo_inurba_marseille","lat":43.21188,"lon":5.35073,"is_reserved":false,"is_disabled":false,"rental_uris":{"android":"levelo://app?vid=b87347bd-0e32-478d-b659-488fdba32135","ios":"levelo://app?vid=b87347bd-0e32-478d-b659-488fdba32135"},"vehicle_type_id":"4","last_reported":1779036205,"current_range_meters":8000,"station_id":"st_cvj6sg6p6f1abm77japg","pricing_plan_id":"cebpf4jnsgd1na2vs0mg"},{"bike_id":"091f5e46-a208-4c3a-bf11-e21787972028","system_id":"levelo_inurba_marseille","lat":43.26933,"lon":5.40238,"is_reserved":false,"is_disabled":false,"rental_uris":{"android":"levelo://app?vid=091f5e46-a208-4c3a-bf11-e21787972028","ios":"levelo://app?vid=091f5e46-a208-4c3a-bf11-e21787972028"},"vehicle_type_id":"4","last_reported":1779036205,"current_range_meters":8000,"station_id":"cjm6bp8fraef2m0cb0m0","pricing_plan_id":"cebpf4jnsgd1na2vs0mg"},{"bike_id":"66ac192d-223a-47d5-b01d-3f0d015218c3","system_id":"levelo_inurba_marseille","lat":43.28613,"lon":5.351,"is_reserved":false,"is_disabled":false,"rental_uris":{"android":"levelo://app?vid=66ac192d-223a-47d5-b01d-3f0d015218c3","ios":"levelo://app?vid=66ac192d-223a-47d5-b01d-3f0d015218c3"},"vehicle_type_id":"4","last_reported":1779036205,"current_range_meters":8000,"station_id":"ce4bhch2rcd13ifvqeug","pricing_plan_id":"cebpf4jnsgd1na2vs0mg"},{"bike_id":"6eb578a0-2499-4931-b256-efca24c61683","system_id":"levelo_inurba_marseille","lat":43.30964,"lon":5.39075,"is_reserved":false,"is_disabled":true,"rental_uris":{"android":"levelo://app?vid=6eb578a0-2499-4931-b256-efca24c61683","ios":"levelo://app?vid=6eb578a0-2499-4931-b256-efca24c61683"},"vehicle_type_id":"4","last_reported":1779036205,"current_range_meters":8000,"station_id":"ce4bgup2rcd13ifvqco0","pricing_plan_id":"cebpf4jnsgd1na2vs0mg"},{"bike_id":"2fa8d4be-dae4-4c3a-9adc-e52d62c1bef4","system_id":"levelo_inurba_marseille","lat":43.32487,"lon":5.36571,"is_reserved":false,"is_disabled":false,"rental_uris":{"android":"levelo://app?vid=2fa8d4be-dae4-4c3a-9adc-e52d62c1bef4","ios":"levelo://app?vid=2fa8d4be-dae4-4c3a-9adc-e52d62c1bef4"},"vehicle_type_id":"4","last_reported":1779036205,"current_range_meters":8000,"station_id":"ce4bhs12rcd13ifvqhvg","pricing_plan_id":"cebpf4jnsgd1na2vs0mg"},{"bike_id":"5ee9801a-1240-42e5-ade9-a91f7e94574a","system_id":"levelo_inurba_marseille","lat":43.30521,"lon":5.36549,"is_reserved":false,"is_disabled":false,"rental_uris":{"android":"levelo://app?vid=5ee9801a-1240-42e5-ade9-a91f7e94574a","ios":"levelo://app?vid=5ee9801a-1240-42e5-ade9-a91f7e94574a"},"vehicle_type_id":"4","last_reported":1779036205,"current_range_meters":8000,"station_id":"ce4bgs12rcd13ifvqcag","pricing_plan_id":"cebpf4jnsgd1na2vs0mg"},{"bike_id":"976dce07-d775-4780-8723-3711533ef18a","system_id":"levelo_inurba_marseille","lat":43.30794,"lon":5.38175,"is_reserved":false,"is_disabled":false,"rental_uris":{"android":"levelo://app?vid=976dce07-d775-4780-8723-3711533ef18a","ios":"levelo://app?vid=976dce07-d775-4780-8723-3711533ef18a"},"vehicle_type_id":"4","last_reported":1779036205,"current_range_meters":8000,"station_id":"ce4bgt12rcd13ifvqce0","pricing_plan_id":"cebpf4jnsgd1na2vs0mg"},{"bike_id":"f6da586e-49b9-4133-b828-6f975e27ac0a","system_id":"levelo_inurba_marseille","lat":43.30925,"lon":5.40144,"is_reserved":false,"is_disabled":false,"rental_uris":{"android":"levelo://app?vid=f6da586e-49b9-4133-b828-6f975e27ac0a","ios":"levelo://app?vid=f6da586e-49b9-4133-b828-6f975e27ac0a"},"vehicle_type_id":"4","last_reported":1779036205,"current_range_meters":8000,"station_id":"ce4bgvp2rcd13ifvqct0","pricing_plan_id":"cebpf4jnsgd1na2vs0mg"},{"bike_id":"fa0d5496-ebee-4096-9c3f-d260dfed4b35","system_id":"levelo_inurba_marseille","lat":43.30584,"lon":5.39354,"is_reserved":false,"is_disabled":false,"rental_uris":{"android":"levelo://app?vid=fa0d5496-ebee-4096-9c3f-d260dfed4b35","ios":"levelo://app?vid=fa0d5496-ebee-4096-9c3f-d260dfed4b35"},"vehicle_type_id":"4","last_reported":1779036205,"current_range_meters":8000,"station_id":"ce4bh0p2rcd13ifvqd80","pricing_plan_id":"cebpf4jnsgd1na2vs0mg"},{"bike_id":"84ae8992-54c6-43b3-8c6d-2292740fee0f","system_id":"levelo_inurba_marseille","lat":43.21174,"lon":5.35108,"is_reserved":false,"is_disabled":false,"rental_uris":{"android":"levelo://app?vid=84ae8992-54c6-43b3-8c6d-2292740fee0f","ios":"levelo://app?vid=84ae8992-54c6-43b3-8c6d-2292740fee0f"},"vehicle_type_id":"4","last_reported":1779036205,"current_range_meters":8000,"station_id":"st_cvj6sg6p6f1abm77japg","pricing_plan_id":"cebpf4jnsgd1na2vs0mg"},{"bike_id":"78ee87f2-6068-447b-b235-a14140ccbb27","system_id":"levelo_inurba_marseille","lat":43.30594,"lon":5.39324,"is_reserved":false,"is_disabled":false,"rental_uris":{"android":"levelo://app?vid=78ee87f2-6068-447b-b235-a14140ccbb27","ios":"levelo://app?vid=78ee87f2-6068-447b-b235-a14140ccbb27"},"vehicle_type_id":"4","last_reported":1779036205,"current_range_meters":8000,"station_id":"ce4bh0p2rcd13ifvqd80","pricing_plan_id":"cebpf4jnsgd1na2vs0mg"},{"bike_id":"d1e58ddb-2212-4825-af8c-68823132837b","system_id":"levelo_inurba_marseille","lat":43.3176,"lon":5.39012,"is_reserved":false,"is_disabled":false,"rental_uris":{"android":"levelo://app?vid=d1e58ddb-2212-4825-af8c-68823132837b","ios":"levelo://app?vid=d1e58ddb-2212-4825-af8c-68823132837b"},"vehicle_type_id":"4","last_reported":1779036205,"current_range_meters":8000,"station_id":"ce4bhqp2rcd13ifvqhng","pricing_plan_id":"cebpf4jnsgd1na2vs0mg"},{"bike_id":"1f55ecb8-d08f-4c49-9036-9371e59ffa07","system_id":"levelo_inurba_marseille","lat":43.28432,"lon":5.34984,"is_reserved":false,"is_disabled":false,"rental_uris":{"android":"levelo://app?vid=1f55ecb8-d08f-4c49-9036-9371e59ffa07","ios":"levelo://app?vid=1f55ecb8-d08f-4c49-9036-9371e59ffa07"},"vehicle_type_id":"4","last_reported":1779036205,"current_range_meters":8000,"station_id":"ce4bhbh2rcd13ifvqepg","pricing_plan_id":"cebpf4jnsgd1na2vs0mg"},{"bike_id":"85e7cda2-d820-470d-8ed4-7b2e4fbe4837","system_id":"levelo_inurba_marseille","lat":43.2736,"lon":5.36245,"is_reserved":false,"is_disabled":false,"rental_uris":{"android":"levelo://app?vid=85e7cda2-d820-470d-8ed4-7b2e4fbe4837","ios":"levelo://app?vid=85e7cda2-d820-470d-8ed4-7b2e4fbe4837"},"vehicle_type_id":"4","last_reported":1779036205,"current_range_meters":8000,"station_id":"ce4bhbh2rcd13ifvqeo0","pricing_plan_id":"cebpf4jnsgd1na2vs0mg"},{"bike_id":"5f49c5f0-4c69-4cd2-870e-52ae13c28c58","system_id":"levelo_inurba_marseille","lat":43.28273,"lon":5.35068,"is_reserved":false,"is_disabled":true,"rental_uris":{"android":"levelo://app?vid=5f49c5f0-4c69-4cd2-870e-52ae13c28c58","ios":"levelo://app?vid=5f49c5f0-4c69-4cd2-870e-52ae13c28c58"},"vehicle_type_id":"4","last_reported":1779036205,"current_range_meters":8000,"station_id":"ce4bhbp2rcd13ifvqerg","pricing_plan_id":"cebpf4jnsgd1na2vs0mg"},{"bike_id":"1e6d5671-0d30-4ecd-8076-4df511fe42d1","system_id":"levelo_inurba_marseille","lat":43.292593,"lon":5.409021,"is_reserved":false,"is_disabled":false,"rental_uris":{"android":"levelo://app?vid=1e6d5671-0d30-4ecd-8076-4df511fe42d1","ios":"levelo://app?vid=1e6d5671-0d30-4ecd-8076-4df511fe42d1"},"vehicle_type_id":"4","last_reported":1779036205,"current_range_meters":8000,"station_id":"ce4bh192rcd13ifvqdc0","pricing_plan_id":"cebpf4jnsgd1na2vs0mg"},{"bike_id":"5feb3f30-afde-4f82-8771-0ec8bc91deb3","system_id":"levelo_inurba_marseille","lat":43.26365,"lon":5.41074,"is_reserved":false,"is_disabled":false,"rental_uris":{"android":"levelo://app?vid=5feb3f30-afde-4f82-8771-0ec8bc91deb3","ios":"levelo://app?vid=5feb3f30-afde-4f82-8771-0ec8bc91deb3"},"vehicle_type_id":"4","last_reported":1779036205,"current_range_meters":8000,"station_id":"st_d4e5ca6na9uc73bfl5fg","pricing_plan_id":"cebpf4jnsgd1na2vs0mg"},{"bike_id":"18ea5528-d310-499d-aac0-1c30c0a7c8b9","system_id":"levelo_inurba_marseille","lat":43.30553,"lon":5.36553,"is_reserved":false,"is_disabled":false,"rental_uris":{"android":"levelo://app?vid=18ea5528-d310-499d-aac0-1c30c0a7c8b9","ios":"levelo://app?vid=18ea5528-d310-499d-aac0-1c30c0a7c8b9"},"vehicle_type_id":"4","last_reported":1779036205,"current_range_meters":8000,"station_id":"ce4bgs12rcd13ifvqcag","pricing_plan_id":"cebpf4jnsgd1na2vs0mg"},{"bike_id":"271ccc25-649c-4baa-9415-83ad00ec0910","system_id":"levelo_inurba_marseille","lat":43.28608,"lon":5.35102,"is_reserved":false,"is_disabled":false,"rental_uris":{"android":"levelo://app?vid=271ccc25-649c-4baa-9415-83ad00ec0910","ios":"levelo://app?vid=271ccc25-649c-4baa-9415-83ad00ec0910"},"vehicle_type_id":"4","last_reported":1779036205,"current_range_meters":8000,"station_id":"ce4bhch2rcd13ifvqeug","pricing_plan_id":"cebpf4jnsgd1na2vs0mg"},{"bike_id":"e193e6fd-f303-4583-80d1-62cc0fa91242","system_id":"levelo_inurba_marseille","lat":43.274288,"lon":5.394241,"is_reserved":false,"is_disabled":false,"rental_uris":{"android":"levelo://app?vid=e193e6fd-f303-4583-80d1-62cc0fa91242","ios":"levelo://app?vid=e193e6fd-f303-4583-80d1-62cc0fa91242"},"vehicle_type_id":"4","last_reported":1779036205,"current_range_meters":8000,"station_id":"ce4bhdp2rcd13ifvqf20","pricing_plan_id":"cebpf4jnsgd1na2vs0mg"},{"bike_id":"4222e725-da41-4a6e-9bcc-22f0d0946dc4","system_id":"levelo_inurba_marseille","lat":43.29809,"lon":5.41658,"is_reserved":false,"is_disabled":false,"rental_uris":{"android":"levelo://app?vid=4222e725-da41-4a6e-9bcc-22f0d0946dc4","ios":"levelo://app?vid=4222e725-da41-4a6e-9bcc-22f0d0946dc4"},"vehicle_type_id":"4","last_reported":1779036205,"current_range_meters":8000,"station_id":"","pricing_plan_id":"cebpf4jnsgd1na2vs0mg"},{"bike_id":"0a0c99b1-62f3-4edd-ace9-bf05198710a7","system_id":"levelo_inurba_marseille","lat":43.26978,"lon":5.36627,"is_reserved":false,"is_disabled":false,"rental_uris":{"android":"levelo://app?vid=0a0c99b1-62f3-4edd-ace9-bf05198710a7","ios":"levelo://app?vid=0a0c99b1-62f3-4edd-ace9-bf05198710a7"},"vehicle_type_id":"4","last_reported":1779036205,"current_range_meters":8000,"station_id":"","pricing_plan_id":"cebpf4jnsgd1na2vs0mg"},{"bike_id":"dcbc788a-4064-4193-bef3-7b4970b11bda","system_id":"levelo_inurba_marseille","lat":43.308,"lon":5.38099,"is_reserved":false,"is_disabled":false,"rental_uris":{"android":"levelo://app?vid=dcbc788a-4064-4193-bef3-7b4970b11bda","ios":"levelo://app?vid=dcbc788a-4064-4193-bef3-7b4970b11bda"},"vehicle_type_id":"4","last_reported":1779036205,"current_range_meters":8000,"station_id":"ce4bgt12rcd13ifvqce0","pricing_plan_id":"cebpf4jnsgd1na2vs0mg"},{"bike_id":"e2f85fd7-2832-498c-89b3-75d6fcd11138","system_id":"levelo_inurba_marseille","lat":43.29979,"lon":5.37169,"is_reserved":false,"is_disabled":false,"rental_uris":{"android":"levelo://app?vid=e2f85fd7-2832-498c-89b3-75d6fcd11138","ios":"levelo://app?vid=e2f85fd7-2832-498c-89b3-75d6fcd11138"},"vehicle_type_id":"4","last_reported":1779036205,"current_range_meters":8000,"station_id":"ce4bgr92rcd13ifvqc7g","pricing_plan_id":"cebpf4jnsgd1na2vs0mg"},{"bike_id":"674df2a3-ad6b-4063-b087-e44c2776f3c0","system_id":"levelo_inurba_marseille","lat":43.26052,"lon":5.39396,"is_reserved":false,"is_disabled":false,"rental_uris":{"android":"levelo://app?vid=674df2a3-ad6b-4063-b087-e44c2776f3c0","ios":"levelo://app?vid=674df2a3-ad6b-4063-b087-e44c2776f3c0"},"vehicle_type_id":"4","last_reported":1779036205,"current_range_meters":8000,"station_id":"ce4bhh92rcd13ifvqfj0","pricing_plan_id":"cebpf4jnsgd1na2vs0mg"},{"bike_id":"a5910c0b-7488-4048-b7aa-b813518fed40","system_id":"levelo_inurba_marseille","lat":43.28357,"lon":5.38105,"is_reserved":false,"is_disabled":false,"rental_uris":{"android":"levelo://app?vid=a5910c0b-7488-4048-b7aa-b813518fed40","ios":"levelo://app?vid=a5910c0b-7488-4048-b7aa-b813518fed40"},"vehicle_type_id":"4","last_reported":1779036205,"current_range_meters":8000,"station_id":"ce4bh412rcd13ifvqdr0","pricing_plan_id":"cebpf4jnsgd1na2vs0mg"},{"bike_id":"a16df050-f1ee-47f8-9a16-2ae94e2b29ac","system_id":"levelo_inurba_marseille","lat":43.28487,"lon":5.3842,"is_reserved":false,"is_disabled":false,"rental_uris":{"android":"levelo://app?vid=a16df050-f1ee-47f8-9a16-2ae94e2b29ac","ios":"levelo://app?vid=a16df050-f1ee-47f8-9a16-2ae94e2b29ac"},"vehicle_type_id":"4","last_reported":1779036205,"current_range_meters":8000,"station_id":"ce4bh512rcd13ifvqe3g","pricing_plan_id":"cebpf4jnsgd1na2vs0mg"},{"bike_id":"aae2b4ae-4358-4ede-80fd-7f996f3d7225","system_id":"levelo_inurba_marseille","lat":43.31248,"lon":5.37823,"is_reserved":false,"is_disabled":false,"rental_uris":{"android":"levelo://app?vid=aae2b4ae-4358-4ede-80fd-7f996f3d7225","ios":"levelo://app?vid=aae2b4ae-4358-4ede-80fd-7f996f3d7225"},"vehicle_type_id":"4","last_reported":1779036205,"current_range_meters":8000,"station_id":"","pricing_plan_id":"cebpf4jnsgd1na2vs0mg"},{"bike_id":"1d52a103-c718-4329-a5da-0d429c53c13f","system_id":"levelo_inurba_marseille","lat":43.31329,"lon":5.39697,"is_reserved":false,"is_disabled":false,"rental_uris":{"android":"levelo://app?vid=1d52a103-c718-4329-a5da-0d429c53c13f","ios":"levelo://app?vid=1d52a103-c718-4329-a5da-0d429c53c13f"},"vehicle_type_id":"4","last_reported":1779036205,"current_range_meters":8000,"station_id":"ce4bgvp2rcd13ifvqcu0","pricing_plan_id":"cebpf4jnsgd1na2vs0mg"},{"bike_id":"1be2e1ea-e6bd-4d8a-a1d1-f02191f22dbe","system_id":"levelo_inurba_marseille","lat":43.29706,"lon":5.36617,"is_reserved":false,"is_disabled":false,"rental_uris":{"android":"levelo://app?vid=1be2e1ea-e6bd-4d8a-a1d1-f02191f22dbe","ios":"levelo://app?vid=1be2e1ea-e6bd-4d8a-a1d1-f02191f22dbe"},"vehicle_type_id":"4","last_reported":1779036205,"current_range_meters":8400,"station_id":"ce4bgn12rcd13ifvqbt0","pricing_plan_id":"cebpf4jnsgd1na2vs0mg"},