{"last_updated":1748128149,"ttl":60,"version":"2.2","data":{"bikes":[{"bike_id":"077e9f78-4104-4bcf-9ae4-bd82e0644222","system_id":"levelo_inurba_marseille","lat":43.30298,"lon":5.39221,"is_reserved":false,"is_disabled":false,"rental_uris":{"android":"levelo://app?vid=077e9f78-4104-4bcf-9ae4-bd82e0644222","ios":"levelo://app?vid=077e9f78-4104-4bcf-9ae4-bd82e0644222"},"vehicle_type_id":"4","last_reported":1748128149,"current_range_meters":2800,"station_id":"ce4bgkh2rcd13ifvqbk0","pricing_plan_id":"cebpf4jnsgd1na2vs0mg"},{"bike_id":"e4b8da17-840b-4ce7-bd95-fe86b8710f78","system_id":"levelo_inurba_marseille","lat":43.29002,"lon":5.356172,"is_reserved":false,"is_disabled":true,"rental_uris":{"android":"levelo://app?vid=e4b8da17-840b-4ce7-bd95-fe86b8710f78","ios":"levelo://app?vid=e4b8da17-840b-4ce7-bd95-fe86b8710f78"},"vehicle_type_id":"4","last_reported":1748128149,"current_range_meters":2800,"station_id":"ce4bhb92rcd13ifvqen0","pricing_plan_id":"cebpf4jnsgd1na2vs0mg"},{"bike_id":"edd9b242-7831-47d7-b00e-a3ae587db700","system_id":"levelo_inurba_marseille","lat":43.2927,"lon":5.40115,"is_reserved":false,"is_disabled":false,"rental_uris":{"android":"levelo://app?vid=edd9b242-7831-47d7-b00e-a3ae587db700","ios":"levelo://app?vid=edd9b242-7831-47d7-b00e-a3ae587db700"},"vehicle_type_id":"4","last_reported":1748128149,"current_range_meters":2800,"station_id":"ce4bh312rcd13ifvqdk0","pricing_plan_id":"cebpf4jnsgd1na2vs0mg"},{"bike_id":"a1933a36-f77f-4668-a08c-639a9bd1a1e8","system_id":"levelo_inurba_marseille","lat":43.231848,"lon":5.399885,"is_reserved":false,"is_disabled":true,"rental_uris":{"android":"levelo://app?vid=a1933a36-f77f-4668-a08c-639a9bd1a1e8","ios":"levelo://app?vid=a1933a36-f77f-4668-a08c-639a9bd1a1e8"},"vehicle_type_id":"4","last_reported":1748128149,"current_range_meters":2800,"station_id":"ce4bhn12rcd13ifvqgqg","pricing_plan_id":"cebpf4jnsgd1na2vs0mg"},{"bike_id":"cdbd39de-c23b-4e5b-bbe0-2a1a1c270666","system_id":"levelo_inurba_marseille","lat":43.29866,"lon":5.38907,"is_reserved":false,"is_disabled":false,"rental_uris":{"android":"levelo://app?vid=cdbd39de-c23b-4e5b-bbe0-2a1a1c270666","ios":"levelo://app?vid=cdbd39de-c23b-4e5b-bbe0-2a1a1c270666"},"vehicle_type_id":"4","last_reported":1748128149,"current_range_meters":2000,"station_id":"ce4bh392rcd13ifvqdl0","pricing_plan_id":"cebpf4jnsgd1na2vs0mg"},{"bike_id":"ca6b114c-2ee2-4549-a341-0b68d783e55d","system_id":"levelo_inurba_marseille","lat":43.30212,"lon":5.39436,"is_reserved":false,"is_disabled":false,"rental_uris":{"android":"levelo://app?vid=ca6b114c-2ee2-4549-a341-0b68d783e55d","ios":"levelo://app?vid=ca6b114c-2ee2-4549-a341-0b68d783e55d"},"vehicle_type_id":"4","last_reported":1748128149,"current_range_meters":3200,"station_id":"ce4bh0p2rcd13ifvqd70","pricing_plan_id":"cebpf4jnsgd1na2vs0mg"},{"bike_id":"cd324d32-7128-4fee-a7cf-0995b03e898a","system_id":"levelo_inurba_marseille","lat":43.30442,"lon":5.38883,"is_reserved":false,"is_disabled":false,"rental_uris":{"android":"levelo://app?vid=cd324d32-7128-4fee-a7cf-0995b03e898a","ios":"levelo://app?vid=cd324d32-7128-4fee-a7cf-0995b03e898a"},"vehicle_type_id":"4","last_reported":1748128149,"current_range_meters":3200,"station_id":"ce4bgk12rcd13ifvqbi0","pricing_plan_id":"cebpf4jnsgd1na2vs0mg"},{"bike_id":"d8da9b6b-63a9-45bb-97f7-440d2f748cc9","system_id":"levelo_inurba_marseille","lat":43.30891,"lon":5.39656,"is_reserved":false,"is_disabled":false,"rental_uris":{"android":"levelo://app?vid=d8da9b6b-63a9-45bb-97f7-440d2f748cc9","ios":"levelo://app?vid=d8da9b6b-63a9-45bb-97f7-440d2f748cc9"},"vehicle_type_id":"4","last_reported":1748128149,"current_range_meters":3200,"station_id":"ce4bh012rcd13ifvqcv0","pricing_plan_id":"cebpf4jnsgd1na2vs0mg"},{"bike_id":"a7204085-717a-4f20-82b6-93b30e48d1fc","system_id":"levelo_inurba_marseille","lat":43.30886,"lon":5.39655,"is_reserved":false,"is_disabled":false,"rental_uris":{"android":"levelo://app?vid=a7204085-717a-4f20-82b6-93b30e48d1fc","ios":"levelo://app?vid=a7204085-717a-4f20-82b6-93b30e48d1fc"},"vehicle_type_id":"4","last_reported":1748128149,"current_range_meters":3200,"station_id":"ce4bh012rcd13ifvqcv0","pricing_plan_id":"cebpf4jnsgd1na2vs0mg"},{"bike_id":"b36d9aec-dabf-4c3d-ac53-659a6ffd71de","system_id":"levelo_inurba_marseille","lat":43.25498,"lon":5.37628,"is_reserved":false,"is_disabled":false,"rental_uris":{"android":"levelo://app?vid=b36d9aec-dabf-4c3d-ac53-659a6ffd71de","ios":"levelo://app?vid=b36d9aec-dabf-4c3d-ac53-659a6ffd71de"},"vehicle_type_id":"4","last_reported":1748128149,"current_range_meters":3200,"station_id":"ce4bhh12rcd13ifvqff0","pricing_plan_id":"cebpf4jnsgd1na2vs0mg"},{"bike_id":"221b41ad-2320-4add-abb4-750bb95c61fe","system_id":"levelo_inurba_marseille","lat":43.274951,"lon":5.424572,"is_reserved":false,"is_disabled":false,"rental_uris":{"android":"levelo://app?vid=221b41ad-2320-4add-abb4-750bb95c61fe","ios":"levelo://app?vid=221b41ad-2320-4add-abb4-750bb95c61fe"},"vehicle_type_id":"4","last_reported":1748128149,"current_range_meters":3600,"station_id":"ce4bhn92rcd13ifvqgrg","pricing_plan_id":"cebpf4jnsgd1na2vs0mg"},{"bike_id":"d85c177f-4e83-49e4-8876-dcc28e03c14d","system_id":"levelo_inurba_marseille","lat":43.25933,"lon":5.40874,"is_reserved":false,"is_disabled":false,"rental_uris":{"android":"levelo://app?vid=d85c177f-4e83-49e4-8876-dcc28e03c14d","ios":"levelo://app?vid=d85c177f-4e83-49e4-8876-dcc28e03c14d"},"vehicle_type_id":"4","last_reported":1748128149,"current_range_meters":3600,"station_id":"ce4bhm92rcd13ifvqglg","pricing_plan_id":"cebpf4jnsgd1na2vs0mg"},{"bike_id":"f1c6d019-724a-4d8c-8800-518f39091386","system_id":"levelo_inurba_marseille","lat":43.268547,"lon":5.39379,"is_reserved":false,"is_disabled":false,"rental_uris":{"android":"levelo://app?vid=f1c6d019-724a-4d8c-8800-518f39091386","ios":"levelo://app?vid=f1c6d019-724a-4d8c-8800-518f39091386"},"vehicle_type_id":"4","last_reported":1748128149,"current_range_meters":3600,"station_id":"","pricing_plan_id":"cebpf4jnsgd1na2vs0mg"},{"bike_id":"164e60a4-05bc-4649-85d4-95b45cbfeab2","system_id":"levelo_inurba_marseille","lat":43.2573,"lon":5.41012,"is_reserved":false,"is_disabled":false,"rental_uris":{"android":"levelo://app?vid=164e60a4-05bc-4649-85d4-95b45cbfeab2","ios":"levelo://app?vid=164e60a4-05bc-4649-85d4-95b45cbfeab2"},"vehicle_type_id":"4","last_reported":1748128149,"current_range_meters":3600,"station_id":"","pricing_plan_id":"cebpf4jnsgd1na2vs0mg"},{"bike_id":"ea9c5d91-060b-421e-b34c-f2a666cb400e","system_id":"levelo_inurba_marseille","lat":43.29705,"lon":5.36629,"is_reserved":false,"is_disabled":false,"rental_uris":{"android":"levelo://app?vid=ea9c5d91-060b-421e-b34c-f2a666cb400e","ios":"levelo://app?vid=ea9c5d91-060b-421e-b34c-f2a666cb400e"},"vehicle_type_id":"4","last_reported":1748128149,"current_range_meters":3600,"station_id":"ce4bgn12rcd13ifvqbt0","pricing_plan_id":"cebpf4jnsgd1na2vs0mg"},{"bike_id":"82dfcc7c-f385-419c-896b-d78c2000f617","system_id":"levelo_inurba_marseille","lat":43.30433,"lon":5.38885,"is_reserved":false,"is_disabled":false,"rental_uris":{"android":"levelo://app?vid=82dfcc7c-f385-419c-896b-d78c2000f617","ios":"levelo://app?vid=82dfcc7c-f385-419c-896b-d78c2000f617"},"vehicle_type_id":"4","last_reported":1748128149,"current_range_meters":3600,"station_id":"ce4bgk12rcd13ifvqbi0","pricing_plan_id":"cebpf4jnsgd1na2vs0mg"},{"bike_id":"4c964f5d-e069-4f21-b01b-d956923b5719","system_id":"levelo_inurba_marseille","lat":43.23176,"lon":5.39998,"is_reserved":false,"is_disabled":false,"rental_uris":{"android":"levelo://app?vid=4c964f5d-e069-4f21-b01b-d956923b5719","ios":"levelo://app?vid=4c964f5d-e069-4f21-b01b-d956923b5719"},"vehicle_type_id":"4","last_reported":1748128149,"current_range_meters":4000,"station_id":"ce4bhn12rcd13ifvqgqg","pricing_plan_id":"cebpf4jnsgd1na2vs0mg"},{"bike_id":"c2850953-f086-4bb2-9fc6-c49c22c65224","system_id":"levelo_inurba_marseille","lat":43.29515,"lon":5.39052,"is_reserved":false,"is_disabled":false,"rental_uris":{"android":"levelo://app?vid=c2850953-f086-4bb2-9fc6-c49c22c65224","ios":"levelo://app?vid=c2850953-f086-4bb2-9fc6-c49c22c65224"},"vehicle_type_id":"4","last_reported":1748128149,"current_range_meters":4000,"station_id":"ce4bh3p2rcd13ifvqdp0","pricing_plan_id":"cebpf4jnsgd1na2vs0mg"},{"bike_id":"bea7582b-93ec-43e2-b1c2-8252db79e7e5","system_id":"levelo_inurba_marseille","lat":43.28932,"lon":5.36643,"is_reserved":false,"is_disabled":false,"rental_uris":{"android":"levelo://app?vid=bea7582b-93ec-43e2-b1c2-8252db79e7e5","ios":"levelo://app?vid=bea7582b-93ec-43e2-b1c2-8252db79e7e5"},"vehicle_type_id":"4","last_reported":1748128149,"current_range_meters":3600,"station_id":"ce4bhap2rcd13ifvqek0","pricing_plan_id":"cebpf4jnsgd1na2vs0mg"},{"bike_id":"194666df-d60f-4dbf-918c-87098827f0fb","system_id":"levelo_inurba_marseille","lat":43.29403,"lon":5.37919,"is_reserved":false,"is_disabled":true,"rental_uris":{"android":"levelo://app?vid=194666df-d60f-4dbf-918c-87098827f0fb","ios":"levelo://app?vid=194666df-d60f-4dbf-918c-87098827f0fb"},"vehicle_type_id":"4","last_reported":1748128149,"current_range_meters":4000,"station_id":"","pricing_plan_id":"cebpf4jnsgd1na2vs0mg"},{"bike_id":"fa0c677d-6f6b-4d4d-9918-257232435159","system_id":"levelo_inurba_marseille","lat":43.27374,"lon":5.36255,"is_reserved":false,"is_disabled":false,"rental_uris":{"android":"levelo://app?vid=fa0c677d-6f6b-4d4d-9918-257232435159","ios":"levelo://app?vid=fa0c677d-6f6b-4d4d-9918-257232435159"},"vehicle_type_id":"4","last_reported":1748128149,"current_range_meters":4000,"station_id":"ce4bhbh2rcd13ifvqeo0","pricing_plan_id":"cebpf4jnsgd1na2vs0mg"},{"bike_id":"afbc3b5a-0c31-4cfe-9865-526201d075fd","system_id":"levelo_inurba_marseille","lat":43.25113,"lon":5.40316,"is_reserved":false,"is_disabled":false,"rental_uris":{"android":"levelo://app?vid=afbc3b5a-0c31-4cfe-9865-526201d075fd","ios":"levelo://app?vid=afbc3b5a-0c31-4cfe-9865-526201d075fd"},"vehicle_type_id":"4","last_reported":1748128149,"current_range_meters":4400,"station_id":"ce4bhlh2rcd13ifvqgig","pricing_plan_id":"cebpf4jnsgd1na2vs0mg"},{"bike_id":"a2f1296c-e4fc-45d6-be73-b896b487012e","system_id":"levelo_inurba_marseille","lat":43.286099,"lon":5.350997,"is_reserved":false,"is_disabled":true,"rental_uris":{"android":"levelo://app?vid=a2f1296c-e4fc-45d6-be73-b896b487012e","ios":"levelo://app?vid=a2f1296c-e4fc-45d6-be73-b896b487012e"},"vehicle_type_id":"4","last_reported":1748128149,"current_range_meters":4400,"station_id":"ce4bhch2rcd13ifvqeug","pricing_plan_id":"cebpf4jnsgd1na2vs0mg"},{"bike_id":"159074da-e8aa-43e1-a6e0-7b97a7a41596","system_id":"levelo_inurba_marseille","lat":43.2927,"lon":5.40115,"is_reserved":false,"is_disabled":false,"rental_uris":{"android":"levelo://app?vid=159074da-e8aa-43e1-a6e0-7b97a7a41596","ios":"levelo://app?vid=159074da-e8aa-43e1-a6e0-7b97a7a41596"},"vehicle_type_id":"4","last_reported":1748128149,"current_range_meters":4400,"station_id":"ce4bh312rcd13ifvqdk0","pricing_plan_id":"cebpf4jnsgd1na2vs0mg"},{"bike_id":"105f539f-8dc7-446c-a3c0-1e30efc168b9","system_id":"levelo_inurba_marseille","lat":43.265667,"lon":5.380587,"is_reserved":false,"is_disabled":false,"rental_uris":{"android":"levelo://app?vid=105f539f-8dc7-446c-a3c0-1e30efc168b9","ios":"levelo://app?vid=105f539f-8dc7-446c-a3c0-1e30efc168b9"},"vehicle_type_id":"4","last_reported":1748128149,"current_range_meters":4400,"station_id":"ce4bhh92rcd13ifvqfh0","pricing_plan_id":"cebpf4jnsgd1na2vs0mg"},{"bike_id":"398ac2c0-7185-42b7-b995-ea97c3f0a79d","system_id":"levelo_inurba_marseille","lat":43.232032,"lon":5.355378,"is_reserved":false,"is_disabled":false,"rental_uris":{"android":"levelo://app?vid=398ac2c0-7185-42b7-b995-ea97c3f0a79d","ios":"levelo://app?vid=398ac2c0-7185-42b7-b995-ea97c3f0a79d"},"vehicle_type_id":"4","last_reported":1748128149,"current_range_meters":4400,"station_id":"ce4bhu92rcd13ifvqi70","pricing_plan_id":"cebpf4jnsgd1na2vs0mg"},{"bike_id":"78b173e1-6c01-4e99-a5bb-386ca9a10fc2","system_id":"levelo_inurba_marseille","lat":43.27494,"lon":5.42449,"is_reserved":false,"is_disabled":false,"rental_uris":{"android":"levelo://app?vid=78b173e1-6c01-4e99-a5bb-386ca9a10fc2","ios":"levelo://app?vid=78b173e1-6c01-4e99-a5bb-386ca9a10fc2"},"vehicle_type_id":"4","last_reported":1748128149,"current_range_meters":4400,"station_id":"ce4bhn92rcd13ifvqgrg","pricing_plan_id":"cebpf4jnsgd1na2vs0mg"},{"bike_id":"0e777946-8220-4d61-a688-c2930cc974cc","system_id":"levelo_inurba_marseille","lat":43.30257,"lon":5.40063,"is_reserved":false,"is_disabled":false,"rental_uris":{"android":"levelo://app?vid=0e777946-8220-4d61-a688-c2930cc974cc","ios":"levelo://app?vid=0e777946-8220-4d61-a688-c2930cc974cc"},"vehicle_type_id":"4","last_reported":1748128149,"current_range_meters":4400,"station_id":"ce4bgvh2rcd13ifvqcs0","pricing_plan_id":"cebpf4jnsgd1na2vs0mg"},{"bike_id":"dfc12ae8-1c26-45e1-8fd5-25609a6f4238","system_id":"levelo_inurba_marseille","lat":43.27076,"lon":5.42284,"is_reserved":false,"is_disabled":false,"rental_uris":{"android":"levelo://app?vid=dfc12ae8-1c26-45e1-8fd5-25609a6f4238","ios":"levelo://app?vid=dfc12ae8-1c26-45e1-8fd5-25609a6f4238"},"vehicle_type_id":"4","last_reported":1748128149,"current_range_meters":4400,"station_id":"ce4bhk92rcd13ifvqgb0","pricing_plan_id":"cebpf4jnsgd1na2vs0mg"},{"bike_id":"44cfd2d7-1ec9-4daf-8563-4cdb05914be6","system_id":"levelo_inurba_marseille","lat":43.27303,"lon":5.39169,"is_reserved":false,"is_disabled":false,"rental_uris":{"android":"levelo://app?vid=44cfd2d7-1ec9-4daf-8563-4cdb05914be6","ios":"levelo://app?vid=44cfd2d7-1ec9-4daf-8563-4cdb05914be6"},"vehicle_type_id":"4","last_reported":1748128149,"current_range_meters":4400,"station_id":"","pricing_plan_id":"cebpf4jnsgd1na2vs0mg"},{"bike_id":"edc74bc3-8dfe-45b5-909c-9787c01ce15f","system_id":"levelo_inurba_marseille","lat":43.31123,"lon":5.37773,"is_reserved":false,"is_disabled":false,"rental_uris":{"android":"levelo://app?vid=edc74bc3-8dfe-45b5-909c-9787c01ce15f","ios":"levelo://app?vid=edc74bc3-8dfe-45b5-909c-9787c01ce15f"},"vehicle_type_id":"4","last_reported":1748128149,"current_range_meters":4800,"station_id":"ce4bgt92rcd13ifvqcg0","pricing_plan_id":"cebpf4jnsgd1na2vs0mg"},{"bike_id":"0bc4813a-619a-49bb-90ab-a724b05b1daf","system_id":"levelo_inurba_marseille","lat":43.3025,"lon":5.40075,"is_reserved":false,"is_disabled":false,"rental_uris":{"android":"levelo://app?vid=0bc4813a-619a-49bb-90ab-a724b05b1daf","ios":"levelo://app?vid=0bc4813a-619a-49bb-90ab-a724b05b1daf"},"vehicle_type_id":"4","last_reported":1748128149,"current_range_meters":4400,"station_id":"ce4bgvh2rcd13ifvqcs0","pricing_plan_id":"cebpf4jnsgd1na2vs0mg"},{"bike_id":"ef086611-b401-4c64-a34c-e531bd9ebc47","system_id":"levelo_inurba_marseille","lat":43.30211,"lon":5.39467,"is_reserved":false,"is_disabled":false,"rental_uris":{"android":"levelo://app?vid=ef086611-b401-4c64-a34c-e531bd9ebc47","ios":"levelo://app?vid=ef086611-b401-4c64-a34c-e531bd9ebc47"},"vehicle_type_id":"4","last_reported":1748128149,"current_range_meters":4800,"station_id":"ce4bh0p2rcd13ifvqd70","pricing_plan_id":"cebpf4jnsgd1na2vs0mg"},{"bike_id":"409c7cee-6a73-4e57-9e67-c4efee8d135f","system_id":"levelo_inurba_marseille","lat":43.31486,"lon":5.37306,"is_reserved":false,"is_disabled":false,"rental_uris":{"android":"levelo://app?vid=409c7cee-6a73-4e57-9e67-c4efee8d135f","ios":"levelo://app?vid=409c7cee-6a73-4e57-9e67-c4efee8d135f"},"vehicle_type_id":"4","last_reported":1748128149,"current_range_meters":4800,"station_id":"ce4bgt12rcd13ifvqcd0","pricing_plan_id":"cebpf4jnsgd1na2vs0mg"},{"bike_id":"6e40d5dc-b2b6-481b-80e5-6a12d35990fd","system_id":"levelo_inurba_marseille","lat":43.28408,"lon":5.37518,"is_reserved":false,"is_disabled":false,"rental_uris":{"android":"levelo://app?vid=6e40d5dc-b2b6-481b-80e5-6a12d35990fd","ios":"levelo://app?vid=6e40d5dc-b2b6-481b-80e5-6a12d35990fd"},"vehicle_type_id":"4","last_reported":1748128149,"current_range_meters":4800,"station_id":"ce4bh412rcd13ifvqds0","pricing_plan_id":"cebpf4jnsgd1na2vs0mg"},{"bike_id":"2908970c-e91a-490c-a012-23e417ae409f","system_id":"levelo_inurba_marseille","lat":43.31068,"lon":5.38347,"is_reserved":false,"is_disabled":false,"rental_uris":{"android":"levelo://app?vid=2908970c-e91a-490c-a012-23e417ae409f","ios":"levelo://app?vid=2908970c-e91a-490c-a012-23e417ae409f"},"vehicle_type_id":"4","last_reported":1748128149,"current_range_meters":4800,"station_id":"ce4bgv92rcd13ifvqcr0","pricing_plan_id":"cebpf4jnsgd1na2vs0mg"},{"bike_id":"3b997ac5-fbf2-4785-aa51-1d1ca51a126f","system_id":"levelo_inurba_marseille","lat":43.29305,"lon":5.37441,"is_reserved":false,"is_disabled":true,"rental_uris":{"android":"levelo://app?vid=3b997ac5-fbf2-4785-aa51-1d1ca51a126f","ios":"levelo://app?vid=3b997ac5-fbf2-4785-aa51-1d1ca51a126f"},"vehicle_type_id":"4","last_reported":1748128149,"current_range_meters":5600,"station_id":"ce4bgi12rcd13ifvqb70","pricing_plan_id":"cebpf4jnsgd1na2vs0mg"},{"bike_id":"d33286c2-939f-48db-bfff-4b1ff23e1067","system_id":"levelo_inurba_marseille","lat":43.31877,"lon":5.40731,"is_reserved":false,"is_disabled":false,"rental_uris":{"android":"levelo://app?vid=d33286c2-939f-48db-bfff-4b1ff23e1067","ios":"levelo://app?vid=d33286c2-939f-48db-bfff-4b1ff23e1067"},"vehicle_type_id":"4","last_reported":1748128149,"current_range_meters":4800,"station_id":"ce4bhq12rcd13ifvqhig","pricing_plan_id":"cebpf4jnsgd1na2vs0mg"},{"bike_id":"bfd633be-a7e6-4d11-96e6-7ca9f4f58ac5","system_id":"levelo_inurba_marseille","lat":43.3032,"lon":5.40432,"is_reserved":false,"is_disabled":false,"rental_uris":{"android":"levelo://app?vid=bfd633be-a7e6-4d11-96e6-7ca9f4f58ac5","ios":"levelo://app?vid=bfd633be-a7e6-4d11-96e6-7ca9f4f58ac5"},"vehicle_type_id":"4","last_reported":1748128149,"current_range_meters":5600,"station_id":"ce4bh012rcd13ifvqd10","pricing_plan_id":"cebpf4jnsgd1na2vs0mg"},{"bike_id":"3b9ef39b-2a3d-491a-91cd-2670298085cf","system_id":"levelo_inurba_marseille","lat":43.25503,"lon":5.376493,"is_reserved":false,"is_disabled":false,"rental_uris":{"android":"levelo://app?vid=3b9ef39b-2a3d-491a-91cd-2670298085cf","ios":"levelo://app?vid=3b9ef39b-2a3d-491a-91cd-2670298085cf"},"vehicle_type_id":"4","last_reported":1748128149,"current_range_meters":5600,"station_id":"ce4bhh12rcd13ifvqff0","pricing_plan_id":"cebpf4jnsgd1na2vs0mg"},{"bike_id":"3a2244df-611f-4b6d-a778-36b52e274311","system_id":"levelo_inurba_marseille","lat":43.24673,"lon":5.38142,"is_reserved":false,"is_disabled":false,"rental_uris":{"android":"levelo://app?vid=3a2244df-611f-4b6d-a778-36b52e274311","ios":"levelo://app?vid=3a2244df-611f-4b6d-a778-36b52e274311"},"vehicle_type_id":"4","last_reported":1748128149,"current_range_meters":5600,"station_id":"ce4bhih2rcd13ifvqfr0","pricing_plan_id":"cebpf4jnsgd1na2vs0mg"},{"bike_id":"dcc8952c-72f3-491b-a5f7-8b6adc5da2dd","system_id":"levelo_inurba_marseille","lat":43.29305,"lon":5.37174,"is_reserved":false,"is_disabled":true,"rental_uris":{"android":"levelo://app?vid=dcc8952c-72f3-491b-a5f7-8b6adc5da2dd","ios":"levelo://app?vid=dcc8952c-72f3-491b-a5f7-8b6adc5da2dd"},"vehicle_type_id":"4","last_reported":1748128149,"current_range_meters":5600,"station_id":"ce4bgh92rcd13ifvqb40","pricing_plan_id":"cebpf4jnsgd1na2vs0mg"},{"bike_id":"8e57d20b-c38b-459f-8f5e-0fe106cc372c","system_id":"levelo_inurba_marseille","lat":43.25318,"lon":5.39366,"is_reserved":false,"is_disabled":false,"rental_uris":{"android":"levelo://app?vid=8e57d20b-c38b-459f-8f5e-0fe106cc372c","ios":"levelo://app?vid=8e57d20b-c38b-459f-8f5e-0fe106cc372c"},"vehicle_type_id":"4","last_reported":1748128149,"current_range_meters":6000,"station_id":"","pricing_plan_id":"cebpf4jnsgd1na2vs0mg"},{"bike_id":"4baa24f1-d165-4342-b6d5-d4dab9595b1a","system_id":"levelo_inurba_marseille","lat":43.26778,"lon":5.39421,"is_reserved":false,"is_disabled":false,"rental_uris":{"android":"levelo://app?vid=4baa24f1-d165-4342-b6d5-d4dab9595b1a","ios":"levelo://app?vid=4baa24f1-d165-4342-b6d5-d4dab9595b1a"},"vehicle_type_id":"4","last_reported":1748128149,"current_range_meters":6000,"station_id":"ce4bhh12rcd13ifvqfg0","pricing_plan_id":"cebpf4jnsgd1na2vs0mg"},{"bike_id":"0d0685ca-c1df-479e-912e-b1b42f3cc4ae","system_id":"levelo_inurba_marseille","lat":43.2693,"lon":5.38925,"is_reserved":false,"is_disabled":false,"rental_uris":{"android":"levelo://app?vid=0d0685ca-c1df-479e-912e-b1b42f3cc4ae","ios":"levelo://app?vid=0d0685ca-c1df-479e-912e-b1b42f3cc4ae"},"vehicle_type_id":"4","last_reported":1748128149,"current_range_meters":6000,"station_id":"ce4bhhh2rcd13ifvqfl0","pricing_plan_id":"cebpf4jnsgd1na2vs0mg"},{"bike_id":"664f2b2c-4651-4d39-8a4f-7e9486bd1102","system_id":"levelo_inurba_marseille","lat":43.30437,"lon":5.38887,"is_reserved":false,"is_disabled":false,"rental_uris":{"android":"levelo://app?vid=664f2b2c-4651-4d39-8a4f-7e9486bd1102","ios":"levelo://app?vid=664f2b2c-4651-4d39-8a4f-7e9486bd1102"},"vehicle_type_id":"4","last_reported":1748128149,"current_range_meters":6000,"station_id":"ce4bgk12rcd13ifvqbi0","pricing_plan_id":"cebpf4jnsgd1na2vs0mg"},{"bike_id":"fa529a29-8d21-4f13-9783-e1708a99c344","system_id":"levelo_inurba_marseille","lat":43.246516,"lon":5.388955,"is_reserved":false,"is_disabled":false,"rental_uris":{"android":"levelo://app?vid=fa529a29-8d21-4f13-9783-e1708a99c344","ios":"levelo://app?vid=fa529a29-8d21-4f13-9783-e1708a99c344"},"vehicle_type_id":"4","last_reported":1748128149,"current_range_meters":6400,"station_id":"ce4bhlh2rcd13ifvqgig","pricing_plan_id":"cebpf4jnsgd1na2vs0mg"},{"bike_id":"d256c6a4-d35b-4c32-b7db-2bac8ab63b70","system_id":"levelo_inurba_marseille","lat":43.231998,"lon":5.355455,"is_reserved":false,"is_disabled":false,"rental_uris":{"android":"levelo://app?vid=d256c6a4-d35b-4c32-b7db-2bac8ab63b70","ios":"levelo://app?vid=d256c6a4-d35b-4c32-b7db-2bac8ab63b70"},"vehicle_type_id":"4","last_reported":1748128149,"current_range_meters":6400,"station_id":"ce4bhu92rcd13ifvqi70","pricing_plan_id":"cebpf4jnsgd1na2vs0mg"},{"bike_id":"5b4c0476-c125-440a-a460-ac52e594db45","system_id":"levelo_inurba_marseille","lat":43.31488,"lon":5.38636,"is_reserved":false,"is_disabled":false,"rental_uris":{"android":"levelo://app?vid=5b4c0476-c125-440a-a460-ac52e594db45","ios":"levelo://app?vid=5b4c0476-c125-440a-a460-ac52e594db45"},"vehicle_type_id":"4","last_reported":1748128149,"current_range_meters":6400,"station_id":"","pricing_plan_id":"cebpf4jnsgd1na2vs0mg"},{"bike_id":"df2de9b4-89f4-460c-aa9c-556390a633bf","system_id":"levelo_inurba_marseille","lat":43.28733,"lon":5.3608,"is_reserved":false,"is_disabled":false,"rental_uris":{"android":"levelo://app?vid=df2de9b4-89f4-460c-aa9c-556390a633bf","ios":"levelo://app?vid=df2de9b4-89f4-460c-aa9c-556390a633bf"},"vehicle_type_id":"4","last_reported":1748128149,"current_range_meters":6400,"station_id":"cki0cbj6b192h4jlfktg","pricing_plan_id":"cebpf4jnsgd1na2vs0mg"},{"bike_id":"d56b24c5-dda0-4d7c-b4d6-cbad805755a8","system_id":"levelo_inurba_marseille","lat":43.29449,"lon":5.39748,"is_reserved":false,"is_disabled":false,"rental_uris":{"android":"levelo://app?vid=d56b24c5-dda0-4d7c-b4d6-cbad805755a8","ios":"levelo://app?vid=d56b24c5-dda0-4d7c-b4d6-cbad805755a8"},"vehicle_type_id":"4","last_reported":1748128149,"current_range_meters":6400,"station_id":"ce4bh3h2rcd13ifvqdo0","pricing_plan_id":"cebpf4jnsgd1na2vs0mg"},{"bike_id":"599bcd01-ded7-4722-b8f7-da82a8661aa9","system_id":"levelo_inurba_marseille","lat":43.29439,"lon":5.39756,"is_reserved":false,"is_disabled":false,"rental_uris":{"android":"levelo://app?vid=599bcd01-ded7-4722-b8f7-da82a8661aa9","ios":"levelo://app?vid=599bcd01-ded7-4722-b8f7-da82a8661aa9"},"vehicle_type_id":"4","last_reported":1748128149,"current_range_meters":6400,"station_id":"ce4bh3h2rcd13ifvqdo0","pricing_plan_id":"cebpf4jnsgd1na2vs0mg"},{"bike_id":"f17f9a9f-4c8f-4469-bc0d-5bbdf70d1f51","system_id":"levelo_inurba_marseille","lat":43.27411,"lon":5.39424,"is_reserved":false,"is_disabled":false,"rental_uris":{"android":"levelo://app?vid=f17f9a9f-4c8f-4469-bc0d-5bbdf70d1f51","ios":"levelo://app?vid=f17f9a9f-4c8f-4469-bc0d-5bbdf70d1f51"},"vehicle_type_id":"4","last_reported":1748128149,"current_range_meters":6400,"station_id":"ce4bhdp2rcd13ifvqf20","pricing_plan_id":"cebpf4jnsgd1na2vs0mg"},{"bike_id":"f43726e7-c6dc-424f-ada9-a0044329bb8c","system_id":"levelo_inurba_marseille","lat":43.29564,"lon":5.39976,"is_reserved":false,"is_disabled":false,"rental_uris":{"android":"levelo://app?vid=f43726e7-c6dc-424f-ada9-a0044329bb8c","ios":"levelo://app?vid=f43726e7-c6dc-424f-ada9-a0044329bb8c"},"vehicle_type_id":"4","last_reported":1748128149,"current_range_meters":6400,"station_id":"ce4bh312rcd13ifvqdj0","pricing_plan_id":"cebpf4jnsgd1na2vs0mg"},{"bike_id":"f3d1c10e-7331-4d70-87c4-d8d1e4be78e2","system_id":"levelo_inurba_marseille","lat":43.3043,"lon":5.38882,"is_reserved":false,"is_disabled":false,"rental_uris":{"android":"levelo://app?vid=f3d1c10e-7331-4d70-87c4-d8d1e4be78e2","ios":"levelo://app?vid=f3d1c10e-7331-4d70-87c4-d8d1e4be78e2"},"vehicle_type_id":"4","last_reported":1748128149,"current_range_meters":6800,"station_id":"ce4bgk12rcd13ifvqbi0","pricing_plan_id":"cebpf4jnsgd1na2vs0mg"},{"bike_id":"d562ae30-b1e7-4a7a-94ad-92b7cc645da1","system_id":"levelo_inurba_marseille","lat":43.27677,"lon":5.38892,"is_reserved":false,"is_disabled":true,"rental_uris":{"android":"levelo://app?vid=d562ae30-b1e7-4a7a-94ad-92b7cc645da1","ios":"levelo://app?vid=d562ae30-b1e7-4a7a-94ad-92b7cc645da1"},"vehicle_type_id":"4","last_reported":1748128149,"current_range_meters":6800,"station_id":"ce4bhi12rcd13ifvqfo0","pricing_plan_id":"cebpf4jnsgd1na2vs0mg"},{"bike_id":"500ac299-46e6-47cc-84bf-cf721435b484","system_id":"levelo_inurba_marseille","lat":43.29216,"lon":5.36072,"is_reserved":false,"is_disabled":false,"rental_uris":{"android":"levelo://app?vid=500ac299-46e6-47cc-84bf-cf721435b484","ios":"levelo://app?vid=500ac299-46e6-47cc-84bf-cf721435b484"},"vehicle_type_id":"4","last_reported":1748128149,"current_range_meters":6800,"station_id":"ce4bhbh2rcd13ifvqeqg","pricing_plan_id":"cebpf4jnsgd1na2vs0mg"},{"bike_id":"43e02c31-6e3f-4ffe-8537-f198543e5fc1","system_id":"levelo_inurba_marseille","lat":43.29708,"lon":5.37713,"is_reserved":false,"is_disabled":true,"rental_uris":{"android":"levelo://app?vid=43e02c31-6e3f-4ffe-8537-f198543e5fc1","ios":"levelo://app?vid=43e02c31-6e3f-4ffe-8537-f198543e5fc1"},"vehicle_type_id":"4","last_reported":1748128149,"current_range_meters":6800,"station_id":"ce4bgkh2rcd13ifvqbl0","pricing_plan_id":"cebpf4jnsgd1na2vs0mg"},{"bike_id":"25379fab-4557-4e1e-a0fa-8fcb0ca31cf7","system_id":"levelo_inurba_marseille","lat":43.25093,"lon":5.40331,"is_reserved":false,"is_disabled":false,"rental_uris":{"android":"levelo://app?vid=25379fab-4557-4e1e-a0fa-8fcb0ca31cf7","ios":"levelo://app?vid=25379fab-4557-4e1e-a0fa-8fcb0ca31cf7"},"vehicle_type_id":"4","last_reported":1748128149,"current_range_meters":6800,"station_id":"ce4bhlh2rcd13ifvqgig","pricing_plan_id":"cebpf4jnsgd1na2vs0mg"},{"bike_id":"b3836e6a-b05b-4ba7-ae61-833bde9258fe","system_id":"levelo_inurba_marseille","lat":43.32922,"lon":5.45198,"is_reserved":false,"is_disabled":false,"rental_uris":{"android":"levelo://app?vid=b3836e6a-b05b-4ba7-ae61-833bde9258fe","ios":"levelo://app?vid=b3836e6a-b05b-4ba7-ae61-833bde9258fe"},"vehicle_type_id":"4","last_reported":1748128149,"current_range_meters":6800,"station_id":"","pricing_plan_id":"cebpf4jnsgd1na2vs0mg"},{"bike_id":"8765b646-01b7-4e41-9edd-153638988997","system_id":"levelo_inurba_marseille","lat":43.29061,"lon":5.37157,"is_reserved":false,"is_disabled":false,"rental_uris":{"android":"levelo://app?vid=8765b646-01b7-4e41-9edd-153638988997","ios":"levelo://app?vid=8765b646-01b7-4e41-9edd-153638988997"},"vehicle_type_id":"4","last_reported":1748128149,"current_range_meters":6800,"station_id":"ce4bh5p2rcd13ifvqe4g","pricing_plan_id":"cebpf4jnsgd1na2vs0mg"},{"bike_id":"dffd3e87-ea0e-4e09-94a8-d890b046cc4f","system_id":"levelo_inurba_marseille","lat":43.28457,"lon":5.35895,"is_reserved":false,"is_disabled":false,"rental_uris":{"android":"levelo://app?vid=dffd3e87-ea0e-4e09-94a8-d890b046cc4f","ios":"levelo://app?vid=dffd3e87-ea0e-4e09-94a8-d890b046cc4f"},"vehicle_type_id":"4","last_reported":1748128149,"current_range_meters":6800,"station_id":"ce4bhah2rcd13ifvqei0","pricing_plan_id":"cebpf4jnsgd1na2vs0mg"},{"bike_id":"9790ac68-2c2a-4c57-805f-1df6625ad5c6","system_id":"levelo_inurba_marseille","lat":43.30642,"lon":5.40082,"is_reserved":false,"is_disabled":false,"rental_uris":{"android":"levelo://app?vid=9790ac68-2c2a-4c57-805f-1df6625ad5c6","ios":"levelo://app?vid=9790ac68-2c2a-4c57-805f-1df6625ad5c6"},"vehicle_type_id":"4","last_reported":1748128149,"current_range_meters":6800,"station_id":"ce4bh112rcd13ifvqda0","pricing_plan_id":"cebpf4jnsgd1na2vs0mg"},{"bike_id":"13fdf9f5-cec8-4026-80f5-b5e3db77f7b1","system_id":"levelo_inurba_marseille","lat":43.2407,"lon":5.37763,"is_reserved":false,"is_disabled":false,"rental_uris":{"android":"levelo://app?vid=13fdf9f5-cec8-4026-80f5-b5e3db77f7b1","ios":"levelo://app?vid=13fdf9f5-cec8-4026-80f5-b5e3db77f7b1"},"vehicle_type_id":"4","last_reported":1748128149,"current_range_meters":7200,"station_id":"ce4bhnp2rcd13ifvqgvg","pricing_plan_id":"cebpf4jnsgd1na2vs0mg"},{"bike_id":"feb69719-fe4e-435f-aded-737beca36e9f","system_id":"levelo_inurba_marseille","lat":43.30942,"lon":5.40142,"is_reserved":false,"is_disabled":false,"rental_uris":{"android":"levelo://app?vid=feb69719-fe4e-435f-aded-737beca36e9f","ios":"levelo://app?vid=feb69719-fe4e-435f-aded-737beca36e9f"},"vehicle_type_id":"4","last_reported":1748128149,"current_range_meters":7200,"station_id":"ce4bgvp2rcd13ifvqct0","pricing_plan_id":"cebpf4jnsgd1na2vs0mg"},{"bike_id":"69175057-4dbc-4fec-88c6-d6d91ee82527","system_id":"levelo_inurba_marseille","lat":43.29189,"lon":5.35804,"is_reserved":false,"is_disabled":false,"rental_uris":{"android":"levelo://app?vid=69175057-4dbc-4fec-88c6-d6d91ee82527","ios":"levelo://app?vid=69175057-4dbc-4fec-88c6-d6d91ee82527"},"vehicle_type_id":"4","last_reported":1748128149,"current_range_meters":7200,"station_id":"ce4bhb12rcd13ifvqel0","pricing_plan_id":"cebpf4jnsgd1na2vs0mg"},{"bike_id":"7205bda3-de4e-49dd-9b52-968703f81100","system_id":"levelo_inurba_marseille","lat":43.28935,"lon":5.3962,"is_reserved":false,"is_disabled":false,"rental_uris":{"android":"levelo://app?vid=7205bda3-de4e-49dd-9b52-968703f81100","ios":"levelo://app?vid=7205bda3-de4e-49dd-9b52-968703f81100"},"vehicle_type_id":"4","last_reported":1748128149,"current_range_meters":7200,"station_id":"ce4bh3h2rcd13ifvqdn0","pricing_plan_id":"cebpf4jnsgd1na2vs0mg"},{"bike_id":"7ef89cea-786a-4c68-84a3-7b8d333f1591","system_id":"levelo_inurba_marseille","lat":43.29291,"lon":5.37464,"is_reserved":false,"is_disabled":false,"rental_uris":{"android":"levelo://app?vid=7ef89cea-786a-4c68-84a3-7b8d333f1591","ios":"levelo://app?vid=7ef89cea-786a-4c68-84a3-7b8d333f1591"},"vehicle_type_id":"4","last_reported":1748128149,"current_range_meters":6800,"station_id":"ce4bgi12rcd13ifvqb70","pricing_plan_id":"cebpf4jnsgd1na2vs0mg"},{"bike_id":"2920147d-122b-417b-abcf-ba50572b0890","system_id":"levelo_inurba_marseille","lat":43.23188,"lon":5.35557,"is_reserved":false,"is_disabled":false,"rental_uris":{"android":"levelo://app?vid=2920147d-122b-417b-abcf-ba50572b0890","ios":"levelo://app?vid=2920147d-122b-417b-abcf-ba50572b0890"},"vehicle_type_id":"4","last_reported":1748128149,"current_range_meters":7200,"station_id":"ce4bhu92rcd13ifvqi70","pricing_plan_id":"cebpf4jnsgd1na2vs0mg"},{"bike_id":"a17a842f-ba04-4d0e-9f38-09b9d8144085","system_id":"levelo_inurba_marseille","lat":43.269063,"lon":5.402763,"is_reserved":false,"is_disabled":true,"rental_uris":{"android":"levelo://app?vid=a17a842f-ba04-4d0e-9f38-09b9d8144085","ios":"levelo://app?vid=a17a842f-ba04-4d0e-9f38-09b9d8144085"},"vehicle_type_id":"4","last_reported":1748128149,"current_range_meters":7200,"station_id":"cjm6bp8fraef2m0cb0m0","pricing_plan_id":"cebpf4jnsgd1na2vs0mg"},{"bike_id":"9cf27f2d-4ac6-4717-93ce-55bc5dbf8c58","system_id":"levelo_inurba_marseille","lat":43.24686,"lon":5.38131,"is_reserved":false,"is_disabled":false,"rental_uris":{"android":"levelo://app?vid=9cf27f2d-4ac6-4717-93ce-55bc5dbf8c58","ios":"levelo://app?vid=9cf27f2d-4ac6-4717-93ce-55bc5dbf8c58"},"vehicle_type_id":"4","last_reported":1748128149,"current_range_meters":7200,"station_id":"ce4bhih2rcd13ifvqfr0","pricing_plan_id":"cebpf4jnsgd1na2vs0mg"},{"bike_id":"c16413fd-5d65-4ca2-8681-abb95bdf2d2a","system_id":"levelo_inurba_marseille","lat":43.309545,"lon":5.371387,"is_reserved":false,"is_disabled":false,"rental_uris":{"android":"levelo://app?vid=c16413fd-5d65-4ca2-8681-abb95bdf2d2a","ios":"levelo://app?vid=c16413fd-5d65-4ca2-8681-abb95bdf2d2a"},"vehicle_type_id":"4","last_reported":1748128149,"current_range_meters":7200,"station_id":"","pricing_plan_id":"cebpf4jnsgd1na2vs0mg"},{"bike_id":"7f0b394c-a118-4d23-8406-957b8f218434","system_id":"levelo_inurba_marseille","lat":43.28562,"lon":5.39504,"is_reserved":false,"is_disabled":false,"rental_uris":{"android":"levelo://app?vid=7f0b394c-a118-4d23-8406-957b8f218434","ios":"levelo://app?vid=7f0b394c-a118-4d23-8406-957b8f218434"},"vehicle_type_id":"4","last_reported":1748128149,"current_range_meters":7200,"station_id":"ce4bh292rcd13ifvqdg0","pricing_plan_id":"cebpf4jnsgd1na2vs0mg"},{"bike_id":"4a4765d4-6fff-437d-a762-112968c6f548","system_id":"levelo_inurba_marseille","lat":43.29554,"lon":5.39974,"is_reserved":false,"is_disabled":false,"rental_uris":{"android":"levelo://app?vid=4a4765d4-6fff-437d-a762-112968c6f548","ios":"levelo://app?vid=4a4765d4-6fff-437d-a762-112968c6f548"},"vehicle_type_id":"4","last_reported":1748128149,"current_range_meters":7200,"station_id":"ce4bh312rcd13ifvqdj0","pricing_plan_id":"cebpf4jnsgd1na2vs0mg"},{"bike_id":"c8f48b82-02ee-427e-b5b1-64a05301ddb6","system_id":"levelo_inurba_marseille","lat":43.30252,"lon":5.400657,"is_reserved":false,"is_disabled":false,"rental_uris":{"android":"levelo://app?vid=c8f48b82-02ee-427e-b5b1-64a05301ddb6","ios":"levelo://app?vid=c8f48b82-02ee-427e-b5b1-64a05301ddb6"},"vehicle_type_id":"4","last_reported":1748128149,"current_range_meters":8000,"station_id":"ce4bgvh2rcd13ifvqcs0","pricing_plan_id":"cebpf4jnsgd1na2vs0mg"},{"bike_id":"ccf8f055-3943-4d1f-8422-80c8d7e361da","system_id":"levelo_inurba_marseille","lat":43.25827,"lon":5.39426,"is_reserved":false,"is_disabled":false,"rental_uris":{"android":"levelo://app?vid=ccf8f055-3943-4d1f-8422-80c8d7e361da","ios":"levelo://app?vid=ccf8f055-3943-4d1f-8422-80c8d7e361da"},"vehicle_type_id":"4","last_reported":1748128149,"current_range_meters":8000,"station_id":"ce4bhip2rcd13ifvqft0","pricing_plan_id":"cebpf4jnsgd1na2vs0mg"},{"bike_id":"4f599a81-267a-4ad9-a831-9a79f3109a65","system_id":"levelo_inurba_marseille","lat":43.27827,"lon":5.40719,"is_reserved":false,"is_disabled":false,"rental_uris":{"android":"levelo://app?vid=4f599a81-267a-4ad9-a831-9a79f3109a65","ios":"levelo://app?vid=4f599a81-267a-4ad9-a831-9a79f3109a65"},"vehicle_type_id":"4","last_reported":1748128149,"current_range_meters":8000,"station_id":"ce4bhnh2rcd13ifvqgtg","pricing_plan_id":"cebpf4jnsgd1na2vs0mg"},{"bike_id":"40d5f5df-f4a7-41a4-b16d-63484ff0379d","system_id":"levelo_inurba_marseille","lat":43.309292,"lon":5.401429,"is_reserved":false,"is_disabled":true,"rental_uris":{"android":"levelo://app?vid=40d5f5df-f4a7-41a4-b16d-63484ff0379d","ios":"levelo://app?vid=40d5f5df-f4a7-41a4-b16d-63484ff0379d"},"vehicle_type_id":"4","last_reported":1748128149,"current_range_meters":8000,"station_id":"ce4bgvp2rcd13ifvqct0","pricing_plan_id":"cebpf4jnsgd1na2vs0mg"},{"bike_id":"fc4bc14e-e750-47b5-97a4-f93c8ca82697","system_id":"levelo_inurba_marseille","lat":43.28405,"lon":5.37519,"is_reserved":false,"is_disabled":false,"rental_uris":{"android":"levelo://app?vid=fc4bc14e-e750-47b5-97a4-f93c8ca82697","ios":"levelo://app?vid=fc4bc14e-e750-47b5-97a4-f93c8ca82697"},"vehicle_type_id":"4","last_reported":1748128149,"current_range_meters":8000,"station_id":"ce4bh412rcd13ifvqds0","pricing_plan_id":"cebpf4jnsgd1na2vs0mg"},{"bike_id":"b9c2ccd4-cfa0-4f0c-89c5-b4326d242752","system_id":"levelo_inurba_marseille","lat":43.240662,"lon":5.377543,"is_reserved":false,"is_disabled":false,"rental_uris":{"android":"levelo://app?vid=b9c2ccd4-cfa0-4f0c-89c5-b4326d242752","ios":"levelo://app?vid=b9c2ccd4-cfa0-4f0c-89c5-b4326d242752"},"vehicle_type_id":"4","last_reported":1748128149,"current_range_meters":8400,"station_id":"ce4bhnp2rcd13ifvqgvg","pricing_plan_id":"cebpf4jnsgd1na2vs0mg"},{"bike_id":"2c6c1601-7ad3-41b8-85f4-aa4519205b7c","system_id":"levelo_inurba_marseille","lat":43.25172,"lon":5.40376,"is_reserved":false,"is_disabled":false,"rental_uris":{"android":"levelo://app?vid=2c6c1601-7ad3-41b8-85f4-aa4519205b7c","ios":"levelo://app?vid=2c6c1601-7ad3-41b8-85f4-aa4519205b7c"},"vehicle_type_id":"4","last_reported":1748128149,"current_range_meters":8400,"station_id":"","pricing_plan_id":"cebpf4jnsgd1na2vs0mg"},{"bike_id":"00cc24e5-83e1-489b-8c41-8ff6f4a3e688","system_id":"levelo_inurba_marseille","lat":43.30319,"lon":5.40427,"is_reserved":false,"is_disabled":false,"rental_uris":{"android":"levelo://app?vid=00cc24e5-83e1-489b-8c41-8ff6f4a3e688","ios":"levelo://app?vid=00cc24e5-83e1-489b-8c41-8ff6f4a3e688"},"vehicle_type_id":"4","last_reported":1748128149,"current_range_meters":8400,"station_id":"ce4bh012rcd13ifvqd10","pricing_plan_id":"cebpf4jnsgd1na2vs0mg"},{"bike_id":"75f8c4b9-c1e7-482a-b6d4-be91811e8385","system_id":"levelo_inurba_marseille","lat":43.26859,"lon":5.39318,"is_reserved":false,"is_disabled":false,"rental_uris":{"android":"levelo://app?vid=75f8c4b9-c1e7-482a-b6d4-be91811e8385","ios":"levelo://app?vid=75f8c4b9-c1e7-482a-b6d4-be91811e8385"},"vehicle_type_id":"4","last_reported":1748128149,"current_range_meters":8400,"station_id":"","pricing_plan_id":"cebpf4jnsgd1na2vs0mg"},{"bike_id":"24af8b93-e41b-4875-a755-f50e51e0b77e","system_id":"levelo_inurba_marseille","lat":43.23194,"lon":5.35549,"is_reserved":false,"is_disabled":false,"rental_uris":{"android":"levelo://app?vid=24af8b93-e41b-4875-a755-f50e51e0b77e","ios":"levelo://app?vid=24af8b93-e41b-4875-a755-f50e51e0b77e"},"vehicle_type_id":"4","last_reported":1748128149,"current_range_meters":8400,"station_id":"ce4bhu92rcd13ifvqi70","pricing_plan_id":"cebpf4jnsgd1na2vs0mg"},{"bike_id":"266f63d3-91cc-45e6-bcde-2a6b3263f52e","system_id":"levelo_inurba_marseille","lat":43.25114,"lon":5.40315,"is_reserved":false,"is_disabled":false,"rental_uris":{"android":"levelo://app?vid=266f63d3-91cc-45e6-bcde-2a6b3263f52e","ios":"levelo://app?vid=266f63d3-91cc-45e6-bcde-2a6b3263f52e"},"vehicle_type_id":"4","last_reported":1748128149,"current_range_meters":8400,"station_id":"ce4bhlh2rcd13ifvqgig","pricing_plan_id":"cebpf4jnsgd1na2vs0mg"},{"bike_id":"3e4bb39b-7a85-4195-9faa-1503b98d049a","system_id":"levelo_inurba_marseille","lat":43.25585,"lon":5.38223,"is_reserved":false,"is_disabled":false,"rental_uris":{"android":"levelo://app?vid=3e4bb39b-7a85-4195-9faa-1503b98d049a","ios":"levelo://app?vid=3e4bb39b-7a85-4195-9faa-1503b98d049a"},"vehicle_type_id":"4","last_reported":1748128149,"current_range_meters":8400,"station_id":"ce4bhih2rcd13ifvqfs0","pricing_plan_id":"cebpf4jnsgd1na2vs0mg"},{"bike_id":"3afe289c-83e9-43b4-b6eb-e353410c90db","system_id":"levelo_inurba_marseille","lat":43.29906,"lon":5.38155,"is_reserved":false,"is_disabled":false,"rental_uris":{"android":"levelo://app?vid=3afe289c-83e9-43b4-b6eb-e353410c90db","ios":"levelo://app?vid=3afe289c-83e9-43b4-b6eb-e353410c90db"},"vehicle_type_id":"4","last_reported":1748128149,"current_range_meters":8400,"station_id":"ce4bgj12rcd13ifvqbc0","pricing_plan_id":"cebpf4jnsgd1na2vs0mg"},{"bike_id":"bf8e8887-6d33-45c4-a469-449aeaef0cbc","system_id":"levelo_inurba_marseille","lat":43.2606,"lon":5.39393,"is_reserved":false,"is_disabled":false,"rental_uris":{"android":"levelo://app?vid=bf8e8887-6d33-45c4-a469-449aeaef0cbc","ios":"levelo://app?vid=bf8e8887-6d33-45c4-a469-449aeaef0cbc"},"vehicle_type_id":"4","last_reported":1748128149,"current_range_meters":8400,"station_id":"ce4bhh92rcd13ifvqfj0","pricing_plan_id":"cebpf4jnsgd1na2vs0mg"},{"bike_id":"456f4640-9fc1-407f-8ae0-2484c524b4b7","system_id":"levelo_inurba_marseille","lat":43.27172,"lon":5.40995,"is_reserved":false,"is_disabled":false,"rental_uris":{"android":"levelo://app?vid=456f4640-9fc1-407f-8ae0-2484c524b4b7","ios":"levelo://app?vid=456f4640-9fc1-407f-8ae0-2484c524b4b7"},"vehicle_type_id":"4","last_reported":1748128149,"current_range_meters":8400,"station_id":"ce4bhl12rcd13ifvqgf0","pricing_plan_id":"cebpf4jnsgd1na2vs0mg"},{"bike_id":"d2687c6b-2b92-4536-83c7-ceceeacc1deb","system_id":"levelo_inurba_marseille","lat":43.24667,"lon":5.38159,"is_reserved":false,"is_disabled":false,"rental_uris":{"android":"levelo://app?vid=d2687c6b-2b92-4536-83c7-ceceeacc1deb","ios":"levelo://app?vid=d2687c6b-2b92-4536-83c7-ceceeacc1deb"},"vehicle_type_id":"4","last_reported":1748128149,"current_range_meters":8400,"station_id":"ce4bhih2rcd13ifvqfr0","pricing_plan_id":"cebpf4jnsgd1na2vs0mg"},{"bike_id":"2c4a4036-284c-4ca2-8f6b-2892c6fa5f93","system_id":"levelo_inurba_marseille","lat":43.27809,"lon":5.40714,"is_reserved":false,"is_disabled":false,"rental_uris":{"android":"levelo://app?vid=2c4a4036-284c-4ca2-8f6b-2892c6fa5f93","ios":"levelo://app?vid=2c4a4036-284c-4ca2-8f6b-2892c6fa5f93"},"vehicle_type_id":"4","last_reported":1748128149,"current_range_meters":8400,"station_id":"ce4bhnh2rcd13ifvqgtg","pricing_plan_id":"cebpf4jnsgd1na2vs0mg"},{"bike_id":"f29710ee-d397-4fbd-a712-8a08177c451e","system_id":"levelo_inurba_marseille","lat":43.29027,"lon":5.38142,"is_reserved":false,"is_disabled":false,"rental_uris":{"android":"levelo://app?vid=f29710ee-d397-4fbd-a712-8a08177c451e","ios":"levelo://app?vid=f29710ee-d397-4fbd-a712-8a08177c451e"},"vehicle_type_id":"4","last_reported":1748128149,"current_range_meters":8400,"station_id":"ce4bh4p2rcd13ifvqe1g","pricing_plan_id":"cebpf4jnsgd1na2vs0mg"},{"bike_id":"7033f29b-2f82-40a9-922d-36b6315763bf","system_id":"levelo_inurba_marseille","lat":43.25107,"lon":5.4031,"is_reserved":false,"is_disabled":true,"rental_uris":{"android":"levelo://app?vid=7033f29b-2f82-40a9-922d-36b6315763bf","ios":"levelo://app?vid=7033f29b-2f82-40a9-922d-36b6315763bf"},"vehicle_type_id":"4","last_reported":1748128149,"current_range_meters":8400,"station_id":"ce4bhlh2rcd13ifvqgig","pricing_plan_id":"cebpf4jnsgd1na2vs0mg"},{"bike_id":"72e0cac9-485a-455e-9875-ab789aab5f94","system_id":"levelo_inurba_marseille","lat":43.24998,"lon":5.38925,"is_reserved":false,"is_disabled":false,"rental_uris":{"android":"levelo://app?vid=72e0cac9-485a-455e-9875-ab789aab5f94","ios":"levelo://app?vid=72e0cac9-485a-455e-9875-ab789aab5f94"},"vehicle_type_id":"4","last_reported":1748128149,"current_range_meters":8800,"station_id":"ce4bhgp2rcd13ifvqfd0","pricing_plan_id":"cebpf4jnsgd1na2vs0mg"},{"bike_id":"3581c28c-41f2-4cb7-b494-0448776c0438","system_id":"levelo_inurba_marseille","lat":43.296321,"lon":5.360316,"is_reserved":false,"is_disabled":false,"rental_uris":{"android":"levelo://app?vid=3581c28c-41f2-4cb7-b494-0448776c0438","ios":"levelo://app?vid=3581c28c-41f2-4cb7-b494-0448776c0438"},"vehicle_type_id":"4","last_reported":1748128149,"current_range_meters":8800,"station_id":"","pricing_plan_id":"cebpf4jnsgd1na2vs0mg"},{"bike_id":"909e7452-0790-45f8-87e1-42448bebfe9f","system_id":"levelo_inurba_marseille","lat":43.30638,"lon":5.400977,"is_reserved":false,"is_disabled":false,"rental_uris":{"android":"levelo://app?vid=909e7452-0790-45f8-87e1-42448bebfe9f","ios":"levelo://app?vid=909e7452-0790-45f8-87e1-42448bebfe9f"},"vehicle_type_id":"4","last_reported":1748128149,"current_range_meters":8800,"station_id":"ce4bh112rcd13ifvqda0","pricing_plan_id":"cebpf4jnsgd1na2vs0mg"},{"bike_id":"7d4313c8-0ca9-4d4f-bb96-9ef242bfa2ee","system_id":"levelo_inurba_marseille","lat":43.29252,"lon":5.38437,"is_reserved":false,"is_disabled":true,"rental_uris":{"android":"levelo://app?vid=7d4313c8-0ca9-4d4f-bb96-9ef242bfa2ee","ios":"levelo://app?vid=7d4313c8-0ca9-4d4f-bb96-9ef242bfa2ee"},"vehicle_type_id":"4","last_reported":1748128149,"current_range_meters":8800,"station_id":"ce4bh692rcd13ifvqea0","pricing_plan_id":"cebpf4jnsgd1na2vs0mg"},{"bike_id":"52269cbf-94f1-4b3a-a7ea-52e773ac04c5","system_id":"levelo_inurba_marseille","lat":43.255434,"lon":5.382265,"is_reserved":false,"is_disabled":false,"rental_uris":{"android":"levelo://app?vid=52269cbf-94f1-4b3a-a7ea-52e773ac04c5","ios":"levelo://app?vid=52269cbf-94f1-4b3a-a7ea-52e773ac04c5"},"vehicle_type_id":"4","last_reported":1748128149,"current_range_meters":8800,"station_id":"ce4bhih2rcd13ifvqfs0","pricing_plan_id":"cebpf4jnsgd1na2vs0mg"},{"bike_id":"9546d1ab-1ccb-4fe0-8b3b-7ffc67927051","system_id":"levelo_inurba_marseille","lat":43.2894,"lon":5.36634,"is_reserved":false,"is_disabled":true,"rental_uris":{"android":"levelo://app?vid=9546d1ab-1ccb-4fe0-8b3b-7ffc67927051","ios":"levelo://app?vid=9546d1ab-1ccb-4fe0-8b3b-7ffc67927051"},"vehicle_type_id":"4","last_reported":1748128149,"current_range_meters":8800,"station_id":"ce4bhap2rcd13ifvqek0","pricing_plan_id":"cebpf4jnsgd1na2vs0mg"},{"bike_id":"caf1e107-9dfd-47fc-aae0-9606d8eca857","system_id":"levelo_inurba_marseille","lat":43.2738,"lon":5.36249,"is_reserved":false,"is_disabled":true,"rental_uris":{"android":"levelo://app?vid=caf1e107-9dfd-47fc-aae0-9606d8eca857","ios":"levelo://app?vid=caf1e107-9dfd-47fc-aae0-9606d8eca857"},"vehicle_type_id":"4","last_reported":1748128149,"current_range_meters":8800,"station_id":"ce4bhbh2rcd13ifvqeo0","pricing_plan_id":"cebpf4jnsgd1na2vs0mg"},{"bike_id":"2f77c2c6-5a94-43ef-b2f5-1e7f2942d993","system_id":"levelo_inurba_marseille","lat":43.2466,"lon":5.38164,"is_reserved":false,"is_disabled":false,"rental_uris":{"android":"levelo://app?vid=2f77c2c6-5a94-43ef-b2f5-1e7f2942d993","ios":"levelo://app?vid=2f77c2c6-5a94-43ef-b2f5-1e7f2942d993"},"vehicle_type_id":"4","last_reported":1748128149,"current_range_meters":8800,"station_id":"ce4bhih2rcd13ifvqfr0","pricing_plan_id":"cebpf4jnsgd1na2vs0mg"},{"bike_id":"c0b51b19-5a3c-47b6-a728-20e9b0d3fca2","system_id":"levelo_inurba_marseille","lat":43.217613,"lon":5.346057,"is_reserved":false,"is_disabled":true,"rental_uris":{"android":"levelo://app?vid=c0b51b19-5a3c-47b6-a728-20e9b0d3fca2","ios":"levelo://app?vid=c0b51b19-5a3c-47b6-a728-20e9b0d3fca2"},"vehicle_type_id":"4","last_reported":1748128149,"current_range_meters":8800,"station_id":"st_cvj6r9ubvosntc0bgbag","pricing_plan_id":"cebpf4jnsgd1na2vs0mg"},{"bike_id":"62f84577-9b37-4d88-b150-a2fb5c6861aa","system_id":"levelo_inurba_marseille","lat":43.25581,"lon":5.38222,"is_reserved":false,"is_disabled":false,"rental_uris":{"android":"levelo://app?vid=62f84577-9b37-4d88-b150-a2fb5c6861aa","ios":"levelo://app?vid=62f84577-9b37-4d88-b150-a2fb5c6861aa"},"vehicle_type_id":"4","last_reported":1748128149,"current_range_meters":8800,"station_id":"ce4bhih2rcd13ifvqfs0","pricing_plan_id":"cebpf4jnsgd1na2vs0mg"},{"bike_id":"9e10a5b8-5080-4f7e-8499-b14ca29da876","system_id":"levelo_inurba_marseille","lat":43.29001,"lon":5.35614,"is_reserved":false,"is_disabled":true,"rental_uris":{"android":"levelo://app?vid=9e10a5b8-5080-4f7e-8499-b14ca29da876","ios":"levelo://app?vid=9e10a5b8-5080-4f7e-8499-b14ca29da876"},"vehicle_type_id":"4","last_reported":1748128149,"current_range_meters":9200,"station_id":"ce4bhb92rcd13ifvqen0","pricing_plan_id":"cebpf4jnsgd1na2vs0mg"},{"bike_id":"3c75e648-a525-4de9-93fa-090b0f418121","system_id":"levelo_inurba_marseille","lat":43.31345,"lon":5.36834,"is_reserved":false,"is_disabled":false,"rental_uris":{"android":"levelo://app?vid=3c75e648-a525-4de9-93fa-090b0f418121","ios":"levelo://app?vid=3c75e648-a525-4de9-93fa-090b0f418121"},"vehicle_type_id":"4","last_reported":1748128149,"current_range_meters":9200,"station_id":"","pricing_plan_id":"cebpf4jnsgd1na2vs0mg"},{"bike_id":"f6a2ad70-e892-43a9-86cf-4a2cd8307bf6","system_id":"levelo_inurba_marseille","lat":43.30289,"lon":5.3919,"is_reserved":false,"is_disabled":false,"rental_uris":{"android":"levelo://app?vid=f6a2ad70-e892-43a9-86cf-4a2cd8307bf6","ios":"levelo://app?vid=f6a2ad70-e892-43a9-86cf-4a2cd8307bf6"},"vehicle_type_id":"4","last_reported":1748128149,"current_range_meters":9200,"station_id":"ce4bgkh2rcd13ifvqbk0","pricing_plan_id":"cebpf4jnsgd1na2vs0mg"},{"bike_id":"ceb5dae6-874b-4d60-9609-82bcf4c8d4ed","system_id":"levelo_inurba_marseille","lat":43.3043,"lon":5.38839,"is_reserved":false,"is_disabled":true,"rental_uris":{"android":"levelo://app?vid=ceb5dae6-874b-4d60-9609-82bcf4c8d4ed","ios":"levelo://app?vid=ceb5dae6-874b-4d60-9609-82bcf4c8d4ed"},"vehicle_type_id":"4","last_reported":1748128149,"current_range_meters":9200,"station_id":"ce4bgk12rcd13ifvqbi0","pricing_plan_id":"cebpf4jnsgd1na2vs0mg"},{"bike_id":"aeb9ef90-389d-4ef3-899b-0a0feff09a32","system_id":"levelo_inurba_marseille","lat":43.31346,"lon":5.38024,"is_reserved":false,"is_disabled":false,"rental_uris":{"android":"levelo://app?vid=aeb9ef90-389d-4ef3-899b-0a0feff09a32","ios":"levelo://app?vid=aeb9ef90-389d-4ef3-899b-0a0feff09a32"},"vehicle_type_id":"4","last_reported":1748128149,"current_range_meters":9200,"station_id":"","pricing_plan_id":"cebpf4jnsgd1na2vs0mg"},{"bike_id":"40572cad-a796-4f87-a02c-44bcfdb01f65","system_id":"levelo_inurba_marseille","lat":43.273422,"lon":5.361547,"is_reserved":false,"is_disabled":false,"rental_uris":{"android":"levelo://app?vid=40572cad-a796-4f87-a02c-44bcfdb01f65","ios":"levelo://app?vid=40572cad-a796-4f87-a02c-44bcfdb01f65"},"vehicle_type_id":"4","last_reported":1748128149,"current_range_meters":9200,"station_id":"","pricing_plan_id":"cebpf4jnsgd1na2vs0mg"},{"bike_id":"164df6c4-8b0e-4e85-a047-6e531a0d7a20","system_id":"levelo_inurba_marseille","lat":43.29274,"lon":5.382148,"is_reserved":false,"is_disabled":false,"rental_uris":{"android":"levelo://app?vid=164df6c4-8b0e-4e85-a047-6e531a0d7a20","ios":"levelo://app?vid=164df6c4-8b0e-4e85-a047-6e531a0d7a20"},"vehicle_type_id":"4","last_reported":1748128149,"current_range_meters":9200,"station_id":"","pricing_plan_id":"cebpf4jnsgd1na2vs0mg"},{"bike_id":"2b503a14-0f1b-4fc7-814f-81d4754d2729","system_id":"levelo_inurba_marseille","lat":43.25489,"lon":5.37651,"is_reserved":false,"is_disabled":false,"rental_uris":{"android":"levelo://app?vid=2b503a14-0f1b-4fc7-814f-81d4754d2729","ios":"levelo://app?vid=2b503a14-0f1b-4fc7-814f-81d4754d2729"},"vehicle_type_id":"4","last_reported":1748128149,"current_range_meters":9200,"station_id":"ce4bhh12rcd13ifvqff0","pricing_plan_id":"cebpf4jnsgd1na2vs0mg"},{"bike_id":"fc8c72ad-ca61-42c6-ae90-f61b57e45328","system_id":"levelo_inurba_marseille","lat":43.278984,"lon":5.418656,"is_reserved":false,"is_disabled":false,"rental_uris":{"android":"levelo://app?vid=fc8c72ad-ca61-42c6-ae90-f61b57e45328","ios":"levelo://app?vid=fc8c72ad-ca61-42c6-ae90-f61b57e45328"},"vehicle_type_id":"4","last_reported":1748128149,"current_range_meters":9600,"station_id":"","pricing_plan_id":"cebpf4jnsgd1na2vs0mg"},{"bike_id":"1ce0d558-c03a-4109-9d26-d8982ff015ec","system_id":"levelo_inurba_marseille","lat":43.30787,"lon":5.37638,"is_reserved":false,"is_disabled":false,"rental_uris":{"android":"levelo://app?vid=1ce0d558-c03a-4109-9d26-d8982ff015ec","ios":"levelo://app?vid=1ce0d558-c03a-4109-9d26-d8982ff015ec"},"vehicle_type_id":"4","last_reported":1748128149,"current_range_meters":9600,"station_id":"ce4bgv92rcd13ifvqcq0","pricing_plan_id":"cebpf4jnsgd1na2vs0mg"},{"bike_id":"fb37a8d8-3db8-4399-ba84-4d18d2bde848","system_id":"levelo_inurba_marseille","lat":43.30636,"lon":5.40062,"is_reserved":false,"is_disabled":false,"rental_uris":{"android":"levelo://app?vid=fb37a8d8-3db8-4399-ba84-4d18d2bde848","ios":"levelo://app?vid=fb37a8d8-3db8-4399-ba84-4d18d2bde848"},"vehicle_type_id":"4","last_reported":1748128149,"current_range_meters":9600,"station_id":"ce4bh112rcd13ifvqda0","pricing_plan_id":"cebpf4jnsgd1na2vs0mg"},{"bike_id":"d8c73d26-ef14-4027-b859-a9644e254b3d","system_id":"levelo_inurba_marseille","lat":43.31475,"lon":5.36908,"is_reserved":false,"is_disabled":false,"rental_uris":{"android":"levelo://app?vid=d8c73d26-ef14-4027-b859-a9644e254b3d","ios":"levelo://app?vid=d8c73d26-ef14-4027-b859-a9644e254b3d"},"vehicle_type_id":"4","last_reported":1748128149,"current_range_meters":9600,"station_id":"","pricing_plan_id":"cebpf4jnsgd1na2vs0mg"},{"bike_id":"2db9b4dd-6c57-41f2-970a-2b6a881f3574","system_id":"levelo_inurba_marseille","lat":43.28025,"lon":5.3694,"is_reserved":false,"is_disabled":false,"rental_uris":{"android":"levelo://app?vid=2db9b4dd-6c57-41f2-970a-2b6a881f3574","ios":"levelo://app?vid=2db9b4dd-6c57-41f2-970a-2b6a881f3574"},"vehicle_type_id":"4","last_reported":1748128149,"current_range_meters":9600,"station_id":"ce4bha12rcd13ifvqef0","pricing_plan_id":"cebpf4jnsgd1na2vs0mg"},{"bike_id":"244b36a0-5585-4aef-a371-7da408ef9135","system_id":"levelo_inurba_marseille","lat":43.30252,"lon":5.40033,"is_reserved":false,"is_disabled":false,"rental_uris":{"android":"levelo://app?vid=244b36a0-5585-4aef-a371-7da408ef9135","ios":"levelo://app?vid=244b36a0-5585-4aef-a371-7da408ef9135"},"vehicle_type_id":"4","last_reported":1748128149,"current_range_meters":9600,"station_id":"ce4bgvh2rcd13ifvqcs0","pricing_plan_id":"cebpf4jnsgd1na2vs0mg"},{"bike_id":"5b0d5672-0126-429e-991d-77090094480a","system_id":"levelo_inurba_marseille","lat":43.29537,"lon":5.39401,"is_reserved":false,"is_disabled":false,"rental_uris":{"android":"levelo://app?vid=5b0d5672-0126-429e-991d-77090094480a","ios":"levelo://app?vid=5b0d5672-0126-429e-991d-77090094480a"},"vehicle_type_id":"4","last_reported":1748128149,"current_range_meters":9600,"station_id":"ce4bh292rcd13ifvqdf0","pricing_plan_id":"cebpf4jnsgd1na2vs0mg"},{"bike_id":"52d8e680-0f0c-4d08-80e9-8da68b5f2809","system_id":"levelo_inurba_marseille","lat":43.29592,"lon":5.38088,"is_reserved":false,"is_disabled":false,"rental_uris":{"android":"levelo://app?vid=52d8e680-0f0c-4d08-80e9-8da68b5f2809","ios":"levelo://app?vid=52d8e680-0f0c-4d08-80e9-8da68b5f2809"},"vehicle_type_id":"4","last_reported":1748128149,"current_range_meters":9600,"station_id":"ce4bgl12rcd13ifvqbo0","pricing_plan_id":"cebpf4jnsgd1na2vs0mg"},{"bike_id":"002cbebe-d947-4f4f-ae6f-b2096a3f220f","system_id":"levelo_inurba_marseille","lat":43.25511,"lon":5.37654,"is_reserved":false,"is_disabled":false,"rental_uris":{"android":"levelo://app?vid=002cbebe-d947-4f4f-ae6f-b2096a3f220f","ios":"levelo://app?vid=002cbebe-d947-4f4f-ae6f-b2096a3f220f"},"vehicle_type_id":"4","last_reported":1748128149,"current_range_meters":9600,"station_id":"ce4bhh12rcd13ifvqff0","pricing_plan_id":"cebpf4jnsgd1na2vs0mg"},{"bike_id":"317402d7-3cf9-48ed-a017-14be367d398d","system_id":"levelo_inurba_marseille","lat":43.32334,"lon":5.40615,"is_reserved":false,"is_disabled":false,"rental_uris":{"android":"levelo://app?vid=317402d7-3cf9-48ed-a017-14be367d398d","ios":"levelo://app?vid=317402d7-3cf9-48ed-a017-14be367d398d"},"vehicle_type_id":"4","last_reported":1748128149,"current_range_meters":10000,"station_id":"ce4bhq92rcd13ifvqhjg","pricing_plan_id":"cebpf4jnsgd1na2vs0mg"},{"bike_id":"b257e1c4-2f2e-4cd2-bdcb-f4495a7aed9a","system_id":"levelo_inurba_marseille","lat":43.32085,"lon":5.40806,"is_reserved":false,"is_disabled":false,"rental_uris":{"android":"levelo://app?vid=b257e1c4-2f2e-4cd2-bdcb-f4495a7aed9a","ios":"levelo://app?vid=b257e1c4-2f2e-4cd2-bdcb-f4495a7aed9a"},"vehicle_type_id":"4","last_reported":1748128149,"current_range_meters":10000,"station_id":"","pricing_plan_id":"cebpf4jnsgd1na2vs0mg"},{"bike_id":"350ab103-162d-48d8-afb6-0d14f65832ec","system_id":"levelo_inurba_marseille","lat":43.29593,"lon":5.38098,"is_reserved":false,"is_disabled":false,"rental_uris":{"android":"levelo://app?vid=350ab103-162d-48d8-afb6-0d14f65832ec","ios":"levelo://app?vid=350ab103-162d-48d8-afb6-0d14f65832ec"},"vehicle_type_id":"4","last_reported":1748128149,"current_range_meters":10000,"station_id":"ce4bgl12rcd13ifvqbo0","pricing_plan_id":"cebpf4jnsgd1na2vs0mg"},{"bike_id":"18b61f20-e4cc-4aad-bbd3-3608eeef8a47","system_id":"levelo_inurba_marseille","lat":43.27991,"lon":5.41667,"is_reserved":false,"is_disabled":false,"rental_uris":{"android":"levelo://app?vid=18b61f20-e4cc-4aad-bbd3-3608eeef8a47","ios":"levelo://app?vid=18b61f20-e4cc-4aad-bbd3-3608eeef8a47"},"vehicle_type_id":"4","last_reported":1748128149,"current_range_meters":10000,"station_id":"ce4bho12rcd13ifvqh1g","pricing_plan_id":"cebpf4jnsgd1na2vs0mg"},{"bike_id":"301fe2f8-a535-492e-8e34-7fadff48a616","system_id":"levelo_inurba_marseille","lat":43.30922,"lon":5.40149,"is_reserved":false,"is_disabled":false,"rental_uris":{"android":"levelo://app?vid=301fe2f8-a535-492e-8e34-7fadff48a616","ios":"levelo://app?vid=301fe2f8-a535-492e-8e34-7fadff48a616"},"vehicle_type_id":"4","last_reported":1748128149,"current_range_meters":10000,"station_id":"ce4bgvp2rcd13ifvqct0","pricing_plan_id":"cebpf4jnsgd1na2vs0mg"},{"bike_id":"631364b9-4f5e-4cc8-8e04-6ec26ba24d61","system_id":"levelo_inurba_marseille","lat":43.30135,"lon":5.387695,"is_reserved":false,"is_disabled":true,"rental_uris":{"android":"levelo://app?vid=631364b9-4f5e-4cc8-8e04-6ec26ba24d61","ios":"levelo://app?vid=631364b9-4f5e-4cc8-8e04-6ec26ba24d61"},"vehicle_type_id":"4","last_reported":1748128149,"current_range_meters":10000,"station_id":"ce4bghh2rcd13ifvqb60","pricing_plan_id":"cebpf4jnsgd1na2vs0mg"},{"bike_id":"6f9efe1e-88af-49ab-b47f-11b2b67541d0","system_id":"levelo_inurba_marseille","lat":43.24999,"lon":5.38924,"is_reserved":false,"is_disabled":false,"rental_uris":{"android":"levelo://app?vid=6f9efe1e-88af-49ab-b47f-11b2b67541d0","ios":"levelo://app?vid=6f9efe1e-88af-49ab-b47f-11b2b67541d0"},"vehicle_type_id":"4","last_reported":1748128149,"current_range_meters":9600,"station_id":"ce4bhgp2rcd13ifvqfd0","pricing_plan_id":"cebpf4jnsgd1na2vs0mg"},{"bike_id":"88ac5a91-56d3-4573-b0f2-5c6bbb7d986b","system_id":"levelo_inurba_marseille","lat":43.260615,"lon":5.396276,"is_reserved":false,"is_disabled":false,"rental_uris":{"android":"levelo://app?vid=88ac5a91-56d3-4573-b0f2-5c6bbb7d986b","ios":"levelo://app?vid=88ac5a91-56d3-4573-b0f2-5c6bbb7d986b"},"vehicle_type_id":"4","last_reported":1748128149,"current_range_meters":10000,"station_id":"","pricing_plan_id":"cebpf4jnsgd1na2vs0mg"},{"bike_id":"4d651d2a-3da8-4478-a72e-030ebde4d66d","system_id":"levelo_inurba_marseille","lat":43.306016,"lon":5.372219,"is_reserved":false,"is_disabled":false,"rental_uris":{"android":"levelo://app?vid=4d651d2a-3da8-4478-a72e-030ebde4d66d","ios":"levelo://app?vid=4d651d2a-3da8-4478-a72e-030ebde4d66d"},"vehicle_type_id":"4","last_reported":1748128149,"current_range_meters":10000,"station_id":"ce4bgqh2rcd13ifvqc4g","pricing_plan_id":"cebpf4jnsgd1na2vs0mg"},{"bike_id":"750d488e-82d0-4588-bfa9-99814a14e999","system_id":"levelo_inurba_marseille","lat":43.30803,"lon":5.43511,"is_reserved":false,"is_disabled":false,"rental_uris":{"android":"levelo://app?vid=750d488e-82d0-4588-bfa9-99814a14e999","ios":"levelo://app?vid=750d488e-82d0-4588-bfa9-99814a14e999"},"vehicle_type_id":"4","last_reported":1748128149,"current_range_meters":10800,"station_id":"ce4bhph2rcd13ifvqheg","pricing_plan_id":"cebpf4jnsgd1na2vs0mg"},{"bike_id":"bf1f7f3c-cd03-4e16-83bf-ebf54137f48e","system_id":"levelo_inurba_marseille","lat":43.290395,"lon":5.366375,"is_reserved":false,"is_disabled":false,"rental_uris":{"android":"levelo://app?vid=bf1f7f3c-cd03-4e16-83bf-ebf54137f48e","ios":"levelo://app?vid=bf1f7f3c-cd03-4e16-83bf-ebf54137f48e"},"vehicle_type_id":"4","last_reported":1748128149,"current_range_meters":10800,"station_id":"","pricing_plan_id":"cebpf4jnsgd1na2vs0mg"},{"bike_id":"a2969d9b-b308-43ba-a932-55b8bd550f28","system_id":"levelo_inurba_marseille","lat":43.31506,"lon":5.40356,"is_reserved":false,"is_disabled":false,"rental_uris":{"android":"levelo://app?vid=a2969d9b-b308-43ba-a932-55b8bd550f28","ios":"levelo://app?vid=a2969d9b-b308-43ba-a932-55b8bd550f28"},"vehicle_type_id":"4","last_reported":1748128149,"current_range_meters":10800,"station_id":"","pricing_plan_id":"cebpf4jnsgd1na2vs0mg"},{"bike_id":"aa2aee6c-d5a2-4b33-bb06-2abf49f421ae","system_id":"levelo_inurba_marseille","lat":43.2847,"lon":5.38408,"is_reserved":false,"is_disabled":true,"rental_uris":{"android":"levelo://app?vid=aa2aee6c-d5a2-4b33-bb06-2abf49f421ae","ios":"levelo://app?vid=aa2aee6c-d5a2-4b33-bb06-2abf49f421ae"},"vehicle_type_id":"4","last_reported":1748128149,"current_range_meters":10800,"station_id":"ce4bh512rcd13ifvqe3g","pricing_plan_id":"cebpf4jnsgd1na2vs0mg"},{"bike_id":"94919e29-6db7-4509-940e-3b50f3cb43e1","system_id":"levelo_inurba_marseille","lat":43.29725,"lon":5.37712,"is_reserved":false,"is_disabled":false,"rental_uris":{"android":"levelo://app?vid=94919e29-6db7-4509-940e-3b50f3cb43e1","ios":"levelo://app?vid=94919e29-6db7-4509-940e-3b50f3cb43e1"},"vehicle_type_id":"4","last_reported":1748128149,"current_range_meters":10800,"station_id":"ce4bgkh2rcd13ifvqbl0","pricing_plan_id":"cebpf4jnsgd1na2vs0mg"},{"bike_id":"ec4e2d8d-e29b-47f1-bc79-0bf34886502a","system_id":"levelo_inurba_marseille","lat":43.29527,"lon":5.39024,"is_reserved":false,"is_disabled":false,"rental_uris":{"android":"levelo://app?vid=ec4e2d8d-e29b-47f1-bc79-0bf34886502a","ios":"levelo://app?vid=ec4e2d8d-e29b-47f1-bc79-0bf34886502a"},"vehicle_type_id":"4","last_reported":1748128149,"current_range_meters":10800,"station_id":"ce4bh3p2rcd13ifvqdp0","pricing_plan_id":"cebpf4jnsgd1na2vs0mg"},{"bike_id":"4b21239c-4264-43d2-9677-18eac578f916","system_id":"levelo_inurba_marseille","lat":43.27823,"lon":5.40713,"is_reserved":false,"is_disabled":true,"rental_uris":{"android":"levelo://app?vid=4b21239c-4264-43d2-9677-18eac578f916","ios":"levelo://app?vid=4b21239c-4264-43d2-9677-18eac578f916"},"vehicle_type_id":"4","last_reported":1748128149,"current_range_meters":10800,"station_id":"ce4bhnh2rcd13ifvqgtg","pricing_plan_id":"cebpf4jnsgd1na2vs0mg"},{"bike_id":"f9a5a1a1-a701-43d7-bc4d-cf9e79f4f247","system_id":"levelo_inurba_marseille","lat":43.28558,"lon":5.39496,"is_reserved":false,"is_disabled":false,"rental_uris":{"android":"levelo://app?vid=f9a5a1a1-a701-43d7-bc4d-cf9e79f4f247","ios":"levelo://app?vid=f9a5a1a1-a701-43d7-bc4d-cf9e79f4f247"},"vehicle_type_id":"4","last_reported":1748128149,"current_range_meters":10800,"station_id":"ce4bh292rcd13ifvqdg0","pricing_plan_id":"cebpf4jnsgd1na2vs0mg"},{"bike_id":"eb110473-370f-41c4-8d1e-a5772b2d2990","system_id":"levelo_inurba_marseille","lat":43.30645,"lon":5.40095,"is_reserved":false,"is_disabled":false,"rental_uris":{"android":"levelo://app?vid=eb110473-370f-41c4-8d1e-a5772b2d2990","ios":"levelo://app?vid=eb110473-370f-41c4-8d1e-a5772b2d2990"},"vehicle_type_id":"4","last_reported":1748128149,"current_range_meters":10800,"station_id":"ce4bh112rcd13ifvqda0","pricing_plan_id":"cebpf4jnsgd1na2vs0mg"},{"bike_id":"27f92085-d5cf-4886-af5e-9543b0d59f92","system_id":"levelo_inurba_marseille","lat":43.29576,"lon":5.36742,"is_reserved":false,"is_disabled":false,"rental_uris":{"android":"levelo://app?vid=27f92085-d5cf-4886-af5e-9543b0d59f92","ios":"levelo://app?vid=27f92085-d5cf-4886-af5e-9543b0d59f92"},"vehicle_type_id":"4","last_reported":1748128149,"current_range_meters":10800,"station_id":"ce4bgph2rcd13ifvqc2g","pricing_plan_id":"cebpf4jnsgd1na2vs0mg"},{"bike_id":"b72ccfd1-35cf-4b02-9c1a-90aef7c74e5f","system_id":"levelo_inurba_marseille","lat":43.24863,"lon":5.44189,"is_reserved":false,"is_disabled":false,"rental_uris":{"android":"levelo://app?vid=b72ccfd1-35cf-4b02-9c1a-90aef7c74e5f","ios":"levelo://app?vid=b72ccfd1-35cf-4b02-9c1a-90aef7c74e5f"},"vehicle_type_id":"4","last_reported":1748128149,"current_range_meters":10800,"station_id":"","pricing_plan_id":"cebpf4jnsgd1na2vs0mg"},{"bike_id":"4db9f946-61ad-4d2c-aa52-0eaf2186d550","system_id":"levelo_inurba_marseille","lat":43.29279,"lon":5.40115,"is_reserved":false,"is_disabled":false,"rental_uris":{"android":"levelo://app?vid=4db9f946-61ad-4d2c-aa52-0eaf2186d550","ios":"levelo://app?vid=4db9f946-61ad-4d2c-aa52-0eaf2186d550"},"vehicle_type_id":"4","last_reported":1748128149,"current_range_meters":10800,"station_id":"ce4bh312rcd13ifvqdk0","pricing_plan_id":"cebpf4jnsgd1na2vs0mg"},{"bike_id":"927e3f29-24b9-4e3b-83cd-8df6b912e853","system_id":"levelo_inurba_marseille","lat":43.30279,"lon":5.37288,"is_reserved":false,"is_disabled":false,"rental_uris":{"android":"levelo://app?vid=927e3f29-24b9-4e3b-83cd-8df6b912e853","ios":"levelo://app?vid=927e3f29-24b9-4e3b-83cd-8df6b912e853"},"vehicle_type_id":"4","last_reported":1748128149,"current_range_meters":10800,"station_id":"","pricing_plan_id":"cebpf4jnsgd1na2vs0mg"},{"bike_id":"63c73c72-ec46-4177-9a06-13e001f4ae65","system_id":"levelo_inurba_marseille","lat":43.30213,"lon":5.39474,"is_reserved":false,"is_disabled":false,"rental_uris":{"android":"levelo://app?vid=63c73c72-ec46-4177-9a06-13e001f4ae65","ios":"levelo://app?vid=63c73c72-ec46-4177-9a06-13e001f4ae65"},"vehicle_type_id":"4","last_reported":1748128149,"current_range_meters":10800,"station_id":"ce4bh0p2rcd13ifvqd70","pricing_plan_id":"cebpf4jnsgd1na2vs0mg"},{"bike_id":"9b9ef349-5da1-4bfa-87de-6595ec01dc00","system_id":"levelo_inurba_marseille","lat":43.30921,"lon":5.40152,"is_reserved":false,"is_disabled":false,"rental_uris":{"android":"levelo://app?vid=9b9ef349-5da1-4bfa-87de-6595ec01dc00","ios":"levelo://app?vid=9b9ef349-5da1-4bfa-87de-6595ec01dc00"},"vehicle_type_id":"4","last_reported":1748128149,"current_range_meters":11200,"station_id":"ce4bgvp2rcd13ifvqct0","pricing_plan_id":"cebpf4jnsgd1na2vs0mg"},{"bike_id":"b66b54d5-96bc-483a-b967-5d632b6cf04f","system_id":"levelo_inurba_marseille","lat":43.26776,"lon":5.39417,"is_reserved":false,"is_disabled":false,"rental_uris":{"android":"levelo://app?vid=b66b54d5-96bc-483a-b967-5d632b6cf04f","ios":"levelo://app?vid=b66b54d5-96bc-483a-b967-5d632b6cf04f"},"vehicle_type_id":"4","last_reported":1748128149,"current_range_meters":10800,"station_id":"ce4bhh12rcd13ifvqfg0","pricing_plan_id":"cebpf4jnsgd1na2vs0mg"},{"bike_id":"ab4b64de-8bbf-45bb-bb8b-1db6a4e9bf61","system_id":"levelo_inurba_marseille","lat":43.29295,"lon":5.37178,"is_reserved":false,"is_disabled":false,"rental_uris":{"android":"levelo://app?vid=ab4b64de-8bbf-45bb-bb8b-1db6a4e9bf61","ios":"levelo://app?vid=ab4b64de-8bbf-45bb-bb8b-1db6a4e9bf61"},"vehicle_type_id":"4","last_reported":1748128149,"current_range_meters":11200,"station_id":"ce4bgh92rcd13ifvqb40","pricing_plan_id":"cebpf4jnsgd1na2vs0mg"},{"bike_id":"0a710bc6-485c-45b4-a34d-cece8c3257f6","system_id":"levelo_inurba_marseille","lat":43.27471,"lon":5.42503,"is_reserved":false,"is_disabled":false,"rental_uris":{"android":"levelo://app?vid=0a710bc6-485c-45b4-a34d-cece8c3257f6","ios":"levelo://app?vid=0a710bc6-485c-45b4-a34d-cece8c3257f6"},"vehicle_type_id":"4","last_reported":1748128149,"current_range_meters":11200,"station_id":"ce4bhn92rcd13ifvqgrg","pricing_plan_id":"cebpf4jnsgd1na2vs0mg"},{"bike_id":"764aa4a5-fdf1-45d2-8d85-f92b7302018b","system_id":"levelo_inurba_marseille","lat":43.321953,"lon":5.440057,"is_reserved":false,"is_disabled":false,"rental_uris":{"android":"levelo://app?vid=764aa4a5-fdf1-45d2-8d85-f92b7302018b","ios":"levelo://app?vid=764aa4a5-fdf1-45d2-8d85-f92b7302018b"},"vehicle_type_id":"4","last_reported":1748128149,"current_range_meters":11200,"station_id":"","pricing_plan_id":"cebpf4jnsgd1na2vs0mg"},{"bike_id":"c34aff19-d33c-46a7-8b34-14cdd0cb7e8e","system_id":"levelo_inurba_marseille","lat":43.29535,"lon":5.42287,"is_reserved":false,"is_disabled":false,"rental_uris":{"android":"levelo://app?vid=c34aff19-d33c-46a7-8b34-14cdd0cb7e8e","ios":"levelo://app?vid=c34aff19-d33c-46a7-8b34-14cdd0cb7e8e"},"vehicle_type_id":"4","last_reported":1748128149,"current_range_meters":11200,"station_id":"ce4bhph2rcd13ifvqhdg","pricing_plan_id":"cebpf4jnsgd1na2vs0mg"},{"bike_id":"07c20b36-efcd-49b4-a301-75a9b7505c69","system_id":"levelo_inurba_marseille","lat":43.30143,"lon":5.38984,"is_reserved":false,"is_disabled":false,"rental_uris":{"android":"levelo://app?vid=07c20b36-efcd-49b4-a301-75a9b7505c69","ios":"levelo://app?vid=07c20b36-efcd-49b4-a301-75a9b7505c69"},"vehicle_type_id":"4","last_reported":1748128149,"current_range_meters":11200,"station_id":"","pricing_plan_id":"cebpf4jnsgd1na2vs0mg"},{"bike_id":"b5212b01-f768-4579-bb1f-18803bfb994e","system_id":"levelo_inurba_marseille","lat":43.316401,"lon":5.389026,"is_reserved":false,"is_disabled":false,"rental_uris":{"android":"levelo://app?vid=b5212b01-f768-4579-bb1f-18803bfb994e","ios":"levelo://app?vid=b5212b01-f768-4579-bb1f-18803bfb994e"},"vehicle_type_id":"4","last_reported":1748128149,"current_range_meters":11600,"station_id":"","pricing_plan_id":"cebpf4jnsgd1na2vs0mg"},{"bike_id":"37c8c075-8f82-4272-989a-84f131b3479b","system_id":"levelo_inurba_marseille","lat":43.29206,"lon":5.36047,"is_reserved":false,"is_disabled":true,"rental_uris":{"android":"levelo://app?vid=37c8c075-8f82-4272-989a-84f131b3479b","ios":"levelo://app?vid=37c8c075-8f82-4272-989a-84f131b3479b"},"vehicle_type_id":"4","last_reported":1748128149,"current_range_meters":11600,"station_id":"ce4bhbh2rcd13ifvqeqg","pricing_plan_id":"cebpf4jnsgd1na2vs0mg"},{"bike_id":"87dc1d45-464b-416b-81d6-10b093bfc1ae","system_id":"levelo_inurba_marseille","lat":43.270588,"lon":5.422878,"is_reserved":false,"is_disabled":false,"rental_uris":{"android":"levelo://app?vid=87dc1d45-464b-416b-81d6-10b093bfc1ae","ios":"levelo://app?vid=87dc1d45-464b-416b-81d6-10b093bfc1ae"},"vehicle_type_id":"4","last_reported":1748128149,"current_range_meters":11600,"station_id":"ce4bhk92rcd13ifvqgb0","pricing_plan_id":"cebpf4jnsgd1na2vs0mg"},{"bike_id":"6abb9ab4-3976-4e3e-b994-f2f72ee02055","system_id":"levelo_inurba_marseille","lat":43.318231,"lon":5.368335,"is_reserved":false,"is_disabled":false,"rental_uris":{"android":"levelo://app?vid=6abb9ab4-3976-4e3e-b994-f2f72ee02055","ios":"levelo://app?vid=6abb9ab4-3976-4e3e-b994-f2f72ee02055"},"vehicle_type_id":"4","last_reported":1748128149,"current_range_meters":11600,"station_id":"","pricing_plan_id":"cebpf4jnsgd1na2vs0mg"},{"bike_id":"e958a122-415d-482c-a669-e9db0defa220","system_id":"levelo_inurba_marseille","lat":43.29437,"lon":5.39754,"is_reserved":false,"is_disabled":false,"rental_uris":{"android":"levelo://app?vid=e958a122-415d-482c-a669-e9db0defa220","ios":"levelo://app?vid=e958a122-415d-482c-a669-e9db0defa220"},"vehicle_type_id":"4","last_reported":1748128149,"current_range_meters":11600,"station_id":"ce4bh3h2rcd13ifvqdo0","pricing_plan_id":"cebpf4jnsgd1na2vs0mg"},{"bike_id":"fac363c1-76b0-4287-a81e-fdad1b7ee2ba","system_id":"levelo_inurba_marseille","lat":43.25577,"lon":5.3823,"is_reserved":false,"is_disabled":false,"rental_uris":{"android":"levelo://app?vid=fac363c1-76b0-4287-a81e-fdad1b7ee2ba","ios":"levelo://app?vid=fac363c1-76b0-4287-a81e-fdad1b7ee2ba"},"vehicle_type_id":"4","last_reported":1748128149,"current_range_meters":11600,"station_id":"ce4bhih2rcd13ifvqfs0","pricing_plan_id":"cebpf4jnsgd1na2vs0mg"},{"bike_id":"60b4a3c4-f03d-4321-98fd-c044f957b900","system_id":"levelo_inurba_marseille","lat":43.23185,"lon":5.39998,"is_reserved":false,"is_disabled":false,"rental_uris":{"android":"levelo://app?vid=60b4a3c4-f03d-4321-98fd-c044f957b900","ios":"levelo://app?vid=60b4a3c4-f03d-4321-98fd-c044f957b900"},"vehicle_type_id":"4","last_reported":1748128149,"current_range_meters":11200,"station_id":"ce4bhn12rcd13ifvqgqg","pricing_plan_id":"cebpf4jnsgd1na2vs0mg"},{"bike_id":"0beabff2-7198-4fce-93cf-5ee17bd0db2f","system_id":"levelo_inurba_marseille","lat":43.25496,"lon":5.37643,"is_reserved":false,"is_disabled":false,"rental_uris":{"android":"levelo://app?vid=0beabff2-7198-4fce-93cf-5ee17bd0db2f","ios":"levelo://app?vid=0beabff2-7198-4fce-93cf-5ee17bd0db2f"},"vehicle_type_id":"4","last_reported":1748128149,"current_range_meters":11600,"station_id":"ce4bhh12rcd13ifvqff0","pricing_plan_id":"cebpf4jnsgd1na2vs0mg"},{"bike_id":"ce6dcc3d-021c-4cd0-9533-72359b9f68f7","system_id":"levelo_inurba_marseille","lat":43.28847,"lon":5.35855,"is_reserved":false,"is_disabled":false,"rental_uris":{"android":"levelo://app?vid=ce6dcc3d-021c-4cd0-9533-72359b9f68f7","ios":"levelo://app?vid=ce6dcc3d-021c-4cd0-9533-72359b9f68f7"},"vehicle_type_id":"4","last_reported":1748128149,"current_range_meters":11600,"station_id":"ce4bhb12rcd13ifvqem0","pricing_plan_id":"cebpf4jnsgd1na2vs0mg"},{"bike_id":"91b021ae-479d-426d-b878-5d070d5828ce","system_id":"levelo_inurba_marseille","lat":43.290403,"lon":5.399613,"is_reserved":false,"is_disabled":false,"rental_uris":{"android":"levelo://app?vid=91b021ae-479d-426d-b878-5d070d5828ce","ios":"levelo://app?vid=91b021ae-479d-426d-b878-5d070d5828ce"},"vehicle_type_id":"4","last_reported":1748128149,"current_range_meters":11600,"station_id":"ce4bh392rcd13ifvqdm0","pricing_plan_id":"cebpf4jnsgd1na2vs0mg"},{"bike_id":"da453a88-f81b-4e0f-9781-5a7f6c1d364c","system_id":"levelo_inurba_marseille","lat":43.337499,"lon":5.374469,"is_reserved":false,"is_disabled":false,"rental_uris":{"android":"levelo://app?vid=da453a88-f81b-4e0f-9781-5a7f6c1d364c","ios":"levelo://app?vid=da453a88-f81b-4e0f-9781-5a7f6c1d364c"},"vehicle_type_id":"4","last_reported":1748128149,"current_range_meters":12000,"station_id":"","pricing_plan_id":"cebpf4jnsgd1na2vs0mg"},{"bike_id":"84670998-9aaf-4821-b809-d8dbbb1dc5c1","system_id":"levelo_inurba_marseille","lat":43.27057,"lon":5.393,"is_reserved":false,"is_disabled":false,"rental_uris":{"android":"levelo://app?vid=84670998-9aaf-4821-b809-d8dbbb1dc5c1","ios":"levelo://app?vid=84670998-9aaf-4821-b809-d8dbbb1dc5c1"},"vehicle_type_id":"4","last_reported":1748128149,"current_range_meters":12000,"station_id":"","pricing_plan_id":"cebpf4jnsgd1na2vs0mg"},{"bike_id":"3e9cfa81-cce5-493a-9f24-0a45e7543664","system_id":"levelo_inurba_marseille","lat":43.29015,"lon":5.38634,"is_reserved":false,"is_disabled":false,"rental_uris":{"android":"levelo://app?vid=3e9cfa81-cce5-493a-9f24-0a45e7543664","ios":"levelo://app?vid=3e9cfa81-cce5-493a-9f24-0a45e7543664"},"vehicle_type_id":"4","last_reported":1748128149,"current_range_meters":12000,"station_id":"ce4bh4p2rcd13ifvqe0g","pricing_plan_id":"cebpf4jnsgd1na2vs0mg"},{"bike_id":"847ace23-4b19-401e-a0a0-62985ebd3598","system_id":"levelo_inurba_marseille","lat":43.288555,"lon":5.393284,"is_reserved":false,"is_disabled":true,"rental_uris":{"android":"levelo://app?vid=847ace23-4b19-401e-a0a0-62985ebd3598","ios":"levelo://app?vid=847ace23-4b19-401e-a0a0-62985ebd3598"},"vehicle_type_id":"4","last_reported":1748128149,"current_range_meters":12000,"station_id":"ce4bh2p2rcd13ifvqdi0","pricing_plan_id":"cebpf4jnsgd1na2vs0mg"},{"bike_id":"1e6c350b-6263-416f-822c-4d7924530235","system_id":"levelo_inurba_marseille","lat":43.29027,"lon":5.38643,"is_reserved":false,"is_disabled":false,"rental_uris":{"android":"levelo://app?vid=1e6c350b-6263-416f-822c-4d7924530235","ios":"levelo://app?vid=1e6c350b-6263-416f-822c-4d7924530235"},"vehicle_type_id":"4","last_reported":1748128149,"current_range_meters":12000,"station_id":"ce4bh4p2rcd13ifvqe0g","pricing_plan_id":"cebpf4jnsgd1na2vs0mg"},{"bike_id":"75e17863-1b1b-46ee-8b22-92c8ba705d40","system_id":"levelo_inurba_marseille","lat":43.23962,"lon":5.36629,"is_reserved":false,"is_disabled":false,"rental_uris":{"android":"levelo://app?vid=75e17863-1b1b-46ee-8b22-92c8ba705d40","ios":"levelo://app?vid=75e17863-1b1b-46ee-8b22-92c8ba705d40"},"vehicle_type_id":"4","last_reported":1748128149,"current_range_meters":12000,"station_id":"ce4bhi12rcd13ifvqfp0","pricing_plan_id":"cebpf4jnsgd1na2vs0mg"},{"bike_id":"864ac3b2-136a-4dc9-80f9-30dea8edbd33","system_id":"levelo_inurba_marseille","lat":43.251146,"lon":5.403296,"is_reserved":false,"is_disabled":false,"rental_uris":{"android":"levelo://app?vid=864ac3b2-136a-4dc9-80f9-30dea8edbd33","ios":"levelo://app?vid=864ac3b2-136a-4dc9-80f9-30dea8edbd33"},"vehicle_type_id":"4","last_reported":1748128149,"current_range_meters":12400,"station_id":"ce4bhlh2rcd13ifvqgig","pricing_plan_id":"cebpf4jnsgd1na2vs0mg"},{"bike_id":"4f0adb5e-fcbf-4d9c-9091-a2bbf83763a0","system_id":"levelo_inurba_marseille","lat":43.27067,"lon":5.42274,"is_reserved":false,"is_disabled":false,"rental_uris":{"android":"levelo://app?vid=4f0adb5e-fcbf-4d9c-9091-a2bbf83763a0","ios":"levelo://app?vid=4f0adb5e-fcbf-4d9c-9091-a2bbf83763a0"},"vehicle_type_id":"4","last_reported":1748128149,"current_range_meters":12400,"station_id":"ce4bhk92rcd13ifvqgb0","pricing_plan_id":"cebpf4jnsgd1na2vs0mg"},{"bike_id":"5dec1043-71e0-4d11-ba39-7dc964faa198","system_id":"levelo_inurba_marseille","lat":43.27898,"lon":5.3797,"is_reserved":false,"is_disabled":false,"rental_uris":{"android":"levelo://app?vid=5dec1043-71e0-4d11-ba39-7dc964faa198","ios":"levelo://app?vid=5dec1043-71e0-4d11-ba39-7dc964faa198"},"vehicle_type_id":"4","last_reported":1748128149,"current_range_meters":12400,"station_id":"ce4bhf92rcd13ifvqf50","pricing_plan_id":"cebpf4jnsgd1na2vs0mg"},{"bike_id":"369ac760-147d-4726-8333-6cc1aa63ad28","system_id":"levelo_inurba_marseille","lat":43.279483,"lon":5.384297,"is_reserved":false,"is_disabled":false,"rental_uris":{"android":"levelo://app?vid=369ac760-147d-4726-8333-6cc1aa63ad28","ios":"levelo://app?vid=369ac760-147d-4726-8333-6cc1aa63ad28"},"vehicle_type_id":"4","last_reported":1748128149,"current_range_meters":12400,"station_id":"","pricing_plan_id":"cebpf4jnsgd1na2vs0mg"},{"bike_id":"dd36ba3f-05a9-405b-901d-932a622250dc","system_id":"levelo_inurba_marseille","lat":43.27814,"lon":5.40715,"is_reserved":false,"is_disabled":false,"rental_uris":{"android":"levelo://app?vid=dd36ba3f-05a9-405b-901d-932a622250dc","ios":"levelo://app?vid=dd36ba3f-05a9-405b-901d-932a622250dc"},"vehicle_type_id":"4","last_reported":1748128149,"current_range_meters":12400,"station_id":"ce4bhnh2rcd13ifvqgtg","pricing_plan_id":"cebpf4jnsgd1na2vs0mg"},{"bike_id":"a6d0259b-c4a3-4b49-ae20-4440c6d8a1b0","system_id":"levelo_inurba_marseille","lat":43.25087,"lon":5.39521,"is_reserved":false,"is_disabled":false,"rental_uris":{"android":"levelo://app?vid=a6d0259b-c4a3-4b49-ae20-4440c6d8a1b0","ios":"levelo://app?vid=a6d0259b-c4a3-4b49-ae20-4440c6d8a1b0"},"vehicle_type_id":"4","last_reported":1748128149,"current_range_meters":12400,"station_id":"ce4bhm12rcd13ifvqgkg","pricing_plan_id":"cebpf4jnsgd1na2vs0mg"},{"bike_id":"57d3f697-0606-47c6-bf97-482d6a1b5410","system_id":"levelo_inurba_marseille","lat":43.246818,"lon":5.381588,"is_reserved":false,"is_disabled":false,"rental_uris":{"android":"levelo://app?vid=57d3f697-0606-47c6-bf97-482d6a1b5410","ios":"levelo://app?vid=57d3f697-0606-47c6-bf97-482d6a1b5410"},"vehicle_type_id":"4","last_reported":1748128149,"current_range_meters":12400,"station_id":"ce4bhih2rcd13ifvqfr0","pricing_plan_id":"cebpf4jnsgd1na2vs0mg"},{"bike_id":"c83739a5-1159-40c0-b6f0-b6de79987a98","system_id":"levelo_inurba_marseille","lat":43.28718,"lon":5.36082,"is_reserved":false,"is_disabled":false,"rental_uris":{"android":"levelo://app?vid=c83739a5-1159-40c0-b6f0-b6de79987a98","ios":"levelo://app?vid=c83739a5-1159-40c0-b6f0-b6de79987a98"},"vehicle_type_id":"4","last_reported":1748128149,"current_range_meters":12800,"station_id":"cki0cbj6b192h4jlfktg","pricing_plan_id":"cebpf4jnsgd1na2vs0mg"},{"bike_id":"d797e643-aa9e-474a-b05d-bc9db7ee9f02","system_id":"levelo_inurba_marseille","lat":43.24812,"lon":5.37452,"is_reserved":false,"is_disabled":false,"rental_uris":{"android":"levelo://app?vid=d797e643-aa9e-474a-b05d-bc9db7ee9f02","ios":"levelo://app?vid=d797e643-aa9e-474a-b05d-bc9db7ee9f02"},"vehicle_type_id":"4","last_reported":1748128149,"current_range_meters":12800,"station_id":"ce4bhgh2rcd13ifvqfb0","pricing_plan_id":"cebpf4jnsgd1na2vs0mg"},{"bike_id":"2f03c2fb-b0e6-4dd3-8ae8-9e2ead738d93","system_id":"levelo_inurba_marseille","lat":43.24066,"lon":5.37759,"is_reserved":false,"is_disabled":false,"rental_uris":{"android":"levelo://app?vid=2f03c2fb-b0e6-4dd3-8ae8-9e2ead738d93","ios":"levelo://app?vid=2f03c2fb-b0e6-4dd3-8ae8-9e2ead738d93"},"vehicle_type_id":"4","last_reported":1748128149,"current_range_meters":12800,"station_id":"ce4bhnp2rcd13ifvqgvg","pricing_plan_id":"cebpf4jnsgd1na2vs0mg"},{"bike_id":"0dbd2a72-6375-4a8c-ab03-179df064d12a","system_id":"levelo_inurba_marseille","lat":43.25724,"lon":5.41109,"is_reserved":false,"is_disabled":false,"rental_uris":{"android":"levelo://app?vid=0dbd2a72-6375-4a8c-ab03-179df064d12a","ios":"levelo://app?vid=0dbd2a72-6375-4a8c-ab03-179df064d12a"},"vehicle_type_id":"4","last_reported":1748128149,"current_range_meters":12800,"station_id":"ce4bhkp2rcd13ifvqgd0","pricing_plan_id":"cebpf4jnsgd1na2vs0mg"},{"bike_id":"09bb191e-40ae-496c-b98c-78abc6e7dce1","system_id":"levelo_inurba_marseille","lat":43.25495,"lon":5.37656,"is_reserved":false,"is_disabled":false,"rental_uris":{"android":"levelo://app?vid=09bb191e-40ae-496c-b98c-78abc6e7dce1","ios":"levelo://app?vid=09bb191e-40ae-496c-b98c-78abc6e7dce1"},"vehicle_type_id":"4","last_reported":1748128149,"current_range_meters":12800,"station_id":"ce4bhh12rcd13ifvqff0","pricing_plan_id":"cebpf4jnsgd1na2vs0mg"},{"bike_id":"5abb8a77-fbf0-4d21-805b-29790cff0e49","system_id":"levelo_inurba_marseille","lat":43.31081,"lon":5.42457,"is_reserved":false,"is_disabled":false,"rental_uris":{"android":"levelo://app?vid=5abb8a77-fbf0-4d21-805b-29790cff0e49","ios":"levelo://app?vid=5abb8a77-fbf0-4d21-805b-29790cff0e49"},"vehicle_type_id":"4","last_reported":1748128149,"current_range_meters":12800,"station_id":"ce4bhp92rcd13ifvqhag","pricing_plan_id":"cebpf4jnsgd1na2vs0mg"},{"bike_id":"9601ad65-b563-45d6-beca-e1e37855c430","system_id":"levelo_inurba_marseille","lat":43.29257,"lon":5.40906,"is_reserved":false,"is_disabled":false,"rental_uris":{"android":"levelo://app?vid=9601ad65-b563-45d6-beca-e1e37855c430","ios":"levelo://app?vid=9601ad65-b563-45d6-beca-e1e37855c430"},"vehicle_type_id":"4","last_reported":1748128149,"current_range_meters":12800,"station_id":"ce4bh192rcd13ifvqdc0","pricing_plan_id":"cebpf4jnsgd1na2vs0mg"},{"bike_id":"0f2468b5-c2af-4aa8-a946-9f4d851719e2","system_id":"levelo_inurba_marseille","lat":43.280368,"lon":5.369445,"is_reserved":false,"is_disabled":false,"rental_uris":{"android":"levelo://app?vid=0f2468b5-c2af-4aa8-a946-9f4d851719e2","ios":"levelo://app?vid=0f2468b5-c2af-4aa8-a946-9f4d851719e2"},"vehicle_type_id":"4","last_reported":1748128149,"current_range_meters":13600,"station_id":"ce4bha12rcd13ifvqef0","pricing_plan_id":"cebpf4jnsgd1na2vs0mg"},{"bike_id":"a356e49a-c5b6-4ca3-9c29-4cc5e63d2fc4","system_id":"levelo_inurba_marseille","lat":43.28228,"lon":5.39056,"is_reserved":false,"is_disabled":false,"rental_uris":{"android":"levelo://app?vid=a356e49a-c5b6-4ca3-9c29-4cc5e63d2fc4","ios":"levelo://app?vid=a356e49a-c5b6-4ca3-9c29-4cc5e63d2fc4"},"vehicle_type_id":"4","last_reported":1748128149,"current_range_meters":13600,"station_id":"","pricing_plan_id":"cebpf4jnsgd1na2vs0mg"},{"bike_id":"f25253ac-2993-439a-9a8b-236ab63039ae","system_id":"levelo_inurba_marseille","lat":43.27493,"lon":5.42449,"is_reserved":false,"is_disabled":false,"rental_uris":{"android":"levelo://app?vid=f25253ac-2993-439a-9a8b-236ab63039ae","ios":"levelo://app?vid=f25253ac-2993-439a-9a8b-236ab63039ae"},"vehicle_type_id":"4","last_reported":1748128149,"current_range_meters":13600,"station_id":"ce4bhn92rcd13ifvqgrg","pricing_plan_id":"cebpf4jnsgd1na2vs0mg"},{"bike_id":"a4f9ff52-9339-437c-8435-cd9aedb36448","system_id":"levelo_inurba_marseille","lat":43.31524,"lon":5.38041,"is_reserved":false,"is_disabled":false,"rental_uris":{"android":"levelo://app?vid=a4f9ff52-9339-437c-8435-cd9aedb36448","ios":"levelo://app?vid=a4f9ff52-9339-437c-8435-cd9aedb36448"},"vehicle_type_id":"4","last_reported":1748128149,"current_range_meters":13600,"station_id":"ce4bhsp2rcd13ifvqi50","pricing_plan_id":"cebpf4jnsgd1na2vs0mg"},{"bike_id":"7ccb5967-b44e-4696-a291-c80afeb45cd9","system_id":"levelo_inurba_marseille","lat":43.30777,"lon":5.37649,"is_reserved":false,"is_disabled":false,"rental_uris":{"android":"levelo://app?vid=7ccb5967-b44e-4696-a291-c80afeb45cd9","ios":"levelo://app?vid=7ccb5967-b44e-4696-a291-c80afeb45cd9"},"vehicle_type_id":"4","last_reported":1748128149,"current_range_meters":14000,"station_id":"ce4bgv92rcd13ifvqcq0","pricing_plan_id":"cebpf4jnsgd1na2vs0mg"},{"bike_id":"e5040cc6-5912-44c1-a358-57f34154615c","system_id":"levelo_inurba_marseille","lat":43.27664,"lon":5.38889,"is_reserved":false,"is_disabled":true,"rental_uris":{"android":"levelo://app?vid=e5040cc6-5912-44c1-a358-57f34154615c","ios":"levelo://app?vid=e5040cc6-5912-44c1-a358-57f34154615c"},"vehicle_type_id":"4","last_reported":1748128149,"current_range_meters":14000,"station_id":"ce4bhi12rcd13ifvqfo0","pricing_plan_id":"cebpf4jnsgd1na2vs0mg"},{"bike_id":"5ee1d461-8000-4612-af18-06999c16222a","system_id":"levelo_inurba_marseille","lat":43.2963,"lon":5.40593,"is_reserved":false,"is_disabled":false,"rental_uris":{"android":"levelo://app?vid=5ee1d461-8000-4612-af18-06999c16222a","ios":"levelo://app?vid=5ee1d461-8000-4612-af18-06999c16222a"},"vehicle_type_id":"4","last_reported":1748128149,"current_range_meters":14000,"station_id":"ce4bh0h2rcd13ifvqd60","pricing_plan_id":"cebpf4jnsgd1na2vs0mg"},{"bike_id":"7c320c1b-fb02-4806-9e80-37a7ccc7f401","system_id":"levelo_inurba_marseille","lat":43.231962,"lon":5.355522,"is_reserved":false,"is_disabled":false,"rental_uris":{"android":"levelo://app?vid=7c320c1b-fb02-4806-9e80-37a7ccc7f401","ios":"levelo://app?vid=7c320c1b-fb02-4806-9e80-37a7ccc7f401"},"vehicle_type_id":"4","last_reported":1748128149,"current_range_meters":14000,"station_id":"ce4bhu92rcd13ifvqi70","pricing_plan_id":"cebpf4jnsgd1na2vs0mg"},{"bike_id":"17311fd0-7af3-41e1-9614-8c83aaa86d24","system_id":"levelo_inurba_marseille","lat":43.3059,"lon":5.39354,"is_reserved":false,"is_disabled":false,"rental_uris":{"android":"levelo://app?vid=17311fd0-7af3-41e1-9614-8c83aaa86d24","ios":"levelo://app?vid=17311fd0-7af3-41e1-9614-8c83aaa86d24"},"vehicle_type_id":"4","last_reported":1748128149,"current_range_meters":14000,"station_id":"ce4bh0p2rcd13ifvqd80","pricing_plan_id":"cebpf4jnsgd1na2vs0mg"},{"bike_id":"2c9d4d00-7a63-473d-b55c-c423bc06eb22","system_id":"levelo_inurba_marseille","lat":43.3078,"lon":5.37647,"is_reserved":false,"is_disabled":false,"rental_uris":{"android":"levelo://app?vid=2c9d4d00-7a63-473d-b55c-c423bc06eb22","ios":"levelo://app?vid=2c9d4d00-7a63-473d-b55c-c423bc06eb22"},"vehicle_type_id":"4","last_reported":1748128149,"current_range_meters":14000,"station_id":"ce4bgv92rcd13ifvqcq0","pricing_plan_id":"cebpf4jnsgd1na2vs0mg"},{"bike_id":"1ab4ae3a-f0b1-4a55-ad63-f381ac10b000","system_id":"levelo_inurba_marseille","lat":43.28104,"lon":5.37832,"is_reserved":false,"is_disabled":false,"rental_uris":{"android":"levelo://app?vid=1ab4ae3a-f0b1-4a55-ad63-f381ac10b000","ios":"levelo://app?vid=1ab4ae3a-f0b1-4a55-ad63-f381ac10b000"},"vehicle_type_id":"4","last_reported":1748128149,"current_range_meters":13600,"station_id":"ce4bha12rcd13ifvqee0","pricing_plan_id":"cebpf4jnsgd1na2vs0mg"},{"bike_id":"86a1a483-111f-44c4-ae22-8bca96dcc076","system_id":"levelo_inurba_marseille","lat":43.29192,"lon":5.35801,"is_reserved":false,"is_disabled":false,"rental_uris":{"android":"levelo://app?vid=86a1a483-111f-44c4-ae22-8bca96dcc076","ios":"levelo://app?vid=86a1a483-111f-44c4-ae22-8bca96dcc076"},"vehicle_type_id":"4","last_reported":1748128149,"current_range_meters":14000,"station_id":"ce4bhb12rcd13ifvqel0","pricing_plan_id":"cebpf4jnsgd1na2vs0mg"},{"bike_id":"67bf7906-9a5b-4e91-b42e-4f44a178669f","system_id":"levelo_inurba_marseille","lat":43.29906,"lon":5.38145,"is_reserved":false,"is_disabled":false,"rental_uris":{"android":"levelo://app?vid=67bf7906-9a5b-4e91-b42e-4f44a178669f","ios":"levelo://app?vid=67bf7906-9a5b-4e91-b42e-4f44a178669f"},"vehicle_type_id":"4","last_reported":1748128149,"current_range_meters":14400,"station_id":"ce4bgj12rcd13ifvqbc0","pricing_plan_id":"cebpf4jnsgd1na2vs0mg"},{"bike_id":"451993eb-de22-44e9-b007-1348984f5041","system_id":"levelo_inurba_marseille","lat":43.25115,"lon":5.40316,"is_reserved":false,"is_disabled":false,"rental_uris":{"android":"levelo://app?vid=451993eb-de22-44e9-b007-1348984f5041","ios":"levelo://app?vid=451993eb-de22-44e9-b007-1348984f5041"},"vehicle_type_id":"4","last_reported":1748128149,"current_range_meters":14400,"station_id":"ce4bhlh2rcd13ifvqgig","pricing_plan_id":"cebpf4jnsgd1na2vs0mg"},{"bike_id":"d294229d-0afe-4675-ae8a-a0bb5339eba4","system_id":"levelo_inurba_marseille","lat":43.28421,"lon":5.35856,"is_reserved":false,"is_disabled":false,"rental_uris":{"android":"levelo://app?vid=d294229d-0afe-4675-ae8a-a0bb5339eba4","ios":"levelo://app?vid=d294229d-0afe-4675-ae8a-a0bb5339eba4"},"vehicle_type_id":"4","last_reported":1748128149,"current_range_meters":14400,"station_id":"ce4bhah2rcd13ifvqei0","pricing_plan_id":"cebpf4jnsgd1na2vs0mg"},{"bike_id":"1b95e216-6b3e-4dd5-a706-d4abbfe8b7cc","system_id":"levelo_inurba_marseille","lat":43.27066,"lon":5.39299,"is_reserved":false,"is_disabled":false,"rental_uris":{"android":"levelo://app?vid=1b95e216-6b3e-4dd5-a706-d4abbfe8b7cc","ios":"levelo://app?vid=1b95e216-6b3e-4dd5-a706-d4abbfe8b7cc"},"vehicle_type_id":"4","last_reported":1748128149,"current_range_meters":14400,"station_id":"","pricing_plan_id":"cebpf4jnsgd1na2vs0mg"},{"bike_id":"503e77ba-d207-4c9b-9afd-725500ea3736","system_id":"levelo_inurba_marseille","lat":43.282609,"lon":5.350579,"is_reserved":false,"is_disabled":false,"rental_uris":{"android":"levelo://app?vid=503e77ba-d207-4c9b-9afd-725500ea3736","ios":"levelo://app?vid=503e77ba-d207-4c9b-9afd-725500ea3736"},"vehicle_type_id":"4","last_reported":1748128149,"current_range_meters":14400,"station_id":"ce4bhh92rcd13ifvqfj0","pricing_plan_id":"cebpf4jnsgd1na2vs0mg"},{"bike_id":"cad06a48-5d5e-4efb-bea6-69c2a06fa63c","system_id":"levelo_inurba_marseille","lat":43.31484,"lon":5.37287,"is_reserved":false,"is_disabled":false,"rental_uris":{"android":"levelo://app?vid=cad06a48-5d5e-4efb-bea6-69c2a06fa63c","ios":"levelo://app?vid=cad06a48-5d5e-4efb-bea6-69c2a06fa63c"},"vehicle_type_id":"4","last_reported":1748128149,"current_range_meters":14400,"station_id":"ce4bgt12rcd13ifvqcd0","pricing_plan_id":"cebpf4jnsgd1na2vs0mg"},{"bike_id":"689832fd-700b-44cc-b355-a7879317a987","system_id":"levelo_inurba_marseille","lat":43.30639,"lon":5.40047,"is_reserved":false,"is_disabled":false,"rental_uris":{"android":"levelo://app?vid=689832fd-700b-44cc-b355-a7879317a987","ios":"levelo://app?vid=689832fd-700b-44cc-b355-a7879317a987"},"vehicle_type_id":"4","last_reported":1748128149,"current_range_meters":14400,"station_id":"ce4bh112rcd13ifvqda0","pricing_plan_id":"cebpf4jnsgd1na2vs0mg"},{"bike_id":"c8a58e8c-3984-422d-bb9c-5e0e1f313260","system_id":"levelo_inurba_marseille","lat":43.24648,"lon":5.38897,"is_reserved":false,"is_disabled":false,"rental_uris":{"android":"levelo://app?vid=c8a58e8c-3984-422d-bb9c-5e0e1f313260","ios":"levelo://app?vid=c8a58e8c-3984-422d-bb9c-5e0e1f313260"},"vehicle_type_id":"4","last_reported":1748128149,"current_range_meters":14800,"station_id":"ce4bhg12rcd13ifvqf60","pricing_plan_id":"cebpf4jnsgd1na2vs0mg"},{"bike_id":"3e7309ec-0c09-4e00-b613-a5b2d22da14a","system_id":"levelo_inurba_marseille","lat":43.30952,"lon":5.390363,"is_reserved":false,"is_disabled":false,"rental_uris":{"android":"levelo://app?vid=3e7309ec-0c09-4e00-b613-a5b2d22da14a","ios":"levelo://app?vid=3e7309ec-0c09-4e00-b613-a5b2d22da14a"},"vehicle_type_id":"4","last_reported":1748128149,"current_range_meters":14800,"station_id":"ce4bgup2rcd13ifvqco0","pricing_plan_id":"cebpf4jnsgd1na2vs0mg"},{"bike_id":"59af6b31-7d88-4b83-b01f-f51a2cca9e48","system_id":"levelo_inurba_marseille","lat":43.28466,"lon":5.35878,"is_reserved":false,"is_disabled":false,"rental_uris":{"android":"levelo://app?vid=59af6b31-7d88-4b83-b01f-f51a2cca9e48","ios":"levelo://app?vid=59af6b31-7d88-4b83-b01f-f51a2cca9e48"},"vehicle_type_id":"4","last_reported":1748128149,"current_range_meters":14800,"station_id":"ce4bhah2rcd13ifvqei0","pricing_plan_id":"cebpf4jnsgd1na2vs0mg"},{"bike_id":"0dcf33a1-6791-484f-ac99-b4faa02afe72","system_id":"levelo_inurba_marseille","lat":43.28938,"lon":5.36405,"is_reserved":false,"is_disabled":false,"rental_uris":{"android":"levelo://app?vid=0dcf33a1-6791-484f-ac99-b4faa02afe72","ios":"levelo://app?vid=0dcf33a1-6791-484f-ac99-b4faa02afe72"},"vehicle_type_id":"4","last_reported":1748128149,"current_range_meters":14800,"station_id":"ce4bhc92rcd13ifvqetg","pricing_plan_id":"cebpf4jnsgd1na2vs0mg"},{"bike_id":"4c838c77-1d6d-4eea-8537-f45dc1e897aa","system_id":"levelo_inurba_marseille","lat":43.25874,"lon":5.39901,"is_reserved":false,"is_disabled":false,"rental_uris":{"android":"levelo://app?vid=4c838c77-1d6d-4eea-8537-f45dc1e897aa","ios":"levelo://app?vid=4c838c77-1d6d-4eea-8537-f45dc1e897aa"},"vehicle_type_id":"4","last_reported":1748128149,"current_range_meters":14800,"station_id":"ce4bhl92rcd13ifvqghg","pricing_plan_id":"cebpf4jnsgd1na2vs0mg"},{"bike_id":"db68bfba-10ac-4537-9f0c-969c889df747","system_id":"levelo_inurba_marseille","lat":43.24652,"lon":5.38887,"is_reserved":false,"is_disabled":false,"rental_uris":{"android":"levelo://app?vid=db68bfba-10ac-4537-9f0c-969c889df747","ios":"levelo://app?vid=db68bfba-10ac-4537-9f0c-969c889df747"},"vehicle_type_id":"4","last_reported":1748128149,"current_range_meters":14400,"station_id":"ce4bhg12rcd13ifvqf60","pricing_plan_id":"cebpf4jnsgd1na2vs0mg"},{"bike_id":"50309379-3522-4c6b-b5c7-2b57f79eedc9","system_id":"levelo_inurba_marseille","lat":43.24385,"lon":5.37066,"is_reserved":false,"is_disabled":false,"rental_uris":{"android":"levelo://app?vid=50309379-3522-4c6b-b5c7-2b57f79eedc9","ios":"levelo://app?vid=50309379-3522-4c6b-b5c7-2b57f79eedc9"},"vehicle_type_id":"4","last_reported":1748128149,"current_range_meters":14800,"station_id":"ce4bhhh2rcd13ifvqfk0","pricing_plan_id":"cebpf4jnsgd1na2vs0mg"},{"bike_id":"05a6e561-67d4-4a18-a7fa-d115485a930f","system_id":"levelo_inurba_marseille","lat":43.31318,"lon":5.39691,"is_reserved":false,"is_disabled":false,"rental_uris":{"android":"levelo://app?vid=05a6e561-67d4-4a18-a7fa-d115485a930f","ios":"levelo://app?vid=05a6e561-67d4-4a18-a7fa-d115485a930f"},"vehicle_type_id":"4","last_reported":1748128149,"current_range_meters":14800,"station_id":"ce4bgvp2rcd13ifvqcu0","pricing_plan_id":"cebpf4jnsgd1na2vs0mg"},{"bike_id":"fe3e0658-634a-47de-a11c-0409377aa09d","system_id":"levelo_inurba_marseille","lat":43.25129,"lon":5.40356,"is_reserved":false,"is_disabled":false,"rental_uris":{"android":"levelo://app?vid=fe3e0658-634a-47de-a11c-0409377aa09d","ios":"levelo://app?vid=fe3e0658-634a-47de-a11c-0409377aa09d"},"vehicle_type_id":"4","last_reported":1748128149,"current_range_meters":15200,"station_id":"ce4bhlh2rcd13ifvqgig","pricing_plan_id":"cebpf4jnsgd1na2vs0mg"},{"bike_id":"7f0b3323-77a1-43c6-a91f-7eae2ece8cc3","system_id":"levelo_inurba_marseille","lat":43.316486,"lon":5.389461,"is_reserved":false,"is_disabled":false,"rental_uris":{"android":"levelo://app?vid=7f0b3323-77a1-43c6-a91f-7eae2ece8cc3","ios":"levelo://app?vid=7f0b3323-77a1-43c6-a91f-7eae2ece8cc3"},"vehicle_type_id":"4","last_reported":1748128149,"current_range_meters":15200,"station_id":"","pricing_plan_id":"cebpf4jnsgd1na2vs0mg"},{"bike_id":"e9496718-b841-4999-823d-28c5bee5d6f1","system_id":"levelo_inurba_marseille","lat":43.265439,"lon":5.389975,"is_reserved":false,"is_disabled":false,"rental_uris":{"android":"levelo://app?vid=e9496718-b841-4999-823d-28c5bee5d6f1","ios":"levelo://app?vid=e9496718-b841-4999-823d-28c5bee5d6f1"},"vehicle_type_id":"4","last_reported":1748128149,"current_range_meters":15200,"station_id":"ce4bhe12rcd13ifvqf30","pricing_plan_id":"cebpf4jnsgd1na2vs0mg"},{"bike_id":"75462091-2d8e-4ce5-92e3-db45030d037c","system_id":"levelo_inurba_marseille","lat":43.25113,"lon":5.40328,"is_reserved":false,"is_disabled":false,"rental_uris":{"android":"levelo://app?vid=75462091-2d8e-4ce5-92e3-db45030d037c","ios":"levelo://app?vid=75462091-2d8e-4ce5-92e3-db45030d037c"},"vehicle_type_id":"4","last_reported":1748128149,"current_range_meters":15200,"station_id":"ce4bhlh2rcd13ifvqgig","pricing_plan_id":"cebpf4jnsgd1na2vs0mg"},{"bike_id":"264d8cef-6a27-4c12-9c8f-846b36316b81","system_id":"levelo_inurba_marseille","lat":43.25831,"lon":5.39441,"is_reserved":false,"is_disabled":false,"rental_uris":{"android":"levelo://app?vid=264d8cef-6a27-4c12-9c8f-846b36316b81","ios":"levelo://app?vid=264d8cef-6a27-4c12-9c8f-846b36316b81"},"vehicle_type_id":"4","last_reported":1748128149,"current_range_meters":15200,"station_id":"ce4bhip2rcd13ifvqft0","pricing_plan_id":"cebpf4jnsgd1na2vs0mg"},{"bike_id":"7d3bd24a-e5f9-4754-8ec6-3ba44c9c4f5b","system_id":"levelo_inurba_marseille","lat":43.24819,"lon":5.37468,"is_reserved":false,"is_disabled":true,"rental_uris":{"android":"levelo://app?vid=7d3bd24a-e5f9-4754-8ec6-3ba44c9c4f5b","ios":"levelo://app?vid=7d3bd24a-e5f9-4754-8ec6-3ba44c9c4f5b"},"vehicle_type_id":"4","last_reported":1748128149,"current_range_meters":15200,"station_id":"ce4bhgh2rcd13ifvqfb0","pricing_plan_id":"cebpf4jnsgd1na2vs0mg"},{"bike_id":"3f1cbf45-39d0-4e16-97be-84f093f73c7f","system_id":"levelo_inurba_marseille","lat":43.26226,"lon":5.40449,"is_reserved":false,"is_disabled":false,"rental_uris":{"android":"levelo://app?vid=3f1cbf45-39d0-4e16-97be-84f093f73c7f","ios":"levelo://app?vid=3f1cbf45-39d0-4e16-97be-84f093f73c7f"},"vehicle_type_id":"4","last_reported":1748128149,"current_range_meters":15200,"station_id":"ce4bhmh2rcd13ifvqgmg","pricing_plan_id":"cebpf4jnsgd1na2vs0mg"},{"bike_id":"0e1a3be7-9931-4522-a372-bcf8c73b5476","system_id":"levelo_inurba_marseille","lat":43.304433,"lon":5.388767,"is_reserved":false,"is_disabled":false,"rental_uris":{"android":"levelo://app?vid=0e1a3be7-9931-4522-a372-bcf8c73b5476","ios":"levelo://app?vid=0e1a3be7-9931-4522-a372-bcf8c73b5476"},"vehicle_type_id":"4","last_reported":1748128149,"current_range_meters":15200,"station_id":"ce4bgk12rcd13ifvqbi0","pricing_plan_id":"cebpf4jnsgd1na2vs0mg"},{"bike_id":"8c24a1cc-9755-4ef3-aee7-aeff472999dc","system_id":"levelo_inurba_marseille","lat":43.282792,"lon":5.350686,"is_reserved":false,"is_disabled":true,"rental_uris":{"android":"levelo://app?vid=8c24a1cc-9755-4ef3-aee7-aeff472999dc","ios":"levelo://app?vid=8c24a1cc-9755-4ef3-aee7-aeff472999dc"},"vehicle_type_id":"4","last_reported":1748128149,"current_range_meters":15200,"station_id":"ce4bhbp2rcd13ifvqerg","pricing_plan_id":"cebpf4jnsgd1na2vs0mg"},{"bike_id":"e588bac4-9a86-4979-bfa2-d6f8331f4471","system_id":"levelo_inurba_marseille","lat":43.3064,"lon":5.40062,"is_reserved":false,"is_disabled":false,"rental_uris":{"android":"levelo://app?vid=e588bac4-9a86-4979-bfa2-d6f8331f4471","ios":"levelo://app?vid=e588bac4-9a86-4979-bfa2-d6f8331f4471"},"vehicle_type_id":"4","last_reported":1748128149,"current_range_meters":15200,"station_id":"ce4bh112rcd13ifvqda0","pricing_plan_id":"cebpf4jnsgd1na2vs0mg"},{"bike_id":"dabc077c-bf8d-431d-a5ea-dcd441e9b7b1","system_id":"levelo_inurba_marseille","lat":43.248872,"lon":5.397166,"is_reserved":false,"is_disabled":false,"rental_uris":{"android":"levelo://app?vid=dabc077c-bf8d-431d-a5ea-dcd441e9b7b1","ios":"levelo://app?vid=dabc077c-bf8d-431d-a5ea-dcd441e9b7b1"},"vehicle_type_id":"4","last_reported":1748128149,"current_range_meters":15200,"station_id":"","pricing_plan_id":"cebpf4jnsgd1na2vs0mg"},{"bike_id":"a672cc52-a405-470c-a0bf-f997144fe0e4","system_id":"levelo_inurba_marseille","lat":43.30425,"lon":5.39746,"is_reserved":false,"is_disabled":false,"rental_uris":{"android":"levelo://app?vid=a672cc52-a405-470c-a0bf-f997144fe0e4","ios":"levelo://app?vid=a672cc52-a405-470c-a0bf-f997144fe0e4"},"vehicle_type_id":"4","last_reported":1748128149,"current_range_meters":15200,"station_id":"ce4bh092rcd13ifvqd20","pricing_plan_id":"cebpf4jnsgd1na2vs0mg"},{"bike_id":"acb4ee96-5a51-47be-8398-8fc8108b75a2","system_id":"levelo_inurba_marseille","lat":43.30886,"lon":5.39664,"is_reserved":false,"is_disabled":false,"rental_uris":{"android":"levelo://app?vid=acb4ee96-5a51-47be-8398-8fc8108b75a2","ios":"levelo://app?vid=acb4ee96-5a51-47be-8398-8fc8108b75a2"},"vehicle_type_id":"4","last_reported":1748128149,"current_range_meters":15200,"station_id":"ce4bh012rcd13ifvqcv0","pricing_plan_id":"cebpf4jnsgd1na2vs0mg"},