{"last_updated":1753431341,"ttl":60,"version":"2.2","data":{"bikes":[{"bike_id":"ad7e300b-0644-4779-bc51-57010504e807","system_id":"levelo_inurba_marseille","lat":43.27951,"lon":5.38705,"is_reserved":false,"is_disabled":false,"rental_uris":{"android":"levelo://app?vid=ad7e300b-0644-4779-bc51-57010504e807","ios":"levelo://app?vid=ad7e300b-0644-4779-bc51-57010504e807"},"vehicle_type_id":"4","last_reported":1753431342,"current_range_meters":2800,"station_id":"ce4bhg12rcd13ifvqf80","pricing_plan_id":"cebpf4jnsgd1na2vs0mg"},{"bike_id":"c9dbd36b-479c-4a5c-b200-3aa7673340d9","system_id":"levelo_inurba_marseille","lat":43.241448,"lon":5.363743,"is_reserved":false,"is_disabled":false,"rental_uris":{"android":"levelo://app?vid=c9dbd36b-479c-4a5c-b200-3aa7673340d9","ios":"levelo://app?vid=c9dbd36b-479c-4a5c-b200-3aa7673340d9"},"vehicle_type_id":"4","last_reported":1753431342,"current_range_meters":2800,"station_id":"","pricing_plan_id":"cebpf4jnsgd1na2vs0mg"},{"bike_id":"dab466c2-6df2-43f4-9358-6c786adae5a4","system_id":"levelo_inurba_marseille","lat":43.21189,"lon":5.35073,"is_reserved":false,"is_disabled":false,"rental_uris":{"android":"levelo://app?vid=dab466c2-6df2-43f4-9358-6c786adae5a4","ios":"levelo://app?vid=dab466c2-6df2-43f4-9358-6c786adae5a4"},"vehicle_type_id":"4","last_reported":1753431342,"current_range_meters":3200,"station_id":"st_cvj6sg6p6f1abm77japg","pricing_plan_id":"cebpf4jnsgd1na2vs0mg"},{"bike_id":"209a87e1-cee6-49b0-9576-0d83eb8ea08c","system_id":"levelo_inurba_marseille","lat":43.28471,"lon":5.35903,"is_reserved":false,"is_disabled":false,"rental_uris":{"android":"levelo://app?vid=209a87e1-cee6-49b0-9576-0d83eb8ea08c","ios":"levelo://app?vid=209a87e1-cee6-49b0-9576-0d83eb8ea08c"},"vehicle_type_id":"4","last_reported":1753431342,"current_range_meters":3200,"station_id":"ce4bhah2rcd13ifvqei0","pricing_plan_id":"cebpf4jnsgd1na2vs0mg"},{"bike_id":"c8cbe188-8c80-4aac-881d-65feb870e521","system_id":"levelo_inurba_marseille","lat":43.3289,"lon":5.37476,"is_reserved":false,"is_disabled":true,"rental_uris":{"android":"levelo://app?vid=c8cbe188-8c80-4aac-881d-65feb870e521","ios":"levelo://app?vid=c8cbe188-8c80-4aac-881d-65feb870e521"},"vehicle_type_id":"4","last_reported":1753431342,"current_range_meters":3200,"station_id":"","pricing_plan_id":"cebpf4jnsgd1na2vs0mg"},{"bike_id":"351922fc-d47d-47a1-993e-f2d3115d1a09","system_id":"levelo_inurba_marseille","lat":43.294329,"lon":5.397488,"is_reserved":false,"is_disabled":false,"rental_uris":{"android":"levelo://app?vid=351922fc-d47d-47a1-993e-f2d3115d1a09","ios":"levelo://app?vid=351922fc-d47d-47a1-993e-f2d3115d1a09"},"vehicle_type_id":"4","last_reported":1753431342,"current_range_meters":3600,"station_id":"ce4bh3h2rcd13ifvqdo0","pricing_plan_id":"cebpf4jnsgd1na2vs0mg"},{"bike_id":"f3fe7126-63ce-4072-af1a-9b974ab0f10d","system_id":"levelo_inurba_marseille","lat":43.283691,"lon":5.386299,"is_reserved":false,"is_disabled":false,"rental_uris":{"android":"levelo://app?vid=f3fe7126-63ce-4072-af1a-9b974ab0f10d","ios":"levelo://app?vid=f3fe7126-63ce-4072-af1a-9b974ab0f10d"},"vehicle_type_id":"4","last_reported":1753431342,"current_range_meters":4000,"station_id":"ce4bh492rcd13ifvqdvg","pricing_plan_id":"cebpf4jnsgd1na2vs0mg"},{"bike_id":"b593b3ec-8b83-46b3-9dec-0dd78c2f14d3","system_id":"levelo_inurba_marseille","lat":43.297752,"lon":5.371104,"is_reserved":false,"is_disabled":false,"rental_uris":{"android":"levelo://app?vid=b593b3ec-8b83-46b3-9dec-0dd78c2f14d3","ios":"levelo://app?vid=b593b3ec-8b83-46b3-9dec-0dd78c2f14d3"},"vehicle_type_id":"4","last_reported":1753431342,"current_range_meters":4000,"station_id":"","pricing_plan_id":"cebpf4jnsgd1na2vs0mg"},{"bike_id":"32a59cc5-e8bf-4317-8479-e8dcf90ee195","system_id":"levelo_inurba_marseille","lat":43.29522,"lon":5.39392,"is_reserved":false,"is_disabled":false,"rental_uris":{"android":"levelo://app?vid=32a59cc5-e8bf-4317-8479-e8dcf90ee195","ios":"levelo://app?vid=32a59cc5-e8bf-4317-8479-e8dcf90ee195"},"vehicle_type_id":"4","last_reported":1753431342,"current_range_meters":4000,"station_id":"ce4bh292rcd13ifvqdf0","pricing_plan_id":"cebpf4jnsgd1na2vs0mg"},{"bike_id":"be88d26a-05c6-404a-a010-4f603ae9cdb1","system_id":"levelo_inurba_marseille","lat":43.25489,"lon":5.37648,"is_reserved":false,"is_disabled":false,"rental_uris":{"android":"levelo://app?vid=be88d26a-05c6-404a-a010-4f603ae9cdb1","ios":"levelo://app?vid=be88d26a-05c6-404a-a010-4f603ae9cdb1"},"vehicle_type_id":"4","last_reported":1753431342,"current_range_meters":4400,"station_id":"ce4bhh12rcd13ifvqff0","pricing_plan_id":"cebpf4jnsgd1na2vs0mg"},{"bike_id":"2c304caa-867d-44f0-96b4-3c1eec387516","system_id":"levelo_inurba_marseille","lat":43.27179,"lon":5.40995,"is_reserved":false,"is_disabled":false,"rental_uris":{"android":"levelo://app?vid=2c304caa-867d-44f0-96b4-3c1eec387516","ios":"levelo://app?vid=2c304caa-867d-44f0-96b4-3c1eec387516"},"vehicle_type_id":"4","last_reported":1753431342,"current_range_meters":4400,"station_id":"ce4bhl12rcd13ifvqgf0","pricing_plan_id":"cebpf4jnsgd1na2vs0mg"},{"bike_id":"b48d1773-1c71-4f8f-9ebc-b11fb9f7fc2a","system_id":"levelo_inurba_marseille","lat":43.313495,"lon":5.36724,"is_reserved":false,"is_disabled":false,"rental_uris":{"android":"levelo://app?vid=b48d1773-1c71-4f8f-9ebc-b11fb9f7fc2a","ios":"levelo://app?vid=b48d1773-1c71-4f8f-9ebc-b11fb9f7fc2a"},"vehicle_type_id":"4","last_reported":1753431342,"current_range_meters":4400,"station_id":"ce4bgr92rcd13ifvqc6g","pricing_plan_id":"cebpf4jnsgd1na2vs0mg"},{"bike_id":"ee087394-1962-4103-a5db-2965487d0f44","system_id":"levelo_inurba_marseille","lat":43.23064,"lon":5.35492,"is_reserved":false,"is_disabled":false,"rental_uris":{"android":"levelo://app?vid=ee087394-1962-4103-a5db-2965487d0f44","ios":"levelo://app?vid=ee087394-1962-4103-a5db-2965487d0f44"},"vehicle_type_id":"4","last_reported":1753431342,"current_range_meters":4800,"station_id":"cpo3342slgdg3j2ifvpg","pricing_plan_id":"cebpf4jnsgd1na2vs0mg"},{"bike_id":"4e6dd435-dcdc-4c6d-be23-774e5b68e116","system_id":"levelo_inurba_marseille","lat":43.28631,"lon":5.35108,"is_reserved":false,"is_disabled":false,"rental_uris":{"android":"levelo://app?vid=4e6dd435-dcdc-4c6d-be23-774e5b68e116","ios":"levelo://app?vid=4e6dd435-dcdc-4c6d-be23-774e5b68e116"},"vehicle_type_id":"4","last_reported":1753431342,"current_range_meters":4800,"station_id":"ce4bhch2rcd13ifvqeug","pricing_plan_id":"cebpf4jnsgd1na2vs0mg"},{"bike_id":"9efb4ece-c151-4789-8668-17dd46633a40","system_id":"levelo_inurba_marseille","lat":43.29049,"lon":5.39996,"is_reserved":false,"is_disabled":true,"rental_uris":{"android":"levelo://app?vid=9efb4ece-c151-4789-8668-17dd46633a40","ios":"levelo://app?vid=9efb4ece-c151-4789-8668-17dd46633a40"},"vehicle_type_id":"4","last_reported":1753431342,"current_range_meters":5600,"station_id":"ce4bh392rcd13ifvqdm0","pricing_plan_id":"cebpf4jnsgd1na2vs0mg"},{"bike_id":"87d9cc9e-fb09-41d9-ab2e-0f924589aaeb","system_id":"levelo_inurba_marseille","lat":43.31254,"lon":5.36932,"is_reserved":false,"is_disabled":false,"rental_uris":{"android":"levelo://app?vid=87d9cc9e-fb09-41d9-ab2e-0f924589aaeb","ios":"levelo://app?vid=87d9cc9e-fb09-41d9-ab2e-0f924589aaeb"},"vehicle_type_id":"4","last_reported":1753431342,"current_range_meters":5600,"station_id":"","pricing_plan_id":"cebpf4jnsgd1na2vs0mg"},{"bike_id":"da053e6a-15f2-492e-8bc1-42b1d66cc329","system_id":"levelo_inurba_marseille","lat":43.28363,"lon":5.43259,"is_reserved":false,"is_disabled":false,"rental_uris":{"android":"levelo://app?vid=da053e6a-15f2-492e-8bc1-42b1d66cc329","ios":"levelo://app?vid=da053e6a-15f2-492e-8bc1-42b1d66cc329"},"vehicle_type_id":"4","last_reported":1753431342,"current_range_meters":5600,"station_id":"","pricing_plan_id":"cebpf4jnsgd1na2vs0mg"},{"bike_id":"ca5850d2-e2a1-4de9-843e-ec07b8642b7d","system_id":"levelo_inurba_marseille","lat":43.2419,"lon":5.39712,"is_reserved":false,"is_disabled":false,"rental_uris":{"android":"levelo://app?vid=ca5850d2-e2a1-4de9-843e-ec07b8642b7d","ios":"levelo://app?vid=ca5850d2-e2a1-4de9-843e-ec07b8642b7d"},"vehicle_type_id":"4","last_reported":1753431342,"current_range_meters":6000,"station_id":"ce4bhn12rcd13ifvqgpg","pricing_plan_id":"cebpf4jnsgd1na2vs0mg"},{"bike_id":"961bbeb2-9571-45ad-997e-6a7f82e00a62","system_id":"levelo_inurba_marseille","lat":43.27171,"lon":5.40987,"is_reserved":false,"is_disabled":false,"rental_uris":{"android":"levelo://app?vid=961bbeb2-9571-45ad-997e-6a7f82e00a62","ios":"levelo://app?vid=961bbeb2-9571-45ad-997e-6a7f82e00a62"},"vehicle_type_id":"4","last_reported":1753431342,"current_range_meters":6400,"station_id":"ce4bhl12rcd13ifvqgf0","pricing_plan_id":"cebpf4jnsgd1na2vs0mg"},{"bike_id":"2ba01491-08ee-44be-baca-1a72bd5c106b","system_id":"levelo_inurba_marseille","lat":43.30794,"lon":5.43524,"is_reserved":false,"is_disabled":false,"rental_uris":{"android":"levelo://app?vid=2ba01491-08ee-44be-baca-1a72bd5c106b","ios":"levelo://app?vid=2ba01491-08ee-44be-baca-1a72bd5c106b"},"vehicle_type_id":"4","last_reported":1753431342,"current_range_meters":6400,"station_id":"ce4bhph2rcd13ifvqheg","pricing_plan_id":"cebpf4jnsgd1na2vs0mg"},{"bike_id":"c6097a97-7d3d-4cf1-b876-2f1fcbfda1e3","system_id":"levelo_inurba_marseille","lat":43.291657,"lon":5.371607,"is_reserved":false,"is_disabled":false,"rental_uris":{"android":"levelo://app?vid=c6097a97-7d3d-4cf1-b876-2f1fcbfda1e3","ios":"levelo://app?vid=c6097a97-7d3d-4cf1-b876-2f1fcbfda1e3"},"vehicle_type_id":"4","last_reported":1753431342,"current_range_meters":6400,"station_id":"ce4bha92rcd13ifvqeh0","pricing_plan_id":"cebpf4jnsgd1na2vs0mg"},{"bike_id":"96d0eadf-9703-443d-9809-be25e899ed7c","system_id":"levelo_inurba_marseille","lat":43.27373,"lon":5.36247,"is_reserved":false,"is_disabled":false,"rental_uris":{"android":"levelo://app?vid=96d0eadf-9703-443d-9809-be25e899ed7c","ios":"levelo://app?vid=96d0eadf-9703-443d-9809-be25e899ed7c"},"vehicle_type_id":"4","last_reported":1753431342,"current_range_meters":6800,"station_id":"ce4bhbh2rcd13ifvqeo0","pricing_plan_id":"cebpf4jnsgd1na2vs0mg"},{"bike_id":"f3217e35-0bb5-43ab-beb0-dd5e233a7114","system_id":"levelo_inurba_marseille","lat":43.25578,"lon":5.382244,"is_reserved":false,"is_disabled":false,"rental_uris":{"android":"levelo://app?vid=f3217e35-0bb5-43ab-beb0-dd5e233a7114","ios":"levelo://app?vid=f3217e35-0bb5-43ab-beb0-dd5e233a7114"},"vehicle_type_id":"4","last_reported":1753431342,"current_range_meters":6800,"station_id":"ce4bhih2rcd13ifvqfs0","pricing_plan_id":"cebpf4jnsgd1na2vs0mg"},{"bike_id":"84e2185c-bc72-4571-b798-05ff769ac426","system_id":"levelo_inurba_marseille","lat":43.28616,"lon":5.35098,"is_reserved":false,"is_disabled":false,"rental_uris":{"android":"levelo://app?vid=84e2185c-bc72-4571-b798-05ff769ac426","ios":"levelo://app?vid=84e2185c-bc72-4571-b798-05ff769ac426"},"vehicle_type_id":"4","last_reported":1753431342,"current_range_meters":7200,"station_id":"ce4bhch2rcd13ifvqeug","pricing_plan_id":"cebpf4jnsgd1na2vs0mg"},{"bike_id":"7250624a-63df-4e44-9e5a-1056e5f8a90f","system_id":"levelo_inurba_marseille","lat":43.29177,"lon":5.40816,"is_reserved":false,"is_disabled":false,"rental_uris":{"android":"levelo://app?vid=7250624a-63df-4e44-9e5a-1056e5f8a90f","ios":"levelo://app?vid=7250624a-63df-4e44-9e5a-1056e5f8a90f"},"vehicle_type_id":"4","last_reported":1753431342,"current_range_meters":7200,"station_id":"","pricing_plan_id":"cebpf4jnsgd1na2vs0mg"},{"bike_id":"1242185d-2b3c-44b4-8f56-bd2cf4041b46","system_id":"levelo_inurba_marseille","lat":43.288545,"lon":5.358527,"is_reserved":false,"is_disabled":false,"rental_uris":{"android":"levelo://app?vid=1242185d-2b3c-44b4-8f56-bd2cf4041b46","ios":"levelo://app?vid=1242185d-2b3c-44b4-8f56-bd2cf4041b46"},"vehicle_type_id":"4","last_reported":1753431342,"current_range_meters":7200,"station_id":"","pricing_plan_id":"cebpf4jnsgd1na2vs0mg"},{"bike_id":"2c0532cb-1689-423c-a224-e1ed84120a5c","system_id":"levelo_inurba_marseille","lat":43.32462,"lon":5.36569,"is_reserved":false,"is_disabled":false,"rental_uris":{"android":"levelo://app?vid=2c0532cb-1689-423c-a224-e1ed84120a5c","ios":"levelo://app?vid=2c0532cb-1689-423c-a224-e1ed84120a5c"},"vehicle_type_id":"4","last_reported":1753431342,"current_range_meters":7200,"station_id":"ce4bhs12rcd13ifvqhvg","pricing_plan_id":"cebpf4jnsgd1na2vs0mg"},{"bike_id":"d4043fff-8474-4a89-965a-b8794944d0a3","system_id":"levelo_inurba_marseille","lat":43.23184,"lon":5.39985,"is_reserved":false,"is_disabled":false,"rental_uris":{"android":"levelo://app?vid=d4043fff-8474-4a89-965a-b8794944d0a3","ios":"levelo://app?vid=d4043fff-8474-4a89-965a-b8794944d0a3"},"vehicle_type_id":"4","last_reported":1753431342,"current_range_meters":8000,"station_id":"ce4bhn12rcd13ifvqgqg","pricing_plan_id":"cebpf4jnsgd1na2vs0mg"},{"bike_id":"c27e8574-ca6a-4ce2-a6eb-992bc5bf29cd","system_id":"levelo_inurba_marseille","lat":43.28622,"lon":5.35102,"is_reserved":false,"is_disabled":false,"rental_uris":{"android":"levelo://app?vid=c27e8574-ca6a-4ce2-a6eb-992bc5bf29cd","ios":"levelo://app?vid=c27e8574-ca6a-4ce2-a6eb-992bc5bf29cd"},"vehicle_type_id":"4","last_reported":1753431342,"current_range_meters":8000,"station_id":"ce4bhch2rcd13ifvqeug","pricing_plan_id":"cebpf4jnsgd1na2vs0mg"},{"bike_id":"4c96a197-f1ab-41d7-99d6-a44cf07b2d87","system_id":"levelo_inurba_marseille","lat":43.28694,"lon":5.37934,"is_reserved":false,"is_disabled":false,"rental_uris":{"android":"levelo://app?vid=4c96a197-f1ab-41d7-99d6-a44cf07b2d87","ios":"levelo://app?vid=4c96a197-f1ab-41d7-99d6-a44cf07b2d87"},"vehicle_type_id":"4","last_reported":1753431342,"current_range_meters":8000,"station_id":"ce4bh9p2rcd13ifvqec0","pricing_plan_id":"cebpf4jnsgd1na2vs0mg"},{"bike_id":"d24e7110-dd46-4e4a-bf8c-1909d68695d6","system_id":"levelo_inurba_marseille","lat":43.32484,"lon":5.3657,"is_reserved":false,"is_disabled":false,"rental_uris":{"android":"levelo://app?vid=d24e7110-dd46-4e4a-bf8c-1909d68695d6","ios":"levelo://app?vid=d24e7110-dd46-4e4a-bf8c-1909d68695d6"},"vehicle_type_id":"4","last_reported":1753431342,"current_range_meters":8400,"station_id":"ce4bhs12rcd13ifvqhvg","pricing_plan_id":"cebpf4jnsgd1na2vs0mg"},{"bike_id":"bbc2b271-396f-4875-9f1d-0fcc163d87b6","system_id":"levelo_inurba_marseille","lat":43.290641,"lon":5.398779,"is_reserved":false,"is_disabled":false,"rental_uris":{"android":"levelo://app?vid=bbc2b271-396f-4875-9f1d-0fcc163d87b6","ios":"levelo://app?vid=bbc2b271-396f-4875-9f1d-0fcc163d87b6"},"vehicle_type_id":"4","last_reported":1753431342,"current_range_meters":8400,"station_id":"","pricing_plan_id":"cebpf4jnsgd1na2vs0mg"},{"bike_id":"ae131367-d818-44a0-9e1d-4aa65dcdb16a","system_id":"levelo_inurba_marseille","lat":43.27509,"lon":5.3964,"is_reserved":false,"is_disabled":false,"rental_uris":{"android":"levelo://app?vid=ae131367-d818-44a0-9e1d-4aa65dcdb16a","ios":"levelo://app?vid=ae131367-d818-44a0-9e1d-4aa65dcdb16a"},"vehicle_type_id":"4","last_reported":1753431342,"current_range_meters":8400,"station_id":"","pricing_plan_id":"cebpf4jnsgd1na2vs0mg"},{"bike_id":"103f1055-8f09-4334-abab-9f44037f0884","system_id":"levelo_inurba_marseille","lat":43.23203,"lon":5.35567,"is_reserved":false,"is_disabled":true,"rental_uris":{"android":"levelo://app?vid=103f1055-8f09-4334-abab-9f44037f0884","ios":"levelo://app?vid=103f1055-8f09-4334-abab-9f44037f0884"},"vehicle_type_id":"4","last_reported":1753431342,"current_range_meters":8400,"station_id":"ce4bhu92rcd13ifvqi70","pricing_plan_id":"cebpf4jnsgd1na2vs0mg"},{"bike_id":"3cd09fc8-9554-4236-8496-0931a7be09d1","system_id":"levelo_inurba_marseille","lat":43.211921,"lon":5.350695,"is_reserved":false,"is_disabled":false,"rental_uris":{"android":"levelo://app?vid=3cd09fc8-9554-4236-8496-0931a7be09d1","ios":"levelo://app?vid=3cd09fc8-9554-4236-8496-0931a7be09d1"},"vehicle_type_id":"4","last_reported":1753431342,"current_range_meters":8400,"station_id":"st_cvj6sg6p6f1abm77japg","pricing_plan_id":"cebpf4jnsgd1na2vs0mg"},{"bike_id":"99a07b4b-7b7b-480c-be33-079f56105b46","system_id":"levelo_inurba_marseille","lat":43.29568,"lon":5.3753,"is_reserved":false,"is_disabled":false,"rental_uris":{"android":"levelo://app?vid=99a07b4b-7b7b-480c-be33-079f56105b46","ios":"levelo://app?vid=99a07b4b-7b7b-480c-be33-079f56105b46"},"vehicle_type_id":"4","last_reported":1753431342,"current_range_meters":8400,"station_id":"ce4bgh92rcd13ifvqb50","pricing_plan_id":"cebpf4jnsgd1na2vs0mg"},{"bike_id":"7e84a204-1499-4fde-9660-624ffd3f7eb2","system_id":"levelo_inurba_marseille","lat":43.25001,"lon":5.3894,"is_reserved":false,"is_disabled":false,"rental_uris":{"android":"levelo://app?vid=7e84a204-1499-4fde-9660-624ffd3f7eb2","ios":"levelo://app?vid=7e84a204-1499-4fde-9660-624ffd3f7eb2"},"vehicle_type_id":"4","last_reported":1753431342,"current_range_meters":8400,"station_id":"ce4bhgp2rcd13ifvqfd0","pricing_plan_id":"cebpf4jnsgd1na2vs0mg"},{"bike_id":"0a7cf1b0-976e-43f6-be59-2b74afda25b1","system_id":"levelo_inurba_marseille","lat":43.286834,"lon":5.413408,"is_reserved":false,"is_disabled":false,"rental_uris":{"android":"levelo://app?vid=0a7cf1b0-976e-43f6-be59-2b74afda25b1","ios":"levelo://app?vid=0a7cf1b0-976e-43f6-be59-2b74afda25b1"},"vehicle_type_id":"4","last_reported":1753431342,"current_range_meters":8400,"station_id":"","pricing_plan_id":"cebpf4jnsgd1na2vs0mg"},{"bike_id":"8fc40684-9b2f-4471-90f0-d80318962260","system_id":"levelo_inurba_marseille","lat":43.28569,"lon":5.37764,"is_reserved":false,"is_disabled":false,"rental_uris":{"android":"levelo://app?vid=8fc40684-9b2f-4471-90f0-d80318962260","ios":"levelo://app?vid=8fc40684-9b2f-4471-90f0-d80318962260"},"vehicle_type_id":"4","last_reported":1753431342,"current_range_meters":8400,"station_id":"","pricing_plan_id":"cebpf4jnsgd1na2vs0mg"},{"bike_id":"d11685a1-0abc-44a3-b2d5-bfd6df1dd308","system_id":"levelo_inurba_marseille","lat":43.28112,"lon":5.44107,"is_reserved":false,"is_disabled":false,"rental_uris":{"android":"levelo://app?vid=d11685a1-0abc-44a3-b2d5-bfd6df1dd308","ios":"levelo://app?vid=d11685a1-0abc-44a3-b2d5-bfd6df1dd308"},"vehicle_type_id":"4","last_reported":1753431342,"current_range_meters":8400,"station_id":"","pricing_plan_id":"cebpf4jnsgd1na2vs0mg"},{"bike_id":"ad25e224-b15c-4949-92a3-53289b1bd1fb","system_id":"levelo_inurba_marseille","lat":43.28755,"lon":5.38487,"is_reserved":false,"is_disabled":false,"rental_uris":{"android":"levelo://app?vid=ad25e224-b15c-4949-92a3-53289b1bd1fb","ios":"levelo://app?vid=ad25e224-b15c-4949-92a3-53289b1bd1fb"},"vehicle_type_id":"4","last_reported":1753431342,"current_range_meters":8400,"station_id":"","pricing_plan_id":"cebpf4jnsgd1na2vs0mg"},{"bike_id":"de82f7c5-1198-4c38-bd54-7a8cc43b137b","system_id":"levelo_inurba_marseille","lat":43.22924,"lon":5.35378,"is_reserved":false,"is_disabled":false,"rental_uris":{"android":"levelo://app?vid=de82f7c5-1198-4c38-bd54-7a8cc43b137b","ios":"levelo://app?vid=de82f7c5-1198-4c38-bd54-7a8cc43b137b"},"vehicle_type_id":"4","last_reported":1753431342,"current_range_meters":8400,"station_id":"cpo3532slgdg3j2ikp40","pricing_plan_id":"cebpf4jnsgd1na2vs0mg"},{"bike_id":"77308274-d3ad-4ac2-ac4b-1bf46ceaecfc","system_id":"levelo_inurba_marseille","lat":43.31706,"lon":5.37758,"is_reserved":false,"is_disabled":false,"rental_uris":{"android":"levelo://app?vid=77308274-d3ad-4ac2-ac4b-1bf46ceaecfc","ios":"levelo://app?vid=77308274-d3ad-4ac2-ac4b-1bf46ceaecfc"},"vehicle_type_id":"4","last_reported":1753431342,"current_range_meters":8400,"station_id":"ce4bgth2rcd13ifvqch0","pricing_plan_id":"cebpf4jnsgd1na2vs0mg"},{"bike_id":"f35e280e-c93c-4b94-b74b-bf78f6ce6ce0","system_id":"levelo_inurba_marseille","lat":43.3088,"lon":5.37183,"is_reserved":false,"is_disabled":false,"rental_uris":{"android":"levelo://app?vid=f35e280e-c93c-4b94-b74b-bf78f6ce6ce0","ios":"levelo://app?vid=f35e280e-c93c-4b94-b74b-bf78f6ce6ce0"},"vehicle_type_id":"4","last_reported":1753431342,"current_range_meters":8800,"station_id":"ce4bguh2rcd13ifvqckg","pricing_plan_id":"cebpf4jnsgd1na2vs0mg"},{"bike_id":"e338d8e5-e643-4395-bb00-315092a4b333","system_id":"levelo_inurba_marseille","lat":43.26957,"lon":5.38634,"is_reserved":false,"is_disabled":false,"rental_uris":{"android":"levelo://app?vid=e338d8e5-e643-4395-bb00-315092a4b333","ios":"levelo://app?vid=e338d8e5-e643-4395-bb00-315092a4b333"},"vehicle_type_id":"4","last_reported":1753431342,"current_range_meters":8800,"station_id":"ce4bhh92rcd13ifvqfh0","pricing_plan_id":"cebpf4jnsgd1na2vs0mg"},{"bike_id":"db36c657-697e-4daa-9130-baede7cf63e5","system_id":"levelo_inurba_marseille","lat":43.29265,"lon":5.36839,"is_reserved":false,"is_disabled":false,"rental_uris":{"android":"levelo://app?vid=db36c657-697e-4daa-9130-baede7cf63e5","ios":"levelo://app?vid=db36c657-697e-4daa-9130-baede7cf63e5"},"vehicle_type_id":"4","last_reported":1753431342,"current_range_meters":9200,"station_id":"ce4bhbp2rcd13ifvqesg","pricing_plan_id":"cebpf4jnsgd1na2vs0mg"},{"bike_id":"c42880e6-4b84-4728-bd73-600589aac756","system_id":"levelo_inurba_marseille","lat":43.30321,"lon":5.36896,"is_reserved":false,"is_disabled":false,"rental_uris":{"android":"levelo://app?vid=c42880e6-4b84-4728-bd73-600589aac756","ios":"levelo://app?vid=c42880e6-4b84-4728-bd73-600589aac756"},"vehicle_type_id":"4","last_reported":1753431342,"current_range_meters":9200,"station_id":"ce4bgqh2rcd13ifvqc5g","pricing_plan_id":"cebpf4jnsgd1na2vs0mg"},{"bike_id":"5ac85406-65d0-4336-aa89-4b04b2e6689e","system_id":"levelo_inurba_marseille","lat":43.332566,"lon":5.419752,"is_reserved":false,"is_disabled":false,"rental_uris":{"android":"levelo://app?vid=5ac85406-65d0-4336-aa89-4b04b2e6689e","ios":"levelo://app?vid=5ac85406-65d0-4336-aa89-4b04b2e6689e"},"vehicle_type_id":"4","last_reported":1753431342,"current_range_meters":9200,"station_id":"","pricing_plan_id":"cebpf4jnsgd1na2vs0mg"},{"bike_id":"77a4ecdf-2983-465c-98e3-0483ef614004","system_id":"levelo_inurba_marseille","lat":43.27375,"lon":5.36254,"is_reserved":false,"is_disabled":false,"rental_uris":{"android":"levelo://app?vid=77a4ecdf-2983-465c-98e3-0483ef614004","ios":"levelo://app?vid=77a4ecdf-2983-465c-98e3-0483ef614004"},"vehicle_type_id":"4","last_reported":1753431342,"current_range_meters":9200,"station_id":"ce4bhbh2rcd13ifvqeo0","pricing_plan_id":"cebpf4jnsgd1na2vs0mg"},{"bike_id":"b5ce8d93-17c0-45a5-b2b1-eefce45c2d79","system_id":"levelo_inurba_marseille","lat":43.29292,"lon":5.44595,"is_reserved":false,"is_disabled":false,"rental_uris":{"android":"levelo://app?vid=b5ce8d93-17c0-45a5-b2b1-eefce45c2d79","ios":"levelo://app?vid=b5ce8d93-17c0-45a5-b2b1-eefce45c2d79"},"vehicle_type_id":"4","last_reported":1753431342,"current_range_meters":9200,"station_id":"","pricing_plan_id":"cebpf4jnsgd1na2vs0mg"},{"bike_id":"3cbb97c5-1f06-4add-ac6d-a120022e686c","system_id":"levelo_inurba_marseille","lat":43.299017,"lon":5.37586,"is_reserved":false,"is_disabled":false,"rental_uris":{"android":"levelo://app?vid=3cbb97c5-1f06-4add-ac6d-a120022e686c","ios":"levelo://app?vid=3cbb97c5-1f06-4add-ac6d-a120022e686c"},"vehicle_type_id":"4","last_reported":1753431342,"current_range_meters":9200,"station_id":"","pricing_plan_id":"cebpf4jnsgd1na2vs0mg"},{"bike_id":"6bb1f31c-9335-4f39-9585-31374a4775f9","system_id":"levelo_inurba_marseille","lat":43.325583,"lon":5.379059,"is_reserved":false,"is_disabled":false,"rental_uris":{"android":"levelo://app?vid=6bb1f31c-9335-4f39-9585-31374a4775f9","ios":"levelo://app?vid=6bb1f31c-9335-4f39-9585-31374a4775f9"},"vehicle_type_id":"4","last_reported":1753431342,"current_range_meters":9200,"station_id":"","pricing_plan_id":"cebpf4jnsgd1na2vs0mg"},{"bike_id":"2006d6ab-c619-4a15-b9f3-97c1160843f0","system_id":"levelo_inurba_marseille","lat":43.28159,"lon":5.3611,"is_reserved":false,"is_disabled":false,"rental_uris":{"android":"levelo://app?vid=2006d6ab-c619-4a15-b9f3-97c1160843f0","ios":"levelo://app?vid=2006d6ab-c619-4a15-b9f3-97c1160843f0"},"vehicle_type_id":"4","last_reported":1753431342,"current_range_meters":9200,"station_id":"","pricing_plan_id":"cebpf4jnsgd1na2vs0mg"},{"bike_id":"d89d5466-fa8e-4194-a0f7-9569dd1c2807","system_id":"levelo_inurba_marseille","lat":43.29167,"lon":5.39921,"is_reserved":false,"is_disabled":false,"rental_uris":{"android":"levelo://app?vid=d89d5466-fa8e-4194-a0f7-9569dd1c2807","ios":"levelo://app?vid=d89d5466-fa8e-4194-a0f7-9569dd1c2807"},"vehicle_type_id":"4","last_reported":1753431342,"current_range_meters":9600,"station_id":"","pricing_plan_id":"cebpf4jnsgd1na2vs0mg"},{"bike_id":"b57f5444-81ff-4a62-9ea3-1b3feaeafb55","system_id":"levelo_inurba_marseille","lat":43.28339,"lon":5.38099,"is_reserved":false,"is_disabled":true,"rental_uris":{"android":"levelo://app?vid=b57f5444-81ff-4a62-9ea3-1b3feaeafb55","ios":"levelo://app?vid=b57f5444-81ff-4a62-9ea3-1b3feaeafb55"},"vehicle_type_id":"4","last_reported":1753431342,"current_range_meters":9600,"station_id":"ce4bh412rcd13ifvqdr0","pricing_plan_id":"cebpf4jnsgd1na2vs0mg"},{"bike_id":"e3c9342c-bb6d-4718-bcc5-8fe52f1f8f7c","system_id":"levelo_inurba_marseille","lat":43.29703,"lon":5.36608,"is_reserved":false,"is_disabled":false,"rental_uris":{"android":"levelo://app?vid=e3c9342c-bb6d-4718-bcc5-8fe52f1f8f7c","ios":"levelo://app?vid=e3c9342c-bb6d-4718-bcc5-8fe52f1f8f7c"},"vehicle_type_id":"4","last_reported":1753431342,"current_range_meters":9600,"station_id":"ce4bgn12rcd13ifvqbt0","pricing_plan_id":"cebpf4jnsgd1na2vs0mg"},{"bike_id":"1ad257b5-7f83-42c1-867f-92635ff1abbf","system_id":"levelo_inurba_marseille","lat":43.22934,"lon":5.35377,"is_reserved":false,"is_disabled":false,"rental_uris":{"android":"levelo://app?vid=1ad257b5-7f83-42c1-867f-92635ff1abbf","ios":"levelo://app?vid=1ad257b5-7f83-42c1-867f-92635ff1abbf"},"vehicle_type_id":"4","last_reported":1753431342,"current_range_meters":9600,"station_id":"cpo3532slgdg3j2ikp40","pricing_plan_id":"cebpf4jnsgd1na2vs0mg"},{"bike_id":"6b737f3c-b937-4ad9-a83f-864113a043dd","system_id":"levelo_inurba_marseille","lat":43.28273,"lon":5.35072,"is_reserved":false,"is_disabled":false,"rental_uris":{"android":"levelo://app?vid=6b737f3c-b937-4ad9-a83f-864113a043dd","ios":"levelo://app?vid=6b737f3c-b937-4ad9-a83f-864113a043dd"},"vehicle_type_id":"4","last_reported":1753431342,"current_range_meters":10000,"station_id":"ce4bhbp2rcd13ifvqerg","pricing_plan_id":"cebpf4jnsgd1na2vs0mg"},{"bike_id":"47aba00d-3942-4d91-bc41-81f25bd126a7","system_id":"levelo_inurba_marseille","lat":43.30142,"lon":5.37421,"is_reserved":false,"is_disabled":false,"rental_uris":{"android":"levelo://app?vid=47aba00d-3942-4d91-bc41-81f25bd126a7","ios":"levelo://app?vid=47aba00d-3942-4d91-bc41-81f25bd126a7"},"vehicle_type_id":"4","last_reported":1753431342,"current_range_meters":10000,"station_id":"ce4bgs92rcd13ifvqcc0","pricing_plan_id":"cebpf4jnsgd1na2vs0mg"},{"bike_id":"7451b4c7-fcac-459a-80d5-c09489666709","system_id":"levelo_inurba_marseille","lat":43.31335,"lon":5.36708,"is_reserved":false,"is_disabled":false,"rental_uris":{"android":"levelo://app?vid=7451b4c7-fcac-459a-80d5-c09489666709","ios":"levelo://app?vid=7451b4c7-fcac-459a-80d5-c09489666709"},"vehicle_type_id":"4","last_reported":1753431342,"current_range_meters":10000,"station_id":"ce4bgr92rcd13ifvqc6g","pricing_plan_id":"cebpf4jnsgd1na2vs0mg"},{"bike_id":"97468370-9da2-414c-bbc1-c465373893ef","system_id":"levelo_inurba_marseille","lat":43.29884,"lon":5.36329,"is_reserved":false,"is_disabled":false,"rental_uris":{"android":"levelo://app?vid=97468370-9da2-414c-bbc1-c465373893ef","ios":"levelo://app?vid=97468370-9da2-414c-bbc1-c465373893ef"},"vehicle_type_id":"4","last_reported":1753431342,"current_range_meters":10000,"station_id":"","pricing_plan_id":"cebpf4jnsgd1na2vs0mg"},{"bike_id":"2ae83899-90fd-4b59-b691-4169c75aef1a","system_id":"levelo_inurba_marseille","lat":43.337676,"lon":5.37438,"is_reserved":false,"is_disabled":false,"rental_uris":{"android":"levelo://app?vid=2ae83899-90fd-4b59-b691-4169c75aef1a","ios":"levelo://app?vid=2ae83899-90fd-4b59-b691-4169c75aef1a"},"vehicle_type_id":"4","last_reported":1753431342,"current_range_meters":10000,"station_id":"","pricing_plan_id":"cebpf4jnsgd1na2vs0mg"},{"bike_id":"1862163b-0d46-4eaa-b7c8-38162033383a","system_id":"levelo_inurba_marseille","lat":43.29274,"lon":5.36838,"is_reserved":false,"is_disabled":false,"rental_uris":{"android":"levelo://app?vid=1862163b-0d46-4eaa-b7c8-38162033383a","ios":"levelo://app?vid=1862163b-0d46-4eaa-b7c8-38162033383a"},"vehicle_type_id":"4","last_reported":1753431342,"current_range_meters":10800,"station_id":"ce4bhbp2rcd13ifvqesg","pricing_plan_id":"cebpf4jnsgd1na2vs0mg"},{"bike_id":"71b3be78-a065-4a7d-a660-cdc4f905766e","system_id":"levelo_inurba_marseille","lat":43.29114,"lon":5.40005,"is_reserved":false,"is_disabled":false,"rental_uris":{"android":"levelo://app?vid=71b3be78-a065-4a7d-a660-cdc4f905766e","ios":"levelo://app?vid=71b3be78-a065-4a7d-a660-cdc4f905766e"},"vehicle_type_id":"4","last_reported":1753431342,"current_range_meters":10800,"station_id":"","pricing_plan_id":"cebpf4jnsgd1na2vs0mg"},{"bike_id":"8302fa84-6340-445b-8240-fabab0108612","system_id":"levelo_inurba_marseille","lat":43.292853,"lon":5.379912,"is_reserved":false,"is_disabled":false,"rental_uris":{"android":"levelo://app?vid=8302fa84-6340-445b-8240-fabab0108612","ios":"levelo://app?vid=8302fa84-6340-445b-8240-fabab0108612"},"vehicle_type_id":"4","last_reported":1753431342,"current_range_meters":10800,"station_id":"ce4bgkp2rcd13ifvqbmg","pricing_plan_id":"cebpf4jnsgd1na2vs0mg"},{"bike_id":"48fc2d17-ae72-4342-aac4-006010e85e2c","system_id":"levelo_inurba_marseille","lat":43.24177,"lon":5.39728,"is_reserved":false,"is_disabled":false,"rental_uris":{"android":"levelo://app?vid=48fc2d17-ae72-4342-aac4-006010e85e2c","ios":"levelo://app?vid=48fc2d17-ae72-4342-aac4-006010e85e2c"},"vehicle_type_id":"4","last_reported":1753431342,"current_range_meters":10800,"station_id":"ce4bhn12rcd13ifvqgpg","pricing_plan_id":"cebpf4jnsgd1na2vs0mg"},{"bike_id":"cf776233-7766-4109-aadc-a0d3c334d400","system_id":"levelo_inurba_marseille","lat":43.24079,"lon":5.37763,"is_reserved":false,"is_disabled":false,"rental_uris":{"android":"levelo://app?vid=cf776233-7766-4109-aadc-a0d3c334d400","ios":"levelo://app?vid=cf776233-7766-4109-aadc-a0d3c334d400"},"vehicle_type_id":"4","last_reported":1753431342,"current_range_meters":11200,"station_id":"ce4bhnp2rcd13ifvqgvg","pricing_plan_id":"cebpf4jnsgd1na2vs0mg"},{"bike_id":"3fad80c5-2996-44a2-9e03-72685e1b9e4b","system_id":"levelo_inurba_marseille","lat":43.24156,"lon":5.39696,"is_reserved":false,"is_disabled":false,"rental_uris":{"android":"levelo://app?vid=3fad80c5-2996-44a2-9e03-72685e1b9e4b","ios":"levelo://app?vid=3fad80c5-2996-44a2-9e03-72685e1b9e4b"},"vehicle_type_id":"4","last_reported":1753431342,"current_range_meters":11200,"station_id":"ce4bhn12rcd13ifvqgpg","pricing_plan_id":"cebpf4jnsgd1na2vs0mg"},{"bike_id":"0a50257d-5867-47c7-9edd-850501e8e7cd","system_id":"levelo_inurba_marseille","lat":43.27579,"lon":5.38414,"is_reserved":false,"is_disabled":false,"rental_uris":{"android":"levelo://app?vid=0a50257d-5867-47c7-9edd-850501e8e7cd","ios":"levelo://app?vid=0a50257d-5867-47c7-9edd-850501e8e7cd"},"vehicle_type_id":"4","last_reported":1753431342,"current_range_meters":11200,"station_id":"ce4bhh92rcd13ifvqfi0","pricing_plan_id":"cebpf4jnsgd1na2vs0mg"},{"bike_id":"fbda76a5-068e-4d90-b9ba-25721acd9298","system_id":"levelo_inurba_marseille","lat":43.29039,"lon":5.43921,"is_reserved":false,"is_disabled":false,"rental_uris":{"android":"levelo://app?vid=fbda76a5-068e-4d90-b9ba-25721acd9298","ios":"levelo://app?vid=fbda76a5-068e-4d90-b9ba-25721acd9298"},"vehicle_type_id":"4","last_reported":1753431342,"current_range_meters":11600,"station_id":"","pricing_plan_id":"cebpf4jnsgd1na2vs0mg"},{"bike_id":"e6b11065-1c1d-42d5-bbb8-b4fbf986f3a8","system_id":"levelo_inurba_marseille","lat":43.30271,"lon":5.37706,"is_reserved":false,"is_disabled":false,"rental_uris":{"android":"levelo://app?vid=e6b11065-1c1d-42d5-bbb8-b4fbf986f3a8","ios":"levelo://app?vid=e6b11065-1c1d-42d5-bbb8-b4fbf986f3a8"},"vehicle_type_id":"4","last_reported":1753431342,"current_range_meters":11600,"station_id":"ce4bguh2rcd13ifvqcj0","pricing_plan_id":"cebpf4jnsgd1na2vs0mg"},{"bike_id":"10d532a4-2b7f-4b7d-9690-9273088cfbc7","system_id":"levelo_inurba_marseille","lat":43.29261,"lon":5.36848,"is_reserved":false,"is_disabled":false,"rental_uris":{"android":"levelo://app?vid=10d532a4-2b7f-4b7d-9690-9273088cfbc7","ios":"levelo://app?vid=10d532a4-2b7f-4b7d-9690-9273088cfbc7"},"vehicle_type_id":"4","last_reported":1753431342,"current_range_meters":11600,"station_id":"ce4bhbp2rcd13ifvqesg","pricing_plan_id":"cebpf4jnsgd1na2vs0mg"},{"bike_id":"70fb6bc6-362c-41d3-8249-00055e613ab8","system_id":"levelo_inurba_marseille","lat":43.31375,"lon":5.36745,"is_reserved":false,"is_disabled":false,"rental_uris":{"android":"levelo://app?vid=70fb6bc6-362c-41d3-8249-00055e613ab8","ios":"levelo://app?vid=70fb6bc6-362c-41d3-8249-00055e613ab8"},"vehicle_type_id":"4","last_reported":1753431342,"current_range_meters":11600,"station_id":"ce4bgr92rcd13ifvqc6g","pricing_plan_id":"cebpf4jnsgd1na2vs0mg"},{"bike_id":"f348c574-7bf0-4e5e-8b9e-9c79223aceb9","system_id":"levelo_inurba_marseille","lat":43.33723,"lon":5.39197,"is_reserved":false,"is_disabled":false,"rental_uris":{"android":"levelo://app?vid=f348c574-7bf0-4e5e-8b9e-9c79223aceb9","ios":"levelo://app?vid=f348c574-7bf0-4e5e-8b9e-9c79223aceb9"},"vehicle_type_id":"4","last_reported":1753431342,"current_range_meters":11600,"station_id":"ce4bhr92rcd13ifvqhsg","pricing_plan_id":"cebpf4jnsgd1na2vs0mg"},{"bike_id":"27b5acbc-b1fd-4385-9be5-bae49e9e4f6a","system_id":"levelo_inurba_marseille","lat":43.248059,"lon":5.374544,"is_reserved":false,"is_disabled":false,"rental_uris":{"android":"levelo://app?vid=27b5acbc-b1fd-4385-9be5-bae49e9e4f6a","ios":"levelo://app?vid=27b5acbc-b1fd-4385-9be5-bae49e9e4f6a"},"vehicle_type_id":"4","last_reported":1753431342,"current_range_meters":11600,"station_id":"ce4bhgh2rcd13ifvqfb0","pricing_plan_id":"cebpf4jnsgd1na2vs0mg"},{"bike_id":"9353d228-8680-4d7c-b6dd-c80a6ca3c031","system_id":"levelo_inurba_marseille","lat":43.30383,"lon":5.42489,"is_reserved":false,"is_disabled":false,"rental_uris":{"android":"levelo://app?vid=9353d228-8680-4d7c-b6dd-c80a6ca3c031","ios":"levelo://app?vid=9353d228-8680-4d7c-b6dd-c80a6ca3c031"},"vehicle_type_id":"4","last_reported":1753431342,"current_range_meters":12000,"station_id":"ce4bhoh2rcd13ifvqh6g","pricing_plan_id":"cebpf4jnsgd1na2vs0mg"},{"bike_id":"eaea15aa-98ae-4f78-b37a-80e2e4524837","system_id":"levelo_inurba_marseille","lat":43.297916,"lon":5.381026,"is_reserved":false,"is_disabled":false,"rental_uris":{"android":"levelo://app?vid=eaea15aa-98ae-4f78-b37a-80e2e4524837","ios":"levelo://app?vid=eaea15aa-98ae-4f78-b37a-80e2e4524837"},"vehicle_type_id":"4","last_reported":1753431342,"current_range_meters":12000,"station_id":"","pricing_plan_id":"cebpf4jnsgd1na2vs0mg"},{"bike_id":"493a12d0-4ff4-4fbe-9060-7fc8f489a9bf","system_id":"levelo_inurba_marseille","lat":43.294317,"lon":5.397444,"is_reserved":false,"is_disabled":false,"rental_uris":{"android":"levelo://app?vid=493a12d0-4ff4-4fbe-9060-7fc8f489a9bf","ios":"levelo://app?vid=493a12d0-4ff4-4fbe-9060-7fc8f489a9bf"},"vehicle_type_id":"4","last_reported":1753431342,"current_range_meters":12000,"station_id":"ce4bh3h2rcd13ifvqdo0","pricing_plan_id":"cebpf4jnsgd1na2vs0mg"},{"bike_id":"e1bc300b-324d-4861-932c-1dcfecdcd0e9","system_id":"levelo_inurba_marseille","lat":43.30543,"lon":5.36693,"is_reserved":false,"is_disabled":false,"rental_uris":{"android":"levelo://app?vid=e1bc300b-324d-4861-932c-1dcfecdcd0e9","ios":"levelo://app?vid=e1bc300b-324d-4861-932c-1dcfecdcd0e9"},"vehicle_type_id":"4","last_reported":1753431342,"current_range_meters":12000,"station_id":"ce4bgrp2rcd13ifvqc9g","pricing_plan_id":"cebpf4jnsgd1na2vs0mg"},{"bike_id":"0aa2d153-96d1-4d69-83b8-d39119aa9dd5","system_id":"levelo_inurba_marseille","lat":43.335348,"lon":5.362098,"is_reserved":false,"is_disabled":false,"rental_uris":{"android":"levelo://app?vid=0aa2d153-96d1-4d69-83b8-d39119aa9dd5","ios":"levelo://app?vid=0aa2d153-96d1-4d69-83b8-d39119aa9dd5"},"vehicle_type_id":"4","last_reported":1753431342,"current_range_meters":12000,"station_id":"","pricing_plan_id":"cebpf4jnsgd1na2vs0mg"},{"bike_id":"032f66d0-c387-41c5-9af4-1ad9711f505c","system_id":"levelo_inurba_marseille","lat":43.31701,"lon":5.40473,"is_reserved":false,"is_disabled":false,"rental_uris":{"android":"levelo://app?vid=032f66d0-c387-41c5-9af4-1ad9711f505c","ios":"levelo://app?vid=032f66d0-c387-41c5-9af4-1ad9711f505c"},"vehicle_type_id":"4","last_reported":1753431342,"current_range_meters":12000,"station_id":"ce4bh012rcd13ifvqd00","pricing_plan_id":"cebpf4jnsgd1na2vs0mg"},{"bike_id":"f7f07796-c7c9-4a74-80e9-fb85744448b8","system_id":"levelo_inurba_marseille","lat":43.2293,"lon":5.35368,"is_reserved":false,"is_disabled":false,"rental_uris":{"android":"levelo://app?vid=f7f07796-c7c9-4a74-80e9-fb85744448b8","ios":"levelo://app?vid=f7f07796-c7c9-4a74-80e9-fb85744448b8"},"vehicle_type_id":"4","last_reported":1753431342,"current_range_meters":12000,"station_id":"cpo3532slgdg3j2ikp40","pricing_plan_id":"cebpf4jnsgd1na2vs0mg"},{"bike_id":"9bb7bf6e-d696-4836-a041-06a2876b08f1","system_id":"levelo_inurba_marseille","lat":43.30624,"lon":5.38533,"is_reserved":false,"is_disabled":false,"rental_uris":{"android":"levelo://app?vid=9bb7bf6e-d696-4836-a041-06a2876b08f1","ios":"levelo://app?vid=9bb7bf6e-d696-4836-a041-06a2876b08f1"},"vehicle_type_id":"4","last_reported":1753431342,"current_range_meters":12400,"station_id":"","pricing_plan_id":"cebpf4jnsgd1na2vs0mg"},{"bike_id":"aab1587c-e889-4aae-838e-bed08db6cc4a","system_id":"levelo_inurba_marseille","lat":43.23156,"lon":5.43705,"is_reserved":false,"is_disabled":false,"rental_uris":{"android":"levelo://app?vid=aab1587c-e889-4aae-838e-bed08db6cc4a","ios":"levelo://app?vid=aab1587c-e889-4aae-838e-bed08db6cc4a"},"vehicle_type_id":"4","last_reported":1753431342,"current_range_meters":12000,"station_id":"ce4bhmp2rcd13ifvqgog","pricing_plan_id":"cebpf4jnsgd1na2vs0mg"},{"bike_id":"b3ad9f6c-08ab-44d4-9bfa-d81253f0d1a4","system_id":"levelo_inurba_marseille","lat":43.29449,"lon":5.3975,"is_reserved":false,"is_disabled":false,"rental_uris":{"android":"levelo://app?vid=b3ad9f6c-08ab-44d4-9bfa-d81253f0d1a4","ios":"levelo://app?vid=b3ad9f6c-08ab-44d4-9bfa-d81253f0d1a4"},"vehicle_type_id":"4","last_reported":1753431342,"current_range_meters":12400,"station_id":"ce4bh3h2rcd13ifvqdo0","pricing_plan_id":"cebpf4jnsgd1na2vs0mg"},{"bike_id":"77fa6c16-08a5-45b0-a3fd-cb21dcce5464","system_id":"levelo_inurba_marseille","lat":43.29026,"lon":5.3813,"is_reserved":false,"is_disabled":false,"rental_uris":{"android":"levelo://app?vid=77fa6c16-08a5-45b0-a3fd-cb21dcce5464","ios":"levelo://app?vid=77fa6c16-08a5-45b0-a3fd-cb21dcce5464"},"vehicle_type_id":"4","last_reported":1753431342,"current_range_meters":12400,"station_id":"ce4bh4p2rcd13ifvqe1g","pricing_plan_id":"cebpf4jnsgd1na2vs0mg"},{"bike_id":"1bad41f4-2220-48a2-9d56-f732121985af","system_id":"levelo_inurba_marseille","lat":43.31302,"lon":5.43098,"is_reserved":false,"is_disabled":false,"rental_uris":{"android":"levelo://app?vid=1bad41f4-2220-48a2-9d56-f732121985af","ios":"levelo://app?vid=1bad41f4-2220-48a2-9d56-f732121985af"},"vehicle_type_id":"4","last_reported":1753431342,"current_range_meters":12400,"station_id":"","pricing_plan_id":"cebpf4jnsgd1na2vs0mg"},{"bike_id":"1f39eb17-34c7-4235-9069-0f68f613789c","system_id":"levelo_inurba_marseille","lat":43.26886,"lon":5.36871,"is_reserved":false,"is_disabled":false,"rental_uris":{"android":"levelo://app?vid=1f39eb17-34c7-4235-9069-0f68f613789c","ios":"levelo://app?vid=1f39eb17-34c7-4235-9069-0f68f613789c"},"vehicle_type_id":"4","last_reported":1753431342,"current_range_meters":12800,"station_id":"","pricing_plan_id":"cebpf4jnsgd1na2vs0mg"},{"bike_id":"1e9cf983-3afc-4620-a4d4-2dd094704fd1","system_id":"levelo_inurba_marseille","lat":43.225025,"lon":5.347803,"is_reserved":false,"is_disabled":false,"rental_uris":{"android":"levelo://app?vid=1e9cf983-3afc-4620-a4d4-2dd094704fd1","ios":"levelo://app?vid=1e9cf983-3afc-4620-a4d4-2dd094704fd1"},"vehicle_type_id":"4","last_reported":1753431342,"current_range_meters":12800,"station_id":"","pricing_plan_id":"cebpf4jnsgd1na2vs0mg"},{"bike_id":"914a1b36-444e-4de0-8b51-a79f4e6d4600","system_id":"levelo_inurba_marseille","lat":43.30952,"lon":5.39041,"is_reserved":false,"is_disabled":false,"rental_uris":{"android":"levelo://app?vid=914a1b36-444e-4de0-8b51-a79f4e6d4600","ios":"levelo://app?vid=914a1b36-444e-4de0-8b51-a79f4e6d4600"},"vehicle_type_id":"4","last_reported":1753431342,"current_range_meters":12800,"station_id":"ce4bgup2rcd13ifvqco0","pricing_plan_id":"cebpf4jnsgd1na2vs0mg"},{"bike_id":"a7fb77ed-6a7c-4720-9562-87380eb23df6","system_id":"levelo_inurba_marseille","lat":43.33534,"lon":5.40843,"is_reserved":false,"is_disabled":false,"rental_uris":{"android":"levelo://app?vid=a7fb77ed-6a7c-4720-9562-87380eb23df6","ios":"levelo://app?vid=a7fb77ed-6a7c-4720-9562-87380eb23df6"},"vehicle_type_id":"4","last_reported":1753431342,"current_range_meters":13600,"station_id":"","pricing_plan_id":"cebpf4jnsgd1na2vs0mg"},{"bike_id":"bf4c6dc9-697a-45fa-9f70-43b71a8ccd27","system_id":"levelo_inurba_marseille","lat":43.3172,"lon":5.43696,"is_reserved":false,"is_disabled":false,"rental_uris":{"android":"levelo://app?vid=bf4c6dc9-697a-45fa-9f70-43b71a8ccd27","ios":"levelo://app?vid=bf4c6dc9-697a-45fa-9f70-43b71a8ccd27"},"vehicle_type_id":"4","last_reported":1753431342,"current_range_meters":13600,"station_id":"ce4bhp92rcd13ifvqhcg","pricing_plan_id":"cebpf4jnsgd1na2vs0mg"},{"bike_id":"d8ab8225-ebfc-48f1-9981-f15e3b9960ea","system_id":"levelo_inurba_marseille","lat":43.22924,"lon":5.35372,"is_reserved":false,"is_disabled":false,"rental_uris":{"android":"levelo://app?vid=d8ab8225-ebfc-48f1-9981-f15e3b9960ea","ios":"levelo://app?vid=d8ab8225-ebfc-48f1-9981-f15e3b9960ea"},"vehicle_type_id":"4","last_reported":1753431342,"current_range_meters":13600,"station_id":"cpo3532slgdg3j2ikp40","pricing_plan_id":"cebpf4jnsgd1na2vs0mg"},{"bike_id":"9413b467-0dd7-4fc4-bb3f-70447b57d2f8","system_id":"levelo_inurba_marseille","lat":43.25001,"lon":5.38931,"is_reserved":false,"is_disabled":false,"rental_uris":{"android":"levelo://app?vid=9413b467-0dd7-4fc4-bb3f-70447b57d2f8","ios":"levelo://app?vid=9413b467-0dd7-4fc4-bb3f-70447b57d2f8"},"vehicle_type_id":"4","last_reported":1753431342,"current_range_meters":13600,"station_id":"ce4bhgp2rcd13ifvqfd0","pricing_plan_id":"cebpf4jnsgd1na2vs0mg"},{"bike_id":"481351de-e3d5-4a6f-aa67-c1762e7ed223","system_id":"levelo_inurba_marseille","lat":43.27078,"lon":5.42281,"is_reserved":false,"is_disabled":false,"rental_uris":{"android":"levelo://app?vid=481351de-e3d5-4a6f-aa67-c1762e7ed223","ios":"levelo://app?vid=481351de-e3d5-4a6f-aa67-c1762e7ed223"},"vehicle_type_id":"4","last_reported":1753431342,"current_range_meters":13600,"station_id":"ce4bhk92rcd13ifvqgb0","pricing_plan_id":"cebpf4jnsgd1na2vs0mg"},{"bike_id":"9c9b3eff-9ed7-4f7c-b473-392389b0634c","system_id":"levelo_inurba_marseille","lat":43.31377,"lon":5.36702,"is_reserved":false,"is_disabled":false,"rental_uris":{"android":"levelo://app?vid=9c9b3eff-9ed7-4f7c-b473-392389b0634c","ios":"levelo://app?vid=9c9b3eff-9ed7-4f7c-b473-392389b0634c"},"vehicle_type_id":"4","last_reported":1753431342,"current_range_meters":14000,"station_id":"ce4bgr92rcd13ifvqc6g","pricing_plan_id":"cebpf4jnsgd1na2vs0mg"},{"bike_id":"0bf4459f-b7cf-4a84-ac09-4b66b4222c96","system_id":"levelo_inurba_marseille","lat":43.24995,"lon":5.38936,"is_reserved":false,"is_disabled":false,"rental_uris":{"android":"levelo://app?vid=0bf4459f-b7cf-4a84-ac09-4b66b4222c96","ios":"levelo://app?vid=0bf4459f-b7cf-4a84-ac09-4b66b4222c96"},"vehicle_type_id":"4","last_reported":1753431342,"current_range_meters":14000,"station_id":"ce4bhgp2rcd13ifvqfd0","pricing_plan_id":"cebpf4jnsgd1na2vs0mg"},{"bike_id":"6838cc48-9449-489c-89c3-53be02f6551c","system_id":"levelo_inurba_marseille","lat":43.29233,"lon":5.36069,"is_reserved":false,"is_disabled":false,"rental_uris":{"android":"levelo://app?vid=6838cc48-9449-489c-89c3-53be02f6551c","ios":"levelo://app?vid=6838cc48-9449-489c-89c3-53be02f6551c"},"vehicle_type_id":"4","last_reported":1753431342,"current_range_meters":14000,"station_id":"ce4bhbh2rcd13ifvqeqg","pricing_plan_id":"cebpf4jnsgd1na2vs0mg"},{"bike_id":"ca94119b-493d-4ee5-a707-69bce19ddb50","system_id":"levelo_inurba_marseille","lat":43.305501,"lon":5.367404,"is_reserved":false,"is_disabled":false,"rental_uris":{"android":"levelo://app?vid=ca94119b-493d-4ee5-a707-69bce19ddb50","ios":"levelo://app?vid=ca94119b-493d-4ee5-a707-69bce19ddb50"},"vehicle_type_id":"4","last_reported":1753431342,"current_range_meters":14400,"station_id":"ce4bgrp2rcd13ifvqc9g","pricing_plan_id":"cebpf4jnsgd1na2vs0mg"},{"bike_id":"261d4bb0-7bb9-4c80-93f3-cd6f68b7285e","system_id":"levelo_inurba_marseille","lat":43.31507,"lon":5.36923,"is_reserved":false,"is_disabled":false,"rental_uris":{"android":"levelo://app?vid=261d4bb0-7bb9-4c80-93f3-cd6f68b7285e","ios":"levelo://app?vid=261d4bb0-7bb9-4c80-93f3-cd6f68b7285e"},"vehicle_type_id":"4","last_reported":1753431342,"current_range_meters":14400,"station_id":"","pricing_plan_id":"cebpf4jnsgd1na2vs0mg"},{"bike_id":"3f947606-5aaa-4500-8084-bd1f98e6a611","system_id":"levelo_inurba_marseille","lat":43.316889,"lon":5.404684,"is_reserved":false,"is_disabled":false,"rental_uris":{"android":"levelo://app?vid=3f947606-5aaa-4500-8084-bd1f98e6a611","ios":"levelo://app?vid=3f947606-5aaa-4500-8084-bd1f98e6a611"},"vehicle_type_id":"4","last_reported":1753431342,"current_range_meters":14400,"station_id":"ce4bh012rcd13ifvqd00","pricing_plan_id":"cebpf4jnsgd1na2vs0mg"},{"bike_id":"ad7f924d-5443-4b14-80c3-fdbe71f8752e","system_id":"levelo_inurba_marseille","lat":43.260808,"lon":5.372991,"is_reserved":false,"is_disabled":false,"rental_uris":{"android":"levelo://app?vid=ad7f924d-5443-4b14-80c3-fdbe71f8752e","ios":"levelo://app?vid=ad7f924d-5443-4b14-80c3-fdbe71f8752e"},"vehicle_type_id":"4","last_reported":1753431342,"current_range_meters":14400,"station_id":"","pricing_plan_id":"cebpf4jnsgd1na2vs0mg"},{"bike_id":"66a14cfa-00f1-4d59-a515-e746407d6f2e","system_id":"levelo_inurba_marseille","lat":43.29517,"lon":5.39035,"is_reserved":false,"is_disabled":false,"rental_uris":{"android":"levelo://app?vid=66a14cfa-00f1-4d59-a515-e746407d6f2e","ios":"levelo://app?vid=66a14cfa-00f1-4d59-a515-e746407d6f2e"},"vehicle_type_id":"4","last_reported":1753431342,"current_range_meters":14400,"station_id":"ce4bh3p2rcd13ifvqdp0","pricing_plan_id":"cebpf4jnsgd1na2vs0mg"},{"bike_id":"09ba2926-92d2-4c4d-a6be-e908866b9b1c","system_id":"levelo_inurba_marseille","lat":43.27615,"lon":5.36108,"is_reserved":false,"is_disabled":false,"rental_uris":{"android":"levelo://app?vid=09ba2926-92d2-4c4d-a6be-e908866b9b1c","ios":"levelo://app?vid=09ba2926-92d2-4c4d-a6be-e908866b9b1c"},"vehicle_type_id":"4","last_reported":1753431342,"current_range_meters":14800,"station_id":"ce4bgj92rcd13ifvqbe0","pricing_plan_id":"cebpf4jnsgd1na2vs0mg"},{"bike_id":"e4e0417d-598e-4535-abc3-5fed058bf075","system_id":"levelo_inurba_marseille","lat":43.29062,"lon":5.35903,"is_reserved":false,"is_disabled":false,"rental_uris":{"android":"levelo://app?vid=e4e0417d-598e-4535-abc3-5fed058bf075","ios":"levelo://app?vid=e4e0417d-598e-4535-abc3-5fed058bf075"},"vehicle_type_id":"4","last_reported":1753431342,"current_range_meters":14800,"station_id":"ce4bha92rcd13ifvqeg0","pricing_plan_id":"cebpf4jnsgd1na2vs0mg"},{"bike_id":"b0b3ba77-7ce6-4dca-86c4-ec849fb94028","system_id":"levelo_inurba_marseille","lat":43.30911,"lon":5.36832,"is_reserved":false,"is_disabled":false,"rental_uris":{"android":"levelo://app?vid=b0b3ba77-7ce6-4dca-86c4-ec849fb94028","ios":"levelo://app?vid=b0b3ba77-7ce6-4dca-86c4-ec849fb94028"},"vehicle_type_id":"4","last_reported":1753431342,"current_range_meters":14800,"station_id":"ce4bgn92rcd13ifvqbvg","pricing_plan_id":"cebpf4jnsgd1na2vs0mg"},{"bike_id":"764975b0-03a2-4053-92d5-6f31f04e03c0","system_id":"levelo_inurba_marseille","lat":43.31237,"lon":5.36853,"is_reserved":false,"is_disabled":false,"rental_uris":{"android":"levelo://app?vid=764975b0-03a2-4053-92d5-6f31f04e03c0","ios":"levelo://app?vid=764975b0-03a2-4053-92d5-6f31f04e03c0"},"vehicle_type_id":"4","last_reported":1753431342,"current_range_meters":14800,"station_id":"ce4bgl92rcd13ifvqbq0","pricing_plan_id":"cebpf4jnsgd1na2vs0mg"},{"bike_id":"21bb3fef-81ef-46bb-a48d-d85402757c94","system_id":"levelo_inurba_marseille","lat":43.25438,"lon":5.37979,"is_reserved":false,"is_disabled":false,"rental_uris":{"android":"levelo://app?vid=21bb3fef-81ef-46bb-a48d-d85402757c94","ios":"levelo://app?vid=21bb3fef-81ef-46bb-a48d-d85402757c94"},"vehicle_type_id":"4","last_reported":1753431342,"current_range_meters":15200,"station_id":"","pricing_plan_id":"cebpf4jnsgd1na2vs0mg"},{"bike_id":"dddbef83-b47e-460f-a4ac-beade05833f1","system_id":"levelo_inurba_marseille","lat":43.22927,"lon":5.35368,"is_reserved":false,"is_disabled":false,"rental_uris":{"android":"levelo://app?vid=dddbef83-b47e-460f-a4ac-beade05833f1","ios":"levelo://app?vid=dddbef83-b47e-460f-a4ac-beade05833f1"},"vehicle_type_id":"4","last_reported":1753431342,"current_range_meters":15200,"station_id":"cpo3532slgdg3j2ikp40","pricing_plan_id":"cebpf4jnsgd1na2vs0mg"},{"bike_id":"4f66dda3-42a0-4388-b354-31f2ed43a0e8","system_id":"levelo_inurba_marseille","lat":43.24398,"lon":5.37058,"is_reserved":false,"is_disabled":false,"rental_uris":{"android":"levelo://app?vid=4f66dda3-42a0-4388-b354-31f2ed43a0e8","ios":"levelo://app?vid=4f66dda3-42a0-4388-b354-31f2ed43a0e8"},"vehicle_type_id":"4","last_reported":1753431342,"current_range_meters":15200,"station_id":"ce4bhhh2rcd13ifvqfk0","pricing_plan_id":"cebpf4jnsgd1na2vs0mg"},{"bike_id":"d42d36f5-3d59-488d-90c2-d5361f100113","system_id":"levelo_inurba_marseille","lat":43.29851,"lon":5.36287,"is_reserved":false,"is_disabled":false,"rental_uris":{"android":"levelo://app?vid=d42d36f5-3d59-488d-90c2-d5361f100113","ios":"levelo://app?vid=d42d36f5-3d59-488d-90c2-d5361f100113"},"vehicle_type_id":"4","last_reported":1753431342,"current_range_meters":16000,"station_id":"ce4bgpp2rcd13ifvqc3g","pricing_plan_id":"cebpf4jnsgd1na2vs0mg"},{"bike_id":"5de7867a-387c-407e-a78f-8d9a8ba15ef9","system_id":"levelo_inurba_marseille","lat":43.28611,"lon":5.35097,"is_reserved":false,"is_disabled":false,"rental_uris":{"android":"levelo://app?vid=5de7867a-387c-407e-a78f-8d9a8ba15ef9","ios":"levelo://app?vid=5de7867a-387c-407e-a78f-8d9a8ba15ef9"},"vehicle_type_id":"4","last_reported":1753431342,"current_range_meters":16000,"station_id":"ce4bhch2rcd13ifvqeug","pricing_plan_id":"cebpf4jnsgd1na2vs0mg"},{"bike_id":"f90f1036-4c33-467a-85cc-8ed460d66660","system_id":"levelo_inurba_marseille","lat":43.29005,"lon":5.35616,"is_reserved":false,"is_disabled":false,"rental_uris":{"android":"levelo://app?vid=f90f1036-4c33-467a-85cc-8ed460d66660","ios":"levelo://app?vid=f90f1036-4c33-467a-85cc-8ed460d66660"},"vehicle_type_id":"4","last_reported":1753431342,"current_range_meters":16000,"station_id":"ce4bhb92rcd13ifvqen0","pricing_plan_id":"cebpf4jnsgd1na2vs0mg"},{"bike_id":"d12fb459-f3fc-4cfe-9619-fc172fb752e5","system_id":"levelo_inurba_marseille","lat":43.3112,"lon":5.3776,"is_reserved":false,"is_disabled":false,"rental_uris":{"android":"levelo://app?vid=d12fb459-f3fc-4cfe-9619-fc172fb752e5","ios":"levelo://app?vid=d12fb459-f3fc-4cfe-9619-fc172fb752e5"},"vehicle_type_id":"4","last_reported":1753431342,"current_range_meters":16000,"station_id":"ce4bgt92rcd13ifvqcg0","pricing_plan_id":"cebpf4jnsgd1na2vs0mg"},{"bike_id":"71b44c32-1ec1-479f-8f9e-a464e1647579","system_id":"levelo_inurba_marseille","lat":43.23296,"lon":5.36123,"is_reserved":false,"is_disabled":false,"rental_uris":{"android":"levelo://app?vid=71b44c32-1ec1-479f-8f9e-a464e1647579","ios":"levelo://app?vid=71b44c32-1ec1-479f-8f9e-a464e1647579"},"vehicle_type_id":"4","last_reported":1753431342,"current_range_meters":16000,"station_id":"","pricing_plan_id":"cebpf4jnsgd1na2vs0mg"},{"bike_id":"37da4f63-6c7a-4833-8e3f-7e98e27bc735","system_id":"levelo_inurba_marseille","lat":43.29302,"lon":5.37171,"is_reserved":false,"is_disabled":false,"rental_uris":{"android":"levelo://app?vid=37da4f63-6c7a-4833-8e3f-7e98e27bc735","ios":"levelo://app?vid=37da4f63-6c7a-4833-8e3f-7e98e27bc735"},"vehicle_type_id":"4","last_reported":1753431342,"current_range_meters":16000,"station_id":"ce4bgh92rcd13ifvqb40","pricing_plan_id":"cebpf4jnsgd1na2vs0mg"},{"bike_id":"6ffe1fc6-b2db-4c82-b6cf-729570bd0fe8","system_id":"levelo_inurba_marseille","lat":43.33599,"lon":5.41025,"is_reserved":false,"is_disabled":false,"rental_uris":{"android":"levelo://app?vid=6ffe1fc6-b2db-4c82-b6cf-729570bd0fe8","ios":"levelo://app?vid=6ffe1fc6-b2db-4c82-b6cf-729570bd0fe8"},"vehicle_type_id":"4","last_reported":1753431342,"current_range_meters":16000,"station_id":"ce4bhqh2rcd13ifvqhmg","pricing_plan_id":"cebpf4jnsgd1na2vs0mg"},{"bike_id":"d2c1d56d-6a3a-4ae3-b7ab-84022ad7ad84","system_id":"levelo_inurba_marseille","lat":43.29741,"lon":5.37632,"is_reserved":false,"is_disabled":false,"rental_uris":{"android":"levelo://app?vid=d2c1d56d-6a3a-4ae3-b7ab-84022ad7ad84","ios":"levelo://app?vid=d2c1d56d-6a3a-4ae3-b7ab-84022ad7ad84"},"vehicle_type_id":"4","last_reported":1753431342,"current_range_meters":16000,"station_id":"","pricing_plan_id":"cebpf4jnsgd1na2vs0mg"},{"bike_id":"04d322d2-b35b-459c-ae17-365bba55272c","system_id":"levelo_inurba_marseille","lat":43.30299,"lon":5.36876,"is_reserved":false,"is_disabled":false,"rental_uris":{"android":"levelo://app?vid=04d322d2-b35b-459c-ae17-365bba55272c","ios":"levelo://app?vid=04d322d2-b35b-459c-ae17-365bba55272c"},"vehicle_type_id":"4","last_reported":1753431342,"current_range_meters":16000,"station_id":"ce4bgqh2rcd13ifvqc5g","pricing_plan_id":"cebpf4jnsgd1na2vs0mg"},{"bike_id":"adf82f09-c83c-409c-96aa-ad3312b7832f","system_id":"levelo_inurba_marseille","lat":43.284465,"lon":5.384318,"is_reserved":false,"is_disabled":false,"rental_uris":{"android":"levelo://app?vid=adf82f09-c83c-409c-96aa-ad3312b7832f","ios":"levelo://app?vid=adf82f09-c83c-409c-96aa-ad3312b7832f"},"vehicle_type_id":"4","last_reported":1753431342,"current_range_meters":16000,"station_id":"ce4bh512rcd13ifvqe3g","pricing_plan_id":"cebpf4jnsgd1na2vs0mg"},{"bike_id":"f40436ff-581d-45b0-9a34-6230bbde6d66","system_id":"levelo_inurba_marseille","lat":43.2621,"lon":5.37443,"is_reserved":false,"is_disabled":false,"rental_uris":{"android":"levelo://app?vid=f40436ff-581d-45b0-9a34-6230bbde6d66","ios":"levelo://app?vid=f40436ff-581d-45b0-9a34-6230bbde6d66"},"vehicle_type_id":"4","last_reported":1753431342,"current_range_meters":16400,"station_id":"ce4bhgp2rcd13ifvqfc0","pricing_plan_id":"cebpf4jnsgd1na2vs0mg"},{"bike_id":"c7fac67c-c8a6-4c0b-9c41-413c0943b5b6","system_id":"levelo_inurba_marseille","lat":43.211903,"lon":5.350707,"is_reserved":false,"is_disabled":false,"rental_uris":{"android":"levelo://app?vid=c7fac67c-c8a6-4c0b-9c41-413c0943b5b6","ios":"levelo://app?vid=c7fac67c-c8a6-4c0b-9c41-413c0943b5b6"},"vehicle_type_id":"4","last_reported":1753431342,"current_range_meters":16400,"station_id":"st_cvj6sg6p6f1abm77japg","pricing_plan_id":"cebpf4jnsgd1na2vs0mg"},{"bike_id":"45683f61-2d2a-4c04-bf67-2ed4836c45e9","system_id":"levelo_inurba_marseille","lat":43.27838,"lon":5.39206,"is_reserved":false,"is_disabled":false,"rental_uris":{"android":"levelo://app?vid=45683f61-2d2a-4c04-bf67-2ed4836c45e9","ios":"levelo://app?vid=45683f61-2d2a-4c04-bf67-2ed4836c45e9"},"vehicle_type_id":"4","last_reported":1753431342,"current_range_meters":16400,"station_id":"ce4bhjp2rcd13ifvqga0","pricing_plan_id":"cebpf4jnsgd1na2vs0mg"},{"bike_id":"70963f3f-ce13-456e-956f-99c05ebe5ac2","system_id":"levelo_inurba_marseille","lat":43.25936,"lon":5.40895,"is_reserved":false,"is_disabled":false,"rental_uris":{"android":"levelo://app?vid=70963f3f-ce13-456e-956f-99c05ebe5ac2","ios":"levelo://app?vid=70963f3f-ce13-456e-956f-99c05ebe5ac2"},"vehicle_type_id":"4","last_reported":1753431342,"current_range_meters":16400,"station_id":"ce4bhm92rcd13ifvqglg","pricing_plan_id":"cebpf4jnsgd1na2vs0mg"},{"bike_id":"fd13a871-6a7c-45ab-8193-0aedb29a36fc","system_id":"levelo_inurba_marseille","lat":43.265518,"lon":5.37293,"is_reserved":false,"is_disabled":false,"rental_uris":{"android":"levelo://app?vid=fd13a871-6a7c-45ab-8193-0aedb29a36fc","ios":"levelo://app?vid=fd13a871-6a7c-45ab-8193-0aedb29a36fc"},"vehicle_type_id":"4","last_reported":1753431342,"current_range_meters":16800,"station_id":"ce4bhg12rcd13ifvqf70","pricing_plan_id":"cebpf4jnsgd1na2vs0mg"},{"bike_id":"a7c0e30a-3006-43ba-afe7-834203ba0328","system_id":"levelo_inurba_marseille","lat":43.24169,"lon":5.3639,"is_reserved":false,"is_disabled":false,"rental_uris":{"android":"levelo://app?vid=a7c0e30a-3006-43ba-afe7-834203ba0328","ios":"levelo://app?vid=a7c0e30a-3006-43ba-afe7-834203ba0328"},"vehicle_type_id":"4","last_reported":1753431342,"current_range_meters":16800,"station_id":"cpo36qri1sfpv3e86is0","pricing_plan_id":"cebpf4jnsgd1na2vs0mg"},{"bike_id":"a97ba4bd-05dc-46c2-9842-73c10f2d7c1b","system_id":"levelo_inurba_marseille","lat":43.29006,"lon":5.35609,"is_reserved":false,"is_disabled":false,"rental_uris":{"android":"levelo://app?vid=a97ba4bd-05dc-46c2-9842-73c10f2d7c1b","ios":"levelo://app?vid=a97ba4bd-05dc-46c2-9842-73c10f2d7c1b"},"vehicle_type_id":"4","last_reported":1753431342,"current_range_meters":16800,"station_id":"ce4bhb92rcd13ifvqen0","pricing_plan_id":"cebpf4jnsgd1na2vs0mg"},{"bike_id":"cf5577ea-8085-442d-b092-8cf7a9d9102b","system_id":"levelo_inurba_marseille","lat":43.32315,"lon":5.36726,"is_reserved":false,"is_disabled":false,"rental_uris":{"android":"levelo://app?vid=cf5577ea-8085-442d-b092-8cf7a9d9102b","ios":"levelo://app?vid=cf5577ea-8085-442d-b092-8cf7a9d9102b"},"vehicle_type_id":"4","last_reported":1753431342,"current_range_meters":16800,"station_id":"ce4bhsh2rcd13ifvqi2g","pricing_plan_id":"cebpf4jnsgd1na2vs0mg"},{"bike_id":"66b558e9-1716-468f-bd75-afba2c822ee3","system_id":"levelo_inurba_marseille","lat":43.29051,"lon":5.4,"is_reserved":false,"is_disabled":false,"rental_uris":{"android":"levelo://app?vid=66b558e9-1716-468f-bd75-afba2c822ee3","ios":"levelo://app?vid=66b558e9-1716-468f-bd75-afba2c822ee3"},"vehicle_type_id":"4","last_reported":1753431342,"current_range_meters":16800,"station_id":"ce4bh392rcd13ifvqdm0","pricing_plan_id":"cebpf4jnsgd1na2vs0mg"},{"bike_id":"64c68d0a-b9b0-424b-b207-854aebfe3561","system_id":"levelo_inurba_marseille","lat":43.32463,"lon":5.36586,"is_reserved":false,"is_disabled":false,"rental_uris":{"android":"levelo://app?vid=64c68d0a-b9b0-424b-b207-854aebfe3561","ios":"levelo://app?vid=64c68d0a-b9b0-424b-b207-854aebfe3561"},"vehicle_type_id":"4","last_reported":1753431342,"current_range_meters":16800,"station_id":"ce4bhs12rcd13ifvqhvg","pricing_plan_id":"cebpf4jnsgd1na2vs0mg"},{"bike_id":"266198a5-1fdd-4903-a22e-685ee660fe16","system_id":"levelo_inurba_marseille","lat":43.22502,"lon":5.34781,"is_reserved":false,"is_disabled":false,"rental_uris":{"android":"levelo://app?vid=266198a5-1fdd-4903-a22e-685ee660fe16","ios":"levelo://app?vid=266198a5-1fdd-4903-a22e-685ee660fe16"},"vehicle_type_id":"4","last_reported":1753431342,"current_range_meters":17200,"station_id":"st_cvj5dfep6f1abm77gieg","pricing_plan_id":"cebpf4jnsgd1na2vs0mg"},{"bike_id":"bdf8bcb9-51f6-4a65-8181-f600f5b30780","system_id":"levelo_inurba_marseille","lat":43.27467,"lon":5.39589,"is_reserved":false,"is_disabled":false,"rental_uris":{"android":"levelo://app?vid=bdf8bcb9-51f6-4a65-8181-f600f5b30780","ios":"levelo://app?vid=bdf8bcb9-51f6-4a65-8181-f600f5b30780"},"vehicle_type_id":"4","last_reported":1753431342,"current_range_meters":17200,"station_id":"","pricing_plan_id":"cebpf4jnsgd1na2vs0mg"},{"bike_id":"aa3a6420-eb4d-4632-8b68-f541c086db55","system_id":"levelo_inurba_marseille","lat":43.225023,"lon":5.347796,"is_reserved":false,"is_disabled":false,"rental_uris":{"android":"levelo://app?vid=aa3a6420-eb4d-4632-8b68-f541c086db55","ios":"levelo://app?vid=aa3a6420-eb4d-4632-8b68-f541c086db55"},"vehicle_type_id":"4","last_reported":1753431342,"current_range_meters":17200,"station_id":"","pricing_plan_id":"cebpf4jnsgd1na2vs0mg"},{"bike_id":"50b905ef-953a-4765-9f9b-7165906869d7","system_id":"levelo_inurba_marseille","lat":43.23056,"lon":5.35504,"is_reserved":false,"is_disabled":false,"rental_uris":{"android":"levelo://app?vid=50b905ef-953a-4765-9f9b-7165906869d7","ios":"levelo://app?vid=50b905ef-953a-4765-9f9b-7165906869d7"},"vehicle_type_id":"4","last_reported":1753431342,"current_range_meters":17200,"station_id":"cpo3342slgdg3j2ifvpg","pricing_plan_id":"cebpf4jnsgd1na2vs0mg"},{"bike_id":"f501e071-4716-432d-bf77-298092cf3c7e","system_id":"levelo_inurba_marseille","lat":43.300758,"lon":5.387112,"is_reserved":false,"is_disabled":false,"rental_uris":{"android":"levelo://app?vid=f501e071-4716-432d-bf77-298092cf3c7e","ios":"levelo://app?vid=f501e071-4716-432d-bf77-298092cf3c7e"},"vehicle_type_id":"4","last_reported":1753431342,"current_range_meters":17200,"station_id":"","pricing_plan_id":"cebpf4jnsgd1na2vs0mg"},{"bike_id":"61d819e1-77b0-40f4-8046-f147b50f61fb","system_id":"levelo_inurba_marseille","lat":43.30541,"lon":5.36534,"is_reserved":false,"is_disabled":false,"rental_uris":{"android":"levelo://app?vid=61d819e1-77b0-40f4-8046-f147b50f61fb","ios":"levelo://app?vid=61d819e1-77b0-40f4-8046-f147b50f61fb"},"vehicle_type_id":"4","last_reported":1753431342,"current_range_meters":17200,"station_id":"ce4bgs12rcd13ifvqcag","pricing_plan_id":"cebpf4jnsgd1na2vs0mg"},{"bike_id":"3c39485b-1acb-4b40-ad35-239b1bb6bd08","system_id":"levelo_inurba_marseille","lat":43.28428,"lon":5.39183,"is_reserved":false,"is_disabled":false,"rental_uris":{"android":"levelo://app?vid=3c39485b-1acb-4b40-ad35-239b1bb6bd08","ios":"levelo://app?vid=3c39485b-1acb-4b40-ad35-239b1bb6bd08"},"vehicle_type_id":"4","last_reported":1753431342,"current_range_meters":17200,"station_id":"ce4bhoh2rcd13ifvqh5g","pricing_plan_id":"cebpf4jnsgd1na2vs0mg"},{"bike_id":"635d529b-81db-4d95-967c-681543329cb0","system_id":"levelo_inurba_marseille","lat":43.299,"lon":5.43664,"is_reserved":false,"is_disabled":false,"rental_uris":{"android":"levelo://app?vid=635d529b-81db-4d95-967c-681543329cb0","ios":"levelo://app?vid=635d529b-81db-4d95-967c-681543329cb0"},"vehicle_type_id":"4","last_reported":1753431342,"current_range_meters":17200,"station_id":"ce4bhpp2rcd13ifvqhfg","pricing_plan_id":"cebpf4jnsgd1na2vs0mg"},{"bike_id":"86700b68-0d91-4b66-9af2-5e1e5c368584","system_id":"levelo_inurba_marseille","lat":43.30319,"lon":5.36899,"is_reserved":false,"is_disabled":false,"rental_uris":{"android":"levelo://app?vid=86700b68-0d91-4b66-9af2-5e1e5c368584","ios":"levelo://app?vid=86700b68-0d91-4b66-9af2-5e1e5c368584"},"vehicle_type_id":"4","last_reported":1753431342,"current_range_meters":17200,"station_id":"ce4bgqh2rcd13ifvqc5g","pricing_plan_id":"cebpf4jnsgd1na2vs0mg"},{"bike_id":"c6b6b291-fa58-4d60-aad4-383bcaaeec70","system_id":"levelo_inurba_marseille","lat":43.30182,"lon":5.36591,"is_reserved":false,"is_disabled":false,"rental_uris":{"android":"levelo://app?vid=c6b6b291-fa58-4d60-aad4-383bcaaeec70","ios":"levelo://app?vid=c6b6b291-fa58-4d60-aad4-383bcaaeec70"},"vehicle_type_id":"4","last_reported":1753431342,"current_range_meters":17200,"station_id":"ce4bgrh2rcd13ifvqc8g","pricing_plan_id":"cebpf4jnsgd1na2vs0mg"},{"bike_id":"5875c540-6796-4eec-a291-633fff123946","system_id":"levelo_inurba_marseille","lat":43.29275,"lon":5.36845,"is_reserved":false,"is_disabled":false,"rental_uris":{"android":"levelo://app?vid=5875c540-6796-4eec-a291-633fff123946","ios":"levelo://app?vid=5875c540-6796-4eec-a291-633fff123946"},"vehicle_type_id":"4","last_reported":1753431342,"current_range_meters":17200,"station_id":"ce4bhbp2rcd13ifvqesg","pricing_plan_id":"cebpf4jnsgd1na2vs0mg"},{"bike_id":"7a728a3e-ae5a-416b-ab98-c609bdc15d67","system_id":"levelo_inurba_marseille","lat":43.262054,"lon":5.374491,"is_reserved":false,"is_disabled":false,"rental_uris":{"android":"levelo://app?vid=7a728a3e-ae5a-416b-ab98-c609bdc15d67","ios":"levelo://app?vid=7a728a3e-ae5a-416b-ab98-c609bdc15d67"},"vehicle_type_id":"4","last_reported":1753431342,"current_range_meters":17200,"station_id":"","pricing_plan_id":"cebpf4jnsgd1na2vs0mg"},{"bike_id":"7e59e9ce-3c88-43d0-8858-555d810c6712","system_id":"levelo_inurba_marseille","lat":43.30538,"lon":5.36549,"is_reserved":false,"is_disabled":false,"rental_uris":{"android":"levelo://app?vid=7e59e9ce-3c88-43d0-8858-555d810c6712","ios":"levelo://app?vid=7e59e9ce-3c88-43d0-8858-555d810c6712"},"vehicle_type_id":"4","last_reported":1753431342,"current_range_meters":17600,"station_id":"ce4bgs12rcd13ifvqcag","pricing_plan_id":"cebpf4jnsgd1na2vs0mg"},{"bike_id":"d3eea4a0-76ba-4059-ba6b-c1ecd6270925","system_id":"levelo_inurba_marseille","lat":43.211977,"lon":5.350716,"is_reserved":false,"is_disabled":false,"rental_uris":{"android":"levelo://app?vid=d3eea4a0-76ba-4059-ba6b-c1ecd6270925","ios":"levelo://app?vid=d3eea4a0-76ba-4059-ba6b-c1ecd6270925"},"vehicle_type_id":"4","last_reported":1753431342,"current_range_meters":17600,"station_id":"st_cvj6sg6p6f1abm77japg","pricing_plan_id":"cebpf4jnsgd1na2vs0mg"},{"bike_id":"d861442c-09c2-4130-9f6c-d36472e7baf5","system_id":"levelo_inurba_marseille","lat":43.21179,"lon":5.35074,"is_reserved":false,"is_disabled":true,"rental_uris":{"android":"levelo://app?vid=d861442c-09c2-4130-9f6c-d36472e7baf5","ios":"levelo://app?vid=d861442c-09c2-4130-9f6c-d36472e7baf5"},"vehicle_type_id":"4","last_reported":1753431342,"current_range_meters":17600,"station_id":"","pricing_plan_id":"cebpf4jnsgd1na2vs0mg"},{"bike_id":"25eb47ac-b0ac-4f54-8e15-760f4b2e2633","system_id":"levelo_inurba_marseille","lat":43.30469,"lon":5.37906,"is_reserved":false,"is_disabled":false,"rental_uris":{"android":"levelo://app?vid=25eb47ac-b0ac-4f54-8e15-760f4b2e2633","ios":"levelo://app?vid=25eb47ac-b0ac-4f54-8e15-760f4b2e2633"},"vehicle_type_id":"4","last_reported":1753431342,"current_range_meters":17600,"station_id":"ce4bgup2rcd13ifvqcn0","pricing_plan_id":"cebpf4jnsgd1na2vs0mg"},{"bike_id":"a1ec26cb-9d4a-4dd4-ad23-fecbc49f2a3d","system_id":"levelo_inurba_marseille","lat":43.25467,"lon":5.37687,"is_reserved":false,"is_disabled":false,"rental_uris":{"android":"levelo://app?vid=a1ec26cb-9d4a-4dd4-ad23-fecbc49f2a3d","ios":"levelo://app?vid=a1ec26cb-9d4a-4dd4-ad23-fecbc49f2a3d"},"vehicle_type_id":"4","last_reported":1753431342,"current_range_meters":17600,"station_id":"","pricing_plan_id":"cebpf4jnsgd1na2vs0mg"},{"bike_id":"ec6a2d2a-f9b7-4796-b105-370ad5cb4241","system_id":"levelo_inurba_marseille","lat":43.248023,"lon":5.374522,"is_reserved":false,"is_disabled":false,"rental_uris":{"android":"levelo://app?vid=ec6a2d2a-f9b7-4796-b105-370ad5cb4241","ios":"levelo://app?vid=ec6a2d2a-f9b7-4796-b105-370ad5cb4241"},"vehicle_type_id":"4","last_reported":1753431342,"current_range_meters":17600,"station_id":"ce4bhgh2rcd13ifvqfb0","pricing_plan_id":"cebpf4jnsgd1na2vs0mg"},{"bike_id":"2d888419-6462-4b1e-8ccb-d640d872f94e","system_id":"levelo_inurba_marseille","lat":43.30516,"lon":5.36533,"is_reserved":false,"is_disabled":false,"rental_uris":{"android":"levelo://app?vid=2d888419-6462-4b1e-8ccb-d640d872f94e","ios":"levelo://app?vid=2d888419-6462-4b1e-8ccb-d640d872f94e"},"vehicle_type_id":"4","last_reported":1753431342,"current_range_meters":17600,"station_id":"","pricing_plan_id":"cebpf4jnsgd1na2vs0mg"},{"bike_id":"9bb03dc8-1285-4dc3-82e4-cbcb16687686","system_id":"levelo_inurba_marseille","lat":43.22938,"lon":5.35372,"is_reserved":false,"is_disabled":false,"rental_uris":{"android":"levelo://app?vid=9bb03dc8-1285-4dc3-82e4-cbcb16687686","ios":"levelo://app?vid=9bb03dc8-1285-4dc3-82e4-cbcb16687686"},"vehicle_type_id":"4","last_reported":1753431342,"current_range_meters":17600,"station_id":"cpo3532slgdg3j2ikp40","pricing_plan_id":"cebpf4jnsgd1na2vs0mg"},{"bike_id":"f9923509-d1f5-4a78-8677-ee3e9a0ad4e2","system_id":"levelo_inurba_marseille","lat":43.27991,"lon":5.40005,"is_reserved":false,"is_disabled":true,"rental_uris":{"android":"levelo://app?vid=f9923509-d1f5-4a78-8677-ee3e9a0ad4e2","ios":"levelo://app?vid=f9923509-d1f5-4a78-8677-ee3e9a0ad4e2"},"vehicle_type_id":"4","last_reported":1753431342,"current_range_meters":17600,"station_id":"ce4bho92rcd13ifvqh4g","pricing_plan_id":"cebpf4jnsgd1na2vs0mg"},{"bike_id":"d89a78d9-9567-45b4-b7dc-774d4fdee32b","system_id":"levelo_inurba_marseille","lat":43.29598,"lon":5.381021,"is_reserved":false,"is_disabled":true,"rental_uris":{"android":"levelo://app?vid=d89a78d9-9567-45b4-b7dc-774d4fdee32b","ios":"levelo://app?vid=d89a78d9-9567-45b4-b7dc-774d4fdee32b"},"vehicle_type_id":"4","last_reported":1753431342,"current_range_meters":17600,"station_id":"ce4bgl12rcd13ifvqbo0","pricing_plan_id":"cebpf4jnsgd1na2vs0mg"},{"bike_id":"7136e517-5ffc-4744-82ab-5e8aff975eec","system_id":"levelo_inurba_marseille","lat":43.29701,"lon":5.36596,"is_reserved":false,"is_disabled":false,"rental_uris":{"android":"levelo://app?vid=7136e517-5ffc-4744-82ab-5e8aff975eec","ios":"levelo://app?vid=7136e517-5ffc-4744-82ab-5e8aff975eec"},"vehicle_type_id":"4","last_reported":1753431342,"current_range_meters":17600,"station_id":"ce4bgn12rcd13ifvqbt0","pricing_plan_id":"cebpf4jnsgd1na2vs0mg"},{"bike_id":"0a7e2862-d8ec-4c77-89d9-cfcdd51f8d75","system_id":"levelo_inurba_marseille","lat":43.31872,"lon":5.37373,"is_reserved":false,"is_disabled":false,"rental_uris":{"android":"levelo://app?vid=0a7e2862-d8ec-4c77-89d9-cfcdd51f8d75","ios":"levelo://app?vid=0a7e2862-d8ec-4c77-89d9-cfcdd51f8d75"},"vehicle_type_id":"4","last_reported":1753431342,"current_range_meters":17600,"station_id":"","pricing_plan_id":"cebpf4jnsgd1na2vs0mg"},{"bike_id":"fcea11e1-dd1f-4534-977e-d239c4d39f72","system_id":"levelo_inurba_marseille","lat":43.27378,"lon":5.36248,"is_reserved":false,"is_disabled":false,"rental_uris":{"android":"levelo://app?vid=fcea11e1-dd1f-4534-977e-d239c4d39f72","ios":"levelo://app?vid=fcea11e1-dd1f-4534-977e-d239c4d39f72"},"vehicle_type_id":"4","last_reported":1753431342,"current_range_meters":18000,"station_id":"ce4bhbh2rcd13ifvqeo0","pricing_plan_id":"cebpf4jnsgd1na2vs0mg"},{"bike_id":"6f9c5fc7-0a95-4593-b71f-0b9d9a8caaf5","system_id":"levelo_inurba_marseille","lat":43.22495,"lon":5.34802,"is_reserved":false,"is_disabled":false,"rental_uris":{"android":"levelo://app?vid=6f9c5fc7-0a95-4593-b71f-0b9d9a8caaf5","ios":"levelo://app?vid=6f9c5fc7-0a95-4593-b71f-0b9d9a8caaf5"},"vehicle_type_id":"4","last_reported":1753431342,"current_range_meters":18000,"station_id":"st_cvj5dfep6f1abm77gieg","pricing_plan_id":"cebpf4jnsgd1na2vs0mg"},{"bike_id":"425fe799-b8aa-4bc2-84d0-38078e4882ef","system_id":"levelo_inurba_marseille","lat":43.22505,"lon":5.34782,"is_reserved":false,"is_disabled":false,"rental_uris":{"android":"levelo://app?vid=425fe799-b8aa-4bc2-84d0-38078e4882ef","ios":"levelo://app?vid=425fe799-b8aa-4bc2-84d0-38078e4882ef"},"vehicle_type_id":"4","last_reported":1753431342,"current_range_meters":18000,"station_id":"st_cvj5dfep6f1abm77gieg","pricing_plan_id":"cebpf4jnsgd1na2vs0mg"},{"bike_id":"fa22c92c-e380-47f7-b3d4-b1c83a3474e7","system_id":"levelo_inurba_marseille","lat":43.29539,"lon":5.37501,"is_reserved":false,"is_disabled":false,"rental_uris":{"android":"levelo://app?vid=fa22c92c-e380-47f7-b3d4-b1c83a3474e7","ios":"levelo://app?vid=fa22c92c-e380-47f7-b3d4-b1c83a3474e7"},"vehicle_type_id":"4","last_reported":1753431342,"current_range_meters":18000,"station_id":"ce4bgkp2rcd13ifvqbmg","pricing_plan_id":"cebpf4jnsgd1na2vs0mg"},{"bike_id":"a8fc876c-8161-4939-86a7-b4f285835e47","system_id":"levelo_inurba_marseille","lat":43.26223,"lon":5.4046,"is_reserved":false,"is_disabled":false,"rental_uris":{"android":"levelo://app?vid=a8fc876c-8161-4939-86a7-b4f285835e47","ios":"levelo://app?vid=a8fc876c-8161-4939-86a7-b4f285835e47"},"vehicle_type_id":"4","last_reported":1753431342,"current_range_meters":18000,"station_id":"ce4bhmh2rcd13ifvqgmg","pricing_plan_id":"cebpf4jnsgd1na2vs0mg"},{"bike_id":"0750304b-eb35-49be-bcea-11aa92d16ceb","system_id":"levelo_inurba_marseille","lat":43.3138,"lon":5.36756,"is_reserved":false,"is_disabled":false,"rental_uris":{"android":"levelo://app?vid=0750304b-eb35-49be-bcea-11aa92d16ceb","ios":"levelo://app?vid=0750304b-eb35-49be-bcea-11aa92d16ceb"},"vehicle_type_id":"4","last_reported":1753431342,"current_range_meters":18000,"station_id":"","pricing_plan_id":"cebpf4jnsgd1na2vs0mg"},{"bike_id":"c8e02a19-b856-420d-bf9d-a6e6b78bd182","system_id":"levelo_inurba_marseille","lat":43.26556,"lon":5.37301,"is_reserved":false,"is_disabled":false,"rental_uris":{"android":"levelo://app?vid=c8e02a19-b856-420d-bf9d-a6e6b78bd182","ios":"levelo://app?vid=c8e02a19-b856-420d-bf9d-a6e6b78bd182"},"vehicle_type_id":"4","last_reported":1753431342,"current_range_meters":18000,"station_id":"ce4bhg12rcd13ifvqf70","pricing_plan_id":"cebpf4jnsgd1na2vs0mg"},{"bike_id":"54227da0-43ef-428e-b282-2b771a228023","system_id":"levelo_inurba_marseille","lat":43.25936,"lon":5.40898,"is_reserved":false,"is_disabled":false,"rental_uris":{"android":"levelo://app?vid=54227da0-43ef-428e-b282-2b771a228023","ios":"levelo://app?vid=54227da0-43ef-428e-b282-2b771a228023"},"vehicle_type_id":"4","last_reported":1753431342,"current_range_meters":18000,"station_id":"ce4bhm92rcd13ifvqglg","pricing_plan_id":"cebpf4jnsgd1na2vs0mg"},{"bike_id":"afe0ec83-6787-4c6b-87e0-5101674b0a40","system_id":"levelo_inurba_marseille","lat":43.31365,"lon":5.36709,"is_reserved":false,"is_disabled":false,"rental_uris":{"android":"levelo://app?vid=afe0ec83-6787-4c6b-87e0-5101674b0a40","ios":"levelo://app?vid=afe0ec83-6787-4c6b-87e0-5101674b0a40"},"vehicle_type_id":"4","last_reported":1753431342,"current_range_meters":18000,"station_id":"ce4bgr92rcd13ifvqc6g","pricing_plan_id":"cebpf4jnsgd1na2vs0mg"},{"bike_id":"cf75fdd5-eea5-45ba-a75c-2d3f5e3ecf00","system_id":"levelo_inurba_marseille","lat":43.229352,"lon":5.353789,"is_reserved":false,"is_disabled":false,"rental_uris":{"android":"levelo://app?vid=cf75fdd5-eea5-45ba-a75c-2d3f5e3ecf00","ios":"levelo://app?vid=cf75fdd5-eea5-45ba-a75c-2d3f5e3ecf00"},"vehicle_type_id":"4","last_reported":1753431342,"current_range_meters":18000,"station_id":"cpo3532slgdg3j2ikp40","pricing_plan_id":"cebpf4jnsgd1na2vs0mg"},{"bike_id":"07b49880-7fe5-43a6-a28f-29223b275cdc","system_id":"levelo_inurba_marseille","lat":43.29288,"lon":5.37436,"is_reserved":false,"is_disabled":false,"rental_uris":{"android":"levelo://app?vid=07b49880-7fe5-43a6-a28f-29223b275cdc","ios":"levelo://app?vid=07b49880-7fe5-43a6-a28f-29223b275cdc"},"vehicle_type_id":"4","last_reported":1753431342,"current_range_meters":18000,"station_id":"ce4bgi12rcd13ifvqb70","pricing_plan_id":"cebpf4jnsgd1na2vs0mg"},{"bike_id":"1dead8dc-fdb6-4c34-b5a6-09bf895e76a6","system_id":"levelo_inurba_marseille","lat":43.22936,"lon":5.35372,"is_reserved":false,"is_disabled":false,"rental_uris":{"android":"levelo://app?vid=1dead8dc-fdb6-4c34-b5a6-09bf895e76a6","ios":"levelo://app?vid=1dead8dc-fdb6-4c34-b5a6-09bf895e76a6"},"vehicle_type_id":"4","last_reported":1753431342,"current_range_meters":18000,"station_id":"cpo3532slgdg3j2ikp40","pricing_plan_id":"cebpf4jnsgd1na2vs0mg"},{"bike_id":"3806a4af-2e07-4652-b6b1-2eabe9d898a9","system_id":"levelo_inurba_marseille","lat":43.29847,"lon":5.36284,"is_reserved":false,"is_disabled":false,"rental_uris":{"android":"levelo://app?vid=3806a4af-2e07-4652-b6b1-2eabe9d898a9","ios":"levelo://app?vid=3806a4af-2e07-4652-b6b1-2eabe9d898a9"},"vehicle_type_id":"4","last_reported":1753431342,"current_range_meters":18800,"station_id":"ce4bgpp2rcd13ifvqc3g","pricing_plan_id":"cebpf4jnsgd1na2vs0mg"},{"bike_id":"e16673e0-8217-42fb-9973-e7e1931ec66d","system_id":"levelo_inurba_marseille","lat":43.30733,"lon":5.42435,"is_reserved":false,"is_disabled":false,"rental_uris":{"android":"levelo://app?vid=e16673e0-8217-42fb-9973-e7e1931ec66d","ios":"levelo://app?vid=e16673e0-8217-42fb-9973-e7e1931ec66d"},"vehicle_type_id":"4","last_reported":1753431342,"current_range_meters":18800,"station_id":"st_cvj6ca6bvosntc0bfgr0","pricing_plan_id":"cebpf4jnsgd1na2vs0mg"},{"bike_id":"fb278dd7-23b8-467b-96ee-58e606563c70","system_id":"levelo_inurba_marseille","lat":43.26489,"lon":5.39552,"is_reserved":false,"is_disabled":false,"rental_uris":{"android":"levelo://app?vid=fb278dd7-23b8-467b-96ee-58e606563c70","ios":"levelo://app?vid=fb278dd7-23b8-467b-96ee-58e606563c70"},"vehicle_type_id":"4","last_reported":1753431342,"current_range_meters":18800,"station_id":"ce4bhi12rcd13ifvqfq0","pricing_plan_id":"cebpf4jnsgd1na2vs0mg"},{"bike_id":"82d6d76c-9463-47ed-8ef2-6b7c6a7d3fee","system_id":"levelo_inurba_marseille","lat":43.28449,"lon":5.39205,"is_reserved":false,"is_disabled":false,"rental_uris":{"android":"levelo://app?vid=82d6d76c-9463-47ed-8ef2-6b7c6a7d3fee","ios":"levelo://app?vid=82d6d76c-9463-47ed-8ef2-6b7c6a7d3fee"},"vehicle_type_id":"4","last_reported":1753431342,"current_range_meters":18800,"station_id":"ce4bhoh2rcd13ifvqh5g","pricing_plan_id":"cebpf4jnsgd1na2vs0mg"},{"bike_id":"c82e2d89-78b9-4cbc-8b0c-84a0038473aa","system_id":"levelo_inurba_marseille","lat":43.3136,"lon":5.36712,"is_reserved":false,"is_disabled":false,"rental_uris":{"android":"levelo://app?vid=c82e2d89-78b9-4cbc-8b0c-84a0038473aa","ios":"levelo://app?vid=c82e2d89-78b9-4cbc-8b0c-84a0038473aa"},"vehicle_type_id":"4","last_reported":1753431342,"current_range_meters":18800,"station_id":"ce4bgr92rcd13ifvqc6g","pricing_plan_id":"cebpf4jnsgd1na2vs0mg"},{"bike_id":"918062da-54dd-4d69-939b-4a965f6fa7f2","system_id":"levelo_inurba_marseille","lat":43.292789,"lon":5.36837,"is_reserved":false,"is_disabled":false,"rental_uris":{"android":"levelo://app?vid=918062da-54dd-4d69-939b-4a965f6fa7f2","ios":"levelo://app?vid=918062da-54dd-4d69-939b-4a965f6fa7f2"},"vehicle_type_id":"4","last_reported":1753431342,"current_range_meters":18800,"station_id":"","pricing_plan_id":"cebpf4jnsgd1na2vs0mg"},{"bike_id":"f4f596e5-d2a4-48f1-b53e-e3d08dd3d044","system_id":"levelo_inurba_marseille","lat":43.25948,"lon":5.40892,"is_reserved":false,"is_disabled":false,"rental_uris":{"android":"levelo://app?vid=f4f596e5-d2a4-48f1-b53e-e3d08dd3d044","ios":"levelo://app?vid=f4f596e5-d2a4-48f1-b53e-e3d08dd3d044"},"vehicle_type_id":"4","last_reported":1753431342,"current_range_meters":19200,"station_id":"ce4bhm92rcd13ifvqglg","pricing_plan_id":"cebpf4jnsgd1na2vs0mg"},{"bike_id":"dd0644db-edba-43f1-abb6-20db963ba23c","system_id":"levelo_inurba_marseille","lat":43.25918,"lon":5.40904,"is_reserved":false,"is_disabled":false,"rental_uris":{"android":"levelo://app?vid=dd0644db-edba-43f1-abb6-20db963ba23c","ios":"levelo://app?vid=dd0644db-edba-43f1-abb6-20db963ba23c"},"vehicle_type_id":"4","last_reported":1753431342,"current_range_meters":19200,"station_id":"ce4bhm92rcd13ifvqglg","pricing_plan_id":"cebpf4jnsgd1na2vs0mg"},{"bike_id":"2660589a-a8bb-440d-880d-245c68e4ec06","system_id":"levelo_inurba_marseille","lat":43.30534,"lon":5.36526,"is_reserved":false,"is_disabled":false,"rental_uris":{"android":"levelo://app?vid=2660589a-a8bb-440d-880d-245c68e4ec06","ios":"levelo://app?vid=2660589a-a8bb-440d-880d-245c68e4ec06"},"vehicle_type_id":"4","last_reported":1753431342,"current_range_meters":19200,"station_id":"ce4bgs12rcd13ifvqcag","pricing_plan_id":"cebpf4jnsgd1na2vs0mg"},{"bike_id":"cbd29efb-dda7-4d15-b2c1-7a636d44d6f9","system_id":"levelo_inurba_marseille","lat":43.30139,"lon":5.38079,"is_reserved":false,"is_disabled":false,"rental_uris":{"android":"levelo://app?vid=cbd29efb-dda7-4d15-b2c1-7a636d44d6f9","ios":"levelo://app?vid=cbd29efb-dda7-4d15-b2c1-7a636d44d6f9"},"vehicle_type_id":"4","last_reported":1753431342,"current_range_meters":19200,"station_id":"ce4bgjp2rcd13ifvqbh0","pricing_plan_id":"cebpf4jnsgd1na2vs0mg"},{"bike_id":"f5449828-dfeb-44a0-8352-abea387f03de","system_id":"levelo_inurba_marseille","lat":43.281469,"lon":5.426465,"is_reserved":false,"is_disabled":false,"rental_uris":{"android":"levelo://app?vid=f5449828-dfeb-44a0-8352-abea387f03de","ios":"levelo://app?vid=f5449828-dfeb-44a0-8352-abea387f03de"},"vehicle_type_id":"4","last_reported":1753431342,"current_range_meters":19200,"station_id":"ce4bhnh2rcd13ifvqgug","pricing_plan_id":"cebpf4jnsgd1na2vs0mg"},{"bike_id":"7964b0da-5cca-4760-b8c6-49973f2f1ce5","system_id":"levelo_inurba_marseille","lat":43.24995,"lon":5.3894,"is_reserved":false,"is_disabled":false,"rental_uris":{"android":"levelo://app?vid=7964b0da-5cca-4760-b8c6-49973f2f1ce5","ios":"levelo://app?vid=7964b0da-5cca-4760-b8c6-49973f2f1ce5"},"vehicle_type_id":"4","last_reported":1753431342,"current_range_meters":19200,"station_id":"ce4bhgp2rcd13ifvqfd0","pricing_plan_id":"cebpf4jnsgd1na2vs0mg"},{"bike_id":"a8485104-5d2b-4949-88c0-2348e0955c65","system_id":"levelo_inurba_marseille","lat":43.284888,"lon":5.385574,"is_reserved":false,"is_disabled":false,"rental_uris":{"android":"levelo://app?vid=a8485104-5d2b-4949-88c0-2348e0955c65","ios":"levelo://app?vid=a8485104-5d2b-4949-88c0-2348e0955c65"},"vehicle_type_id":"4","last_reported":1753431342,"current_range_meters":19200,"station_id":"ce4bh8p2rcd13ifvqeb0","pricing_plan_id":"cebpf4jnsgd1na2vs0mg"},{"bike_id":"a1428ed3-ec05-4037-a520-7d9e6d048c8b","system_id":"levelo_inurba_marseille","lat":43.30312,"lon":5.3689,"is_reserved":false,"is_disabled":false,"rental_uris":{"android":"levelo://app?vid=a1428ed3-ec05-4037-a520-7d9e6d048c8b","ios":"levelo://app?vid=a1428ed3-ec05-4037-a520-7d9e6d048c8b"},"vehicle_type_id":"4","last_reported":1753431342,"current_range_meters":19200,"station_id":"ce4bgqh2rcd13ifvqc5g","pricing_plan_id":"cebpf4jnsgd1na2vs0mg"},{"bike_id":"337f9127-6c63-43e2-88a2-fcda61e2e9e0","system_id":"levelo_inurba_marseille","lat":43.290049,"lon":5.356085,"is_reserved":false,"is_disabled":false,"rental_uris":{"android":"levelo://app?vid=337f9127-6c63-43e2-88a2-fcda61e2e9e0","ios":"levelo://app?vid=337f9127-6c63-43e2-88a2-fcda61e2e9e0"},"vehicle_type_id":"4","last_reported":1753431342,"current_range_meters":19200,"station_id":"ce4bhb92rcd13ifvqen0","pricing_plan_id":"cebpf4jnsgd1na2vs0mg"},{"bike_id":"82f1c0b8-bb78-41f7-9523-69119cd9a558","system_id":"levelo_inurba_marseille","lat":43.241632,"lon":5.364043,"is_reserved":false,"is_disabled":false,"rental_uris":{"android":"levelo://app?vid=82f1c0b8-bb78-41f7-9523-69119cd9a558","ios":"levelo://app?vid=82f1c0b8-bb78-41f7-9523-69119cd9a558"},"vehicle_type_id":"4","last_reported":1753431342,"current_range_meters":19200,"station_id":"cpo36qri1sfpv3e86is0","pricing_plan_id":"cebpf4jnsgd1na2vs0mg"},{"bike_id":"e960d729-c1cc-459a-ae99-59e3377514e5","system_id":"levelo_inurba_marseille","lat":43.239652,"lon":5.366288,"is_reserved":false,"is_disabled":false,"rental_uris":{"android":"levelo://app?vid=e960d729-c1cc-459a-ae99-59e3377514e5","ios":"levelo://app?vid=e960d729-c1cc-459a-ae99-59e3377514e5"},"vehicle_type_id":"4","last_reported":1753431342,"current_range_meters":19600,"station_id":"ce4bhi12rcd13ifvqfp0","pricing_plan_id":"cebpf4jnsgd1na2vs0mg"},{"bike_id":"0f902b28-960a-4115-8135-908905ad462e","system_id":"levelo_inurba_marseille","lat":43.31218,"lon":5.36844,"is_reserved":false,"is_disabled":false,"rental_uris":{"android":"levelo://app?vid=0f902b28-960a-4115-8135-908905ad462e","ios":"levelo://app?vid=0f902b28-960a-4115-8135-908905ad462e"},"vehicle_type_id":"4","last_reported":1753431342,"current_range_meters":19600,"station_id":"ce4bgl92rcd13ifvqbq0","pricing_plan_id":"cebpf4jnsgd1na2vs0mg"},{"bike_id":"63196e63-eea9-455a-b947-ee2a8b901e38","system_id":"levelo_inurba_marseille","lat":43.337653,"lon":5.374367,"is_reserved":false,"is_disabled":false,"rental_uris":{"android":"levelo://app?vid=63196e63-eea9-455a-b947-ee2a8b901e38","ios":"levelo://app?vid=63196e63-eea9-455a-b947-ee2a8b901e38"},"vehicle_type_id":"4","last_reported":1753431342,"current_range_meters":19600,"station_id":"","pricing_plan_id":"cebpf4jnsgd1na2vs0mg"},{"bike_id":"2b56932b-bf7f-49d4-8b73-a3c5512b95aa","system_id":"levelo_inurba_marseille","lat":43.229236,"lon":5.353718,"is_reserved":false,"is_disabled":false,"rental_uris":{"android":"levelo://app?vid=2b56932b-bf7f-49d4-8b73-a3c5512b95aa","ios":"levelo://app?vid=2b56932b-bf7f-49d4-8b73-a3c5512b95aa"},"vehicle_type_id":"4","last_reported":1753431342,"current_range_meters":19600,"station_id":"cpo3532slgdg3j2ikp40","pricing_plan_id":"cebpf4jnsgd1na2vs0mg"},{"bike_id":"16f882cf-48e3-4904-9b53-00fd65501801","system_id":"levelo_inurba_marseille","lat":43.29894,"lon":5.43664,"is_reserved":false,"is_disabled":false,"rental_uris":{"android":"levelo://app?vid=16f882cf-48e3-4904-9b53-00fd65501801","ios":"levelo://app?vid=16f882cf-48e3-4904-9b53-00fd65501801"},"vehicle_type_id":"4","last_reported":1753431342,"current_range_meters":19600,"station_id":"ce4bhpp2rcd13ifvqhfg","pricing_plan_id":"cebpf4jnsgd1na2vs0mg"},{"bike_id":"5a25e342-b586-4cf6-881f-06124d774753","system_id":"levelo_inurba_marseille","lat":43.32486,"lon":5.3656,"is_reserved":false,"is_disabled":false,"rental_uris":{"android":"levelo://app?vid=5a25e342-b586-4cf6-881f-06124d774753","ios":"levelo://app?vid=5a25e342-b586-4cf6-881f-06124d774753"},"vehicle_type_id":"4","last_reported":1753431342,"current_range_meters":19600,"station_id":"ce4bhs12rcd13ifvqhvg","pricing_plan_id":"cebpf4jnsgd1na2vs0mg"},{"bike_id":"e16dbe7d-f2c0-4679-9e71-9129db800a8d","system_id":"levelo_inurba_marseille","lat":43.250164,"lon":5.40463,"is_reserved":false,"is_disabled":false,"rental_uris":{"android":"levelo://app?vid=e16dbe7d-f2c0-4679-9e71-9129db800a8d","ios":"levelo://app?vid=e16dbe7d-f2c0-4679-9e71-9129db800a8d"},"vehicle_type_id":"4","last_reported":1753431342,"current_range_meters":19600,"station_id":"","pricing_plan_id":"cebpf4jnsgd1na2vs0mg"},{"bike_id":"6b084b3f-c058-4c85-b5d3-c45727a0a64a","system_id":"levelo_inurba_marseille","lat":43.31224,"lon":5.373184,"is_reserved":false,"is_disabled":false,"rental_uris":{"android":"levelo://app?vid=6b084b3f-c058-4c85-b5d3-c45727a0a64a","ios":"levelo://app?vid=6b084b3f-c058-4c85-b5d3-c45727a0a64a"},"vehicle_type_id":"4","last_reported":1753431342,"current_range_meters":19600,"station_id":"","pricing_plan_id":"cebpf4jnsgd1na2vs0mg"},{"bike_id":"bd120089-590e-496c-9c90-6d1a02982638","system_id":"levelo_inurba_marseille","lat":43.292236,"lon":5.360521,"is_reserved":false,"is_disabled":true,"rental_uris":{"android":"levelo://app?vid=bd120089-590e-496c-9c90-6d1a02982638","ios":"levelo://app?vid=bd120089-590e-496c-9c90-6d1a02982638"},"vehicle_type_id":"4","last_reported":1753431342,"current_range_meters":20000,"station_id":"ce4bhbh2rcd13ifvqeqg","pricing_plan_id":"cebpf4jnsgd1na2vs0mg"},{"bike_id":"946e38c1-2fd7-4bcc-9c86-1eb176d0a73c","system_id":"levelo_inurba_marseille","lat":43.24818,"lon":5.37458,"is_reserved":false,"is_disabled":false,"rental_uris":{"android":"levelo://app?vid=946e38c1-2fd7-4bcc-9c86-1eb176d0a73c","ios":"levelo://app?vid=946e38c1-2fd7-4bcc-9c86-1eb176d0a73c"},"vehicle_type_id":"4","last_reported":1753431342,"current_range_meters":20000,"station_id":"ce4bhgh2rcd13ifvqfb0","pricing_plan_id":"cebpf4jnsgd1na2vs0mg"},{"bike_id":"0e39aa17-6d3e-46fd-85fe-e8bafbf04244","system_id":"levelo_inurba_marseille","lat":43.211924,"lon":5.350774,"is_reserved":false,"is_disabled":false,"rental_uris":{"android":"levelo://app?vid=0e39aa17-6d3e-46fd-85fe-e8bafbf04244","ios":"levelo://app?vid=0e39aa17-6d3e-46fd-85fe-e8bafbf04244"},"vehicle_type_id":"4","last_reported":1753431342,"current_range_meters":20000,"station_id":"st_cvj6sg6p6f1abm77japg","pricing_plan_id":"cebpf4jnsgd1na2vs0mg"},{"bike_id":"74f45017-725d-4d39-8863-0c90b41f9d20","system_id":"levelo_inurba_marseille","lat":43.25943,"lon":5.40906,"is_reserved":false,"is_disabled":false,"rental_uris":{"android":"levelo://app?vid=74f45017-725d-4d39-8863-0c90b41f9d20","ios":"levelo://app?vid=74f45017-725d-4d39-8863-0c90b41f9d20"},"vehicle_type_id":"4","last_reported":1753431342,"current_range_meters":20000,"station_id":"ce4bhm92rcd13ifvqglg","pricing_plan_id":"cebpf4jnsgd1na2vs0mg"},{"bike_id":"a5f25ccf-59b9-456c-a4e7-39ee65d91d0f","system_id":"levelo_inurba_marseille","lat":43.334914,"lon":5.391383,"is_reserved":false,"is_disabled":false,"rental_uris":{"android":"levelo://app?vid=a5f25ccf-59b9-456c-a4e7-39ee65d91d0f","ios":"levelo://app?vid=a5f25ccf-59b9-456c-a4e7-39ee65d91d0f"},"vehicle_type_id":"4","last_reported":1753431342,"current_range_meters":20000,"station_id":"","pricing_plan_id":"cebpf4jnsgd1na2vs0mg"},{"bike_id":"59dabe3a-2694-408c-869e-8521920b8141","system_id":"levelo_inurba_marseille","lat":43.25915,"lon":5.4086,"is_reserved":false,"is_disabled":false,"rental_uris":{"android":"levelo://app?vid=59dabe3a-2694-408c-869e-8521920b8141","ios":"levelo://app?vid=59dabe3a-2694-408c-869e-8521920b8141"},"vehicle_type_id":"4","last_reported":1753431342,"current_range_meters":20000,"station_id":"ce4bhm92rcd13ifvqglg","pricing_plan_id":"cebpf4jnsgd1na2vs0mg"},{"bike_id":"d224e660-ee59-4eb2-ac4f-58e9e006b117","system_id":"levelo_inurba_marseille","lat":43.26553,"lon":5.37274,"is_reserved":false,"is_disabled":false,"rental_uris":{"android":"levelo://app?vid=d224e660-ee59-4eb2-ac4f-58e9e006b117","ios":"levelo://app?vid=d224e660-ee59-4eb2-ac4f-58e9e006b117"},"vehicle_type_id":"4","last_reported":1753431342,"current_range_meters":20000,"station_id":"ce4bhg12rcd13ifvqf70","pricing_plan_id":"cebpf4jnsgd1na2vs0mg"},{"bike_id":"79fc11ae-347d-4fdb-b345-d9791ff4510d","system_id":"levelo_inurba_marseille","lat":43.26063,"lon":5.39387,"is_reserved":false,"is_disabled":false,"rental_uris":{"android":"levelo://app?vid=79fc11ae-347d-4fdb-b345-d9791ff4510d","ios":"levelo://app?vid=79fc11ae-347d-4fdb-b345-d9791ff4510d"},"vehicle_type_id":"4","last_reported":1753431342,"current_range_meters":20000,"station_id":"ce4bhh92rcd13ifvqfj0","pricing_plan_id":"cebpf4jnsgd1na2vs0mg"},{"bike_id":"0e35c762-e8f7-48ce-b46c-40ec54e7ab8d","system_id":"levelo_inurba_marseille","lat":43.24993,"lon":5.38936,"is_reserved":false,"is_disabled":false,"rental_uris":{"android":"levelo://app?vid=0e35c762-e8f7-48ce-b46c-40ec54e7ab8d","ios":"levelo://app?vid=0e35c762-e8f7-48ce-b46c-40ec54e7ab8d"},"vehicle_type_id":"4","last_reported":1753431342,"current_range_meters":20000,"station_id":"ce4bhgp2rcd13ifvqfd0","pricing_plan_id":"cebpf4jnsgd1na2vs0mg"},{"bike_id":"5add2112-7254-44be-8269-8a13eeed1f69","system_id":"levelo_inurba_marseille","lat":43.29683,"lon":5.37289,"is_reserved":false,"is_disabled":false,"rental_uris":{"android":"levelo://app?vid=5add2112-7254-44be-8269-8a13eeed1f69","ios":"levelo://app?vid=5add2112-7254-44be-8269-8a13eeed1f69"},"vehicle_type_id":"4","last_reported":1753431342,"current_range_meters":19600,"station_id":"ce4bgk12rcd13ifvqbj0","pricing_plan_id":"cebpf4jnsgd1na2vs0mg"},{"bike_id":"fac612d1-16e2-45d9-ab10-11b7935fddc0","system_id":"levelo_inurba_marseille","lat":43.2737,"lon":5.3625,"is_reserved":false,"is_disabled":false,"rental_uris":{"android":"levelo://app?vid=fac612d1-16e2-45d9-ab10-11b7935fddc0","ios":"levelo://app?vid=fac612d1-16e2-45d9-ab10-11b7935fddc0"},"vehicle_type_id":"4","last_reported":1753431342,"current_range_meters":20000,"station_id":"ce4bhbh2rcd13ifvqeo0","pricing_plan_id":"cebpf4jnsgd1na2vs0mg"},{"bike_id":"a1e9e67f-55d1-49e5-a2c3-e87f3c41fb76","system_id":"levelo_inurba_marseille","lat":43.230545,"lon":5.354977,"is_reserved":false,"is_disabled":false,"rental_uris":{"android":"levelo://app?vid=a1e9e67f-55d1-49e5-a2c3-e87f3c41fb76","ios":"levelo://app?vid=a1e9e67f-55d1-49e5-a2c3-e87f3c41fb76"},"vehicle_type_id":"4","last_reported":1753431342,"current_range_meters":20400,"station_id":"cpo3342slgdg3j2ifvpg","pricing_plan_id":"cebpf4jnsgd1na2vs0mg"},{"bike_id":"0a72995e-9e08-494f-86d7-27bf0917ddd8","system_id":"levelo_inurba_marseille","lat":43.29019,"lon":5.37215,"is_reserved":false,"is_disabled":false,"rental_uris":{"android":"levelo://app?vid=0a72995e-9e08-494f-86d7-27bf0917ddd8","ios":"levelo://app?vid=0a72995e-9e08-494f-86d7-27bf0917ddd8"},"vehicle_type_id":"4","last_reported":1753431342,"current_range_meters":20400,"station_id":"","pricing_plan_id":"cebpf4jnsgd1na2vs0mg"},{"bike_id":"278f387b-351f-4d37-9644-cbe879c5a869","system_id":"levelo_inurba_marseille","lat":43.32503,"lon":5.36569,"is_reserved":false,"is_disabled":true,"rental_uris":{"android":"levelo://app?vid=278f387b-351f-4d37-9644-cbe879c5a869","ios":"levelo://app?vid=278f387b-351f-4d37-9644-cbe879c5a869"},"vehicle_type_id":"4","last_reported":1753431342,"current_range_meters":20400,"station_id":"ce4bhs12rcd13ifvqhvg","pricing_plan_id":"cebpf4jnsgd1na2vs0mg"},{"bike_id":"e2719639-5303-4b93-ac65-7f01c2259f41","system_id":"levelo_inurba_marseille","lat":43.30235,"lon":5.38223,"is_reserved":false,"is_disabled":false,"rental_uris":{"android":"levelo://app?vid=e2719639-5303-4b93-ac65-7f01c2259f41","ios":"levelo://app?vid=e2719639-5303-4b93-ac65-7f01c2259f41"},"vehicle_type_id":"4","last_reported":1753431342,"current_range_meters":20400,"station_id":"","pricing_plan_id":"cebpf4jnsgd1na2vs0mg"},{"bike_id":"899a3d6a-1226-4b21-9dcc-92f4ea9ac0dd","system_id":"levelo_inurba_marseille","lat":43.3015,"lon":5.38078,"is_reserved":false,"is_disabled":false,"rental_uris":{"android":"levelo://app?vid=899a3d6a-1226-4b21-9dcc-92f4ea9ac0dd","ios":"levelo://app?vid=899a3d6a-1226-4b21-9dcc-92f4ea9ac0dd"},"vehicle_type_id":"4","last_reported":1753431342,"current_range_meters":20400,"station_id":"ce4bgjp2rcd13ifvqbh0","pricing_plan_id":"cebpf4jnsgd1na2vs0mg"},{"bike_id":"2ee19c40-8002-4ee2-8cd9-7d10bb8901fa","system_id":"levelo_inurba_marseille","lat":43.2962,"lon":5.37153,"is_reserved":false,"is_disabled":false,"rental_uris":{"android":"levelo://app?vid=2ee19c40-8002-4ee2-8cd9-7d10bb8901fa","ios":"levelo://app?vid=2ee19c40-8002-4ee2-8cd9-7d10bb8901fa"},"vehicle_type_id":"4","last_reported":1753431342,"current_range_meters":20400,"station_id":"ce4bgnh2rcd13ifvqc0g","pricing_plan_id":"cebpf4jnsgd1na2vs0mg"},{"bike_id":"b25d1a74-5bab-461f-93c0-5df8e3c6383a","system_id":"levelo_inurba_marseille","lat":43.254941,"lon":5.376448,"is_reserved":false,"is_disabled":false,"rental_uris":{"android":"levelo://app?vid=b25d1a74-5bab-461f-93c0-5df8e3c6383a","ios":"levelo://app?vid=b25d1a74-5bab-461f-93c0-5df8e3c6383a"},"vehicle_type_id":"4","last_reported":1753431342,"current_range_meters":20800,"station_id":"ce4bhh12rcd13ifvqff0","pricing_plan_id":"cebpf4jnsgd1na2vs0mg"},{"bike_id":"1699da3b-157a-4d07-ba4d-8fe9df7d93c7","system_id":"levelo_inurba_marseille","lat":43.33156,"lon":5.35975,"is_reserved":false,"is_disabled":false,"rental_uris":{"android":"levelo://app?vid=1699da3b-157a-4d07-ba4d-8fe9df7d93c7","ios":"levelo://app?vid=1699da3b-157a-4d07-ba4d-8fe9df7d93c7"},"vehicle_type_id":"4","last_reported":1753431342,"current_range_meters":20800,"station_id":"","pricing_plan_id":"cebpf4jnsgd1na2vs0mg"},{"bike_id":"64aa7ccd-7b4b-4aa6-95da-dd572a89eb44","system_id":"levelo_inurba_marseille","lat":43.290527,"lon":5.399629,"is_reserved":false,"is_disabled":false,"rental_uris":{"android":"levelo://app?vid=64aa7ccd-7b4b-4aa6-95da-dd572a89eb44","ios":"levelo://app?vid=64aa7ccd-7b4b-4aa6-95da-dd572a89eb44"},"vehicle_type_id":"4","last_reported":1753431342,"current_range_meters":20800,"station_id":"ce4bh392rcd13ifvqdm0","pricing_plan_id":"cebpf4jnsgd1na2vs0mg"},{"bike_id":"69a78400-a47a-4b16-9b5f-ec82fc40f629","system_id":"levelo_inurba_marseille","lat":43.30983,"lon":5.37942,"is_reserved":false,"is_disabled":false,"rental_uris":{"android":"levelo://app?vid=69a78400-a47a-4b16-9b5f-ec82fc40f629","ios":"levelo://app?vid=69a78400-a47a-4b16-9b5f-ec82fc40f629"},"vehicle_type_id":"4","last_reported":1753431342,"current_range_meters":20800,"station_id":"","pricing_plan_id":"cebpf4jnsgd1na2vs0mg"},{"bike_id":"781a7546-3aaa-4cf6-afe7-08c80cb70914","system_id":"levelo_inurba_marseille","lat":43.32118,"lon":5.36777,"is_reserved":false,"is_disabled":false,"rental_uris":{"android":"levelo://app?vid=781a7546-3aaa-4cf6-afe7-08c80cb70914","ios":"levelo://app?vid=781a7546-3aaa-4cf6-afe7-08c80cb70914"},"vehicle_type_id":"4","last_reported":1753431342,"current_range_meters":20800,"station_id":"ce4bhrh2rcd13ifvqhug","pricing_plan_id":"cebpf4jnsgd1na2vs0mg"},{"bike_id":"41b06109-8760-4b95-9e28-8b228424b48e","system_id":"levelo_inurba_marseille","lat":43.2512,"lon":5.40314,"is_reserved":false,"is_disabled":false,"rental_uris":{"android":"levelo://app?vid=41b06109-8760-4b95-9e28-8b228424b48e","ios":"levelo://app?vid=41b06109-8760-4b95-9e28-8b228424b48e"},"vehicle_type_id":"4","last_reported":1753431342,"current_range_meters":20800,"station_id":"ce4bhlh2rcd13ifvqgig","pricing_plan_id":"cebpf4jnsgd1na2vs0mg"},{"bike_id":"11061ba7-7c09-48c6-8440-b53b0bd5117e","system_id":"levelo_inurba_marseille","lat":43.286997,"lon":5.37924,"is_reserved":false,"is_disabled":false,"rental_uris":{"android":"levelo://app?vid=11061ba7-7c09-48c6-8440-b53b0bd5117e","ios":"levelo://app?vid=11061ba7-7c09-48c6-8440-b53b0bd5117e"},"vehicle_type_id":"4","last_reported":1753431342,"current_range_meters":20800,"station_id":"ce4bh9p2rcd13ifvqec0","pricing_plan_id":"cebpf4jnsgd1na2vs0mg"},{"bike_id":"50a95c56-19f5-40cd-bc70-e373c1f816fa","system_id":"levelo_inurba_marseille","lat":43.2293,"lon":5.35377,"is_reserved":false,"is_disabled":false,"rental_uris":{"android":"levelo://app?vid=50a95c56-19f5-40cd-bc70-e373c1f816fa","ios":"levelo://app?vid=50a95c56-19f5-40cd-bc70-e373c1f816fa"},"vehicle_type_id":"4","last_reported":1753431342,"current_range_meters":20800,"station_id":"cpo3532slgdg3j2ikp40","pricing_plan_id":"cebpf4jnsgd1na2vs0mg"},{"bike_id":"d8bc0e57-56f8-4962-9f71-e8336a7f045d","system_id":"levelo_inurba_marseille","lat":43.30948,"lon":5.39028,"is_reserved":false,"is_disabled":false,"rental_uris":{"android":"levelo://app?vid=d8bc0e57-56f8-4962-9f71-e8336a7f045d","ios":"levelo://app?vid=d8bc0e57-56f8-4962-9f71-e8336a7f045d"},"vehicle_type_id":"4","last_reported":1753431342,"current_range_meters":20800,"station_id":"ce4bgup2rcd13ifvqco0","pricing_plan_id":"cebpf4jnsgd1na2vs0mg"},{"bike_id":"053ae050-0c5d-4be7-b64c-4612852e2def","system_id":"levelo_inurba_marseille","lat":43.33456,"lon":5.40032,"is_reserved":false,"is_disabled":false,"rental_uris":{"android":"levelo://app?vid=053ae050-0c5d-4be7-b64c-4612852e2def","ios":"levelo://app?vid=053ae050-0c5d-4be7-b64c-4612852e2def"},"vehicle_type_id":"4","last_reported":1753431342,"current_range_meters":20800,"station_id":"","pricing_plan_id":"cebpf4jnsgd1na2vs0mg"},{"bike_id":"f430b5fe-6b85-482d-9ed6-5939b314b660","system_id":"levelo_inurba_marseille","lat":43.281574,"lon":5.426299,"is_reserved":false,"is_disabled":false,"rental_uris":{"android":"levelo://app?vid=f430b5fe-6b85-482d-9ed6-5939b314b660","ios":"levelo://app?vid=f430b5fe-6b85-482d-9ed6-5939b314b660"},"vehicle_type_id":"4","last_reported":1753431342,"current_range_meters":21600,"station_id":"ce4bhnh2rcd13ifvqgug","pricing_plan_id":"cebpf4jnsgd1na2vs0mg"},{"bike_id":"24b47be6-2848-4173-ad9d-e13b80a4d9a0","system_id":"levelo_inurba_marseille","lat":43.261979,"lon":5.374434,"is_reserved":false,"is_disabled":true,"rental_uris":{"android":"levelo://app?vid=24b47be6-2848-4173-ad9d-e13b80a4d9a0","ios":"levelo://app?vid=24b47be6-2848-4173-ad9d-e13b80a4d9a0"},"vehicle_type_id":"4","last_reported":1753431342,"current_range_meters":21600,"station_id":"ce4bhgp2rcd13ifvqfc0","pricing_plan_id":"cebpf4jnsgd1na2vs0mg"},{"bike_id":"f0a5a6c8-8f91-4866-9615-37642bfa4177","system_id":"levelo_inurba_marseille","lat":43.314919,"lon":5.373082,"is_reserved":false,"is_disabled":false,"rental_uris":{"android":"levelo://app?vid=f0a5a6c8-8f91-4866-9615-37642bfa4177","ios":"levelo://app?vid=f0a5a6c8-8f91-4866-9615-37642bfa4177"},"vehicle_type_id":"4","last_reported":1753431342,"current_range_meters":21600,"station_id":"","pricing_plan_id":"cebpf4jnsgd1na2vs0mg"},{"bike_id":"2eee3cc3-8307-4686-ab2d-5018248f4684","system_id":"levelo_inurba_marseille","lat":43.29288,"lon":5.40143,"is_reserved":false,"is_disabled":false,"rental_uris":{"android":"levelo://app?vid=2eee3cc3-8307-4686-ab2d-5018248f4684","ios":"levelo://app?vid=2eee3cc3-8307-4686-ab2d-5018248f4684"},"vehicle_type_id":"4","last_reported":1753431342,"current_range_meters":21600,"station_id":"ce4bh312rcd13ifvqdk0","pricing_plan_id":"cebpf4jnsgd1na2vs0mg"},