{"last_updated":1732878492,"ttl":60,"version":"2.2","data":{"bikes":[{"bike_id":"bd9bbcf8-172e-4803-8173-4a743a76da15","system_id":"levelo_inurba_marseille","lat":43.30256,"lon":5.40046,"is_reserved":false,"is_disabled":false,"rental_uris":{"android":"levelo://app?vid=bd9bbcf8-172e-4803-8173-4a743a76da15","ios":"levelo://app?vid=bd9bbcf8-172e-4803-8173-4a743a76da15"},"vehicle_type_id":"4","last_reported":1732878492,"current_range_meters":28000,"station_id":"ce4bgvh2rcd13ifvqcs0","pricing_plan_id":"cebpf4jnsgd1na2vs0mg"},{"bike_id":"b856c8b4-412d-4c25-bdd4-e6b29aed04cb","system_id":"levelo_inurba_marseille","lat":43.22932,"lon":5.35378,"is_reserved":false,"is_disabled":false,"rental_uris":{"android":"levelo://app?vid=b856c8b4-412d-4c25-bdd4-e6b29aed04cb","ios":"levelo://app?vid=b856c8b4-412d-4c25-bdd4-e6b29aed04cb"},"vehicle_type_id":"4","last_reported":1732878492,"current_range_meters":38800,"station_id":"cpo3532slgdg3j2ikp40","pricing_plan_id":"cebpf4jnsgd1na2vs0mg"},{"bike_id":"7109ea62-6d5b-402b-b9dc-fce7231e51b9","system_id":"levelo_inurba_marseille","lat":43.30083,"lon":5.39128,"is_reserved":false,"is_disabled":false,"rental_uris":{"android":"levelo://app?vid=7109ea62-6d5b-402b-b9dc-fce7231e51b9","ios":"levelo://app?vid=7109ea62-6d5b-402b-b9dc-fce7231e51b9"},"vehicle_type_id":"4","last_reported":1732878492,"current_range_meters":32800,"station_id":"ce4bh192rcd13ifvqdb0","pricing_plan_id":"cebpf4jnsgd1na2vs0mg"},{"bike_id":"4b9d8808-efdf-4244-9d06-9a97ad5fcbb7","system_id":"levelo_inurba_marseille","lat":43.29797,"lon":5.38106,"is_reserved":false,"is_disabled":false,"rental_uris":{"android":"levelo://app?vid=4b9d8808-efdf-4244-9d06-9a97ad5fcbb7","ios":"levelo://app?vid=4b9d8808-efdf-4244-9d06-9a97ad5fcbb7"},"vehicle_type_id":"4","last_reported":1732878492,"current_range_meters":11600,"station_id":"ce4bgip2rcd13ifvqbb0","pricing_plan_id":"cebpf4jnsgd1na2vs0mg"},{"bike_id":"fac63031-3de9-41dc-941a-a395646bc4e4","system_id":"levelo_inurba_marseille","lat":43.2557,"lon":5.38235,"is_reserved":false,"is_disabled":false,"rental_uris":{"android":"levelo://app?vid=fac63031-3de9-41dc-941a-a395646bc4e4","ios":"levelo://app?vid=fac63031-3de9-41dc-941a-a395646bc4e4"},"vehicle_type_id":"4","last_reported":1732878492,"current_range_meters":6800,"station_id":"ce4bhih2rcd13ifvqfs0","pricing_plan_id":"cebpf4jnsgd1na2vs0mg"},{"bike_id":"a952882b-3c05-4030-b9c1-ce10013df85d","system_id":"levelo_inurba_marseille","lat":43.28274,"lon":5.3506,"is_reserved":false,"is_disabled":false,"rental_uris":{"android":"levelo://app?vid=a952882b-3c05-4030-b9c1-ce10013df85d","ios":"levelo://app?vid=a952882b-3c05-4030-b9c1-ce10013df85d"},"vehicle_type_id":"4","last_reported":1732878492,"current_range_meters":11200,"station_id":"ce4bhbp2rcd13ifvqerg","pricing_plan_id":"cebpf4jnsgd1na2vs0mg"},{"bike_id":"b68e4575-2d7c-4a35-ae3f-f8d5fcf2bebb","system_id":"levelo_inurba_marseille","lat":43.29935,"lon":5.36532,"is_reserved":false,"is_disabled":false,"rental_uris":{"android":"levelo://app?vid=b68e4575-2d7c-4a35-ae3f-f8d5fcf2bebb","ios":"levelo://app?vid=b68e4575-2d7c-4a35-ae3f-f8d5fcf2bebb"},"vehicle_type_id":"4","last_reported":1732878492,"current_range_meters":36800,"station_id":"ce4bgm92rcd13ifvqbr0","pricing_plan_id":"cebpf4jnsgd1na2vs0mg"},{"bike_id":"575c3fc8-e16c-4d88-b242-b1c4e9cd08d8","system_id":"levelo_inurba_marseille","lat":43.30209,"lon":5.39471,"is_reserved":false,"is_disabled":false,"rental_uris":{"android":"levelo://app?vid=575c3fc8-e16c-4d88-b242-b1c4e9cd08d8","ios":"levelo://app?vid=575c3fc8-e16c-4d88-b242-b1c4e9cd08d8"},"vehicle_type_id":"4","last_reported":1732878492,"current_range_meters":20800,"station_id":"ce4bh0p2rcd13ifvqd70","pricing_plan_id":"cebpf4jnsgd1na2vs0mg"},{"bike_id":"7121f4be-3d3e-48f1-a37e-6346aa40858b","system_id":"levelo_inurba_marseille","lat":43.30526,"lon":5.36532,"is_reserved":false,"is_disabled":false,"rental_uris":{"android":"levelo://app?vid=7121f4be-3d3e-48f1-a37e-6346aa40858b","ios":"levelo://app?vid=7121f4be-3d3e-48f1-a37e-6346aa40858b"},"vehicle_type_id":"4","last_reported":1732878492,"current_range_meters":38800,"station_id":"ce4bgs12rcd13ifvqcag","pricing_plan_id":"cebpf4jnsgd1na2vs0mg"},{"bike_id":"ce15a521-8a1d-47b7-92c8-091ca367d00e","system_id":"levelo_inurba_marseille","lat":43.33749,"lon":5.37439,"is_reserved":false,"is_disabled":false,"rental_uris":{"android":"levelo://app?vid=ce15a521-8a1d-47b7-92c8-091ca367d00e","ios":"levelo://app?vid=ce15a521-8a1d-47b7-92c8-091ca367d00e"},"vehicle_type_id":"4","last_reported":1732878492,"current_range_meters":33600,"station_id":"","pricing_plan_id":"cebpf4jnsgd1na2vs0mg"},{"bike_id":"9bf34490-b052-449a-916f-cc8afb5b0287","system_id":"levelo_inurba_marseille","lat":43.26564,"lon":5.39015,"is_reserved":false,"is_disabled":false,"rental_uris":{"android":"levelo://app?vid=9bf34490-b052-449a-916f-cc8afb5b0287","ios":"levelo://app?vid=9bf34490-b052-449a-916f-cc8afb5b0287"},"vehicle_type_id":"4","last_reported":1732878492,"current_range_meters":30000,"station_id":"ce4bhe12rcd13ifvqf30","pricing_plan_id":"cebpf4jnsgd1na2vs0mg"},{"bike_id":"13a9c207-8dfd-4694-9ec3-31e33bea7860","system_id":"levelo_inurba_marseille","lat":43.32017,"lon":5.41588,"is_reserved":false,"is_disabled":false,"rental_uris":{"android":"levelo://app?vid=13a9c207-8dfd-4694-9ec3-31e33bea7860","ios":"levelo://app?vid=13a9c207-8dfd-4694-9ec3-31e33bea7860"},"vehicle_type_id":"4","last_reported":1732878492,"current_range_meters":38800,"station_id":"ce4bhq92rcd13ifvqhkg","pricing_plan_id":"cebpf4jnsgd1na2vs0mg"},{"bike_id":"db3c106a-5fc0-44ad-bed3-25b68013685f","system_id":"levelo_inurba_marseille","lat":43.27177,"lon":5.41,"is_reserved":false,"is_disabled":false,"rental_uris":{"android":"levelo://app?vid=db3c106a-5fc0-44ad-bed3-25b68013685f","ios":"levelo://app?vid=db3c106a-5fc0-44ad-bed3-25b68013685f"},"vehicle_type_id":"4","last_reported":1732878492,"current_range_meters":22400,"station_id":"ce4bhl12rcd13ifvqgf0","pricing_plan_id":"cebpf4jnsgd1na2vs0mg"},{"bike_id":"7ea8e435-a11e-4065-b0cb-763eeffd904e","system_id":"levelo_inurba_marseille","lat":43.27053,"lon":5.40261,"is_reserved":false,"is_disabled":false,"rental_uris":{"android":"levelo://app?vid=7ea8e435-a11e-4065-b0cb-763eeffd904e","ios":"levelo://app?vid=7ea8e435-a11e-4065-b0cb-763eeffd904e"},"vehicle_type_id":"4","last_reported":1732878492,"current_range_meters":39200,"station_id":"ce4bhk92rcd13ifvqgc0","pricing_plan_id":"cebpf4jnsgd1na2vs0mg"},{"bike_id":"ba2d1a62-e632-4169-9a28-b83f6acba689","system_id":"levelo_inurba_marseille","lat":43.26328,"lon":5.40459,"is_reserved":false,"is_disabled":true,"rental_uris":{"android":"levelo://app?vid=ba2d1a62-e632-4169-9a28-b83f6acba689","ios":"levelo://app?vid=ba2d1a62-e632-4169-9a28-b83f6acba689"},"vehicle_type_id":"4","last_reported":1732878492,"current_range_meters":0,"station_id":"","pricing_plan_id":"cebpf4jnsgd1na2vs0mg"},{"bike_id":"be0afc6b-8199-48cc-b573-c1d25c498e30","system_id":"levelo_inurba_marseille","lat":43.24795,"lon":5.37465,"is_reserved":false,"is_disabled":false,"rental_uris":{"android":"levelo://app?vid=be0afc6b-8199-48cc-b573-c1d25c498e30","ios":"levelo://app?vid=be0afc6b-8199-48cc-b573-c1d25c498e30"},"vehicle_type_id":"4","last_reported":1732878492,"current_range_meters":38800,"station_id":"ce4bhgh2rcd13ifvqfb0","pricing_plan_id":"cebpf4jnsgd1na2vs0mg"},{"bike_id":"64f0fc58-c3ee-4bf4-b7bc-d9f5d3cd4c13","system_id":"levelo_inurba_marseille","lat":43.26202,"lon":5.37932,"is_reserved":false,"is_disabled":false,"rental_uris":{"android":"levelo://app?vid=64f0fc58-c3ee-4bf4-b7bc-d9f5d3cd4c13","ios":"levelo://app?vid=64f0fc58-c3ee-4bf4-b7bc-d9f5d3cd4c13"},"vehicle_type_id":"4","last_reported":1732878492,"current_range_meters":37600,"station_id":"ce4bhjp2rcd13ifvqg90","pricing_plan_id":"cebpf4jnsgd1na2vs0mg"},{"bike_id":"6f7949e1-de87-4a49-8620-fec27e04447f","system_id":"levelo_inurba_marseille","lat":43.33742,"lon":5.39186,"is_reserved":false,"is_disabled":false,"rental_uris":{"android":"levelo://app?vid=6f7949e1-de87-4a49-8620-fec27e04447f","ios":"levelo://app?vid=6f7949e1-de87-4a49-8620-fec27e04447f"},"vehicle_type_id":"4","last_reported":1732878492,"current_range_meters":30800,"station_id":"ce4bhr92rcd13ifvqhsg","pricing_plan_id":"cebpf4jnsgd1na2vs0mg"},{"bike_id":"4a873296-5d15-4559-96cf-ec44632a505c","system_id":"levelo_inurba_marseille","lat":43.23154,"lon":5.43718,"is_reserved":false,"is_disabled":false,"rental_uris":{"android":"levelo://app?vid=4a873296-5d15-4559-96cf-ec44632a505c","ios":"levelo://app?vid=4a873296-5d15-4559-96cf-ec44632a505c"},"vehicle_type_id":"4","last_reported":1732878492,"current_range_meters":4800,"station_id":"ce4bhmp2rcd13ifvqgog","pricing_plan_id":"cebpf4jnsgd1na2vs0mg"},{"bike_id":"d6af473c-317d-44a4-ba58-092abf84584f","system_id":"levelo_inurba_marseille","lat":43.22933,"lon":5.3538,"is_reserved":false,"is_disabled":false,"rental_uris":{"android":"levelo://app?vid=d6af473c-317d-44a4-ba58-092abf84584f","ios":"levelo://app?vid=d6af473c-317d-44a4-ba58-092abf84584f"},"vehicle_type_id":"4","last_reported":1732878492,"current_range_meters":38800,"station_id":"cpo3532slgdg3j2ikp40","pricing_plan_id":"cebpf4jnsgd1na2vs0mg"},{"bike_id":"79da6e11-068f-4f85-891a-bf5d6033ae1b","system_id":"levelo_inurba_marseille","lat":43.29194,"lon":5.39327,"is_reserved":false,"is_disabled":true,"rental_uris":{"android":"levelo://app?vid=79da6e11-068f-4f85-891a-bf5d6033ae1b","ios":"levelo://app?vid=79da6e11-068f-4f85-891a-bf5d6033ae1b"},"vehicle_type_id":"4","last_reported":1732878492,"current_range_meters":28800,"station_id":"ce4bh192rcd13ifvqdd0","pricing_plan_id":"cebpf4jnsgd1na2vs0mg"},{"bike_id":"301ba404-e4ab-4cc6-bbf0-243e67febc55","system_id":"levelo_inurba_marseille","lat":43.26209,"lon":5.37443,"is_reserved":false,"is_disabled":false,"rental_uris":{"android":"levelo://app?vid=301ba404-e4ab-4cc6-bbf0-243e67febc55","ios":"levelo://app?vid=301ba404-e4ab-4cc6-bbf0-243e67febc55"},"vehicle_type_id":"4","last_reported":1732878492,"current_range_meters":38800,"station_id":"ce4bhgp2rcd13ifvqfc0","pricing_plan_id":"cebpf4jnsgd1na2vs0mg"},{"bike_id":"b077cafa-51de-44f1-bce5-12490df4a26c","system_id":"levelo_inurba_marseille","lat":43.28851,"lon":5.3933,"is_reserved":false,"is_disabled":false,"rental_uris":{"android":"levelo://app?vid=b077cafa-51de-44f1-bce5-12490df4a26c","ios":"levelo://app?vid=b077cafa-51de-44f1-bce5-12490df4a26c"},"vehicle_type_id":"4","last_reported":1732878492,"current_range_meters":38800,"station_id":"ce4bh2p2rcd13ifvqdi0","pricing_plan_id":"cebpf4jnsgd1na2vs0mg"},{"bike_id":"67601a23-af6f-4db4-8bf4-4b32872685b3","system_id":"levelo_inurba_marseille","lat":43.29906,"lon":5.38152,"is_reserved":false,"is_disabled":false,"rental_uris":{"android":"levelo://app?vid=67601a23-af6f-4db4-8bf4-4b32872685b3","ios":"levelo://app?vid=67601a23-af6f-4db4-8bf4-4b32872685b3"},"vehicle_type_id":"4","last_reported":1732878492,"current_range_meters":38800,"station_id":"ce4bgj12rcd13ifvqbc0","pricing_plan_id":"cebpf4jnsgd1na2vs0mg"},{"bike_id":"52e410fd-1783-461b-a786-bcb12700645d","system_id":"levelo_inurba_marseille","lat":43.31355,"lon":5.36707,"is_reserved":false,"is_disabled":false,"rental_uris":{"android":"levelo://app?vid=52e410fd-1783-461b-a786-bcb12700645d","ios":"levelo://app?vid=52e410fd-1783-461b-a786-bcb12700645d"},"vehicle_type_id":"4","last_reported":1732878492,"current_range_meters":38000,"station_id":"ce4bgr92rcd13ifvqc6g","pricing_plan_id":"cebpf4jnsgd1na2vs0mg"},{"bike_id":"21709a2b-3fc6-4f3c-ba78-9580a32234ef","system_id":"levelo_inurba_marseille","lat":43.293,"lon":5.3718,"is_reserved":false,"is_disabled":false,"rental_uris":{"android":"levelo://app?vid=21709a2b-3fc6-4f3c-ba78-9580a32234ef","ios":"levelo://app?vid=21709a2b-3fc6-4f3c-ba78-9580a32234ef"},"vehicle_type_id":"4","last_reported":1732878492,"current_range_meters":22800,"station_id":"ce4bgh92rcd13ifvqb40","pricing_plan_id":"cebpf4jnsgd1na2vs0mg"},{"bike_id":"7837eda4-216b-49c2-9bfb-a4f1167d5454","system_id":"levelo_inurba_marseille","lat":43.29418,"lon":5.38624,"is_reserved":false,"is_disabled":false,"rental_uris":{"android":"levelo://app?vid=7837eda4-216b-49c2-9bfb-a4f1167d5454","ios":"levelo://app?vid=7837eda4-216b-49c2-9bfb-a4f1167d5454"},"vehicle_type_id":"4","last_reported":1732878492,"current_range_meters":22000,"station_id":"ce4bh2h2rcd13ifvqdh0","pricing_plan_id":"cebpf4jnsgd1na2vs0mg"},{"bike_id":"00108dbf-63ea-4933-9229-002ac8601d07","system_id":"levelo_inurba_marseille","lat":43.24664,"lon":5.38166,"is_reserved":false,"is_disabled":false,"rental_uris":{"android":"levelo://app?vid=00108dbf-63ea-4933-9229-002ac8601d07","ios":"levelo://app?vid=00108dbf-63ea-4933-9229-002ac8601d07"},"vehicle_type_id":"4","last_reported":1732878492,"current_range_meters":28800,"station_id":"ce4bhih2rcd13ifvqfr0","pricing_plan_id":"cebpf4jnsgd1na2vs0mg"},{"bike_id":"e314bc56-f5bb-4998-82a2-b01f83a54de1","system_id":"levelo_inurba_marseille","lat":43.30159,"lon":5.381,"is_reserved":false,"is_disabled":false,"rental_uris":{"android":"levelo://app?vid=e314bc56-f5bb-4998-82a2-b01f83a54de1","ios":"levelo://app?vid=e314bc56-f5bb-4998-82a2-b01f83a54de1"},"vehicle_type_id":"4","last_reported":1732878492,"current_range_meters":38400,"station_id":"ce4bgjp2rcd13ifvqbh0","pricing_plan_id":"cebpf4jnsgd1na2vs0mg"},{"bike_id":"4709c438-f4af-415a-a919-d27302b75dca","system_id":"levelo_inurba_marseille","lat":43.23194,"lon":5.35553,"is_reserved":false,"is_disabled":false,"rental_uris":{"android":"levelo://app?vid=4709c438-f4af-415a-a919-d27302b75dca","ios":"levelo://app?vid=4709c438-f4af-415a-a919-d27302b75dca"},"vehicle_type_id":"4","last_reported":1732878492,"current_range_meters":38800,"station_id":"ce4bhu92rcd13ifvqi70","pricing_plan_id":"cebpf4jnsgd1na2vs0mg"},{"bike_id":"0526a8ec-d506-41cb-b00f-7a88f090c600","system_id":"levelo_inurba_marseille","lat":43.27368,"lon":5.36248,"is_reserved":false,"is_disabled":true,"rental_uris":{"android":"levelo://app?vid=0526a8ec-d506-41cb-b00f-7a88f090c600","ios":"levelo://app?vid=0526a8ec-d506-41cb-b00f-7a88f090c600"},"vehicle_type_id":"4","last_reported":1732878492,"current_range_meters":39200,"station_id":"ce4bhbh2rcd13ifvqeo0","pricing_plan_id":"cebpf4jnsgd1na2vs0mg"},{"bike_id":"c34ed66a-f76b-46d6-b519-b3726d77f086","system_id":"levelo_inurba_marseille","lat":43.26779,"lon":5.40227,"is_reserved":false,"is_disabled":false,"rental_uris":{"android":"levelo://app?vid=c34ed66a-f76b-46d6-b519-b3726d77f086","ios":"levelo://app?vid=c34ed66a-f76b-46d6-b519-b3726d77f086"},"vehicle_type_id":"4","last_reported":1732878492,"current_range_meters":40000,"station_id":"ce501612rcd8frsf0b60","pricing_plan_id":"cebpf4jnsgd1na2vs0mg"},{"bike_id":"d21ca66c-8ebf-40a8-bc6f-8cae0c8b6834","system_id":"levelo_inurba_marseille","lat":43.26938,"lon":5.38929,"is_reserved":false,"is_disabled":false,"rental_uris":{"android":"levelo://app?vid=d21ca66c-8ebf-40a8-bc6f-8cae0c8b6834","ios":"levelo://app?vid=d21ca66c-8ebf-40a8-bc6f-8cae0c8b6834"},"vehicle_type_id":"4","last_reported":1732878492,"current_range_meters":10800,"station_id":"ce4bhhh2rcd13ifvqfl0","pricing_plan_id":"cebpf4jnsgd1na2vs0mg"},{"bike_id":"2c2dbeed-d8b9-4443-8bc1-facb2c0b2be9","system_id":"levelo_inurba_marseille","lat":43.30438,"lon":5.36888,"is_reserved":false,"is_disabled":false,"rental_uris":{"android":"levelo://app?vid=2c2dbeed-d8b9-4443-8bc1-facb2c0b2be9","ios":"levelo://app?vid=2c2dbeed-d8b9-4443-8bc1-facb2c0b2be9"},"vehicle_type_id":"4","last_reported":1732878492,"current_range_meters":8400,"station_id":"","pricing_plan_id":"cebpf4jnsgd1na2vs0mg"},{"bike_id":"3ebee17b-5bca-414d-a238-d7a261532e46","system_id":"levelo_inurba_marseille","lat":43.30091,"lon":5.39098,"is_reserved":false,"is_disabled":false,"rental_uris":{"android":"levelo://app?vid=3ebee17b-5bca-414d-a238-d7a261532e46","ios":"levelo://app?vid=3ebee17b-5bca-414d-a238-d7a261532e46"},"vehicle_type_id":"4","last_reported":1732878492,"current_range_meters":38800,"station_id":"ce4bh192rcd13ifvqdb0","pricing_plan_id":"cebpf4jnsgd1na2vs0mg"},{"bike_id":"b28014a7-a63c-406e-b5d1-48d1d3d6c750","system_id":"levelo_inurba_marseille","lat":43.2958,"lon":5.37513,"is_reserved":false,"is_disabled":false,"rental_uris":{"android":"levelo://app?vid=b28014a7-a63c-406e-b5d1-48d1d3d6c750","ios":"levelo://app?vid=b28014a7-a63c-406e-b5d1-48d1d3d6c750"},"vehicle_type_id":"4","last_reported":1732878492,"current_range_meters":23200,"station_id":"ce4bgh92rcd13ifvqb50","pricing_plan_id":"cebpf4jnsgd1na2vs0mg"},{"bike_id":"bca85837-2438-4c43-b262-011ddc8b0e5a","system_id":"levelo_inurba_marseille","lat":43.26194,"lon":5.37447,"is_reserved":false,"is_disabled":false,"rental_uris":{"android":"levelo://app?vid=bca85837-2438-4c43-b262-011ddc8b0e5a","ios":"levelo://app?vid=bca85837-2438-4c43-b262-011ddc8b0e5a"},"vehicle_type_id":"4","last_reported":1732878492,"current_range_meters":36800,"station_id":"ce4bhgp2rcd13ifvqfc0","pricing_plan_id":"cebpf4jnsgd1na2vs0mg"},{"bike_id":"ffa4a609-12c2-4bcb-a232-bff214294d68","system_id":"levelo_inurba_marseille","lat":43.26208,"lon":5.3792,"is_reserved":false,"is_disabled":false,"rental_uris":{"android":"levelo://app?vid=ffa4a609-12c2-4bcb-a232-bff214294d68","ios":"levelo://app?vid=ffa4a609-12c2-4bcb-a232-bff214294d68"},"vehicle_type_id":"4","last_reported":1732878492,"current_range_meters":36800,"station_id":"ce4bhjp2rcd13ifvqg90","pricing_plan_id":"cebpf4jnsgd1na2vs0mg"},{"bike_id":"d43bcf0d-16aa-4132-bee9-932c9bcef8f2","system_id":"levelo_inurba_marseille","lat":43.32359,"lon":5.3889,"is_reserved":false,"is_disabled":false,"rental_uris":{"android":"levelo://app?vid=d43bcf0d-16aa-4132-bee9-932c9bcef8f2","ios":"levelo://app?vid=d43bcf0d-16aa-4132-bee9-932c9bcef8f2"},"vehicle_type_id":"4","last_reported":1732878492,"current_range_meters":38000,"station_id":"ce4bhqp2rcd13ifvqhog","pricing_plan_id":"cebpf4jnsgd1na2vs0mg"},{"bike_id":"6df3da03-3ee3-455e-9ad8-00eaeb748be0","system_id":"levelo_inurba_marseille","lat":43.2848,"lon":5.38403,"is_reserved":false,"is_disabled":true,"rental_uris":{"android":"levelo://app?vid=6df3da03-3ee3-455e-9ad8-00eaeb748be0","ios":"levelo://app?vid=6df3da03-3ee3-455e-9ad8-00eaeb748be0"},"vehicle_type_id":"4","last_reported":1732878492,"current_range_meters":1600,"station_id":"ce4bh512rcd13ifvqe3g","pricing_plan_id":"cebpf4jnsgd1na2vs0mg"},{"bike_id":"4035e70a-9b35-49ff-8763-9565717e2e74","system_id":"levelo_inurba_marseille","lat":43.28463,"lon":5.3589,"is_reserved":false,"is_disabled":true,"rental_uris":{"android":"levelo://app?vid=4035e70a-9b35-49ff-8763-9565717e2e74","ios":"levelo://app?vid=4035e70a-9b35-49ff-8763-9565717e2e74"},"vehicle_type_id":"4","last_reported":1732878492,"current_range_meters":9600,"station_id":"ce4bhah2rcd13ifvqei0","pricing_plan_id":"cebpf4jnsgd1na2vs0mg"},{"bike_id":"bc749360-3ce4-4dd6-a0ac-83aa82c323a7","system_id":"levelo_inurba_marseille","lat":43.28148,"lon":5.42639,"is_reserved":false,"is_disabled":true,"rental_uris":{"android":"levelo://app?vid=bc749360-3ce4-4dd6-a0ac-83aa82c323a7","ios":"levelo://app?vid=bc749360-3ce4-4dd6-a0ac-83aa82c323a7"},"vehicle_type_id":"4","last_reported":1732878492,"current_range_meters":39200,"station_id":"ce4bhnh2rcd13ifvqgug","pricing_plan_id":"cebpf4jnsgd1na2vs0mg"},{"bike_id":"43b2c81d-b563-4077-b239-4912efcff6f5","system_id":"levelo_inurba_marseille","lat":43.30255,"lon":5.40079,"is_reserved":false,"is_disabled":false,"rental_uris":{"android":"levelo://app?vid=43b2c81d-b563-4077-b239-4912efcff6f5","ios":"levelo://app?vid=43b2c81d-b563-4077-b239-4912efcff6f5"},"vehicle_type_id":"4","last_reported":1732878492,"current_range_meters":33600,"station_id":"ce4bgvh2rcd13ifvqcs0","pricing_plan_id":"cebpf4jnsgd1na2vs0mg"},{"bike_id":"4d4c884f-6933-49c0-8899-f9856d90f44d","system_id":"levelo_inurba_marseille","lat":43.29748,"lon":5.37971,"is_reserved":false,"is_disabled":true,"rental_uris":{"android":"levelo://app?vid=4d4c884f-6933-49c0-8899-f9856d90f44d","ios":"levelo://app?vid=4d4c884f-6933-49c0-8899-f9856d90f44d"},"vehicle_type_id":"4","last_reported":1732878492,"current_range_meters":0,"station_id":"","pricing_plan_id":"cebpf4jnsgd1na2vs0mg"},{"bike_id":"0a6a01b8-ebc9-4549-9bc8-25449ed3a98c","system_id":"levelo_inurba_marseille","lat":43.31991,"lon":5.38146,"is_reserved":false,"is_disabled":false,"rental_uris":{"android":"levelo://app?vid=0a6a01b8-ebc9-4549-9bc8-25449ed3a98c","ios":"levelo://app?vid=0a6a01b8-ebc9-4549-9bc8-25449ed3a98c"},"vehicle_type_id":"4","last_reported":1732878492,"current_range_meters":24000,"station_id":"ce4bhr12rcd13ifvqhpg","pricing_plan_id":"cebpf4jnsgd1na2vs0mg"},{"bike_id":"c0f15992-b46b-4d5d-b51a-6ffcfd467d33","system_id":"levelo_inurba_marseille","lat":43.28406,"lon":5.37507,"is_reserved":false,"is_disabled":false,"rental_uris":{"android":"levelo://app?vid=c0f15992-b46b-4d5d-b51a-6ffcfd467d33","ios":"levelo://app?vid=c0f15992-b46b-4d5d-b51a-6ffcfd467d33"},"vehicle_type_id":"4","last_reported":1732878492,"current_range_meters":5600,"station_id":"ce4bh412rcd13ifvqds0","pricing_plan_id":"cebpf4jnsgd1na2vs0mg"},{"bike_id":"02895370-c40c-4c5d-869e-dbb8ac908e5c","system_id":"levelo_inurba_marseille","lat":43.27177,"lon":5.40998,"is_reserved":false,"is_disabled":false,"rental_uris":{"android":"levelo://app?vid=02895370-c40c-4c5d-869e-dbb8ac908e5c","ios":"levelo://app?vid=02895370-c40c-4c5d-869e-dbb8ac908e5c"},"vehicle_type_id":"4","last_reported":1732878492,"current_range_meters":37600,"station_id":"ce4bhl12rcd13ifvqgf0","pricing_plan_id":"cebpf4jnsgd1na2vs0mg"},{"bike_id":"9009be37-c6b1-406b-b0a8-fbab355f715e","system_id":"levelo_inurba_marseille","lat":43.33767,"lon":5.37492,"is_reserved":false,"is_disabled":false,"rental_uris":{"android":"levelo://app?vid=9009be37-c6b1-406b-b0a8-fbab355f715e","ios":"levelo://app?vid=9009be37-c6b1-406b-b0a8-fbab355f715e"},"vehicle_type_id":"4","last_reported":1732878492,"current_range_meters":36800,"station_id":"","pricing_plan_id":"cebpf4jnsgd1na2vs0mg"},{"bike_id":"5b19fdd8-7af2-4dcf-91cb-f9ee5bb5e91a","system_id":"levelo_inurba_marseille","lat":43.29166,"lon":5.37154,"is_reserved":false,"is_disabled":true,"rental_uris":{"android":"levelo://app?vid=5b19fdd8-7af2-4dcf-91cb-f9ee5bb5e91a","ios":"levelo://app?vid=5b19fdd8-7af2-4dcf-91cb-f9ee5bb5e91a"},"vehicle_type_id":"4","last_reported":1732878492,"current_range_meters":23200,"station_id":"ce4bha92rcd13ifvqeh0","pricing_plan_id":"cebpf4jnsgd1na2vs0mg"},{"bike_id":"5f433b1c-0e0f-43b4-a0b0-55b89bfd72f5","system_id":"levelo_inurba_marseille","lat":43.33601,"lon":5.41019,"is_reserved":false,"is_disabled":false,"rental_uris":{"android":"levelo://app?vid=5f433b1c-0e0f-43b4-a0b0-55b89bfd72f5","ios":"levelo://app?vid=5f433b1c-0e0f-43b4-a0b0-55b89bfd72f5"},"vehicle_type_id":"4","last_reported":1732878492,"current_range_meters":21600,"station_id":"ce4bhqh2rcd13ifvqhmg","pricing_plan_id":"cebpf4jnsgd1na2vs0mg"},{"bike_id":"9589002c-1bab-46c5-9d09-a7efb8d9d194","system_id":"levelo_inurba_marseille","lat":43.28465,"lon":5.34972,"is_reserved":false,"is_disabled":false,"rental_uris":{"android":"levelo://app?vid=9589002c-1bab-46c5-9d09-a7efb8d9d194","ios":"levelo://app?vid=9589002c-1bab-46c5-9d09-a7efb8d9d194"},"vehicle_type_id":"4","last_reported":1732878492,"current_range_meters":22800,"station_id":"ce4bhbh2rcd13ifvqepg","pricing_plan_id":"cebpf4jnsgd1na2vs0mg"},{"bike_id":"21cd2e66-c8f5-43b5-ba36-1906919e4eb2","system_id":"levelo_inurba_marseille","lat":43.29702,"lon":5.36619,"is_reserved":false,"is_disabled":false,"rental_uris":{"android":"levelo://app?vid=21cd2e66-c8f5-43b5-ba36-1906919e4eb2","ios":"levelo://app?vid=21cd2e66-c8f5-43b5-ba36-1906919e4eb2"},"vehicle_type_id":"4","last_reported":1732878492,"current_range_meters":35200,"station_id":"ce4bgn12rcd13ifvqbt0","pricing_plan_id":"cebpf4jnsgd1na2vs0mg"},{"bike_id":"c0e8c0c5-8cf0-4bea-b3b2-c88efdc8014a","system_id":"levelo_inurba_marseille","lat":43.32364,"lon":5.38879,"is_reserved":false,"is_disabled":false,"rental_uris":{"android":"levelo://app?vid=c0e8c0c5-8cf0-4bea-b3b2-c88efdc8014a","ios":"levelo://app?vid=c0e8c0c5-8cf0-4bea-b3b2-c88efdc8014a"},"vehicle_type_id":"4","last_reported":1732878492,"current_range_meters":24800,"station_id":"ce4bhqp2rcd13ifvqhog","pricing_plan_id":"cebpf4jnsgd1na2vs0mg"},{"bike_id":"e7a47070-ab70-4185-9b1c-3806811206dd","system_id":"levelo_inurba_marseille","lat":43.337444,"lon":5.374475,"is_reserved":false,"is_disabled":false,"rental_uris":{"android":"levelo://app?vid=e7a47070-ab70-4185-9b1c-3806811206dd","ios":"levelo://app?vid=e7a47070-ab70-4185-9b1c-3806811206dd"},"vehicle_type_id":"4","last_reported":1732878492,"current_range_meters":13600,"station_id":"ce4bhm12rcd13ifvqgkg","pricing_plan_id":"cebpf4jnsgd1na2vs0mg"},{"bike_id":"4cd79fb1-29e9-4453-8446-eea81ab019c0","system_id":"levelo_inurba_marseille","lat":43.3376,"lon":5.3749,"is_reserved":false,"is_disabled":false,"rental_uris":{"android":"levelo://app?vid=4cd79fb1-29e9-4453-8446-eea81ab019c0","ios":"levelo://app?vid=4cd79fb1-29e9-4453-8446-eea81ab019c0"},"vehicle_type_id":"4","last_reported":1732878492,"current_range_meters":16400,"station_id":"","pricing_plan_id":"cebpf4jnsgd1na2vs0mg"},{"bike_id":"da013d0b-5c65-431f-85fe-c77644e1d023","system_id":"levelo_inurba_marseille","lat":43.30944,"lon":5.39032,"is_reserved":false,"is_disabled":false,"rental_uris":{"android":"levelo://app?vid=da013d0b-5c65-431f-85fe-c77644e1d023","ios":"levelo://app?vid=da013d0b-5c65-431f-85fe-c77644e1d023"},"vehicle_type_id":"4","last_reported":1732878492,"current_range_meters":16400,"station_id":"ce4bgup2rcd13ifvqco0","pricing_plan_id":"cebpf4jnsgd1na2vs0mg"},{"bike_id":"e6b2f1c6-7134-48b6-9cab-7e5e090c50a5","system_id":"levelo_inurba_marseille","lat":43.2582,"lon":5.39433,"is_reserved":false,"is_disabled":false,"rental_uris":{"android":"levelo://app?vid=e6b2f1c6-7134-48b6-9cab-7e5e090c50a5","ios":"levelo://app?vid=e6b2f1c6-7134-48b6-9cab-7e5e090c50a5"},"vehicle_type_id":"4","last_reported":1732878492,"current_range_meters":25600,"station_id":"ce4bhip2rcd13ifvqft0","pricing_plan_id":"cebpf4jnsgd1na2vs0mg"},{"bike_id":"6c9caa72-ea9c-4937-b745-357e728cf598","system_id":"levelo_inurba_marseille","lat":43.27617,"lon":5.3611,"is_reserved":false,"is_disabled":true,"rental_uris":{"android":"levelo://app?vid=6c9caa72-ea9c-4937-b745-357e728cf598","ios":"levelo://app?vid=6c9caa72-ea9c-4937-b745-357e728cf598"},"vehicle_type_id":"4","last_reported":1732878492,"current_range_meters":38800,"station_id":"ce4bgj92rcd13ifvqbe0","pricing_plan_id":"cebpf4jnsgd1na2vs0mg"},{"bike_id":"7b8aea46-72de-4460-b381-9f6c0940641a","system_id":"levelo_inurba_marseille","lat":43.26572,"lon":5.39007,"is_reserved":false,"is_disabled":false,"rental_uris":{"android":"levelo://app?vid=7b8aea46-72de-4460-b381-9f6c0940641a","ios":"levelo://app?vid=7b8aea46-72de-4460-b381-9f6c0940641a"},"vehicle_type_id":"4","last_reported":1732878492,"current_range_meters":38000,"station_id":"ce4bhe12rcd13ifvqf30","pricing_plan_id":"cebpf4jnsgd1na2vs0mg"},{"bike_id":"f62a5fa2-9173-4ac1-b63a-4a63811fbef9","system_id":"levelo_inurba_marseille","lat":43.25929,"lon":5.409,"is_reserved":false,"is_disabled":false,"rental_uris":{"android":"levelo://app?vid=f62a5fa2-9173-4ac1-b63a-4a63811fbef9","ios":"levelo://app?vid=f62a5fa2-9173-4ac1-b63a-4a63811fbef9"},"vehicle_type_id":"4","last_reported":1732878492,"current_range_meters":19200,"station_id":"ce4bhm92rcd13ifvqglg","pricing_plan_id":"cebpf4jnsgd1na2vs0mg"},{"bike_id":"846114fa-9612-44a5-8823-a49a13001982","system_id":"levelo_inurba_marseille","lat":43.25816,"lon":5.3943,"is_reserved":false,"is_disabled":false,"rental_uris":{"android":"levelo://app?vid=846114fa-9612-44a5-8823-a49a13001982","ios":"levelo://app?vid=846114fa-9612-44a5-8823-a49a13001982"},"vehicle_type_id":"4","last_reported":1732878492,"current_range_meters":38800,"station_id":"ce4bhip2rcd13ifvqft0","pricing_plan_id":"cebpf4jnsgd1na2vs0mg"},{"bike_id":"e8fa7be1-2407-41a7-b843-e7c70f1917ef","system_id":"levelo_inurba_marseille","lat":43.2761,"lon":5.36109,"is_reserved":false,"is_disabled":true,"rental_uris":{"android":"levelo://app?vid=e8fa7be1-2407-41a7-b843-e7c70f1917ef","ios":"levelo://app?vid=e8fa7be1-2407-41a7-b843-e7c70f1917ef"},"vehicle_type_id":"4","last_reported":1732878492,"current_range_meters":0,"station_id":"ce4bgj92rcd13ifvqbe0","pricing_plan_id":"cebpf4jnsgd1na2vs0mg"},{"bike_id":"e8682ae9-58b3-463d-845c-36a43c43fdee","system_id":"levelo_inurba_marseille","lat":43.28108,"lon":5.37829,"is_reserved":false,"is_disabled":false,"rental_uris":{"android":"levelo://app?vid=e8682ae9-58b3-463d-845c-36a43c43fdee","ios":"levelo://app?vid=e8682ae9-58b3-463d-845c-36a43c43fdee"},"vehicle_type_id":"4","last_reported":1732878492,"current_range_meters":38000,"station_id":"ce4bha12rcd13ifvqee0","pricing_plan_id":"cebpf4jnsgd1na2vs0mg"},{"bike_id":"04151390-4806-4e4e-8288-4bb06cadcb10","system_id":"levelo_inurba_marseille","lat":43.29792,"lon":5.38093,"is_reserved":false,"is_disabled":true,"rental_uris":{"android":"levelo://app?vid=04151390-4806-4e4e-8288-4bb06cadcb10","ios":"levelo://app?vid=04151390-4806-4e4e-8288-4bb06cadcb10"},"vehicle_type_id":"4","last_reported":1732878492,"current_range_meters":38800,"station_id":"ce4bgip2rcd13ifvqbb0","pricing_plan_id":"cebpf4jnsgd1na2vs0mg"},{"bike_id":"d6a0ff66-87dd-49de-a09b-bea530d1c972","system_id":"levelo_inurba_marseille","lat":43.25576,"lon":5.38245,"is_reserved":false,"is_disabled":true,"rental_uris":{"android":"levelo://app?vid=d6a0ff66-87dd-49de-a09b-bea530d1c972","ios":"levelo://app?vid=d6a0ff66-87dd-49de-a09b-bea530d1c972"},"vehicle_type_id":"4","last_reported":1732878492,"current_range_meters":33200,"station_id":"ce4bhih2rcd13ifvqfs0","pricing_plan_id":"cebpf4jnsgd1na2vs0mg"},{"bike_id":"abb27987-06e3-493c-ad0f-97468f208377","system_id":"levelo_inurba_marseille","lat":43.29373,"lon":5.37858,"is_reserved":false,"is_disabled":false,"rental_uris":{"android":"levelo://app?vid=abb27987-06e3-493c-ad0f-97468f208377","ios":"levelo://app?vid=abb27987-06e3-493c-ad0f-97468f208377"},"vehicle_type_id":"4","last_reported":1732878492,"current_range_meters":30800,"station_id":"ce4bgjh2rcd13ifvqbf0","pricing_plan_id":"cebpf4jnsgd1na2vs0mg"},{"bike_id":"372c7543-f7d2-42e7-854f-224b9bb0cb78","system_id":"levelo_inurba_marseille","lat":43.32654,"lon":5.40994,"is_reserved":false,"is_disabled":false,"rental_uris":{"android":"levelo://app?vid=372c7543-f7d2-42e7-854f-224b9bb0cb78","ios":"levelo://app?vid=372c7543-f7d2-42e7-854f-224b9bb0cb78"},"vehicle_type_id":"4","last_reported":1732878492,"current_range_meters":30800,"station_id":"ce4bhpp2rcd13ifvqhgg","pricing_plan_id":"cebpf4jnsgd1na2vs0mg"},{"bike_id":"3ca8d527-6c31-4160-8bc9-0dbae13780f9","system_id":"levelo_inurba_marseille","lat":43.28459,"lon":5.35897,"is_reserved":false,"is_disabled":true,"rental_uris":{"android":"levelo://app?vid=3ca8d527-6c31-4160-8bc9-0dbae13780f9","ios":"levelo://app?vid=3ca8d527-6c31-4160-8bc9-0dbae13780f9"},"vehicle_type_id":"4","last_reported":1732878492,"current_range_meters":24000,"station_id":"ce4bhah2rcd13ifvqei0","pricing_plan_id":"cebpf4jnsgd1na2vs0mg"},{"bike_id":"325fbcc4-a4bc-43ae-8d64-c177be6e0441","system_id":"levelo_inurba_marseille","lat":43.27987,"lon":5.41664,"is_reserved":false,"is_disabled":false,"rental_uris":{"android":"levelo://app?vid=325fbcc4-a4bc-43ae-8d64-c177be6e0441","ios":"levelo://app?vid=325fbcc4-a4bc-43ae-8d64-c177be6e0441"},"vehicle_type_id":"4","last_reported":1732878492,"current_range_meters":30000,"station_id":"ce4bho12rcd13ifvqh1g","pricing_plan_id":"cebpf4jnsgd1na2vs0mg"},{"bike_id":"f790fe4e-68f3-45cf-b184-d74ee8388636","system_id":"levelo_inurba_marseille","lat":43.27493,"lon":5.42457,"is_reserved":false,"is_disabled":false,"rental_uris":{"android":"levelo://app?vid=f790fe4e-68f3-45cf-b184-d74ee8388636","ios":"levelo://app?vid=f790fe4e-68f3-45cf-b184-d74ee8388636"},"vehicle_type_id":"4","last_reported":1732878492,"current_range_meters":4400,"station_id":"ce4bhn92rcd13ifvqgrg","pricing_plan_id":"cebpf4jnsgd1na2vs0mg"},{"bike_id":"16fb8e17-b179-4d5a-add7-fbd05efe76fb","system_id":"levelo_inurba_marseille","lat":43.25927,"lon":5.40906,"is_reserved":false,"is_disabled":true,"rental_uris":{"android":"levelo://app?vid=16fb8e17-b179-4d5a-add7-fbd05efe76fb","ios":"levelo://app?vid=16fb8e17-b179-4d5a-add7-fbd05efe76fb"},"vehicle_type_id":"4","last_reported":1732878492,"current_range_meters":16400,"station_id":"ce4bhm92rcd13ifvqglg","pricing_plan_id":"cebpf4jnsgd1na2vs0mg"},{"bike_id":"f7e42eb9-c18b-4cbf-a761-298f15e4ba18","system_id":"levelo_inurba_marseille","lat":43.28566,"lon":5.3949,"is_reserved":false,"is_disabled":false,"rental_uris":{"android":"levelo://app?vid=f7e42eb9-c18b-4cbf-a761-298f15e4ba18","ios":"levelo://app?vid=f7e42eb9-c18b-4cbf-a761-298f15e4ba18"},"vehicle_type_id":"4","last_reported":1732878492,"current_range_meters":38000,"station_id":"ce4bh292rcd13ifvqdg0","pricing_plan_id":"cebpf4jnsgd1na2vs0mg"},{"bike_id":"ad7e43b9-6be5-45e8-bc63-d3005e4bdd81","system_id":"levelo_inurba_marseille","lat":43.29624,"lon":5.40596,"is_reserved":false,"is_disabled":false,"rental_uris":{"android":"levelo://app?vid=ad7e43b9-6be5-45e8-bc63-d3005e4bdd81","ios":"levelo://app?vid=ad7e43b9-6be5-45e8-bc63-d3005e4bdd81"},"vehicle_type_id":"4","last_reported":1732878492,"current_range_meters":39200,"station_id":"ce4bh0h2rcd13ifvqd60","pricing_plan_id":"cebpf4jnsgd1na2vs0mg"},{"bike_id":"f9f279cc-03ce-4144-bdc3-10e6ec0b5486","system_id":"levelo_inurba_marseille","lat":43.24661,"lon":5.38161,"is_reserved":false,"is_disabled":false,"rental_uris":{"android":"levelo://app?vid=f9f279cc-03ce-4144-bdc3-10e6ec0b5486","ios":"levelo://app?vid=f9f279cc-03ce-4144-bdc3-10e6ec0b5486"},"vehicle_type_id":"4","last_reported":1732878492,"current_range_meters":23200,"station_id":"ce4bhih2rcd13ifvqfr0","pricing_plan_id":"cebpf4jnsgd1na2vs0mg"},{"bike_id":"b883220f-ab87-4f0c-8233-cd89467977a7","system_id":"levelo_inurba_marseille","lat":43.25866,"lon":5.39901,"is_reserved":false,"is_disabled":false,"rental_uris":{"android":"levelo://app?vid=b883220f-ab87-4f0c-8233-cd89467977a7","ios":"levelo://app?vid=b883220f-ab87-4f0c-8233-cd89467977a7"},"vehicle_type_id":"4","last_reported":1732878492,"current_range_meters":36800,"station_id":"ce4bhl92rcd13ifvqghg","pricing_plan_id":"cebpf4jnsgd1na2vs0mg"},{"bike_id":"8c199678-58de-40fe-8ff6-9c176228f61c","system_id":"levelo_inurba_marseille","lat":43.24996,"lon":5.38932,"is_reserved":false,"is_disabled":false,"rental_uris":{"android":"levelo://app?vid=8c199678-58de-40fe-8ff6-9c176228f61c","ios":"levelo://app?vid=8c199678-58de-40fe-8ff6-9c176228f61c"},"vehicle_type_id":"4","last_reported":1732878492,"current_range_meters":16400,"station_id":"ce4bhgp2rcd13ifvqfd0","pricing_plan_id":"cebpf4jnsgd1na2vs0mg"},{"bike_id":"87a20c3c-65d4-407c-8eaf-fd2e0980a57a","system_id":"levelo_inurba_marseille","lat":43.33111,"lon":5.38227,"is_reserved":false,"is_disabled":false,"rental_uris":{"android":"levelo://app?vid=87a20c3c-65d4-407c-8eaf-fd2e0980a57a","ios":"levelo://app?vid=87a20c3c-65d4-407c-8eaf-fd2e0980a57a"},"vehicle_type_id":"4","last_reported":1732878492,"current_range_meters":16400,"station_id":"","pricing_plan_id":"cebpf4jnsgd1na2vs0mg"},{"bike_id":"91475a11-c126-482c-88c0-39201ca2c9ce","system_id":"levelo_inurba_marseille","lat":43.28273,"lon":5.35067,"is_reserved":false,"is_disabled":false,"rental_uris":{"android":"levelo://app?vid=91475a11-c126-482c-88c0-39201ca2c9ce","ios":"levelo://app?vid=91475a11-c126-482c-88c0-39201ca2c9ce"},"vehicle_type_id":"4","last_reported":1732878492,"current_range_meters":35600,"station_id":"ce4bhbp2rcd13ifvqerg","pricing_plan_id":"cebpf4jnsgd1na2vs0mg"},{"bike_id":"2b1cb859-58d3-4d7d-876f-d01f2a6d168f","system_id":"levelo_inurba_marseille","lat":43.2931,"lon":5.37454,"is_reserved":false,"is_disabled":false,"rental_uris":{"android":"levelo://app?vid=2b1cb859-58d3-4d7d-876f-d01f2a6d168f","ios":"levelo://app?vid=2b1cb859-58d3-4d7d-876f-d01f2a6d168f"},"vehicle_type_id":"4","last_reported":1732878492,"current_range_meters":16000,"station_id":"ce4bgi12rcd13ifvqb70","pricing_plan_id":"cebpf4jnsgd1na2vs0mg"},{"bike_id":"6d36c8f0-b76c-4a42-89c1-c82a97920aee","system_id":"levelo_inurba_marseille","lat":43.30325,"lon":5.40437,"is_reserved":false,"is_disabled":false,"rental_uris":{"android":"levelo://app?vid=6d36c8f0-b76c-4a42-89c1-c82a97920aee","ios":"levelo://app?vid=6d36c8f0-b76c-4a42-89c1-c82a97920aee"},"vehicle_type_id":"4","last_reported":1732878492,"current_range_meters":9200,"station_id":"ce4bh012rcd13ifvqd10","pricing_plan_id":"cebpf4jnsgd1na2vs0mg"},{"bike_id":"194448b9-97c4-4630-a9c4-2f0eb8e4f231","system_id":"levelo_inurba_marseille","lat":43.32543,"lon":5.41421,"is_reserved":false,"is_disabled":false,"rental_uris":{"android":"levelo://app?vid=194448b9-97c4-4630-a9c4-2f0eb8e4f231","ios":"levelo://app?vid=194448b9-97c4-4630-a9c4-2f0eb8e4f231"},"vehicle_type_id":"4","last_reported":1732878492,"current_range_meters":5600,"station_id":"ce4bhq12rcd13ifvqhhg","pricing_plan_id":"cebpf4jnsgd1na2vs0mg"},{"bike_id":"6eaf9167-5116-4163-8b77-e0e9e5b35c42","system_id":"levelo_inurba_marseille","lat":43.2396,"lon":5.36645,"is_reserved":false,"is_disabled":false,"rental_uris":{"android":"levelo://app?vid=6eaf9167-5116-4163-8b77-e0e9e5b35c42","ios":"levelo://app?vid=6eaf9167-5116-4163-8b77-e0e9e5b35c42"},"vehicle_type_id":"4","last_reported":1732878492,"current_range_meters":37600,"station_id":"ce4bhi12rcd13ifvqfp0","pricing_plan_id":"cebpf4jnsgd1na2vs0mg"},{"bike_id":"81d9f7be-c3c6-4233-bf11-948e6f22debc","system_id":"levelo_inurba_marseille","lat":43.32365,"lon":5.38877,"is_reserved":false,"is_disabled":false,"rental_uris":{"android":"levelo://app?vid=81d9f7be-c3c6-4233-bf11-948e6f22debc","ios":"levelo://app?vid=81d9f7be-c3c6-4233-bf11-948e6f22debc"},"vehicle_type_id":"4","last_reported":1732878492,"current_range_meters":37600,"station_id":"ce4bhqp2rcd13ifvqhog","pricing_plan_id":"cebpf4jnsgd1na2vs0mg"},{"bike_id":"7fe8aae4-e2fd-45e8-ad84-418c66f3914f","system_id":"levelo_inurba_marseille","lat":43.33767,"lon":5.37478,"is_reserved":false,"is_disabled":true,"rental_uris":{"android":"levelo://app?vid=7fe8aae4-e2fd-45e8-ad84-418c66f3914f","ios":"levelo://app?vid=7fe8aae4-e2fd-45e8-ad84-418c66f3914f"},"vehicle_type_id":"4","last_reported":1732878492,"current_range_meters":7200,"station_id":"","pricing_plan_id":"cebpf4jnsgd1na2vs0mg"},{"bike_id":"496b7997-3471-4e3e-a875-c2b0b24aca4c","system_id":"levelo_inurba_marseille","lat":43.30142,"lon":5.38785,"is_reserved":false,"is_disabled":false,"rental_uris":{"android":"levelo://app?vid=496b7997-3471-4e3e-a875-c2b0b24aca4c","ios":"levelo://app?vid=496b7997-3471-4e3e-a875-c2b0b24aca4c"},"vehicle_type_id":"4","last_reported":1732878492,"current_range_meters":28000,"station_id":"ce4bghh2rcd13ifvqb60","pricing_plan_id":"cebpf4jnsgd1na2vs0mg"},{"bike_id":"62dd7d8f-a826-42c9-8798-d871fa21b979","system_id":"levelo_inurba_marseille","lat":43.31353,"lon":5.36716,"is_reserved":false,"is_disabled":false,"rental_uris":{"android":"levelo://app?vid=62dd7d8f-a826-42c9-8798-d871fa21b979","ios":"levelo://app?vid=62dd7d8f-a826-42c9-8798-d871fa21b979"},"vehicle_type_id":"4","last_reported":1732878492,"current_range_meters":19600,"station_id":"ce4bgr92rcd13ifvqc6g","pricing_plan_id":"cebpf4jnsgd1na2vs0mg"},{"bike_id":"47a2ba11-f366-4d82-a3a2-4ca7aca7d0b2","system_id":"levelo_inurba_marseille","lat":43.30617,"lon":5.37221,"is_reserved":false,"is_disabled":false,"rental_uris":{"android":"levelo://app?vid=47a2ba11-f366-4d82-a3a2-4ca7aca7d0b2","ios":"levelo://app?vid=47a2ba11-f366-4d82-a3a2-4ca7aca7d0b2"},"vehicle_type_id":"4","last_reported":1732878492,"current_range_meters":34800,"station_id":"ce4bgqh2rcd13ifvqc4g","pricing_plan_id":"cebpf4jnsgd1na2vs0mg"},{"bike_id":"29a80c71-9648-4a26-b6c9-5f69092eaa01","system_id":"levelo_inurba_marseille","lat":43.27067,"lon":5.42273,"is_reserved":false,"is_disabled":true,"rental_uris":{"android":"levelo://app?vid=29a80c71-9648-4a26-b6c9-5f69092eaa01","ios":"levelo://app?vid=29a80c71-9648-4a26-b6c9-5f69092eaa01"},"vehicle_type_id":"4","last_reported":1732878492,"current_range_meters":38800,"station_id":"ce4bhk92rcd13ifvqgb0","pricing_plan_id":"cebpf4jnsgd1na2vs0mg"},{"bike_id":"6b5ae9b2-9f78-478e-91ff-69b4270219f1","system_id":"levelo_inurba_marseille","lat":43.2827,"lon":5.3507,"is_reserved":false,"is_disabled":false,"rental_uris":{"android":"levelo://app?vid=6b5ae9b2-9f78-478e-91ff-69b4270219f1","ios":"levelo://app?vid=6b5ae9b2-9f78-478e-91ff-69b4270219f1"},"vehicle_type_id":"4","last_reported":1732878492,"current_range_meters":38800,"station_id":"ce4bhbp2rcd13ifvqerg","pricing_plan_id":"cebpf4jnsgd1na2vs0mg"},{"bike_id":"2a60fd72-9cfa-415f-937e-d89edec4f374","system_id":"levelo_inurba_marseille","lat":43.25005,"lon":5.38914,"is_reserved":false,"is_disabled":false,"rental_uris":{"android":"levelo://app?vid=2a60fd72-9cfa-415f-937e-d89edec4f374","ios":"levelo://app?vid=2a60fd72-9cfa-415f-937e-d89edec4f374"},"vehicle_type_id":"4","last_reported":1732878492,"current_range_meters":28000,"station_id":"ce4bhgp2rcd13ifvqfd0","pricing_plan_id":"cebpf4jnsgd1na2vs0mg"},{"bike_id":"5b6140a7-7f65-4ca3-a3f2-419ab04c93da","system_id":"levelo_inurba_marseille","lat":43.22929,"lon":5.35377,"is_reserved":false,"is_disabled":false,"rental_uris":{"android":"levelo://app?vid=5b6140a7-7f65-4ca3-a3f2-419ab04c93da","ios":"levelo://app?vid=5b6140a7-7f65-4ca3-a3f2-419ab04c93da"},"vehicle_type_id":"4","last_reported":1732878492,"current_range_meters":28000,"station_id":"cpo3532slgdg3j2ikp40","pricing_plan_id":"cebpf4jnsgd1na2vs0mg"},{"bike_id":"44dd1b5e-e6a0-4f7a-ab80-f029373bb0db","system_id":"levelo_inurba_marseille","lat":43.29373,"lon":5.37861,"is_reserved":false,"is_disabled":false,"rental_uris":{"android":"levelo://app?vid=44dd1b5e-e6a0-4f7a-ab80-f029373bb0db","ios":"levelo://app?vid=44dd1b5e-e6a0-4f7a-ab80-f029373bb0db"},"vehicle_type_id":"4","last_reported":1732878492,"current_range_meters":13600,"station_id":"ce4bgjh2rcd13ifvqbf0","pricing_plan_id":"cebpf4jnsgd1na2vs0mg"},{"bike_id":"414ced6b-9457-41ed-a305-11df89f57c01","system_id":"levelo_inurba_marseille","lat":43.34144,"lon":5.40905,"is_reserved":false,"is_disabled":false,"rental_uris":{"android":"levelo://app?vid=414ced6b-9457-41ed-a305-11df89f57c01","ios":"levelo://app?vid=414ced6b-9457-41ed-a305-11df89f57c01"},"vehicle_type_id":"4","last_reported":1732878492,"current_range_meters":7200,"station_id":"ce4bhqh2rcd13ifvqhlg","pricing_plan_id":"cebpf4jnsgd1na2vs0mg"},{"bike_id":"64b95c1d-3e64-4c2b-9c8d-b6d2e325dedc","system_id":"levelo_inurba_marseille","lat":43.30946,"lon":5.39041,"is_reserved":false,"is_disabled":false,"rental_uris":{"android":"levelo://app?vid=64b95c1d-3e64-4c2b-9c8d-b6d2e325dedc","ios":"levelo://app?vid=64b95c1d-3e64-4c2b-9c8d-b6d2e325dedc"},"vehicle_type_id":"4","last_reported":1732878492,"current_range_meters":39200,"station_id":"ce4bgup2rcd13ifvqco0","pricing_plan_id":"cebpf4jnsgd1na2vs0mg"},{"bike_id":"bdf92731-d085-4aca-9c06-a8bf8cd225dc","system_id":"levelo_inurba_marseille","lat":43.2928,"lon":5.37154,"is_reserved":false,"is_disabled":false,"rental_uris":{"android":"levelo://app?vid=bdf92731-d085-4aca-9c06-a8bf8cd225dc","ios":"levelo://app?vid=bdf92731-d085-4aca-9c06-a8bf8cd225dc"},"vehicle_type_id":"4","last_reported":1732878492,"current_range_meters":34000,"station_id":"ce4bgh92rcd13ifvqb40","pricing_plan_id":"cebpf4jnsgd1na2vs0mg"},{"bike_id":"759518f4-9f32-4b72-97fe-df61c6c7bd05","system_id":"levelo_inurba_marseille","lat":43.31048,"lon":5.40081,"is_reserved":false,"is_disabled":false,"rental_uris":{"android":"levelo://app?vid=759518f4-9f32-4b72-97fe-df61c6c7bd05","ios":"levelo://app?vid=759518f4-9f32-4b72-97fe-df61c6c7bd05"},"vehicle_type_id":"4","last_reported":1732878492,"current_range_meters":8400,"station_id":"","pricing_plan_id":"cebpf4jnsgd1na2vs0mg"},{"bike_id":"676eaa99-8f60-4d7b-a638-dd0dcbaeede0","system_id":"levelo_inurba_marseille","lat":43.25008,"lon":5.38922,"is_reserved":false,"is_disabled":false,"rental_uris":{"android":"levelo://app?vid=676eaa99-8f60-4d7b-a638-dd0dcbaeede0","ios":"levelo://app?vid=676eaa99-8f60-4d7b-a638-dd0dcbaeede0"},"vehicle_type_id":"4","last_reported":1732878492,"current_range_meters":36400,"station_id":"ce4bhgp2rcd13ifvqfd0","pricing_plan_id":"cebpf4jnsgd1na2vs0mg"},{"bike_id":"7b2580f9-fe78-4e05-b9f4-20a4674bd84f","system_id":"levelo_inurba_marseille","lat":43.31219,"lon":5.36852,"is_reserved":false,"is_disabled":false,"rental_uris":{"android":"levelo://app?vid=7b2580f9-fe78-4e05-b9f4-20a4674bd84f","ios":"levelo://app?vid=7b2580f9-fe78-4e05-b9f4-20a4674bd84f"},"vehicle_type_id":"4","last_reported":1732878492,"current_range_meters":22800,"station_id":"ce4bgl92rcd13ifvqbq0","pricing_plan_id":"cebpf4jnsgd1na2vs0mg"},{"bike_id":"0631c7b3-dcd6-423a-b870-36ebe59297c3","system_id":"levelo_inurba_marseille","lat":43.3091,"lon":5.36844,"is_reserved":false,"is_disabled":false,"rental_uris":{"android":"levelo://app?vid=0631c7b3-dcd6-423a-b870-36ebe59297c3","ios":"levelo://app?vid=0631c7b3-dcd6-423a-b870-36ebe59297c3"},"vehicle_type_id":"4","last_reported":1732878492,"current_range_meters":38800,"station_id":"ce4bgn92rcd13ifvqbvg","pricing_plan_id":"cebpf4jnsgd1na2vs0mg"},{"bike_id":"2278c589-a3e3-4678-a431-058ef37a5b54","system_id":"levelo_inurba_marseille","lat":43.26954,"lon":5.3863,"is_reserved":false,"is_disabled":false,"rental_uris":{"android":"levelo://app?vid=2278c589-a3e3-4678-a431-058ef37a5b54","ios":"levelo://app?vid=2278c589-a3e3-4678-a431-058ef37a5b54"},"vehicle_type_id":"4","last_reported":1732878492,"current_range_meters":38800,"station_id":"ce4bhh92rcd13ifvqfh0","pricing_plan_id":"cebpf4jnsgd1na2vs0mg"},{"bike_id":"7fce7419-c0b8-425e-9902-2db078047745","system_id":"levelo_inurba_marseille","lat":43.29914,"lon":5.37479,"is_reserved":false,"is_disabled":true,"rental_uris":{"android":"levelo://app?vid=7fce7419-c0b8-425e-9902-2db078047745","ios":"levelo://app?vid=7fce7419-c0b8-425e-9902-2db078047745"},"vehicle_type_id":"4","last_reported":1732878492,"current_range_meters":1200,"station_id":"ce4bgjh2rcd13ifvqbg0","pricing_plan_id":"cebpf4jnsgd1na2vs0mg"},{"bike_id":"c36c9719-f2bb-432e-9c6e-4514ff969e45","system_id":"levelo_inurba_marseille","lat":43.30269,"lon":5.37694,"is_reserved":false,"is_disabled":false,"rental_uris":{"android":"levelo://app?vid=c36c9719-f2bb-432e-9c6e-4514ff969e45","ios":"levelo://app?vid=c36c9719-f2bb-432e-9c6e-4514ff969e45"},"vehicle_type_id":"4","last_reported":1732878492,"current_range_meters":26000,"station_id":"ce4bguh2rcd13ifvqcj0","pricing_plan_id":"cebpf4jnsgd1na2vs0mg"},{"bike_id":"b036063e-a5f2-4d26-b4d4-1ff11e0df402","system_id":"levelo_inurba_marseille","lat":43.33607,"lon":5.41033,"is_reserved":false,"is_disabled":false,"rental_uris":{"android":"levelo://app?vid=b036063e-a5f2-4d26-b4d4-1ff11e0df402","ios":"levelo://app?vid=b036063e-a5f2-4d26-b4d4-1ff11e0df402"},"vehicle_type_id":"4","last_reported":1732878492,"current_range_meters":22000,"station_id":"ce4bhqh2rcd13ifvqhmg","pricing_plan_id":"cebpf4jnsgd1na2vs0mg"},{"bike_id":"606f4b92-39a8-4f88-978c-f3ff47b620c4","system_id":"levelo_inurba_marseille","lat":43.27171,"lon":5.4099,"is_reserved":false,"is_disabled":false,"rental_uris":{"android":"levelo://app?vid=606f4b92-39a8-4f88-978c-f3ff47b620c4","ios":"levelo://app?vid=606f4b92-39a8-4f88-978c-f3ff47b620c4"},"vehicle_type_id":"4","last_reported":1732878492,"current_range_meters":18800,"station_id":"ce4bhl12rcd13ifvqgf0","pricing_plan_id":"cebpf4jnsgd1na2vs0mg"},{"bike_id":"5bc7b9c6-34ba-4cef-a2ea-27a47bbe28ec","system_id":"levelo_inurba_marseille","lat":43.30598,"lon":5.37226,"is_reserved":false,"is_disabled":false,"rental_uris":{"android":"levelo://app?vid=5bc7b9c6-34ba-4cef-a2ea-27a47bbe28ec","ios":"levelo://app?vid=5bc7b9c6-34ba-4cef-a2ea-27a47bbe28ec"},"vehicle_type_id":"4","last_reported":1732878492,"current_range_meters":11600,"station_id":"ce4bgqh2rcd13ifvqc4g","pricing_plan_id":"cebpf4jnsgd1na2vs0mg"},{"bike_id":"f3984d95-d513-4bf8-9014-2ffc952b3743","system_id":"levelo_inurba_marseille","lat":43.32106,"lon":5.36779,"is_reserved":false,"is_disabled":false,"rental_uris":{"android":"levelo://app?vid=f3984d95-d513-4bf8-9014-2ffc952b3743","ios":"levelo://app?vid=f3984d95-d513-4bf8-9014-2ffc952b3743"},"vehicle_type_id":"4","last_reported":1732878492,"current_range_meters":36800,"station_id":"ce4bhrh2rcd13ifvqhug","pricing_plan_id":"cebpf4jnsgd1na2vs0mg"},{"bike_id":"2839c06e-dfc6-4bb4-92dd-cd78c43581f0","system_id":"levelo_inurba_marseille","lat":43.23197,"lon":5.35555,"is_reserved":false,"is_disabled":false,"rental_uris":{"android":"levelo://app?vid=2839c06e-dfc6-4bb4-92dd-cd78c43581f0","ios":"levelo://app?vid=2839c06e-dfc6-4bb4-92dd-cd78c43581f0"},"vehicle_type_id":"4","last_reported":1732878492,"current_range_meters":20000,"station_id":"ce4bhu92rcd13ifvqi70","pricing_plan_id":"cebpf4jnsgd1na2vs0mg"},{"bike_id":"82d7cbd9-0ce0-433f-abd5-66b594c55141","system_id":"levelo_inurba_marseille","lat":43.29688,"lon":5.37743,"is_reserved":false,"is_disabled":false,"rental_uris":{"android":"levelo://app?vid=82d7cbd9-0ce0-433f-abd5-66b594c55141","ios":"levelo://app?vid=82d7cbd9-0ce0-433f-abd5-66b594c55141"},"vehicle_type_id":"4","last_reported":1732878492,"current_range_meters":28800,"station_id":"","pricing_plan_id":"cebpf4jnsgd1na2vs0mg"},{"bike_id":"0551ec67-94ad-4fcc-a139-50dc5d1a4e00","system_id":"levelo_inurba_marseille","lat":43.3136,"lon":5.36754,"is_reserved":false,"is_disabled":false,"rental_uris":{"android":"levelo://app?vid=0551ec67-94ad-4fcc-a139-50dc5d1a4e00","ios":"levelo://app?vid=0551ec67-94ad-4fcc-a139-50dc5d1a4e00"},"vehicle_type_id":"4","last_reported":1732878492,"current_range_meters":32400,"station_id":"ce4bgr92rcd13ifvqc6g","pricing_plan_id":"cebpf4jnsgd1na2vs0mg"},{"bike_id":"7789e245-92df-43c2-8166-d6f7ccbd033b","system_id":"levelo_inurba_marseille","lat":43.29169,"lon":5.3794,"is_reserved":false,"is_disabled":true,"rental_uris":{"android":"levelo://app?vid=7789e245-92df-43c2-8166-d6f7ccbd033b","ios":"levelo://app?vid=7789e245-92df-43c2-8166-d6f7ccbd033b"},"vehicle_type_id":"4","last_reported":1732878492,"current_range_meters":6800,"station_id":"","pricing_plan_id":"cebpf4jnsgd1na2vs0mg"},{"bike_id":"bb3a8680-9758-4910-b46f-e4eeb6695671","system_id":"levelo_inurba_marseille","lat":43.30604,"lon":5.37229,"is_reserved":false,"is_disabled":false,"rental_uris":{"android":"levelo://app?vid=bb3a8680-9758-4910-b46f-e4eeb6695671","ios":"levelo://app?vid=bb3a8680-9758-4910-b46f-e4eeb6695671"},"vehicle_type_id":"4","last_reported":1732878492,"current_range_meters":36800,"station_id":"ce4bgqh2rcd13ifvqc4g","pricing_plan_id":"cebpf4jnsgd1na2vs0mg"},{"bike_id":"fe1c6c60-0f4f-4b5c-a7ea-9f2ff8347245","system_id":"levelo_inurba_marseille","lat":43.27616,"lon":5.36102,"is_reserved":false,"is_disabled":true,"rental_uris":{"android":"levelo://app?vid=fe1c6c60-0f4f-4b5c-a7ea-9f2ff8347245","ios":"levelo://app?vid=fe1c6c60-0f4f-4b5c-a7ea-9f2ff8347245"},"vehicle_type_id":"4","last_reported":1732878492,"current_range_meters":0,"station_id":"ce4bgj92rcd13ifvqbe0","pricing_plan_id":"cebpf4jnsgd1na2vs0mg"},{"bike_id":"c1273547-3d6b-4a56-8c27-39d198530abf","system_id":"levelo_inurba_marseille","lat":43.30585,"lon":5.37234,"is_reserved":false,"is_disabled":false,"rental_uris":{"android":"levelo://app?vid=c1273547-3d6b-4a56-8c27-39d198530abf","ios":"levelo://app?vid=c1273547-3d6b-4a56-8c27-39d198530abf"},"vehicle_type_id":"4","last_reported":1732878492,"current_range_meters":38800,"station_id":"ce4bgqh2rcd13ifvqc4g","pricing_plan_id":"cebpf4jnsgd1na2vs0mg"},{"bike_id":"839c30dd-94a5-4141-9c4d-65189b8854c9","system_id":"levelo_inurba_marseille","lat":43.27065,"lon":5.42287,"is_reserved":false,"is_disabled":false,"rental_uris":{"android":"levelo://app?vid=839c30dd-94a5-4141-9c4d-65189b8854c9","ios":"levelo://app?vid=839c30dd-94a5-4141-9c4d-65189b8854c9"},"vehicle_type_id":"4","last_reported":1732878492,"current_range_meters":26800,"station_id":"ce4bhk92rcd13ifvqgb0","pricing_plan_id":"cebpf4jnsgd1na2vs0mg"},{"bike_id":"b453e718-367d-44bc-833a-93c6887bd103","system_id":"levelo_inurba_marseille","lat":43.26805,"lon":5.40264,"is_reserved":false,"is_disabled":false,"rental_uris":{"android":"levelo://app?vid=b453e718-367d-44bc-833a-93c6887bd103","ios":"levelo://app?vid=b453e718-367d-44bc-833a-93c6887bd103"},"vehicle_type_id":"4","last_reported":1732878492,"current_range_meters":39200,"station_id":"ce501612rcd8frsf0b60","pricing_plan_id":"cebpf4jnsgd1na2vs0mg"},{"bike_id":"44692518-f307-4d34-bde3-20456f8e1767","system_id":"levelo_inurba_marseille","lat":43.27435,"lon":5.39039,"is_reserved":false,"is_disabled":false,"rental_uris":{"android":"levelo://app?vid=44692518-f307-4d34-bde3-20456f8e1767","ios":"levelo://app?vid=44692518-f307-4d34-bde3-20456f8e1767"},"vehicle_type_id":"4","last_reported":1732878492,"current_range_meters":24800,"station_id":"","pricing_plan_id":"cebpf4jnsgd1na2vs0mg"},{"bike_id":"57883350-7ee0-4b23-9fb4-e091ce37b4c3","system_id":"levelo_inurba_marseille","lat":43.27179,"lon":5.40995,"is_reserved":false,"is_disabled":false,"rental_uris":{"android":"levelo://app?vid=57883350-7ee0-4b23-9fb4-e091ce37b4c3","ios":"levelo://app?vid=57883350-7ee0-4b23-9fb4-e091ce37b4c3"},"vehicle_type_id":"4","last_reported":1732878492,"current_range_meters":39200,"station_id":"ce4bhl12rcd13ifvqgf0","pricing_plan_id":"cebpf4jnsgd1na2vs0mg"},{"bike_id":"619ff966-4286-438e-a1c4-d0f585848d7c","system_id":"levelo_inurba_marseille","lat":43.3061,"lon":5.37223,"is_reserved":false,"is_disabled":false,"rental_uris":{"android":"levelo://app?vid=619ff966-4286-438e-a1c4-d0f585848d7c","ios":"levelo://app?vid=619ff966-4286-438e-a1c4-d0f585848d7c"},"vehicle_type_id":"4","last_reported":1732878492,"current_range_meters":27600,"station_id":"ce4bgqh2rcd13ifvqc4g","pricing_plan_id":"cebpf4jnsgd1na2vs0mg"},{"bike_id":"8ffd4de2-767f-4442-8e92-d90330b05ee9","system_id":"levelo_inurba_marseille","lat":43.28101,"lon":5.37822,"is_reserved":false,"is_disabled":false,"rental_uris":{"android":"levelo://app?vid=8ffd4de2-767f-4442-8e92-d90330b05ee9","ios":"levelo://app?vid=8ffd4de2-767f-4442-8e92-d90330b05ee9"},"vehicle_type_id":"4","last_reported":1732878492,"current_range_meters":38800,"station_id":"ce4bha12rcd13ifvqee0","pricing_plan_id":"cebpf4jnsgd1na2vs0mg"},{"bike_id":"329734a5-27ef-48de-9b10-5f93bafe4836","system_id":"levelo_inurba_marseille","lat":43.26936,"lon":5.40255,"is_reserved":false,"is_disabled":false,"rental_uris":{"android":"levelo://app?vid=329734a5-27ef-48de-9b10-5f93bafe4836","ios":"levelo://app?vid=329734a5-27ef-48de-9b10-5f93bafe4836"},"vehicle_type_id":"4","last_reported":1732878492,"current_range_meters":24400,"station_id":"cjm6bp8fraef2m0cb0m0","pricing_plan_id":"cebpf4jnsgd1na2vs0mg"},{"bike_id":"2ef55881-7c15-4257-a90b-df7348746434","system_id":"levelo_inurba_marseille","lat":43.28708,"lon":5.37384,"is_reserved":false,"is_disabled":false,"rental_uris":{"android":"levelo://app?vid=2ef55881-7c15-4257-a90b-df7348746434","ios":"levelo://app?vid=2ef55881-7c15-4257-a90b-df7348746434"},"vehicle_type_id":"4","last_reported":1732878492,"current_range_meters":36400,"station_id":"ce4bh3p2rcd13ifvqdq0","pricing_plan_id":"cebpf4jnsgd1na2vs0mg"},{"bike_id":"e749865f-821e-4038-b463-73619dea8dc1","system_id":"levelo_inurba_marseille","lat":43.27176,"lon":5.40992,"is_reserved":false,"is_disabled":false,"rental_uris":{"android":"levelo://app?vid=e749865f-821e-4038-b463-73619dea8dc1","ios":"levelo://app?vid=e749865f-821e-4038-b463-73619dea8dc1"},"vehicle_type_id":"4","last_reported":1732878492,"current_range_meters":33200,"station_id":"ce4bhl12rcd13ifvqgf0","pricing_plan_id":"cebpf4jnsgd1na2vs0mg"},{"bike_id":"5cbf1539-18e9-4c34-b3ac-bb7a0181213c","system_id":"levelo_inurba_marseille","lat":43.2993,"lon":5.36527,"is_reserved":false,"is_disabled":false,"rental_uris":{"android":"levelo://app?vid=5cbf1539-18e9-4c34-b3ac-bb7a0181213c","ios":"levelo://app?vid=5cbf1539-18e9-4c34-b3ac-bb7a0181213c"},"vehicle_type_id":"4","last_reported":1732878492,"current_range_meters":38400,"station_id":"ce4bgm92rcd13ifvqbr0","pricing_plan_id":"cebpf4jnsgd1na2vs0mg"},{"bike_id":"a7d03a36-f2d2-4ec9-b8cc-dcb186ac26fd","system_id":"levelo_inurba_marseille","lat":43.30545,"lon":5.36699,"is_reserved":false,"is_disabled":true,"rental_uris":{"android":"levelo://app?vid=a7d03a36-f2d2-4ec9-b8cc-dcb186ac26fd","ios":"levelo://app?vid=a7d03a36-f2d2-4ec9-b8cc-dcb186ac26fd"},"vehicle_type_id":"4","last_reported":1732878492,"current_range_meters":37600,"station_id":"ce4bgrp2rcd13ifvqc9g","pricing_plan_id":"cebpf4jnsgd1na2vs0mg"},{"bike_id":"f6e9d20a-415c-4059-8446-8da030993c32","system_id":"levelo_inurba_marseille","lat":43.31358,"lon":5.36649,"is_reserved":false,"is_disabled":false,"rental_uris":{"android":"levelo://app?vid=f6e9d20a-415c-4059-8446-8da030993c32","ios":"levelo://app?vid=f6e9d20a-415c-4059-8446-8da030993c32"},"vehicle_type_id":"4","last_reported":1732878492,"current_range_meters":30800,"station_id":"ce4bgr92rcd13ifvqc6g","pricing_plan_id":"cebpf4jnsgd1na2vs0mg"},{"bike_id":"75486131-8e85-4448-87a1-67a7e3096de4","system_id":"levelo_inurba_marseille","lat":43.30936,"lon":5.37923,"is_reserved":false,"is_disabled":true,"rental_uris":{"android":"levelo://app?vid=75486131-8e85-4448-87a1-67a7e3096de4","ios":"levelo://app?vid=75486131-8e85-4448-87a1-67a7e3096de4"},"vehicle_type_id":"4","last_reported":1732878492,"current_range_meters":0,"station_id":"","pricing_plan_id":"cebpf4jnsgd1na2vs0mg"},{"bike_id":"a5909545-3e09-4859-9fda-9ffe4e6e4883","system_id":"levelo_inurba_marseille","lat":43.23066,"lon":5.35491,"is_reserved":false,"is_disabled":false,"rental_uris":{"android":"levelo://app?vid=a5909545-3e09-4859-9fda-9ffe4e6e4883","ios":"levelo://app?vid=a5909545-3e09-4859-9fda-9ffe4e6e4883"},"vehicle_type_id":"4","last_reported":1732878492,"current_range_meters":17600,"station_id":"cpo3342slgdg3j2ifvpg","pricing_plan_id":"cebpf4jnsgd1na2vs0mg"},{"bike_id":"85f6a5c3-5873-403e-8893-6b91f8f3cec8","system_id":"levelo_inurba_marseille","lat":43.29316,"lon":5.37178,"is_reserved":false,"is_disabled":false,"rental_uris":{"android":"levelo://app?vid=85f6a5c3-5873-403e-8893-6b91f8f3cec8","ios":"levelo://app?vid=85f6a5c3-5873-403e-8893-6b91f8f3cec8"},"vehicle_type_id":"4","last_reported":1732878492,"current_range_meters":18800,"station_id":"ce4bgh92rcd13ifvqb40","pricing_plan_id":"cebpf4jnsgd1na2vs0mg"},{"bike_id":"05412edd-4f98-4b7b-8f3b-a793b3add8af","system_id":"levelo_inurba_marseille","lat":43.30549,"lon":5.3654,"is_reserved":false,"is_disabled":false,"rental_uris":{"android":"levelo://app?vid=05412edd-4f98-4b7b-8f3b-a793b3add8af","ios":"levelo://app?vid=05412edd-4f98-4b7b-8f3b-a793b3add8af"},"vehicle_type_id":"4","last_reported":1732878492,"current_range_meters":26000,"station_id":"ce4bgs12rcd13ifvqcag","pricing_plan_id":"cebpf4jnsgd1na2vs0mg"},{"bike_id":"0cd01837-493c-4f88-b5e4-271606563ea7","system_id":"levelo_inurba_marseille","lat":43.30557,"lon":5.3654,"is_reserved":false,"is_disabled":false,"rental_uris":{"android":"levelo://app?vid=0cd01837-493c-4f88-b5e4-271606563ea7","ios":"levelo://app?vid=0cd01837-493c-4f88-b5e4-271606563ea7"},"vehicle_type_id":"4","last_reported":1732878492,"current_range_meters":26800,"station_id":"ce4bgs12rcd13ifvqcag","pricing_plan_id":"cebpf4jnsgd1na2vs0mg"},{"bike_id":"1f3be82a-39fb-49be-9f70-2df7092d6f3c","system_id":"levelo_inurba_marseille","lat":43.32486,"lon":5.36563,"is_reserved":false,"is_disabled":false,"rental_uris":{"android":"levelo://app?vid=1f3be82a-39fb-49be-9f70-2df7092d6f3c","ios":"levelo://app?vid=1f3be82a-39fb-49be-9f70-2df7092d6f3c"},"vehicle_type_id":"4","last_reported":1732878492,"current_range_meters":12400,"station_id":"ce4bhs12rcd13ifvqhvg","pricing_plan_id":"cebpf4jnsgd1na2vs0mg"},{"bike_id":"5329edfd-3f80-481f-b22a-9053213b3f4f","system_id":"levelo_inurba_marseille","lat":43.33605,"lon":5.41024,"is_reserved":false,"is_disabled":false,"rental_uris":{"android":"levelo://app?vid=5329edfd-3f80-481f-b22a-9053213b3f4f","ios":"levelo://app?vid=5329edfd-3f80-481f-b22a-9053213b3f4f"},"vehicle_type_id":"4","last_reported":1732878492,"current_range_meters":24400,"station_id":"ce4bhqh2rcd13ifvqhmg","pricing_plan_id":"cebpf4jnsgd1na2vs0mg"},{"bike_id":"d232b51f-8a91-4fe2-8e93-1d5ea369822b","system_id":"levelo_inurba_marseille","lat":43.23156,"lon":5.43706,"is_reserved":false,"is_disabled":false,"rental_uris":{"android":"levelo://app?vid=d232b51f-8a91-4fe2-8e93-1d5ea369822b","ios":"levelo://app?vid=d232b51f-8a91-4fe2-8e93-1d5ea369822b"},"vehicle_type_id":"4","last_reported":1732878492,"current_range_meters":34000,"station_id":"ce4bhmp2rcd13ifvqgog","pricing_plan_id":"cebpf4jnsgd1na2vs0mg"},{"bike_id":"e5951ee3-4a5a-4ebb-b469-096c5188dfa3","system_id":"levelo_inurba_marseille","lat":43.23172,"lon":5.35538,"is_reserved":false,"is_disabled":false,"rental_uris":{"android":"levelo://app?vid=e5951ee3-4a5a-4ebb-b469-096c5188dfa3","ios":"levelo://app?vid=e5951ee3-4a5a-4ebb-b469-096c5188dfa3"},"vehicle_type_id":"4","last_reported":1732878492,"current_range_meters":24400,"station_id":"ce4bhu92rcd13ifvqi70","pricing_plan_id":"cebpf4jnsgd1na2vs0mg"},{"bike_id":"f9a63393-5401-4f98-ae5a-dfbb8291ab6d","system_id":"levelo_inurba_marseille","lat":43.30046,"lon":5.37552,"is_reserved":false,"is_disabled":true,"rental_uris":{"android":"levelo://app?vid=f9a63393-5401-4f98-ae5a-dfbb8291ab6d","ios":"levelo://app?vid=f9a63393-5401-4f98-ae5a-dfbb8291ab6d"},"vehicle_type_id":"4","last_reported":1732878492,"current_range_meters":400,"station_id":"","pricing_plan_id":"cebpf4jnsgd1na2vs0mg"},{"bike_id":"d3ac01f9-9d66-4e66-8d15-a8d76f11b85c","system_id":"levelo_inurba_marseille","lat":43.29268,"lon":5.36854,"is_reserved":false,"is_disabled":false,"rental_uris":{"android":"levelo://app?vid=d3ac01f9-9d66-4e66-8d15-a8d76f11b85c","ios":"levelo://app?vid=d3ac01f9-9d66-4e66-8d15-a8d76f11b85c"},"vehicle_type_id":"4","last_reported":1732878492,"current_range_meters":24000,"station_id":"ce4bhbp2rcd13ifvqesg","pricing_plan_id":"cebpf4jnsgd1na2vs0mg"},{"bike_id":"de303072-6173-4588-8260-f566e5a6e639","system_id":"levelo_inurba_marseille","lat":43.31322,"lon":5.36685,"is_reserved":false,"is_disabled":false,"rental_uris":{"android":"levelo://app?vid=de303072-6173-4588-8260-f566e5a6e639","ios":"levelo://app?vid=de303072-6173-4588-8260-f566e5a6e639"},"vehicle_type_id":"4","last_reported":1732878492,"current_range_meters":17200,"station_id":"ce4bgr92rcd13ifvqc6g","pricing_plan_id":"cebpf4jnsgd1na2vs0mg"},{"bike_id":"beecf29b-0bf3-4cee-a03e-0dd6251d4d12","system_id":"levelo_inurba_marseille","lat":43.316925,"lon":5.377326,"is_reserved":false,"is_disabled":false,"rental_uris":{"android":"levelo://app?vid=beecf29b-0bf3-4cee-a03e-0dd6251d4d12","ios":"levelo://app?vid=beecf29b-0bf3-4cee-a03e-0dd6251d4d12"},"vehicle_type_id":"4","last_reported":1732878492,"current_range_meters":39200,"station_id":"ce4bgth2rcd13ifvqch0","pricing_plan_id":"cebpf4jnsgd1na2vs0mg"},{"bike_id":"ca4a62cc-0162-4867-baae-5fed586cc0f8","system_id":"levelo_inurba_marseille","lat":43.27176,"lon":5.40993,"is_reserved":false,"is_disabled":false,"rental_uris":{"android":"levelo://app?vid=ca4a62cc-0162-4867-baae-5fed586cc0f8","ios":"levelo://app?vid=ca4a62cc-0162-4867-baae-5fed586cc0f8"},"vehicle_type_id":"4","last_reported":1732878492,"current_range_meters":19600,"station_id":"ce4bhl12rcd13ifvqgf0","pricing_plan_id":"cebpf4jnsgd1na2vs0mg"},{"bike_id":"2d4ec9c8-9285-4c13-9fa1-2cf3385a4d88","system_id":"levelo_inurba_marseille","lat":43.317135,"lon":5.377785,"is_reserved":false,"is_disabled":false,"rental_uris":{"android":"levelo://app?vid=2d4ec9c8-9285-4c13-9fa1-2cf3385a4d88","ios":"levelo://app?vid=2d4ec9c8-9285-4c13-9fa1-2cf3385a4d88"},"vehicle_type_id":"4","last_reported":1732878492,"current_range_meters":38800,"station_id":"ce4bgth2rcd13ifvqch0","pricing_plan_id":"cebpf4jnsgd1na2vs0mg"},{"bike_id":"5637f218-5935-4ecf-8d2f-8e866d4ee57b","system_id":"levelo_inurba_marseille","lat":43.27985,"lon":5.41654,"is_reserved":false,"is_disabled":false,"rental_uris":{"android":"levelo://app?vid=5637f218-5935-4ecf-8d2f-8e866d4ee57b","ios":"levelo://app?vid=5637f218-5935-4ecf-8d2f-8e866d4ee57b"},"vehicle_type_id":"4","last_reported":1732878492,"current_range_meters":34000,"station_id":"ce4bho12rcd13ifvqh1g","pricing_plan_id":"cebpf4jnsgd1na2vs0mg"},{"bike_id":"b72e90f4-71f6-4d3c-ae58-52d9ecfbedbb","system_id":"levelo_inurba_marseille","lat":43.28618,"lon":5.35107,"is_reserved":false,"is_disabled":false,"rental_uris":{"android":"levelo://app?vid=b72e90f4-71f6-4d3c-ae58-52d9ecfbedbb","ios":"levelo://app?vid=b72e90f4-71f6-4d3c-ae58-52d9ecfbedbb"},"vehicle_type_id":"4","last_reported":1732878492,"current_range_meters":16400,"station_id":"ce4bhch2rcd13ifvqeug","pricing_plan_id":"cebpf4jnsgd1na2vs0mg"},{"bike_id":"574ba74e-ea23-46d4-a8f2-5a26caa49dfa","system_id":"levelo_inurba_marseille","lat":43.29902,"lon":5.43676,"is_reserved":false,"is_disabled":false,"rental_uris":{"android":"levelo://app?vid=574ba74e-ea23-46d4-a8f2-5a26caa49dfa","ios":"levelo://app?vid=574ba74e-ea23-46d4-a8f2-5a26caa49dfa"},"vehicle_type_id":"4","last_reported":1732878492,"current_range_meters":30000,"station_id":"ce4bhpp2rcd13ifvqhfg","pricing_plan_id":"cebpf4jnsgd1na2vs0mg"},{"bike_id":"de8dedfd-c65e-4ce5-b8ec-b5ab34a22a6e","system_id":"levelo_inurba_marseille","lat":43.27069,"lon":5.42279,"is_reserved":false,"is_disabled":true,"rental_uris":{"android":"levelo://app?vid=de8dedfd-c65e-4ce5-b8ec-b5ab34a22a6e","ios":"levelo://app?vid=de8dedfd-c65e-4ce5-b8ec-b5ab34a22a6e"},"vehicle_type_id":"4","last_reported":1732878492,"current_range_meters":38800,"station_id":"ce4bhk92rcd13ifvqgb0","pricing_plan_id":"cebpf4jnsgd1na2vs0mg"},{"bike_id":"5d13a862-aca8-4c54-8f65-fc063af75c01","system_id":"levelo_inurba_marseille","lat":43.3054,"lon":5.36703,"is_reserved":false,"is_disabled":false,"rental_uris":{"android":"levelo://app?vid=5d13a862-aca8-4c54-8f65-fc063af75c01","ios":"levelo://app?vid=5d13a862-aca8-4c54-8f65-fc063af75c01"},"vehicle_type_id":"4","last_reported":1732878492,"current_range_meters":38800,"station_id":"ce4bgrp2rcd13ifvqc9g","pricing_plan_id":"cebpf4jnsgd1na2vs0mg"},{"bike_id":"baed12b3-7578-4780-a3e6-1f289df86bbf","system_id":"levelo_inurba_marseille","lat":43.30562,"lon":5.36679,"is_reserved":false,"is_disabled":false,"rental_uris":{"android":"levelo://app?vid=baed12b3-7578-4780-a3e6-1f289df86bbf","ios":"levelo://app?vid=baed12b3-7578-4780-a3e6-1f289df86bbf"},"vehicle_type_id":"4","last_reported":1732878492,"current_range_meters":19200,"station_id":"ce4bgrp2rcd13ifvqc9g","pricing_plan_id":"cebpf4jnsgd1na2vs0mg"},{"bike_id":"5ef1a11f-d366-47f7-8cae-43563c09cb79","system_id":"levelo_inurba_marseille","lat":43.29875,"lon":5.39732,"is_reserved":false,"is_disabled":false,"rental_uris":{"android":"levelo://app?vid=5ef1a11f-d366-47f7-8cae-43563c09cb79","ios":"levelo://app?vid=5ef1a11f-d366-47f7-8cae-43563c09cb79"},"vehicle_type_id":"4","last_reported":1732878492,"current_range_meters":27600,"station_id":"ce4bh0h2rcd13ifvqd50","pricing_plan_id":"cebpf4jnsgd1na2vs0mg"},{"bike_id":"75f174b0-a946-4a42-87ef-a93b48abb145","system_id":"levelo_inurba_marseille","lat":43.30947,"lon":5.39035,"is_reserved":false,"is_disabled":false,"rental_uris":{"android":"levelo://app?vid=75f174b0-a946-4a42-87ef-a93b48abb145","ios":"levelo://app?vid=75f174b0-a946-4a42-87ef-a93b48abb145"},"vehicle_type_id":"4","last_reported":1732878492,"current_range_meters":39200,"station_id":"ce4bgup2rcd13ifvqco0","pricing_plan_id":"cebpf4jnsgd1na2vs0mg"},{"bike_id":"f576f1ac-9441-4aaf-9239-99d550cb7b55","system_id":"levelo_inurba_marseille","lat":43.31698,"lon":5.37763,"is_reserved":false,"is_disabled":true,"rental_uris":{"android":"levelo://app?vid=f576f1ac-9441-4aaf-9239-99d550cb7b55","ios":"levelo://app?vid=f576f1ac-9441-4aaf-9239-99d550cb7b55"},"vehicle_type_id":"4","last_reported":1732878492,"current_range_meters":28000,"station_id":"ce4bgth2rcd13ifvqch0","pricing_plan_id":"cebpf4jnsgd1na2vs0mg"},{"bike_id":"745abdac-73af-458a-970b-abce7c221a4c","system_id":"levelo_inurba_marseille","lat":43.30956,"lon":5.39037,"is_reserved":false,"is_disabled":false,"rental_uris":{"android":"levelo://app?vid=745abdac-73af-458a-970b-abce7c221a4c","ios":"levelo://app?vid=745abdac-73af-458a-970b-abce7c221a4c"},"vehicle_type_id":"4","last_reported":1732878492,"current_range_meters":38800,"station_id":"ce4bgup2rcd13ifvqco0","pricing_plan_id":"cebpf4jnsgd1na2vs0mg"},{"bike_id":"5ae46d3f-f42f-41b9-872c-9cc4b848621b","system_id":"levelo_inurba_marseille","lat":43.24661,"lon":5.38157,"is_reserved":false,"is_disabled":false,"rental_uris":{"android":"levelo://app?vid=5ae46d3f-f42f-41b9-872c-9cc4b848621b","ios":"levelo://app?vid=5ae46d3f-f42f-41b9-872c-9cc4b848621b"},"vehicle_type_id":"4","last_reported":1732878492,"current_range_meters":27200,"station_id":"ce4bhih2rcd13ifvqfr0","pricing_plan_id":"cebpf4jnsgd1na2vs0mg"},{"bike_id":"02fc0cc3-58d9-46c8-bf45-1b01da2c5061","system_id":"levelo_inurba_marseille","lat":43.32363,"lon":5.38879,"is_reserved":false,"is_disabled":false,"rental_uris":{"android":"levelo://app?vid=02fc0cc3-58d9-46c8-bf45-1b01da2c5061","ios":"levelo://app?vid=02fc0cc3-58d9-46c8-bf45-1b01da2c5061"},"vehicle_type_id":"4","last_reported":1732878492,"current_range_meters":23200,"station_id":"ce4bhqp2rcd13ifvqhog","pricing_plan_id":"cebpf4jnsgd1na2vs0mg"},{"bike_id":"7e46d399-ebcb-41ca-8b23-916ae432ca2e","system_id":"levelo_inurba_marseille","lat":43.29261,"lon":5.40897,"is_reserved":false,"is_disabled":true,"rental_uris":{"android":"levelo://app?vid=7e46d399-ebcb-41ca-8b23-916ae432ca2e","ios":"levelo://app?vid=7e46d399-ebcb-41ca-8b23-916ae432ca2e"},"vehicle_type_id":"4","last_reported":1732878492,"current_range_meters":1200,"station_id":"ce4bh192rcd13ifvqdc0","pricing_plan_id":"cebpf4jnsgd1na2vs0mg"},{"bike_id":"bd116da4-9303-4372-b375-2867673729fc","system_id":"levelo_inurba_marseille","lat":43.23145,"lon":5.43719,"is_reserved":false,"is_disabled":false,"rental_uris":{"android":"levelo://app?vid=bd116da4-9303-4372-b375-2867673729fc","ios":"levelo://app?vid=bd116da4-9303-4372-b375-2867673729fc"},"vehicle_type_id":"4","last_reported":1732878492,"current_range_meters":23200,"station_id":"ce4bhmp2rcd13ifvqgog","pricing_plan_id":"cebpf4jnsgd1na2vs0mg"},{"bike_id":"43746d86-8a13-4845-9faf-ae69b548d714","system_id":"levelo_inurba_marseille","lat":43.29459,"lon":5.37917,"is_reserved":false,"is_disabled":true,"rental_uris":{"android":"levelo://app?vid=43746d86-8a13-4845-9faf-ae69b548d714","ios":"levelo://app?vid=43746d86-8a13-4845-9faf-ae69b548d714"},"vehicle_type_id":"4","last_reported":1732878492,"current_range_meters":0,"station_id":"","pricing_plan_id":"cebpf4jnsgd1na2vs0mg"},{"bike_id":"4b6bd894-bd0a-4b7b-ab37-4e46da0aeddd","system_id":"levelo_inurba_marseille","lat":43.30159,"lon":5.38082,"is_reserved":false,"is_disabled":false,"rental_uris":{"android":"levelo://app?vid=4b6bd894-bd0a-4b7b-ab37-4e46da0aeddd","ios":"levelo://app?vid=4b6bd894-bd0a-4b7b-ab37-4e46da0aeddd"},"vehicle_type_id":"4","last_reported":1732878492,"current_range_meters":24800,"station_id":"ce4bgjp2rcd13ifvqbh0","pricing_plan_id":"cebpf4jnsgd1na2vs0mg"},{"bike_id":"fc107214-5b7b-474d-8b3e-7f6cc3a6f685","system_id":"levelo_inurba_marseille","lat":43.26783,"lon":5.39439,"is_reserved":false,"is_disabled":false,"rental_uris":{"android":"levelo://app?vid=fc107214-5b7b-474d-8b3e-7f6cc3a6f685","ios":"levelo://app?vid=fc107214-5b7b-474d-8b3e-7f6cc3a6f685"},"vehicle_type_id":"4","last_reported":1732878492,"current_range_meters":30400,"station_id":"ce4bhh12rcd13ifvqfg0","pricing_plan_id":"cebpf4jnsgd1na2vs0mg"},{"bike_id":"35ea1a90-8a21-4595-903a-578afd96b892","system_id":"levelo_inurba_marseille","lat":43.26683,"lon":5.38265,"is_reserved":false,"is_disabled":false,"rental_uris":{"android":"levelo://app?vid=35ea1a90-8a21-4595-903a-578afd96b892","ios":"levelo://app?vid=35ea1a90-8a21-4595-903a-578afd96b892"},"vehicle_type_id":"4","last_reported":1732878492,"current_range_meters":20800,"station_id":"ce4bhg92rcd13ifvqf90","pricing_plan_id":"cebpf4jnsgd1na2vs0mg"},{"bike_id":"d8404ab4-ce67-47f0-be35-3f1fcff4b0b2","system_id":"levelo_inurba_marseille","lat":43.27489,"lon":5.42453,"is_reserved":false,"is_disabled":false,"rental_uris":{"android":"levelo://app?vid=d8404ab4-ce67-47f0-be35-3f1fcff4b0b2","ios":"levelo://app?vid=d8404ab4-ce67-47f0-be35-3f1fcff4b0b2"},"vehicle_type_id":"4","last_reported":1732878492,"current_range_meters":38000,"station_id":"ce4bhn92rcd13ifvqgrg","pricing_plan_id":"cebpf4jnsgd1na2vs0mg"},{"bike_id":"48b5ff29-f272-4faf-a81d-daa5ce069c5c","system_id":"levelo_inurba_marseille","lat":43.31285,"lon":5.38868,"is_reserved":false,"is_disabled":false,"rental_uris":{"android":"levelo://app?vid=48b5ff29-f272-4faf-a81d-daa5ce069c5c","ios":"levelo://app?vid=48b5ff29-f272-4faf-a81d-daa5ce069c5c"},"vehicle_type_id":"4","last_reported":1732878492,"current_range_meters":8400,"station_id":"","pricing_plan_id":"cebpf4jnsgd1na2vs0mg"},{"bike_id":"b3d47772-058e-4a8e-91f3-3d5c2a953fbb","system_id":"levelo_inurba_marseille","lat":43.25868,"lon":5.39897,"is_reserved":false,"is_disabled":false,"rental_uris":{"android":"levelo://app?vid=b3d47772-058e-4a8e-91f3-3d5c2a953fbb","ios":"levelo://app?vid=b3d47772-058e-4a8e-91f3-3d5c2a953fbb"},"vehicle_type_id":"4","last_reported":1732878492,"current_range_meters":37600,"station_id":"ce4bhl92rcd13ifvqghg","pricing_plan_id":"cebpf4jnsgd1na2vs0mg"},{"bike_id":"5dde6864-6705-4fe1-9e79-ee4ed65a6a50","system_id":"levelo_inurba_marseille","lat":43.24553,"lon":5.39526,"is_reserved":false,"is_disabled":false,"rental_uris":{"android":"levelo://app?vid=5dde6864-6705-4fe1-9e79-ee4ed65a6a50","ios":"levelo://app?vid=5dde6864-6705-4fe1-9e79-ee4ed65a6a50"},"vehicle_type_id":"4","last_reported":1732878492,"current_range_meters":38800,"station_id":"ce4bhlp2rcd13ifvqgjg","pricing_plan_id":"cebpf4jnsgd1na2vs0mg"},{"bike_id":"deaa2176-bf1c-481c-8a1b-8bb046977e83","system_id":"levelo_inurba_marseille","lat":43.24802,"lon":5.37455,"is_reserved":false,"is_disabled":false,"rental_uris":{"android":"levelo://app?vid=deaa2176-bf1c-481c-8a1b-8bb046977e83","ios":"levelo://app?vid=deaa2176-bf1c-481c-8a1b-8bb046977e83"},"vehicle_type_id":"4","last_reported":1732878492,"current_range_meters":36000,"station_id":"ce4bhgh2rcd13ifvqfb0","pricing_plan_id":"cebpf4jnsgd1na2vs0mg"},{"bike_id":"d482c2bf-698e-403b-b4f7-07f35050b310","system_id":"levelo_inurba_marseille","lat":43.30946,"lon":5.39029,"is_reserved":false,"is_disabled":false,"rental_uris":{"android":"levelo://app?vid=d482c2bf-698e-403b-b4f7-07f35050b310","ios":"levelo://app?vid=d482c2bf-698e-403b-b4f7-07f35050b310"},"vehicle_type_id":"4","last_reported":1732878492,"current_range_meters":18800,"station_id":"ce4bgup2rcd13ifvqco0","pricing_plan_id":"cebpf4jnsgd1na2vs0mg"},{"bike_id":"e1a441bb-ffc3-4b30-950e-b8eb47f0e1ee","system_id":"levelo_inurba_marseille","lat":43.26951,"lon":5.38632,"is_reserved":false,"is_disabled":false,"rental_uris":{"android":"levelo://app?vid=e1a441bb-ffc3-4b30-950e-b8eb47f0e1ee","ios":"levelo://app?vid=e1a441bb-ffc3-4b30-950e-b8eb47f0e1ee"},"vehicle_type_id":"4","last_reported":1732878492,"current_range_meters":29600,"station_id":"ce4bhh92rcd13ifvqfh0","pricing_plan_id":"cebpf4jnsgd1na2vs0mg"},{"bike_id":"a8dc222d-2a79-4559-874d-5706fd2740a0","system_id":"levelo_inurba_marseille","lat":43.27066,"lon":5.40253,"is_reserved":false,"is_disabled":false,"rental_uris":{"android":"levelo://app?vid=a8dc222d-2a79-4559-874d-5706fd2740a0","ios":"levelo://app?vid=a8dc222d-2a79-4559-874d-5706fd2740a0"},"vehicle_type_id":"4","last_reported":1732878492,"current_range_meters":36800,"station_id":"ce4bhk92rcd13ifvqgc0","pricing_plan_id":"cebpf4jnsgd1na2vs0mg"},{"bike_id":"43aea3ed-d636-44fe-8ab0-39fa4a96a973","system_id":"levelo_inurba_marseille","lat":43.27812,"lon":5.40712,"is_reserved":false,"is_disabled":false,"rental_uris":{"android":"levelo://app?vid=43aea3ed-d636-44fe-8ab0-39fa4a96a973","ios":"levelo://app?vid=43aea3ed-d636-44fe-8ab0-39fa4a96a973"},"vehicle_type_id":"4","last_reported":1732878492,"current_range_meters":9200,"station_id":"ce4bhnh2rcd13ifvqgtg","pricing_plan_id":"cebpf4jnsgd1na2vs0mg"},{"bike_id":"27ed646a-5ca8-4e11-965e-ff2a57424384","system_id":"levelo_inurba_marseille","lat":43.26192,"lon":5.3745,"is_reserved":false,"is_disabled":false,"rental_uris":{"android":"levelo://app?vid=27ed646a-5ca8-4e11-965e-ff2a57424384","ios":"levelo://app?vid=27ed646a-5ca8-4e11-965e-ff2a57424384"},"vehicle_type_id":"4","last_reported":1732878492,"current_range_meters":26000,"station_id":"ce4bhgp2rcd13ifvqfc0","pricing_plan_id":"cebpf4jnsgd1na2vs0mg"},{"bike_id":"165216c8-95d7-4b2f-bd59-1243074ff431","system_id":"levelo_inurba_marseille","lat":43.27066,"lon":5.40258,"is_reserved":false,"is_disabled":false,"rental_uris":{"android":"levelo://app?vid=165216c8-95d7-4b2f-bd59-1243074ff431","ios":"levelo://app?vid=165216c8-95d7-4b2f-bd59-1243074ff431"},"vehicle_type_id":"4","last_reported":1732878492,"current_range_meters":10000,"station_id":"ce4bhk92rcd13ifvqgc0","pricing_plan_id":"cebpf4jnsgd1na2vs0mg"},{"bike_id":"fc4d15f5-6256-45a3-90d6-77bb4c676955","system_id":"levelo_inurba_marseille","lat":43.296284,"lon":5.377877,"is_reserved":false,"is_disabled":true,"rental_uris":{"android":"levelo://app?vid=fc4d15f5-6256-45a3-90d6-77bb4c676955","ios":"levelo://app?vid=fc4d15f5-6256-45a3-90d6-77bb4c676955"},"vehicle_type_id":"4","last_reported":1732878492,"current_range_meters":29600,"station_id":"","pricing_plan_id":"cebpf4jnsgd1na2vs0mg"},{"bike_id":"c88f8730-1176-4717-97e2-17c27b15274f","system_id":"levelo_inurba_marseille","lat":43.2319,"lon":5.35544,"is_reserved":false,"is_disabled":false,"rental_uris":{"android":"levelo://app?vid=c88f8730-1176-4717-97e2-17c27b15274f","ios":"levelo://app?vid=c88f8730-1176-4717-97e2-17c27b15274f"},"vehicle_type_id":"4","last_reported":1732878492,"current_range_meters":38800,"station_id":"ce4bhu92rcd13ifvqi70","pricing_plan_id":"cebpf4jnsgd1na2vs0mg"},{"bike_id":"57729228-d5fc-4aad-84bf-09d1889b3435","system_id":"levelo_inurba_marseille","lat":43.30531,"lon":5.36708,"is_reserved":false,"is_disabled":false,"rental_uris":{"android":"levelo://app?vid=57729228-d5fc-4aad-84bf-09d1889b3435","ios":"levelo://app?vid=57729228-d5fc-4aad-84bf-09d1889b3435"},"vehicle_type_id":"4","last_reported":1732878492,"current_range_meters":20400,"station_id":"ce4bgrp2rcd13ifvqc9g","pricing_plan_id":"cebpf4jnsgd1na2vs0mg"},{"bike_id":"483bde82-a734-46a5-8bb3-1b4e39b30732","system_id":"levelo_inurba_marseille","lat":43.25573,"lon":5.38234,"is_reserved":false,"is_disabled":false,"rental_uris":{"android":"levelo://app?vid=483bde82-a734-46a5-8bb3-1b4e39b30732","ios":"levelo://app?vid=483bde82-a734-46a5-8bb3-1b4e39b30732"},"vehicle_type_id":"4","last_reported":1732878492,"current_range_meters":20000,"station_id":"ce4bhih2rcd13ifvqfs0","pricing_plan_id":"cebpf4jnsgd1na2vs0mg"},{"bike_id":"6efcd3b3-109d-411c-9c82-ac1c338aa322","system_id":"levelo_inurba_marseille","lat":43.29933,"lon":5.36547,"is_reserved":false,"is_disabled":false,"rental_uris":{"android":"levelo://app?vid=6efcd3b3-109d-411c-9c82-ac1c338aa322","ios":"levelo://app?vid=6efcd3b3-109d-411c-9c82-ac1c338aa322"},"vehicle_type_id":"4","last_reported":1732878492,"current_range_meters":26000,"station_id":"ce4bgm92rcd13ifvqbr0","pricing_plan_id":"cebpf4jnsgd1na2vs0mg"},{"bike_id":"c20afd6c-d414-44df-9450-cc27e4ad9839","system_id":"levelo_inurba_marseille","lat":43.32151,"lon":5.38459,"is_reserved":false,"is_disabled":true,"rental_uris":{"android":"levelo://app?vid=c20afd6c-d414-44df-9450-cc27e4ad9839","ios":"levelo://app?vid=c20afd6c-d414-44df-9450-cc27e4ad9839"},"vehicle_type_id":"4","last_reported":1732878492,"current_range_meters":0,"station_id":"","pricing_plan_id":"cebpf4jnsgd1na2vs0mg"},{"bike_id":"cc024244-7176-4576-9d50-f0a1b4537e7f","system_id":"levelo_inurba_marseille","lat":43.30424,"lon":5.39753,"is_reserved":false,"is_disabled":false,"rental_uris":{"android":"levelo://app?vid=cc024244-7176-4576-9d50-f0a1b4537e7f","ios":"levelo://app?vid=cc024244-7176-4576-9d50-f0a1b4537e7f"},"vehicle_type_id":"4","last_reported":1732878492,"current_range_meters":22800,"station_id":"ce4bh092rcd13ifvqd20","pricing_plan_id":"cebpf4jnsgd1na2vs0mg"},{"bike_id":"3a4e6c41-3f77-4254-abd4-29776dd71545","system_id":"levelo_inurba_marseille","lat":43.30533,"lon":5.36543,"is_reserved":false,"is_disabled":false,"rental_uris":{"android":"levelo://app?vid=3a4e6c41-3f77-4254-abd4-29776dd71545","ios":"levelo://app?vid=3a4e6c41-3f77-4254-abd4-29776dd71545"},"vehicle_type_id":"4","last_reported":1732878492,"current_range_meters":38800,"station_id":"ce4bgs12rcd13ifvqcag","pricing_plan_id":"cebpf4jnsgd1na2vs0mg"},{"bike_id":"53832248-7ea6-4cc6-856c-2b60c3f17998","system_id":"levelo_inurba_marseille","lat":43.29551,"lon":5.42276,"is_reserved":false,"is_disabled":true,"rental_uris":{"android":"levelo://app?vid=53832248-7ea6-4cc6-856c-2b60c3f17998","ios":"levelo://app?vid=53832248-7ea6-4cc6-856c-2b60c3f17998"},"vehicle_type_id":"4","last_reported":1732878492,"current_range_meters":38800,"station_id":"ce4bhph2rcd13ifvqhdg","pricing_plan_id":"cebpf4jnsgd1na2vs0mg"},{"bike_id":"7db36b1c-f956-440c-88f7-ad48a4f9ea5b","system_id":"levelo_inurba_marseille","lat":43.25825,"lon":5.39425,"is_reserved":false,"is_disabled":false,"rental_uris":{"android":"levelo://app?vid=7db36b1c-f956-440c-88f7-ad48a4f9ea5b","ios":"levelo://app?vid=7db36b1c-f956-440c-88f7-ad48a4f9ea5b"},"vehicle_type_id":"4","last_reported":1732878492,"current_range_meters":28800,"station_id":"ce4bhip2rcd13ifvqft0","pricing_plan_id":"cebpf4jnsgd1na2vs0mg"},{"bike_id":"92defe58-ac95-4158-a899-a1890c4e5262","system_id":"levelo_inurba_marseille","lat":43.26814,"lon":5.37126,"is_reserved":false,"is_disabled":true,"rental_uris":{"android":"levelo://app?vid=92defe58-ac95-4158-a899-a1890c4e5262","ios":"levelo://app?vid=92defe58-ac95-4158-a899-a1890c4e5262"},"vehicle_type_id":"4","last_reported":1732878492,"current_range_meters":400,"station_id":"","pricing_plan_id":"cebpf4jnsgd1na2vs0mg"},{"bike_id":"b7a23fb8-618b-4ad6-8050-42e15cecbd69","system_id":"levelo_inurba_marseille","lat":43.31355,"lon":5.38495,"is_reserved":false,"is_disabled":false,"rental_uris":{"android":"levelo://app?vid=b7a23fb8-618b-4ad6-8050-42e15cecbd69","ios":"levelo://app?vid=b7a23fb8-618b-4ad6-8050-42e15cecbd69"},"vehicle_type_id":"4","last_reported":1732878492,"current_range_meters":13600,"station_id":"ce4bgt92rcd13ifvqcf0","pricing_plan_id":"cebpf4jnsgd1na2vs0mg"},{"bike_id":"3043e874-44eb-4ce8-a2fb-d5bb027c2006","system_id":"levelo_inurba_marseille","lat":43.305348,"lon":5.365509,"is_reserved":false,"is_disabled":false,"rental_uris":{"android":"levelo://app?vid=3043e874-44eb-4ce8-a2fb-d5bb027c2006","ios":"levelo://app?vid=3043e874-44eb-4ce8-a2fb-d5bb027c2006"},"vehicle_type_id":"4","last_reported":1732878492,"current_range_meters":39200,"station_id":"ce4bgs12rcd13ifvqcag","pricing_plan_id":"cebpf4jnsgd1na2vs0mg"},{"bike_id":"ae7c2b6b-cdfe-4e04-93a2-e6bd12860cab","system_id":"levelo_inurba_marseille","lat":43.31754,"lon":5.39018,"is_reserved":false,"is_disabled":false,"rental_uris":{"android":"levelo://app?vid=ae7c2b6b-cdfe-4e04-93a2-e6bd12860cab","ios":"levelo://app?vid=ae7c2b6b-cdfe-4e04-93a2-e6bd12860cab"},"vehicle_type_id":"4","last_reported":1732878492,"current_range_meters":25600,"station_id":"ce4bhqp2rcd13ifvqhng","pricing_plan_id":"cebpf4jnsgd1na2vs0mg"},{"bike_id":"73b259cf-e6d9-4407-8620-c0d452dfe4f8","system_id":"levelo_inurba_marseille","lat":43.30216,"lon":5.3947,"is_reserved":false,"is_disabled":false,"rental_uris":{"android":"levelo://app?vid=73b259cf-e6d9-4407-8620-c0d452dfe4f8","ios":"levelo://app?vid=73b259cf-e6d9-4407-8620-c0d452dfe4f8"},"vehicle_type_id":"4","last_reported":1732878492,"current_range_meters":28400,"station_id":"ce4bh0p2rcd13ifvqd70","pricing_plan_id":"cebpf4jnsgd1na2vs0mg"},{"bike_id":"d9a5d048-a40f-4878-9504-3c0584b7935f","system_id":"levelo_inurba_marseille","lat":43.240701,"lon":5.377661,"is_reserved":false,"is_disabled":false,"rental_uris":{"android":"levelo://app?vid=d9a5d048-a40f-4878-9504-3c0584b7935f","ios":"levelo://app?vid=d9a5d048-a40f-4878-9504-3c0584b7935f"},"vehicle_type_id":"4","last_reported":1732878492,"current_range_meters":35200,"station_id":"ce4bhnp2rcd13ifvqgvg","pricing_plan_id":"cebpf4jnsgd1na2vs0mg"},{"bike_id":"3e0c31c5-f12d-4cab-985f-64b47a37c7fa","system_id":"levelo_inurba_marseille","lat":43.30431,"lon":5.39742,"is_reserved":false,"is_disabled":false,"rental_uris":{"android":"levelo://app?vid=3e0c31c5-f12d-4cab-985f-64b47a37c7fa","ios":"levelo://app?vid=3e0c31c5-f12d-4cab-985f-64b47a37c7fa"},"vehicle_type_id":"4","last_reported":1732878492,"current_range_meters":36400,"station_id":"ce4bh092rcd13ifvqd20","pricing_plan_id":"cebpf4jnsgd1na2vs0mg"},{"bike_id":"5c5f2969-a58f-44b4-b927-346aa8bda72b","system_id":"levelo_inurba_marseille","lat":43.29791,"lon":5.38111,"is_reserved":false,"is_disabled":false,"rental_uris":{"android":"levelo://app?vid=5c5f2969-a58f-44b4-b927-346aa8bda72b","ios":"levelo://app?vid=5c5f2969-a58f-44b4-b927-346aa8bda72b"},"vehicle_type_id":"4","last_reported":1732878492,"current_range_meters":38800,"station_id":"ce4bgip2rcd13ifvqbb0","pricing_plan_id":"cebpf4jnsgd1na2vs0mg"},{"bike_id":"373b0ef2-2c12-4172-adc7-218fad8a345e","system_id":"levelo_inurba_marseille","lat":43.30327,"lon":5.40442,"is_reserved":false,"is_disabled":false,"rental_uris":{"android":"levelo://app?vid=373b0ef2-2c12-4172-adc7-218fad8a345e","ios":"levelo://app?vid=373b0ef2-2c12-4172-adc7-218fad8a345e"},"vehicle_type_id":"4","last_reported":1732878492,"current_range_meters":39200,"station_id":"ce4bh012rcd13ifvqd10","pricing_plan_id":"cebpf4jnsgd1na2vs0mg"},{"bike_id":"bea31957-ef09-4b6c-ad5b-32eebdfda98d","system_id":"levelo_inurba_marseille","lat":43.31368,"lon":5.38496,"is_reserved":false,"is_disabled":false,"rental_uris":{"android":"levelo://app?vid=bea31957-ef09-4b6c-ad5b-32eebdfda98d","ios":"levelo://app?vid=bea31957-ef09-4b6c-ad5b-32eebdfda98d"},"vehicle_type_id":"4","last_reported":1732878492,"current_range_meters":39200,"station_id":"ce4bgt92rcd13ifvqcf0","pricing_plan_id":"cebpf4jnsgd1na2vs0mg"},{"bike_id":"3701ecef-9880-4ecd-a329-cfa8985b0e11","system_id":"levelo_inurba_marseille","lat":43.29422,"lon":5.38622,"is_reserved":false,"is_disabled":false,"rental_uris":{"android":"levelo://app?vid=3701ecef-9880-4ecd-a329-cfa8985b0e11","ios":"levelo://app?vid=3701ecef-9880-4ecd-a329-cfa8985b0e11"},"vehicle_type_id":"4","last_reported":1732878492,"current_range_meters":25600,"station_id":"ce4bh2h2rcd13ifvqdh0","pricing_plan_id":"cebpf4jnsgd1na2vs0mg"},{"bike_id":"83688efd-6143-43ed-bf13-d38e5e751874","system_id":"levelo_inurba_marseille","lat":43.30482,"lon":5.37247,"is_reserved":false,"is_disabled":false,"rental_uris":{"android":"levelo://app?vid=83688efd-6143-43ed-bf13-d38e5e751874","ios":"levelo://app?vid=83688efd-6143-43ed-bf13-d38e5e751874"},"vehicle_type_id":"4","last_reported":1732878492,"current_range_meters":6400,"station_id":"","pricing_plan_id":"cebpf4jnsgd1na2vs0mg"},{"bike_id":"fbb69a76-9f06-4ea3-954f-7f4b2f1d4bea","system_id":"levelo_inurba_marseille","lat":43.22926,"lon":5.35376,"is_reserved":false,"is_disabled":false,"rental_uris":{"android":"levelo://app?vid=fbb69a76-9f06-4ea3-954f-7f4b2f1d4bea","ios":"levelo://app?vid=fbb69a76-9f06-4ea3-954f-7f4b2f1d4bea"},"vehicle_type_id":"4","last_reported":1732878492,"current_range_meters":37600,"station_id":"cpo3532slgdg3j2ikp40","pricing_plan_id":"cebpf4jnsgd1na2vs0mg"},{"bike_id":"9e944db9-d48e-4848-b5fa-4af701aee80b","system_id":"levelo_inurba_marseille","lat":48.80797,"lon":2.40127,"is_reserved":false,"is_disabled":true,"rental_uris":{"android":"levelo://app?vid=9e944db9-d48e-4848-b5fa-4af701aee80b","ios":"levelo://app?vid=9e944db9-d48e-4848-b5fa-4af701aee80b"},"vehicle_type_id":"4","last_reported":1732878492,"current_range_meters":19600,"station_id":"","pricing_plan_id":"cebpf4jnsgd1na2vs0mg"},{"bike_id":"cb8a592f-b6c1-4fca-94a6-4740b9927dd1","system_id":"levelo_inurba_marseille","lat":43.30956,"lon":5.39031,"is_reserved":false,"is_disabled":false,"rental_uris":{"android":"levelo://app?vid=cb8a592f-b6c1-4fca-94a6-4740b9927dd1","ios":"levelo://app?vid=cb8a592f-b6c1-4fca-94a6-4740b9927dd1"},"vehicle_type_id":"4","last_reported":1732878492,"current_range_meters":13600,"station_id":"ce4bgup2rcd13ifvqco0","pricing_plan_id":"cebpf4jnsgd1na2vs0mg"},{"bike_id":"c99c58d8-4a15-455b-a839-9ccf8b87a4ab","system_id":"levelo_inurba_marseille","lat":43.32543,"lon":5.41427,"is_reserved":false,"is_disabled":false,"rental_uris":{"android":"levelo://app?vid=c99c58d8-4a15-455b-a839-9ccf8b87a4ab","ios":"levelo://app?vid=c99c58d8-4a15-455b-a839-9ccf8b87a4ab"},"vehicle_type_id":"4","last_reported":1732878492,"current_range_meters":28800,"station_id":"ce4bhq12rcd13ifvqhhg","pricing_plan_id":"cebpf4jnsgd1na2vs0mg"},{"bike_id":"66d83529-a29a-4480-ac7a-6e5820ed86e7","system_id":"levelo_inurba_marseille","lat":43.29847,"lon":5.36287,"is_reserved":false,"is_disabled":false,"rental_uris":{"android":"levelo://app?vid=66d83529-a29a-4480-ac7a-6e5820ed86e7","ios":"levelo://app?vid=66d83529-a29a-4480-ac7a-6e5820ed86e7"},"vehicle_type_id":"4","last_reported":1732878492,"current_range_meters":33600,"station_id":"ce4bgpp2rcd13ifvqc3g","pricing_plan_id":"cebpf4jnsgd1na2vs0mg"},{"bike_id":"b61c151d-254f-418a-acba-808cf48ca20e","system_id":"levelo_inurba_marseille","lat":43.27817,"lon":5.40718,"is_reserved":false,"is_disabled":false,"rental_uris":{"android":"levelo://app?vid=b61c151d-254f-418a-acba-808cf48ca20e","ios":"levelo://app?vid=b61c151d-254f-418a-acba-808cf48ca20e"},"vehicle_type_id":"4","last_reported":1732878492,"current_range_meters":15200,"station_id":"ce4bhnh2rcd13ifvqgtg","pricing_plan_id":"cebpf4jnsgd1na2vs0mg"},{"bike_id":"1ad31df8-54f2-45de-9199-25a4f20928cb","system_id":"levelo_inurba_marseille","lat":43.29294,"lon":5.3743,"is_reserved":false,"is_disabled":false,"rental_uris":{"android":"levelo://app?vid=1ad31df8-54f2-45de-9199-25a4f20928cb","ios":"levelo://app?vid=1ad31df8-54f2-45de-9199-25a4f20928cb"},"vehicle_type_id":"4","last_reported":1732878492,"current_range_meters":38800,"station_id":"ce4bgi12rcd13ifvqb70","pricing_plan_id":"cebpf4jnsgd1na2vs0mg"},{"bike_id":"7ce901b5-50da-476c-b929-055a6f4d9246","system_id":"levelo_inurba_marseille","lat":43.24651,"lon":5.38898,"is_reserved":false,"is_disabled":false,"rental_uris":{"android":"levelo://app?vid=7ce901b5-50da-476c-b929-055a6f4d9246","ios":"levelo://app?vid=7ce901b5-50da-476c-b929-055a6f4d9246"},"vehicle_type_id":"4","last_reported":1732878492,"current_range_meters":38000,"station_id":"ce4bhg12rcd13ifvqf60","pricing_plan_id":"cebpf4jnsgd1na2vs0mg"},{"bike_id":"5a56ca44-45bb-4715-9f86-d09b7796fd4b","system_id":"levelo_inurba_marseille","lat":43.28935,"lon":5.36638,"is_reserved":false,"is_disabled":true,"rental_uris":{"android":"levelo://app?vid=5a56ca44-45bb-4715-9f86-d09b7796fd4b","ios":"levelo://app?vid=5a56ca44-45bb-4715-9f86-d09b7796fd4b"},"vehicle_type_id":"4","last_reported":1732878492,"current_range_meters":0,"station_id":"ce4bhap2rcd13ifvqek0","pricing_plan_id":"cebpf4jnsgd1na2vs0mg"},{"bike_id":"19260956-8560-4cec-b7cd-c2784ad7a2ae","system_id":"levelo_inurba_marseille","lat":43.25815,"lon":5.39423,"is_reserved":false,"is_disabled":false,"rental_uris":{"android":"levelo://app?vid=19260956-8560-4cec-b7cd-c2784ad7a2ae","ios":"levelo://app?vid=19260956-8560-4cec-b7cd-c2784ad7a2ae"},"vehicle_type_id":"4","last_reported":1732878492,"current_range_meters":38000,"station_id":"ce4bhip2rcd13ifvqft0","pricing_plan_id":"cebpf4jnsgd1na2vs0mg"},{"bike_id":"501b6669-c9d3-400e-a8e7-52c9b56f327b","system_id":"levelo_inurba_marseille","lat":43.27175,"lon":5.40993,"is_reserved":false,"is_disabled":false,"rental_uris":{"android":"levelo://app?vid=501b6669-c9d3-400e-a8e7-52c9b56f327b","ios":"levelo://app?vid=501b6669-c9d3-400e-a8e7-52c9b56f327b"},"vehicle_type_id":"4","last_reported":1732878492,"current_range_meters":9600,"station_id":"ce4bhl12rcd13ifvqgf0","pricing_plan_id":"cebpf4jnsgd1na2vs0mg"},{"bike_id":"718cee5d-5eec-49cc-affe-06e8d4297bab","system_id":"levelo_inurba_marseille","lat":43.29374,"lon":5.37856,"is_reserved":false,"is_disabled":true,"rental_uris":{"android":"levelo://app?vid=718cee5d-5eec-49cc-affe-06e8d4297bab","ios":"levelo://app?vid=718cee5d-5eec-49cc-affe-06e8d4297bab"},"vehicle_type_id":"4","last_reported":1732878492,"current_range_meters":36400,"station_id":"ce4bgjh2rcd13ifvqbf0","pricing_plan_id":"cebpf4jnsgd1na2vs0mg"},{"bike_id":"7fb5ee73-0aef-4d00-bbae-2591d579f881","system_id":"levelo_inurba_marseille","lat":43.29417,"lon":5.38621,"is_reserved":false,"is_disabled":false,"rental_uris":{"android":"levelo://app?vid=7fb5ee73-0aef-4d00-bbae-2591d579f881","ios":"levelo://app?vid=7fb5ee73-0aef-4d00-bbae-2591d579f881"},"vehicle_type_id":"4","last_reported":1732878492,"current_range_meters":35600,"station_id":"ce4bh2h2rcd13ifvqdh0","pricing_plan_id":"cebpf4jnsgd1na2vs0mg"},{"bike_id":"b069cb8d-e1da-4583-85e5-79ac3d7b48a4","system_id":"levelo_inurba_marseille","lat":43.29847,"lon":5.36288,"is_reserved":false,"is_disabled":false,"rental_uris":{"android":"levelo://app?vid=b069cb8d-e1da-4583-85e5-79ac3d7b48a4","ios":"levelo://app?vid=b069cb8d-e1da-4583-85e5-79ac3d7b48a4"},"vehicle_type_id":"4","last_reported":1732878492,"current_range_meters":31200,"station_id":"ce4bgpp2rcd13ifvqc3g","pricing_plan_id":"cebpf4jnsgd1na2vs0mg"},{"bike_id":"a81fe2e9-188b-4b50-b2db-bbda51577084","system_id":"levelo_inurba_marseille","lat":43.26806,"lon":5.40276,"is_reserved":false,"is_disabled":false,"rental_uris":{"android":"levelo://app?vid=a81fe2e9-188b-4b50-b2db-bbda51577084","ios":"levelo://app?vid=a81fe2e9-188b-4b50-b2db-bbda51577084"},"vehicle_type_id":"4","last_reported":1732878492,"current_range_meters":26000,"station_id":"ce501612rcd8frsf0b60","pricing_plan_id":"cebpf4jnsgd1na2vs0mg"},{"bike_id":"1dd9a4e7-40e3-476c-835b-957b70532a8f","system_id":"levelo_inurba_marseille","lat":43.30148,"lon":5.37422,"is_reserved":false,"is_disabled":false,"rental_uris":{"android":"levelo://app?vid=1dd9a4e7-40e3-476c-835b-957b70532a8f","ios":"levelo://app?vid=1dd9a4e7-40e3-476c-835b-957b70532a8f"},"vehicle_type_id":"4","last_reported":1732878492,"current_range_meters":38800,"station_id":"ce4bgs92rcd13ifvqcc0","pricing_plan_id":"cebpf4jnsgd1na2vs0mg"},{"bike_id":"ae3817ed-117b-4ae4-bc47-be03692973ed","system_id":"levelo_inurba_marseille","lat":43.23196,"lon":5.35555,"is_reserved":false,"is_disabled":false,"rental_uris":{"android":"levelo://app?vid=ae3817ed-117b-4ae4-bc47-be03692973ed","ios":"levelo://app?vid=ae3817ed-117b-4ae4-bc47-be03692973ed"},"vehicle_type_id":"4","last_reported":1732878492,"current_range_meters":38800,"station_id":"ce4bhu92rcd13ifvqi70","pricing_plan_id":"cebpf4jnsgd1na2vs0mg"},{"bike_id":"a9059b6b-2120-4eae-a722-16edceab3007","system_id":"levelo_inurba_marseille","lat":43.30532,"lon":5.36718,"is_reserved":false,"is_disabled":false,"rental_uris":{"android":"levelo://app?vid=a9059b6b-2120-4eae-a722-16edceab3007","ios":"levelo://app?vid=a9059b6b-2120-4eae-a722-16edceab3007"},"vehicle_type_id":"4","last_reported":1732878492,"current_range_meters":6000,"station_id":"ce4bgrp2rcd13ifvqc9g","pricing_plan_id":"cebpf4jnsgd1na2vs0mg"},{"bike_id":"e330ca87-4f13-4353-9ac3-a07903f1c8e3","system_id":"levelo_inurba_marseille","lat":43.28614,"lon":5.35102,"is_reserved":false,"is_disabled":false,"rental_uris":{"android":"levelo://app?vid=e330ca87-4f13-4353-9ac3-a07903f1c8e3","ios":"levelo://app?vid=e330ca87-4f13-4353-9ac3-a07903f1c8e3"},"vehicle_type_id":"4","last_reported":1732878492,"current_range_meters":33600,"station_id":"ce4bhch2rcd13ifvqeug","pricing_plan_id":"cebpf4jnsgd1na2vs0mg"},{"bike_id":"543bf7b3-585d-475f-8df4-f832207e7738","system_id":"levelo_inurba_marseille","lat":43.29043,"lon":5.35918,"is_reserved":false,"is_disabled":true,"rental_uris":{"android":"levelo://app?vid=543bf7b3-585d-475f-8df4-f832207e7738","ios":"levelo://app?vid=543bf7b3-585d-475f-8df4-f832207e7738"},"vehicle_type_id":"4","last_reported":1732878492,"current_range_meters":22000,"station_id":"ce4bha92rcd13ifvqeg0","pricing_plan_id":"cebpf4jnsgd1na2vs0mg"},{"bike_id":"b7f97895-37e6-4852-ae2b-435f7720c5a6","system_id":"levelo_inurba_marseille","lat":43.29594,"lon":5.38108,"is_reserved":false,"is_disabled":false,"rental_uris":{"android":"levelo://app?vid=b7f97895-37e6-4852-ae2b-435f7720c5a6","ios":"levelo://app?vid=b7f97895-37e6-4852-ae2b-435f7720c5a6"},"vehicle_type_id":"4","last_reported":1732878492,"current_range_meters":10000,"station_id":"ce4bgl12rcd13ifvqbo0","pricing_plan_id":"cebpf4jnsgd1na2vs0mg"},{"bike_id":"b4d58e23-01ae-4c65-b568-c25ecb787930","system_id":"levelo_inurba_marseille","lat":43.265341,"lon":5.393628,"is_reserved":false,"is_disabled":true,"rental_uris":{"android":"levelo://app?vid=b4d58e23-01ae-4c65-b568-c25ecb787930","ios":"levelo://app?vid=b4d58e23-01ae-4c65-b568-c25ecb787930"},"vehicle_type_id":"4","last_reported":1732878492,"current_range_meters":0,"station_id":"","pricing_plan_id":"cebpf4jnsgd1na2vs0mg"},{"bike_id":"a1e24b08-8ef1-4ad2-a74e-15b6052afb65","system_id":"levelo_inurba_marseille","lat":43.29419,"lon":5.3863,"is_reserved":false,"is_disabled":true,"rental_uris":{"android":"levelo://app?vid=a1e24b08-8ef1-4ad2-a74e-15b6052afb65","ios":"levelo://app?vid=a1e24b08-8ef1-4ad2-a74e-15b6052afb65"},"vehicle_type_id":"4","last_reported":1732878492,"current_range_meters":0,"station_id":"ce4bh2h2rcd13ifvqdh0","pricing_plan_id":"cebpf4jnsgd1na2vs0mg"},{"bike_id":"aa4b46c6-8c09-4df3-be60-0f85c6512c64","system_id":"levelo_inurba_marseille","lat":43.27073,"lon":5.42287,"is_reserved":false,"is_disabled":false,"rental_uris":{"android":"levelo://app?vid=aa4b46c6-8c09-4df3-be60-0f85c6512c64","ios":"levelo://app?vid=aa4b46c6-8c09-4df3-be60-0f85c6512c64"},"vehicle_type_id":"4","last_reported":1732878492,"current_range_meters":6000,"station_id":"ce4bhk92rcd13ifvqgb0","pricing_plan_id":"cebpf4jnsgd1na2vs0mg"},{"bike_id":"447c7286-7fd2-40d7-a11c-845c88099efe","system_id":"levelo_inurba_marseille","lat":43.2293,"lon":5.35374,"is_reserved":false,"is_disabled":false,"rental_uris":{"android":"levelo://app?vid=447c7286-7fd2-40d7-a11c-845c88099efe","ios":"levelo://app?vid=447c7286-7fd2-40d7-a11c-845c88099efe"},"vehicle_type_id":"4","last_reported":1732878492,"current_range_meters":6800,"station_id":"cpo3532slgdg3j2ikp40","pricing_plan_id":"cebpf4jnsgd1na2vs0mg"},{"bike_id":"d70534cb-4619-48df-b668-32bab2e477d6","system_id":"levelo_inurba_marseille","lat":43.28338,"lon":5.38105,"is_reserved":false,"is_disabled":true,"rental_uris":{"android":"levelo://app?vid=d70534cb-4619-48df-b668-32bab2e477d6","ios":"levelo://app?vid=d70534cb-4619-48df-b668-32bab2e477d6"},"vehicle_type_id":"4","last_reported":1732878492,"current_range_meters":17200,"station_id":"ce4bh412rcd13ifvqdr0","pricing_plan_id":"cebpf4jnsgd1na2vs0mg"},{"bike_id":"3c004498-97d8-4734-92a1-0be83c583f82","system_id":"levelo_inurba_marseille","lat":43.272084,"lon":5.391827,"is_reserved":false,"is_disabled":false,"rental_uris":{"android":"levelo://app?vid=3c004498-97d8-4734-92a1-0be83c583f82","ios":"levelo://app?vid=3c004498-97d8-4734-92a1-0be83c583f82"},"vehicle_type_id":"4","last_reported":1732878492,"current_range_meters":33600,"station_id":"ce4bhm12rcd13ifvqgkg","pricing_plan_id":"cebpf4jnsgd1na2vs0mg"},{"bike_id":"8c646e06-9f73-46d0-8836-04dc55ab528c","system_id":"levelo_inurba_marseille","lat":43.30138,"lon":5.39854,"is_reserved":false,"is_disabled":false,"rental_uris":{"android":"levelo://app?vid=8c646e06-9f73-46d0-8836-04dc55ab528c","ios":"levelo://app?vid=8c646e06-9f73-46d0-8836-04dc55ab528c"},"vehicle_type_id":"4","last_reported":1732878492,"current_range_meters":2000,"station_id":"ce4bh0h2rcd13ifvqd40","pricing_plan_id":"cebpf4jnsgd1na2vs0mg"},{"bike_id":"30bb44b4-4253-41ce-8ec4-2f61bee6c7d5","system_id":"levelo_inurba_marseille","lat":43.25585,"lon":5.38229,"is_reserved":false,"is_disabled":false,"rental_uris":{"android":"levelo://app?vid=30bb44b4-4253-41ce-8ec4-2f61bee6c7d5","ios":"levelo://app?vid=30bb44b4-4253-41ce-8ec4-2f61bee6c7d5"},