{"last_updated":1676963233,"ttl":30,"version":"2.2","data":{"bikes":[{"bike_id":"945ef45d-c5e0-463e-8679-41faab5a5416","system_id":"levelo_inurba_marseille","lat":43.312239,"lon":5.368562,"is_reserved":false,"is_disabled":false,"rental_uris":{"android":"levelo://app?vid=945ef45d-c5e0-463e-8679-41faab5a5416","ios":"levelo://app?vid=945ef45d-c5e0-463e-8679-41faab5a5416"},"vehicle_type_id":"4","last_reported":1676963234,"current_range_meters":12400,"station_id":"ce4bgl92rcd13ifvqbq0","pricing_plan_id":"free"},{"bike_id":"ebecbe56-bbef-42a8-afe2-0c1e6c80246f","system_id":"levelo_inurba_marseille","lat":43.312239,"lon":5.368562,"is_reserved":false,"is_disabled":false,"rental_uris":{"android":"levelo://app?vid=ebecbe56-bbef-42a8-afe2-0c1e6c80246f","ios":"levelo://app?vid=ebecbe56-bbef-42a8-afe2-0c1e6c80246f"},"vehicle_type_id":"4","last_reported":1676963234,"current_range_meters":26800,"station_id":"ce4bgl92rcd13ifvqbq0","pricing_plan_id":"free"},{"bike_id":"7adf0eb0-374f-42ed-9077-5163e38134c0","system_id":"levelo_inurba_marseille","lat":43.312239,"lon":5.368562,"is_reserved":false,"is_disabled":false,"rental_uris":{"android":"levelo://app?vid=7adf0eb0-374f-42ed-9077-5163e38134c0","ios":"levelo://app?vid=7adf0eb0-374f-42ed-9077-5163e38134c0"},"vehicle_type_id":"4","last_reported":1676963234,"current_range_meters":14000,"station_id":"ce4bgl92rcd13ifvqbq0","pricing_plan_id":"free"},{"bike_id":"d2d5d99a-35a1-4c81-b155-716cd11b00c1","system_id":"levelo_inurba_marseille","lat":43.312239,"lon":5.368562,"is_reserved":false,"is_disabled":false,"rental_uris":{"android":"levelo://app?vid=d2d5d99a-35a1-4c81-b155-716cd11b00c1","ios":"levelo://app?vid=d2d5d99a-35a1-4c81-b155-716cd11b00c1"},"vehicle_type_id":"4","last_reported":1676963234,"current_range_meters":28800,"station_id":"ce4bgl92rcd13ifvqbq0","pricing_plan_id":"free"},{"bike_id":"5d5dcf9e-238e-4f17-bced-ae69e3740cb8","system_id":"levelo_inurba_marseille","lat":43.312239,"lon":5.368562,"is_reserved":false,"is_disabled":false,"rental_uris":{"android":"levelo://app?vid=5d5dcf9e-238e-4f17-bced-ae69e3740cb8","ios":"levelo://app?vid=5d5dcf9e-238e-4f17-bced-ae69e3740cb8"},"vehicle_type_id":"4","last_reported":1676963234,"current_range_meters":22400,"station_id":"ce4bgl92rcd13ifvqbq0","pricing_plan_id":"free"},{"bike_id":"213bf02b-daa9-4e1a-987d-63454cd18d43","system_id":"levelo_inurba_marseille","lat":43.312239,"lon":5.368562,"is_reserved":false,"is_disabled":false,"rental_uris":{"android":"levelo://app?vid=213bf02b-daa9-4e1a-987d-63454cd18d43","ios":"levelo://app?vid=213bf02b-daa9-4e1a-987d-63454cd18d43"},"vehicle_type_id":"4","last_reported":1676963234,"current_range_meters":23600,"station_id":"ce4bgl92rcd13ifvqbq0","pricing_plan_id":"free"},{"bike_id":"bd10506c-ca3c-4201-85e1-f4ba2e8f835e","system_id":"levelo_inurba_marseille","lat":43.309076,"lon":5.368465,"is_reserved":false,"is_disabled":false,"rental_uris":{"android":"levelo://app?vid=bd10506c-ca3c-4201-85e1-f4ba2e8f835e","ios":"levelo://app?vid=bd10506c-ca3c-4201-85e1-f4ba2e8f835e"},"vehicle_type_id":"4","last_reported":1676963234,"current_range_meters":10800,"station_id":"ce4bgn92rcd13ifvqbvg","pricing_plan_id":"free"},{"bike_id":"bb6544fd-b10d-4336-9392-6dde00781de7","system_id":"levelo_inurba_marseille","lat":43.309076,"lon":5.368465,"is_reserved":false,"is_disabled":false,"rental_uris":{"android":"levelo://app?vid=bb6544fd-b10d-4336-9392-6dde00781de7","ios":"levelo://app?vid=bb6544fd-b10d-4336-9392-6dde00781de7"},"vehicle_type_id":"4","last_reported":1676963234,"current_range_meters":18000,"station_id":"ce4bgn92rcd13ifvqbvg","pricing_plan_id":"free"},{"bike_id":"c9fa6a45-732f-4f75-966b-a8e06c171907","system_id":"levelo_inurba_marseille","lat":43.309076,"lon":5.368465,"is_reserved":false,"is_disabled":false,"rental_uris":{"android":"levelo://app?vid=c9fa6a45-732f-4f75-966b-a8e06c171907","ios":"levelo://app?vid=c9fa6a45-732f-4f75-966b-a8e06c171907"},"vehicle_type_id":"4","last_reported":1676963234,"current_range_meters":28000,"station_id":"ce4bgn92rcd13ifvqbvg","pricing_plan_id":"free"},{"bike_id":"a1bb9750-fad1-4807-9039-de7c4406d2ed","system_id":"levelo_inurba_marseille","lat":43.312473,"lon":5.37313,"is_reserved":false,"is_disabled":false,"rental_uris":{"android":"levelo://app?vid=a1bb9750-fad1-4807-9039-de7c4406d2ed","ios":"levelo://app?vid=a1bb9750-fad1-4807-9039-de7c4406d2ed"},"vehicle_type_id":"4","last_reported":1676963234,"current_range_meters":2400,"station_id":"","pricing_plan_id":"free"},{"bike_id":"e28b27ab-36f4-4bb8-a9a8-bd3e7331d0eb","system_id":"levelo_inurba_marseille","lat":43.314983,"lon":5.373003,"is_reserved":false,"is_disabled":false,"rental_uris":{"android":"levelo://app?vid=e28b27ab-36f4-4bb8-a9a8-bd3e7331d0eb","ios":"levelo://app?vid=e28b27ab-36f4-4bb8-a9a8-bd3e7331d0eb"},"vehicle_type_id":"4","last_reported":1676963234,"current_range_meters":30000,"station_id":"ce4bgt12rcd13ifvqcd0","pricing_plan_id":"free"},{"bike_id":"11a24967-3c4c-4654-8abd-695d948f1024","system_id":"levelo_inurba_marseille","lat":43.315,"lon":5.37301,"is_reserved":false,"is_disabled":false,"rental_uris":{"android":"levelo://app?vid=11a24967-3c4c-4654-8abd-695d948f1024","ios":"levelo://app?vid=11a24967-3c4c-4654-8abd-695d948f1024"},"vehicle_type_id":"4","last_reported":1676963234,"current_range_meters":19200,"station_id":"","pricing_plan_id":"free"},{"bike_id":"341fc87c-1ba6-483d-87ad-28f50b4f8c58","system_id":"levelo_inurba_marseille","lat":43.308874,"lon":5.371883,"is_reserved":false,"is_disabled":false,"rental_uris":{"android":"levelo://app?vid=341fc87c-1ba6-483d-87ad-28f50b4f8c58","ios":"levelo://app?vid=341fc87c-1ba6-483d-87ad-28f50b4f8c58"},"vehicle_type_id":"4","last_reported":1676963234,"current_range_meters":400,"station_id":"","pricing_plan_id":"free"},{"bike_id":"8bbaa1a2-2b0c-4de0-871f-c107a967a8f9","system_id":"levelo_inurba_marseille","lat":43.308868,"lon":5.371892,"is_reserved":false,"is_disabled":false,"rental_uris":{"android":"levelo://app?vid=8bbaa1a2-2b0c-4de0-871f-c107a967a8f9","ios":"levelo://app?vid=8bbaa1a2-2b0c-4de0-871f-c107a967a8f9"},"vehicle_type_id":"4","last_reported":1676963234,"current_range_meters":2400,"station_id":"","pricing_plan_id":"free"},{"bike_id":"5a57f9b6-7400-4ca5-930d-349027a5262f","system_id":"levelo_inurba_marseille","lat":43.30598,"lon":5.37217,"is_reserved":false,"is_disabled":false,"rental_uris":{"android":"levelo://app?vid=5a57f9b6-7400-4ca5-930d-349027a5262f","ios":"levelo://app?vid=5a57f9b6-7400-4ca5-930d-349027a5262f"},"vehicle_type_id":"4","last_reported":1676963234,"current_range_meters":27600,"station_id":"ce4bgqh2rcd13ifvqc4g","pricing_plan_id":"free"},{"bike_id":"c1413f9c-c124-4d80-aed8-e2196383c2e6","system_id":"levelo_inurba_marseille","lat":43.306034,"lon":5.37241,"is_reserved":false,"is_disabled":false,"rental_uris":{"android":"levelo://app?vid=c1413f9c-c124-4d80-aed8-e2196383c2e6","ios":"levelo://app?vid=c1413f9c-c124-4d80-aed8-e2196383c2e6"},"vehicle_type_id":"4","last_reported":1676963234,"current_range_meters":0,"station_id":"ce4bgqh2rcd13ifvqc4g","pricing_plan_id":"free"},{"bike_id":"fd95ebf9-bd64-436d-86d3-e79076dfd247","system_id":"levelo_inurba_marseille","lat":43.319193,"lon":5.373617,"is_reserved":false,"is_disabled":false,"rental_uris":{"android":"levelo://app?vid=fd95ebf9-bd64-436d-86d3-e79076dfd247","ios":"levelo://app?vid=fd95ebf9-bd64-436d-86d3-e79076dfd247"},"vehicle_type_id":"4","last_reported":1676963234,"current_range_meters":23200,"station_id":"","pricing_plan_id":"free"},{"bike_id":"b45a4770-5b04-4538-b777-8e6f24bd551f","system_id":"levelo_inurba_marseille","lat":43.317075,"lon":5.377367,"is_reserved":false,"is_disabled":false,"rental_uris":{"android":"levelo://app?vid=b45a4770-5b04-4538-b777-8e6f24bd551f","ios":"levelo://app?vid=b45a4770-5b04-4538-b777-8e6f24bd551f"},"vehicle_type_id":"4","last_reported":1676963234,"current_range_meters":28800,"station_id":"ce4bgth2rcd13ifvqch0","pricing_plan_id":"free"},{"bike_id":"bb55f7a9-b4f2-4c39-a4f7-d135b45a93ba","system_id":"levelo_inurba_marseille","lat":43.302019,"lon":5.366197,"is_reserved":false,"is_disabled":false,"rental_uris":{"android":"levelo://app?vid=bb55f7a9-b4f2-4c39-a4f7-d135b45a93ba","ios":"levelo://app?vid=bb55f7a9-b4f2-4c39-a4f7-d135b45a93ba"},"vehicle_type_id":"4","last_reported":1676963234,"current_range_meters":20400,"station_id":"ce4bgrh2rcd13ifvqc8g","pricing_plan_id":"free"},{"bike_id":"50879b6c-0956-46a3-a4d5-4e10189120aa","system_id":"levelo_inurba_marseille","lat":43.30184,"lon":5.36627,"is_reserved":false,"is_disabled":false,"rental_uris":{"android":"levelo://app?vid=50879b6c-0956-46a3-a4d5-4e10189120aa","ios":"levelo://app?vid=50879b6c-0956-46a3-a4d5-4e10189120aa"},"vehicle_type_id":"4","last_reported":1676963234,"current_range_meters":20000,"station_id":"ce4bgrh2rcd13ifvqc8g","pricing_plan_id":"free"},{"bike_id":"64a814b5-ac6b-4f1f-8924-4fff7a59f7d5","system_id":"levelo_inurba_marseille","lat":43.301939,"lon":5.366286,"is_reserved":false,"is_disabled":false,"rental_uris":{"android":"levelo://app?vid=64a814b5-ac6b-4f1f-8924-4fff7a59f7d5","ios":"levelo://app?vid=64a814b5-ac6b-4f1f-8924-4fff7a59f7d5"},"vehicle_type_id":"4","last_reported":1676963234,"current_range_meters":0,"station_id":"ce4bgrh2rcd13ifvqc8g","pricing_plan_id":"free"},{"bike_id":"a8ed7106-fd96-414c-9a9b-05386eb824d4","system_id":"levelo_inurba_marseille","lat":43.301939,"lon":5.366286,"is_reserved":false,"is_disabled":false,"rental_uris":{"android":"levelo://app?vid=a8ed7106-fd96-414c-9a9b-05386eb824d4","ios":"levelo://app?vid=a8ed7106-fd96-414c-9a9b-05386eb824d4"},"vehicle_type_id":"4","last_reported":1676963234,"current_range_meters":4800,"station_id":"ce4bgrh2rcd13ifvqc8g","pricing_plan_id":"free"},{"bike_id":"258b298f-ffe3-4536-8b99-99431962c556","system_id":"levelo_inurba_marseille","lat":43.301939,"lon":5.366286,"is_reserved":false,"is_disabled":false,"rental_uris":{"android":"levelo://app?vid=258b298f-ffe3-4536-8b99-99431962c556","ios":"levelo://app?vid=258b298f-ffe3-4536-8b99-99431962c556"},"vehicle_type_id":"4","last_reported":1676963234,"current_range_meters":2800,"station_id":"ce4bgrh2rcd13ifvqc8g","pricing_plan_id":"free"},{"bike_id":"7d6c0ccd-e2ac-4bf7-b3cc-2d92b7a7fc64","system_id":"levelo_inurba_marseille","lat":43.308012,"lon":5.381511,"is_reserved":false,"is_disabled":false,"rental_uris":{"android":"levelo://app?vid=7d6c0ccd-e2ac-4bf7-b3cc-2d92b7a7fc64","ios":"levelo://app?vid=7d6c0ccd-e2ac-4bf7-b3cc-2d92b7a7fc64"},"vehicle_type_id":"4","last_reported":1676963234,"current_range_meters":29200,"station_id":"ce4bgt12rcd13ifvqce0","pricing_plan_id":"free"},{"bike_id":"7e3672d9-d238-4ad4-b7bb-371e72e689d4","system_id":"levelo_inurba_marseille","lat":43.308,"lon":5.3815,"is_reserved":false,"is_disabled":false,"rental_uris":{"android":"levelo://app?vid=7e3672d9-d238-4ad4-b7bb-371e72e689d4","ios":"levelo://app?vid=7e3672d9-d238-4ad4-b7bb-371e72e689d4"},"vehicle_type_id":"4","last_reported":1676963234,"current_range_meters":28000,"station_id":"ce4bgt12rcd13ifvqce0","pricing_plan_id":"free"},{"bike_id":"eb2ff6c1-f620-479b-ae86-b5410bb8d215","system_id":"levelo_inurba_marseille","lat":43.308012,"lon":5.381511,"is_reserved":false,"is_disabled":false,"rental_uris":{"android":"levelo://app?vid=eb2ff6c1-f620-479b-ae86-b5410bb8d215","ios":"levelo://app?vid=eb2ff6c1-f620-479b-ae86-b5410bb8d215"},"vehicle_type_id":"4","last_reported":1676963234,"current_range_meters":30000,"station_id":"ce4bgt12rcd13ifvqce0","pricing_plan_id":"free"},{"bike_id":"42c99eac-780b-4235-9087-c19fc89138d8","system_id":"levelo_inurba_marseille","lat":43.30799,"lon":5.38152,"is_reserved":false,"is_disabled":false,"rental_uris":{"android":"levelo://app?vid=42c99eac-780b-4235-9087-c19fc89138d8","ios":"levelo://app?vid=42c99eac-780b-4235-9087-c19fc89138d8"},"vehicle_type_id":"4","last_reported":1676963234,"current_range_meters":31600,"station_id":"ce4bgt12rcd13ifvqce0","pricing_plan_id":"free"},{"bike_id":"6bfc9aa6-aaac-4734-a309-3a925ba1fe31","system_id":"levelo_inurba_marseille","lat":43.308012,"lon":5.381511,"is_reserved":false,"is_disabled":false,"rental_uris":{"android":"levelo://app?vid=6bfc9aa6-aaac-4734-a309-3a925ba1fe31","ios":"levelo://app?vid=6bfc9aa6-aaac-4734-a309-3a925ba1fe31"},"vehicle_type_id":"4","last_reported":1676963234,"current_range_meters":31600,"station_id":"ce4bgt12rcd13ifvqce0","pricing_plan_id":"free"},{"bike_id":"586eb00e-ef9f-4f45-8bde-169331a971f6","system_id":"levelo_inurba_marseille","lat":43.304606,"lon":5.379026,"is_reserved":false,"is_disabled":false,"rental_uris":{"android":"levelo://app?vid=586eb00e-ef9f-4f45-8bde-169331a971f6","ios":"levelo://app?vid=586eb00e-ef9f-4f45-8bde-169331a971f6"},"vehicle_type_id":"4","last_reported":1676963234,"current_range_meters":30000,"station_id":"ce4bgup2rcd13ifvqcn0","pricing_plan_id":"free"},{"bike_id":"5277d9c5-2c3e-4f4f-978e-015ae175413b","system_id":"levelo_inurba_marseille","lat":43.304432,"lon":5.378786,"is_reserved":false,"is_disabled":false,"rental_uris":{"android":"levelo://app?vid=5277d9c5-2c3e-4f4f-978e-015ae175413b","ios":"levelo://app?vid=5277d9c5-2c3e-4f4f-978e-015ae175413b"},"vehicle_type_id":"4","last_reported":1676963234,"current_range_meters":22400,"station_id":"ce4bgup2rcd13ifvqcn0","pricing_plan_id":"free"},{"bike_id":"54594ac7-1d5f-448c-b43e-88d7e4bc9da0","system_id":"levelo_inurba_marseille","lat":43.304606,"lon":5.379026,"is_reserved":false,"is_disabled":false,"rental_uris":{"android":"levelo://app?vid=54594ac7-1d5f-448c-b43e-88d7e4bc9da0","ios":"levelo://app?vid=54594ac7-1d5f-448c-b43e-88d7e4bc9da0"},"vehicle_type_id":"4","last_reported":1676963234,"current_range_meters":23200,"station_id":"ce4bgup2rcd13ifvqcn0","pricing_plan_id":"free"},{"bike_id":"fa8f4c4a-6e3e-44c5-87c6-6b3f929707dd","system_id":"levelo_inurba_marseille","lat":43.304606,"lon":5.379026,"is_reserved":false,"is_disabled":false,"rental_uris":{"android":"levelo://app?vid=fa8f4c4a-6e3e-44c5-87c6-6b3f929707dd","ios":"levelo://app?vid=fa8f4c4a-6e3e-44c5-87c6-6b3f929707dd"},"vehicle_type_id":"4","last_reported":1676963234,"current_range_meters":20800,"station_id":"ce4bgup2rcd13ifvqcn0","pricing_plan_id":"free"},{"bike_id":"abdbbeee-51d6-41b0-9e13-b51e63b9a46f","system_id":"levelo_inurba_marseille","lat":43.304606,"lon":5.379026,"is_reserved":false,"is_disabled":false,"rental_uris":{"android":"levelo://app?vid=abdbbeee-51d6-41b0-9e13-b51e63b9a46f","ios":"levelo://app?vid=abdbbeee-51d6-41b0-9e13-b51e63b9a46f"},"vehicle_type_id":"4","last_reported":1676963234,"current_range_meters":19600,"station_id":"ce4bgup2rcd13ifvqcn0","pricing_plan_id":"free"},{"bike_id":"193b7d3c-9d85-4652-b1a6-fed18faf4373","system_id":"levelo_inurba_marseille","lat":43.304606,"lon":5.379026,"is_reserved":false,"is_disabled":false,"rental_uris":{"android":"levelo://app?vid=193b7d3c-9d85-4652-b1a6-fed18faf4373","ios":"levelo://app?vid=193b7d3c-9d85-4652-b1a6-fed18faf4373"},"vehicle_type_id":"4","last_reported":1676963234,"current_range_meters":21200,"station_id":"ce4bgup2rcd13ifvqcn0","pricing_plan_id":"free"},{"bike_id":"395fa38d-844d-47aa-b0c6-7e2c742c48ff","system_id":"levelo_inurba_marseille","lat":43.304606,"lon":5.379026,"is_reserved":false,"is_disabled":false,"rental_uris":{"android":"levelo://app?vid=395fa38d-844d-47aa-b0c6-7e2c742c48ff","ios":"levelo://app?vid=395fa38d-844d-47aa-b0c6-7e2c742c48ff"},"vehicle_type_id":"4","last_reported":1676963234,"current_range_meters":29200,"station_id":"ce4bgup2rcd13ifvqcn0","pricing_plan_id":"free"},{"bike_id":"9ed1e426-eafd-4487-afe0-e6069ad76adc","system_id":"levelo_inurba_marseille","lat":43.304606,"lon":5.379026,"is_reserved":false,"is_disabled":false,"rental_uris":{"android":"levelo://app?vid=9ed1e426-eafd-4487-afe0-e6069ad76adc","ios":"levelo://app?vid=9ed1e426-eafd-4487-afe0-e6069ad76adc"},"vehicle_type_id":"4","last_reported":1676963234,"current_range_meters":29600,"station_id":"ce4bgup2rcd13ifvqcn0","pricing_plan_id":"free"},{"bike_id":"a607d334-f1fc-49be-b8d1-3428effc377f","system_id":"levelo_inurba_marseille","lat":43.304606,"lon":5.379026,"is_reserved":false,"is_disabled":false,"rental_uris":{"android":"levelo://app?vid=a607d334-f1fc-49be-b8d1-3428effc377f","ios":"levelo://app?vid=a607d334-f1fc-49be-b8d1-3428effc377f"},"vehicle_type_id":"4","last_reported":1676963234,"current_range_meters":31600,"station_id":"ce4bgup2rcd13ifvqcn0","pricing_plan_id":"free"},{"bike_id":"7cbbcb38-0037-4552-9cfc-834d533f7b5c","system_id":"levelo_inurba_marseille","lat":43.304606,"lon":5.379026,"is_reserved":false,"is_disabled":false,"rental_uris":{"android":"levelo://app?vid=7cbbcb38-0037-4552-9cfc-834d533f7b5c","ios":"levelo://app?vid=7cbbcb38-0037-4552-9cfc-834d533f7b5c"},"vehicle_type_id":"4","last_reported":1676963234,"current_range_meters":30000,"station_id":"ce4bgup2rcd13ifvqcn0","pricing_plan_id":"free"},{"bike_id":"4b5a5452-7ee8-4d3e-937f-177e9e8cf962","system_id":"levelo_inurba_marseille","lat":43.304606,"lon":5.379026,"is_reserved":false,"is_disabled":false,"rental_uris":{"android":"levelo://app?vid=4b5a5452-7ee8-4d3e-937f-177e9e8cf962","ios":"levelo://app?vid=4b5a5452-7ee8-4d3e-937f-177e9e8cf962"},"vehicle_type_id":"4","last_reported":1676963234,"current_range_meters":30800,"station_id":"ce4bgup2rcd13ifvqcn0","pricing_plan_id":"free"},{"bike_id":"566143bd-48d0-4337-ba1f-34730c6e5157","system_id":"levelo_inurba_marseille","lat":43.304558,"lon":5.379101,"is_reserved":false,"is_disabled":false,"rental_uris":{"android":"levelo://app?vid=566143bd-48d0-4337-ba1f-34730c6e5157","ios":"levelo://app?vid=566143bd-48d0-4337-ba1f-34730c6e5157"},"vehicle_type_id":"4","last_reported":1676963234,"current_range_meters":19200,"station_id":"ce4bgup2rcd13ifvqcn0","pricing_plan_id":"free"},{"bike_id":"1426af06-c3e7-495d-a932-a7b716555815","system_id":"levelo_inurba_marseille","lat":43.30154,"lon":5.37509,"is_reserved":false,"is_disabled":false,"rental_uris":{"android":"levelo://app?vid=1426af06-c3e7-495d-a932-a7b716555815","ios":"levelo://app?vid=1426af06-c3e7-495d-a932-a7b716555815"},"vehicle_type_id":"4","last_reported":1676963234,"current_range_meters":14000,"station_id":"","pricing_plan_id":"free"},{"bike_id":"19530891-5d85-4872-985a-a8759d5c0a97","system_id":"levelo_inurba_marseille","lat":43.313571,"lon":5.384829,"is_reserved":false,"is_disabled":false,"rental_uris":{"android":"levelo://app?vid=19530891-5d85-4872-985a-a8759d5c0a97","ios":"levelo://app?vid=19530891-5d85-4872-985a-a8759d5c0a97"},"vehicle_type_id":"4","last_reported":1676963234,"current_range_meters":2400,"station_id":"ce4bgt92rcd13ifvqcf0","pricing_plan_id":"free"},{"bike_id":"99922a25-b365-424f-899b-1d75320ce780","system_id":"levelo_inurba_marseille","lat":43.313571,"lon":5.384829,"is_reserved":false,"is_disabled":false,"rental_uris":{"android":"levelo://app?vid=99922a25-b365-424f-899b-1d75320ce780","ios":"levelo://app?vid=99922a25-b365-424f-899b-1d75320ce780"},"vehicle_type_id":"4","last_reported":1676963234,"current_range_meters":8400,"station_id":"ce4bgt92rcd13ifvqcf0","pricing_plan_id":"free"},{"bike_id":"20c59241-03c8-4462-82bd-320ff07e8eee","system_id":"levelo_inurba_marseille","lat":43.3136,"lon":5.38496,"is_reserved":false,"is_disabled":false,"rental_uris":{"android":"levelo://app?vid=20c59241-03c8-4462-82bd-320ff07e8eee","ios":"levelo://app?vid=20c59241-03c8-4462-82bd-320ff07e8eee"},"vehicle_type_id":"4","last_reported":1676963234,"current_range_meters":16800,"station_id":"ce4bgt92rcd13ifvqcf0","pricing_plan_id":"free"},{"bike_id":"a89fa856-2e1c-4eed-8f62-3c8ae9fa9d5b","system_id":"levelo_inurba_marseille","lat":43.313571,"lon":5.384829,"is_reserved":false,"is_disabled":false,"rental_uris":{"android":"levelo://app?vid=a89fa856-2e1c-4eed-8f62-3c8ae9fa9d5b","ios":"levelo://app?vid=a89fa856-2e1c-4eed-8f62-3c8ae9fa9d5b"},"vehicle_type_id":"4","last_reported":1676963234,"current_range_meters":14000,"station_id":"ce4bgt92rcd13ifvqcf0","pricing_plan_id":"free"},{"bike_id":"80772166-f5c2-4e83-88ad-4e60ad1ee7e4","system_id":"levelo_inurba_marseille","lat":43.305364,"lon":5.384119,"is_reserved":false,"is_disabled":false,"rental_uris":{"android":"levelo://app?vid=80772166-f5c2-4e83-88ad-4e60ad1ee7e4","ios":"levelo://app?vid=80772166-f5c2-4e83-88ad-4e60ad1ee7e4"},"vehicle_type_id":"4","last_reported":1676963234,"current_range_meters":0,"station_id":"ce4bgg92rcd13ifvqb30","pricing_plan_id":"free"},{"bike_id":"a47539d7-8086-4e06-9ab3-ca4553026494","system_id":"levelo_inurba_marseille","lat":43.305364,"lon":5.384119,"is_reserved":false,"is_disabled":false,"rental_uris":{"android":"levelo://app?vid=a47539d7-8086-4e06-9ab3-ca4553026494","ios":"levelo://app?vid=a47539d7-8086-4e06-9ab3-ca4553026494"},"vehicle_type_id":"4","last_reported":1676963234,"current_range_meters":800,"station_id":"ce4bgg92rcd13ifvqb30","pricing_plan_id":"free"},{"bike_id":"874022e4-0648-48b5-957e-36709c432d26","system_id":"levelo_inurba_marseille","lat":43.305364,"lon":5.384119,"is_reserved":false,"is_disabled":false,"rental_uris":{"android":"levelo://app?vid=874022e4-0648-48b5-957e-36709c432d26","ios":"levelo://app?vid=874022e4-0648-48b5-957e-36709c432d26"},"vehicle_type_id":"4","last_reported":1676963234,"current_range_meters":25200,"station_id":"ce4bgg92rcd13ifvqb30","pricing_plan_id":"free"},{"bike_id":"9cac2323-7872-491a-bee6-c4d1cb7f03f4","system_id":"levelo_inurba_marseille","lat":43.311722,"lon":5.387247,"is_reserved":false,"is_disabled":false,"rental_uris":{"android":"levelo://app?vid=9cac2323-7872-491a-bee6-c4d1cb7f03f4","ios":"levelo://app?vid=9cac2323-7872-491a-bee6-c4d1cb7f03f4"},"vehicle_type_id":"4","last_reported":1676963234,"current_range_meters":26000,"station_id":"ce4bgv12rcd13ifvqcp0","pricing_plan_id":"free"},{"bike_id":"a73133b3-307d-488e-ab3b-b1560be029bf","system_id":"levelo_inurba_marseille","lat":43.311722,"lon":5.387247,"is_reserved":false,"is_disabled":false,"rental_uris":{"android":"levelo://app?vid=a73133b3-307d-488e-ab3b-b1560be029bf","ios":"levelo://app?vid=a73133b3-307d-488e-ab3b-b1560be029bf"},"vehicle_type_id":"4","last_reported":1676963234,"current_range_meters":29200,"station_id":"ce4bgv12rcd13ifvqcp0","pricing_plan_id":"free"},{"bike_id":"a6c3ea20-313f-4ec0-aeaf-b9745d49ea23","system_id":"levelo_inurba_marseille","lat":43.328371,"lon":5.366912,"is_reserved":false,"is_disabled":false,"rental_uris":{"android":"levelo://app?vid=a6c3ea20-313f-4ec0-aeaf-b9745d49ea23","ios":"levelo://app?vid=a6c3ea20-313f-4ec0-aeaf-b9745d49ea23"},"vehicle_type_id":"4","last_reported":1676963234,"current_range_meters":400,"station_id":"ce4bhs92rcd13ifvqi0g","pricing_plan_id":"free"},{"bike_id":"e748b511-5a1a-4b68-850f-9771e83f9133","system_id":"levelo_inurba_marseille","lat":43.328371,"lon":5.366912,"is_reserved":false,"is_disabled":false,"rental_uris":{"android":"levelo://app?vid=e748b511-5a1a-4b68-850f-9771e83f9133","ios":"levelo://app?vid=e748b511-5a1a-4b68-850f-9771e83f9133"},"vehicle_type_id":"4","last_reported":1676963234,"current_range_meters":7200,"station_id":"ce4bhs92rcd13ifvqi0g","pricing_plan_id":"free"},{"bike_id":"65a72277-3fa1-4abe-9f0e-32b3cca65f1b","system_id":"levelo_inurba_marseille","lat":43.328371,"lon":5.366912,"is_reserved":false,"is_disabled":false,"rental_uris":{"android":"levelo://app?vid=65a72277-3fa1-4abe-9f0e-32b3cca65f1b","ios":"levelo://app?vid=65a72277-3fa1-4abe-9f0e-32b3cca65f1b"},"vehicle_type_id":"4","last_reported":1676963234,"current_range_meters":12800,"station_id":"ce4bhs92rcd13ifvqi0g","pricing_plan_id":"free"},{"bike_id":"15f7495e-8b1a-41cf-ad9c-2ae8536cd685","system_id":"levelo_inurba_marseille","lat":43.328371,"lon":5.366912,"is_reserved":false,"is_disabled":false,"rental_uris":{"android":"levelo://app?vid=15f7495e-8b1a-41cf-ad9c-2ae8536cd685","ios":"levelo://app?vid=15f7495e-8b1a-41cf-ad9c-2ae8536cd685"},"vehicle_type_id":"4","last_reported":1676963234,"current_range_meters":5200,"station_id":"ce4bhs92rcd13ifvqi0g","pricing_plan_id":"free"},{"bike_id":"a7eceab8-385a-4f4f-8dbd-3c9c3fb10a47","system_id":"levelo_inurba_marseille","lat":43.296839,"lon":5.372958,"is_reserved":false,"is_disabled":false,"rental_uris":{"android":"levelo://app?vid=a7eceab8-385a-4f4f-8dbd-3c9c3fb10a47","ios":"levelo://app?vid=a7eceab8-385a-4f4f-8dbd-3c9c3fb10a47"},"vehicle_type_id":"4","last_reported":1676963234,"current_range_meters":0,"station_id":"","pricing_plan_id":"free"},{"bike_id":"4b331701-6af9-4ce9-8d2c-33c17732692d","system_id":"levelo_inurba_marseille","lat":43.2968,"lon":5.37291,"is_reserved":false,"is_disabled":false,"rental_uris":{"android":"levelo://app?vid=4b331701-6af9-4ce9-8d2c-33c17732692d","ios":"levelo://app?vid=4b331701-6af9-4ce9-8d2c-33c17732692d"},"vehicle_type_id":"4","last_reported":1676963234,"current_range_meters":30800,"station_id":"ce4bgk12rcd13ifvqbj0","pricing_plan_id":"free"},{"bike_id":"e77bce35-85b5-4641-a807-69ed132d28d5","system_id":"levelo_inurba_marseille","lat":43.299028,"lon":5.381509,"is_reserved":false,"is_disabled":false,"rental_uris":{"android":"levelo://app?vid=e77bce35-85b5-4641-a807-69ed132d28d5","ios":"levelo://app?vid=e77bce35-85b5-4641-a807-69ed132d28d5"},"vehicle_type_id":"4","last_reported":1676963234,"current_range_meters":21600,"station_id":"ce4bgj12rcd13ifvqbc0","pricing_plan_id":"free"},{"bike_id":"207d04fe-6195-4cda-a58d-0ed64fdb89ce","system_id":"levelo_inurba_marseille","lat":43.309589,"lon":5.390258,"is_reserved":false,"is_disabled":false,"rental_uris":{"android":"levelo://app?vid=207d04fe-6195-4cda-a58d-0ed64fdb89ce","ios":"levelo://app?vid=207d04fe-6195-4cda-a58d-0ed64fdb89ce"},"vehicle_type_id":"4","last_reported":1676963234,"current_range_meters":29600,"station_id":"ce4bgup2rcd13ifvqco0","pricing_plan_id":"free"},{"bike_id":"c50484f4-afb6-4497-be77-f2fb6ec6d7b2","system_id":"levelo_inurba_marseille","lat":43.309589,"lon":5.390258,"is_reserved":false,"is_disabled":false,"rental_uris":{"android":"levelo://app?vid=c50484f4-afb6-4497-be77-f2fb6ec6d7b2","ios":"levelo://app?vid=c50484f4-afb6-4497-be77-f2fb6ec6d7b2"},"vehicle_type_id":"4","last_reported":1676963234,"current_range_meters":30000,"station_id":"ce4bgup2rcd13ifvqco0","pricing_plan_id":"free"},{"bike_id":"91d29548-91d5-42ba-baf2-1b4ad3ad945f","system_id":"levelo_inurba_marseille","lat":43.317557,"lon":5.390173,"is_reserved":false,"is_disabled":false,"rental_uris":{"android":"levelo://app?vid=91d29548-91d5-42ba-baf2-1b4ad3ad945f","ios":"levelo://app?vid=91d29548-91d5-42ba-baf2-1b4ad3ad945f"},"vehicle_type_id":"4","last_reported":1676963234,"current_range_meters":30000,"station_id":"ce4bhqp2rcd13ifvqhng","pricing_plan_id":"free"},{"bike_id":"e030ca9f-9482-4563-b901-597e9513cc88","system_id":"levelo_inurba_marseille","lat":43.317557,"lon":5.390173,"is_reserved":false,"is_disabled":false,"rental_uris":{"android":"levelo://app?vid=e030ca9f-9482-4563-b901-597e9513cc88","ios":"levelo://app?vid=e030ca9f-9482-4563-b901-597e9513cc88"},"vehicle_type_id":"4","last_reported":1676963234,"current_range_meters":29200,"station_id":"ce4bhqp2rcd13ifvqhng","pricing_plan_id":"free"},{"bike_id":"517c6a00-3f83-462c-b160-7d366cc3f0df","system_id":"levelo_inurba_marseille","lat":43.298037,"lon":5.381066,"is_reserved":false,"is_disabled":false,"rental_uris":{"android":"levelo://app?vid=517c6a00-3f83-462c-b160-7d366cc3f0df","ios":"levelo://app?vid=517c6a00-3f83-462c-b160-7d366cc3f0df"},"vehicle_type_id":"4","last_reported":1676963234,"current_range_meters":26400,"station_id":"ce4bgip2rcd13ifvqbb0","pricing_plan_id":"free"},{"bike_id":"6d628d60-3fd0-4b0d-9f25-7a1c901f0501","system_id":"levelo_inurba_marseille","lat":43.298037,"lon":5.381066,"is_reserved":false,"is_disabled":false,"rental_uris":{"android":"levelo://app?vid=6d628d60-3fd0-4b0d-9f25-7a1c901f0501","ios":"levelo://app?vid=6d628d60-3fd0-4b0d-9f25-7a1c901f0501"},"vehicle_type_id":"4","last_reported":1676963234,"current_range_meters":31600,"station_id":"ce4bgip2rcd13ifvqbb0","pricing_plan_id":"free"},{"bike_id":"e837c29a-e9d1-4ffc-83ba-09aa85101c83","system_id":"levelo_inurba_marseille","lat":43.298037,"lon":5.381066,"is_reserved":false,"is_disabled":false,"rental_uris":{"android":"levelo://app?vid=e837c29a-e9d1-4ffc-83ba-09aa85101c83","ios":"levelo://app?vid=e837c29a-e9d1-4ffc-83ba-09aa85101c83"},"vehicle_type_id":"4","last_reported":1676963234,"current_range_meters":13200,"station_id":"ce4bgip2rcd13ifvqbb0","pricing_plan_id":"free"},{"bike_id":"a8a9b342-e24e-49eb-b9b3-0700750af392","system_id":"levelo_inurba_marseille","lat":43.295748,"lon":5.37522,"is_reserved":false,"is_disabled":false,"rental_uris":{"android":"levelo://app?vid=a8a9b342-e24e-49eb-b9b3-0700750af392","ios":"levelo://app?vid=a8a9b342-e24e-49eb-b9b3-0700750af392"},"vehicle_type_id":"4","last_reported":1676963234,"current_range_meters":19600,"station_id":"ce4bgh92rcd13ifvqb50","pricing_plan_id":"free"},{"bike_id":"d01b7d27-ea27-4c51-8c9e-88f4f96194cd","system_id":"levelo_inurba_marseille","lat":43.29606,"lon":5.377207,"is_reserved":false,"is_disabled":false,"rental_uris":{"android":"levelo://app?vid=d01b7d27-ea27-4c51-8c9e-88f4f96194cd","ios":"levelo://app?vid=d01b7d27-ea27-4c51-8c9e-88f4f96194cd"},"vehicle_type_id":"4","last_reported":1676963234,"current_range_meters":23200,"station_id":"","pricing_plan_id":"free"},{"bike_id":"c7e66870-2e76-4197-9715-6bc68c833073","system_id":"levelo_inurba_marseille","lat":43.295279,"lon":5.375048,"is_reserved":false,"is_disabled":false,"rental_uris":{"android":"levelo://app?vid=c7e66870-2e76-4197-9715-6bc68c833073","ios":"levelo://app?vid=c7e66870-2e76-4197-9715-6bc68c833073"},"vehicle_type_id":"4","last_reported":1676963234,"current_range_meters":0,"station_id":"ce4bgkp2rcd13ifvqbmg","pricing_plan_id":"free"},{"bike_id":"a811213d-32b0-410e-a514-cc1ebf8e5390","system_id":"levelo_inurba_marseille","lat":43.295279,"lon":5.375048,"is_reserved":false,"is_disabled":false,"rental_uris":{"android":"levelo://app?vid=a811213d-32b0-410e-a514-cc1ebf8e5390","ios":"levelo://app?vid=a811213d-32b0-410e-a514-cc1ebf8e5390"},"vehicle_type_id":"4","last_reported":1676963234,"current_range_meters":2800,"station_id":"ce4bgkp2rcd13ifvqbmg","pricing_plan_id":"free"},{"bike_id":"8be9d2ff-091e-4d4c-be38-abf58566980f","system_id":"levelo_inurba_marseille","lat":43.295279,"lon":5.375048,"is_reserved":false,"is_disabled":false,"rental_uris":{"android":"levelo://app?vid=8be9d2ff-091e-4d4c-be38-abf58566980f","ios":"levelo://app?vid=8be9d2ff-091e-4d4c-be38-abf58566980f"},"vehicle_type_id":"4","last_reported":1676963234,"current_range_meters":8000,"station_id":"ce4bgkp2rcd13ifvqbmg","pricing_plan_id":"free"},{"bike_id":"bb032331-bc84-456d-814e-badc655550b6","system_id":"levelo_inurba_marseille","lat":43.295279,"lon":5.375048,"is_reserved":false,"is_disabled":false,"rental_uris":{"android":"levelo://app?vid=bb032331-bc84-456d-814e-badc655550b6","ios":"levelo://app?vid=bb032331-bc84-456d-814e-badc655550b6"},"vehicle_type_id":"4","last_reported":1676963234,"current_range_meters":0,"station_id":"ce4bgkp2rcd13ifvqbmg","pricing_plan_id":"free"},{"bike_id":"567ed783-643e-42a0-afc0-6ee05a6e0a09","system_id":"levelo_inurba_marseille","lat":43.32367,"lon":5.388836,"is_reserved":false,"is_disabled":false,"rental_uris":{"android":"levelo://app?vid=567ed783-643e-42a0-afc0-6ee05a6e0a09","ios":"levelo://app?vid=567ed783-643e-42a0-afc0-6ee05a6e0a09"},"vehicle_type_id":"4","last_reported":1676963234,"current_range_meters":31200,"station_id":"ce4bhqp2rcd13ifvqhog","pricing_plan_id":"free"},{"bike_id":"158bff59-7305-4fcc-8150-5c2966f8e491","system_id":"levelo_inurba_marseille","lat":43.32367,"lon":5.388836,"is_reserved":false,"is_disabled":false,"rental_uris":{"android":"levelo://app?vid=158bff59-7305-4fcc-8150-5c2966f8e491","ios":"levelo://app?vid=158bff59-7305-4fcc-8150-5c2966f8e491"},"vehicle_type_id":"4","last_reported":1676963234,"current_range_meters":27600,"station_id":"ce4bhqp2rcd13ifvqhog","pricing_plan_id":"free"},{"bike_id":"b319f7bf-c5fe-4612-b6c1-8670f1331c20","system_id":"levelo_inurba_marseille","lat":43.32367,"lon":5.388836,"is_reserved":false,"is_disabled":false,"rental_uris":{"android":"levelo://app?vid=b319f7bf-c5fe-4612-b6c1-8670f1331c20","ios":"levelo://app?vid=b319f7bf-c5fe-4612-b6c1-8670f1331c20"},"vehicle_type_id":"4","last_reported":1676963234,"current_range_meters":23600,"station_id":"ce4bhqp2rcd13ifvqhog","pricing_plan_id":"free"},{"bike_id":"91ef18dd-d58c-4dcc-b52d-e00d78324686","system_id":"levelo_inurba_marseille","lat":43.32367,"lon":5.388836,"is_reserved":false,"is_disabled":false,"rental_uris":{"android":"levelo://app?vid=91ef18dd-d58c-4dcc-b52d-e00d78324686","ios":"levelo://app?vid=91ef18dd-d58c-4dcc-b52d-e00d78324686"},"vehicle_type_id":"4","last_reported":1676963234,"current_range_meters":30000,"station_id":"ce4bhqp2rcd13ifvqhog","pricing_plan_id":"free"},{"bike_id":"82e35943-e7ed-4b00-b5c9-a2f165bb41a1","system_id":"levelo_inurba_marseille","lat":43.32367,"lon":5.388836,"is_reserved":false,"is_disabled":false,"rental_uris":{"android":"levelo://app?vid=82e35943-e7ed-4b00-b5c9-a2f165bb41a1","ios":"levelo://app?vid=82e35943-e7ed-4b00-b5c9-a2f165bb41a1"},"vehicle_type_id":"4","last_reported":1676963234,"current_range_meters":10400,"station_id":"ce4bhqp2rcd13ifvqhog","pricing_plan_id":"free"},{"bike_id":"50747275-a479-4e62-b3ce-f9f81a476075","system_id":"levelo_inurba_marseille","lat":43.32367,"lon":5.388836,"is_reserved":false,"is_disabled":false,"rental_uris":{"android":"levelo://app?vid=50747275-a479-4e62-b3ce-f9f81a476075","ios":"levelo://app?vid=50747275-a479-4e62-b3ce-f9f81a476075"},"vehicle_type_id":"4","last_reported":1676963234,"current_range_meters":26000,"station_id":"ce4bhqp2rcd13ifvqhog","pricing_plan_id":"free"},{"bike_id":"7bb9609d-6ac2-40eb-98b6-21e848ace0ba","system_id":"levelo_inurba_marseille","lat":43.32367,"lon":5.388836,"is_reserved":false,"is_disabled":false,"rental_uris":{"android":"levelo://app?vid=7bb9609d-6ac2-40eb-98b6-21e848ace0ba","ios":"levelo://app?vid=7bb9609d-6ac2-40eb-98b6-21e848ace0ba"},"vehicle_type_id":"4","last_reported":1676963234,"current_range_meters":28800,"station_id":"ce4bhqp2rcd13ifvqhog","pricing_plan_id":"free"},{"bike_id":"0cd29bcf-9856-44ca-937e-9a9d1eb5c4f0","system_id":"levelo_inurba_marseille","lat":43.32367,"lon":5.388836,"is_reserved":false,"is_disabled":false,"rental_uris":{"android":"levelo://app?vid=0cd29bcf-9856-44ca-937e-9a9d1eb5c4f0","ios":"levelo://app?vid=0cd29bcf-9856-44ca-937e-9a9d1eb5c4f0"},"vehicle_type_id":"4","last_reported":1676963234,"current_range_meters":26000,"station_id":"ce4bhqp2rcd13ifvqhog","pricing_plan_id":"free"},{"bike_id":"fdb337d5-4a1a-4ae5-aeb1-968aec016ea0","system_id":"levelo_inurba_marseille","lat":43.32367,"lon":5.388836,"is_reserved":false,"is_disabled":false,"rental_uris":{"android":"levelo://app?vid=fdb337d5-4a1a-4ae5-aeb1-968aec016ea0","ios":"levelo://app?vid=fdb337d5-4a1a-4ae5-aeb1-968aec016ea0"},"vehicle_type_id":"4","last_reported":1676963234,"current_range_meters":22400,"station_id":"ce4bhqp2rcd13ifvqhog","pricing_plan_id":"free"},{"bike_id":"143caf39-2626-4ca4-8915-f24fdf59543f","system_id":"levelo_inurba_marseille","lat":43.32367,"lon":5.388836,"is_reserved":false,"is_disabled":false,"rental_uris":{"android":"levelo://app?vid=143caf39-2626-4ca4-8915-f24fdf59543f","ios":"levelo://app?vid=143caf39-2626-4ca4-8915-f24fdf59543f"},"vehicle_type_id":"4","last_reported":1676963234,"current_range_meters":31600,"station_id":"ce4bhqp2rcd13ifvqhog","pricing_plan_id":"free"},{"bike_id":"96d768b0-ff0b-44be-a14b-d4484e3897ac","system_id":"levelo_inurba_marseille","lat":43.32294,"lon":5.389822,"is_reserved":false,"is_disabled":false,"rental_uris":{"android":"levelo://app?vid=96d768b0-ff0b-44be-a14b-d4484e3897ac","ios":"levelo://app?vid=96d768b0-ff0b-44be-a14b-d4484e3897ac"},"vehicle_type_id":"4","last_reported":1676963234,"current_range_meters":23600,"station_id":"","pricing_plan_id":"free"},{"bike_id":"e4f7911c-3fae-4d50-bc33-bcf5cd423cc8","system_id":"levelo_inurba_marseille","lat":43.305994,"lon":5.393687,"is_reserved":false,"is_disabled":false,"rental_uris":{"android":"levelo://app?vid=e4f7911c-3fae-4d50-bc33-bcf5cd423cc8","ios":"levelo://app?vid=e4f7911c-3fae-4d50-bc33-bcf5cd423cc8"},"vehicle_type_id":"4","last_reported":1676963234,"current_range_meters":31600,"station_id":"ce4bh0p2rcd13ifvqd80","pricing_plan_id":"free"},{"bike_id":"4a3d4c8a-b2cd-41b0-832e-6d6d0fbd57eb","system_id":"levelo_inurba_marseille","lat":43.305994,"lon":5.393687,"is_reserved":false,"is_disabled":false,"rental_uris":{"android":"levelo://app?vid=4a3d4c8a-b2cd-41b0-832e-6d6d0fbd57eb","ios":"levelo://app?vid=4a3d4c8a-b2cd-41b0-832e-6d6d0fbd57eb"},"vehicle_type_id":"4","last_reported":1676963234,"current_range_meters":31600,"station_id":"ce4bh0p2rcd13ifvqd80","pricing_plan_id":"free"},{"bike_id":"00a32451-1a15-463e-a4cd-0a319f612d7f","system_id":"levelo_inurba_marseille","lat":43.305994,"lon":5.393687,"is_reserved":false,"is_disabled":false,"rental_uris":{"android":"levelo://app?vid=00a32451-1a15-463e-a4cd-0a319f612d7f","ios":"levelo://app?vid=00a32451-1a15-463e-a4cd-0a319f612d7f"},"vehicle_type_id":"4","last_reported":1676963234,"current_range_meters":27600,"station_id":"ce4bh0p2rcd13ifvqd80","pricing_plan_id":"free"},{"bike_id":"2edecbef-23ab-4477-a3bb-48532c09b9fc","system_id":"levelo_inurba_marseille","lat":43.305994,"lon":5.393687,"is_reserved":false,"is_disabled":false,"rental_uris":{"android":"levelo://app?vid=2edecbef-23ab-4477-a3bb-48532c09b9fc","ios":"levelo://app?vid=2edecbef-23ab-4477-a3bb-48532c09b9fc"},"vehicle_type_id":"4","last_reported":1676963234,"current_range_meters":31600,"station_id":"ce4bh0p2rcd13ifvqd80","pricing_plan_id":"free"},{"bike_id":"37ff938a-4127-426f-8987-bff9cd99635e","system_id":"levelo_inurba_marseille","lat":43.305994,"lon":5.393687,"is_reserved":false,"is_disabled":false,"rental_uris":{"android":"levelo://app?vid=37ff938a-4127-426f-8987-bff9cd99635e","ios":"levelo://app?vid=37ff938a-4127-426f-8987-bff9cd99635e"},"vehicle_type_id":"4","last_reported":1676963234,"current_range_meters":10800,"station_id":"ce4bh0p2rcd13ifvqd80","pricing_plan_id":"free"},{"bike_id":"aaa74004-9341-4686-81b8-d271eba4467c","system_id":"levelo_inurba_marseille","lat":43.305994,"lon":5.393687,"is_reserved":false,"is_disabled":false,"rental_uris":{"android":"levelo://app?vid=aaa74004-9341-4686-81b8-d271eba4467c","ios":"levelo://app?vid=aaa74004-9341-4686-81b8-d271eba4467c"},"vehicle_type_id":"4","last_reported":1676963234,"current_range_meters":31600,"station_id":"ce4bh0p2rcd13ifvqd80","pricing_plan_id":"free"},{"bike_id":"ba138492-0e5f-431b-9f8f-58a3d18c4d35","system_id":"levelo_inurba_marseille","lat":43.305994,"lon":5.393687,"is_reserved":false,"is_disabled":false,"rental_uris":{"android":"levelo://app?vid=ba138492-0e5f-431b-9f8f-58a3d18c4d35","ios":"levelo://app?vid=ba138492-0e5f-431b-9f8f-58a3d18c4d35"},"vehicle_type_id":"4","last_reported":1676963234,"current_range_meters":30400,"station_id":"ce4bh0p2rcd13ifvqd80","pricing_plan_id":"free"},{"bike_id":"4fdab60d-32f9-4680-a14d-8f0e3185c68f","system_id":"levelo_inurba_marseille","lat":43.29266,"lon":5.359686,"is_reserved":false,"is_disabled":false,"rental_uris":{"android":"levelo://app?vid=4fdab60d-32f9-4680-a14d-8f0e3185c68f","ios":"levelo://app?vid=4fdab60d-32f9-4680-a14d-8f0e3185c68f"},"vehicle_type_id":"4","last_reported":1676963234,"current_range_meters":20000,"station_id":"","pricing_plan_id":"free"},{"bike_id":"4aa601a0-e55b-4f75-bcd9-c83e7071a397","system_id":"levelo_inurba_marseille","lat":43.2936,"lon":5.37835,"is_reserved":false,"is_disabled":false,"rental_uris":{"android":"levelo://app?vid=4aa601a0-e55b-4f75-bcd9-c83e7071a397","ios":"levelo://app?vid=4aa601a0-e55b-4f75-bcd9-c83e7071a397"},"vehicle_type_id":"4","last_reported":1676963234,"current_range_meters":31600,"station_id":"ce4bgjh2rcd13ifvqbf0","pricing_plan_id":"free"},{"bike_id":"8beba432-ee26-4c1b-8346-9013e8f04b75","system_id":"levelo_inurba_marseille","lat":43.293705,"lon":5.378623,"is_reserved":false,"is_disabled":false,"rental_uris":{"android":"levelo://app?vid=8beba432-ee26-4c1b-8346-9013e8f04b75","ios":"levelo://app?vid=8beba432-ee26-4c1b-8346-9013e8f04b75"},"vehicle_type_id":"4","last_reported":1676963234,"current_range_meters":0,"station_id":"","pricing_plan_id":"free"},{"bike_id":"605f5be1-7f0a-43d7-9288-c77468c6db79","system_id":"levelo_inurba_marseille","lat":43.292311,"lon":5.360731,"is_reserved":false,"is_disabled":false,"rental_uris":{"android":"levelo://app?vid=605f5be1-7f0a-43d7-9288-c77468c6db79","ios":"levelo://app?vid=605f5be1-7f0a-43d7-9288-c77468c6db79"},"vehicle_type_id":"4","last_reported":1676963234,"current_range_meters":25600,"station_id":"ce4bhbh2rcd13ifvqeqg","pricing_plan_id":"free"},{"bike_id":"e57c8f73-4571-4f98-9452-0cee46bbec0d","system_id":"levelo_inurba_marseille","lat":43.292311,"lon":5.360731,"is_reserved":false,"is_disabled":false,"rental_uris":{"android":"levelo://app?vid=e57c8f73-4571-4f98-9452-0cee46bbec0d","ios":"levelo://app?vid=e57c8f73-4571-4f98-9452-0cee46bbec0d"},"vehicle_type_id":"4","last_reported":1676963234,"current_range_meters":7600,"station_id":"ce4bhbh2rcd13ifvqeqg","pricing_plan_id":"free"},{"bike_id":"b86f9abf-fa97-4733-833f-e4c4975edaad","system_id":"levelo_inurba_marseille","lat":43.292311,"lon":5.360731,"is_reserved":false,"is_disabled":false,"rental_uris":{"android":"levelo://app?vid=b86f9abf-fa97-4733-833f-e4c4975edaad","ios":"levelo://app?vid=b86f9abf-fa97-4733-833f-e4c4975edaad"},"vehicle_type_id":"4","last_reported":1676963234,"current_range_meters":27600,"station_id":"ce4bhbh2rcd13ifvqeqg","pricing_plan_id":"free"},{"bike_id":"a20e1588-a925-4bda-bd65-89009b1f1121","system_id":"levelo_inurba_marseille","lat":43.292311,"lon":5.360731,"is_reserved":false,"is_disabled":false,"rental_uris":{"android":"levelo://app?vid=a20e1588-a925-4bda-bd65-89009b1f1121","ios":"levelo://app?vid=a20e1588-a925-4bda-bd65-89009b1f1121"},"vehicle_type_id":"4","last_reported":1676963234,"current_range_meters":6400,"station_id":"ce4bhbh2rcd13ifvqeqg","pricing_plan_id":"free"},{"bike_id":"d92855e4-0701-404c-8620-bb1472b78b06","system_id":"levelo_inurba_marseille","lat":43.292311,"lon":5.360731,"is_reserved":false,"is_disabled":false,"rental_uris":{"android":"levelo://app?vid=d92855e4-0701-404c-8620-bb1472b78b06","ios":"levelo://app?vid=d92855e4-0701-404c-8620-bb1472b78b06"},"vehicle_type_id":"4","last_reported":1676963234,"current_range_meters":29200,"station_id":"ce4bhbh2rcd13ifvqeqg","pricing_plan_id":"free"},{"bike_id":"e27742ed-5b36-4366-bdce-98b2c90ef441","system_id":"levelo_inurba_marseille","lat":43.313291,"lon":5.396838,"is_reserved":false,"is_disabled":false,"rental_uris":{"android":"levelo://app?vid=e27742ed-5b36-4366-bdce-98b2c90ef441","ios":"levelo://app?vid=e27742ed-5b36-4366-bdce-98b2c90ef441"},"vehicle_type_id":"4","last_reported":1676963234,"current_range_meters":24000,"station_id":"ce4bgvp2rcd13ifvqcu0","pricing_plan_id":"free"},{"bike_id":"3b80926e-8e65-4514-a9de-41826b1f9ff3","system_id":"levelo_inurba_marseille","lat":43.31321,"lon":5.3969,"is_reserved":false,"is_disabled":false,"rental_uris":{"android":"levelo://app?vid=3b80926e-8e65-4514-a9de-41826b1f9ff3","ios":"levelo://app?vid=3b80926e-8e65-4514-a9de-41826b1f9ff3"},"vehicle_type_id":"4","last_reported":1676963234,"current_range_meters":22800,"station_id":"","pricing_plan_id":"free"},{"bike_id":"53582b16-01ee-4e55-b5d9-223d34aaaf97","system_id":"levelo_inurba_marseille","lat":43.31323,"lon":5.3969,"is_reserved":false,"is_disabled":false,"rental_uris":{"android":"levelo://app?vid=53582b16-01ee-4e55-b5d9-223d34aaaf97","ios":"levelo://app?vid=53582b16-01ee-4e55-b5d9-223d34aaaf97"},"vehicle_type_id":"4","last_reported":1676963234,"current_range_meters":23200,"station_id":"ce4bgvp2rcd13ifvqcu0","pricing_plan_id":"free"},{"bike_id":"b3f6ba4b-828c-4cb4-b443-e474a89bb683","system_id":"levelo_inurba_marseille","lat":43.313291,"lon":5.396838,"is_reserved":false,"is_disabled":false,"rental_uris":{"android":"levelo://app?vid=b3f6ba4b-828c-4cb4-b443-e474a89bb683","ios":"levelo://app?vid=b3f6ba4b-828c-4cb4-b443-e474a89bb683"},"vehicle_type_id":"4","last_reported":1676963234,"current_range_meters":20800,"station_id":"ce4bgvp2rcd13ifvqcu0","pricing_plan_id":"free"},{"bike_id":"ae43ef46-ede4-472b-90f6-ab0ee3f3299a","system_id":"levelo_inurba_marseille","lat":43.313291,"lon":5.396838,"is_reserved":false,"is_disabled":false,"rental_uris":{"android":"levelo://app?vid=ae43ef46-ede4-472b-90f6-ab0ee3f3299a","ios":"levelo://app?vid=ae43ef46-ede4-472b-90f6-ab0ee3f3299a"},"vehicle_type_id":"4","last_reported":1676963234,"current_range_meters":29200,"station_id":"ce4bgvp2rcd13ifvqcu0","pricing_plan_id":"free"},{"bike_id":"e1e580c9-9dbd-4cfa-a790-78ff53b41363","system_id":"levelo_inurba_marseille","lat":43.313241,"lon":5.396904,"is_reserved":false,"is_disabled":false,"rental_uris":{"android":"levelo://app?vid=e1e580c9-9dbd-4cfa-a790-78ff53b41363","ios":"levelo://app?vid=e1e580c9-9dbd-4cfa-a790-78ff53b41363"},"vehicle_type_id":"4","last_reported":1676963234,"current_range_meters":17200,"station_id":"ce4bgvp2rcd13ifvqcu0","pricing_plan_id":"free"},{"bike_id":"ceb67649-cac7-4ef7-acfd-011feda4c619","system_id":"levelo_inurba_marseille","lat":43.31323,"lon":5.39691,"is_reserved":false,"is_disabled":false,"rental_uris":{"android":"levelo://app?vid=ceb67649-cac7-4ef7-acfd-011feda4c619","ios":"levelo://app?vid=ceb67649-cac7-4ef7-acfd-011feda4c619"},"vehicle_type_id":"4","last_reported":1676963234,"current_range_meters":22400,"station_id":"","pricing_plan_id":"free"},{"bike_id":"2d37dd02-82f5-40c7-b1da-5c439d9756c5","system_id":"levelo_inurba_marseille","lat":43.31324,"lon":5.39691,"is_reserved":false,"is_disabled":false,"rental_uris":{"android":"levelo://app?vid=2d37dd02-82f5-40c7-b1da-5c439d9756c5","ios":"levelo://app?vid=2d37dd02-82f5-40c7-b1da-5c439d9756c5"},"vehicle_type_id":"4","last_reported":1676963234,"current_range_meters":16000,"station_id":"","pricing_plan_id":"free"},{"bike_id":"d4f01844-c870-4a82-a1fb-64214a56b96a","system_id":"levelo_inurba_marseille","lat":43.313253,"lon":5.396929,"is_reserved":false,"is_disabled":false,"rental_uris":{"android":"levelo://app?vid=d4f01844-c870-4a82-a1fb-64214a56b96a","ios":"levelo://app?vid=d4f01844-c870-4a82-a1fb-64214a56b96a"},"vehicle_type_id":"4","last_reported":1676963234,"current_range_meters":28400,"station_id":"ce4bgvp2rcd13ifvqcu0","pricing_plan_id":"free"},{"bike_id":"0120ac30-980a-4720-bad1-cc8c9ebf8d91","system_id":"levelo_inurba_marseille","lat":43.31321,"lon":5.39693,"is_reserved":false,"is_disabled":false,"rental_uris":{"android":"levelo://app?vid=0120ac30-980a-4720-bad1-cc8c9ebf8d91","ios":"levelo://app?vid=0120ac30-980a-4720-bad1-cc8c9ebf8d91"},"vehicle_type_id":"4","last_reported":1676963234,"current_range_meters":29200,"station_id":"","pricing_plan_id":"free"},{"bike_id":"63c4dc4a-3999-4ae7-8add-5ce9514d28ba","system_id":"levelo_inurba_marseille","lat":43.313291,"lon":5.396838,"is_reserved":false,"is_disabled":false,"rental_uris":{"android":"levelo://app?vid=63c4dc4a-3999-4ae7-8add-5ce9514d28ba","ios":"levelo://app?vid=63c4dc4a-3999-4ae7-8add-5ce9514d28ba"},"vehicle_type_id":"4","last_reported":1676963234,"current_range_meters":24000,"station_id":"ce4bgvp2rcd13ifvqcu0","pricing_plan_id":"free"},{"bike_id":"c4d8b864-65a3-4dc2-b319-b5c39b6ca021","system_id":"levelo_inurba_marseille","lat":43.313291,"lon":5.396838,"is_reserved":false,"is_disabled":false,"rental_uris":{"android":"levelo://app?vid=c4d8b864-65a3-4dc2-b319-b5c39b6ca021","ios":"levelo://app?vid=c4d8b864-65a3-4dc2-b319-b5c39b6ca021"},"vehicle_type_id":"4","last_reported":1676963234,"current_range_meters":26800,"station_id":"ce4bgvp2rcd13ifvqcu0","pricing_plan_id":"free"},{"bike_id":"28f18bbd-6541-4326-bfef-fbd3858b7db8","system_id":"levelo_inurba_marseille","lat":43.31329,"lon":5.39693,"is_reserved":false,"is_disabled":false,"rental_uris":{"android":"levelo://app?vid=28f18bbd-6541-4326-bfef-fbd3858b7db8","ios":"levelo://app?vid=28f18bbd-6541-4326-bfef-fbd3858b7db8"},"vehicle_type_id":"4","last_reported":1676963234,"current_range_meters":9600,"station_id":"","pricing_plan_id":"free"},{"bike_id":"fa1c5cb4-eac0-4062-abed-7403b2d17c3c","system_id":"levelo_inurba_marseille","lat":43.313291,"lon":5.396838,"is_reserved":false,"is_disabled":false,"rental_uris":{"android":"levelo://app?vid=fa1c5cb4-eac0-4062-abed-7403b2d17c3c","ios":"levelo://app?vid=fa1c5cb4-eac0-4062-abed-7403b2d17c3c"},"vehicle_type_id":"4","last_reported":1676963234,"current_range_meters":29600,"station_id":"ce4bgvp2rcd13ifvqcu0","pricing_plan_id":"free"},{"bike_id":"245ba2e4-a56c-4e97-b850-6a20e7c94579","system_id":"levelo_inurba_marseille","lat":43.31321,"lon":5.39695,"is_reserved":false,"is_disabled":false,"rental_uris":{"android":"levelo://app?vid=245ba2e4-a56c-4e97-b850-6a20e7c94579","ios":"levelo://app?vid=245ba2e4-a56c-4e97-b850-6a20e7c94579"},"vehicle_type_id":"4","last_reported":1676963234,"current_range_meters":18000,"station_id":"","pricing_plan_id":"free"},{"bike_id":"65580627-6d76-4bce-b134-49d7ffd88af2","system_id":"levelo_inurba_marseille","lat":43.313291,"lon":5.396838,"is_reserved":false,"is_disabled":false,"rental_uris":{"android":"levelo://app?vid=65580627-6d76-4bce-b134-49d7ffd88af2","ios":"levelo://app?vid=65580627-6d76-4bce-b134-49d7ffd88af2"},"vehicle_type_id":"4","last_reported":1676963234,"current_range_meters":25200,"station_id":"ce4bgvp2rcd13ifvqcu0","pricing_plan_id":"free"},{"bike_id":"53974275-d1e3-4a70-aeba-eb1833101e14","system_id":"levelo_inurba_marseille","lat":43.313291,"lon":5.396838,"is_reserved":false,"is_disabled":false,"rental_uris":{"android":"levelo://app?vid=53974275-d1e3-4a70-aeba-eb1833101e14","ios":"levelo://app?vid=53974275-d1e3-4a70-aeba-eb1833101e14"},"vehicle_type_id":"4","last_reported":1676963234,"current_range_meters":10000,"station_id":"ce4bgvp2rcd13ifvqcu0","pricing_plan_id":"free"},{"bike_id":"38ba4d43-62f7-4be9-bce2-d8fb897d32ec","system_id":"levelo_inurba_marseille","lat":43.313291,"lon":5.396838,"is_reserved":false,"is_disabled":false,"rental_uris":{"android":"levelo://app?vid=38ba4d43-62f7-4be9-bce2-d8fb897d32ec","ios":"levelo://app?vid=38ba4d43-62f7-4be9-bce2-d8fb897d32ec"},"vehicle_type_id":"4","last_reported":1676963234,"current_range_meters":23600,"station_id":"ce4bgvp2rcd13ifvqcu0","pricing_plan_id":"free"},{"bike_id":"d6081fde-300a-40ae-a489-95d3ae114b03","system_id":"levelo_inurba_marseille","lat":43.31319,"lon":5.39701,"is_reserved":false,"is_disabled":false,"rental_uris":{"android":"levelo://app?vid=d6081fde-300a-40ae-a489-95d3ae114b03","ios":"levelo://app?vid=d6081fde-300a-40ae-a489-95d3ae114b03"},"vehicle_type_id":"4","last_reported":1676963234,"current_range_meters":26800,"station_id":"","pricing_plan_id":"free"},{"bike_id":"74330dbe-9e62-46a2-9e24-212b34b9c59f","system_id":"levelo_inurba_marseille","lat":43.290779,"lon":5.371482,"is_reserved":false,"is_disabled":false,"rental_uris":{"android":"levelo://app?vid=74330dbe-9e62-46a2-9e24-212b34b9c59f","ios":"levelo://app?vid=74330dbe-9e62-46a2-9e24-212b34b9c59f"},"vehicle_type_id":"4","last_reported":1676963234,"current_range_meters":23200,"station_id":"ce4bh5p2rcd13ifvqe4g","pricing_plan_id":"free"},{"bike_id":"a0c71694-37f2-4571-ba8f-0b0b6cbfbb40","system_id":"levelo_inurba_marseille","lat":43.290779,"lon":5.371482,"is_reserved":false,"is_disabled":false,"rental_uris":{"android":"levelo://app?vid=a0c71694-37f2-4571-ba8f-0b0b6cbfbb40","ios":"levelo://app?vid=a0c71694-37f2-4571-ba8f-0b0b6cbfbb40"},"vehicle_type_id":"4","last_reported":1676963234,"current_range_meters":31600,"station_id":"ce4bh5p2rcd13ifvqe4g","pricing_plan_id":"free"},{"bike_id":"1eff4a20-7be3-4eba-8d0d-608821565a9d","system_id":"levelo_inurba_marseille","lat":43.290779,"lon":5.371482,"is_reserved":false,"is_disabled":false,"rental_uris":{"android":"levelo://app?vid=1eff4a20-7be3-4eba-8d0d-608821565a9d","ios":"levelo://app?vid=1eff4a20-7be3-4eba-8d0d-608821565a9d"},"vehicle_type_id":"4","last_reported":1676963234,"current_range_meters":31600,"station_id":"ce4bh5p2rcd13ifvqe4g","pricing_plan_id":"free"},{"bike_id":"4a597362-6b37-45bd-ad96-407283bb1efb","system_id":"levelo_inurba_marseille","lat":43.290632,"lon":5.371551,"is_reserved":false,"is_disabled":false,"rental_uris":{"android":"levelo://app?vid=4a597362-6b37-45bd-ad96-407283bb1efb","ios":"levelo://app?vid=4a597362-6b37-45bd-ad96-407283bb1efb"},"vehicle_type_id":"4","last_reported":1676963234,"current_range_meters":30800,"station_id":"","pricing_plan_id":"free"},{"bike_id":"6f9e5391-e657-4d3e-a937-ae3ff95e73df","system_id":"levelo_inurba_marseille","lat":43.322611,"lon":5.394526,"is_reserved":false,"is_disabled":false,"rental_uris":{"android":"levelo://app?vid=6f9e5391-e657-4d3e-a937-ae3ff95e73df","ios":"levelo://app?vid=6f9e5391-e657-4d3e-a937-ae3ff95e73df"},"vehicle_type_id":"4","last_reported":1676963234,"current_range_meters":0,"station_id":"","pricing_plan_id":"free"},{"bike_id":"f57107b8-6d3a-4b2b-b456-341f733d2ba7","system_id":"levelo_inurba_marseille","lat":43.290779,"lon":5.371482,"is_reserved":false,"is_disabled":false,"rental_uris":{"android":"levelo://app?vid=f57107b8-6d3a-4b2b-b456-341f733d2ba7","ios":"levelo://app?vid=f57107b8-6d3a-4b2b-b456-341f733d2ba7"},"vehicle_type_id":"4","last_reported":1676963234,"current_range_meters":27200,"station_id":"ce4bh5p2rcd13ifvqe4g","pricing_plan_id":"free"},{"bike_id":"66e91556-71d8-4311-b041-c4299a37e89b","system_id":"levelo_inurba_marseille","lat":43.290779,"lon":5.371482,"is_reserved":false,"is_disabled":false,"rental_uris":{"android":"levelo://app?vid=66e91556-71d8-4311-b041-c4299a37e89b","ios":"levelo://app?vid=66e91556-71d8-4311-b041-c4299a37e89b"},"vehicle_type_id":"4","last_reported":1676963234,"current_range_meters":31600,"station_id":"ce4bh5p2rcd13ifvqe4g","pricing_plan_id":"free"},{"bike_id":"65c9f8ef-bca5-4058-97ee-4632fb537713","system_id":"levelo_inurba_marseille","lat":43.290624,"lon":5.359245,"is_reserved":false,"is_disabled":false,"rental_uris":{"android":"levelo://app?vid=65c9f8ef-bca5-4058-97ee-4632fb537713","ios":"levelo://app?vid=65c9f8ef-bca5-4058-97ee-4632fb537713"},"vehicle_type_id":"4","last_reported":1676963234,"current_range_meters":31600,"station_id":"ce4bha92rcd13ifvqeg0","pricing_plan_id":"free"},{"bike_id":"0481867d-9b89-4388-903b-4a7493b62c34","system_id":"levelo_inurba_marseille","lat":43.290624,"lon":5.359245,"is_reserved":false,"is_disabled":false,"rental_uris":{"android":"levelo://app?vid=0481867d-9b89-4388-903b-4a7493b62c34","ios":"levelo://app?vid=0481867d-9b89-4388-903b-4a7493b62c34"},"vehicle_type_id":"4","last_reported":1676963234,"current_range_meters":29200,"station_id":"ce4bha92rcd13ifvqeg0","pricing_plan_id":"free"},{"bike_id":"40b988cf-9a65-498f-8bcc-39f67301232c","system_id":"levelo_inurba_marseille","lat":43.290624,"lon":5.359245,"is_reserved":false,"is_disabled":false,"rental_uris":{"android":"levelo://app?vid=40b988cf-9a65-498f-8bcc-39f67301232c","ios":"levelo://app?vid=40b988cf-9a65-498f-8bcc-39f67301232c"},"vehicle_type_id":"4","last_reported":1676963234,"current_range_meters":31200,"station_id":"ce4bha92rcd13ifvqeg0","pricing_plan_id":"free"},{"bike_id":"ef904c4c-5fcb-4e11-a783-d037df31fb14","system_id":"levelo_inurba_marseille","lat":43.290624,"lon":5.359245,"is_reserved":false,"is_disabled":false,"rental_uris":{"android":"levelo://app?vid=ef904c4c-5fcb-4e11-a783-d037df31fb14","ios":"levelo://app?vid=ef904c4c-5fcb-4e11-a783-d037df31fb14"},"vehicle_type_id":"4","last_reported":1676963234,"current_range_meters":31600,"station_id":"ce4bha92rcd13ifvqeg0","pricing_plan_id":"free"},{"bike_id":"020452d8-1e3c-4010-a972-0e0bfd594f1a","system_id":"levelo_inurba_marseille","lat":43.290624,"lon":5.359245,"is_reserved":false,"is_disabled":false,"rental_uris":{"android":"levelo://app?vid=020452d8-1e3c-4010-a972-0e0bfd594f1a","ios":"levelo://app?vid=020452d8-1e3c-4010-a972-0e0bfd594f1a"},"vehicle_type_id":"4","last_reported":1676963234,"current_range_meters":24000,"station_id":"ce4bha92rcd13ifvqeg0","pricing_plan_id":"free"},{"bike_id":"8dc83152-caf7-4d38-b619-21f9bba3373f","system_id":"levelo_inurba_marseille","lat":43.290624,"lon":5.359245,"is_reserved":false,"is_disabled":false,"rental_uris":{"android":"levelo://app?vid=8dc83152-caf7-4d38-b619-21f9bba3373f","ios":"levelo://app?vid=8dc83152-caf7-4d38-b619-21f9bba3373f"},"vehicle_type_id":"4","last_reported":1676963234,"current_range_meters":31600,"station_id":"ce4bha92rcd13ifvqeg0","pricing_plan_id":"free"},{"bike_id":"0d0272ff-1d67-4466-a002-8e8c9d13b466","system_id":"levelo_inurba_marseille","lat":43.290332,"lon":5.375136,"is_reserved":false,"is_disabled":false,"rental_uris":{"android":"levelo://app?vid=0d0272ff-1d67-4466-a002-8e8c9d13b466","ios":"levelo://app?vid=0d0272ff-1d67-4466-a002-8e8c9d13b466"},"vehicle_type_id":"4","last_reported":1676963234,"current_range_meters":12000,"station_id":"ce4bh692rcd13ifvqe90","pricing_plan_id":"free"},{"bike_id":"56aa7c9e-117d-4d73-91f8-b8ad509e19bc","system_id":"levelo_inurba_marseille","lat":43.289184,"lon":5.366408,"is_reserved":false,"is_disabled":false,"rental_uris":{"android":"levelo://app?vid=56aa7c9e-117d-4d73-91f8-b8ad509e19bc","ios":"levelo://app?vid=56aa7c9e-117d-4d73-91f8-b8ad509e19bc"},"vehicle_type_id":"4","last_reported":1676963234,"current_range_meters":26400,"station_id":"ce4bhap2rcd13ifvqek0","pricing_plan_id":"free"},{"bike_id":"8b6d6aad-7e02-4e44-b8e0-5eb63803f59d","system_id":"levelo_inurba_marseille","lat":43.289184,"lon":5.366408,"is_reserved":false,"is_disabled":false,"rental_uris":{"android":"levelo://app?vid=8b6d6aad-7e02-4e44-b8e0-5eb63803f59d","ios":"levelo://app?vid=8b6d6aad-7e02-4e44-b8e0-5eb63803f59d"},"vehicle_type_id":"4","last_reported":1676963234,"current_range_meters":10000,"station_id":"ce4bhap2rcd13ifvqek0","pricing_plan_id":"free"},{"bike_id":"08e514c8-dfcf-4a33-8586-972db7c15e28","system_id":"levelo_inurba_marseille","lat":43.292629,"lon":5.384463,"is_reserved":false,"is_disabled":false,"rental_uris":{"android":"levelo://app?vid=08e514c8-dfcf-4a33-8586-972db7c15e28","ios":"levelo://app?vid=08e514c8-dfcf-4a33-8586-972db7c15e28"},"vehicle_type_id":"4","last_reported":1676963234,"current_range_meters":0,"station_id":"","pricing_plan_id":"free"},{"bike_id":"6b6f8337-2135-47e2-b798-7b3dc90cb010","system_id":"levelo_inurba_marseille","lat":43.29262,"lon":5.384462,"is_reserved":false,"is_disabled":false,"rental_uris":{"android":"levelo://app?vid=6b6f8337-2135-47e2-b798-7b3dc90cb010","ios":"levelo://app?vid=6b6f8337-2135-47e2-b798-7b3dc90cb010"},"vehicle_type_id":"4","last_reported":1676963234,"current_range_meters":0,"station_id":"ce4bh692rcd13ifvqea0","pricing_plan_id":"free"},{"bike_id":"6c4bb5ad-bb60-46f6-afe2-03ea3ffd247c","system_id":"levelo_inurba_marseille","lat":43.330442,"lon":5.389148,"is_reserved":false,"is_disabled":false,"rental_uris":{"android":"levelo://app?vid=6c4bb5ad-bb60-46f6-afe2-03ea3ffd247c","ios":"levelo://app?vid=6c4bb5ad-bb60-46f6-afe2-03ea3ffd247c"},"vehicle_type_id":"4","last_reported":1676963234,"current_range_meters":26400,"station_id":"ce4bhr92rcd13ifvqhrg","pricing_plan_id":"free"},{"bike_id":"dfbc8af8-c178-43d3-87d9-4d5cb0762399","system_id":"levelo_inurba_marseille","lat":43.330442,"lon":5.389148,"is_reserved":false,"is_disabled":false,"rental_uris":{"android":"levelo://app?vid=dfbc8af8-c178-43d3-87d9-4d5cb0762399","ios":"levelo://app?vid=dfbc8af8-c178-43d3-87d9-4d5cb0762399"},"vehicle_type_id":"4","last_reported":1676963234,"current_range_meters":30800,"station_id":"ce4bhr92rcd13ifvqhrg","pricing_plan_id":"free"},{"bike_id":"ef97761d-7708-4db6-b892-abd3b66682c3","system_id":"levelo_inurba_marseille","lat":43.330442,"lon":5.389148,"is_reserved":false,"is_disabled":false,"rental_uris":{"android":"levelo://app?vid=ef97761d-7708-4db6-b892-abd3b66682c3","ios":"levelo://app?vid=ef97761d-7708-4db6-b892-abd3b66682c3"},"vehicle_type_id":"4","last_reported":1676963234,"current_range_meters":24000,"station_id":"ce4bhr92rcd13ifvqhrg","pricing_plan_id":"free"},{"bike_id":"99eaaf21-ec14-41f3-b997-e3ef49c7b27a","system_id":"levelo_inurba_marseille","lat":43.330442,"lon":5.389148,"is_reserved":false,"is_disabled":false,"rental_uris":{"android":"levelo://app?vid=99eaaf21-ec14-41f3-b997-e3ef49c7b27a","ios":"levelo://app?vid=99eaaf21-ec14-41f3-b997-e3ef49c7b27a"},"vehicle_type_id":"4","last_reported":1676963234,"current_range_meters":28000,"station_id":"ce4bhr92rcd13ifvqhrg","pricing_plan_id":"free"},{"bike_id":"178c92ac-f595-45e7-b597-7d21405dc102","system_id":"levelo_inurba_marseille","lat":43.330442,"lon":5.389148,"is_reserved":false,"is_disabled":false,"rental_uris":{"android":"levelo://app?vid=178c92ac-f595-45e7-b597-7d21405dc102","ios":"levelo://app?vid=178c92ac-f595-45e7-b597-7d21405dc102"},"vehicle_type_id":"4","last_reported":1676963234,"current_range_meters":20000,"station_id":"ce4bhr92rcd13ifvqhrg","pricing_plan_id":"free"},{"bike_id":"30e64a77-47b2-4bcf-8fd6-547206590b4f","system_id":"levelo_inurba_marseille","lat":43.330442,"lon":5.389148,"is_reserved":false,"is_disabled":false,"rental_uris":{"android":"levelo://app?vid=30e64a77-47b2-4bcf-8fd6-547206590b4f","ios":"levelo://app?vid=30e64a77-47b2-4bcf-8fd6-547206590b4f"},"vehicle_type_id":"4","last_reported":1676963234,"current_range_meters":28400,"station_id":"ce4bhr92rcd13ifvqhrg","pricing_plan_id":"free"},{"bike_id":"20f7eda5-39d3-4afe-ae56-9a840a04cab1","system_id":"levelo_inurba_marseille","lat":43.330442,"lon":5.389148,"is_reserved":false,"is_disabled":false,"rental_uris":{"android":"levelo://app?vid=20f7eda5-39d3-4afe-ae56-9a840a04cab1","ios":"levelo://app?vid=20f7eda5-39d3-4afe-ae56-9a840a04cab1"},"vehicle_type_id":"4","last_reported":1676963234,"current_range_meters":28800,"station_id":"ce4bhr92rcd13ifvqhrg","pricing_plan_id":"free"},{"bike_id":"5b763896-9d0a-4a17-ade8-34bb6f0946c3","system_id":"levelo_inurba_marseille","lat":43.330407,"lon":5.389195,"is_reserved":false,"is_disabled":false,"rental_uris":{"android":"levelo://app?vid=5b763896-9d0a-4a17-ade8-34bb6f0946c3","ios":"levelo://app?vid=5b763896-9d0a-4a17-ade8-34bb6f0946c3"},"vehicle_type_id":"4","last_reported":1676963234,"current_range_meters":25600,"station_id":"ce4bhr92rcd13ifvqhrg","pricing_plan_id":"free"},{"bike_id":"dd443633-5a06-4e48-86e2-3463b4dddda1","system_id":"levelo_inurba_marseille","lat":43.33043,"lon":5.38916,"is_reserved":false,"is_disabled":false,"rental_uris":{"android":"levelo://app?vid=dd443633-5a06-4e48-86e2-3463b4dddda1","ios":"levelo://app?vid=dd443633-5a06-4e48-86e2-3463b4dddda1"},"vehicle_type_id":"4","last_reported":1676963234,"current_range_meters":25200,"station_id":"ce4bhr92rcd13ifvqhrg","pricing_plan_id":"free"},{"bike_id":"85388113-aeb7-448c-b3d5-ea41546ace02","system_id":"levelo_inurba_marseille","lat":43.330435,"lon":5.389159,"is_reserved":false,"is_disabled":false,"rental_uris":{"android":"levelo://app?vid=85388113-aeb7-448c-b3d5-ea41546ace02","ios":"levelo://app?vid=85388113-aeb7-448c-b3d5-ea41546ace02"},"vehicle_type_id":"4","last_reported":1676963234,"current_range_meters":26000,"station_id":"ce4bhr92rcd13ifvqhrg","pricing_plan_id":"free"},{"bike_id":"1e0ae4fc-f5e7-45af-bc0b-6a784a197411","system_id":"levelo_inurba_marseille","lat":43.33043,"lon":5.389174,"is_reserved":false,"is_disabled":false,"rental_uris":{"android":"levelo://app?vid=1e0ae4fc-f5e7-45af-bc0b-6a784a197411","ios":"levelo://app?vid=1e0ae4fc-f5e7-45af-bc0b-6a784a197411"},"vehicle_type_id":"4","last_reported":1676963234,"current_range_meters":21200,"station_id":"ce4bhr92rcd13ifvqhrg","pricing_plan_id":"free"},{"bike_id":"37479b13-9891-4107-b1b0-ef27756bb701","system_id":"levelo_inurba_marseille","lat":43.330442,"lon":5.389148,"is_reserved":false,"is_disabled":false,"rental_uris":{"android":"levelo://app?vid=37479b13-9891-4107-b1b0-ef27756bb701","ios":"levelo://app?vid=37479b13-9891-4107-b1b0-ef27756bb701"},"vehicle_type_id":"4","last_reported":1676963234,"current_range_meters":29600,"station_id":"ce4bhr92rcd13ifvqhrg","pricing_plan_id":"free"},{"bike_id":"41227ba8-2e5b-4b3b-b194-d45370d313ec","system_id":"levelo_inurba_marseille","lat":43.330434,"lon":5.38917,"is_reserved":false,"is_disabled":false,"rental_uris":{"android":"levelo://app?vid=41227ba8-2e5b-4b3b-b194-d45370d313ec","ios":"levelo://app?vid=41227ba8-2e5b-4b3b-b194-d45370d313ec"},"vehicle_type_id":"4","last_reported":1676963234,"current_range_meters":23600,"station_id":"ce4bhr92rcd13ifvqhrg","pricing_plan_id":"free"},{"bike_id":"f9e78622-2b5e-4ac7-b43c-ca25d720d7bf","system_id":"levelo_inurba_marseille","lat":43.330433,"lon":5.389174,"is_reserved":false,"is_disabled":false,"rental_uris":{"android":"levelo://app?vid=f9e78622-2b5e-4ac7-b43c-ca25d720d7bf","ios":"levelo://app?vid=f9e78622-2b5e-4ac7-b43c-ca25d720d7bf"},"vehicle_type_id":"4","last_reported":1676963234,"current_range_meters":24000,"station_id":"ce4bhr92rcd13ifvqhrg","pricing_plan_id":"free"},{"bike_id":"a9a533e2-a694-46d6-97ca-e53bd461fb9a","system_id":"levelo_inurba_marseille","lat":43.330442,"lon":5.389148,"is_reserved":false,"is_disabled":false,"rental_uris":{"android":"levelo://app?vid=a9a533e2-a694-46d6-97ca-e53bd461fb9a","ios":"levelo://app?vid=a9a533e2-a694-46d6-97ca-e53bd461fb9a"},"vehicle_type_id":"4","last_reported":1676963234,"current_range_meters":23200,"station_id":"ce4bhr92rcd13ifvqhrg","pricing_plan_id":"free"},{"bike_id":"a8cf06d8-a633-447b-90da-cb961f143066","system_id":"levelo_inurba_marseille","lat":43.330434,"lon":5.389182,"is_reserved":false,"is_disabled":false,"rental_uris":{"android":"levelo://app?vid=a8cf06d8-a633-447b-90da-cb961f143066","ios":"levelo://app?vid=a8cf06d8-a633-447b-90da-cb961f143066"},"vehicle_type_id":"4","last_reported":1676963234,"current_range_meters":28400,"station_id":"ce4bhr92rcd13ifvqhrg","pricing_plan_id":"free"},{"bike_id":"6bde3431-c3f8-420c-9e4c-0719be1e23cf","system_id":"levelo_inurba_marseille","lat":43.330416,"lon":5.38921,"is_reserved":false,"is_disabled":false,"rental_uris":{"android":"levelo://app?vid=6bde3431-c3f8-420c-9e4c-0719be1e23cf","ios":"levelo://app?vid=6bde3431-c3f8-420c-9e4c-0719be1e23cf"},"vehicle_type_id":"4","last_reported":1676963234,"current_range_meters":28000,"station_id":"ce4bhr92rcd13ifvqhrg","pricing_plan_id":"free"},{"bike_id":"129d9f80-7082-4d0d-816b-c1e4485fc32e","system_id":"levelo_inurba_marseille","lat":43.330404,"lon":5.389239,"is_reserved":false,"is_disabled":false,"rental_uris":{"android":"levelo://app?vid=129d9f80-7082-4d0d-816b-c1e4485fc32e","ios":"levelo://app?vid=129d9f80-7082-4d0d-816b-c1e4485fc32e"},"vehicle_type_id":"4","last_reported":1676963234,"current_range_meters":25200,"station_id":"ce4bhr92rcd13ifvqhrg","pricing_plan_id":"free"},{"bike_id":"2f57434c-886c-4573-9d55-ec6b247af0ae","system_id":"levelo_inurba_marseille","lat":43.330423,"lon":5.389212,"is_reserved":false,"is_disabled":false,"rental_uris":{"android":"levelo://app?vid=2f57434c-886c-4573-9d55-ec6b247af0ae","ios":"levelo://app?vid=2f57434c-886c-4573-9d55-ec6b247af0ae"},"vehicle_type_id":"4","last_reported":1676963234,"current_range_meters":24400,"station_id":"ce4bhr92rcd13ifvqhrg","pricing_plan_id":"free"},{"bike_id":"898bd0e3-a7f4-4757-aa34-2e64b09c2c1a","system_id":"levelo_inurba_marseille","lat":43.290048,"lon":5.356068,"is_reserved":false,"is_disabled":false,"rental_uris":{"android":"levelo://app?vid=898bd0e3-a7f4-4757-aa34-2e64b09c2c1a","ios":"levelo://app?vid=898bd0e3-a7f4-4757-aa34-2e64b09c2c1a"},"vehicle_type_id":"4","last_reported":1676963234,"current_range_meters":24800,"station_id":"","pricing_plan_id":"free"},{"bike_id":"d54b4462-7516-4b21-8d59-8dd81eb2eb0d","system_id":"levelo_inurba_marseille","lat":43.29003,"lon":5.35598,"is_reserved":false,"is_disabled":false,"rental_uris":{"android":"levelo://app?vid=d54b4462-7516-4b21-8d59-8dd81eb2eb0d","ios":"levelo://app?vid=d54b4462-7516-4b21-8d59-8dd81eb2eb0d"},"vehicle_type_id":"4","last_reported":1676963234,"current_range_meters":20400,"station_id":"","pricing_plan_id":"free"},{"bike_id":"762bc48a-b0f7-4982-b8c2-c10b3fa1336c","system_id":"levelo_inurba_marseille","lat":43.29089,"lon":5.38131,"is_reserved":false,"is_disabled":false,"rental_uris":{"android":"levelo://app?vid=762bc48a-b0f7-4982-b8c2-c10b3fa1336c","ios":"levelo://app?vid=762bc48a-b0f7-4982-b8c2-c10b3fa1336c"},"vehicle_type_id":"4","last_reported":1676963234,"current_range_meters":24000,"station_id":"ce4bh512rcd13ifvqe2g","pricing_plan_id":"free"},{"bike_id":"4d0c867a-7501-4bf1-b4c3-e0ac6d85118a","system_id":"levelo_inurba_marseille","lat":43.290913,"lon":5.381425,"is_reserved":false,"is_disabled":false,"rental_uris":{"android":"levelo://app?vid=4d0c867a-7501-4bf1-b4c3-e0ac6d85118a","ios":"levelo://app?vid=4d0c867a-7501-4bf1-b4c3-e0ac6d85118a"},"vehicle_type_id":"4","last_reported":1676963234,"current_range_meters":28800,"station_id":"","pricing_plan_id":"free"},{"bike_id":"4a9d2141-727a-450e-89dd-fa065d2b6157","system_id":"levelo_inurba_marseille","lat":43.290911,"lon":5.381481,"is_reserved":false,"is_disabled":false,"rental_uris":{"android":"levelo://app?vid=4a9d2141-727a-450e-89dd-fa065d2b6157","ios":"levelo://app?vid=4a9d2141-727a-450e-89dd-fa065d2b6157"},"vehicle_type_id":"4","last_reported":1676963234,"current_range_meters":30000,"station_id":"ce4bh512rcd13ifvqe2g","pricing_plan_id":"free"},{"bike_id":"6e121435-a12d-431f-934e-d16b89bb4fdf","system_id":"levelo_inurba_marseille","lat":43.290898,"lon":5.381482,"is_reserved":false,"is_disabled":false,"rental_uris":{"android":"levelo://app?vid=6e121435-a12d-431f-934e-d16b89bb4fdf","ios":"levelo://app?vid=6e121435-a12d-431f-934e-d16b89bb4fdf"},"vehicle_type_id":"4","last_reported":1676963234,"current_range_meters":31600,"station_id":"ce4bh512rcd13ifvqe2g","pricing_plan_id":"free"},{"bike_id":"884cc3b7-6981-45d8-ae40-8c6ab012fcfd","system_id":"levelo_inurba_marseille","lat":43.290882,"lon":5.381461,"is_reserved":false,"is_disabled":false,"rental_uris":{"android":"levelo://app?vid=884cc3b7-6981-45d8-ae40-8c6ab012fcfd","ios":"levelo://app?vid=884cc3b7-6981-45d8-ae40-8c6ab012fcfd"},"vehicle_type_id":"4","last_reported":1676963234,"current_range_meters":30800,"station_id":"ce4bh512rcd13ifvqe2g","pricing_plan_id":"free"},{"bike_id":"2003252f-4fc1-49df-b4c4-09fac2be0f45","system_id":"levelo_inurba_marseille","lat":43.290995,"lon":5.381361,"is_reserved":false,"is_disabled":false,"rental_uris":{"android":"levelo://app?vid=2003252f-4fc1-49df-b4c4-09fac2be0f45","ios":"levelo://app?vid=2003252f-4fc1-49df-b4c4-09fac2be0f45"},"vehicle_type_id":"4","last_reported":1676963234,"current_range_meters":31600,"station_id":"ce4bh512rcd13ifvqe2g","pricing_plan_id":"free"},{"bike_id":"91ca6e6b-3763-4581-9766-0877f45922e2","system_id":"levelo_inurba_marseille","lat":43.29085,"lon":5.381387,"is_reserved":false,"is_disabled":false,"rental_uris":{"android":"levelo://app?vid=91ca6e6b-3763-4581-9766-0877f45922e2","ios":"levelo://app?vid=91ca6e6b-3763-4581-9766-0877f45922e2"},"vehicle_type_id":"4","last_reported":1676963234,"current_range_meters":30000,"station_id":"ce4bh512rcd13ifvqe2g","pricing_plan_id":"free"},{"bike_id":"109ba075-6e7f-42da-a81d-ec9f9bb98d72","system_id":"levelo_inurba_marseille","lat":43.290832,"lon":5.381359,"is_reserved":false,"is_disabled":false,"rental_uris":{"android":"levelo://app?vid=109ba075-6e7f-42da-a81d-ec9f9bb98d72","ios":"levelo://app?vid=109ba075-6e7f-42da-a81d-ec9f9bb98d72"},"vehicle_type_id":"4","last_reported":1676963234,"current_range_meters":31600,"station_id":"ce4bh512rcd13ifvqe2g","pricing_plan_id":"free"},{"bike_id":"bb70be7e-63e4-49e2-955d-9c78bf638a7e","system_id":"levelo_inurba_marseille","lat":43.290995,"lon":5.381361,"is_reserved":false,"is_disabled":false,"rental_uris":{"android":"levelo://app?vid=bb70be7e-63e4-49e2-955d-9c78bf638a7e","ios":"levelo://app?vid=bb70be7e-63e4-49e2-955d-9c78bf638a7e"},"vehicle_type_id":"4","last_reported":1676963234,"current_range_meters":31600,"station_id":"ce4bh512rcd13ifvqe2g","pricing_plan_id":"free"},{"bike_id":"35af37ec-0482-4f7d-bf96-8917eebfc1e3","system_id":"levelo_inurba_marseille","lat":43.290995,"lon":5.381361,"is_reserved":false,"is_disabled":false,"rental_uris":{"android":"levelo://app?vid=35af37ec-0482-4f7d-bf96-8917eebfc1e3","ios":"levelo://app?vid=35af37ec-0482-4f7d-bf96-8917eebfc1e3"},"vehicle_type_id":"4","last_reported":1676963234,"current_range_meters":31200,"station_id":"ce4bh512rcd13ifvqe2g","pricing_plan_id":"free"},{"bike_id":"6f37abca-562a-4a9e-96b4-90c8bdf5ce37","system_id":"levelo_inurba_marseille","lat":43.28971,"lon":5.37833,"is_reserved":false,"is_disabled":false,"rental_uris":{"android":"levelo://app?vid=6f37abca-562a-4a9e-96b4-90c8bdf5ce37","ios":"levelo://app?vid=6f37abca-562a-4a9e-96b4-90c8bdf5ce37"},"vehicle_type_id":"4","last_reported":1676963234,"current_range_meters":28000,"station_id":"","pricing_plan_id":"free"},{"bike_id":"5ad3c0b7-363b-436f-bbae-86652cb64e94","system_id":"levelo_inurba_marseille","lat":43.28856,"lon":5.358371,"is_reserved":false,"is_disabled":false,"rental_uris":{"android":"levelo://app?vid=5ad3c0b7-363b-436f-bbae-86652cb64e94","ios":"levelo://app?vid=5ad3c0b7-363b-436f-bbae-86652cb64e94"},"vehicle_type_id":"4","last_reported":1676963234,"current_range_meters":27600,"station_id":"ce4bhb12rcd13ifvqem0","pricing_plan_id":"free"},{"bike_id":"664ec103-e28a-4c9c-8638-6b314488adeb","system_id":"levelo_inurba_marseille","lat":43.28856,"lon":5.358371,"is_reserved":false,"is_disabled":false,"rental_uris":{"android":"levelo://app?vid=664ec103-e28a-4c9c-8638-6b314488adeb","ios":"levelo://app?vid=664ec103-e28a-4c9c-8638-6b314488adeb"},"vehicle_type_id":"4","last_reported":1676963234,"current_range_meters":30800,"station_id":"ce4bhb12rcd13ifvqem0","pricing_plan_id":"free"},{"bike_id":"c3d70ced-b750-4bb4-bb4a-e22f6ca95137","system_id":"levelo_inurba_marseille","lat":43.288458,"lon":5.358558,"is_reserved":false,"is_disabled":false,"rental_uris":{"android":"levelo://app?vid=c3d70ced-b750-4bb4-bb4a-e22f6ca95137","ios":"levelo://app?vid=c3d70ced-b750-4bb4-bb4a-e22f6ca95137"},"vehicle_type_id":"4","last_reported":1676963234,"current_range_meters":30800,"station_id":"","pricing_plan_id":"free"},{"bike_id":"6d9d8f1f-8441-468d-ada7-956495ee7ae4","system_id":"levelo_inurba_marseille","lat":43.28856,"lon":5.358371,"is_reserved":false,"is_disabled":false,"rental_uris":{"android":"levelo://app?vid=6d9d8f1f-8441-468d-ada7-956495ee7ae4","ios":"levelo://app?vid=6d9d8f1f-8441-468d-ada7-956495ee7ae4"},"vehicle_type_id":"4","last_reported":1676963234,"current_range_meters":30400,"station_id":"ce4bhb12rcd13ifvqem0","pricing_plan_id":"free"},{"bike_id":"32cf081f-68ff-443b-8aaf-7457c46559f1","system_id":"levelo_inurba_marseille","lat":43.306412,"lon":5.401035,"is_reserved":false,"is_disabled":false,"rental_uris":{"android":"levelo://app?vid=32cf081f-68ff-443b-8aaf-7457c46559f1","ios":"levelo://app?vid=32cf081f-68ff-443b-8aaf-7457c46559f1"},"vehicle_type_id":"4","last_reported":1676963234,"current_range_meters":18400,"station_id":"ce4bh112rcd13ifvqda0","pricing_plan_id":"free"},{"bike_id":"41a6d668-a22f-4c30-b5a3-6c26e6a31cd8","system_id":"levelo_inurba_marseille","lat":43.30653,"lon":5.40074,"is_reserved":false,"is_disabled":false,"rental_uris":{"android":"levelo://app?vid=41a6d668-a22f-4c30-b5a3-6c26e6a31cd8","ios":"levelo://app?vid=41a6d668-a22f-4c30-b5a3-6c26e6a31cd8"},"vehicle_type_id":"4","last_reported":1676963234,"current_range_meters":31600,"station_id":"","pricing_plan_id":"free"},{"bike_id":"c1eb1b88-be4b-4548-a448-1f213d2be9ed","system_id":"levelo_inurba_marseille","lat":43.30642,"lon":5.401031,"is_reserved":false,"is_disabled":false,"rental_uris":{"android":"levelo://app?vid=c1eb1b88-be4b-4548-a448-1f213d2be9ed","ios":"levelo://app?vid=c1eb1b88-be4b-4548-a448-1f213d2be9ed"},"vehicle_type_id":"4","last_reported":1676963234,"current_range_meters":23200,"station_id":"ce4bh112rcd13ifvqda0","pricing_plan_id":"free"},{"bike_id":"a77fd495-dcc3-4ea1-96fc-01ff114b20f9","system_id":"levelo_inurba_marseille","lat":43.30642,"lon":5.401031,"is_reserved":false,"is_disabled":false,"rental_uris":{"android":"levelo://app?vid=a77fd495-dcc3-4ea1-96fc-01ff114b20f9","ios":"levelo://app?vid=a77fd495-dcc3-4ea1-96fc-01ff114b20f9"},"vehicle_type_id":"4","last_reported":1676963234,"current_range_meters":18800,"station_id":"ce4bh112rcd13ifvqda0","pricing_plan_id":"free"},{"bike_id":"7b69538c-e0b8-4a0f-ac72-1f2bf9b91168","system_id":"levelo_inurba_marseille","lat":43.30642,"lon":5.401031,"is_reserved":false,"is_disabled":false,"rental_uris":{"android":"levelo://app?vid=7b69538c-e0b8-4a0f-ac72-1f2bf9b91168","ios":"levelo://app?vid=7b69538c-e0b8-4a0f-ac72-1f2bf9b91168"},"vehicle_type_id":"4","last_reported":1676963234,"current_range_meters":23600,"station_id":"ce4bh112rcd13ifvqda0","pricing_plan_id":"free"},{"bike_id":"4078e38c-5190-4372-8447-a2aaba5f498b","system_id":"levelo_inurba_marseille","lat":43.306473,"lon":5.400778,"is_reserved":false,"is_disabled":false,"rental_uris":{"android":"levelo://app?vid=4078e38c-5190-4372-8447-a2aaba5f498b","ios":"levelo://app?vid=4078e38c-5190-4372-8447-a2aaba5f498b"},"vehicle_type_id":"4","last_reported":1676963234,"current_range_meters":16800,"station_id":"","pricing_plan_id":"free"},{"bike_id":"249c47cb-5dcf-495a-b20c-20081b998dd9","system_id":"levelo_inurba_marseille","lat":43.30642,"lon":5.401031,"is_reserved":false,"is_disabled":false,"rental_uris":{"android":"levelo://app?vid=249c47cb-5dcf-495a-b20c-20081b998dd9","ios":"levelo://app?vid=249c47cb-5dcf-495a-b20c-20081b998dd9"},"vehicle_type_id":"4","last_reported":1676963234,"current_range_meters":11200,"station_id":"ce4bh112rcd13ifvqda0","pricing_plan_id":"free"},{"bike_id":"89b35039-6e5f-4b4d-93d2-59ec10d2d6e8","system_id":"levelo_inurba_marseille","lat":43.306498,"lon":5.400795,"is_reserved":false,"is_disabled":false,"rental_uris":{"android":"levelo://app?vid=89b35039-6e5f-4b4d-93d2-59ec10d2d6e8","ios":"levelo://app?vid=89b35039-6e5f-4b4d-93d2-59ec10d2d6e8"},"vehicle_type_id":"4","last_reported":1676963234,"current_range_meters":800,"station_id":"","pricing_plan_id":"free"},{"bike_id":"f2ae2fa7-d793-4b6d-91b7-b4d06dd5d6ac","system_id":"levelo_inurba_marseille","lat":43.337577,"lon":5.374427,"is_reserved":false,"is_disabled":false,"rental_uris":{"android":"levelo://app?vid=f2ae2fa7-d793-4b6d-91b7-b4d06dd5d6ac","ios":"levelo://app?vid=f2ae2fa7-d793-4b6d-91b7-b4d06dd5d6ac"},"vehicle_type_id":"4","last_reported":1676963234,"current_range_meters":15200,"station_id":"ce4rr2p2rcd13i802rgg","pricing_plan_id":"free"},{"bike_id":"07bbd3e9-8813-4080-b461-d771f82bd647","system_id":"levelo_inurba_marseille","lat":43.306452,"lon":5.400798,"is_reserved":false,"is_disabled":false,"rental_uris":{"android":"levelo://app?vid=07bbd3e9-8813-4080-b461-d771f82bd647","ios":"levelo://app?vid=07bbd3e9-8813-4080-b461-d771f82bd647"},"vehicle_type_id":"4","last_reported":1676963234,"current_range_meters":11600,"station_id":"","pricing_plan_id":"free"},{"bike_id":"34a60612-4ee1-42aa-b98a-ca31d219cfa3","system_id":"levelo_inurba_marseille","lat":43.3013,"lon":5.39877,"is_reserved":false,"is_disabled":false,"rental_uris":{"android":"levelo://app?vid=34a60612-4ee1-42aa-b98a-ca31d219cfa3","ios":"levelo://app?vid=34a60612-4ee1-42aa-b98a-ca31d219cfa3"},"vehicle_type_id":"4","last_reported":1676963234,"current_range_meters":16400,"station_id":"","pricing_plan_id":"free"},{"bike_id":"9069b1ef-b106-4b4e-9659-6f972909013d","system_id":"levelo_inurba_marseille","lat":43.30133,"lon":5.398798,"is_reserved":false,"is_disabled":false,"rental_uris":{"android":"levelo://app?vid=9069b1ef-b106-4b4e-9659-6f972909013d","ios":"levelo://app?vid=9069b1ef-b106-4b4e-9659-6f972909013d"},"vehicle_type_id":"4","last_reported":1676963234,"current_range_meters":12400,"station_id":"","pricing_plan_id":"free"},{"bike_id":"c49cacc3-0a92-41d5-a463-cc03da95ab62","system_id":"levelo_inurba_marseille","lat":43.298681,"lon":5.397225,"is_reserved":false,"is_disabled":false,"rental_uris":{"android":"levelo://app?vid=c49cacc3-0a92-41d5-a463-cc03da95ab62","ios":"levelo://app?vid=c49cacc3-0a92-41d5-a463-cc03da95ab62"},"vehicle_type_id":"4","last_reported":1676963234,"current_range_meters":27200,"station_id":"ce4bh0h2rcd13ifvqd50","pricing_plan_id":"free"},{"bike_id":"f5106d28-afd5-44f0-b970-f70197a9d32f","system_id":"levelo_inurba_marseille","lat":43.295238,"lon":5.394015,"is_reserved":false,"is_disabled":false,"rental_uris":{"android":"levelo://app?vid=f5106d28-afd5-44f0-b970-f70197a9d32f","ios":"levelo://app?vid=f5106d28-afd5-44f0-b970-f70197a9d32f"},"vehicle_type_id":"4","last_reported":1676963234,"current_range_meters":31200,"station_id":"ce4bh212rcd13ifvqde0","pricing_plan_id":"free"},{"bike_id":"03dcd67c-7e6e-4020-8ca9-3413e1610832","system_id":"levelo_inurba_marseille","lat":43.29526,"lon":5.39407,"is_reserved":false,"is_disabled":false,"rental_uris":{"android":"levelo://app?vid=03dcd67c-7e6e-4020-8ca9-3413e1610832","ios":"levelo://app?vid=03dcd67c-7e6e-4020-8ca9-3413e1610832"},"vehicle_type_id":"4","last_reported":1676963234,"current_range_meters":25200,"station_id":"ce4bh212rcd13ifvqde0","pricing_plan_id":"free"},{"bike_id":"1cc2df88-35bc-4666-a9a5-c55964151e6b","system_id":"levelo_inurba_marseille","lat":43.295209,"lon":5.39401,"is_reserved":false,"is_disabled":false,"rental_uris":{"android":"levelo://app?vid=1cc2df88-35bc-4666-a9a5-c55964151e6b","ios":"levelo://app?vid=1cc2df88-35bc-4666-a9a5-c55964151e6b"},"vehicle_type_id":"4","last_reported":1676963234,"current_range_meters":7600,"station_id":"ce4bh212rcd13ifvqde0","pricing_plan_id":"free"},{"bike_id":"b1e7d179-8289-409c-837c-54c8b32129a6","system_id":"levelo_inurba_marseille","lat":43.295228,"lon":5.394066,"is_reserved":false,"is_disabled":false,"rental_uris":{"android":"levelo://app?vid=b1e7d179-8289-409c-837c-54c8b32129a6","ios":"levelo://app?vid=b1e7d179-8289-409c-837c-54c8b32129a6"},"vehicle_type_id":"4","last_reported":1676963234,"current_range_meters":31600,"station_id":"ce4bh212rcd13ifvqde0","pricing_plan_id":"free"},{"bike_id":"7b924db6-e78c-423b-94d1-7ef47e00d6dc","system_id":"levelo_inurba_marseille","lat":43.295217,"lon":5.394055,"is_reserved":false,"is_disabled":false,"rental_uris":{"android":"levelo://app?vid=7b924db6-e78c-423b-94d1-7ef47e00d6dc","ios":"levelo://app?vid=7b924db6-e78c-423b-94d1-7ef47e00d6dc"},"vehicle_type_id":"4","last_reported":1676963234,"current_range_meters":30400,"station_id":"ce4bh212rcd13ifvqde0","pricing_plan_id":"free"},{"bike_id":"63d0b890-54ff-495d-93ac-ccaddd883704","system_id":"levelo_inurba_marseille","lat":43.295167,"lon":5.394041,"is_reserved":false,"is_disabled":false,"rental_uris":{"android":"levelo://app?vid=63d0b890-54ff-495d-93ac-ccaddd883704","ios":"levelo://app?vid=63d0b890-54ff-495d-93ac-ccaddd883704"},"vehicle_type_id":"4","last_reported":1676963234,"current_range_meters":11200,"station_id":"ce4bh212rcd13ifvqde0","pricing_plan_id":"free"},{"bike_id":"ab515a50-eeb7-47bc-bc0a-be3693fbf160","system_id":"levelo_inurba_marseille","lat":43.295188,"lon":5.394076,"is_reserved":false,"is_disabled":false,"rental_uris":{"android":"levelo://app?vid=ab515a50-eeb7-47bc-bc0a-be3693fbf160","ios":"levelo://app?vid=ab515a50-eeb7-47bc-bc0a-be3693fbf160"},"vehicle_type_id":"4","last_reported":1676963234,"current_range_meters":14400,"station_id":"ce4bh212rcd13ifvqde0","pricing_plan_id":"free"},{"bike_id":"8f5628ac-2e4f-4e29-a13d-8dc4adbf2a31","system_id":"levelo_inurba_marseille","lat":43.295132,"lon":5.394033,"is_reserved":false,"is_disabled":false,"rental_uris":{"android":"levelo://app?vid=8f5628ac-2e4f-4e29-a13d-8dc4adbf2a31","ios":"levelo://app?vid=8f5628ac-2e4f-4e29-a13d-8dc4adbf2a31"},"vehicle_type_id":"4","last_reported":1676963234,"current_range_meters":3600,"station_id":"ce4bh212rcd13ifvqde0","pricing_plan_id":"free"},{"bike_id":"ddb7d64b-b053-4d31-8f5b-72725e6cfaae","system_id":"levelo_inurba_marseille","lat":43.302439,"lon":5.400569,"is_reserved":false,"is_disabled":false,"rental_uris":{"android":"levelo://app?vid=ddb7d64b-b053-4d31-8f5b-72725e6cfaae","ios":"levelo://app?vid=ddb7d64b-b053-4d31-8f5b-72725e6cfaae"},"vehicle_type_id":"4","last_reported":1676963234,"current_range_meters":27200,"station_id":"ce4bgvh2rcd13ifvqcs0","pricing_plan_id":"free"},{"bike_id":"05151505-36e5-4d46-917f-50bf53bacb1e","system_id":"levelo_inurba_marseille","lat":43.30235,"lon":5.40075,"is_reserved":false,"is_disabled":false,"rental_uris":{"android":"levelo://app?vid=05151505-36e5-4d46-917f-50bf53bacb1e","ios":"levelo://app?vid=05151505-36e5-4d46-917f-50bf53bacb1e"},"vehicle_type_id":"4","last_reported":1676963234,"current_range_meters":26800,"station_id":"ce4bgvh2rcd13ifvqcs0","pricing_plan_id":"free"},{"bike_id":"94b9b4a3-1492-4691-afb7-dc1c562eff11","system_id":"levelo_inurba_marseille","lat":43.286039,"lon":5.370679,"is_reserved":false,"is_disabled":false,"rental_uris":{"android":"levelo://app?vid=94b9b4a3-1492-4691-afb7-dc1c562eff11","ios":"levelo://app?vid=94b9b4a3-1492-4691-afb7-dc1c562eff11"},"vehicle_type_id":"4","last_reported":1676963234,"current_range_meters":17200,"station_id":"ce4bht12rcd13ifvqi60","pricing_plan_id":"free"},{"bike_id":"6cce9e5b-be48-4f71-9655-8f3c97b32138","system_id":"levelo_inurba_marseille","lat":43.286039,"lon":5.370679,"is_reserved":false,"is_disabled":false,"rental_uris":{"android":"levelo://app?vid=6cce9e5b-be48-4f71-9655-8f3c97b32138","ios":"levelo://app?vid=6cce9e5b-be48-4f71-9655-8f3c97b32138"},"vehicle_type_id":"4","last_reported":1676963234,"current_range_meters":5600,"station_id":"ce4bht12rcd13ifvqi60","pricing_plan_id":"free"},{"bike_id":"a26d55e1-7d7c-4169-93ca-4d9dad65472c","system_id":"levelo_inurba_marseille","lat":43.286039,"lon":5.370679,"is_reserved":false,"is_disabled":false,"rental_uris":{"android":"levelo://app?vid=a26d55e1-7d7c-4169-93ca-4d9dad65472c","ios":"levelo://app?vid=a26d55e1-7d7c-4169-93ca-4d9dad65472c"},"vehicle_type_id":"4","last_reported":1676963234,"current_range_meters":9600,"station_id":"ce4bht12rcd13ifvqi60","pricing_plan_id":"free"},{"bike_id":"b41e6261-a7a5-45a5-9994-f80cf023833a","system_id":"levelo_inurba_marseille","lat":43.286039,"lon":5.370679,"is_reserved":false,"is_disabled":false,"rental_uris":{"android":"levelo://app?vid=b41e6261-a7a5-45a5-9994-f80cf023833a","ios":"levelo://app?vid=b41e6261-a7a5-45a5-9994-f80cf023833a"},"vehicle_type_id":"4","last_reported":1676963234,"current_range_meters":19600,"station_id":"ce4bht12rcd13ifvqi60","pricing_plan_id":"free"},{"bike_id":"c22dacc1-6edd-44b9-b047-6194595f746b","system_id":"levelo_inurba_marseille","lat":43.286039,"lon":5.370679,"is_reserved":false,"is_disabled":false,"rental_uris":{"android":"levelo://app?vid=c22dacc1-6edd-44b9-b047-6194595f746b","ios":"levelo://app?vid=c22dacc1-6edd-44b9-b047-6194595f746b"},"vehicle_type_id":"4","last_reported":1676963234,"current_range_meters":3200,"station_id":"ce4bht12rcd13ifvqi60","pricing_plan_id":"free"},{"bike_id":"d0be182f-22dc-4299-9ff6-35e44cc47d9e","system_id":"levelo_inurba_marseille","lat":43.287155,"lon":5.37933,"is_reserved":false,"is_disabled":false,"rental_uris":{"android":"levelo://app?vid=d0be182f-22dc-4299-9ff6-35e44cc47d9e","ios":"levelo://app?vid=d0be182f-22dc-4299-9ff6-35e44cc47d9e"},"vehicle_type_id":"4","last_reported":1676963234,"current_range_meters":22000,"station_id":"ce4bh9p2rcd13ifvqec0","pricing_plan_id":"free"},{"bike_id":"b4ed08c8-90ca-4970-8bd4-ba1ed2b68aad","system_id":"levelo_inurba_marseille","lat":43.316517,"lon":5.404375,"is_reserved":false,"is_disabled":false,"rental_uris":{"android":"levelo://app?vid=b4ed08c8-90ca-4970-8bd4-ba1ed2b68aad","ios":"levelo://app?vid=b4ed08c8-90ca-4970-8bd4-ba1ed2b68aad"},"vehicle_type_id":"4","last_reported":1676963234,"current_range_meters":17600,"station_id":"ce4bh012rcd13ifvqd00","pricing_plan_id":"free"},{"bike_id":"5f39494b-39ab-4c8b-be54-e0275b96752a","system_id":"levelo_inurba_marseille","lat":43.316517,"lon":5.404375,"is_reserved":false,"is_disabled":false,"rental_uris":{"android":"levelo://app?vid=5f39494b-39ab-4c8b-be54-e0275b96752a","ios":"levelo://app?vid=5f39494b-39ab-4c8b-be54-e0275b96752a"},"vehicle_type_id":"4","last_reported":1676963234,"current_range_meters":0,"station_id":"ce4bh012rcd13ifvqd00","pricing_plan_id":"free"},{"bike_id":"c2d3c2e5-e1b8-4b7b-aee3-de205598cf5f","system_id":"levelo_inurba_marseille","lat":43.31645,"lon":5.40437,"is_reserved":false,"is_disabled":false,"rental_uris":{"android":"levelo://app?vid=c2d3c2e5-e1b8-4b7b-aee3-de205598cf5f","ios":"levelo://app?vid=c2d3c2e5-e1b8-4b7b-aee3-de205598cf5f"},"vehicle_type_id":"4","last_reported":1676963234,"current_range_meters":21600,"station_id":"ce4bh012rcd13ifvqd00","pricing_plan_id":"free"},{"bike_id":"612e0587-4191-48b1-bbec-cecb5f3ccd48","system_id":"levelo_inurba_marseille","lat":43.316413,"lon":5.40438,"is_reserved":false,"is_disabled":false,"rental_uris":{"android":"levelo://app?vid=612e0587-4191-48b1-bbec-cecb5f3ccd48","ios":"levelo://app?vid=612e0587-4191-48b1-bbec-cecb5f3ccd48"},"vehicle_type_id":"4","last_reported":1676963234,"current_range_meters":16800,"station_id":"ce4bh012rcd13ifvqd00","pricing_plan_id":"free"},{"bike_id":"3430dee9-a277-497e-8c56-8610e1fdb028","system_id":"levelo_inurba_marseille","lat":43.316517,"lon":5.404375,"is_reserved":false,"is_disabled":false,"rental_uris":{"android":"levelo://app?vid=3430dee9-a277-497e-8c56-8610e1fdb028","ios":"levelo://app?vid=3430dee9-a277-497e-8c56-8610e1fdb028"},"vehicle_type_id":"4","last_reported":1676963234,"current_range_meters":5200,"station_id":"ce4bh012rcd13ifvqd00","pricing_plan_id":"free"},{"bike_id":"a9193429-9004-4ff7-a258-7a996465ec38","system_id":"levelo_inurba_marseille","lat":43.316517,"lon":5.404375,"is_reserved":false,"is_disabled":false,"rental_uris":{"android":"levelo://app?vid=a9193429-9004-4ff7-a258-7a996465ec38","ios":"levelo://app?vid=a9193429-9004-4ff7-a258-7a996465ec38"},"vehicle_type_id":"4","last_reported":1676963234,"current_range_meters":20800,"station_id":"ce4bh012rcd13ifvqd00","pricing_plan_id":"free"},{"bike_id":"a8f36528-ab5f-47cb-aeb9-4ab289aca4e6","system_id":"levelo_inurba_marseille","lat":43.316517,"lon":5.404375,"is_reserved":false,"is_disabled":false,"rental_uris":{"android":"levelo://app?vid=a8f36528-ab5f-47cb-aeb9-4ab289aca4e6","ios":"levelo://app?vid=a8f36528-ab5f-47cb-aeb9-4ab289aca4e6"},"vehicle_type_id":"4","last_reported":1676963234,"current_range_meters":12400,"station_id":"ce4bh012rcd13ifvqd00","pricing_plan_id":"free"},{"bike_id":"dcdc2109-8b23-4856-93d5-458865a8fe02","system_id":"levelo_inurba_marseille","lat":43.3164,"lon":5.40441,"is_reserved":false,"is_disabled":false,"rental_uris":{"android":"levelo://app?vid=dcdc2109-8b23-4856-93d5-458865a8fe02","ios":"levelo://app?vid=dcdc2109-8b23-4856-93d5-458865a8fe02"},"vehicle_type_id":"4","last_reported":1676963234,"current_range_meters":17600,"station_id":"ce4bh012rcd13ifvqd00","pricing_plan_id":"free"},{"bike_id":"2c9ab700-f53a-4660-a1bc-9c0464d8b6a5","system_id":"levelo_inurba_marseille","lat":43.316449,"lon":5.404405,"is_reserved":false,"is_disabled":false,"rental_uris":{"android":"levelo://app?vid=2c9ab700-f53a-4660-a1bc-9c0464d8b6a5","ios":"levelo://app?vid=2c9ab700-f53a-4660-a1bc-9c0464d8b6a5"},"vehicle_type_id":"4","last_reported":1676963234,"current_range_meters":8400,"station_id":"ce4bh012rcd13ifvqd00","pricing_plan_id":"free"},{"bike_id":"cf4bcc7f-437f-44f7-84fa-3f9a8eabbf5d","system_id":"levelo_inurba_marseille","lat":43.316517,"lon":5.404375,"is_reserved":false,"is_disabled":false,"rental_uris":{"android":"levelo://app?vid=cf4bcc7f-437f-44f7-84fa-3f9a8eabbf5d","ios":"levelo://app?vid=cf4bcc7f-437f-44f7-84fa-3f9a8eabbf5d"},"vehicle_type_id":"4","last_reported":1676963234,"current_range_meters":25600,"station_id":"ce4bh012rcd13ifvqd00","pricing_plan_id":"free"},{"bike_id":"3bd888f9-57f3-486a-8c81-1a23e083154d","system_id":"levelo_inurba_marseille","lat":43.316517,"lon":5.404375,"is_reserved":false,"is_disabled":false,"rental_uris":{"android":"levelo://app?vid=3bd888f9-57f3-486a-8c81-1a23e083154d","ios":"levelo://app?vid=3bd888f9-57f3-486a-8c81-1a23e083154d"},"vehicle_type_id":"4","last_reported":1676963234,"current_range_meters":25600,"station_id":"ce4bh012rcd13ifvqd00","pricing_plan_id":"free"},{"bike_id":"b253af5e-2f95-403b-8a1b-f9897ce2ffe5","system_id":"levelo_inurba_marseille","lat":43.316517,"lon":5.404375,"is_reserved":false,"is_disabled":false,"rental_uris":{"android":"levelo://app?vid=b253af5e-2f95-403b-8a1b-f9897ce2ffe5","ios":"levelo://app?vid=b253af5e-2f95-403b-8a1b-f9897ce2ffe5"},"vehicle_type_id":"4","last_reported":1676963234,"current_range_meters":25200,"station_id":"ce4bh012rcd13ifvqd00","pricing_plan_id":"free"},{"bike_id":"af56310b-5fec-44c6-9e13-8135e99da67c","system_id":"levelo_inurba_marseille","lat":43.284634,"lon":5.358914,"is_reserved":false,"is_disabled":false,"rental_uris":{"android":"levelo://app?vid=af56310b-5fec-44c6-9e13-8135e99da67c","ios":"levelo://app?vid=af56310b-5fec-44c6-9e13-8135e99da67c"},"vehicle_type_id":"4","last_reported":1676963234,"current_range_meters":13600,"station_id":"ce4bhah2rcd13ifvqei0","pricing_plan_id":"free"},{"bike_id":"4de0e4f8-0a98-4876-8b88-0f0701f91fae","system_id":"levelo_inurba_marseille","lat":43.284633,"lon":5.358898,"is_reserved":false,"is_disabled":false,"rental_uris":{"android":"levelo://app?vid=4de0e4f8-0a98-4876-8b88-0f0701f91fae","ios":"levelo://app?vid=4de0e4f8-0a98-4876-8b88-0f0701f91fae"},"vehicle_type_id":"4","last_reported":1676963234,"current_range_meters":24800,"station_id":"ce4bhah2rcd13ifvqei0","pricing_plan_id":"free"},{"bike_id":"a8e6966c-93e5-4cb9-96a4-135c60dac56b","system_id":"levelo_inurba_marseille","lat":43.284608,"lon":5.358948,"is_reserved":false,"is_disabled":false,"rental_uris":{"android":"levelo://app?vid=a8e6966c-93e5-4cb9-96a4-135c60dac56b","ios":"levelo://app?vid=a8e6966c-93e5-4cb9-96a4-135c60dac56b"},"vehicle_type_id":"4","last_reported":1676963234,"current_range_meters":1200,"station_id":"ce4bhah2rcd13ifvqei0","pricing_plan_id":"free"},{"bike_id":"eb6d0096-3133-4e5d-90a7-03a2bd98639c","system_id":"levelo_inurba_marseille","lat":43.284534,"lon":5.358662,"is_reserved":false,"is_disabled":false,"rental_uris":{"android":"levelo://app?vid=eb6d0096-3133-4e5d-90a7-03a2bd98639c","ios":"levelo://app?vid=eb6d0096-3133-4e5d-90a7-03a2bd98639c"},"vehicle_type_id":"4","last_reported":1676963234,"current_range_meters":10400,"station_id":"ce4bhah2rcd13ifvqei0","pricing_plan_id":"free"},{"bike_id":"24d197c3-b6dc-4851-999a-bb7e283608b2","system_id":"levelo_inurba_marseille","lat":43.286595,"lon":5.386795,"is_reserved":false,"is_disabled":false,"rental_uris":{"android":"levelo://app?vid=24d197c3-b6dc-4851-999a-bb7e283608b2","ios":"levelo://app?vid=24d197c3-b6dc-4851-999a-bb7e283608b2"},"vehicle_type_id":"4","last_reported":1676963234,"current_range_meters":26400,"station_id":"ce4bh492rcd13ifvqdug","pricing_plan_id":"free"},{"bike_id":"00f69ad1-70cb-4d83-b402-72f8d181cc89","system_id":"levelo_inurba_marseille","lat":43.286595,"lon":5.386795,"is_reserved":false,"is_disabled":false,"rental_uris":{"android":"levelo://app?vid=00f69ad1-70cb-4d83-b402-72f8d181cc89","ios":"levelo://app?vid=00f69ad1-70cb-4d83-b402-72f8d181cc89"},"vehicle_type_id":"4","last_reported":1676963234,"current_range_meters":15200,"station_id":"ce4bh492rcd13ifvqdug","pricing_plan_id":"free"},{"bike_id":"e7cb7af6-e8a9-47b3-bddd-e287e3e3dfce","system_id":"levelo_inurba_marseille","lat":43.286595,"lon":5.386795,"is_reserved":false,"is_disabled":false,"rental_uris":{"android":"levelo://app?vid=e7cb7af6-e8a9-47b3-bddd-e287e3e3dfce","ios":"levelo://app?vid=e7cb7af6-e8a9-47b3-bddd-e287e3e3dfce"},"vehicle_type_id":"4","last_reported":1676963234,"current_range_meters":22000,"station_id":"ce4bh492rcd13ifvqdug","pricing_plan_id":"free"},{"bike_id":"f3d403fd-22d9-4039-8d38-e681ae1d11e8","system_id":"levelo_inurba_marseille","lat":43.286595,"lon":5.386795,"is_reserved":false,"is_disabled":false,"rental_uris":{"android":"levelo://app?vid=f3d403fd-22d9-4039-8d38-e681ae1d11e8","ios":"levelo://app?vid=f3d403fd-22d9-4039-8d38-e681ae1d11e8"},"vehicle_type_id":"4","last_reported":1676963234,"current_range_meters":0,"station_id":"ce4bh492rcd13ifvqdug","pricing_plan_id":"free"},{"bike_id":"035c051b-0a17-45fd-ba6a-c5dc1e86e9c0","system_id":"levelo_inurba_marseille","lat":43.286728,"lon":5.386716,"is_reserved":false,"is_disabled":false,"rental_uris":{"android":"levelo://app?vid=035c051b-0a17-45fd-ba6a-c5dc1e86e9c0","ios":"levelo://app?vid=035c051b-0a17-45fd-ba6a-c5dc1e86e9c0"},"vehicle_type_id":"4","last_reported":1676963234,"current_range_meters":30400,"station_id":"","pricing_plan_id":"free"},{"bike_id":"f494d8de-40d1-4735-bd7e-463c7e4f5694","system_id":"levelo_inurba_marseille","lat":43.28668,"lon":5.38668,"is_reserved":false,"is_disabled":false,"rental_uris":{"android":"levelo://app?vid=f494d8de-40d1-4735-bd7e-463c7e4f5694","ios":"levelo://app?vid=f494d8de-40d1-4735-bd7e-463c7e4f5694"},"vehicle_type_id":"4","last_reported":1676963234,"current_range_meters":31200,"station_id":"","pricing_plan_id":"free"},{"bike_id":"466237a7-66a4-4a97-9c7e-d0ce0c8c2883","system_id":"levelo_inurba_marseille","lat":43.286676,"lon":5.386679,"is_reserved":false,"is_disabled":false,"rental_uris":{"android":"levelo://app?vid=466237a7-66a4-4a97-9c7e-d0ce0c8c2883","ios":"levelo://app?vid=466237a7-66a4-4a97-9c7e-d0ce0c8c2883"},"vehicle_type_id":"4","last_reported":1676963234,"current_range_meters":25600,"station_id":"ce4bh492rcd13ifvqdug","pricing_plan_id":"free"},{"bike_id":"7d606109-3c8c-4833-b991-c3dc6864ec87","system_id":"levelo_inurba_marseille","lat":43.286699,"lon":5.386779,"is_reserved":false,"is_disabled":false,"rental_uris":{"android":"levelo://app?vid=7d606109-3c8c-4833-b991-c3dc6864ec87","ios":"levelo://app?vid=7d606109-3c8c-4833-b991-c3dc6864ec87"},"vehicle_type_id":"4","last_reported":1676963234,"current_range_meters":0,"station_id":"","pricing_plan_id":"free"},{"bike_id":"7f05bf01-9d25-438d-9ac8-cf6f4b581712","system_id":"levelo_inurba_marseille","lat":43.28666,"lon":5.38674,"is_reserved":false,"is_disabled":false,"rental_uris":{"android":"levelo://app?vid=7f05bf01-9d25-438d-9ac8-cf6f4b581712","ios":"levelo://app?vid=7f05bf01-9d25-438d-9ac8-cf6f4b581712"},"vehicle_type_id":"4","last_reported":1676963234,"current_range_meters":24400,"station_id":"","pricing_plan_id":"free"},{"bike_id":"6f24485b-56a9-42cb-87c7-91143e0a2732","system_id":"levelo_inurba_marseille","lat":43.33712,"lon":5.391853,"is_reserved":false,"is_disabled":false,"rental_uris":{"android":"levelo://app?vid=6f24485b-56a9-42cb-87c7-91143e0a2732","ios":"levelo://app?vid=6f24485b-56a9-42cb-87c7-91143e0a2732"},"vehicle_type_id":"4","last_reported":1676963234,"current_range_meters":25200,"station_id":"ce4bhr92rcd13ifvqhsg","pricing_plan_id":"free"},{"bike_id":"d59b9e63-fea9-49ac-90ce-7c4a1d4104ff","system_id":"levelo_inurba_marseille","lat":43.32328,"lon":5.40614,"is_reserved":false,"is_disabled":false,"rental_uris":{"android":"levelo://app?vid=d59b9e63-fea9-49ac-90ce-7c4a1d4104ff","ios":"levelo://app?vid=d59b9e63-fea9-49ac-90ce-7c4a1d4104ff"},"vehicle_type_id":"4","last_reported":1676963234,"current_range_meters":3200,"station_id":"ce4bhq92rcd13ifvqhjg","pricing_plan_id":"free"},{"bike_id":"6d09e89c-d5c2-4af7-a167-362c6e703b6e","system_id":"levelo_inurba_marseille","lat":43.337168,"lon":5.391825,"is_reserved":false,"is_disabled":false,"rental_uris":{"android":"levelo://app?vid=6d09e89c-d5c2-4af7-a167-362c6e703b6e","ios":"levelo://app?vid=6d09e89c-d5c2-4af7-a167-362c6e703b6e"},"vehicle_type_id":"4","last_reported":1676963234,"current_range_meters":30400,"station_id":"ce4bhr92rcd13ifvqhsg","pricing_plan_id":"free"},{"bike_id":"db88f312-acfa-49b9-ba01-a3608a0413be","system_id":"levelo_inurba_marseille","lat":43.33717,"lon":5.391857,"is_reserved":false,"is_disabled":false,"rental_uris":{"android":"levelo://app?vid=db88f312-acfa-49b9-ba01-a3608a0413be","ios":"levelo://app?vid=db88f312-acfa-49b9-ba01-a3608a0413be"},"vehicle_type_id":"4","last_reported":1676963234,"current_range_meters":30000,"station_id":"ce4bhr92rcd13ifvqhsg","pricing_plan_id":"free"},