{"last_updated":1711047974,"ttl":30,"version":"2.2","data":{"bikes":[{"bike_id":"580d100c-9314-4cc5-b725-ba53dce7d76d","system_id":"levelo_inurba_marseille","lat":43.309076,"lon":5.368465,"is_reserved":false,"is_disabled":false,"rental_uris":{"android":"levelo://app?vid=580d100c-9314-4cc5-b725-ba53dce7d76d","ios":"levelo://app?vid=580d100c-9314-4cc5-b725-ba53dce7d76d"},"vehicle_type_id":"4","last_reported":1711047974,"current_range_meters":10800,"station_id":"ce4bgn92rcd13ifvqbvg","pricing_plan_id":"cebpf4jnsgd1na2vs0mg"},{"bike_id":"0f2ea13f-e013-4483-830a-6c64670705be","system_id":"levelo_inurba_marseille","lat":43.309076,"lon":5.368465,"is_reserved":false,"is_disabled":false,"rental_uris":{"android":"levelo://app?vid=0f2ea13f-e013-4483-830a-6c64670705be","ios":"levelo://app?vid=0f2ea13f-e013-4483-830a-6c64670705be"},"vehicle_type_id":"4","last_reported":1711047974,"current_range_meters":10000,"station_id":"ce4bgn92rcd13ifvqbvg","pricing_plan_id":"cebpf4jnsgd1na2vs0mg"},{"bike_id":"47120d7f-7a84-40b7-8716-28595adec410","system_id":"levelo_inurba_marseille","lat":43.309076,"lon":5.368465,"is_reserved":false,"is_disabled":false,"rental_uris":{"android":"levelo://app?vid=47120d7f-7a84-40b7-8716-28595adec410","ios":"levelo://app?vid=47120d7f-7a84-40b7-8716-28595adec410"},"vehicle_type_id":"4","last_reported":1711047974,"current_range_meters":12000,"station_id":"ce4bgn92rcd13ifvqbvg","pricing_plan_id":"cebpf4jnsgd1na2vs0mg"},{"bike_id":"c29600eb-5bc4-4125-8512-440906fd05d8","system_id":"levelo_inurba_marseille","lat":43.314811,"lon":5.373103,"is_reserved":false,"is_disabled":false,"rental_uris":{"android":"levelo://app?vid=c29600eb-5bc4-4125-8512-440906fd05d8","ios":"levelo://app?vid=c29600eb-5bc4-4125-8512-440906fd05d8"},"vehicle_type_id":"4","last_reported":1711047974,"current_range_meters":7200,"station_id":"ce4bgt12rcd13ifvqcd0","pricing_plan_id":"cebpf4jnsgd1na2vs0mg"},{"bike_id":"659f3c2c-b71f-4d03-a5e0-d281e90719cf","system_id":"levelo_inurba_marseille","lat":43.309076,"lon":5.368465,"is_reserved":false,"is_disabled":false,"rental_uris":{"android":"levelo://app?vid=659f3c2c-b71f-4d03-a5e0-d281e90719cf","ios":"levelo://app?vid=659f3c2c-b71f-4d03-a5e0-d281e90719cf"},"vehicle_type_id":"4","last_reported":1711047974,"current_range_meters":19200,"station_id":"ce4bgn92rcd13ifvqbvg","pricing_plan_id":"cebpf4jnsgd1na2vs0mg"},{"bike_id":"31fe2a84-89b2-4bc0-9991-4f4e2221a3c7","system_id":"levelo_inurba_marseille","lat":43.314811,"lon":5.373103,"is_reserved":false,"is_disabled":false,"rental_uris":{"android":"levelo://app?vid=31fe2a84-89b2-4bc0-9991-4f4e2221a3c7","ios":"levelo://app?vid=31fe2a84-89b2-4bc0-9991-4f4e2221a3c7"},"vehicle_type_id":"4","last_reported":1711047974,"current_range_meters":21200,"station_id":"ce4bgt12rcd13ifvqcd0","pricing_plan_id":"cebpf4jnsgd1na2vs0mg"},{"bike_id":"abb01ee6-50b2-4555-b63c-4faee7c17553","system_id":"levelo_inurba_marseille","lat":43.31498,"lon":5.37302,"is_reserved":false,"is_disabled":false,"rental_uris":{"android":"levelo://app?vid=abb01ee6-50b2-4555-b63c-4faee7c17553","ios":"levelo://app?vid=abb01ee6-50b2-4555-b63c-4faee7c17553"},"vehicle_type_id":"4","last_reported":1711047974,"current_range_meters":0,"station_id":"ce4bgt12rcd13ifvqcd0","pricing_plan_id":"cebpf4jnsgd1na2vs0mg"},{"bike_id":"2f166e11-6a89-4627-a12b-f39cb4f3cde6","system_id":"levelo_inurba_marseille","lat":43.315,"lon":5.37301,"is_reserved":false,"is_disabled":false,"rental_uris":{"android":"levelo://app?vid=2f166e11-6a89-4627-a12b-f39cb4f3cde6","ios":"levelo://app?vid=2f166e11-6a89-4627-a12b-f39cb4f3cde6"},"vehicle_type_id":"4","last_reported":1711047974,"current_range_meters":0,"station_id":"ce4bgt12rcd13ifvqcd0","pricing_plan_id":"cebpf4jnsgd1na2vs0mg"},{"bike_id":"28ff1a7c-b684-488e-ade0-8c1ab3efab53","system_id":"levelo_inurba_marseille","lat":43.314811,"lon":5.373103,"is_reserved":false,"is_disabled":false,"rental_uris":{"android":"levelo://app?vid=28ff1a7c-b684-488e-ade0-8c1ab3efab53","ios":"levelo://app?vid=28ff1a7c-b684-488e-ade0-8c1ab3efab53"},"vehicle_type_id":"4","last_reported":1711047974,"current_range_meters":4000,"station_id":"ce4bgt12rcd13ifvqcd0","pricing_plan_id":"cebpf4jnsgd1na2vs0mg"},{"bike_id":"64c4e063-7117-425a-baa5-06e7866da10f","system_id":"levelo_inurba_marseille","lat":43.31496,"lon":5.37309,"is_reserved":false,"is_disabled":false,"rental_uris":{"android":"levelo://app?vid=64c4e063-7117-425a-baa5-06e7866da10f","ios":"levelo://app?vid=64c4e063-7117-425a-baa5-06e7866da10f"},"vehicle_type_id":"4","last_reported":1711047974,"current_range_meters":8000,"station_id":"ce4bgt12rcd13ifvqcd0","pricing_plan_id":"cebpf4jnsgd1na2vs0mg"},{"bike_id":"f3e70a13-faae-44b7-9d67-52b600ddea2b","system_id":"levelo_inurba_marseille","lat":43.314811,"lon":5.373103,"is_reserved":false,"is_disabled":false,"rental_uris":{"android":"levelo://app?vid=f3e70a13-faae-44b7-9d67-52b600ddea2b","ios":"levelo://app?vid=f3e70a13-faae-44b7-9d67-52b600ddea2b"},"vehicle_type_id":"4","last_reported":1711047974,"current_range_meters":23600,"station_id":"ce4bgt12rcd13ifvqcd0","pricing_plan_id":"cebpf4jnsgd1na2vs0mg"},{"bike_id":"2b922923-006d-40d5-9e91-55175673fa5b","system_id":"levelo_inurba_marseille","lat":43.314811,"lon":5.373104,"is_reserved":false,"is_disabled":false,"rental_uris":{"android":"levelo://app?vid=2b922923-006d-40d5-9e91-55175673fa5b","ios":"levelo://app?vid=2b922923-006d-40d5-9e91-55175673fa5b"},"vehicle_type_id":"4","last_reported":1711047974,"current_range_meters":3600,"station_id":"ce4bgt12rcd13ifvqcd0","pricing_plan_id":"cebpf4jnsgd1na2vs0mg"},{"bike_id":"14394f3c-19e2-4dfb-b8db-7441c462531b","system_id":"levelo_inurba_marseille","lat":43.305664,"lon":5.365508,"is_reserved":false,"is_disabled":false,"rental_uris":{"android":"levelo://app?vid=14394f3c-19e2-4dfb-b8db-7441c462531b","ios":"levelo://app?vid=14394f3c-19e2-4dfb-b8db-7441c462531b"},"vehicle_type_id":"4","last_reported":1711047974,"current_range_meters":26800,"station_id":"","pricing_plan_id":"cebpf4jnsgd1na2vs0mg"},{"bike_id":"94841539-c44a-4a40-9c2b-08c361e508fd","system_id":"levelo_inurba_marseille","lat":43.305497,"lon":5.36706,"is_reserved":false,"is_disabled":false,"rental_uris":{"android":"levelo://app?vid=94841539-c44a-4a40-9c2b-08c361e508fd","ios":"levelo://app?vid=94841539-c44a-4a40-9c2b-08c361e508fd"},"vehicle_type_id":"4","last_reported":1711047974,"current_range_meters":0,"station_id":"ce4bgrp2rcd13ifvqc9g","pricing_plan_id":"cebpf4jnsgd1na2vs0mg"},{"bike_id":"e1d61d88-fee4-42cb-8f32-02c2c9d08a29","system_id":"levelo_inurba_marseille","lat":43.305989,"lon":5.37225,"is_reserved":false,"is_disabled":false,"rental_uris":{"android":"levelo://app?vid=e1d61d88-fee4-42cb-8f32-02c2c9d08a29","ios":"levelo://app?vid=e1d61d88-fee4-42cb-8f32-02c2c9d08a29"},"vehicle_type_id":"4","last_reported":1711047974,"current_range_meters":11600,"station_id":"ce4bgqh2rcd13ifvqc4g","pricing_plan_id":"cebpf4jnsgd1na2vs0mg"},{"bike_id":"5b6acd8b-de9b-4214-aa87-9517a9dbc3ea","system_id":"levelo_inurba_marseille","lat":43.305989,"lon":5.37225,"is_reserved":false,"is_disabled":false,"rental_uris":{"android":"levelo://app?vid=5b6acd8b-de9b-4214-aa87-9517a9dbc3ea","ios":"levelo://app?vid=5b6acd8b-de9b-4214-aa87-9517a9dbc3ea"},"vehicle_type_id":"4","last_reported":1711047974,"current_range_meters":8400,"station_id":"ce4bgqh2rcd13ifvqc4g","pricing_plan_id":"cebpf4jnsgd1na2vs0mg"},{"bike_id":"e68b4290-4445-4365-b483-c30d2d0d7869","system_id":"levelo_inurba_marseille","lat":43.305989,"lon":5.37225,"is_reserved":false,"is_disabled":false,"rental_uris":{"android":"levelo://app?vid=e68b4290-4445-4365-b483-c30d2d0d7869","ios":"levelo://app?vid=e68b4290-4445-4365-b483-c30d2d0d7869"},"vehicle_type_id":"4","last_reported":1711047974,"current_range_meters":0,"station_id":"ce4bgqh2rcd13ifvqc4g","pricing_plan_id":"cebpf4jnsgd1na2vs0mg"},{"bike_id":"ed4f3434-6ac4-414f-9ae0-98d30eb97321","system_id":"levelo_inurba_marseille","lat":43.305989,"lon":5.37225,"is_reserved":false,"is_disabled":false,"rental_uris":{"android":"levelo://app?vid=ed4f3434-6ac4-414f-9ae0-98d30eb97321","ios":"levelo://app?vid=ed4f3434-6ac4-414f-9ae0-98d30eb97321"},"vehicle_type_id":"4","last_reported":1711047974,"current_range_meters":14800,"station_id":"ce4bgqh2rcd13ifvqc4g","pricing_plan_id":"cebpf4jnsgd1na2vs0mg"},{"bike_id":"db10ea5b-99c9-4f28-ade9-ff35c6b85b46","system_id":"levelo_inurba_marseille","lat":43.305989,"lon":5.37225,"is_reserved":false,"is_disabled":false,"rental_uris":{"android":"levelo://app?vid=db10ea5b-99c9-4f28-ade9-ff35c6b85b46","ios":"levelo://app?vid=db10ea5b-99c9-4f28-ade9-ff35c6b85b46"},"vehicle_type_id":"4","last_reported":1711047974,"current_range_meters":1600,"station_id":"ce4bgqh2rcd13ifvqc4g","pricing_plan_id":"cebpf4jnsgd1na2vs0mg"},{"bike_id":"0fcf8590-5ae2-48eb-a4c8-8412fbc40eff","system_id":"levelo_inurba_marseille","lat":43.305989,"lon":5.37225,"is_reserved":false,"is_disabled":false,"rental_uris":{"android":"levelo://app?vid=0fcf8590-5ae2-48eb-a4c8-8412fbc40eff","ios":"levelo://app?vid=0fcf8590-5ae2-48eb-a4c8-8412fbc40eff"},"vehicle_type_id":"4","last_reported":1711047974,"current_range_meters":0,"station_id":"ce4bgqh2rcd13ifvqc4g","pricing_plan_id":"cebpf4jnsgd1na2vs0mg"},{"bike_id":"87bbd0d8-b5a3-4f65-b220-8ed0900469af","system_id":"levelo_inurba_marseille","lat":43.307945,"lon":5.376487,"is_reserved":false,"is_disabled":false,"rental_uris":{"android":"levelo://app?vid=87bbd0d8-b5a3-4f65-b220-8ed0900469af","ios":"levelo://app?vid=87bbd0d8-b5a3-4f65-b220-8ed0900469af"},"vehicle_type_id":"4","last_reported":1711047974,"current_range_meters":22000,"station_id":"ce4bgv92rcd13ifvqcq0","pricing_plan_id":"cebpf4jnsgd1na2vs0mg"},{"bike_id":"4f4965d8-e4c7-46e3-bb6d-a1e9512a7c0e","system_id":"levelo_inurba_marseille","lat":43.303046,"lon":5.368981,"is_reserved":false,"is_disabled":false,"rental_uris":{"android":"levelo://app?vid=4f4965d8-e4c7-46e3-bb6d-a1e9512a7c0e","ios":"levelo://app?vid=4f4965d8-e4c7-46e3-bb6d-a1e9512a7c0e"},"vehicle_type_id":"4","last_reported":1711047974,"current_range_meters":800,"station_id":"ce4bgqh2rcd13ifvqc5g","pricing_plan_id":"cebpf4jnsgd1na2vs0mg"},{"bike_id":"a0b83547-6500-4266-b8ce-0706e0389551","system_id":"levelo_inurba_marseille","lat":43.31995,"lon":5.3762,"is_reserved":false,"is_disabled":false,"rental_uris":{"android":"levelo://app?vid=a0b83547-6500-4266-b8ce-0706e0389551","ios":"levelo://app?vid=a0b83547-6500-4266-b8ce-0706e0389551"},"vehicle_type_id":"4","last_reported":1711047974,"current_range_meters":12000,"station_id":"","pricing_plan_id":"cebpf4jnsgd1na2vs0mg"},{"bike_id":"c518bd54-959d-4024-bf5e-4079d6a66be2","system_id":"levelo_inurba_marseille","lat":43.315293,"lon":5.380349,"is_reserved":false,"is_disabled":false,"rental_uris":{"android":"levelo://app?vid=c518bd54-959d-4024-bf5e-4079d6a66be2","ios":"levelo://app?vid=c518bd54-959d-4024-bf5e-4079d6a66be2"},"vehicle_type_id":"4","last_reported":1711047974,"current_range_meters":7200,"station_id":"ce4bhsp2rcd13ifvqi50","pricing_plan_id":"cebpf4jnsgd1na2vs0mg"},{"bike_id":"db75848a-00c5-4d99-9e32-e2838431cef4","system_id":"levelo_inurba_marseille","lat":43.315289,"lon":5.380349,"is_reserved":false,"is_disabled":false,"rental_uris":{"android":"levelo://app?vid=db75848a-00c5-4d99-9e32-e2838431cef4","ios":"levelo://app?vid=db75848a-00c5-4d99-9e32-e2838431cef4"},"vehicle_type_id":"4","last_reported":1711047974,"current_range_meters":14000,"station_id":"ce4bhsp2rcd13ifvqi50","pricing_plan_id":"cebpf4jnsgd1na2vs0mg"},{"bike_id":"1b00510e-913e-48bf-9b43-eb3f5e6329f0","system_id":"levelo_inurba_marseille","lat":43.315289,"lon":5.380349,"is_reserved":false,"is_disabled":false,"rental_uris":{"android":"levelo://app?vid=1b00510e-913e-48bf-9b43-eb3f5e6329f0","ios":"levelo://app?vid=1b00510e-913e-48bf-9b43-eb3f5e6329f0"},"vehicle_type_id":"4","last_reported":1711047974,"current_range_meters":15600,"station_id":"ce4bhsp2rcd13ifvqi50","pricing_plan_id":"cebpf4jnsgd1na2vs0mg"},{"bike_id":"57ded255-eb92-4054-bb95-631bd66c7382","system_id":"levelo_inurba_marseille","lat":43.315289,"lon":5.380349,"is_reserved":false,"is_disabled":false,"rental_uris":{"android":"levelo://app?vid=57ded255-eb92-4054-bb95-631bd66c7382","ios":"levelo://app?vid=57ded255-eb92-4054-bb95-631bd66c7382"},"vehicle_type_id":"4","last_reported":1711047974,"current_range_meters":15600,"station_id":"ce4bhsp2rcd13ifvqi50","pricing_plan_id":"cebpf4jnsgd1na2vs0mg"},{"bike_id":"d8fe64db-51e2-433c-814a-fbe6bd7ebfb3","system_id":"levelo_inurba_marseille","lat":43.315289,"lon":5.380349,"is_reserved":false,"is_disabled":false,"rental_uris":{"android":"levelo://app?vid=d8fe64db-51e2-433c-814a-fbe6bd7ebfb3","ios":"levelo://app?vid=d8fe64db-51e2-433c-814a-fbe6bd7ebfb3"},"vehicle_type_id":"4","last_reported":1711047974,"current_range_meters":28000,"station_id":"ce4bhsp2rcd13ifvqi50","pricing_plan_id":"cebpf4jnsgd1na2vs0mg"},{"bike_id":"071a19f2-13a8-44e2-b6d5-1e2d314d3236","system_id":"levelo_inurba_marseille","lat":43.315289,"lon":5.380349,"is_reserved":false,"is_disabled":false,"rental_uris":{"android":"levelo://app?vid=071a19f2-13a8-44e2-b6d5-1e2d314d3236","ios":"levelo://app?vid=071a19f2-13a8-44e2-b6d5-1e2d314d3236"},"vehicle_type_id":"4","last_reported":1711047974,"current_range_meters":29200,"station_id":"ce4bhsp2rcd13ifvqi50","pricing_plan_id":"cebpf4jnsgd1na2vs0mg"},{"bike_id":"3ee78cac-a08a-499b-bc1e-ba07db9ba7d4","system_id":"levelo_inurba_marseille","lat":43.314053,"lon":5.38087,"is_reserved":false,"is_disabled":false,"rental_uris":{"android":"levelo://app?vid=3ee78cac-a08a-499b-bc1e-ba07db9ba7d4","ios":"levelo://app?vid=3ee78cac-a08a-499b-bc1e-ba07db9ba7d4"},"vehicle_type_id":"4","last_reported":1711047974,"current_range_meters":4000,"station_id":"","pricing_plan_id":"cebpf4jnsgd1na2vs0mg"},{"bike_id":"b13a7f83-43a2-4110-8514-908b1804ae9e","system_id":"levelo_inurba_marseille","lat":43.32022,"lon":5.376533,"is_reserved":false,"is_disabled":false,"rental_uris":{"android":"levelo://app?vid=b13a7f83-43a2-4110-8514-908b1804ae9e","ios":"levelo://app?vid=b13a7f83-43a2-4110-8514-908b1804ae9e"},"vehicle_type_id":"4","last_reported":1711047974,"current_range_meters":16400,"station_id":"","pricing_plan_id":"cebpf4jnsgd1na2vs0mg"},{"bike_id":"b23f804c-9897-4980-9ede-19991485b10b","system_id":"levelo_inurba_marseille","lat":43.324771,"lon":5.36557,"is_reserved":false,"is_disabled":false,"rental_uris":{"android":"levelo://app?vid=b23f804c-9897-4980-9ede-19991485b10b","ios":"levelo://app?vid=b23f804c-9897-4980-9ede-19991485b10b"},"vehicle_type_id":"4","last_reported":1711047974,"current_range_meters":20800,"station_id":"ce4bhs12rcd13ifvqhvg","pricing_plan_id":"cebpf4jnsgd1na2vs0mg"},{"bike_id":"21e03fba-26b3-42ee-a8b9-294830c3814c","system_id":"levelo_inurba_marseille","lat":43.3046,"lon":5.378883,"is_reserved":false,"is_disabled":false,"rental_uris":{"android":"levelo://app?vid=21e03fba-26b3-42ee-a8b9-294830c3814c","ios":"levelo://app?vid=21e03fba-26b3-42ee-a8b9-294830c3814c"},"vehicle_type_id":"4","last_reported":1711047974,"current_range_meters":0,"station_id":"ce4bgup2rcd13ifvqcn0","pricing_plan_id":"cebpf4jnsgd1na2vs0mg"},{"bike_id":"416b5ec0-c3f9-4c48-9d52-774002c57031","system_id":"levelo_inurba_marseille","lat":43.30468,"lon":5.37904,"is_reserved":false,"is_disabled":false,"rental_uris":{"android":"levelo://app?vid=416b5ec0-c3f9-4c48-9d52-774002c57031","ios":"levelo://app?vid=416b5ec0-c3f9-4c48-9d52-774002c57031"},"vehicle_type_id":"4","last_reported":1711047974,"current_range_meters":0,"station_id":"ce4bgup2rcd13ifvqcn0","pricing_plan_id":"cebpf4jnsgd1na2vs0mg"},{"bike_id":"0851bd97-09de-41f1-addc-46c98bc4f3d9","system_id":"levelo_inurba_marseille","lat":43.324771,"lon":5.36557,"is_reserved":false,"is_disabled":false,"rental_uris":{"android":"levelo://app?vid=0851bd97-09de-41f1-addc-46c98bc4f3d9","ios":"levelo://app?vid=0851bd97-09de-41f1-addc-46c98bc4f3d9"},"vehicle_type_id":"4","last_reported":1711047974,"current_range_meters":22400,"station_id":"ce4bhs12rcd13ifvqhvg","pricing_plan_id":"cebpf4jnsgd1na2vs0mg"},{"bike_id":"ee2cfca0-4c51-4303-ae9d-53a9c812e334","system_id":"levelo_inurba_marseille","lat":43.324771,"lon":5.36557,"is_reserved":false,"is_disabled":false,"rental_uris":{"android":"levelo://app?vid=ee2cfca0-4c51-4303-ae9d-53a9c812e334","ios":"levelo://app?vid=ee2cfca0-4c51-4303-ae9d-53a9c812e334"},"vehicle_type_id":"4","last_reported":1711047974,"current_range_meters":19600,"station_id":"ce4bhs12rcd13ifvqhvg","pricing_plan_id":"cebpf4jnsgd1na2vs0mg"},{"bike_id":"40df7fb7-b028-4711-b1de-658df7dda3e2","system_id":"levelo_inurba_marseille","lat":43.30297,"lon":5.37693,"is_reserved":false,"is_disabled":false,"rental_uris":{"android":"levelo://app?vid=40df7fb7-b028-4711-b1de-658df7dda3e2","ios":"levelo://app?vid=40df7fb7-b028-4711-b1de-658df7dda3e2"},"vehicle_type_id":"4","last_reported":1711047974,"current_range_meters":30000,"station_id":"ce4bguh2rcd13ifvqcj0","pricing_plan_id":"cebpf4jnsgd1na2vs0mg"},{"bike_id":"339edb0e-b26e-4deb-863b-112061cae207","system_id":"levelo_inurba_marseille","lat":43.324771,"lon":5.36557,"is_reserved":false,"is_disabled":false,"rental_uris":{"android":"levelo://app?vid=339edb0e-b26e-4deb-863b-112061cae207","ios":"levelo://app?vid=339edb0e-b26e-4deb-863b-112061cae207"},"vehicle_type_id":"4","last_reported":1711047974,"current_range_meters":5600,"station_id":"ce4bhs12rcd13ifvqhvg","pricing_plan_id":"cebpf4jnsgd1na2vs0mg"},{"bike_id":"a903a224-bd3b-483f-b64f-816b924538b9","system_id":"levelo_inurba_marseille","lat":43.310652,"lon":5.383544,"is_reserved":false,"is_disabled":false,"rental_uris":{"android":"levelo://app?vid=a903a224-bd3b-483f-b64f-816b924538b9","ios":"levelo://app?vid=a903a224-bd3b-483f-b64f-816b924538b9"},"vehicle_type_id":"4","last_reported":1711047974,"current_range_meters":0,"station_id":"ce4bgv92rcd13ifvqcr0","pricing_plan_id":"cebpf4jnsgd1na2vs0mg"},{"bike_id":"d719f870-31d9-469f-8c7c-5bfdf4098d54","system_id":"levelo_inurba_marseille","lat":43.310844,"lon":5.383651,"is_reserved":false,"is_disabled":false,"rental_uris":{"android":"levelo://app?vid=d719f870-31d9-469f-8c7c-5bfdf4098d54","ios":"levelo://app?vid=d719f870-31d9-469f-8c7c-5bfdf4098d54"},"vehicle_type_id":"4","last_reported":1711047974,"current_range_meters":2400,"station_id":"ce4bgv12rcd13ifvqcp0","pricing_plan_id":"cebpf4jnsgd1na2vs0mg"},{"bike_id":"40d4dc18-70e7-4197-abcc-c4ccec58f534","system_id":"levelo_inurba_marseille","lat":43.30143,"lon":5.37413,"is_reserved":false,"is_disabled":false,"rental_uris":{"android":"levelo://app?vid=40d4dc18-70e7-4197-abcc-c4ccec58f534","ios":"levelo://app?vid=40d4dc18-70e7-4197-abcc-c4ccec58f534"},"vehicle_type_id":"4","last_reported":1711047974,"current_range_meters":15200,"station_id":"ce4bgs92rcd13ifvqcc0","pricing_plan_id":"cebpf4jnsgd1na2vs0mg"},{"bike_id":"77219579-4a8e-4967-84a7-2c8f7c2ee020","system_id":"levelo_inurba_marseille","lat":43.319935,"lon":5.381699,"is_reserved":false,"is_disabled":false,"rental_uris":{"android":"levelo://app?vid=77219579-4a8e-4967-84a7-2c8f7c2ee020","ios":"levelo://app?vid=77219579-4a8e-4967-84a7-2c8f7c2ee020"},"vehicle_type_id":"4","last_reported":1711047974,"current_range_meters":2400,"station_id":"ce4bhr12rcd13ifvqhpg","pricing_plan_id":"cebpf4jnsgd1na2vs0mg"},{"bike_id":"fb1df66a-4164-4204-8f46-c868a56248ae","system_id":"levelo_inurba_marseille","lat":43.319935,"lon":5.381699,"is_reserved":false,"is_disabled":false,"rental_uris":{"android":"levelo://app?vid=fb1df66a-4164-4204-8f46-c868a56248ae","ios":"levelo://app?vid=fb1df66a-4164-4204-8f46-c868a56248ae"},"vehicle_type_id":"4","last_reported":1711047974,"current_range_meters":0,"station_id":"ce4bhr12rcd13ifvqhpg","pricing_plan_id":"cebpf4jnsgd1na2vs0mg"},{"bike_id":"1e75a49f-2b8e-4612-893c-8eed9e34d864","system_id":"levelo_inurba_marseille","lat":43.319988,"lon":5.381543,"is_reserved":false,"is_disabled":false,"rental_uris":{"android":"levelo://app?vid=1e75a49f-2b8e-4612-893c-8eed9e34d864","ios":"levelo://app?vid=1e75a49f-2b8e-4612-893c-8eed9e34d864"},"vehicle_type_id":"4","last_reported":1711047974,"current_range_meters":28000,"station_id":"ce4bhr12rcd13ifvqhpg","pricing_plan_id":"cebpf4jnsgd1na2vs0mg"},{"bike_id":"c5888602-c39a-4a5d-b745-ebbd3f4db101","system_id":"levelo_inurba_marseille","lat":43.319935,"lon":5.381699,"is_reserved":false,"is_disabled":false,"rental_uris":{"android":"levelo://app?vid=c5888602-c39a-4a5d-b745-ebbd3f4db101","ios":"levelo://app?vid=c5888602-c39a-4a5d-b745-ebbd3f4db101"},"vehicle_type_id":"4","last_reported":1711047974,"current_range_meters":4800,"station_id":"ce4bhr12rcd13ifvqhpg","pricing_plan_id":"cebpf4jnsgd1na2vs0mg"},{"bike_id":"be83824f-cd7e-44ed-bda3-89905b40ab1f","system_id":"levelo_inurba_marseille","lat":43.32004,"lon":5.38151,"is_reserved":false,"is_disabled":false,"rental_uris":{"android":"levelo://app?vid=be83824f-cd7e-44ed-bda3-89905b40ab1f","ios":"levelo://app?vid=be83824f-cd7e-44ed-bda3-89905b40ab1f"},"vehicle_type_id":"4","last_reported":1711047974,"current_range_meters":24400,"station_id":"ce4bhr12rcd13ifvqhpg","pricing_plan_id":"cebpf4jnsgd1na2vs0mg"},{"bike_id":"f77d1cc8-79af-49f9-a144-5827820e5221","system_id":"levelo_inurba_marseille","lat":43.319935,"lon":5.381699,"is_reserved":false,"is_disabled":false,"rental_uris":{"android":"levelo://app?vid=f77d1cc8-79af-49f9-a144-5827820e5221","ios":"levelo://app?vid=f77d1cc8-79af-49f9-a144-5827820e5221"},"vehicle_type_id":"4","last_reported":1711047974,"current_range_meters":3200,"station_id":"ce4bhr12rcd13ifvqhpg","pricing_plan_id":"cebpf4jnsgd1na2vs0mg"},{"bike_id":"f93a843c-c559-4ac7-8057-f51c94056e71","system_id":"levelo_inurba_marseille","lat":43.319935,"lon":5.381699,"is_reserved":false,"is_disabled":false,"rental_uris":{"android":"levelo://app?vid=f93a843c-c559-4ac7-8057-f51c94056e71","ios":"levelo://app?vid=f93a843c-c559-4ac7-8057-f51c94056e71"},"vehicle_type_id":"4","last_reported":1711047974,"current_range_meters":27200,"station_id":"ce4bhr12rcd13ifvqhpg","pricing_plan_id":"cebpf4jnsgd1na2vs0mg"},{"bike_id":"56702b62-d5ad-44be-ac73-f3f0d7022a03","system_id":"levelo_inurba_marseille","lat":43.30008,"lon":5.36357,"is_reserved":false,"is_disabled":false,"rental_uris":{"android":"levelo://app?vid=56702b62-d5ad-44be-ac73-f3f0d7022a03","ios":"levelo://app?vid=56702b62-d5ad-44be-ac73-f3f0d7022a03"},"vehicle_type_id":"4","last_reported":1711047974,"current_range_meters":17600,"station_id":"","pricing_plan_id":"cebpf4jnsgd1na2vs0mg"},{"bike_id":"2d0b6e98-6c16-4d74-bf20-e94ad7e261ef","system_id":"levelo_inurba_marseille","lat":43.319935,"lon":5.381699,"is_reserved":false,"is_disabled":false,"rental_uris":{"android":"levelo://app?vid=2d0b6e98-6c16-4d74-bf20-e94ad7e261ef","ios":"levelo://app?vid=2d0b6e98-6c16-4d74-bf20-e94ad7e261ef"},"vehicle_type_id":"4","last_reported":1711047974,"current_range_meters":7600,"station_id":"ce4bhr12rcd13ifvqhpg","pricing_plan_id":"cebpf4jnsgd1na2vs0mg"},{"bike_id":"742a891d-414c-4f26-822a-c32be3923d43","system_id":"levelo_inurba_marseille","lat":43.32001,"lon":5.38161,"is_reserved":false,"is_disabled":false,"rental_uris":{"android":"levelo://app?vid=742a891d-414c-4f26-822a-c32be3923d43","ios":"levelo://app?vid=742a891d-414c-4f26-822a-c32be3923d43"},"vehicle_type_id":"4","last_reported":1711047974,"current_range_meters":11200,"station_id":"ce4bhr12rcd13ifvqhpg","pricing_plan_id":"cebpf4jnsgd1na2vs0mg"},{"bike_id":"3ece4061-2192-4039-b180-7fedd0addb4f","system_id":"levelo_inurba_marseille","lat":43.319935,"lon":5.381699,"is_reserved":false,"is_disabled":false,"rental_uris":{"android":"levelo://app?vid=3ece4061-2192-4039-b180-7fedd0addb4f","ios":"levelo://app?vid=3ece4061-2192-4039-b180-7fedd0addb4f"},"vehicle_type_id":"4","last_reported":1711047974,"current_range_meters":7200,"station_id":"ce4bhr12rcd13ifvqhpg","pricing_plan_id":"cebpf4jnsgd1na2vs0mg"},{"bike_id":"12eb73df-2a4a-42f9-baf0-a0158d3f526d","system_id":"levelo_inurba_marseille","lat":43.32001,"lon":5.38163,"is_reserved":false,"is_disabled":false,"rental_uris":{"android":"levelo://app?vid=12eb73df-2a4a-42f9-baf0-a0158d3f526d","ios":"levelo://app?vid=12eb73df-2a4a-42f9-baf0-a0158d3f526d"},"vehicle_type_id":"4","last_reported":1711047974,"current_range_meters":23600,"station_id":"ce4bhr12rcd13ifvqhpg","pricing_plan_id":"cebpf4jnsgd1na2vs0mg"},{"bike_id":"459e96ae-ada8-4414-8c10-d53ae4eec6de","system_id":"levelo_inurba_marseille","lat":43.319935,"lon":5.381699,"is_reserved":false,"is_disabled":false,"rental_uris":{"android":"levelo://app?vid=459e96ae-ada8-4414-8c10-d53ae4eec6de","ios":"levelo://app?vid=459e96ae-ada8-4414-8c10-d53ae4eec6de"},"vehicle_type_id":"4","last_reported":1711047974,"current_range_meters":2800,"station_id":"ce4bhr12rcd13ifvqhpg","pricing_plan_id":"cebpf4jnsgd1na2vs0mg"},{"bike_id":"b1d70195-f0d8-496b-aeb2-dcd26e6e4e55","system_id":"levelo_inurba_marseille","lat":43.32001,"lon":5.38164,"is_reserved":false,"is_disabled":false,"rental_uris":{"android":"levelo://app?vid=b1d70195-f0d8-496b-aeb2-dcd26e6e4e55","ios":"levelo://app?vid=b1d70195-f0d8-496b-aeb2-dcd26e6e4e55"},"vehicle_type_id":"4","last_reported":1711047974,"current_range_meters":4400,"station_id":"ce4bhr12rcd13ifvqhpg","pricing_plan_id":"cebpf4jnsgd1na2vs0mg"},{"bike_id":"dd1de779-cd25-4e76-b1a9-bbf7552ea8a8","system_id":"levelo_inurba_marseille","lat":43.32001,"lon":5.38165,"is_reserved":false,"is_disabled":false,"rental_uris":{"android":"levelo://app?vid=dd1de779-cd25-4e76-b1a9-bbf7552ea8a8","ios":"levelo://app?vid=dd1de779-cd25-4e76-b1a9-bbf7552ea8a8"},"vehicle_type_id":"4","last_reported":1711047974,"current_range_meters":28800,"station_id":"ce4bhr12rcd13ifvqhpg","pricing_plan_id":"cebpf4jnsgd1na2vs0mg"},{"bike_id":"775b7928-7c6e-4ec5-b61b-9210c6692503","system_id":"levelo_inurba_marseille","lat":43.32013,"lon":5.38159,"is_reserved":false,"is_disabled":false,"rental_uris":{"android":"levelo://app?vid=775b7928-7c6e-4ec5-b61b-9210c6692503","ios":"levelo://app?vid=775b7928-7c6e-4ec5-b61b-9210c6692503"},"vehicle_type_id":"4","last_reported":1711047974,"current_range_meters":10000,"station_id":"ce4bhr12rcd13ifvqhpg","pricing_plan_id":"cebpf4jnsgd1na2vs0mg"},{"bike_id":"08cf0d78-3aa4-4da3-9cb5-7f10d205e535","system_id":"levelo_inurba_marseille","lat":43.31361,"lon":5.38504,"is_reserved":false,"is_disabled":false,"rental_uris":{"android":"levelo://app?vid=08cf0d78-3aa4-4da3-9cb5-7f10d205e535","ios":"levelo://app?vid=08cf0d78-3aa4-4da3-9cb5-7f10d205e535"},"vehicle_type_id":"4","last_reported":1711047974,"current_range_meters":28400,"station_id":"ce4bgt92rcd13ifvqcf0","pricing_plan_id":"cebpf4jnsgd1na2vs0mg"},{"bike_id":"8b5e2835-b928-4549-a218-1b1cb3e0d126","system_id":"levelo_inurba_marseille","lat":43.299222,"lon":5.365554,"is_reserved":false,"is_disabled":false,"rental_uris":{"android":"levelo://app?vid=8b5e2835-b928-4549-a218-1b1cb3e0d126","ios":"levelo://app?vid=8b5e2835-b928-4549-a218-1b1cb3e0d126"},"vehicle_type_id":"4","last_reported":1711047974,"current_range_meters":0,"station_id":"ce4bgm92rcd13ifvqbr0","pricing_plan_id":"cebpf4jnsgd1na2vs0mg"},{"bike_id":"957a2f42-0b94-4669-b983-3e7c52f49983","system_id":"levelo_inurba_marseille","lat":43.299724,"lon":5.371829,"is_reserved":false,"is_disabled":false,"rental_uris":{"android":"levelo://app?vid=957a2f42-0b94-4669-b983-3e7c52f49983","ios":"levelo://app?vid=957a2f42-0b94-4669-b983-3e7c52f49983"},"vehicle_type_id":"4","last_reported":1711047974,"current_range_meters":16000,"station_id":"ce4bgr92rcd13ifvqc7g","pricing_plan_id":"cebpf4jnsgd1na2vs0mg"},{"bike_id":"69a1addf-7392-4dfc-8bda-87a7324021c7","system_id":"levelo_inurba_marseille","lat":43.299222,"lon":5.365554,"is_reserved":false,"is_disabled":false,"rental_uris":{"android":"levelo://app?vid=69a1addf-7392-4dfc-8bda-87a7324021c7","ios":"levelo://app?vid=69a1addf-7392-4dfc-8bda-87a7324021c7"},"vehicle_type_id":"4","last_reported":1711047974,"current_range_meters":0,"station_id":"ce4bgm92rcd13ifvqbr0","pricing_plan_id":"cebpf4jnsgd1na2vs0mg"},{"bike_id":"7654fdcc-5e1a-4c6b-ae8d-067d1595161e","system_id":"levelo_inurba_marseille","lat":43.305364,"lon":5.384119,"is_reserved":false,"is_disabled":false,"rental_uris":{"android":"levelo://app?vid=7654fdcc-5e1a-4c6b-ae8d-067d1595161e","ios":"levelo://app?vid=7654fdcc-5e1a-4c6b-ae8d-067d1595161e"},"vehicle_type_id":"4","last_reported":1711047974,"current_range_meters":8000,"station_id":"ce4bgg92rcd13ifvqb30","pricing_plan_id":"cebpf4jnsgd1na2vs0mg"},{"bike_id":"3598354f-ab04-4ea1-b2b8-41891b5080e8","system_id":"levelo_inurba_marseille","lat":43.298433,"lon":5.362774,"is_reserved":false,"is_disabled":false,"rental_uris":{"android":"levelo://app?vid=3598354f-ab04-4ea1-b2b8-41891b5080e8","ios":"levelo://app?vid=3598354f-ab04-4ea1-b2b8-41891b5080e8"},"vehicle_type_id":"4","last_reported":1711047974,"current_range_meters":18800,"station_id":"ce4bgpp2rcd13ifvqc3g","pricing_plan_id":"cebpf4jnsgd1na2vs0mg"},{"bike_id":"00ad18b0-7598-4f8c-a7cd-f4eeebd5c3da","system_id":"levelo_inurba_marseille","lat":43.29848,"lon":5.36278,"is_reserved":false,"is_disabled":false,"rental_uris":{"android":"levelo://app?vid=00ad18b0-7598-4f8c-a7cd-f4eeebd5c3da","ios":"levelo://app?vid=00ad18b0-7598-4f8c-a7cd-f4eeebd5c3da"},"vehicle_type_id":"4","last_reported":1711047974,"current_range_meters":20400,"station_id":"","pricing_plan_id":"cebpf4jnsgd1na2vs0mg"},{"bike_id":"5eca3dc1-abe8-411f-8d93-08f26072254c","system_id":"levelo_inurba_marseille","lat":43.298433,"lon":5.362774,"is_reserved":false,"is_disabled":false,"rental_uris":{"android":"levelo://app?vid=5eca3dc1-abe8-411f-8d93-08f26072254c","ios":"levelo://app?vid=5eca3dc1-abe8-411f-8d93-08f26072254c"},"vehicle_type_id":"4","last_reported":1711047974,"current_range_meters":5200,"station_id":"ce4bgpp2rcd13ifvqc3g","pricing_plan_id":"cebpf4jnsgd1na2vs0mg"},{"bike_id":"eeb0e05a-8512-4479-9589-11f6ac05ce73","system_id":"levelo_inurba_marseille","lat":43.299243,"lon":5.37481,"is_reserved":false,"is_disabled":false,"rental_uris":{"android":"levelo://app?vid=eeb0e05a-8512-4479-9589-11f6ac05ce73","ios":"levelo://app?vid=eeb0e05a-8512-4479-9589-11f6ac05ce73"},"vehicle_type_id":"4","last_reported":1711047974,"current_range_meters":3600,"station_id":"ce4bgjh2rcd13ifvqbg0","pricing_plan_id":"cebpf4jnsgd1na2vs0mg"},{"bike_id":"feead7e7-9cee-4c57-94a6-da647512767c","system_id":"levelo_inurba_marseille","lat":43.322896,"lon":5.382515,"is_reserved":false,"is_disabled":false,"rental_uris":{"android":"levelo://app?vid=feead7e7-9cee-4c57-94a6-da647512767c","ios":"levelo://app?vid=feead7e7-9cee-4c57-94a6-da647512767c"},"vehicle_type_id":"4","last_reported":1711047974,"current_range_meters":14000,"station_id":"ce4bhr12rcd13ifvqhqg","pricing_plan_id":"cebpf4jnsgd1na2vs0mg"},{"bike_id":"a256d229-a5a5-41a4-8cd4-9c14e8c38553","system_id":"levelo_inurba_marseille","lat":43.32279,"lon":5.38267,"is_reserved":false,"is_disabled":false,"rental_uris":{"android":"levelo://app?vid=a256d229-a5a5-41a4-8cd4-9c14e8c38553","ios":"levelo://app?vid=a256d229-a5a5-41a4-8cd4-9c14e8c38553"},"vehicle_type_id":"4","last_reported":1711047974,"current_range_meters":16400,"station_id":"ce4bhr12rcd13ifvqhqg","pricing_plan_id":"cebpf4jnsgd1na2vs0mg"},{"bike_id":"accb2f69-ca20-4b2f-9b54-89cf5f810bdd","system_id":"levelo_inurba_marseille","lat":43.322886,"lon":5.382607,"is_reserved":false,"is_disabled":false,"rental_uris":{"android":"levelo://app?vid=accb2f69-ca20-4b2f-9b54-89cf5f810bdd","ios":"levelo://app?vid=accb2f69-ca20-4b2f-9b54-89cf5f810bdd"},"vehicle_type_id":"4","last_reported":1711047974,"current_range_meters":15600,"station_id":"ce4bhr12rcd13ifvqhqg","pricing_plan_id":"cebpf4jnsgd1na2vs0mg"},{"bike_id":"c50ea2bd-f5a2-42b1-b063-77407a842258","system_id":"levelo_inurba_marseille","lat":43.322872,"lon":5.382756,"is_reserved":false,"is_disabled":false,"rental_uris":{"android":"levelo://app?vid=c50ea2bd-f5a2-42b1-b063-77407a842258","ios":"levelo://app?vid=c50ea2bd-f5a2-42b1-b063-77407a842258"},"vehicle_type_id":"4","last_reported":1711047974,"current_range_meters":6800,"station_id":"ce4bhr12rcd13ifvqhqg","pricing_plan_id":"cebpf4jnsgd1na2vs0mg"},{"bike_id":"01356d6b-aed4-46bc-ab35-f59781fefc6d","system_id":"levelo_inurba_marseille","lat":43.322872,"lon":5.382756,"is_reserved":false,"is_disabled":false,"rental_uris":{"android":"levelo://app?vid=01356d6b-aed4-46bc-ab35-f59781fefc6d","ios":"levelo://app?vid=01356d6b-aed4-46bc-ab35-f59781fefc6d"},"vehicle_type_id":"4","last_reported":1711047974,"current_range_meters":10800,"station_id":"ce4bhr12rcd13ifvqhqg","pricing_plan_id":"cebpf4jnsgd1na2vs0mg"},{"bike_id":"f32c3800-2880-49c9-b647-144d107e7f9a","system_id":"levelo_inurba_marseille","lat":43.32287,"lon":5.38265,"is_reserved":false,"is_disabled":false,"rental_uris":{"android":"levelo://app?vid=f32c3800-2880-49c9-b647-144d107e7f9a","ios":"levelo://app?vid=f32c3800-2880-49c9-b647-144d107e7f9a"},"vehicle_type_id":"4","last_reported":1711047974,"current_range_meters":17200,"station_id":"ce4bhr12rcd13ifvqhqg","pricing_plan_id":"cebpf4jnsgd1na2vs0mg"},{"bike_id":"63e3dae6-f069-4709-9e7d-ee9247065aed","system_id":"levelo_inurba_marseille","lat":43.322878,"lon":5.382642,"is_reserved":false,"is_disabled":false,"rental_uris":{"android":"levelo://app?vid=63e3dae6-f069-4709-9e7d-ee9247065aed","ios":"levelo://app?vid=63e3dae6-f069-4709-9e7d-ee9247065aed"},"vehicle_type_id":"4","last_reported":1711047974,"current_range_meters":4000,"station_id":"ce4bhr12rcd13ifvqhqg","pricing_plan_id":"cebpf4jnsgd1na2vs0mg"},{"bike_id":"4621a1b7-0aea-45d4-bffe-359bea4ce90e","system_id":"levelo_inurba_marseille","lat":43.322872,"lon":5.382756,"is_reserved":false,"is_disabled":false,"rental_uris":{"android":"levelo://app?vid=4621a1b7-0aea-45d4-bffe-359bea4ce90e","ios":"levelo://app?vid=4621a1b7-0aea-45d4-bffe-359bea4ce90e"},"vehicle_type_id":"4","last_reported":1711047974,"current_range_meters":12400,"station_id":"ce4bhr12rcd13ifvqhqg","pricing_plan_id":"cebpf4jnsgd1na2vs0mg"},{"bike_id":"3ff125a5-dff1-4591-b6cc-449dc2424878","system_id":"levelo_inurba_marseille","lat":43.322901,"lon":5.382655,"is_reserved":false,"is_disabled":false,"rental_uris":{"android":"levelo://app?vid=3ff125a5-dff1-4591-b6cc-449dc2424878","ios":"levelo://app?vid=3ff125a5-dff1-4591-b6cc-449dc2424878"},"vehicle_type_id":"4","last_reported":1711047974,"current_range_meters":10000,"station_id":"ce4bhr12rcd13ifvqhqg","pricing_plan_id":"cebpf4jnsgd1na2vs0mg"},{"bike_id":"f8e4fe69-5019-4213-a87f-d7f22de619a2","system_id":"levelo_inurba_marseille","lat":43.32289,"lon":5.38267,"is_reserved":false,"is_disabled":false,"rental_uris":{"android":"levelo://app?vid=f8e4fe69-5019-4213-a87f-d7f22de619a2","ios":"levelo://app?vid=f8e4fe69-5019-4213-a87f-d7f22de619a2"},"vehicle_type_id":"4","last_reported":1711047974,"current_range_meters":2000,"station_id":"ce4bhr12rcd13ifvqhqg","pricing_plan_id":"cebpf4jnsgd1na2vs0mg"},{"bike_id":"3f897b5a-cdff-4477-8cbe-02af1e3040aa","system_id":"levelo_inurba_marseille","lat":43.322892,"lon":5.382676,"is_reserved":false,"is_disabled":false,"rental_uris":{"android":"levelo://app?vid=3f897b5a-cdff-4477-8cbe-02af1e3040aa","ios":"levelo://app?vid=3f897b5a-cdff-4477-8cbe-02af1e3040aa"},"vehicle_type_id":"4","last_reported":1711047974,"current_range_meters":21200,"station_id":"ce4bhr12rcd13ifvqhqg","pricing_plan_id":"cebpf4jnsgd1na2vs0mg"},{"bike_id":"36727d06-0af4-4c64-88de-4193d3d2494b","system_id":"levelo_inurba_marseille","lat":43.322883,"lon":5.382687,"is_reserved":false,"is_disabled":false,"rental_uris":{"android":"levelo://app?vid=36727d06-0af4-4c64-88de-4193d3d2494b","ios":"levelo://app?vid=36727d06-0af4-4c64-88de-4193d3d2494b"},"vehicle_type_id":"4","last_reported":1711047974,"current_range_meters":5600,"station_id":"ce4bhr12rcd13ifvqhqg","pricing_plan_id":"cebpf4jnsgd1na2vs0mg"},{"bike_id":"bd6b6545-b45a-4dc0-b743-d330ab6c2563","system_id":"levelo_inurba_marseille","lat":43.32289,"lon":5.38272,"is_reserved":false,"is_disabled":false,"rental_uris":{"android":"levelo://app?vid=bd6b6545-b45a-4dc0-b743-d330ab6c2563","ios":"levelo://app?vid=bd6b6545-b45a-4dc0-b743-d330ab6c2563"},"vehicle_type_id":"4","last_reported":1711047974,"current_range_meters":22000,"station_id":"ce4bhr12rcd13ifvqhqg","pricing_plan_id":"cebpf4jnsgd1na2vs0mg"},{"bike_id":"85d4d71c-b2c1-426a-b0b8-be8461195f7e","system_id":"levelo_inurba_marseille","lat":43.322872,"lon":5.382756,"is_reserved":false,"is_disabled":false,"rental_uris":{"android":"levelo://app?vid=85d4d71c-b2c1-426a-b0b8-be8461195f7e","ios":"levelo://app?vid=85d4d71c-b2c1-426a-b0b8-be8461195f7e"},"vehicle_type_id":"4","last_reported":1711047974,"current_range_meters":30800,"station_id":"ce4bhr12rcd13ifvqhqg","pricing_plan_id":"cebpf4jnsgd1na2vs0mg"},{"bike_id":"7df8f9c0-8b71-4b7a-97f2-09dfb79c6012","system_id":"levelo_inurba_marseille","lat":43.32291,"lon":5.38271,"is_reserved":false,"is_disabled":false,"rental_uris":{"android":"levelo://app?vid=7df8f9c0-8b71-4b7a-97f2-09dfb79c6012","ios":"levelo://app?vid=7df8f9c0-8b71-4b7a-97f2-09dfb79c6012"},"vehicle_type_id":"4","last_reported":1711047974,"current_range_meters":19600,"station_id":"ce4bhr12rcd13ifvqhqg","pricing_plan_id":"cebpf4jnsgd1na2vs0mg"},{"bike_id":"575af3fb-33bf-4a22-a056-670f8999c1ee","system_id":"levelo_inurba_marseille","lat":43.322872,"lon":5.382756,"is_reserved":false,"is_disabled":false,"rental_uris":{"android":"levelo://app?vid=575af3fb-33bf-4a22-a056-670f8999c1ee","ios":"levelo://app?vid=575af3fb-33bf-4a22-a056-670f8999c1ee"},"vehicle_type_id":"4","last_reported":1711047974,"current_range_meters":31200,"station_id":"ce4bhr12rcd13ifvqhqg","pricing_plan_id":"cebpf4jnsgd1na2vs0mg"},{"bike_id":"7a6e1e34-499e-43d0-812f-75e422b0fa90","system_id":"levelo_inurba_marseille","lat":43.322872,"lon":5.382756,"is_reserved":false,"is_disabled":false,"rental_uris":{"android":"levelo://app?vid=7a6e1e34-499e-43d0-812f-75e422b0fa90","ios":"levelo://app?vid=7a6e1e34-499e-43d0-812f-75e422b0fa90"},"vehicle_type_id":"4","last_reported":1711047974,"current_range_meters":7200,"station_id":"ce4bhr12rcd13ifvqhqg","pricing_plan_id":"cebpf4jnsgd1na2vs0mg"},{"bike_id":"3e0b08f7-ade1-426f-8bab-72707c98e3c0","system_id":"levelo_inurba_marseille","lat":43.32291,"lon":5.38274,"is_reserved":false,"is_disabled":false,"rental_uris":{"android":"levelo://app?vid=3e0b08f7-ade1-426f-8bab-72707c98e3c0","ios":"levelo://app?vid=3e0b08f7-ade1-426f-8bab-72707c98e3c0"},"vehicle_type_id":"4","last_reported":1711047974,"current_range_meters":15600,"station_id":"ce4bhr12rcd13ifvqhqg","pricing_plan_id":"cebpf4jnsgd1na2vs0mg"},{"bike_id":"fe2c0272-b23e-47ab-9983-08819dc287f5","system_id":"levelo_inurba_marseille","lat":43.322933,"lon":5.382714,"is_reserved":false,"is_disabled":false,"rental_uris":{"android":"levelo://app?vid=fe2c0272-b23e-47ab-9983-08819dc287f5","ios":"levelo://app?vid=fe2c0272-b23e-47ab-9983-08819dc287f5"},"vehicle_type_id":"4","last_reported":1711047974,"current_range_meters":5200,"station_id":"ce4bhr12rcd13ifvqhqg","pricing_plan_id":"cebpf4jnsgd1na2vs0mg"},{"bike_id":"f15b0355-2112-4631-980d-d37c34e26c81","system_id":"levelo_inurba_marseille","lat":43.322872,"lon":5.382756,"is_reserved":false,"is_disabled":false,"rental_uris":{"android":"levelo://app?vid=f15b0355-2112-4631-980d-d37c34e26c81","ios":"levelo://app?vid=f15b0355-2112-4631-980d-d37c34e26c81"},"vehicle_type_id":"4","last_reported":1711047974,"current_range_meters":23200,"station_id":"ce4bhr12rcd13ifvqhqg","pricing_plan_id":"cebpf4jnsgd1na2vs0mg"},{"bike_id":"251bf2d4-9698-46e3-9c25-3809ef85db8c","system_id":"levelo_inurba_marseille","lat":43.322872,"lon":5.382756,"is_reserved":false,"is_disabled":false,"rental_uris":{"android":"levelo://app?vid=251bf2d4-9698-46e3-9c25-3809ef85db8c","ios":"levelo://app?vid=251bf2d4-9698-46e3-9c25-3809ef85db8c"},"vehicle_type_id":"4","last_reported":1711047974,"current_range_meters":5600,"station_id":"ce4bhr12rcd13ifvqhqg","pricing_plan_id":"cebpf4jnsgd1na2vs0mg"},{"bike_id":"10a95e26-402b-47af-9df3-49c4e7c18b00","system_id":"levelo_inurba_marseille","lat":43.32292,"lon":5.38274,"is_reserved":false,"is_disabled":false,"rental_uris":{"android":"levelo://app?vid=10a95e26-402b-47af-9df3-49c4e7c18b00","ios":"levelo://app?vid=10a95e26-402b-47af-9df3-49c4e7c18b00"},"vehicle_type_id":"4","last_reported":1711047974,"current_range_meters":15200,"station_id":"ce4bhr12rcd13ifvqhqg","pricing_plan_id":"cebpf4jnsgd1na2vs0mg"},{"bike_id":"91af3f07-e2c3-472e-86eb-030ea8d834a1","system_id":"levelo_inurba_marseille","lat":43.322872,"lon":5.382756,"is_reserved":false,"is_disabled":false,"rental_uris":{"android":"levelo://app?vid=91af3f07-e2c3-472e-86eb-030ea8d834a1","ios":"levelo://app?vid=91af3f07-e2c3-472e-86eb-030ea8d834a1"},"vehicle_type_id":"4","last_reported":1711047974,"current_range_meters":22400,"station_id":"ce4bhr12rcd13ifvqhqg","pricing_plan_id":"cebpf4jnsgd1na2vs0mg"},{"bike_id":"4f4a75fa-11e1-4b9c-9fc5-7e2938322638","system_id":"levelo_inurba_marseille","lat":43.32295,"lon":5.38274,"is_reserved":false,"is_disabled":false,"rental_uris":{"android":"levelo://app?vid=4f4a75fa-11e1-4b9c-9fc5-7e2938322638","ios":"levelo://app?vid=4f4a75fa-11e1-4b9c-9fc5-7e2938322638"},"vehicle_type_id":"4","last_reported":1711047974,"current_range_meters":17200,"station_id":"ce4bhr12rcd13ifvqhqg","pricing_plan_id":"cebpf4jnsgd1na2vs0mg"},{"bike_id":"e71ffd85-6f5e-4fa9-b06a-4495229a631b","system_id":"levelo_inurba_marseille","lat":43.297163,"lon":5.365866,"is_reserved":false,"is_disabled":false,"rental_uris":{"android":"levelo://app?vid=e71ffd85-6f5e-4fa9-b06a-4495229a631b","ios":"levelo://app?vid=e71ffd85-6f5e-4fa9-b06a-4495229a631b"},"vehicle_type_id":"4","last_reported":1711047974,"current_range_meters":26800,"station_id":"ce4bgn12rcd13ifvqbt0","pricing_plan_id":"cebpf4jnsgd1na2vs0mg"},{"bike_id":"e48dc40d-5974-4a75-8713-0eda2c75dea6","system_id":"levelo_inurba_marseille","lat":43.2968,"lon":5.37291,"is_reserved":false,"is_disabled":false,"rental_uris":{"android":"levelo://app?vid=e48dc40d-5974-4a75-8713-0eda2c75dea6","ios":"levelo://app?vid=e48dc40d-5974-4a75-8713-0eda2c75dea6"},"vehicle_type_id":"4","last_reported":1711047974,"current_range_meters":25200,"station_id":"ce4bgk12rcd13ifvqbj0","pricing_plan_id":"cebpf4jnsgd1na2vs0mg"},{"bike_id":"c8fe6f20-7d7e-45d2-9285-b825ef8c1aa0","system_id":"levelo_inurba_marseille","lat":43.296131,"lon":5.370791,"is_reserved":false,"is_disabled":false,"rental_uris":{"android":"levelo://app?vid=c8fe6f20-7d7e-45d2-9285-b825ef8c1aa0","ios":"levelo://app?vid=c8fe6f20-7d7e-45d2-9285-b825ef8c1aa0"},"vehicle_type_id":"4","last_reported":1711047974,"current_range_meters":10000,"station_id":"ce4bgnh2rcd13ifvqc0g","pricing_plan_id":"cebpf4jnsgd1na2vs0mg"},{"bike_id":"101e9136-af1d-4428-8166-c75eef06360b","system_id":"levelo_inurba_marseille","lat":43.296131,"lon":5.370791,"is_reserved":false,"is_disabled":false,"rental_uris":{"android":"levelo://app?vid=101e9136-af1d-4428-8166-c75eef06360b","ios":"levelo://app?vid=101e9136-af1d-4428-8166-c75eef06360b"},"vehicle_type_id":"4","last_reported":1711047974,"current_range_meters":0,"station_id":"ce4bgnh2rcd13ifvqc0g","pricing_plan_id":"cebpf4jnsgd1na2vs0mg"},{"bike_id":"3185492e-b4a6-4ffa-ae22-33e9d2e379be","system_id":"levelo_inurba_marseille","lat":43.29573,"lon":5.367355,"is_reserved":false,"is_disabled":false,"rental_uris":{"android":"levelo://app?vid=3185492e-b4a6-4ffa-ae22-33e9d2e379be","ios":"levelo://app?vid=3185492e-b4a6-4ffa-ae22-33e9d2e379be"},"vehicle_type_id":"4","last_reported":1711047974,"current_range_meters":5600,"station_id":"ce4bgph2rcd13ifvqc2g","pricing_plan_id":"cebpf4jnsgd1na2vs0mg"},{"bike_id":"12d28ae4-67b0-4a11-b303-fef3c4fa0560","system_id":"levelo_inurba_marseille","lat":43.300596,"lon":5.383442,"is_reserved":false,"is_disabled":false,"rental_uris":{"android":"levelo://app?vid=12d28ae4-67b0-4a11-b303-fef3c4fa0560","ios":"levelo://app?vid=12d28ae4-67b0-4a11-b303-fef3c4fa0560"},"vehicle_type_id":"4","last_reported":1711047974,"current_range_meters":13200,"station_id":"ce4bgj92rcd13ifvqbd0","pricing_plan_id":"cebpf4jnsgd1na2vs0mg"},{"bike_id":"6804e7d2-aabd-49a2-b6a3-cf23ffdcbfc6","system_id":"levelo_inurba_marseille","lat":43.2971,"lon":5.37695,"is_reserved":false,"is_disabled":false,"rental_uris":{"android":"levelo://app?vid=6804e7d2-aabd-49a2-b6a3-cf23ffdcbfc6","ios":"levelo://app?vid=6804e7d2-aabd-49a2-b6a3-cf23ffdcbfc6"},"vehicle_type_id":"4","last_reported":1711047974,"current_range_meters":6400,"station_id":"ce4bgkh2rcd13ifvqbl0","pricing_plan_id":"cebpf4jnsgd1na2vs0mg"},{"bike_id":"839f714f-b1c2-4d3f-9878-8d6fee3970fa","system_id":"levelo_inurba_marseille","lat":43.309589,"lon":5.390258,"is_reserved":false,"is_disabled":false,"rental_uris":{"android":"levelo://app?vid=839f714f-b1c2-4d3f-9878-8d6fee3970fa","ios":"levelo://app?vid=839f714f-b1c2-4d3f-9878-8d6fee3970fa"},"vehicle_type_id":"4","last_reported":1711047974,"current_range_meters":0,"station_id":"ce4bgup2rcd13ifvqco0","pricing_plan_id":"cebpf4jnsgd1na2vs0mg"},{"bike_id":"7af4fcd9-9fec-464e-99e0-fafef8e0f9db","system_id":"levelo_inurba_marseille","lat":43.30956,"lon":5.39033,"is_reserved":false,"is_disabled":false,"rental_uris":{"android":"levelo://app?vid=7af4fcd9-9fec-464e-99e0-fafef8e0f9db","ios":"levelo://app?vid=7af4fcd9-9fec-464e-99e0-fafef8e0f9db"},"vehicle_type_id":"4","last_reported":1711047974,"current_range_meters":5600,"station_id":"ce4bgup2rcd13ifvqco0","pricing_plan_id":"cebpf4jnsgd1na2vs0mg"},{"bike_id":"aa5ade9c-34af-4a90-b5fa-6bc2d536b3a5","system_id":"levelo_inurba_marseille","lat":43.30947,"lon":5.39039,"is_reserved":false,"is_disabled":false,"rental_uris":{"android":"levelo://app?vid=aa5ade9c-34af-4a90-b5fa-6bc2d536b3a5","ios":"levelo://app?vid=aa5ade9c-34af-4a90-b5fa-6bc2d536b3a5"},"vehicle_type_id":"4","last_reported":1711047974,"current_range_meters":0,"station_id":"ce4bgup2rcd13ifvqco0","pricing_plan_id":"cebpf4jnsgd1na2vs0mg"},{"bike_id":"6c578102-cd74-455b-b613-50c37c4cec2d","system_id":"levelo_inurba_marseille","lat":43.309715,"lon":5.3905,"is_reserved":false,"is_disabled":false,"rental_uris":{"android":"levelo://app?vid=6c578102-cd74-455b-b613-50c37c4cec2d","ios":"levelo://app?vid=6c578102-cd74-455b-b613-50c37c4cec2d"},"vehicle_type_id":"4","last_reported":1711047974,"current_range_meters":20400,"station_id":"ce4bgup2rcd13ifvqco0","pricing_plan_id":"cebpf4jnsgd1na2vs0mg"},{"bike_id":"95d06a1f-fae2-40ef-bc46-be1ae6d409d2","system_id":"levelo_inurba_marseille","lat":43.317557,"lon":5.390173,"is_reserved":false,"is_disabled":false,"rental_uris":{"android":"levelo://app?vid=95d06a1f-fae2-40ef-bc46-be1ae6d409d2","ios":"levelo://app?vid=95d06a1f-fae2-40ef-bc46-be1ae6d409d2"},"vehicle_type_id":"4","last_reported":1711047974,"current_range_meters":15200,"station_id":"ce4bhqp2rcd13ifvqhng","pricing_plan_id":"cebpf4jnsgd1na2vs0mg"},{"bike_id":"c7d87a96-52aa-414a-8f2f-01e95d7969a4","system_id":"levelo_inurba_marseille","lat":43.317557,"lon":5.390173,"is_reserved":false,"is_disabled":false,"rental_uris":{"android":"levelo://app?vid=c7d87a96-52aa-414a-8f2f-01e95d7969a4","ios":"levelo://app?vid=c7d87a96-52aa-414a-8f2f-01e95d7969a4"},"vehicle_type_id":"4","last_reported":1711047974,"current_range_meters":21600,"station_id":"ce4bhqp2rcd13ifvqhng","pricing_plan_id":"cebpf4jnsgd1na2vs0mg"},{"bike_id":"f1031678-65c4-45d8-8490-a91667b8be47","system_id":"levelo_inurba_marseille","lat":43.309426,"lon":5.390789,"is_reserved":false,"is_disabled":false,"rental_uris":{"android":"levelo://app?vid=f1031678-65c4-45d8-8490-a91667b8be47","ios":"levelo://app?vid=f1031678-65c4-45d8-8490-a91667b8be47"},"vehicle_type_id":"4","last_reported":1711047974,"current_range_meters":23600,"station_id":"ce4bgup2rcd13ifvqco0","pricing_plan_id":"cebpf4jnsgd1na2vs0mg"},{"bike_id":"d165eb21-97e5-40bf-95bc-718b17447a48","system_id":"levelo_inurba_marseille","lat":43.29794,"lon":5.380963,"is_reserved":false,"is_disabled":false,"rental_uris":{"android":"levelo://app?vid=d165eb21-97e5-40bf-95bc-718b17447a48","ios":"levelo://app?vid=d165eb21-97e5-40bf-95bc-718b17447a48"},"vehicle_type_id":"4","last_reported":1711047974,"current_range_meters":0,"station_id":"ce4bgip2rcd13ifvqbb0","pricing_plan_id":"cebpf4jnsgd1na2vs0mg"},{"bike_id":"13a66d04-8c2c-459f-a629-2db14557ac06","system_id":"levelo_inurba_marseille","lat":43.304274,"lon":5.388873,"is_reserved":false,"is_disabled":false,"rental_uris":{"android":"levelo://app?vid=13a66d04-8c2c-459f-a629-2db14557ac06","ios":"levelo://app?vid=13a66d04-8c2c-459f-a629-2db14557ac06"},"vehicle_type_id":"4","last_reported":1711047974,"current_range_meters":0,"station_id":"ce4bgk12rcd13ifvqbi0","pricing_plan_id":"cebpf4jnsgd1na2vs0mg"},{"bike_id":"453967a7-d26d-43f3-94c0-a262f64fed78","system_id":"levelo_inurba_marseille","lat":43.3044,"lon":5.38889,"is_reserved":false,"is_disabled":false,"rental_uris":{"android":"levelo://app?vid=453967a7-d26d-43f3-94c0-a262f64fed78","ios":"levelo://app?vid=453967a7-d26d-43f3-94c0-a262f64fed78"},"vehicle_type_id":"4","last_reported":1711047974,"current_range_meters":2000,"station_id":"ce4bgk12rcd13ifvqbi0","pricing_plan_id":"cebpf4jnsgd1na2vs0mg"},{"bike_id":"7e8410fa-eff7-47ba-a295-27597665d00d","system_id":"levelo_inurba_marseille","lat":43.304274,"lon":5.388873,"is_reserved":false,"is_disabled":false,"rental_uris":{"android":"levelo://app?vid=7e8410fa-eff7-47ba-a295-27597665d00d","ios":"levelo://app?vid=7e8410fa-eff7-47ba-a295-27597665d00d"},"vehicle_type_id":"4","last_reported":1711047974,"current_range_meters":0,"station_id":"ce4bgk12rcd13ifvqbi0","pricing_plan_id":"cebpf4jnsgd1na2vs0mg"},{"bike_id":"e332c548-e06c-49a0-8fa1-e3b82393260c","system_id":"levelo_inurba_marseille","lat":43.295748,"lon":5.37522,"is_reserved":false,"is_disabled":false,"rental_uris":{"android":"levelo://app?vid=e332c548-e06c-49a0-8fa1-e3b82393260c","ios":"levelo://app?vid=e332c548-e06c-49a0-8fa1-e3b82393260c"},"vehicle_type_id":"4","last_reported":1711047974,"current_range_meters":16800,"station_id":"ce4bgh92rcd13ifvqb50","pricing_plan_id":"cebpf4jnsgd1na2vs0mg"},{"bike_id":"135c1160-3aa8-4e16-a12f-220ea24b3315","system_id":"levelo_inurba_marseille","lat":43.298037,"lon":5.381066,"is_reserved":false,"is_disabled":false,"rental_uris":{"android":"levelo://app?vid=135c1160-3aa8-4e16-a12f-220ea24b3315","ios":"levelo://app?vid=135c1160-3aa8-4e16-a12f-220ea24b3315"},"vehicle_type_id":"4","last_reported":1711047974,"current_range_meters":5200,"station_id":"ce4bgip2rcd13ifvqbb0","pricing_plan_id":"cebpf4jnsgd1na2vs0mg"},{"bike_id":"e990042c-0b8b-4792-aa67-fb586130e03d","system_id":"levelo_inurba_marseille","lat":43.295748,"lon":5.37522,"is_reserved":false,"is_disabled":false,"rental_uris":{"android":"levelo://app?vid=e990042c-0b8b-4792-aa67-fb586130e03d","ios":"levelo://app?vid=e990042c-0b8b-4792-aa67-fb586130e03d"},"vehicle_type_id":"4","last_reported":1711047974,"current_range_meters":19600,"station_id":"ce4bgh92rcd13ifvqb50","pricing_plan_id":"cebpf4jnsgd1na2vs0mg"},{"bike_id":"5a9e87c1-e530-4e21-a4b5-e36b6a2d7f0f","system_id":"levelo_inurba_marseille","lat":43.304253,"lon":5.388971,"is_reserved":false,"is_disabled":false,"rental_uris":{"android":"levelo://app?vid=5a9e87c1-e530-4e21-a4b5-e36b6a2d7f0f","ios":"levelo://app?vid=5a9e87c1-e530-4e21-a4b5-e36b6a2d7f0f"},"vehicle_type_id":"4","last_reported":1711047974,"current_range_meters":20800,"station_id":"ce4bgk12rcd13ifvqbi0","pricing_plan_id":"cebpf4jnsgd1na2vs0mg"},{"bike_id":"541c7bbf-b803-4736-b8ef-34a3d18d47a4","system_id":"levelo_inurba_marseille","lat":43.296263,"lon":5.377094,"is_reserved":false,"is_disabled":false,"rental_uris":{"android":"levelo://app?vid=541c7bbf-b803-4736-b8ef-34a3d18d47a4","ios":"levelo://app?vid=541c7bbf-b803-4736-b8ef-34a3d18d47a4"},"vehicle_type_id":"4","last_reported":1711047974,"current_range_meters":2800,"station_id":"ce4bgi92rcd13ifvqb90","pricing_plan_id":"cebpf4jnsgd1na2vs0mg"},{"bike_id":"cacfb8be-fae9-4011-aa67-abc41bc22c26","system_id":"levelo_inurba_marseille","lat":43.299809,"lon":5.384858,"is_reserved":false,"is_disabled":false,"rental_uris":{"android":"levelo://app?vid=cacfb8be-fae9-4011-aa67-abc41bc22c26","ios":"levelo://app?vid=cacfb8be-fae9-4011-aa67-abc41bc22c26"},"vehicle_type_id":"4","last_reported":1711047974,"current_range_meters":0,"station_id":"ce4bgj92rcd13ifvqbd0","pricing_plan_id":"cebpf4jnsgd1na2vs0mg"},{"bike_id":"4107c3e4-e280-41e3-863a-440618e0fd68","system_id":"levelo_inurba_marseille","lat":43.299707,"lon":5.384859,"is_reserved":false,"is_disabled":false,"rental_uris":{"android":"levelo://app?vid=4107c3e4-e280-41e3-863a-440618e0fd68","ios":"levelo://app?vid=4107c3e4-e280-41e3-863a-440618e0fd68"},"vehicle_type_id":"4","last_reported":1711047974,"current_range_meters":17200,"station_id":"ce4bgj92rcd13ifvqbd0","pricing_plan_id":"cebpf4jnsgd1na2vs0mg"},{"bike_id":"1362cc2b-180e-4afe-83df-17fbb9a46206","system_id":"levelo_inurba_marseille","lat":43.295279,"lon":5.375048,"is_reserved":false,"is_disabled":false,"rental_uris":{"android":"levelo://app?vid=1362cc2b-180e-4afe-83df-17fbb9a46206","ios":"levelo://app?vid=1362cc2b-180e-4afe-83df-17fbb9a46206"},"vehicle_type_id":"4","last_reported":1711047974,"current_range_meters":11600,"station_id":"ce4bgkp2rcd13ifvqbmg","pricing_plan_id":"cebpf4jnsgd1na2vs0mg"},{"bike_id":"cc594dcd-45fe-421d-b72b-785506b90e1e","system_id":"levelo_inurba_marseille","lat":43.29972,"lon":5.38485,"is_reserved":false,"is_disabled":false,"rental_uris":{"android":"levelo://app?vid=cc594dcd-45fe-421d-b72b-785506b90e1e","ios":"levelo://app?vid=cc594dcd-45fe-421d-b72b-785506b90e1e"},"vehicle_type_id":"4","last_reported":1711047974,"current_range_meters":8000,"station_id":"ce4bgj92rcd13ifvqbd0","pricing_plan_id":"cebpf4jnsgd1na2vs0mg"},{"bike_id":"ba374083-f8be-4da7-86b1-030fab6a91ca","system_id":"levelo_inurba_marseille","lat":43.299717,"lon":5.384845,"is_reserved":false,"is_disabled":false,"rental_uris":{"android":"levelo://app?vid=ba374083-f8be-4da7-86b1-030fab6a91ca","ios":"levelo://app?vid=ba374083-f8be-4da7-86b1-030fab6a91ca"},"vehicle_type_id":"4","last_reported":1711047974,"current_range_meters":28800,"station_id":"ce4bgj92rcd13ifvqbd0","pricing_plan_id":"cebpf4jnsgd1na2vs0mg"},{"bike_id":"731f2233-b194-4d77-95b1-e722124edb2c","system_id":"levelo_inurba_marseille","lat":43.29972,"lon":5.38493,"is_reserved":false,"is_disabled":false,"rental_uris":{"android":"levelo://app?vid=731f2233-b194-4d77-95b1-e722124edb2c","ios":"levelo://app?vid=731f2233-b194-4d77-95b1-e722124edb2c"},"vehicle_type_id":"4","last_reported":1711047974,"current_range_meters":0,"station_id":"ce4bgj92rcd13ifvqbd0","pricing_plan_id":"cebpf4jnsgd1na2vs0mg"},{"bike_id":"5f433b6a-6f95-4378-87a6-175e1b183552","system_id":"levelo_inurba_marseille","lat":43.29971,"lon":5.38492,"is_reserved":false,"is_disabled":false,"rental_uris":{"android":"levelo://app?vid=5f433b6a-6f95-4378-87a6-175e1b183552","ios":"levelo://app?vid=5f433b6a-6f95-4378-87a6-175e1b183552"},"vehicle_type_id":"4","last_reported":1711047974,"current_range_meters":0,"station_id":"ce4bgj92rcd13ifvqbd0","pricing_plan_id":"cebpf4jnsgd1na2vs0mg"},{"bike_id":"620364ee-a2e3-4b5c-aa71-2c9c905a11af","system_id":"levelo_inurba_marseille","lat":43.295279,"lon":5.375048,"is_reserved":false,"is_disabled":false,"rental_uris":{"android":"levelo://app?vid=620364ee-a2e3-4b5c-aa71-2c9c905a11af","ios":"levelo://app?vid=620364ee-a2e3-4b5c-aa71-2c9c905a11af"},"vehicle_type_id":"4","last_reported":1711047974,"current_range_meters":0,"station_id":"ce4bgkp2rcd13ifvqbmg","pricing_plan_id":"cebpf4jnsgd1na2vs0mg"},{"bike_id":"0302ac42-bcb9-41fc-bd31-4dafe6af2a70","system_id":"levelo_inurba_marseille","lat":43.29963,"lon":5.38495,"is_reserved":false,"is_disabled":false,"rental_uris":{"android":"levelo://app?vid=0302ac42-bcb9-41fc-bd31-4dafe6af2a70","ios":"levelo://app?vid=0302ac42-bcb9-41fc-bd31-4dafe6af2a70"},"vehicle_type_id":"4","last_reported":1711047974,"current_range_meters":0,"station_id":"ce4bgj92rcd13ifvqbd0","pricing_plan_id":"cebpf4jnsgd1na2vs0mg"},{"bike_id":"617b0e6f-676e-40f0-bbaf-c9395e5b4dcd","system_id":"levelo_inurba_marseille","lat":43.314494,"lon":5.392413,"is_reserved":false,"is_disabled":false,"rental_uris":{"android":"levelo://app?vid=617b0e6f-676e-40f0-bbaf-c9395e5b4dcd","ios":"levelo://app?vid=617b0e6f-676e-40f0-bbaf-c9395e5b4dcd"},"vehicle_type_id":"4","last_reported":1711047974,"current_range_meters":19600,"station_id":"","pricing_plan_id":"cebpf4jnsgd1na2vs0mg"},{"bike_id":"d97946bf-4416-4d1c-b32e-e99e6de5b1a0","system_id":"levelo_inurba_marseille","lat":43.32367,"lon":5.38873,"is_reserved":false,"is_disabled":false,"rental_uris":{"android":"levelo://app?vid=d97946bf-4416-4d1c-b32e-e99e6de5b1a0","ios":"levelo://app?vid=d97946bf-4416-4d1c-b32e-e99e6de5b1a0"},"vehicle_type_id":"4","last_reported":1711047974,"current_range_meters":1600,"station_id":"ce4bhqp2rcd13ifvqhog","pricing_plan_id":"cebpf4jnsgd1na2vs0mg"},{"bike_id":"fa77088a-474c-4811-96de-6862053a8f37","system_id":"levelo_inurba_marseille","lat":43.32367,"lon":5.38879,"is_reserved":false,"is_disabled":false,"rental_uris":{"android":"levelo://app?vid=fa77088a-474c-4811-96de-6862053a8f37","ios":"levelo://app?vid=fa77088a-474c-4811-96de-6862053a8f37"},"vehicle_type_id":"4","last_reported":1711047974,"current_range_meters":3200,"station_id":"ce4bhqp2rcd13ifvqhog","pricing_plan_id":"cebpf4jnsgd1na2vs0mg"},{"bike_id":"a628d457-bf4a-42b5-8d54-c72b180b4ba7","system_id":"levelo_inurba_marseille","lat":43.32363,"lon":5.38884,"is_reserved":false,"is_disabled":false,"rental_uris":{"android":"levelo://app?vid=a628d457-bf4a-42b5-8d54-c72b180b4ba7","ios":"levelo://app?vid=a628d457-bf4a-42b5-8d54-c72b180b4ba7"},"vehicle_type_id":"4","last_reported":1711047974,"current_range_meters":9200,"station_id":"ce4bhqp2rcd13ifvqhog","pricing_plan_id":"cebpf4jnsgd1na2vs0mg"},{"bike_id":"647f2a57-f0ca-47e0-85f6-a4884b675ef0","system_id":"levelo_inurba_marseille","lat":43.32365,"lon":5.38885,"is_reserved":false,"is_disabled":false,"rental_uris":{"android":"levelo://app?vid=647f2a57-f0ca-47e0-85f6-a4884b675ef0","ios":"levelo://app?vid=647f2a57-f0ca-47e0-85f6-a4884b675ef0"},"vehicle_type_id":"4","last_reported":1711047974,"current_range_meters":10400,"station_id":"ce4bhqp2rcd13ifvqhog","pricing_plan_id":"cebpf4jnsgd1na2vs0mg"},{"bike_id":"774b2dc8-a639-4dc4-a762-727a0877a501","system_id":"levelo_inurba_marseille","lat":43.32368,"lon":5.38883,"is_reserved":false,"is_disabled":false,"rental_uris":{"android":"levelo://app?vid=774b2dc8-a639-4dc4-a762-727a0877a501","ios":"levelo://app?vid=774b2dc8-a639-4dc4-a762-727a0877a501"},"vehicle_type_id":"4","last_reported":1711047974,"current_range_meters":2000,"station_id":"ce4bhqp2rcd13ifvqhog","pricing_plan_id":"cebpf4jnsgd1na2vs0mg"},{"bike_id":"62b49de1-cfca-46f0-8227-e0a9757287a6","system_id":"levelo_inurba_marseille","lat":43.32368,"lon":5.38883,"is_reserved":false,"is_disabled":false,"rental_uris":{"android":"levelo://app?vid=62b49de1-cfca-46f0-8227-e0a9757287a6","ios":"levelo://app?vid=62b49de1-cfca-46f0-8227-e0a9757287a6"},"vehicle_type_id":"4","last_reported":1711047974,"current_range_meters":12800,"station_id":"ce4bhqp2rcd13ifvqhog","pricing_plan_id":"cebpf4jnsgd1na2vs0mg"},{"bike_id":"1e81621e-3c06-4cf6-b36a-f718c52f28a7","system_id":"levelo_inurba_marseille","lat":43.32367,"lon":5.38884,"is_reserved":false,"is_disabled":false,"rental_uris":{"android":"levelo://app?vid=1e81621e-3c06-4cf6-b36a-f718c52f28a7","ios":"levelo://app?vid=1e81621e-3c06-4cf6-b36a-f718c52f28a7"},"vehicle_type_id":"4","last_reported":1711047974,"current_range_meters":1600,"station_id":"ce4bhqp2rcd13ifvqhog","pricing_plan_id":"cebpf4jnsgd1na2vs0mg"},{"bike_id":"f825de3e-22cf-488a-a51d-ade64e688c32","system_id":"levelo_inurba_marseille","lat":43.32367,"lon":5.38885,"is_reserved":false,"is_disabled":false,"rental_uris":{"android":"levelo://app?vid=f825de3e-22cf-488a-a51d-ade64e688c32","ios":"levelo://app?vid=f825de3e-22cf-488a-a51d-ade64e688c32"},"vehicle_type_id":"4","last_reported":1711047974,"current_range_meters":4000,"station_id":"ce4bhqp2rcd13ifvqhog","pricing_plan_id":"cebpf4jnsgd1na2vs0mg"},{"bike_id":"4860dc7f-e1ca-44ea-826b-4d5e569afb18","system_id":"levelo_inurba_marseille","lat":43.32369,"lon":5.38884,"is_reserved":false,"is_disabled":false,"rental_uris":{"android":"levelo://app?vid=4860dc7f-e1ca-44ea-826b-4d5e569afb18","ios":"levelo://app?vid=4860dc7f-e1ca-44ea-826b-4d5e569afb18"},"vehicle_type_id":"4","last_reported":1711047974,"current_range_meters":2400,"station_id":"ce4bhqp2rcd13ifvqhog","pricing_plan_id":"cebpf4jnsgd1na2vs0mg"},{"bike_id":"f4b0d411-4b0c-4649-8272-e02586e1efbf","system_id":"levelo_inurba_marseille","lat":43.323686,"lon":5.388848,"is_reserved":false,"is_disabled":false,"rental_uris":{"android":"levelo://app?vid=f4b0d411-4b0c-4649-8272-e02586e1efbf","ios":"levelo://app?vid=f4b0d411-4b0c-4649-8272-e02586e1efbf"},"vehicle_type_id":"4","last_reported":1711047974,"current_range_meters":12400,"station_id":"ce4bhqp2rcd13ifvqhog","pricing_plan_id":"cebpf4jnsgd1na2vs0mg"},{"bike_id":"3c684159-8f89-4680-8c08-d1324a71d28b","system_id":"levelo_inurba_marseille","lat":43.323726,"lon":5.388814,"is_reserved":false,"is_disabled":false,"rental_uris":{"android":"levelo://app?vid=3c684159-8f89-4680-8c08-d1324a71d28b","ios":"levelo://app?vid=3c684159-8f89-4680-8c08-d1324a71d28b"},"vehicle_type_id":"4","last_reported":1711047974,"current_range_meters":18000,"station_id":"ce4bhqp2rcd13ifvqhog","pricing_plan_id":"cebpf4jnsgd1na2vs0mg"},{"bike_id":"cd3ad0dd-115f-4e17-bc69-39e1287d5727","system_id":"levelo_inurba_marseille","lat":43.323673,"lon":5.388869,"is_reserved":false,"is_disabled":false,"rental_uris":{"android":"levelo://app?vid=cd3ad0dd-115f-4e17-bc69-39e1287d5727","ios":"levelo://app?vid=cd3ad0dd-115f-4e17-bc69-39e1287d5727"},"vehicle_type_id":"4","last_reported":1711047974,"current_range_meters":14800,"station_id":"ce4bhqp2rcd13ifvqhog","pricing_plan_id":"cebpf4jnsgd1na2vs0mg"},{"bike_id":"adc71230-19e4-4965-96e0-9e268ddf5db1","system_id":"levelo_inurba_marseille","lat":43.32367,"lon":5.38888,"is_reserved":false,"is_disabled":false,"rental_uris":{"android":"levelo://app?vid=adc71230-19e4-4965-96e0-9e268ddf5db1","ios":"levelo://app?vid=adc71230-19e4-4965-96e0-9e268ddf5db1"},"vehicle_type_id":"4","last_reported":1711047974,"current_range_meters":15200,"station_id":"ce4bhqp2rcd13ifvqhog","pricing_plan_id":"cebpf4jnsgd1na2vs0mg"},{"bike_id":"80eb6f3c-7dad-4186-9ec8-bba5dd0c9f98","system_id":"levelo_inurba_marseille","lat":43.32367,"lon":5.388836,"is_reserved":false,"is_disabled":false,"rental_uris":{"android":"levelo://app?vid=80eb6f3c-7dad-4186-9ec8-bba5dd0c9f98","ios":"levelo://app?vid=80eb6f3c-7dad-4186-9ec8-bba5dd0c9f98"},"vehicle_type_id":"4","last_reported":1711047974,"current_range_meters":18400,"station_id":"ce4bhqp2rcd13ifvqhog","pricing_plan_id":"cebpf4jnsgd1na2vs0mg"},{"bike_id":"e3966795-f105-4d8c-8a52-a4a26027d504","system_id":"levelo_inurba_marseille","lat":43.3238,"lon":5.38888,"is_reserved":false,"is_disabled":false,"rental_uris":{"android":"levelo://app?vid=e3966795-f105-4d8c-8a52-a4a26027d504","ios":"levelo://app?vid=e3966795-f105-4d8c-8a52-a4a26027d504"},"vehicle_type_id":"4","last_reported":1711047974,"current_range_meters":0,"station_id":"ce4bhqp2rcd13ifvqhog","pricing_plan_id":"cebpf4jnsgd1na2vs0mg"},{"bike_id":"0a79f532-8315-4957-b5cc-7b46323c1399","system_id":"levelo_inurba_marseille","lat":43.296035,"lon":5.38095,"is_reserved":false,"is_disabled":false,"rental_uris":{"android":"levelo://app?vid=0a79f532-8315-4957-b5cc-7b46323c1399","ios":"levelo://app?vid=0a79f532-8315-4957-b5cc-7b46323c1399"},"vehicle_type_id":"4","last_reported":1711047974,"current_range_meters":0,"station_id":"ce4bgl12rcd13ifvqbo0","pricing_plan_id":"cebpf4jnsgd1na2vs0mg"},{"bike_id":"cad451f0-67c7-4c2c-b7e4-e8fdd9b7dfd5","system_id":"levelo_inurba_marseille","lat":43.29603,"lon":5.38101,"is_reserved":false,"is_disabled":false,"rental_uris":{"android":"levelo://app?vid=cad451f0-67c7-4c2c-b7e4-e8fdd9b7dfd5","ios":"levelo://app?vid=cad451f0-67c7-4c2c-b7e4-e8fdd9b7dfd5"},"vehicle_type_id":"4","last_reported":1711047974,"current_range_meters":4800,"station_id":"ce4bgl12rcd13ifvqbo0","pricing_plan_id":"cebpf4jnsgd1na2vs0mg"},{"bike_id":"d52a9f28-6855-4489-94c0-24e04b5b6499","system_id":"levelo_inurba_marseille","lat":43.293259,"lon":5.371586,"is_reserved":false,"is_disabled":false,"rental_uris":{"android":"levelo://app?vid=d52a9f28-6855-4489-94c0-24e04b5b6499","ios":"levelo://app?vid=d52a9f28-6855-4489-94c0-24e04b5b6499"},"vehicle_type_id":"4","last_reported":1711047974,"current_range_meters":28400,"station_id":"ce4bgh92rcd13ifvqb40","pricing_plan_id":"cebpf4jnsgd1na2vs0mg"},{"bike_id":"34c58704-1af2-4fe6-bea3-525810707fba","system_id":"levelo_inurba_marseille","lat":43.29313,"lon":5.37177,"is_reserved":false,"is_disabled":false,"rental_uris":{"android":"levelo://app?vid=34c58704-1af2-4fe6-bea3-525810707fba","ios":"levelo://app?vid=34c58704-1af2-4fe6-bea3-525810707fba"},"vehicle_type_id":"4","last_reported":1711047974,"current_range_meters":25200,"station_id":"ce4bgh92rcd13ifvqb40","pricing_plan_id":"cebpf4jnsgd1na2vs0mg"},{"bike_id":"4c41faa7-27ce-4719-b8b2-46dc6f081e71","system_id":"levelo_inurba_marseille","lat":43.292749,"lon":5.368402,"is_reserved":false,"is_disabled":false,"rental_uris":{"android":"levelo://app?vid=4c41faa7-27ce-4719-b8b2-46dc6f081e71","ios":"levelo://app?vid=4c41faa7-27ce-4719-b8b2-46dc6f081e71"},"vehicle_type_id":"4","last_reported":1711047974,"current_range_meters":18800,"station_id":"ce4bhbp2rcd13ifvqesg","pricing_plan_id":"cebpf4jnsgd1na2vs0mg"},{"bike_id":"a506235e-fb71-47d7-a8f6-8cbd6896d05e","system_id":"levelo_inurba_marseille","lat":43.293259,"lon":5.371586,"is_reserved":false,"is_disabled":false,"rental_uris":{"android":"levelo://app?vid=a506235e-fb71-47d7-a8f6-8cbd6896d05e","ios":"levelo://app?vid=a506235e-fb71-47d7-a8f6-8cbd6896d05e"},"vehicle_type_id":"4","last_reported":1711047974,"current_range_meters":1600,"station_id":"ce4bgh92rcd13ifvqb40","pricing_plan_id":"cebpf4jnsgd1na2vs0mg"},{"bike_id":"e6af05a5-ca1a-402d-83a7-e60dc4129e3b","system_id":"levelo_inurba_marseille","lat":43.293259,"lon":5.371586,"is_reserved":false,"is_disabled":false,"rental_uris":{"android":"levelo://app?vid=e6af05a5-ca1a-402d-83a7-e60dc4129e3b","ios":"levelo://app?vid=e6af05a5-ca1a-402d-83a7-e60dc4129e3b"},"vehicle_type_id":"4","last_reported":1711047974,"current_range_meters":9600,"station_id":"ce4bgh92rcd13ifvqb40","pricing_plan_id":"cebpf4jnsgd1na2vs0mg"},{"bike_id":"e7d187a1-a826-44cf-b1d3-dced99b3fd02","system_id":"levelo_inurba_marseille","lat":43.29281,"lon":5.368402,"is_reserved":false,"is_disabled":false,"rental_uris":{"android":"levelo://app?vid=e7d187a1-a826-44cf-b1d3-dced99b3fd02","ios":"levelo://app?vid=e7d187a1-a826-44cf-b1d3-dced99b3fd02"},"vehicle_type_id":"4","last_reported":1711047974,"current_range_meters":3600,"station_id":"ce4bhbp2rcd13ifvqesg","pricing_plan_id":"cebpf4jnsgd1na2vs0mg"},{"bike_id":"44cca0c5-49b5-4a06-be67-9ee4c1a1410d","system_id":"levelo_inurba_marseille","lat":43.29308,"lon":5.37172,"is_reserved":false,"is_disabled":false,"rental_uris":{"android":"levelo://app?vid=44cca0c5-49b5-4a06-be67-9ee4c1a1410d","ios":"levelo://app?vid=44cca0c5-49b5-4a06-be67-9ee4c1a1410d"},"vehicle_type_id":"4","last_reported":1711047974,"current_range_meters":9600,"station_id":"ce4bgh92rcd13ifvqb40","pricing_plan_id":"cebpf4jnsgd1na2vs0mg"},{"bike_id":"4018ffcf-85a8-4ece-bba7-486013e79c44","system_id":"levelo_inurba_marseille","lat":43.292749,"lon":5.368402,"is_reserved":false,"is_disabled":false,"rental_uris":{"android":"levelo://app?vid=4018ffcf-85a8-4ece-bba7-486013e79c44","ios":"levelo://app?vid=4018ffcf-85a8-4ece-bba7-486013e79c44"},"vehicle_type_id":"4","last_reported":1711047974,"current_range_meters":23600,"station_id":"ce4bhbp2rcd13ifvqesg","pricing_plan_id":"cebpf4jnsgd1na2vs0mg"},{"bike_id":"f0e39cb5-9a36-4da2-affa-0e0fde8645e8","system_id":"levelo_inurba_marseille","lat":43.292749,"lon":5.368402,"is_reserved":false,"is_disabled":false,"rental_uris":{"android":"levelo://app?vid=f0e39cb5-9a36-4da2-affa-0e0fde8645e8","ios":"levelo://app?vid=f0e39cb5-9a36-4da2-affa-0e0fde8645e8"},"vehicle_type_id":"4","last_reported":1711047974,"current_range_meters":8000,"station_id":"ce4bhbp2rcd13ifvqesg","pricing_plan_id":"cebpf4jnsgd1na2vs0mg"},{"bike_id":"fdba7c81-b545-44f6-92e4-78523f04960d","system_id":"levelo_inurba_marseille","lat":43.292749,"lon":5.368402,"is_reserved":false,"is_disabled":false,"rental_uris":{"android":"levelo://app?vid=fdba7c81-b545-44f6-92e4-78523f04960d","ios":"levelo://app?vid=fdba7c81-b545-44f6-92e4-78523f04960d"},"vehicle_type_id":"4","last_reported":1711047974,"current_range_meters":23600,"station_id":"ce4bhbp2rcd13ifvqesg","pricing_plan_id":"cebpf4jnsgd1na2vs0mg"},{"bike_id":"5606351e-16bb-4d68-80a9-5d4e0836f589","system_id":"levelo_inurba_marseille","lat":43.292749,"lon":5.368402,"is_reserved":false,"is_disabled":false,"rental_uris":{"android":"levelo://app?vid=5606351e-16bb-4d68-80a9-5d4e0836f589","ios":"levelo://app?vid=5606351e-16bb-4d68-80a9-5d4e0836f589"},"vehicle_type_id":"4","last_reported":1711047974,"current_range_meters":8400,"station_id":"ce4bhbp2rcd13ifvqesg","pricing_plan_id":"cebpf4jnsgd1na2vs0mg"},{"bike_id":"846ef789-2068-4c66-b092-f14bdc1489b1","system_id":"levelo_inurba_marseille","lat":43.292749,"lon":5.368402,"is_reserved":false,"is_disabled":false,"rental_uris":{"android":"levelo://app?vid=846ef789-2068-4c66-b092-f14bdc1489b1","ios":"levelo://app?vid=846ef789-2068-4c66-b092-f14bdc1489b1"},"vehicle_type_id":"4","last_reported":1711047974,"current_range_meters":6800,"station_id":"ce4bhbp2rcd13ifvqesg","pricing_plan_id":"cebpf4jnsgd1na2vs0mg"},{"bike_id":"716982fa-289e-40ca-8cc9-d398fb9cd84d","system_id":"levelo_inurba_marseille","lat":43.292749,"lon":5.368402,"is_reserved":false,"is_disabled":false,"rental_uris":{"android":"levelo://app?vid=716982fa-289e-40ca-8cc9-d398fb9cd84d","ios":"levelo://app?vid=716982fa-289e-40ca-8cc9-d398fb9cd84d"},"vehicle_type_id":"4","last_reported":1711047974,"current_range_meters":22400,"station_id":"ce4bhbp2rcd13ifvqesg","pricing_plan_id":"cebpf4jnsgd1na2vs0mg"},{"bike_id":"ac553b82-1a2a-4ea4-8a6e-f2ed583f9231","system_id":"levelo_inurba_marseille","lat":43.292749,"lon":5.368402,"is_reserved":false,"is_disabled":false,"rental_uris":{"android":"levelo://app?vid=ac553b82-1a2a-4ea4-8a6e-f2ed583f9231","ios":"levelo://app?vid=ac553b82-1a2a-4ea4-8a6e-f2ed583f9231"},"vehicle_type_id":"4","last_reported":1711047974,"current_range_meters":26000,"station_id":"ce4bhbp2rcd13ifvqesg","pricing_plan_id":"cebpf4jnsgd1na2vs0mg"},{"bike_id":"c591bb59-bbb2-458e-9f97-8c9ccb781197","system_id":"levelo_inurba_marseille","lat":43.292749,"lon":5.368402,"is_reserved":false,"is_disabled":false,"rental_uris":{"android":"levelo://app?vid=c591bb59-bbb2-458e-9f97-8c9ccb781197","ios":"levelo://app?vid=c591bb59-bbb2-458e-9f97-8c9ccb781197"},"vehicle_type_id":"4","last_reported":1711047974,"current_range_meters":18800,"station_id":"ce4bhbp2rcd13ifvqesg","pricing_plan_id":"cebpf4jnsgd1na2vs0mg"},{"bike_id":"c1531f61-4745-4370-a387-2ae3f833b98d","system_id":"levelo_inurba_marseille","lat":43.292749,"lon":5.368402,"is_reserved":false,"is_disabled":false,"rental_uris":{"android":"levelo://app?vid=c1531f61-4745-4370-a387-2ae3f833b98d","ios":"levelo://app?vid=c1531f61-4745-4370-a387-2ae3f833b98d"},"vehicle_type_id":"4","last_reported":1711047974,"current_range_meters":0,"station_id":"ce4bhbp2rcd13ifvqesg","pricing_plan_id":"cebpf4jnsgd1na2vs0mg"},{"bike_id":"eb302a71-5958-41a5-8032-0f54f702b9c4","system_id":"levelo_inurba_marseille","lat":43.29577,"lon":5.38172,"is_reserved":false,"is_disabled":false,"rental_uris":{"android":"levelo://app?vid=eb302a71-5958-41a5-8032-0f54f702b9c4","ios":"levelo://app?vid=eb302a71-5958-41a5-8032-0f54f702b9c4"},"vehicle_type_id":"4","last_reported":1711047974,"current_range_meters":6000,"station_id":"ce4bhgp2rcd13ifvqfe0","pricing_plan_id":"cebpf4jnsgd1na2vs0mg"},{"bike_id":"df4f3794-e478-43bf-adf9-fa04d1459859","system_id":"levelo_inurba_marseille","lat":43.292749,"lon":5.368402,"is_reserved":false,"is_disabled":false,"rental_uris":{"android":"levelo://app?vid=df4f3794-e478-43bf-adf9-fa04d1459859","ios":"levelo://app?vid=df4f3794-e478-43bf-adf9-fa04d1459859"},"vehicle_type_id":"4","last_reported":1711047974,"current_range_meters":13600,"station_id":"ce4bhbp2rcd13ifvqesg","pricing_plan_id":"cebpf4jnsgd1na2vs0mg"},{"bike_id":"12be65e0-8cc4-4838-b257-4211b25f2ec9","system_id":"levelo_inurba_marseille","lat":43.293009,"lon":5.374584,"is_reserved":false,"is_disabled":false,"rental_uris":{"android":"levelo://app?vid=12be65e0-8cc4-4838-b257-4211b25f2ec9","ios":"levelo://app?vid=12be65e0-8cc4-4838-b257-4211b25f2ec9"},"vehicle_type_id":"4","last_reported":1711047974,"current_range_meters":0,"station_id":"ce4bgi12rcd13ifvqb70","pricing_plan_id":"cebpf4jnsgd1na2vs0mg"},{"bike_id":"c6abf2be-d285-4af4-8d24-5587e636310e","system_id":"levelo_inurba_marseille","lat":43.29308,"lon":5.3746,"is_reserved":false,"is_disabled":false,"rental_uris":{"android":"levelo://app?vid=c6abf2be-d285-4af4-8d24-5587e636310e","ios":"levelo://app?vid=c6abf2be-d285-4af4-8d24-5587e636310e"},"vehicle_type_id":"4","last_reported":1711047974,"current_range_meters":15600,"station_id":"ce4bgi12rcd13ifvqb70","pricing_plan_id":"cebpf4jnsgd1na2vs0mg"},{"bike_id":"2638ae05-8a8e-49f8-b1e2-32d4d75c1044","system_id":"levelo_inurba_marseille","lat":43.29304,"lon":5.37451,"is_reserved":false,"is_disabled":false,"rental_uris":{"android":"levelo://app?vid=2638ae05-8a8e-49f8-b1e2-32d4d75c1044","ios":"levelo://app?vid=2638ae05-8a8e-49f8-b1e2-32d4d75c1044"},"vehicle_type_id":"4","last_reported":1711047974,"current_range_meters":8400,"station_id":"ce4bgi12rcd13ifvqb70","pricing_plan_id":"cebpf4jnsgd1na2vs0mg"},{"bike_id":"bef4b30e-a95f-4cb7-b409-97bde7ec0f43","system_id":"levelo_inurba_marseille","lat":43.305994,"lon":5.393687,"is_reserved":false,"is_disabled":false,"rental_uris":{"android":"levelo://app?vid=bef4b30e-a95f-4cb7-b409-97bde7ec0f43","ios":"levelo://app?vid=bef4b30e-a95f-4cb7-b409-97bde7ec0f43"},"vehicle_type_id":"4","last_reported":1711047974,"current_range_meters":0,"station_id":"ce4bh0p2rcd13ifvqd80","pricing_plan_id":"cebpf4jnsgd1na2vs0mg"},{"bike_id":"016db5c6-75e3-450c-ac90-1e002c13c506","system_id":"levelo_inurba_marseille","lat":43.305994,"lon":5.393687,"is_reserved":false,"is_disabled":false,"rental_uris":{"android":"levelo://app?vid=016db5c6-75e3-450c-ac90-1e002c13c506","ios":"levelo://app?vid=016db5c6-75e3-450c-ac90-1e002c13c506"},"vehicle_type_id":"4","last_reported":1711047974,"current_range_meters":0,"station_id":"ce4bh0p2rcd13ifvqd80","pricing_plan_id":"cebpf4jnsgd1na2vs0mg"},{"bike_id":"bc4ebd22-1aaa-4d5f-8f0c-3d907473d97f","system_id":"levelo_inurba_marseille","lat":43.29303,"lon":5.37461,"is_reserved":false,"is_disabled":false,"rental_uris":{"android":"levelo://app?vid=bc4ebd22-1aaa-4d5f-8f0c-3d907473d97f","ios":"levelo://app?vid=bc4ebd22-1aaa-4d5f-8f0c-3d907473d97f"},"vehicle_type_id":"4","last_reported":1711047974,"current_range_meters":7200,"station_id":"ce4bgi12rcd13ifvqb70","pricing_plan_id":"cebpf4jnsgd1na2vs0mg"},{"bike_id":"8cc4c44b-9ded-4664-85c0-d52af5dbebb4","system_id":"levelo_inurba_marseille","lat":43.29303,"lon":5.37462,"is_reserved":false,"is_disabled":false,"rental_uris":{"android":"levelo://app?vid=8cc4c44b-9ded-4664-85c0-d52af5dbebb4","ios":"levelo://app?vid=8cc4c44b-9ded-4664-85c0-d52af5dbebb4"},"vehicle_type_id":"4","last_reported":1711047974,"current_range_meters":9600,"station_id":"ce4bgi12rcd13ifvqb70","pricing_plan_id":"cebpf4jnsgd1na2vs0mg"},{"bike_id":"2f922426-4c8c-4631-b161-ce5c95d22b14","system_id":"levelo_inurba_marseille","lat":43.29297,"lon":5.3745,"is_reserved":false,"is_disabled":false,"rental_uris":{"android":"levelo://app?vid=2f922426-4c8c-4631-b161-ce5c95d22b14","ios":"levelo://app?vid=2f922426-4c8c-4631-b161-ce5c95d22b14"},"vehicle_type_id":"4","last_reported":1711047974,"current_range_meters":19600,"station_id":"ce4bgi12rcd13ifvqb70","pricing_plan_id":"cebpf4jnsgd1na2vs0mg"},{"bike_id":"a33074a7-074f-4c70-923a-21bbafbe5d89","system_id":"levelo_inurba_marseille","lat":43.305994,"lon":5.393687,"is_reserved":false,"is_disabled":false,"rental_uris":{"android":"levelo://app?vid=a33074a7-074f-4c70-923a-21bbafbe5d89","ios":"levelo://app?vid=a33074a7-074f-4c70-923a-21bbafbe5d89"},"vehicle_type_id":"4","last_reported":1711047974,"current_range_meters":17200,"station_id":"ce4bh0p2rcd13ifvqd80","pricing_plan_id":"cebpf4jnsgd1na2vs0mg"},{"bike_id":"0aa8a877-09db-42e9-86dd-d3e19ac316af","system_id":"levelo_inurba_marseille","lat":43.293009,"lon":5.374584,"is_reserved":false,"is_disabled":false,"rental_uris":{"android":"levelo://app?vid=0aa8a877-09db-42e9-86dd-d3e19ac316af","ios":"levelo://app?vid=0aa8a877-09db-42e9-86dd-d3e19ac316af"},"vehicle_type_id":"4","last_reported":1711047974,"current_range_meters":3200,"station_id":"ce4bgi12rcd13ifvqb70","pricing_plan_id":"cebpf4jnsgd1na2vs0mg"},{"bike_id":"348cbed6-d187-4ca1-b8da-988759f42590","system_id":"levelo_inurba_marseille","lat":43.293009,"lon":5.374584,"is_reserved":false,"is_disabled":false,"rental_uris":{"android":"levelo://app?vid=348cbed6-d187-4ca1-b8da-988759f42590","ios":"levelo://app?vid=348cbed6-d187-4ca1-b8da-988759f42590"},"vehicle_type_id":"4","last_reported":1711047974,"current_range_meters":24000,"station_id":"ce4bgi12rcd13ifvqb70","pricing_plan_id":"cebpf4jnsgd1na2vs0mg"},{"bike_id":"9ea01767-3d91-4a12-88ed-d84385254ac1","system_id":"levelo_inurba_marseille","lat":43.305994,"lon":5.393687,"is_reserved":false,"is_disabled":false,"rental_uris":{"android":"levelo://app?vid=9ea01767-3d91-4a12-88ed-d84385254ac1","ios":"levelo://app?vid=9ea01767-3d91-4a12-88ed-d84385254ac1"},"vehicle_type_id":"4","last_reported":1711047974,"current_range_meters":8000,"station_id":"ce4bh0p2rcd13ifvqd80","pricing_plan_id":"cebpf4jnsgd1na2vs0mg"},{"bike_id":"eab2b61d-cd4b-4713-a379-e07fa98b4722","system_id":"levelo_inurba_marseille","lat":43.293009,"lon":5.374584,"is_reserved":false,"is_disabled":false,"rental_uris":{"android":"levelo://app?vid=eab2b61d-cd4b-4713-a379-e07fa98b4722","ios":"levelo://app?vid=eab2b61d-cd4b-4713-a379-e07fa98b4722"},"vehicle_type_id":"4","last_reported":1711047974,"current_range_meters":4400,"station_id":"ce4bgi12rcd13ifvqb70","pricing_plan_id":"cebpf4jnsgd1na2vs0mg"},{"bike_id":"f55edbb8-1579-433f-ae36-26694b5e45e2","system_id":"levelo_inurba_marseille","lat":43.293009,"lon":5.374584,"is_reserved":false,"is_disabled":false,"rental_uris":{"android":"levelo://app?vid=f55edbb8-1579-433f-ae36-26694b5e45e2","ios":"levelo://app?vid=f55edbb8-1579-433f-ae36-26694b5e45e2"},"vehicle_type_id":"4","last_reported":1711047974,"current_range_meters":0,"station_id":"ce4bgi12rcd13ifvqb70","pricing_plan_id":"cebpf4jnsgd1na2vs0mg"},{"bike_id":"55ec60a9-d6ad-4786-8115-f18993b06d37","system_id":"levelo_inurba_marseille","lat":43.302992,"lon":5.392136,"is_reserved":false,"is_disabled":false,"rental_uris":{"android":"levelo://app?vid=55ec60a9-d6ad-4786-8115-f18993b06d37","ios":"levelo://app?vid=55ec60a9-d6ad-4786-8115-f18993b06d37"},"vehicle_type_id":"4","last_reported":1711047974,"current_range_meters":0,"station_id":"ce4bgkh2rcd13ifvqbk0","pricing_plan_id":"cebpf4jnsgd1na2vs0mg"},{"bike_id":"9b7eeff2-7b8f-409f-b482-5b8f9b33ed63","system_id":"levelo_inurba_marseille","lat":43.240623,"lon":5.377642,"is_reserved":false,"is_disabled":false,"rental_uris":{"android":"levelo://app?vid=9b7eeff2-7b8f-409f-b482-5b8f9b33ed63","ios":"levelo://app?vid=9b7eeff2-7b8f-409f-b482-5b8f9b33ed63"},"vehicle_type_id":"4","last_reported":1711047974,"current_range_meters":6000,"station_id":"ce4bhnp2rcd13ifvqgvg","pricing_plan_id":"cebpf4jnsgd1na2vs0mg"},{"bike_id":"bd9414a8-535e-483f-bdd5-38708616c374","system_id":"levelo_inurba_marseille","lat":43.303002,"lon":5.392142,"is_reserved":false,"is_disabled":false,"rental_uris":{"android":"levelo://app?vid=bd9414a8-535e-483f-bdd5-38708616c374","ios":"levelo://app?vid=bd9414a8-535e-483f-bdd5-38708616c374"},"vehicle_type_id":"4","last_reported":1711047974,"current_range_meters":16800,"station_id":"ce4bgkh2rcd13ifvqbk0","pricing_plan_id":"cebpf4jnsgd1na2vs0mg"},{"bike_id":"8f032d54-3d89-46e9-b0c0-6774f4e69bf0","system_id":"levelo_inurba_marseille","lat":43.2936,"lon":5.37835,"is_reserved":false,"is_disabled":false,"rental_uris":{"android":"levelo://app?vid=8f032d54-3d89-46e9-b0c0-6774f4e69bf0","ios":"levelo://app?vid=8f032d54-3d89-46e9-b0c0-6774f4e69bf0"},"vehicle_type_id":"4","last_reported":1711047974,"current_range_meters":19600,"station_id":"ce4bgjh2rcd13ifvqbf0","pricing_plan_id":"cebpf4jnsgd1na2vs0mg"},{"bike_id":"aebe3ba9-a76c-4444-aaf0-d1e9d0e9bcf4","system_id":"levelo_inurba_marseille","lat":43.2936,"lon":5.37835,"is_reserved":false,"is_disabled":false,"rental_uris":{"android":"levelo://app?vid=aebe3ba9-a76c-4444-aaf0-d1e9d0e9bcf4","ios":"levelo://app?vid=aebe3ba9-a76c-4444-aaf0-d1e9d0e9bcf4"},"vehicle_type_id":"4","last_reported":1711047974,"current_range_meters":8400,"station_id":"ce4bgjh2rcd13ifvqbf0","pricing_plan_id":"cebpf4jnsgd1na2vs0mg"},{"bike_id":"a284ecc2-e0dc-42d2-8d9a-cc5c716f5dab","system_id":"levelo_inurba_marseille","lat":43.2936,"lon":5.37835,"is_reserved":false,"is_disabled":false,"rental_uris":{"android":"levelo://app?vid=a284ecc2-e0dc-42d2-8d9a-cc5c716f5dab","ios":"levelo://app?vid=a284ecc2-e0dc-42d2-8d9a-cc5c716f5dab"},"vehicle_type_id":"4","last_reported":1711047974,"current_range_meters":12800,"station_id":"ce4bgjh2rcd13ifvqbf0","pricing_plan_id":"cebpf4jnsgd1na2vs0mg"},{"bike_id":"0c26001f-011d-4e5d-b37b-d6334f3e16de","system_id":"levelo_inurba_marseille","lat":43.30108,"lon":5.39073,"is_reserved":false,"is_disabled":false,"rental_uris":{"android":"levelo://app?vid=0c26001f-011d-4e5d-b37b-d6334f3e16de","ios":"levelo://app?vid=0c26001f-011d-4e5d-b37b-d6334f3e16de"},"vehicle_type_id":"4","last_reported":1711047974,"current_range_meters":8800,"station_id":"ce4bh192rcd13ifvqdb0","pricing_plan_id":"cebpf4jnsgd1na2vs0mg"},{"bike_id":"da8c02b6-b7a5-4fee-8848-c19a93e9502c","system_id":"levelo_inurba_marseille","lat":43.30102,"lon":5.39068,"is_reserved":false,"is_disabled":false,"rental_uris":{"android":"levelo://app?vid=da8c02b6-b7a5-4fee-8848-c19a93e9502c","ios":"levelo://app?vid=da8c02b6-b7a5-4fee-8848-c19a93e9502c"},"vehicle_type_id":"4","last_reported":1711047974,"current_range_meters":5600,"station_id":"ce4bh192rcd13ifvqdb0","pricing_plan_id":"cebpf4jnsgd1na2vs0mg"},{"bike_id":"7b22347b-b955-45dc-90aa-101b2ad15479","system_id":"levelo_inurba_marseille","lat":43.30095,"lon":5.39069,"is_reserved":false,"is_disabled":false,"rental_uris":{"android":"levelo://app?vid=7b22347b-b955-45dc-90aa-101b2ad15479","ios":"levelo://app?vid=7b22347b-b955-45dc-90aa-101b2ad15479"},"vehicle_type_id":"4","last_reported":1711047974,"current_range_meters":5200,"station_id":"ce4bh192rcd13ifvqdb0","pricing_plan_id":"cebpf4jnsgd1na2vs0mg"},{"bike_id":"b679042e-3c04-47b6-b6aa-f414e4e6380b","system_id":"levelo_inurba_marseille","lat":43.30096,"lon":5.390725,"is_reserved":false,"is_disabled":false,"rental_uris":{"android":"levelo://app?vid=b679042e-3c04-47b6-b6aa-f414e4e6380b","ios":"levelo://app?vid=b679042e-3c04-47b6-b6aa-f414e4e6380b"},"vehicle_type_id":"4","last_reported":1711047974,"current_range_meters":14400,"station_id":"ce4bh192rcd13ifvqdb0","pricing_plan_id":"cebpf4jnsgd1na2vs0mg"},{"bike_id":"93243bca-338b-4fac-baa1-fec7bce32e46","system_id":"levelo_inurba_marseille","lat":43.300956,"lon":5.390723,"is_reserved":false,"is_disabled":false,"rental_uris":{"android":"levelo://app?vid=93243bca-338b-4fac-baa1-fec7bce32e46","ios":"levelo://app?vid=93243bca-338b-4fac-baa1-fec7bce32e46"},"vehicle_type_id":"4","last_reported":1711047974,"current_range_meters":8000,"station_id":"ce4bh192rcd13ifvqdb0","pricing_plan_id":"cebpf4jnsgd1na2vs0mg"},{"bike_id":"cc2f30a3-08a8-4bda-997b-e3eb439c1409","system_id":"levelo_inurba_marseille","lat":43.30085,"lon":5.390856,"is_reserved":false,"is_disabled":false,"rental_uris":{"android":"levelo://app?vid=cc2f30a3-08a8-4bda-997b-e3eb439c1409","ios":"levelo://app?vid=cc2f30a3-08a8-4bda-997b-e3eb439c1409"},"vehicle_type_id":"4","last_reported":1711047974,"current_range_meters":20400,"station_id":"ce4bh192rcd13ifvqdb0","pricing_plan_id":"cebpf4jnsgd1na2vs0mg"},{"bike_id":"ad5755d5-7268-4f2d-aaed-7a183ddd7cb9","system_id":"levelo_inurba_marseille","lat":43.30085,"lon":5.390856,"is_reserved":false,"is_disabled":false,"rental_uris":{"android":"levelo://app?vid=ad5755d5-7268-4f2d-aaed-7a183ddd7cb9","ios":"levelo://app?vid=ad5755d5-7268-4f2d-aaed-7a183ddd7cb9"},"vehicle_type_id":"4","last_reported":1711047974,"current_range_meters":8400,"station_id":"ce4bh192rcd13ifvqdb0","pricing_plan_id":"cebpf4jnsgd1na2vs0mg"},{"bike_id":"8125527c-6496-4d24-9db9-438eec9cf8ff","system_id":"levelo_inurba_marseille","lat":43.300914,"lon":5.390719,"is_reserved":false,"is_disabled":false,"rental_uris":{"android":"levelo://app?vid=8125527c-6496-4d24-9db9-438eec9cf8ff","ios":"levelo://app?vid=8125527c-6496-4d24-9db9-438eec9cf8ff"},"vehicle_type_id":"4","last_reported":1711047974,"current_range_meters":2400,"station_id":"ce4bh192rcd13ifvqdb0","pricing_plan_id":"cebpf4jnsgd1na2vs0mg"},{"bike_id":"dffb5572-8ace-4420-b168-a0d30e4fc89d","system_id":"levelo_inurba_marseille","lat":43.30085,"lon":5.390856,"is_reserved":false,"is_disabled":false,"rental_uris":{"android":"levelo://app?vid=dffb5572-8ace-4420-b168-a0d30e4fc89d","ios":"levelo://app?vid=dffb5572-8ace-4420-b168-a0d30e4fc89d"},"vehicle_type_id":"4","last_reported":1711047974,"current_range_meters":19600,"station_id":"ce4bh192rcd13ifvqdb0","pricing_plan_id":"cebpf4jnsgd1na2vs0mg"},{"bike_id":"e9dbb597-ae2e-4b74-bf7d-17a4e060d67e","system_id":"levelo_inurba_marseille","lat":43.30085,"lon":5.390856,"is_reserved":false,"is_disabled":false,"rental_uris":{"android":"levelo://app?vid=e9dbb597-ae2e-4b74-bf7d-17a4e060d67e","ios":"levelo://app?vid=e9dbb597-ae2e-4b74-bf7d-17a4e060d67e"},"vehicle_type_id":"4","last_reported":1711047974,"current_range_meters":4400,"station_id":"ce4bh192rcd13ifvqdb0","pricing_plan_id":"cebpf4jnsgd1na2vs0mg"},{"bike_id":"3acdcc1d-2dab-4f3b-ac96-6f5a75b227f3","system_id":"levelo_inurba_marseille","lat":43.293009,"lon":5.374584,"is_reserved":false,"is_disabled":false,"rental_uris":{"android":"levelo://app?vid=3acdcc1d-2dab-4f3b-ac96-6f5a75b227f3","ios":"levelo://app?vid=3acdcc1d-2dab-4f3b-ac96-6f5a75b227f3"},"vehicle_type_id":"4","last_reported":1711047974,"current_range_meters":10000,"station_id":"ce4bgi12rcd13ifvqb70","pricing_plan_id":"cebpf4jnsgd1na2vs0mg"},{"bike_id":"d3d7e2cb-95f4-424b-8c24-4ce4fab2178e","system_id":"levelo_inurba_marseille","lat":43.291671,"lon":5.371575,"is_reserved":false,"is_disabled":false,"rental_uris":{"android":"levelo://app?vid=d3d7e2cb-95f4-424b-8c24-4ce4fab2178e","ios":"levelo://app?vid=d3d7e2cb-95f4-424b-8c24-4ce4fab2178e"},"vehicle_type_id":"4","last_reported":1711047974,"current_range_meters":12800,"station_id":"ce4bha92rcd13ifvqeh0","pricing_plan_id":"cebpf4jnsgd1na2vs0mg"},{"bike_id":"dc23da9c-f135-4abe-8c48-78c77f307733","system_id":"levelo_inurba_marseille","lat":43.291671,"lon":5.371575,"is_reserved":false,"is_disabled":false,"rental_uris":{"android":"levelo://app?vid=dc23da9c-f135-4abe-8c48-78c77f307733","ios":"levelo://app?vid=dc23da9c-f135-4abe-8c48-78c77f307733"},"vehicle_type_id":"4","last_reported":1711047974,"current_range_meters":0,"station_id":"ce4bha92rcd13ifvqeh0","pricing_plan_id":"cebpf4jnsgd1na2vs0mg"},{"bike_id":"01e34e2c-c50d-4c31-957e-109b63adf9cb","system_id":"levelo_inurba_marseille","lat":43.2926,"lon":5.37623,"is_reserved":false,"is_disabled":false,"rental_uris":{"android":"levelo://app?vid=01e34e2c-c50d-4c31-957e-109b63adf9cb","ios":"levelo://app?vid=01e34e2c-c50d-4c31-957e-109b63adf9cb"},"vehicle_type_id":"4","last_reported":1711047974,"current_range_meters":3600,"station_id":"","pricing_plan_id":"cebpf4jnsgd1na2vs0mg"},{"bike_id":"1b2efc50-df89-4acb-ba8c-5a0a25c72a42","system_id":"levelo_inurba_marseille","lat":43.291675,"lon":5.371583,"is_reserved":false,"is_disabled":false,"rental_uris":{"android":"levelo://app?vid=1b2efc50-df89-4acb-ba8c-5a0a25c72a42","ios":"levelo://app?vid=1b2efc50-df89-4acb-ba8c-5a0a25c72a42"},"vehicle_type_id":"4","last_reported":1711047974,"current_range_meters":3600,"station_id":"ce4bha92rcd13ifvqeh0","pricing_plan_id":"cebpf4jnsgd1na2vs0mg"},{"bike_id":"a9aae810-2d4c-4ea0-8cb2-78e417c3f64c","system_id":"levelo_inurba_marseille","lat":43.291675,"lon":5.371583,"is_reserved":false,"is_disabled":false,"rental_uris":{"android":"levelo://app?vid=a9aae810-2d4c-4ea0-8cb2-78e417c3f64c","ios":"levelo://app?vid=a9aae810-2d4c-4ea0-8cb2-78e417c3f64c"},"vehicle_type_id":"4","last_reported":1711047974,"current_range_meters":22800,"station_id":"ce4bha92rcd13ifvqeh0","pricing_plan_id":"cebpf4jnsgd1na2vs0mg"},{"bike_id":"173bb49d-db3a-4ec0-977f-cd10ec6bb2f6","system_id":"levelo_inurba_marseille","lat":43.298764,"lon":5.388973,"is_reserved":false,"is_disabled":false,"rental_uris":{"android":"levelo://app?vid=173bb49d-db3a-4ec0-977f-cd10ec6bb2f6","ios":"levelo://app?vid=173bb49d-db3a-4ec0-977f-cd10ec6bb2f6"},"vehicle_type_id":"4","last_reported":1711047974,"current_range_meters":14800,"station_id":"ce4bh392rcd13ifvqdl0","pricing_plan_id":"cebpf4jnsgd1na2vs0mg"},{"bike_id":"639b0d5a-2f61-420e-a8f9-cc42ae5cb42c","system_id":"levelo_inurba_marseille","lat":43.298775,"lon":5.389058,"is_reserved":false,"is_disabled":false,"rental_uris":{"android":"levelo://app?vid=639b0d5a-2f61-420e-a8f9-cc42ae5cb42c","ios":"levelo://app?vid=639b0d5a-2f61-420e-a8f9-cc42ae5cb42c"},"vehicle_type_id":"4","last_reported":1711047974,"current_range_meters":2800,"station_id":"ce4bh392rcd13ifvqdl0","pricing_plan_id":"cebpf4jnsgd1na2vs0mg"},{"bike_id":"15c60c50-c76f-4819-8690-e54c9a97f941","system_id":"levelo_inurba_marseille","lat":43.298764,"lon":5.388973,"is_reserved":false,"is_disabled":false,"rental_uris":{"android":"levelo://app?vid=15c60c50-c76f-4819-8690-e54c9a97f941","ios":"levelo://app?vid=15c60c50-c76f-4819-8690-e54c9a97f941"},"vehicle_type_id":"4","last_reported":1711047974,"current_range_meters":0,"station_id":"ce4bh392rcd13ifvqdl0","pricing_plan_id":"cebpf4jnsgd1na2vs0mg"},{"bike_id":"f78b016f-0b9d-470c-ad7f-e7248f4dde12","system_id":"levelo_inurba_marseille","lat":43.291671,"lon":5.371575,"is_reserved":false,"is_disabled":false,"rental_uris":{"android":"levelo://app?vid=f78b016f-0b9d-470c-ad7f-e7248f4dde12","ios":"levelo://app?vid=f78b016f-0b9d-470c-ad7f-e7248f4dde12"},"vehicle_type_id":"4","last_reported":1711047974,"current_range_meters":30800,"station_id":"ce4bha92rcd13ifvqeh0","pricing_plan_id":"cebpf4jnsgd1na2vs0mg"},{"bike_id":"ee081567-151b-4c0e-b8d4-8743c7f02dbf","system_id":"levelo_inurba_marseille","lat":43.291671,"lon":5.371575,"is_reserved":false,"is_disabled":false,"rental_uris":{"android":"levelo://app?vid=ee081567-151b-4c0e-b8d4-8743c7f02dbf","ios":"levelo://app?vid=ee081567-151b-4c0e-b8d4-8743c7f02dbf"},"vehicle_type_id":"4","last_reported":1711047974,"current_range_meters":10800,"station_id":"ce4bha92rcd13ifvqeh0","pricing_plan_id":"cebpf4jnsgd1na2vs0mg"},{"bike_id":"43be4bcb-903b-4a11-88e9-93148a94491b","system_id":"levelo_inurba_marseille","lat":43.291994,"lon":5.357886,"is_reserved":false,"is_disabled":false,"rental_uris":{"android":"levelo://app?vid=43be4bcb-903b-4a11-88e9-93148a94491b","ios":"levelo://app?vid=43be4bcb-903b-4a11-88e9-93148a94491b"},"vehicle_type_id":"4","last_reported":1711047974,"current_range_meters":0,"station_id":"ce4bhb12rcd13ifvqel0","pricing_plan_id":"cebpf4jnsgd1na2vs0mg"},{"bike_id":"b8902e30-028e-4c25-9756-62e4fc3ee28a","system_id":"levelo_inurba_marseille","lat":43.3089,"lon":5.3964,"is_reserved":false,"is_disabled":false,"rental_uris":{"android":"levelo://app?vid=b8902e30-028e-4c25-9756-62e4fc3ee28a","ios":"levelo://app?vid=b8902e30-028e-4c25-9756-62e4fc3ee28a"},"vehicle_type_id":"4","last_reported":1711047974,"current_range_meters":0,"station_id":"ce4bh012rcd13ifvqcv0","pricing_plan_id":"cebpf4jnsgd1na2vs0mg"},{"bike_id":"da7ca34c-812e-4dfe-a833-f6bd1bd76caf","system_id":"levelo_inurba_marseille","lat":43.31329,"lon":5.39687,"is_reserved":false,"is_disabled":false,"rental_uris":{"android":"levelo://app?vid=da7ca34c-812e-4dfe-a833-f6bd1bd76caf","ios":"levelo://app?vid=da7ca34c-812e-4dfe-a833-f6bd1bd76caf"},"vehicle_type_id":"4","last_reported":1711047974,"current_range_meters":0,"station_id":"ce4bgvp2rcd13ifvqcu0","pricing_plan_id":"cebpf4jnsgd1na2vs0mg"},{"bike_id":"b3c155b1-cdbb-4fbc-aa1a-ae8d6216ed6c","system_id":"levelo_inurba_marseille","lat":43.291994,"lon":5.357886,"is_reserved":false,"is_disabled":false,"rental_uris":{"android":"levelo://app?vid=b3c155b1-cdbb-4fbc-aa1a-ae8d6216ed6c","ios":"levelo://app?vid=b3c155b1-cdbb-4fbc-aa1a-ae8d6216ed6c"},"vehicle_type_id":"4","last_reported":1711047974,"current_range_meters":800,"station_id":"ce4bhb12rcd13ifvqel0","pricing_plan_id":"cebpf4jnsgd1na2vs0mg"},{"bike_id":"5969e44e-a3f3-4956-8e6b-c4fd4f035b43","system_id":"levelo_inurba_marseille","lat":43.309047,"lon":5.396551,"is_reserved":false,"is_disabled":false,"rental_uris":{"android":"levelo://app?vid=5969e44e-a3f3-4956-8e6b-c4fd4f035b43","ios":"levelo://app?vid=5969e44e-a3f3-4956-8e6b-c4fd4f035b43"},"vehicle_type_id":"4","last_reported":1711047974,"current_range_meters":0,"station_id":"ce4bh012rcd13ifvqcv0","pricing_plan_id":"cebpf4jnsgd1na2vs0mg"},{"bike_id":"c17af159-d450-48ae-98ae-c850384afd6d","system_id":"levelo_inurba_marseille","lat":43.313291,"lon":5.396838,"is_reserved":false,"is_disabled":false,"rental_uris":{"android":"levelo://app?vid=c17af159-d450-48ae-98ae-c850384afd6d","ios":"levelo://app?vid=c17af159-d450-48ae-98ae-c850384afd6d"},"vehicle_type_id":"4","last_reported":1711047974,"current_range_meters":18000,"station_id":"ce4bgvp2rcd13ifvqcu0","pricing_plan_id":"cebpf4jnsgd1na2vs0mg"},{"bike_id":"e6ba9bb8-45ad-4df3-87d8-e87a1cc22a26","system_id":"levelo_inurba_marseille","lat":43.313291,"lon":5.396838,"is_reserved":false,"is_disabled":false,"rental_uris":{"android":"levelo://app?vid=e6ba9bb8-45ad-4df3-87d8-e87a1cc22a26","ios":"levelo://app?vid=e6ba9bb8-45ad-4df3-87d8-e87a1cc22a26"},"vehicle_type_id":"4","last_reported":1711047974,"current_range_meters":23600,"station_id":"ce4bgvp2rcd13ifvqcu0","pricing_plan_id":"cebpf4jnsgd1na2vs0mg"},{"bike_id":"9f163997-de8d-4f86-8ba7-894ff7a1e8e0","system_id":"levelo_inurba_marseille","lat":43.31336,"lon":5.39697,"is_reserved":false,"is_disabled":false,"rental_uris":{"android":"levelo://app?vid=9f163997-de8d-4f86-8ba7-894ff7a1e8e0","ios":"levelo://app?vid=9f163997-de8d-4f86-8ba7-894ff7a1e8e0"},"vehicle_type_id":"4","last_reported":1711047974,"current_range_meters":6400,"station_id":"ce4bgvp2rcd13ifvqcu0","pricing_plan_id":"cebpf4jnsgd1na2vs0mg"},{"bike_id":"46c21356-c146-45b3-807c-ee0ba09faa88","system_id":"levelo_inurba_marseille","lat":43.313341,"lon":5.396973,"is_reserved":false,"is_disabled":false,"rental_uris":{"android":"levelo://app?vid=46c21356-c146-45b3-807c-ee0ba09faa88","ios":"levelo://app?vid=46c21356-c146-45b3-807c-ee0ba09faa88"},"vehicle_type_id":"4","last_reported":1711047974,"current_range_meters":21200,"station_id":"ce4bgvp2rcd13ifvqcu0","pricing_plan_id":"cebpf4jnsgd1na2vs0mg"},{"bike_id":"9d28a9a7-46c6-40e2-b3c0-7075cdf15f13","system_id":"levelo_inurba_marseille","lat":43.313291,"lon":5.396838,"is_reserved":false,"is_disabled":false,"rental_uris":{"android":"levelo://app?vid=9d28a9a7-46c6-40e2-b3c0-7075cdf15f13","ios":"levelo://app?vid=9d28a9a7-46c6-40e2-b3c0-7075cdf15f13"},"vehicle_type_id":"4","last_reported":1711047974,"current_range_meters":12400,"station_id":"ce4bgvp2rcd13ifvqcu0","pricing_plan_id":"cebpf4jnsgd1na2vs0mg"},{"bike_id":"e632ca1e-dddd-4370-9e83-a413a314fa00","system_id":"levelo_inurba_marseille","lat":43.31329,"lon":5.39703,"is_reserved":false,"is_disabled":false,"rental_uris":{"android":"levelo://app?vid=e632ca1e-dddd-4370-9e83-a413a314fa00","ios":"levelo://app?vid=e632ca1e-dddd-4370-9e83-a413a314fa00"},"vehicle_type_id":"4","last_reported":1711047974,"current_range_meters":16400,"station_id":"ce4bgvp2rcd13ifvqcu0","pricing_plan_id":"cebpf4jnsgd1na2vs0mg"},{"bike_id":"1e92a389-94e4-48c6-b366-b4def651f119","system_id":"levelo_inurba_marseille","lat":43.29536,"lon":5.38529,"is_reserved":false,"is_disabled":false,"rental_uris":{"android":"levelo://app?vid=1e92a389-94e4-48c6-b366-b4def651f119","ios":"levelo://app?vid=1e92a389-94e4-48c6-b366-b4def651f119"},"vehicle_type_id":"4","last_reported":1711047974,"current_range_meters":21600,"station_id":"ce4bgih2rcd13ifvqba0","pricing_plan_id":"cebpf4jnsgd1na2vs0mg"},{"bike_id":"673b8698-8735-4bc0-9817-68b6ef96cade","system_id":"levelo_inurba_marseille","lat":43.309038,"lon":5.396546,"is_reserved":false,"is_disabled":false,"rental_uris":{"android":"levelo://app?vid=673b8698-8735-4bc0-9817-68b6ef96cade","ios":"levelo://app?vid=673b8698-8735-4bc0-9817-68b6ef96cade"},"vehicle_type_id":"4","last_reported":1711047974,"current_range_meters":11600,"station_id":"ce4bh012rcd13ifvqcv0","pricing_plan_id":"cebpf4jnsgd1na2vs0mg"},{"bike_id":"34415e7a-ab10-40d9-8779-bb41e2d9da46","system_id":"levelo_inurba_marseille","lat":43.295317,"lon":5.385287,"is_reserved":false,"is_disabled":false,"rental_uris":{"android":"levelo://app?vid=34415e7a-ab10-40d9-8779-bb41e2d9da46","ios":"levelo://app?vid=34415e7a-ab10-40d9-8779-bb41e2d9da46"},"vehicle_type_id":"4","last_reported":1711047974,"current_range_meters":0,"station_id":"ce4bgih2rcd13ifvqba0","pricing_plan_id":"cebpf4jnsgd1na2vs0mg"},{"bike_id":"5ce618c4-a4df-4812-837d-384f4694829a","system_id":"levelo_inurba_marseille","lat":43.29539,"lon":5.38542,"is_reserved":false,"is_disabled":false,"rental_uris":{"android":"levelo://app?vid=5ce618c4-a4df-4812-837d-384f4694829a","ios":"levelo://app?vid=5ce618c4-a4df-4812-837d-384f4694829a"},"vehicle_type_id":"4","last_reported":1711047974,"current_range_meters":3200,"station_id":"ce4bgih2rcd13ifvqba0","pricing_plan_id":"cebpf4jnsgd1na2vs0mg"},{"bike_id":"04adfe6f-5582-4b36-b7b9-e8775a3054d3","system_id":"levelo_inurba_marseille","lat":43.295361,"lon":5.385397,"is_reserved":false,"is_disabled":false,"rental_uris":{"android":"levelo://app?vid=04adfe6f-5582-4b36-b7b9-e8775a3054d3","ios":"levelo://app?vid=04adfe6f-5582-4b36-b7b9-e8775a3054d3"},"vehicle_type_id":"4","last_reported":1711047974,"current_range_meters":17600,"station_id":"ce4bgih2rcd13ifvqba0","pricing_plan_id":"cebpf4jnsgd1na2vs0mg"},{"bike_id":"ebe6e377-6e09-4bb7-b872-33b23531425b","system_id":"levelo_inurba_marseille","lat":43.29529,"lon":5.385581,"is_reserved":false,"is_disabled":false,"rental_uris":{"android":"levelo://app?vid=ebe6e377-6e09-4bb7-b872-33b23531425b","ios":"levelo://app?vid=ebe6e377-6e09-4bb7-b872-33b23531425b"},"vehicle_type_id":"4","last_reported":1711047974,"current_range_meters":16800,"station_id":"ce4bgih2rcd13ifvqba0","pricing_plan_id":"cebpf4jnsgd1na2vs0mg"},{"bike_id":"197d2879-8a99-4888-b52d-a9df02d5ebeb","system_id":"levelo_inurba_marseille","lat":43.295508,"lon":5.385693,"is_reserved":false,"is_disabled":false,"rental_uris":{"android":"levelo://app?vid=197d2879-8a99-4888-b52d-a9df02d5ebeb","ios":"levelo://app?vid=197d2879-8a99-4888-b52d-a9df02d5ebeb"},"vehicle_type_id":"4","last_reported":1711047974,"current_range_meters":14400,"station_id":"ce4bgih2rcd13ifvqba0","pricing_plan_id":"cebpf4jnsgd1na2vs0mg"},{"bike_id":"86a906ac-604b-42e8-8660-0be0792353ea","system_id":"levelo_inurba_marseille","lat":43.29529,"lon":5.385581,"is_reserved":false,"is_disabled":false,"rental_uris":{"android":"levelo://app?vid=86a906ac-604b-42e8-8660-0be0792353ea","ios":"levelo://app?vid=86a906ac-604b-42e8-8660-0be0792353ea"},"vehicle_type_id":"4","last_reported":1711047974,"current_range_meters":5600,"station_id":"ce4bgih2rcd13ifvqba0","pricing_plan_id":"cebpf4jnsgd1na2vs0mg"},{"bike_id":"13658615-7f2e-4d77-9405-705384253751","system_id":"levelo_inurba_marseille","lat":43.295379,"lon":5.385479,"is_reserved":false,"is_disabled":false,"rental_uris":{"android":"levelo://app?vid=13658615-7f2e-4d77-9405-705384253751","ios":"levelo://app?vid=13658615-7f2e-4d77-9405-705384253751"},