{"last_updated":1722877619,"ttl":30,"version":"2.2","data":{"bikes":[{"bike_id":"6981a7db-40d2-403b-831b-c2dcc55a3fe6","system_id":"levelo_inurba_marseille","lat":43.313475,"lon":5.367219,"is_reserved":false,"is_disabled":false,"rental_uris":{"android":"levelo://app?vid=6981a7db-40d2-403b-831b-c2dcc55a3fe6","ios":"levelo://app?vid=6981a7db-40d2-403b-831b-c2dcc55a3fe6"},"vehicle_type_id":"4","last_reported":1722877620,"current_range_meters":0,"station_id":"ce4bgr92rcd13ifvqc6g","pricing_plan_id":"cebpf4jnsgd1na2vs0mg"},{"bike_id":"87a0b384-460a-4972-bbda-a3bb591a06dd","system_id":"levelo_inurba_marseille","lat":43.312239,"lon":5.368562,"is_reserved":false,"is_disabled":false,"rental_uris":{"android":"levelo://app?vid=87a0b384-460a-4972-bbda-a3bb591a06dd","ios":"levelo://app?vid=87a0b384-460a-4972-bbda-a3bb591a06dd"},"vehicle_type_id":"4","last_reported":1722877620,"current_range_meters":0,"station_id":"ce4bgl92rcd13ifvqbq0","pricing_plan_id":"cebpf4jnsgd1na2vs0mg"},{"bike_id":"197fffad-7576-4182-b906-648ad662eb6b","system_id":"levelo_inurba_marseille","lat":43.309076,"lon":5.368465,"is_reserved":false,"is_disabled":false,"rental_uris":{"android":"levelo://app?vid=197fffad-7576-4182-b906-648ad662eb6b","ios":"levelo://app?vid=197fffad-7576-4182-b906-648ad662eb6b"},"vehicle_type_id":"4","last_reported":1722877620,"current_range_meters":18000,"station_id":"ce4bgn92rcd13ifvqbvg","pricing_plan_id":"cebpf4jnsgd1na2vs0mg"},{"bike_id":"a3b947d7-40a9-4c5b-932a-85aae24cda03","system_id":"levelo_inurba_marseille","lat":43.309076,"lon":5.368465,"is_reserved":false,"is_disabled":false,"rental_uris":{"android":"levelo://app?vid=a3b947d7-40a9-4c5b-932a-85aae24cda03","ios":"levelo://app?vid=a3b947d7-40a9-4c5b-932a-85aae24cda03"},"vehicle_type_id":"4","last_reported":1722877620,"current_range_meters":1600,"station_id":"ce4bgn92rcd13ifvqbvg","pricing_plan_id":"cebpf4jnsgd1na2vs0mg"},{"bike_id":"5f9cd869-c423-4b2e-9a6e-5e3e6c91e463","system_id":"levelo_inurba_marseille","lat":43.314811,"lon":5.373103,"is_reserved":false,"is_disabled":false,"rental_uris":{"android":"levelo://app?vid=5f9cd869-c423-4b2e-9a6e-5e3e6c91e463","ios":"levelo://app?vid=5f9cd869-c423-4b2e-9a6e-5e3e6c91e463"},"vehicle_type_id":"4","last_reported":1722877620,"current_range_meters":1200,"station_id":"ce4bgt12rcd13ifvqcd0","pricing_plan_id":"cebpf4jnsgd1na2vs0mg"},{"bike_id":"e5ece649-160f-4475-960f-1a78c42950af","system_id":"levelo_inurba_marseille","lat":43.314811,"lon":5.373104,"is_reserved":false,"is_disabled":false,"rental_uris":{"android":"levelo://app?vid=e5ece649-160f-4475-960f-1a78c42950af","ios":"levelo://app?vid=e5ece649-160f-4475-960f-1a78c42950af"},"vehicle_type_id":"4","last_reported":1722877620,"current_range_meters":22000,"station_id":"ce4bgt12rcd13ifvqcd0","pricing_plan_id":"cebpf4jnsgd1na2vs0mg"},{"bike_id":"7dfd3a9a-b94a-418b-bf44-01a3fb27f9ba","system_id":"levelo_inurba_marseille","lat":43.314811,"lon":5.373103,"is_reserved":false,"is_disabled":false,"rental_uris":{"android":"levelo://app?vid=7dfd3a9a-b94a-418b-bf44-01a3fb27f9ba","ios":"levelo://app?vid=7dfd3a9a-b94a-418b-bf44-01a3fb27f9ba"},"vehicle_type_id":"4","last_reported":1722877620,"current_range_meters":29200,"station_id":"ce4bgt12rcd13ifvqcd0","pricing_plan_id":"cebpf4jnsgd1na2vs0mg"},{"bike_id":"243b6363-7364-4593-9a95-f36506489851","system_id":"levelo_inurba_marseille","lat":43.30937,"lon":5.374823,"is_reserved":false,"is_disabled":false,"rental_uris":{"android":"levelo://app?vid=243b6363-7364-4593-9a95-f36506489851","ios":"levelo://app?vid=243b6363-7364-4593-9a95-f36506489851"},"vehicle_type_id":"4","last_reported":1722877620,"current_range_meters":8800,"station_id":"","pricing_plan_id":"cebpf4jnsgd1na2vs0mg"},{"bike_id":"6e3fb7fc-4aa6-4a2e-a7a5-8b17d0aa8fe8","system_id":"levelo_inurba_marseille","lat":43.31596,"lon":5.37609,"is_reserved":false,"is_disabled":false,"rental_uris":{"android":"levelo://app?vid=6e3fb7fc-4aa6-4a2e-a7a5-8b17d0aa8fe8","ios":"levelo://app?vid=6e3fb7fc-4aa6-4a2e-a7a5-8b17d0aa8fe8"},"vehicle_type_id":"4","last_reported":1722877620,"current_range_meters":30000,"station_id":"","pricing_plan_id":"cebpf4jnsgd1na2vs0mg"},{"bike_id":"798a584a-8136-4aa4-a40e-44853084e9d3","system_id":"levelo_inurba_marseille","lat":43.305368,"lon":5.367343,"is_reserved":false,"is_disabled":false,"rental_uris":{"android":"levelo://app?vid=798a584a-8136-4aa4-a40e-44853084e9d3","ios":"levelo://app?vid=798a584a-8136-4aa4-a40e-44853084e9d3"},"vehicle_type_id":"4","last_reported":1722877620,"current_range_meters":0,"station_id":"ce4bgrp2rcd13ifvqc9g","pricing_plan_id":"cebpf4jnsgd1na2vs0mg"},{"bike_id":"34becc51-64a4-46ce-be87-82be9f31d8a7","system_id":"levelo_inurba_marseille","lat":43.305989,"lon":5.37225,"is_reserved":false,"is_disabled":false,"rental_uris":{"android":"levelo://app?vid=34becc51-64a4-46ce-be87-82be9f31d8a7","ios":"levelo://app?vid=34becc51-64a4-46ce-be87-82be9f31d8a7"},"vehicle_type_id":"4","last_reported":1722877620,"current_range_meters":25600,"station_id":"ce4bgqh2rcd13ifvqc4g","pricing_plan_id":"cebpf4jnsgd1na2vs0mg"},{"bike_id":"ecaee212-2a7a-4f92-8479-4c92ae68dc4f","system_id":"levelo_inurba_marseille","lat":43.305989,"lon":5.37225,"is_reserved":false,"is_disabled":false,"rental_uris":{"android":"levelo://app?vid=ecaee212-2a7a-4f92-8479-4c92ae68dc4f","ios":"levelo://app?vid=ecaee212-2a7a-4f92-8479-4c92ae68dc4f"},"vehicle_type_id":"4","last_reported":1722877620,"current_range_meters":2800,"station_id":"ce4bgqh2rcd13ifvqc4g","pricing_plan_id":"cebpf4jnsgd1na2vs0mg"},{"bike_id":"e165839d-5ff4-45a5-9aad-a23fe7ebfd7a","system_id":"levelo_inurba_marseille","lat":43.311131,"lon":5.377651,"is_reserved":false,"is_disabled":false,"rental_uris":{"android":"levelo://app?vid=e165839d-5ff4-45a5-9aad-a23fe7ebfd7a","ios":"levelo://app?vid=e165839d-5ff4-45a5-9aad-a23fe7ebfd7a"},"vehicle_type_id":"4","last_reported":1722877620,"current_range_meters":11200,"station_id":"ce4bgt92rcd13ifvqcg0","pricing_plan_id":"cebpf4jnsgd1na2vs0mg"},{"bike_id":"6b477bee-bf4a-4aff-979a-6648cbb46807","system_id":"levelo_inurba_marseille","lat":43.309034,"lon":5.371783,"is_reserved":false,"is_disabled":false,"rental_uris":{"android":"levelo://app?vid=6b477bee-bf4a-4aff-979a-6648cbb46807","ios":"levelo://app?vid=6b477bee-bf4a-4aff-979a-6648cbb46807"},"vehicle_type_id":"4","last_reported":1722877620,"current_range_meters":19600,"station_id":"ce4bguh2rcd13ifvqckg","pricing_plan_id":"cebpf4jnsgd1na2vs0mg"},{"bike_id":"bbbbcc5a-dce8-4425-9611-2be6cdbaf472","system_id":"levelo_inurba_marseille","lat":43.311131,"lon":5.377651,"is_reserved":false,"is_disabled":false,"rental_uris":{"android":"levelo://app?vid=bbbbcc5a-dce8-4425-9611-2be6cdbaf472","ios":"levelo://app?vid=bbbbcc5a-dce8-4425-9611-2be6cdbaf472"},"vehicle_type_id":"4","last_reported":1722877620,"current_range_meters":7600,"station_id":"ce4bgt92rcd13ifvqcg0","pricing_plan_id":"cebpf4jnsgd1na2vs0mg"},{"bike_id":"29752e75-7b0e-4512-a73c-8451050f46fa","system_id":"levelo_inurba_marseille","lat":43.304936,"lon":5.370894,"is_reserved":false,"is_disabled":false,"rental_uris":{"android":"levelo://app?vid=29752e75-7b0e-4512-a73c-8451050f46fa","ios":"levelo://app?vid=29752e75-7b0e-4512-a73c-8451050f46fa"},"vehicle_type_id":"4","last_reported":1722877620,"current_range_meters":12400,"station_id":"","pricing_plan_id":"cebpf4jnsgd1na2vs0mg"},{"bike_id":"71ad32e9-e23b-40fb-8796-55a7f1929219","system_id":"levelo_inurba_marseille","lat":43.307945,"lon":5.376487,"is_reserved":false,"is_disabled":false,"rental_uris":{"android":"levelo://app?vid=71ad32e9-e23b-40fb-8796-55a7f1929219","ios":"levelo://app?vid=71ad32e9-e23b-40fb-8796-55a7f1929219"},"vehicle_type_id":"4","last_reported":1722877620,"current_range_meters":400,"station_id":"ce4bgv92rcd13ifvqcq0","pricing_plan_id":"cebpf4jnsgd1na2vs0mg"},{"bike_id":"6068aa4d-67ef-427a-a3e7-e936f05faaaa","system_id":"levelo_inurba_marseille","lat":43.30779,"lon":5.37642,"is_reserved":false,"is_disabled":false,"rental_uris":{"android":"levelo://app?vid=6068aa4d-67ef-427a-a3e7-e936f05faaaa","ios":"levelo://app?vid=6068aa4d-67ef-427a-a3e7-e936f05faaaa"},"vehicle_type_id":"4","last_reported":1722877620,"current_range_meters":0,"station_id":"ce4bgv92rcd13ifvqcq0","pricing_plan_id":"cebpf4jnsgd1na2vs0mg"},{"bike_id":"55b40a0d-610b-45ae-acca-689e31c65508","system_id":"levelo_inurba_marseille","lat":43.318863,"lon":5.377074,"is_reserved":false,"is_disabled":false,"rental_uris":{"android":"levelo://app?vid=55b40a0d-610b-45ae-acca-689e31c65508","ios":"levelo://app?vid=55b40a0d-610b-45ae-acca-689e31c65508"},"vehicle_type_id":"4","last_reported":1722877620,"current_range_meters":3200,"station_id":"","pricing_plan_id":"cebpf4jnsgd1na2vs0mg"},{"bike_id":"970719fc-662f-4c98-bc05-0e668afcf22f","system_id":"levelo_inurba_marseille","lat":43.303046,"lon":5.368981,"is_reserved":false,"is_disabled":false,"rental_uris":{"android":"levelo://app?vid=970719fc-662f-4c98-bc05-0e668afcf22f","ios":"levelo://app?vid=970719fc-662f-4c98-bc05-0e668afcf22f"},"vehicle_type_id":"4","last_reported":1722877620,"current_range_meters":16400,"station_id":"ce4bgqh2rcd13ifvqc5g","pricing_plan_id":"cebpf4jnsgd1na2vs0mg"},{"bike_id":"02e176c7-17b6-4122-8bec-0f302b685ff3","system_id":"levelo_inurba_marseille","lat":43.303046,"lon":5.368981,"is_reserved":false,"is_disabled":false,"rental_uris":{"android":"levelo://app?vid=02e176c7-17b6-4122-8bec-0f302b685ff3","ios":"levelo://app?vid=02e176c7-17b6-4122-8bec-0f302b685ff3"},"vehicle_type_id":"4","last_reported":1722877620,"current_range_meters":0,"station_id":"ce4bgqh2rcd13ifvqc5g","pricing_plan_id":"cebpf4jnsgd1na2vs0mg"},{"bike_id":"6945f556-2df3-44e1-9377-0bd7e8bba10d","system_id":"levelo_inurba_marseille","lat":43.301939,"lon":5.366286,"is_reserved":false,"is_disabled":false,"rental_uris":{"android":"levelo://app?vid=6945f556-2df3-44e1-9377-0bd7e8bba10d","ios":"levelo://app?vid=6945f556-2df3-44e1-9377-0bd7e8bba10d"},"vehicle_type_id":"4","last_reported":1722877620,"current_range_meters":0,"station_id":"ce4bgrh2rcd13ifvqc8g","pricing_plan_id":"cebpf4jnsgd1na2vs0mg"},{"bike_id":"310b3bea-e52f-4fc6-9a07-2802ebee9cfa","system_id":"levelo_inurba_marseille","lat":43.304606,"lon":5.379026,"is_reserved":false,"is_disabled":false,"rental_uris":{"android":"levelo://app?vid=310b3bea-e52f-4fc6-9a07-2802ebee9cfa","ios":"levelo://app?vid=310b3bea-e52f-4fc6-9a07-2802ebee9cfa"},"vehicle_type_id":"4","last_reported":1722877620,"current_range_meters":3600,"station_id":"ce4bgup2rcd13ifvqcn0","pricing_plan_id":"cebpf4jnsgd1na2vs0mg"},{"bike_id":"6823d9a9-b8d6-481f-9de7-678e9755bdf7","system_id":"levelo_inurba_marseille","lat":43.304606,"lon":5.379026,"is_reserved":false,"is_disabled":false,"rental_uris":{"android":"levelo://app?vid=6823d9a9-b8d6-481f-9de7-678e9755bdf7","ios":"levelo://app?vid=6823d9a9-b8d6-481f-9de7-678e9755bdf7"},"vehicle_type_id":"4","last_reported":1722877620,"current_range_meters":3600,"station_id":"ce4bgup2rcd13ifvqcn0","pricing_plan_id":"cebpf4jnsgd1na2vs0mg"},{"bike_id":"3489dc97-26ab-46e3-9699-9f34c6fe88ac","system_id":"levelo_inurba_marseille","lat":43.324771,"lon":5.36557,"is_reserved":false,"is_disabled":false,"rental_uris":{"android":"levelo://app?vid=3489dc97-26ab-46e3-9699-9f34c6fe88ac","ios":"levelo://app?vid=3489dc97-26ab-46e3-9699-9f34c6fe88ac"},"vehicle_type_id":"4","last_reported":1722877620,"current_range_meters":13600,"station_id":"ce4bhs12rcd13ifvqhvg","pricing_plan_id":"cebpf4jnsgd1na2vs0mg"},{"bike_id":"aa228cf4-4e37-4529-8930-da2932fb6848","system_id":"levelo_inurba_marseille","lat":43.324771,"lon":5.36557,"is_reserved":false,"is_disabled":false,"rental_uris":{"android":"levelo://app?vid=aa228cf4-4e37-4529-8930-da2932fb6848","ios":"levelo://app?vid=aa228cf4-4e37-4529-8930-da2932fb6848"},"vehicle_type_id":"4","last_reported":1722877620,"current_range_meters":18400,"station_id":"ce4bhs12rcd13ifvqhvg","pricing_plan_id":"cebpf4jnsgd1na2vs0mg"},{"bike_id":"8720c5a0-b80d-45de-b6bb-a50099fcc8e8","system_id":"levelo_inurba_marseille","lat":43.324771,"lon":5.36557,"is_reserved":false,"is_disabled":false,"rental_uris":{"android":"levelo://app?vid=8720c5a0-b80d-45de-b6bb-a50099fcc8e8","ios":"levelo://app?vid=8720c5a0-b80d-45de-b6bb-a50099fcc8e8"},"vehicle_type_id":"4","last_reported":1722877620,"current_range_meters":0,"station_id":"ce4bhs12rcd13ifvqhvg","pricing_plan_id":"cebpf4jnsgd1na2vs0mg"},{"bike_id":"7f5c65e1-256f-49b1-9665-186eac892610","system_id":"levelo_inurba_marseille","lat":43.324771,"lon":5.36557,"is_reserved":false,"is_disabled":false,"rental_uris":{"android":"levelo://app?vid=7f5c65e1-256f-49b1-9665-186eac892610","ios":"levelo://app?vid=7f5c65e1-256f-49b1-9665-186eac892610"},"vehicle_type_id":"4","last_reported":1722877620,"current_range_meters":19600,"station_id":"ce4bhs12rcd13ifvqhvg","pricing_plan_id":"cebpf4jnsgd1na2vs0mg"},{"bike_id":"72fad462-4327-46e4-9432-681a1ae679c3","system_id":"levelo_inurba_marseille","lat":43.3248,"lon":5.36587,"is_reserved":false,"is_disabled":false,"rental_uris":{"android":"levelo://app?vid=72fad462-4327-46e4-9432-681a1ae679c3","ios":"levelo://app?vid=72fad462-4327-46e4-9432-681a1ae679c3"},"vehicle_type_id":"4","last_reported":1722877620,"current_range_meters":800,"station_id":"ce4bhs12rcd13ifvqhvg","pricing_plan_id":"cebpf4jnsgd1na2vs0mg"},{"bike_id":"0fa3bca1-936c-4735-ac76-eea62a1b2047","system_id":"levelo_inurba_marseille","lat":43.324771,"lon":5.36557,"is_reserved":false,"is_disabled":false,"rental_uris":{"android":"levelo://app?vid=0fa3bca1-936c-4735-ac76-eea62a1b2047","ios":"levelo://app?vid=0fa3bca1-936c-4735-ac76-eea62a1b2047"},"vehicle_type_id":"4","last_reported":1722877620,"current_range_meters":21600,"station_id":"ce4bhs12rcd13ifvqhvg","pricing_plan_id":"cebpf4jnsgd1na2vs0mg"},{"bike_id":"0815e5d7-5fdf-4068-916f-0c994d34ce6f","system_id":"levelo_inurba_marseille","lat":43.324771,"lon":5.36557,"is_reserved":false,"is_disabled":false,"rental_uris":{"android":"levelo://app?vid=0815e5d7-5fdf-4068-916f-0c994d34ce6f","ios":"levelo://app?vid=0815e5d7-5fdf-4068-916f-0c994d34ce6f"},"vehicle_type_id":"4","last_reported":1722877620,"current_range_meters":31200,"station_id":"ce4bhs12rcd13ifvqhvg","pricing_plan_id":"cebpf4jnsgd1na2vs0mg"},{"bike_id":"9bd0b47e-daaf-4f8e-8125-88c7315b1137","system_id":"levelo_inurba_marseille","lat":43.324771,"lon":5.36557,"is_reserved":false,"is_disabled":false,"rental_uris":{"android":"levelo://app?vid=9bd0b47e-daaf-4f8e-8125-88c7315b1137","ios":"levelo://app?vid=9bd0b47e-daaf-4f8e-8125-88c7315b1137"},"vehicle_type_id":"4","last_reported":1722877620,"current_range_meters":22000,"station_id":"ce4bhs12rcd13ifvqhvg","pricing_plan_id":"cebpf4jnsgd1na2vs0mg"},{"bike_id":"c918ab66-bbef-40ae-bbc2-c91db810257a","system_id":"levelo_inurba_marseille","lat":43.32482,"lon":5.36569,"is_reserved":false,"is_disabled":false,"rental_uris":{"android":"levelo://app?vid=c918ab66-bbef-40ae-bbc2-c91db810257a","ios":"levelo://app?vid=c918ab66-bbef-40ae-bbc2-c91db810257a"},"vehicle_type_id":"4","last_reported":1722877620,"current_range_meters":0,"station_id":"ce4bhs12rcd13ifvqhvg","pricing_plan_id":"cebpf4jnsgd1na2vs0mg"},{"bike_id":"67236220-b290-4733-96c4-a8c424b17241","system_id":"levelo_inurba_marseille","lat":43.324771,"lon":5.36557,"is_reserved":false,"is_disabled":false,"rental_uris":{"android":"levelo://app?vid=67236220-b290-4733-96c4-a8c424b17241","ios":"levelo://app?vid=67236220-b290-4733-96c4-a8c424b17241"},"vehicle_type_id":"4","last_reported":1722877620,"current_range_meters":9200,"station_id":"ce4bhs12rcd13ifvqhvg","pricing_plan_id":"cebpf4jnsgd1na2vs0mg"},{"bike_id":"e34aa162-5e06-4255-ab95-f371bcece989","system_id":"levelo_inurba_marseille","lat":43.324771,"lon":5.36557,"is_reserved":false,"is_disabled":false,"rental_uris":{"android":"levelo://app?vid=e34aa162-5e06-4255-ab95-f371bcece989","ios":"levelo://app?vid=e34aa162-5e06-4255-ab95-f371bcece989"},"vehicle_type_id":"4","last_reported":1722877620,"current_range_meters":6400,"station_id":"ce4bhs12rcd13ifvqhvg","pricing_plan_id":"cebpf4jnsgd1na2vs0mg"},{"bike_id":"b663173f-6e15-4748-9b66-3a06802ebe2f","system_id":"levelo_inurba_marseille","lat":43.324771,"lon":5.36557,"is_reserved":false,"is_disabled":false,"rental_uris":{"android":"levelo://app?vid=b663173f-6e15-4748-9b66-3a06802ebe2f","ios":"levelo://app?vid=b663173f-6e15-4748-9b66-3a06802ebe2f"},"vehicle_type_id":"4","last_reported":1722877620,"current_range_meters":6800,"station_id":"ce4bhs12rcd13ifvqhvg","pricing_plan_id":"cebpf4jnsgd1na2vs0mg"},{"bike_id":"134a19a9-f6e1-4f75-a95e-11eed967bd22","system_id":"levelo_inurba_marseille","lat":43.324771,"lon":5.36557,"is_reserved":false,"is_disabled":false,"rental_uris":{"android":"levelo://app?vid=134a19a9-f6e1-4f75-a95e-11eed967bd22","ios":"levelo://app?vid=134a19a9-f6e1-4f75-a95e-11eed967bd22"},"vehicle_type_id":"4","last_reported":1722877620,"current_range_meters":22000,"station_id":"ce4bhs12rcd13ifvqhvg","pricing_plan_id":"cebpf4jnsgd1na2vs0mg"},{"bike_id":"15a6455c-7c7e-4fa6-a52c-9e08aabc0a6b","system_id":"levelo_inurba_marseille","lat":43.324771,"lon":5.36557,"is_reserved":false,"is_disabled":false,"rental_uris":{"android":"levelo://app?vid=15a6455c-7c7e-4fa6-a52c-9e08aabc0a6b","ios":"levelo://app?vid=15a6455c-7c7e-4fa6-a52c-9e08aabc0a6b"},"vehicle_type_id":"4","last_reported":1722877620,"current_range_meters":31600,"station_id":"ce4bhs12rcd13ifvqhvg","pricing_plan_id":"cebpf4jnsgd1na2vs0mg"},{"bike_id":"ce8c13b6-6eda-4af3-813e-61a610257300","system_id":"levelo_inurba_marseille","lat":43.324771,"lon":5.36557,"is_reserved":false,"is_disabled":false,"rental_uris":{"android":"levelo://app?vid=ce8c13b6-6eda-4af3-813e-61a610257300","ios":"levelo://app?vid=ce8c13b6-6eda-4af3-813e-61a610257300"},"vehicle_type_id":"4","last_reported":1722877620,"current_range_meters":20800,"station_id":"ce4bhs12rcd13ifvqhvg","pricing_plan_id":"cebpf4jnsgd1na2vs0mg"},{"bike_id":"e59842e6-65ae-4bcd-ae87-db816f11b6c5","system_id":"levelo_inurba_marseille","lat":43.324771,"lon":5.36557,"is_reserved":false,"is_disabled":false,"rental_uris":{"android":"levelo://app?vid=e59842e6-65ae-4bcd-ae87-db816f11b6c5","ios":"levelo://app?vid=e59842e6-65ae-4bcd-ae87-db816f11b6c5"},"vehicle_type_id":"4","last_reported":1722877620,"current_range_meters":31200,"station_id":"ce4bhs12rcd13ifvqhvg","pricing_plan_id":"cebpf4jnsgd1na2vs0mg"},{"bike_id":"c5057f61-f227-41fb-ae3b-5c78f21899a2","system_id":"levelo_inurba_marseille","lat":43.324771,"lon":5.36557,"is_reserved":false,"is_disabled":false,"rental_uris":{"android":"levelo://app?vid=c5057f61-f227-41fb-ae3b-5c78f21899a2","ios":"levelo://app?vid=c5057f61-f227-41fb-ae3b-5c78f21899a2"},"vehicle_type_id":"4","last_reported":1722877620,"current_range_meters":21200,"station_id":"ce4bhs12rcd13ifvqhvg","pricing_plan_id":"cebpf4jnsgd1na2vs0mg"},{"bike_id":"62e3a0a7-52e2-4427-b049-c3746e4d461d","system_id":"levelo_inurba_marseille","lat":43.310804,"lon":5.38359,"is_reserved":false,"is_disabled":false,"rental_uris":{"android":"levelo://app?vid=62e3a0a7-52e2-4427-b049-c3746e4d461d","ios":"levelo://app?vid=62e3a0a7-52e2-4427-b049-c3746e4d461d"},"vehicle_type_id":"4","last_reported":1722877620,"current_range_meters":0,"station_id":"ce4bgv92rcd13ifvqcr0","pricing_plan_id":"cebpf4jnsgd1na2vs0mg"},{"bike_id":"ae4a0753-c557-475d-8b34-e5649d167e8e","system_id":"levelo_inurba_marseille","lat":43.313571,"lon":5.384829,"is_reserved":false,"is_disabled":false,"rental_uris":{"android":"levelo://app?vid=ae4a0753-c557-475d-8b34-e5649d167e8e","ios":"levelo://app?vid=ae4a0753-c557-475d-8b34-e5649d167e8e"},"vehicle_type_id":"4","last_reported":1722877620,"current_range_meters":31200,"station_id":"ce4bgt92rcd13ifvqcf0","pricing_plan_id":"cebpf4jnsgd1na2vs0mg"},{"bike_id":"9df064fa-7391-4d49-90fe-45da440a9b1a","system_id":"levelo_inurba_marseille","lat":43.313703,"lon":5.385007,"is_reserved":false,"is_disabled":false,"rental_uris":{"android":"levelo://app?vid=9df064fa-7391-4d49-90fe-45da440a9b1a","ios":"levelo://app?vid=9df064fa-7391-4d49-90fe-45da440a9b1a"},"vehicle_type_id":"4","last_reported":1722877620,"current_range_meters":0,"station_id":"ce4bgt92rcd13ifvqcf0","pricing_plan_id":"cebpf4jnsgd1na2vs0mg"},{"bike_id":"2c3d6d3f-b8ba-414e-9b27-a2b8e6829fd5","system_id":"levelo_inurba_marseille","lat":43.299724,"lon":5.371829,"is_reserved":false,"is_disabled":false,"rental_uris":{"android":"levelo://app?vid=2c3d6d3f-b8ba-414e-9b27-a2b8e6829fd5","ios":"levelo://app?vid=2c3d6d3f-b8ba-414e-9b27-a2b8e6829fd5"},"vehicle_type_id":"4","last_reported":1722877620,"current_range_meters":9200,"station_id":"ce4bgr92rcd13ifvqc7g","pricing_plan_id":"cebpf4jnsgd1na2vs0mg"},{"bike_id":"1ebb4485-2d1a-49f9-8dc6-ea966b2d6652","system_id":"levelo_inurba_marseille","lat":43.299724,"lon":5.371829,"is_reserved":false,"is_disabled":false,"rental_uris":{"android":"levelo://app?vid=1ebb4485-2d1a-49f9-8dc6-ea966b2d6652","ios":"levelo://app?vid=1ebb4485-2d1a-49f9-8dc6-ea966b2d6652"},"vehicle_type_id":"4","last_reported":1722877620,"current_range_meters":0,"station_id":"ce4bgr92rcd13ifvqc7g","pricing_plan_id":"cebpf4jnsgd1na2vs0mg"},{"bike_id":"1f168c90-5ead-4590-a8d8-90b06c09034f","system_id":"levelo_inurba_marseille","lat":43.319935,"lon":5.381699,"is_reserved":false,"is_disabled":false,"rental_uris":{"android":"levelo://app?vid=1f168c90-5ead-4590-a8d8-90b06c09034f","ios":"levelo://app?vid=1f168c90-5ead-4590-a8d8-90b06c09034f"},"vehicle_type_id":"4","last_reported":1722877620,"current_range_meters":16400,"station_id":"ce4bhr12rcd13ifvqhpg","pricing_plan_id":"cebpf4jnsgd1na2vs0mg"},{"bike_id":"36740302-8435-434b-88d7-6c5a9de9259e","system_id":"levelo_inurba_marseille","lat":43.299243,"lon":5.374807,"is_reserved":false,"is_disabled":false,"rental_uris":{"android":"levelo://app?vid=36740302-8435-434b-88d7-6c5a9de9259e","ios":"levelo://app?vid=36740302-8435-434b-88d7-6c5a9de9259e"},"vehicle_type_id":"4","last_reported":1722877620,"current_range_meters":0,"station_id":"ce4bgjh2rcd13ifvqbg0","pricing_plan_id":"cebpf4jnsgd1na2vs0mg"},{"bike_id":"a8c7e126-53ef-46ff-b37c-09d792985626","system_id":"levelo_inurba_marseille","lat":43.300178,"lon":5.377408,"is_reserved":false,"is_disabled":false,"rental_uris":{"android":"levelo://app?vid=a8c7e126-53ef-46ff-b37c-09d792985626","ios":"levelo://app?vid=a8c7e126-53ef-46ff-b37c-09d792985626"},"vehicle_type_id":"4","last_reported":1722877620,"current_range_meters":18400,"station_id":"","pricing_plan_id":"cebpf4jnsgd1na2vs0mg"},{"bike_id":"a6fd9c8b-4281-4d6e-b7dd-8b162bb71c77","system_id":"levelo_inurba_marseille","lat":43.299243,"lon":5.37481,"is_reserved":false,"is_disabled":false,"rental_uris":{"android":"levelo://app?vid=a6fd9c8b-4281-4d6e-b7dd-8b162bb71c77","ios":"levelo://app?vid=a6fd9c8b-4281-4d6e-b7dd-8b162bb71c77"},"vehicle_type_id":"4","last_reported":1722877620,"current_range_meters":17600,"station_id":"ce4bgjh2rcd13ifvqbg0","pricing_plan_id":"cebpf4jnsgd1na2vs0mg"},{"bike_id":"87b91ec6-2e1d-4afb-9bd0-d8e5bdbe5fcc","system_id":"levelo_inurba_marseille","lat":43.297794,"lon":5.370888,"is_reserved":false,"is_disabled":false,"rental_uris":{"android":"levelo://app?vid=87b91ec6-2e1d-4afb-9bd0-d8e5bdbe5fcc","ios":"levelo://app?vid=87b91ec6-2e1d-4afb-9bd0-d8e5bdbe5fcc"},"vehicle_type_id":"4","last_reported":1722877620,"current_range_meters":18000,"station_id":"ce4bgop2rcd13ifvqc1g","pricing_plan_id":"cebpf4jnsgd1na2vs0mg"},{"bike_id":"73f42160-6b11-41b1-8799-a7583ab735f6","system_id":"levelo_inurba_marseille","lat":43.297774,"lon":5.370875,"is_reserved":false,"is_disabled":false,"rental_uris":{"android":"levelo://app?vid=73f42160-6b11-41b1-8799-a7583ab735f6","ios":"levelo://app?vid=73f42160-6b11-41b1-8799-a7583ab735f6"},"vehicle_type_id":"4","last_reported":1722877620,"current_range_meters":0,"station_id":"ce4bgop2rcd13ifvqc1g","pricing_plan_id":"cebpf4jnsgd1na2vs0mg"},{"bike_id":"dbf47454-6e44-4f23-b242-727b2ffefc03","system_id":"levelo_inurba_marseille","lat":43.322872,"lon":5.382756,"is_reserved":false,"is_disabled":false,"rental_uris":{"android":"levelo://app?vid=dbf47454-6e44-4f23-b242-727b2ffefc03","ios":"levelo://app?vid=dbf47454-6e44-4f23-b242-727b2ffefc03"},"vehicle_type_id":"4","last_reported":1722877620,"current_range_meters":6000,"station_id":"ce4bhr12rcd13ifvqhqg","pricing_plan_id":"cebpf4jnsgd1na2vs0mg"},{"bike_id":"d7d2b703-8aff-4222-aae0-7687a55a38c0","system_id":"levelo_inurba_marseille","lat":43.322872,"lon":5.382756,"is_reserved":false,"is_disabled":false,"rental_uris":{"android":"levelo://app?vid=d7d2b703-8aff-4222-aae0-7687a55a38c0","ios":"levelo://app?vid=d7d2b703-8aff-4222-aae0-7687a55a38c0"},"vehicle_type_id":"4","last_reported":1722877620,"current_range_meters":9200,"station_id":"ce4bhr12rcd13ifvqhqg","pricing_plan_id":"cebpf4jnsgd1na2vs0mg"},{"bike_id":"5a90398b-a987-4106-987e-a26344ef18da","system_id":"levelo_inurba_marseille","lat":43.322872,"lon":5.382756,"is_reserved":false,"is_disabled":false,"rental_uris":{"android":"levelo://app?vid=5a90398b-a987-4106-987e-a26344ef18da","ios":"levelo://app?vid=5a90398b-a987-4106-987e-a26344ef18da"},"vehicle_type_id":"4","last_reported":1722877620,"current_range_meters":30000,"station_id":"ce4bhr12rcd13ifvqhqg","pricing_plan_id":"cebpf4jnsgd1na2vs0mg"},{"bike_id":"f07dc7fe-0253-4b49-bc55-4baf7a7c484d","system_id":"levelo_inurba_marseille","lat":43.300359,"lon":5.382088,"is_reserved":false,"is_disabled":false,"rental_uris":{"android":"levelo://app?vid=f07dc7fe-0253-4b49-bc55-4baf7a7c484d","ios":"levelo://app?vid=f07dc7fe-0253-4b49-bc55-4baf7a7c484d"},"vehicle_type_id":"4","last_reported":1722877620,"current_range_meters":20000,"station_id":"","pricing_plan_id":"cebpf4jnsgd1na2vs0mg"},{"bike_id":"4fd38ee3-2bde-43f6-ae42-f1e1d2b3c530","system_id":"levelo_inurba_marseille","lat":43.296131,"lon":5.370791,"is_reserved":false,"is_disabled":false,"rental_uris":{"android":"levelo://app?vid=4fd38ee3-2bde-43f6-ae42-f1e1d2b3c530","ios":"levelo://app?vid=4fd38ee3-2bde-43f6-ae42-f1e1d2b3c530"},"vehicle_type_id":"4","last_reported":1722877620,"current_range_meters":11200,"station_id":"ce4bgnh2rcd13ifvqc0g","pricing_plan_id":"cebpf4jnsgd1na2vs0mg"},{"bike_id":"d78e1db3-8c31-4631-85b3-2bca23de6698","system_id":"levelo_inurba_marseille","lat":43.29616,"lon":5.37156,"is_reserved":false,"is_disabled":false,"rental_uris":{"android":"levelo://app?vid=d78e1db3-8c31-4631-85b3-2bca23de6698","ios":"levelo://app?vid=d78e1db3-8c31-4631-85b3-2bca23de6698"},"vehicle_type_id":"4","last_reported":1722877620,"current_range_meters":10000,"station_id":"ce4bgnh2rcd13ifvqc0g","pricing_plan_id":"cebpf4jnsgd1na2vs0mg"},{"bike_id":"494a8eff-57c7-489c-9d74-dcb1eb33c495","system_id":"levelo_inurba_marseille","lat":43.296131,"lon":5.370773,"is_reserved":false,"is_disabled":false,"rental_uris":{"android":"levelo://app?vid=494a8eff-57c7-489c-9d74-dcb1eb33c495","ios":"levelo://app?vid=494a8eff-57c7-489c-9d74-dcb1eb33c495"},"vehicle_type_id":"4","last_reported":1722877620,"current_range_meters":20000,"station_id":"ce4bgnh2rcd13ifvqc0g","pricing_plan_id":"cebpf4jnsgd1na2vs0mg"},{"bike_id":"c2799d90-08a1-46b8-abdd-f90670672ef3","system_id":"levelo_inurba_marseille","lat":43.299028,"lon":5.381509,"is_reserved":false,"is_disabled":false,"rental_uris":{"android":"levelo://app?vid=c2799d90-08a1-46b8-abdd-f90670672ef3","ios":"levelo://app?vid=c2799d90-08a1-46b8-abdd-f90670672ef3"},"vehicle_type_id":"4","last_reported":1722877620,"current_range_meters":0,"station_id":"ce4bgj12rcd13ifvqbc0","pricing_plan_id":"cebpf4jnsgd1na2vs0mg"},{"bike_id":"ee547a91-a811-4c7e-8c6b-72bd8b3b87ba","system_id":"levelo_inurba_marseille","lat":43.299028,"lon":5.381509,"is_reserved":false,"is_disabled":false,"rental_uris":{"android":"levelo://app?vid=ee547a91-a811-4c7e-8c6b-72bd8b3b87ba","ios":"levelo://app?vid=ee547a91-a811-4c7e-8c6b-72bd8b3b87ba"},"vehicle_type_id":"4","last_reported":1722877620,"current_range_meters":0,"station_id":"ce4bgj12rcd13ifvqbc0","pricing_plan_id":"cebpf4jnsgd1na2vs0mg"},{"bike_id":"47400786-93a6-4b6d-8b0a-0d9957b0457b","system_id":"levelo_inurba_marseille","lat":43.309589,"lon":5.390258,"is_reserved":false,"is_disabled":false,"rental_uris":{"android":"levelo://app?vid=47400786-93a6-4b6d-8b0a-0d9957b0457b","ios":"levelo://app?vid=47400786-93a6-4b6d-8b0a-0d9957b0457b"},"vehicle_type_id":"4","last_reported":1722877620,"current_range_meters":30800,"station_id":"ce4bgup2rcd13ifvqco0","pricing_plan_id":"cebpf4jnsgd1na2vs0mg"},{"bike_id":"9c0318d3-3979-478f-a2fd-914a24b1cc3a","system_id":"levelo_inurba_marseille","lat":43.29703,"lon":5.37705,"is_reserved":false,"is_disabled":false,"rental_uris":{"android":"levelo://app?vid=9c0318d3-3979-478f-a2fd-914a24b1cc3a","ios":"levelo://app?vid=9c0318d3-3979-478f-a2fd-914a24b1cc3a"},"vehicle_type_id":"4","last_reported":1722877620,"current_range_meters":3600,"station_id":"ce4bgkh2rcd13ifvqbl0","pricing_plan_id":"cebpf4jnsgd1na2vs0mg"},{"bike_id":"82ca7ef0-85f1-480b-b93f-721dff7b8e0b","system_id":"levelo_inurba_marseille","lat":43.317557,"lon":5.390173,"is_reserved":false,"is_disabled":false,"rental_uris":{"android":"levelo://app?vid=82ca7ef0-85f1-480b-b93f-721dff7b8e0b","ios":"levelo://app?vid=82ca7ef0-85f1-480b-b93f-721dff7b8e0b"},"vehicle_type_id":"4","last_reported":1722877620,"current_range_meters":30400,"station_id":"ce4bhqp2rcd13ifvqhng","pricing_plan_id":"cebpf4jnsgd1na2vs0mg"},{"bike_id":"011e384e-f726-4a47-8659-36940a079f1d","system_id":"levelo_inurba_marseille","lat":43.317557,"lon":5.390173,"is_reserved":false,"is_disabled":false,"rental_uris":{"android":"levelo://app?vid=011e384e-f726-4a47-8659-36940a079f1d","ios":"levelo://app?vid=011e384e-f726-4a47-8659-36940a079f1d"},"vehicle_type_id":"4","last_reported":1722877620,"current_range_meters":11600,"station_id":"ce4bhqp2rcd13ifvqhng","pricing_plan_id":"cebpf4jnsgd1na2vs0mg"},{"bike_id":"0fbeef58-4f76-4c9f-a0a3-a240a5d1c59f","system_id":"levelo_inurba_marseille","lat":43.31756,"lon":5.39014,"is_reserved":false,"is_disabled":false,"rental_uris":{"android":"levelo://app?vid=0fbeef58-4f76-4c9f-a0a3-a240a5d1c59f","ios":"levelo://app?vid=0fbeef58-4f76-4c9f-a0a3-a240a5d1c59f"},"vehicle_type_id":"4","last_reported":1722877620,"current_range_meters":0,"station_id":"ce4bhqp2rcd13ifvqhng","pricing_plan_id":"cebpf4jnsgd1na2vs0mg"},{"bike_id":"d7bcce23-30c9-4451-9c6d-e88a939a626c","system_id":"levelo_inurba_marseille","lat":43.317557,"lon":5.390173,"is_reserved":false,"is_disabled":false,"rental_uris":{"android":"levelo://app?vid=d7bcce23-30c9-4451-9c6d-e88a939a626c","ios":"levelo://app?vid=d7bcce23-30c9-4451-9c6d-e88a939a626c"},"vehicle_type_id":"4","last_reported":1722877620,"current_range_meters":21600,"station_id":"ce4bhqp2rcd13ifvqhng","pricing_plan_id":"cebpf4jnsgd1na2vs0mg"},{"bike_id":"ea6b904b-af95-4363-a51f-c3952fa5382f","system_id":"levelo_inurba_marseille","lat":43.29797,"lon":5.38097,"is_reserved":false,"is_disabled":false,"rental_uris":{"android":"levelo://app?vid=ea6b904b-af95-4363-a51f-c3952fa5382f","ios":"levelo://app?vid=ea6b904b-af95-4363-a51f-c3952fa5382f"},"vehicle_type_id":"4","last_reported":1722877620,"current_range_meters":0,"station_id":"ce4bgip2rcd13ifvqbb0","pricing_plan_id":"cebpf4jnsgd1na2vs0mg"},{"bike_id":"2ffb7ea0-2073-4e9b-9f33-891fe21d692b","system_id":"levelo_inurba_marseille","lat":43.29575,"lon":5.37509,"is_reserved":false,"is_disabled":false,"rental_uris":{"android":"levelo://app?vid=2ffb7ea0-2073-4e9b-9f33-891fe21d692b","ios":"levelo://app?vid=2ffb7ea0-2073-4e9b-9f33-891fe21d692b"},"vehicle_type_id":"4","last_reported":1722877620,"current_range_meters":0,"station_id":"ce4bgh92rcd13ifvqb50","pricing_plan_id":"cebpf4jnsgd1na2vs0mg"},{"bike_id":"173d5b9c-13cc-43e1-b7bc-a9dedb143ab6","system_id":"levelo_inurba_marseille","lat":43.298037,"lon":5.381066,"is_reserved":false,"is_disabled":false,"rental_uris":{"android":"levelo://app?vid=173d5b9c-13cc-43e1-b7bc-a9dedb143ab6","ios":"levelo://app?vid=173d5b9c-13cc-43e1-b7bc-a9dedb143ab6"},"vehicle_type_id":"4","last_reported":1722877620,"current_range_meters":7200,"station_id":"ce4bgip2rcd13ifvqbb0","pricing_plan_id":"cebpf4jnsgd1na2vs0mg"},{"bike_id":"6c4f32c3-d8c2-430d-b7d0-d16abca33a20","system_id":"levelo_inurba_marseille","lat":43.295748,"lon":5.37522,"is_reserved":false,"is_disabled":false,"rental_uris":{"android":"levelo://app?vid=6c4f32c3-d8c2-430d-b7d0-d16abca33a20","ios":"levelo://app?vid=6c4f32c3-d8c2-430d-b7d0-d16abca33a20"},"vehicle_type_id":"4","last_reported":1722877620,"current_range_meters":0,"station_id":"ce4bgh92rcd13ifvqb50","pricing_plan_id":"cebpf4jnsgd1na2vs0mg"},{"bike_id":"9d99ab43-6e50-4de2-bf8c-f5410c0a1996","system_id":"levelo_inurba_marseille","lat":43.295748,"lon":5.37522,"is_reserved":false,"is_disabled":false,"rental_uris":{"android":"levelo://app?vid=9d99ab43-6e50-4de2-bf8c-f5410c0a1996","ios":"levelo://app?vid=9d99ab43-6e50-4de2-bf8c-f5410c0a1996"},"vehicle_type_id":"4","last_reported":1722877620,"current_range_meters":0,"station_id":"ce4bgh92rcd13ifvqb50","pricing_plan_id":"cebpf4jnsgd1na2vs0mg"},{"bike_id":"5ec65d6d-2c54-4f33-a898-84e9e52aa016","system_id":"levelo_inurba_marseille","lat":43.296277,"lon":5.377108,"is_reserved":false,"is_disabled":false,"rental_uris":{"android":"levelo://app?vid=5ec65d6d-2c54-4f33-a898-84e9e52aa016","ios":"levelo://app?vid=5ec65d6d-2c54-4f33-a898-84e9e52aa016"},"vehicle_type_id":"4","last_reported":1722877620,"current_range_meters":0,"station_id":"ce4bgi92rcd13ifvqb90","pricing_plan_id":"cebpf4jnsgd1na2vs0mg"},{"bike_id":"8a58087f-fab7-41f6-a50d-077f50eded8a","system_id":"levelo_inurba_marseille","lat":43.299717,"lon":5.384845,"is_reserved":false,"is_disabled":false,"rental_uris":{"android":"levelo://app?vid=8a58087f-fab7-41f6-a50d-077f50eded8a","ios":"levelo://app?vid=8a58087f-fab7-41f6-a50d-077f50eded8a"},"vehicle_type_id":"4","last_reported":1722877620,"current_range_meters":18000,"station_id":"ce4bgj92rcd13ifvqbd0","pricing_plan_id":"cebpf4jnsgd1na2vs0mg"},{"bike_id":"b9996817-d0c9-4e64-970d-206da09da7e6","system_id":"levelo_inurba_marseille","lat":43.32365,"lon":5.38881,"is_reserved":false,"is_disabled":false,"rental_uris":{"android":"levelo://app?vid=b9996817-d0c9-4e64-970d-206da09da7e6","ios":"levelo://app?vid=b9996817-d0c9-4e64-970d-206da09da7e6"},"vehicle_type_id":"4","last_reported":1722877620,"current_range_meters":0,"station_id":"ce4bhqp2rcd13ifvqhog","pricing_plan_id":"cebpf4jnsgd1na2vs0mg"},{"bike_id":"001444d1-57a2-4d0a-9753-6a4744836dd6","system_id":"levelo_inurba_marseille","lat":43.29268,"lon":5.36842,"is_reserved":false,"is_disabled":false,"rental_uris":{"android":"levelo://app?vid=001444d1-57a2-4d0a-9753-6a4744836dd6","ios":"levelo://app?vid=001444d1-57a2-4d0a-9753-6a4744836dd6"},"vehicle_type_id":"4","last_reported":1722877620,"current_range_meters":0,"station_id":"ce4bhbp2rcd13ifvqesg","pricing_plan_id":"cebpf4jnsgd1na2vs0mg"},{"bike_id":"db36fbcf-0634-4482-b296-3a6bc0a51567","system_id":"levelo_inurba_marseille","lat":43.29268,"lon":5.36845,"is_reserved":false,"is_disabled":false,"rental_uris":{"android":"levelo://app?vid=db36fbcf-0634-4482-b296-3a6bc0a51567","ios":"levelo://app?vid=db36fbcf-0634-4482-b296-3a6bc0a51567"},"vehicle_type_id":"4","last_reported":1722877620,"current_range_meters":0,"station_id":"ce4bhbp2rcd13ifvqesg","pricing_plan_id":"cebpf4jnsgd1na2vs0mg"},{"bike_id":"b7aa9de8-3b4e-4934-bb87-325d04c08b70","system_id":"levelo_inurba_marseille","lat":43.292656,"lon":5.368438,"is_reserved":false,"is_disabled":false,"rental_uris":{"android":"levelo://app?vid=b7aa9de8-3b4e-4934-bb87-325d04c08b70","ios":"levelo://app?vid=b7aa9de8-3b4e-4934-bb87-325d04c08b70"},"vehicle_type_id":"4","last_reported":1722877620,"current_range_meters":31200,"station_id":"ce4bhbp2rcd13ifvqesg","pricing_plan_id":"cebpf4jnsgd1na2vs0mg"},{"bike_id":"630c0db8-2f01-4ee3-bf7e-f99cd42715b4","system_id":"levelo_inurba_marseille","lat":43.293009,"lon":5.374584,"is_reserved":false,"is_disabled":false,"rental_uris":{"android":"levelo://app?vid=630c0db8-2f01-4ee3-bf7e-f99cd42715b4","ios":"levelo://app?vid=630c0db8-2f01-4ee3-bf7e-f99cd42715b4"},"vehicle_type_id":"4","last_reported":1722877620,"current_range_meters":1200,"station_id":"ce4bgi12rcd13ifvqb70","pricing_plan_id":"cebpf4jnsgd1na2vs0mg"},{"bike_id":"57a34a78-630c-4b1e-bb24-87734ba30f5c","system_id":"levelo_inurba_marseille","lat":43.305994,"lon":5.393687,"is_reserved":false,"is_disabled":false,"rental_uris":{"android":"levelo://app?vid=57a34a78-630c-4b1e-bb24-87734ba30f5c","ios":"levelo://app?vid=57a34a78-630c-4b1e-bb24-87734ba30f5c"},"vehicle_type_id":"4","last_reported":1722877620,"current_range_meters":0,"station_id":"ce4bh0p2rcd13ifvqd80","pricing_plan_id":"cebpf4jnsgd1na2vs0mg"},{"bike_id":"bff75e66-ba3f-4989-ab4f-ff1dc9aa2e13","system_id":"levelo_inurba_marseille","lat":43.29297,"lon":5.3747,"is_reserved":false,"is_disabled":false,"rental_uris":{"android":"levelo://app?vid=bff75e66-ba3f-4989-ab4f-ff1dc9aa2e13","ios":"levelo://app?vid=bff75e66-ba3f-4989-ab4f-ff1dc9aa2e13"},"vehicle_type_id":"4","last_reported":1722877620,"current_range_meters":0,"station_id":"ce4bgi12rcd13ifvqb70","pricing_plan_id":"cebpf4jnsgd1na2vs0mg"},{"bike_id":"01bc917d-b78b-4e47-829d-88fe2ebecf44","system_id":"levelo_inurba_marseille","lat":43.305994,"lon":5.393687,"is_reserved":false,"is_disabled":false,"rental_uris":{"android":"levelo://app?vid=01bc917d-b78b-4e47-829d-88fe2ebecf44","ios":"levelo://app?vid=01bc917d-b78b-4e47-829d-88fe2ebecf44"},"vehicle_type_id":"4","last_reported":1722877620,"current_range_meters":800,"station_id":"ce4bh0p2rcd13ifvqd80","pricing_plan_id":"cebpf4jnsgd1na2vs0mg"},{"bike_id":"35c9db53-87c1-499d-b317-4db16ecf9397","system_id":"levelo_inurba_marseille","lat":43.292311,"lon":5.360731,"is_reserved":false,"is_disabled":false,"rental_uris":{"android":"levelo://app?vid=35c9db53-87c1-499d-b317-4db16ecf9397","ios":"levelo://app?vid=35c9db53-87c1-499d-b317-4db16ecf9397"},"vehicle_type_id":"4","last_reported":1722877620,"current_range_meters":14000,"station_id":"ce4bhbh2rcd13ifvqeqg","pricing_plan_id":"cebpf4jnsgd1na2vs0mg"},{"bike_id":"38e3465c-e2e3-418e-8cd0-09a37499a82b","system_id":"levelo_inurba_marseille","lat":43.29226,"lon":5.36085,"is_reserved":false,"is_disabled":false,"rental_uris":{"android":"levelo://app?vid=38e3465c-e2e3-418e-8cd0-09a37499a82b","ios":"levelo://app?vid=38e3465c-e2e3-418e-8cd0-09a37499a82b"},"vehicle_type_id":"4","last_reported":1722877620,"current_range_meters":30400,"station_id":"ce4bhbh2rcd13ifvqeqg","pricing_plan_id":"cebpf4jnsgd1na2vs0mg"},{"bike_id":"81b65aea-4b61-47e1-8e9f-541ab14e4dbd","system_id":"levelo_inurba_marseille","lat":43.292311,"lon":5.360731,"is_reserved":false,"is_disabled":false,"rental_uris":{"android":"levelo://app?vid=81b65aea-4b61-47e1-8e9f-541ab14e4dbd","ios":"levelo://app?vid=81b65aea-4b61-47e1-8e9f-541ab14e4dbd"},"vehicle_type_id":"4","last_reported":1722877620,"current_range_meters":23200,"station_id":"ce4bhbh2rcd13ifvqeqg","pricing_plan_id":"cebpf4jnsgd1na2vs0mg"},{"bike_id":"96cce501-0e43-4fdd-bd14-efaa0c80b5b8","system_id":"levelo_inurba_marseille","lat":43.313667,"lon":5.396,"is_reserved":false,"is_disabled":false,"rental_uris":{"android":"levelo://app?vid=96cce501-0e43-4fdd-bd14-efaa0c80b5b8","ios":"levelo://app?vid=96cce501-0e43-4fdd-bd14-efaa0c80b5b8"},"vehicle_type_id":"4","last_reported":1722877620,"current_range_meters":12400,"station_id":"","pricing_plan_id":"cebpf4jnsgd1na2vs0mg"},{"bike_id":"87a60966-9aeb-43f5-b200-694209bae2a1","system_id":"levelo_inurba_marseille","lat":43.298764,"lon":5.388973,"is_reserved":false,"is_disabled":false,"rental_uris":{"android":"levelo://app?vid=87a60966-9aeb-43f5-b200-694209bae2a1","ios":"levelo://app?vid=87a60966-9aeb-43f5-b200-694209bae2a1"},"vehicle_type_id":"4","last_reported":1722877620,"current_range_meters":29200,"station_id":"ce4bh392rcd13ifvqdl0","pricing_plan_id":"cebpf4jnsgd1na2vs0mg"},{"bike_id":"3ff19df2-541d-4b30-b861-575b647693e4","system_id":"levelo_inurba_marseille","lat":43.298764,"lon":5.388973,"is_reserved":false,"is_disabled":false,"rental_uris":{"android":"levelo://app?vid=3ff19df2-541d-4b30-b861-575b647693e4","ios":"levelo://app?vid=3ff19df2-541d-4b30-b861-575b647693e4"},"vehicle_type_id":"4","last_reported":1722877620,"current_range_meters":23200,"station_id":"ce4bh392rcd13ifvqdl0","pricing_plan_id":"cebpf4jnsgd1na2vs0mg"},{"bike_id":"c3a45e0c-cbd1-48c8-abec-e36322aa0b91","system_id":"levelo_inurba_marseille","lat":43.291671,"lon":5.371575,"is_reserved":false,"is_disabled":false,"rental_uris":{"android":"levelo://app?vid=c3a45e0c-cbd1-48c8-abec-e36322aa0b91","ios":"levelo://app?vid=c3a45e0c-cbd1-48c8-abec-e36322aa0b91"},"vehicle_type_id":"4","last_reported":1722877620,"current_range_meters":0,"station_id":"ce4bha92rcd13ifvqeh0","pricing_plan_id":"cebpf4jnsgd1na2vs0mg"},{"bike_id":"ac4e78e6-aaec-4eb4-a869-ae30dff89326","system_id":"levelo_inurba_marseille","lat":43.292005,"lon":5.357875,"is_reserved":false,"is_disabled":false,"rental_uris":{"android":"levelo://app?vid=ac4e78e6-aaec-4eb4-a869-ae30dff89326","ios":"levelo://app?vid=ac4e78e6-aaec-4eb4-a869-ae30dff89326"},"vehicle_type_id":"4","last_reported":1722877620,"current_range_meters":3600,"station_id":"ce4bhb12rcd13ifvqel0","pricing_plan_id":"cebpf4jnsgd1na2vs0mg"},{"bike_id":"7dfa017b-71bb-44c7-9298-188964ea9fe1","system_id":"levelo_inurba_marseille","lat":43.292005,"lon":5.357875,"is_reserved":false,"is_disabled":false,"rental_uris":{"android":"levelo://app?vid=7dfa017b-71bb-44c7-9298-188964ea9fe1","ios":"levelo://app?vid=7dfa017b-71bb-44c7-9298-188964ea9fe1"},"vehicle_type_id":"4","last_reported":1722877620,"current_range_meters":1600,"station_id":"ce4bhb12rcd13ifvqel0","pricing_plan_id":"cebpf4jnsgd1na2vs0mg"},{"bike_id":"004d3877-1fe1-436b-be4d-cac50d6d793d","system_id":"levelo_inurba_marseille","lat":43.313291,"lon":5.396838,"is_reserved":false,"is_disabled":false,"rental_uris":{"android":"levelo://app?vid=004d3877-1fe1-436b-be4d-cac50d6d793d","ios":"levelo://app?vid=004d3877-1fe1-436b-be4d-cac50d6d793d"},"vehicle_type_id":"4","last_reported":1722877620,"current_range_meters":0,"station_id":"ce4bgvp2rcd13ifvqcu0","pricing_plan_id":"cebpf4jnsgd1na2vs0mg"},{"bike_id":"03aea34f-affc-469e-b63d-70765697dda5","system_id":"levelo_inurba_marseille","lat":43.291994,"lon":5.357886,"is_reserved":false,"is_disabled":false,"rental_uris":{"android":"levelo://app?vid=03aea34f-affc-469e-b63d-70765697dda5","ios":"levelo://app?vid=03aea34f-affc-469e-b63d-70765697dda5"},"vehicle_type_id":"4","last_reported":1722877620,"current_range_meters":10000,"station_id":"ce4bhb12rcd13ifvqel0","pricing_plan_id":"cebpf4jnsgd1na2vs0mg"},{"bike_id":"3c0de8e9-bfbb-4383-b747-559b3c31534b","system_id":"levelo_inurba_marseille","lat":43.291994,"lon":5.357886,"is_reserved":false,"is_disabled":false,"rental_uris":{"android":"levelo://app?vid=3c0de8e9-bfbb-4383-b747-559b3c31534b","ios":"levelo://app?vid=3c0de8e9-bfbb-4383-b747-559b3c31534b"},"vehicle_type_id":"4","last_reported":1722877620,"current_range_meters":6800,"station_id":"ce4bhb12rcd13ifvqel0","pricing_plan_id":"cebpf4jnsgd1na2vs0mg"},{"bike_id":"bdf9f0f1-2459-4c10-83cd-3e378dbd7a41","system_id":"levelo_inurba_marseille","lat":43.291994,"lon":5.357886,"is_reserved":false,"is_disabled":false,"rental_uris":{"android":"levelo://app?vid=bdf9f0f1-2459-4c10-83cd-3e378dbd7a41","ios":"levelo://app?vid=bdf9f0f1-2459-4c10-83cd-3e378dbd7a41"},"vehicle_type_id":"4","last_reported":1722877620,"current_range_meters":22800,"station_id":"ce4bhb12rcd13ifvqel0","pricing_plan_id":"cebpf4jnsgd1na2vs0mg"},{"bike_id":"231ac023-efc8-4a56-821f-41d848d14cf4","system_id":"levelo_inurba_marseille","lat":43.292005,"lon":5.357875,"is_reserved":false,"is_disabled":false,"rental_uris":{"android":"levelo://app?vid=231ac023-efc8-4a56-821f-41d848d14cf4","ios":"levelo://app?vid=231ac023-efc8-4a56-821f-41d848d14cf4"},"vehicle_type_id":"4","last_reported":1722877620,"current_range_meters":11200,"station_id":"ce4bhb12rcd13ifvqel0","pricing_plan_id":"cebpf4jnsgd1na2vs0mg"},{"bike_id":"09ddbf40-4f81-4742-b178-c7ac3c374269","system_id":"levelo_inurba_marseille","lat":43.292005,"lon":5.357875,"is_reserved":false,"is_disabled":false,"rental_uris":{"android":"levelo://app?vid=09ddbf40-4f81-4742-b178-c7ac3c374269","ios":"levelo://app?vid=09ddbf40-4f81-4742-b178-c7ac3c374269"},"vehicle_type_id":"4","last_reported":1722877620,"current_range_meters":800,"station_id":"ce4bhb12rcd13ifvqel0","pricing_plan_id":"cebpf4jnsgd1na2vs0mg"},{"bike_id":"a53676d7-dd83-41d2-8bee-4e20394ea88f","system_id":"levelo_inurba_marseille","lat":43.29083,"lon":5.366985,"is_reserved":false,"is_disabled":false,"rental_uris":{"android":"levelo://app?vid=a53676d7-dd83-41d2-8bee-4e20394ea88f","ios":"levelo://app?vid=a53676d7-dd83-41d2-8bee-4e20394ea88f"},"vehicle_type_id":"4","last_reported":1722877620,"current_range_meters":11600,"station_id":"","pricing_plan_id":"cebpf4jnsgd1na2vs0mg"},{"bike_id":"570e6514-685a-4e52-91ac-80842d09517d","system_id":"levelo_inurba_marseille","lat":43.290779,"lon":5.371482,"is_reserved":false,"is_disabled":false,"rental_uris":{"android":"levelo://app?vid=570e6514-685a-4e52-91ac-80842d09517d","ios":"levelo://app?vid=570e6514-685a-4e52-91ac-80842d09517d"},"vehicle_type_id":"4","last_reported":1722877620,"current_range_meters":0,"station_id":"ce4bh5p2rcd13ifvqe4g","pricing_plan_id":"cebpf4jnsgd1na2vs0mg"},{"bike_id":"c5f47014-0614-4e27-9933-0523e2baf440","system_id":"levelo_inurba_marseille","lat":43.290327,"lon":5.375711,"is_reserved":false,"is_disabled":false,"rental_uris":{"android":"levelo://app?vid=c5f47014-0614-4e27-9933-0523e2baf440","ios":"levelo://app?vid=c5f47014-0614-4e27-9933-0523e2baf440"},"vehicle_type_id":"4","last_reported":1722877620,"current_range_meters":0,"station_id":"ce4bh692rcd13ifvqe90","pricing_plan_id":"cebpf4jnsgd1na2vs0mg"},{"bike_id":"adf66562-08fb-4a97-bc30-0dfd6bd6932e","system_id":"levelo_inurba_marseille","lat":43.29416,"lon":5.38628,"is_reserved":false,"is_disabled":false,"rental_uris":{"android":"levelo://app?vid=adf66562-08fb-4a97-bc30-0dfd6bd6932e","ios":"levelo://app?vid=adf66562-08fb-4a97-bc30-0dfd6bd6932e"},"vehicle_type_id":"4","last_reported":1722877620,"current_range_meters":0,"station_id":"ce4bh2h2rcd13ifvqdh0","pricing_plan_id":"cebpf4jnsgd1na2vs0mg"},{"bike_id":"4f433887-845e-4115-858a-125389eee76a","system_id":"levelo_inurba_marseille","lat":43.294162,"lon":5.386292,"is_reserved":false,"is_disabled":false,"rental_uris":{"android":"levelo://app?vid=4f433887-845e-4115-858a-125389eee76a","ios":"levelo://app?vid=4f433887-845e-4115-858a-125389eee76a"},"vehicle_type_id":"4","last_reported":1722877620,"current_range_meters":8000,"station_id":"ce4bh2h2rcd13ifvqdh0","pricing_plan_id":"cebpf4jnsgd1na2vs0mg"},{"bike_id":"9a221124-d4f8-44ef-9c0a-3ade78494d21","system_id":"levelo_inurba_marseille","lat":43.28941,"lon":5.36637,"is_reserved":false,"is_disabled":false,"rental_uris":{"android":"levelo://app?vid=9a221124-d4f8-44ef-9c0a-3ade78494d21","ios":"levelo://app?vid=9a221124-d4f8-44ef-9c0a-3ade78494d21"},"vehicle_type_id":"4","last_reported":1722877620,"current_range_meters":0,"station_id":"ce4bhap2rcd13ifvqek0","pricing_plan_id":"cebpf4jnsgd1na2vs0mg"},{"bike_id":"d082c5ea-d692-47b2-a6e9-65bbd9761fa9","system_id":"levelo_inurba_marseille","lat":43.289184,"lon":5.366408,"is_reserved":false,"is_disabled":false,"rental_uris":{"android":"levelo://app?vid=d082c5ea-d692-47b2-a6e9-65bbd9761fa9","ios":"levelo://app?vid=d082c5ea-d692-47b2-a6e9-65bbd9761fa9"},"vehicle_type_id":"4","last_reported":1722877620,"current_range_meters":16800,"station_id":"ce4bhap2rcd13ifvqek0","pricing_plan_id":"cebpf4jnsgd1na2vs0mg"},{"bike_id":"42e95b41-1f24-4866-9b6d-cd909bdfb5ae","system_id":"levelo_inurba_marseille","lat":43.289184,"lon":5.366408,"is_reserved":false,"is_disabled":false,"rental_uris":{"android":"levelo://app?vid=42e95b41-1f24-4866-9b6d-cd909bdfb5ae","ios":"levelo://app?vid=42e95b41-1f24-4866-9b6d-cd909bdfb5ae"},"vehicle_type_id":"4","last_reported":1722877620,"current_range_meters":4400,"station_id":"ce4bhap2rcd13ifvqek0","pricing_plan_id":"cebpf4jnsgd1na2vs0mg"},{"bike_id":"fe165ff8-fddf-4c72-bb97-2e1196fe911e","system_id":"levelo_inurba_marseille","lat":43.289317,"lon":5.36411,"is_reserved":false,"is_disabled":false,"rental_uris":{"android":"levelo://app?vid=fe165ff8-fddf-4c72-bb97-2e1196fe911e","ios":"levelo://app?vid=fe165ff8-fddf-4c72-bb97-2e1196fe911e"},"vehicle_type_id":"4","last_reported":1722877620,"current_range_meters":400,"station_id":"ce4bhc92rcd13ifvqetg","pricing_plan_id":"cebpf4jnsgd1na2vs0mg"},{"bike_id":"9013dc40-bdc6-460b-ac0f-56d4bdc69a69","system_id":"levelo_inurba_marseille","lat":43.289468,"lon":5.363719,"is_reserved":false,"is_disabled":false,"rental_uris":{"android":"levelo://app?vid=9013dc40-bdc6-460b-ac0f-56d4bdc69a69","ios":"levelo://app?vid=9013dc40-bdc6-460b-ac0f-56d4bdc69a69"},"vehicle_type_id":"4","last_reported":1722877620,"current_range_meters":0,"station_id":"ce4bhc92rcd13ifvqetg","pricing_plan_id":"cebpf4jnsgd1na2vs0mg"},{"bike_id":"b562229b-94ba-44a6-8772-0e328f923657","system_id":"levelo_inurba_marseille","lat":43.294162,"lon":5.386292,"is_reserved":false,"is_disabled":false,"rental_uris":{"android":"levelo://app?vid=b562229b-94ba-44a6-8772-0e328f923657","ios":"levelo://app?vid=b562229b-94ba-44a6-8772-0e328f923657"},"vehicle_type_id":"4","last_reported":1722877620,"current_range_meters":0,"station_id":"ce4bh2h2rcd13ifvqdh0","pricing_plan_id":"cebpf4jnsgd1na2vs0mg"},{"bike_id":"d74d8c9e-b133-4bba-85fa-603ba5255a09","system_id":"levelo_inurba_marseille","lat":43.292642,"lon":5.384254,"is_reserved":false,"is_disabled":false,"rental_uris":{"android":"levelo://app?vid=d74d8c9e-b133-4bba-85fa-603ba5255a09","ios":"levelo://app?vid=d74d8c9e-b133-4bba-85fa-603ba5255a09"},"vehicle_type_id":"4","last_reported":1722877620,"current_range_meters":3200,"station_id":"ce4bh692rcd13ifvqea0","pricing_plan_id":"cebpf4jnsgd1na2vs0mg"},{"bike_id":"19eb32b7-bda4-4a14-8546-43e56cd423b2","system_id":"levelo_inurba_marseille","lat":43.29266,"lon":5.38436,"is_reserved":false,"is_disabled":false,"rental_uris":{"android":"levelo://app?vid=19eb32b7-bda4-4a14-8546-43e56cd423b2","ios":"levelo://app?vid=19eb32b7-bda4-4a14-8546-43e56cd423b2"},"vehicle_type_id":"4","last_reported":1722877620,"current_range_meters":0,"station_id":"ce4bh692rcd13ifvqea0","pricing_plan_id":"cebpf4jnsgd1na2vs0mg"},{"bike_id":"c32d058f-565d-4b9b-a7d1-df719d02389c","system_id":"levelo_inurba_marseille","lat":43.2926,"lon":5.38446,"is_reserved":false,"is_disabled":false,"rental_uris":{"android":"levelo://app?vid=c32d058f-565d-4b9b-a7d1-df719d02389c","ios":"levelo://app?vid=c32d058f-565d-4b9b-a7d1-df719d02389c"},"vehicle_type_id":"4","last_reported":1722877620,"current_range_meters":0,"station_id":"ce4bh692rcd13ifvqea0","pricing_plan_id":"cebpf4jnsgd1na2vs0mg"},{"bike_id":"d9aaffd0-e767-4047-93c4-cc5eb6829992","system_id":"levelo_inurba_marseille","lat":43.30413,"lon":5.39749,"is_reserved":false,"is_disabled":false,"rental_uris":{"android":"levelo://app?vid=d9aaffd0-e767-4047-93c4-cc5eb6829992","ios":"levelo://app?vid=d9aaffd0-e767-4047-93c4-cc5eb6829992"},"vehicle_type_id":"4","last_reported":1722877620,"current_range_meters":0,"station_id":"ce4bh092rcd13ifvqd20","pricing_plan_id":"cebpf4jnsgd1na2vs0mg"},{"bike_id":"1de7e0ed-9659-45c6-9518-22de7cc65e4c","system_id":"levelo_inurba_marseille","lat":43.29254,"lon":5.38441,"is_reserved":false,"is_disabled":false,"rental_uris":{"android":"levelo://app?vid=1de7e0ed-9659-45c6-9518-22de7cc65e4c","ios":"levelo://app?vid=1de7e0ed-9659-45c6-9518-22de7cc65e4c"},"vehicle_type_id":"4","last_reported":1722877620,"current_range_meters":0,"station_id":"ce4bh692rcd13ifvqea0","pricing_plan_id":"cebpf4jnsgd1na2vs0mg"},{"bike_id":"96843bf1-a4dd-41e6-8302-7c8f36db6e50","system_id":"levelo_inurba_marseille","lat":43.29253,"lon":5.38449,"is_reserved":false,"is_disabled":false,"rental_uris":{"android":"levelo://app?vid=96843bf1-a4dd-41e6-8302-7c8f36db6e50","ios":"levelo://app?vid=96843bf1-a4dd-41e6-8302-7c8f36db6e50"},"vehicle_type_id":"4","last_reported":1722877620,"current_range_meters":0,"station_id":"ce4bh692rcd13ifvqea0","pricing_plan_id":"cebpf4jnsgd1na2vs0mg"},{"bike_id":"d4b2bcdd-8d7c-49c5-9b1a-3f22a0674f79","system_id":"levelo_inurba_marseille","lat":43.290104,"lon":5.356111,"is_reserved":false,"is_disabled":false,"rental_uris":{"android":"levelo://app?vid=d4b2bcdd-8d7c-49c5-9b1a-3f22a0674f79","ios":"levelo://app?vid=d4b2bcdd-8d7c-49c5-9b1a-3f22a0674f79"},"vehicle_type_id":"4","last_reported":1722877620,"current_range_meters":20000,"station_id":"ce4bhb92rcd13ifvqen0","pricing_plan_id":"cebpf4jnsgd1na2vs0mg"},{"bike_id":"5cab0652-b7b8-4edd-b098-93f4a432e9c6","system_id":"levelo_inurba_marseille","lat":43.290103,"lon":5.356114,"is_reserved":false,"is_disabled":false,"rental_uris":{"android":"levelo://app?vid=5cab0652-b7b8-4edd-b098-93f4a432e9c6","ios":"levelo://app?vid=5cab0652-b7b8-4edd-b098-93f4a432e9c6"},"vehicle_type_id":"4","last_reported":1722877620,"current_range_meters":400,"station_id":"ce4bhb92rcd13ifvqen0","pricing_plan_id":"cebpf4jnsgd1na2vs0mg"},{"bike_id":"6588efaa-2c0a-4e99-8e0f-cbbf7facb02e","system_id":"levelo_inurba_marseille","lat":43.290104,"lon":5.356111,"is_reserved":false,"is_disabled":false,"rental_uris":{"android":"levelo://app?vid=6588efaa-2c0a-4e99-8e0f-cbbf7facb02e","ios":"levelo://app?vid=6588efaa-2c0a-4e99-8e0f-cbbf7facb02e"},"vehicle_type_id":"4","last_reported":1722877620,"current_range_meters":31200,"station_id":"ce4bhb92rcd13ifvqen0","pricing_plan_id":"cebpf4jnsgd1na2vs0mg"},{"bike_id":"ffe343db-70a4-41c0-850a-755c8a4a03b2","system_id":"levelo_inurba_marseille","lat":43.290104,"lon":5.356111,"is_reserved":false,"is_disabled":false,"rental_uris":{"android":"levelo://app?vid=ffe343db-70a4-41c0-850a-755c8a4a03b2","ios":"levelo://app?vid=ffe343db-70a4-41c0-850a-755c8a4a03b2"},"vehicle_type_id":"4","last_reported":1722877620,"current_range_meters":22400,"station_id":"ce4bhb92rcd13ifvqen0","pricing_plan_id":"cebpf4jnsgd1na2vs0mg"},{"bike_id":"63d0c1a8-930e-4f41-ac28-bcf893cd5574","system_id":"levelo_inurba_marseille","lat":43.290103,"lon":5.356114,"is_reserved":false,"is_disabled":false,"rental_uris":{"android":"levelo://app?vid=63d0c1a8-930e-4f41-ac28-bcf893cd5574","ios":"levelo://app?vid=63d0c1a8-930e-4f41-ac28-bcf893cd5574"},"vehicle_type_id":"4","last_reported":1722877620,"current_range_meters":400,"station_id":"ce4bhb92rcd13ifvqen0","pricing_plan_id":"cebpf4jnsgd1na2vs0mg"},{"bike_id":"1808ee85-2105-43b2-922f-39dd0e83f7b9","system_id":"levelo_inurba_marseille","lat":43.297807,"lon":5.393533,"is_reserved":false,"is_disabled":false,"rental_uris":{"android":"levelo://app?vid=1808ee85-2105-43b2-922f-39dd0e83f7b9","ios":"levelo://app?vid=1808ee85-2105-43b2-922f-39dd0e83f7b9"},"vehicle_type_id":"4","last_reported":1722877620,"current_range_meters":24400,"station_id":"chh1huq6cuj3fo74tm60","pricing_plan_id":"cebpf4jnsgd1na2vs0mg"},{"bike_id":"2b8d5008-8d34-46e1-9d98-6d7fbab84ac4","system_id":"levelo_inurba_marseille","lat":43.29529,"lon":5.39036,"is_reserved":false,"is_disabled":false,"rental_uris":{"android":"levelo://app?vid=2b8d5008-8d34-46e1-9d98-6d7fbab84ac4","ios":"levelo://app?vid=2b8d5008-8d34-46e1-9d98-6d7fbab84ac4"},"vehicle_type_id":"4","last_reported":1722877620,"current_range_meters":0,"station_id":"ce4bh3p2rcd13ifvqdp0","pricing_plan_id":"cebpf4jnsgd1na2vs0mg"},{"bike_id":"547a9a83-ff9e-4956-be8d-a987b628e4f2","system_id":"levelo_inurba_marseille","lat":43.295217,"lon":5.390383,"is_reserved":false,"is_disabled":false,"rental_uris":{"android":"levelo://app?vid=547a9a83-ff9e-4956-be8d-a987b628e4f2","ios":"levelo://app?vid=547a9a83-ff9e-4956-be8d-a987b628e4f2"},"vehicle_type_id":"4","last_reported":1722877620,"current_range_meters":0,"station_id":"ce4bh3p2rcd13ifvqdp0","pricing_plan_id":"cebpf4jnsgd1na2vs0mg"},{"bike_id":"c781c4d1-46ee-4a64-b7e7-e91bfb2ae388","system_id":"levelo_inurba_marseille","lat":43.28964,"lon":5.37831,"is_reserved":false,"is_disabled":false,"rental_uris":{"android":"levelo://app?vid=c781c4d1-46ee-4a64-b7e7-e91bfb2ae388","ios":"levelo://app?vid=c781c4d1-46ee-4a64-b7e7-e91bfb2ae388"},"vehicle_type_id":"4","last_reported":1722877620,"current_range_meters":0,"station_id":"ce4bh9p2rcd13ifvqed0","pricing_plan_id":"cebpf4jnsgd1na2vs0mg"},{"bike_id":"69cb0e53-64aa-48f8-9b50-0c47b394650e","system_id":"levelo_inurba_marseille","lat":43.28856,"lon":5.358371,"is_reserved":false,"is_disabled":false,"rental_uris":{"android":"levelo://app?vid=69cb0e53-64aa-48f8-9b50-0c47b394650e","ios":"levelo://app?vid=69cb0e53-64aa-48f8-9b50-0c47b394650e"},"vehicle_type_id":"4","last_reported":1722877620,"current_range_meters":22000,"station_id":"ce4bhb12rcd13ifvqem0","pricing_plan_id":"cebpf4jnsgd1na2vs0mg"},{"bike_id":"6a23ec28-db8b-4600-9fe2-1f4f3153939a","system_id":"levelo_inurba_marseille","lat":43.28856,"lon":5.358371,"is_reserved":false,"is_disabled":false,"rental_uris":{"android":"levelo://app?vid=6a23ec28-db8b-4600-9fe2-1f4f3153939a","ios":"levelo://app?vid=6a23ec28-db8b-4600-9fe2-1f4f3153939a"},"vehicle_type_id":"4","last_reported":1722877620,"current_range_meters":0,"station_id":"ce4bhb12rcd13ifvqem0","pricing_plan_id":"cebpf4jnsgd1na2vs0mg"},{"bike_id":"1d04f18d-3de7-4581-a6dd-2216a3815087","system_id":"levelo_inurba_marseille","lat":43.312609,"lon":5.401662,"is_reserved":false,"is_disabled":false,"rental_uris":{"android":"levelo://app?vid=1d04f18d-3de7-4581-a6dd-2216a3815087","ios":"levelo://app?vid=1d04f18d-3de7-4581-a6dd-2216a3815087"},"vehicle_type_id":"4","last_reported":1722877620,"current_range_meters":9200,"station_id":"ce4bh092rcd13ifvqd30","pricing_plan_id":"cebpf4jnsgd1na2vs0mg"},{"bike_id":"ac75d8e5-5139-4e43-a64e-51e7994c2517","system_id":"levelo_inurba_marseille","lat":43.337444,"lon":5.374475,"is_reserved":false,"is_disabled":false,"rental_uris":{"android":"levelo://app?vid=ac75d8e5-5139-4e43-a64e-51e7994c2517","ios":"levelo://app?vid=ac75d8e5-5139-4e43-a64e-51e7994c2517"},"vehicle_type_id":"3","last_reported":1722877620,"current_range_meters":24800,"station_id":"","pricing_plan_id":"cebpf4jnsgd1na2vs0mg"},{"bike_id":"23241e99-1df2-433f-a822-f99c239efbab","system_id":"levelo_inurba_marseille","lat":43.33753,"lon":5.37454,"is_reserved":false,"is_disabled":false,"rental_uris":{"android":"levelo://app?vid=23241e99-1df2-433f-a822-f99c239efbab","ios":"levelo://app?vid=23241e99-1df2-433f-a822-f99c239efbab"},"vehicle_type_id":"4","last_reported":1722877620,"current_range_meters":22400,"station_id":"","pricing_plan_id":"cebpf4jnsgd1na2vs0mg"},{"bike_id":"0c81b3c3-f342-4cec-be4b-42cd32773f29","system_id":"levelo_inurba_marseille","lat":43.337574,"lon":5.374593,"is_reserved":false,"is_disabled":false,"rental_uris":{"android":"levelo://app?vid=0c81b3c3-f342-4cec-be4b-42cd32773f29","ios":"levelo://app?vid=0c81b3c3-f342-4cec-be4b-42cd32773f29"},"vehicle_type_id":"4","last_reported":1722877620,"current_range_meters":29600,"station_id":"","pricing_plan_id":"cebpf4jnsgd1na2vs0mg"},{"bike_id":"5915a242-760d-4a1d-abd8-1a0f662c2199","system_id":"levelo_inurba_marseille","lat":43.33764,"lon":5.37468,"is_reserved":false,"is_disabled":false,"rental_uris":{"android":"levelo://app?vid=5915a242-760d-4a1d-abd8-1a0f662c2199","ios":"levelo://app?vid=5915a242-760d-4a1d-abd8-1a0f662c2199"},"vehicle_type_id":"4","last_reported":1722877620,"current_range_meters":23600,"station_id":"","pricing_plan_id":"cebpf4jnsgd1na2vs0mg"},{"bike_id":"31cfa358-4301-46c5-af8a-74decda4b42e","system_id":"levelo_inurba_marseille","lat":43.33775,"lon":5.37478,"is_reserved":false,"is_disabled":false,"rental_uris":{"android":"levelo://app?vid=31cfa358-4301-46c5-af8a-74decda4b42e","ios":"levelo://app?vid=31cfa358-4301-46c5-af8a-74decda4b42e"},"vehicle_type_id":"4","last_reported":1722877620,"current_range_meters":29200,"station_id":"","pricing_plan_id":"cebpf4jnsgd1na2vs0mg"},{"bike_id":"e4ba0f7a-1478-4b62-ad99-eccef4e4ff1d","system_id":"levelo_inurba_marseille","lat":43.309371,"lon":5.401449,"is_reserved":false,"is_disabled":false,"rental_uris":{"android":"levelo://app?vid=e4ba0f7a-1478-4b62-ad99-eccef4e4ff1d","ios":"levelo://app?vid=e4ba0f7a-1478-4b62-ad99-eccef4e4ff1d"},"vehicle_type_id":"4","last_reported":1722877620,"current_range_meters":0,"station_id":"ce4bgvp2rcd13ifvqct0","pricing_plan_id":"cebpf4jnsgd1na2vs0mg"},{"bike_id":"a33f47a9-1e9d-4d60-9013-1404cf4d5236","system_id":"levelo_inurba_marseille","lat":43.28727,"lon":5.36078,"is_reserved":false,"is_disabled":false,"rental_uris":{"android":"levelo://app?vid=a33f47a9-1e9d-4d60-9013-1404cf4d5236","ios":"levelo://app?vid=a33f47a9-1e9d-4d60-9013-1404cf4d5236"},"vehicle_type_id":"4","last_reported":1722877620,"current_range_meters":18400,"station_id":"cki0cbj6b192h4jlfktg","pricing_plan_id":"cebpf4jnsgd1na2vs0mg"},{"bike_id":"c3fac0f4-c8b6-4a7d-9371-818c20ee24d7","system_id":"levelo_inurba_marseille","lat":43.28713,"lon":5.37389,"is_reserved":false,"is_disabled":false,"rental_uris":{"android":"levelo://app?vid=c3fac0f4-c8b6-4a7d-9371-818c20ee24d7","ios":"levelo://app?vid=c3fac0f4-c8b6-4a7d-9371-818c20ee24d7"},"vehicle_type_id":"4","last_reported":1722877620,"current_range_meters":16000,"station_id":"ce4bh3p2rcd13ifvqdq0","pricing_plan_id":"cebpf4jnsgd1na2vs0mg"},{"bike_id":"295f6428-39bc-4c7d-816b-2e58ae8793e2","system_id":"levelo_inurba_marseille","lat":43.298681,"lon":5.397225,"is_reserved":false,"is_disabled":false,"rental_uris":{"android":"levelo://app?vid=295f6428-39bc-4c7d-816b-2e58ae8793e2","ios":"levelo://app?vid=295f6428-39bc-4c7d-816b-2e58ae8793e2"},"vehicle_type_id":"4","last_reported":1722877620,"current_range_meters":4400,"station_id":"ce4bh0h2rcd13ifvqd50","pricing_plan_id":"cebpf4jnsgd1na2vs0mg"},{"bike_id":"821de90f-bb87-4b84-95ec-1e200cc34042","system_id":"levelo_inurba_marseille","lat":43.298681,"lon":5.397225,"is_reserved":false,"is_disabled":false,"rental_uris":{"android":"levelo://app?vid=821de90f-bb87-4b84-95ec-1e200cc34042","ios":"levelo://app?vid=821de90f-bb87-4b84-95ec-1e200cc34042"},"vehicle_type_id":"4","last_reported":1722877620,"current_range_meters":7600,"station_id":"ce4bh0h2rcd13ifvqd50","pricing_plan_id":"cebpf4jnsgd1na2vs0mg"},{"bike_id":"2780ed6c-8bd2-4af6-862f-094f4abe8c1a","system_id":"levelo_inurba_marseille","lat":43.286591,"lon":5.363346,"is_reserved":false,"is_disabled":false,"rental_uris":{"android":"levelo://app?vid=2780ed6c-8bd2-4af6-862f-094f4abe8c1a","ios":"levelo://app?vid=2780ed6c-8bd2-4af6-862f-094f4abe8c1a"},"vehicle_type_id":"4","last_reported":1722877620,"current_range_meters":23600,"station_id":"ce4bhah2rcd13ifvqej0","pricing_plan_id":"cebpf4jnsgd1na2vs0mg"},{"bike_id":"fe1c337f-724f-46eb-a411-1ef87b491510","system_id":"levelo_inurba_marseille","lat":43.286961,"lon":5.373785,"is_reserved":false,"is_disabled":false,"rental_uris":{"android":"levelo://app?vid=fe1c337f-724f-46eb-a411-1ef87b491510","ios":"levelo://app?vid=fe1c337f-724f-46eb-a411-1ef87b491510"},"vehicle_type_id":"4","last_reported":1722877620,"current_range_meters":10400,"station_id":"ce4bh3p2rcd13ifvqdq0","pricing_plan_id":"cebpf4jnsgd1na2vs0mg"},{"bike_id":"76fc73a6-e8f3-4be7-9db5-18c4079464b3","system_id":"levelo_inurba_marseille","lat":43.286961,"lon":5.373785,"is_reserved":false,"is_disabled":false,"rental_uris":{"android":"levelo://app?vid=76fc73a6-e8f3-4be7-9db5-18c4079464b3","ios":"levelo://app?vid=76fc73a6-e8f3-4be7-9db5-18c4079464b3"},"vehicle_type_id":"4","last_reported":1722877620,"current_range_meters":0,"station_id":"ce4bh3p2rcd13ifvqdq0","pricing_plan_id":"cebpf4jnsgd1na2vs0mg"},{"bike_id":"f6ca6038-0fb3-41b2-b252-40684c7d9ada","system_id":"levelo_inurba_marseille","lat":43.289307,"lon":5.38406,"is_reserved":false,"is_disabled":false,"rental_uris":{"android":"levelo://app?vid=f6ca6038-0fb3-41b2-b252-40684c7d9ada","ios":"levelo://app?vid=f6ca6038-0fb3-41b2-b252-40684c7d9ada"},"vehicle_type_id":"4","last_reported":1722877620,"current_range_meters":0,"station_id":"ce4bh612rcd13ifvqe6g","pricing_plan_id":"cebpf4jnsgd1na2vs0mg"},{"bike_id":"42655e93-6eec-4811-966d-991ea016b040","system_id":"levelo_inurba_marseille","lat":43.302759,"lon":5.400793,"is_reserved":false,"is_disabled":false,"rental_uris":{"android":"levelo://app?vid=42655e93-6eec-4811-966d-991ea016b040","ios":"levelo://app?vid=42655e93-6eec-4811-966d-991ea016b040"},"vehicle_type_id":"4","last_reported":1722877620,"current_range_meters":0,"station_id":"ce4bgvh2rcd13ifvqcs0","pricing_plan_id":"cebpf4jnsgd1na2vs0mg"},{"bike_id":"4da2fa1c-0e64-4b6c-97b9-cfdf91f6d87a","system_id":"levelo_inurba_marseille","lat":43.286039,"lon":5.370681,"is_reserved":false,"is_disabled":false,"rental_uris":{"android":"levelo://app?vid=4da2fa1c-0e64-4b6c-97b9-cfdf91f6d87a","ios":"levelo://app?vid=4da2fa1c-0e64-4b6c-97b9-cfdf91f6d87a"},"vehicle_type_id":"4","last_reported":1722877620,"current_range_meters":16800,"station_id":"ce4bht12rcd13ifvqi60","pricing_plan_id":"cebpf4jnsgd1na2vs0mg"},{"bike_id":"7937ee0b-6394-44db-8f2b-96d113dd1640","system_id":"levelo_inurba_marseille","lat":43.286039,"lon":5.370681,"is_reserved":false,"is_disabled":false,"rental_uris":{"android":"levelo://app?vid=7937ee0b-6394-44db-8f2b-96d113dd1640","ios":"levelo://app?vid=7937ee0b-6394-44db-8f2b-96d113dd1640"},"vehicle_type_id":"4","last_reported":1722877620,"current_range_meters":7600,"station_id":"ce4bht12rcd13ifvqi60","pricing_plan_id":"cebpf4jnsgd1na2vs0mg"},{"bike_id":"675f5fdc-add9-4288-b732-be1faac96a9a","system_id":"levelo_inurba_marseille","lat":43.286039,"lon":5.370679,"is_reserved":false,"is_disabled":false,"rental_uris":{"android":"levelo://app?vid=675f5fdc-add9-4288-b732-be1faac96a9a","ios":"levelo://app?vid=675f5fdc-add9-4288-b732-be1faac96a9a"},"vehicle_type_id":"4","last_reported":1722877620,"current_range_meters":0,"station_id":"ce4bht12rcd13ifvqi60","pricing_plan_id":"cebpf4jnsgd1na2vs0mg"},{"bike_id":"86be3aa2-b9d6-4cc7-b8df-540dc5575e16","system_id":"levelo_inurba_marseille","lat":43.286039,"lon":5.370681,"is_reserved":false,"is_disabled":false,"rental_uris":{"android":"levelo://app?vid=86be3aa2-b9d6-4cc7-b8df-540dc5575e16","ios":"levelo://app?vid=86be3aa2-b9d6-4cc7-b8df-540dc5575e16"},"vehicle_type_id":"4","last_reported":1722877620,"current_range_meters":8800,"station_id":"ce4bht12rcd13ifvqi60","pricing_plan_id":"cebpf4jnsgd1na2vs0mg"},{"bike_id":"4aa19c4f-090a-4e07-8bd8-8125de536308","system_id":"levelo_inurba_marseille","lat":43.286039,"lon":5.370681,"is_reserved":false,"is_disabled":false,"rental_uris":{"android":"levelo://app?vid=4aa19c4f-090a-4e07-8bd8-8125de536308","ios":"levelo://app?vid=4aa19c4f-090a-4e07-8bd8-8125de536308"},"vehicle_type_id":"4","last_reported":1722877620,"current_range_meters":0,"station_id":"ce4bht12rcd13ifvqi60","pricing_plan_id":"cebpf4jnsgd1na2vs0mg"},{"bike_id":"55fe44f1-5bde-45db-995a-3e0b67e7b4e4","system_id":"levelo_inurba_marseille","lat":43.287184,"lon":5.37937,"is_reserved":false,"is_disabled":false,"rental_uris":{"android":"levelo://app?vid=55fe44f1-5bde-45db-995a-3e0b67e7b4e4","ios":"levelo://app?vid=55fe44f1-5bde-45db-995a-3e0b67e7b4e4"},"vehicle_type_id":"4","last_reported":1722877620,"current_range_meters":0,"station_id":"ce4bh9p2rcd13ifvqec0","pricing_plan_id":"cebpf4jnsgd1na2vs0mg"},{"bike_id":"ce02ef12-e8fb-4af0-8ced-33d449574d76","system_id":"levelo_inurba_marseille","lat":43.28657,"lon":5.37884,"is_reserved":false,"is_disabled":false,"rental_uris":{"android":"levelo://app?vid=ce02ef12-e8fb-4af0-8ced-33d449574d76","ios":"levelo://app?vid=ce02ef12-e8fb-4af0-8ced-33d449574d76"},"vehicle_type_id":"4","last_reported":1722877620,"current_range_meters":5200,"station_id":"","pricing_plan_id":"cebpf4jnsgd1na2vs0mg"},{"bike_id":"eed08693-6fae-480e-b817-e115ffb742d2","system_id":"levelo_inurba_marseille","lat":43.286224,"lon":5.379564,"is_reserved":false,"is_disabled":false,"rental_uris":{"android":"levelo://app?vid=eed08693-6fae-480e-b817-e115ffb742d2","ios":"levelo://app?vid=eed08693-6fae-480e-b817-e115ffb742d2"},"vehicle_type_id":"4","last_reported":1722877620,"current_range_meters":0,"station_id":"","pricing_plan_id":"cebpf4jnsgd1na2vs0mg"},{"bike_id":"aa3a8550-1445-4b08-8b3b-bd436da76b04","system_id":"levelo_inurba_marseille","lat":43.291994,"lon":5.392907,"is_reserved":false,"is_disabled":false,"rental_uris":{"android":"levelo://app?vid=aa3a8550-1445-4b08-8b3b-bd436da76b04","ios":"levelo://app?vid=aa3a8550-1445-4b08-8b3b-bd436da76b04"},"vehicle_type_id":"4","last_reported":1722877620,"current_range_meters":4400,"station_id":"ce4bh192rcd13ifvqdd0","pricing_plan_id":"cebpf4jnsgd1na2vs0mg"},{"bike_id":"8df99adc-2f9d-417b-bedd-5886537dad8d","system_id":"levelo_inurba_marseille","lat":43.291994,"lon":5.392907,"is_reserved":false,"is_disabled":false,"rental_uris":{"android":"levelo://app?vid=8df99adc-2f9d-417b-bedd-5886537dad8d","ios":"levelo://app?vid=8df99adc-2f9d-417b-bedd-5886537dad8d"},"vehicle_type_id":"4","last_reported":1722877620,"current_range_meters":4000,"station_id":"ce4bh192rcd13ifvqdd0","pricing_plan_id":"cebpf4jnsgd1na2vs0mg"},{"bike_id":"7ae951e0-65d8-4349-bbd9-f8c43436296e","system_id":"levelo_inurba_marseille","lat":43.291994,"lon":5.392907,"is_reserved":false,"is_disabled":false,"rental_uris":{"android":"levelo://app?vid=7ae951e0-65d8-4349-bbd9-f8c43436296e","ios":"levelo://app?vid=7ae951e0-65d8-4349-bbd9-f8c43436296e"},"vehicle_type_id":"4","last_reported":1722877620,"current_range_meters":2800,"station_id":"ce4bh192rcd13ifvqdd0","pricing_plan_id":"cebpf4jnsgd1na2vs0mg"},{"bike_id":"b03f141e-c963-4fe4-b356-29180d9c3760","system_id":"levelo_inurba_marseille","lat":43.284534,"lon":5.358662,"is_reserved":false,"is_disabled":false,"rental_uris":{"android":"levelo://app?vid=b03f141e-c963-4fe4-b356-29180d9c3760","ios":"levelo://app?vid=b03f141e-c963-4fe4-b356-29180d9c3760"},"vehicle_type_id":"4","last_reported":1722877620,"current_range_meters":23200,"station_id":"ce4bhah2rcd13ifvqei0","pricing_plan_id":"cebpf4jnsgd1na2vs0mg"},{"bike_id":"18798e85-bcb8-4f09-ad3b-374ec142089f","system_id":"levelo_inurba_marseille","lat":43.284538,"lon":5.358657,"is_reserved":false,"is_disabled":false,"rental_uris":{"android":"levelo://app?vid=18798e85-bcb8-4f09-ad3b-374ec142089f","ios":"levelo://app?vid=18798e85-bcb8-4f09-ad3b-374ec142089f"},"vehicle_type_id":"4","last_reported":1722877620,"current_range_meters":23600,"station_id":"ce4bhah2rcd13ifvqei0","pricing_plan_id":"cebpf4jnsgd1na2vs0mg"},{"bike_id":"e062bb41-0ae8-48f2-ac13-02fb9848a239","system_id":"levelo_inurba_marseille","lat":43.284534,"lon":5.358662,"is_reserved":false,"is_disabled":false,"rental_uris":{"android":"levelo://app?vid=e062bb41-0ae8-48f2-ac13-02fb9848a239","ios":"levelo://app?vid=e062bb41-0ae8-48f2-ac13-02fb9848a239"},"vehicle_type_id":"4","last_reported":1722877620,"current_range_meters":14800,"station_id":"ce4bhah2rcd13ifvqei0","pricing_plan_id":"cebpf4jnsgd1na2vs0mg"},{"bike_id":"87505180-5b50-45c2-bd19-ddb14e751e78","system_id":"levelo_inurba_marseille","lat":43.284538,"lon":5.358657,"is_reserved":false,"is_disabled":false,"rental_uris":{"android":"levelo://app?vid=87505180-5b50-45c2-bd19-ddb14e751e78","ios":"levelo://app?vid=87505180-5b50-45c2-bd19-ddb14e751e78"},"vehicle_type_id":"4","last_reported":1722877620,"current_range_meters":27200,"station_id":"ce4bhah2rcd13ifvqei0","pricing_plan_id":"cebpf4jnsgd1na2vs0mg"},{"bike_id":"dbf09247-12fd-4a9b-99c8-fc6074992732","system_id":"levelo_inurba_marseille","lat":43.284538,"lon":5.358657,"is_reserved":false,"is_disabled":false,"rental_uris":{"android":"levelo://app?vid=dbf09247-12fd-4a9b-99c8-fc6074992732","ios":"levelo://app?vid=dbf09247-12fd-4a9b-99c8-fc6074992732"},"vehicle_type_id":"4","last_reported":1722877620,"current_range_meters":14800,"station_id":"ce4bhah2rcd13ifvqei0","pricing_plan_id":"cebpf4jnsgd1na2vs0mg"},{"bike_id":"b41d3ac8-d77a-4f9e-b54f-75622902660e","system_id":"levelo_inurba_marseille","lat":43.294314,"lon":5.397498,"is_reserved":false,"is_disabled":false,"rental_uris":{"android":"levelo://app?vid=b41d3ac8-d77a-4f9e-b54f-75622902660e","ios":"levelo://app?vid=b41d3ac8-d77a-4f9e-b54f-75622902660e"},"vehicle_type_id":"4","last_reported":1722877620,"current_range_meters":4000,"station_id":"ce4bh3h2rcd13ifvqdo0","pricing_plan_id":"cebpf4jnsgd1na2vs0mg"},{"bike_id":"6bda14dc-95f8-4f24-8692-591aad1efa29","system_id":"levelo_inurba_marseille","lat":43.28618,"lon":5.35111,"is_reserved":false,"is_disabled":false,"rental_uris":{"android":"levelo://app?vid=6bda14dc-95f8-4f24-8692-591aad1efa29","ios":"levelo://app?vid=6bda14dc-95f8-4f24-8692-591aad1efa29"},"vehicle_type_id":"4","last_reported":1722877620,"current_range_meters":3600,"station_id":"ce4bhch2rcd13ifvqeug","pricing_plan_id":"cebpf4jnsgd1na2vs0mg"},{"bike_id":"b716f88a-6710-468c-a667-fca53eabe563","system_id":"levelo_inurba_marseille","lat":43.28617,"lon":5.35112,"is_reserved":false,"is_disabled":false,"rental_uris":{"android":"levelo://app?vid=b716f88a-6710-468c-a667-fca53eabe563","ios":"levelo://app?vid=b716f88a-6710-468c-a667-fca53eabe563"},"vehicle_type_id":"4","last_reported":1722877620,"current_range_meters":27200,"station_id":"ce4bhch2rcd13ifvqeug","pricing_plan_id":"cebpf4jnsgd1na2vs0mg"},{"bike_id":"a684b765-3112-470a-aa87-37bfc6b6fb83","system_id":"levelo_inurba_marseille","lat":43.33208,"lon":5.39656,"is_reserved":false,"is_disabled":false,"rental_uris":{"android":"levelo://app?vid=a684b765-3112-470a-aa87-37bfc6b6fb83","ios":"levelo://app?vid=a684b765-3112-470a-aa87-37bfc6b6fb83"},"vehicle_type_id":"4","last_reported":1722877620,"current_range_meters":14800,"station_id":"","pricing_plan_id":"cebpf4jnsgd1na2vs0mg"},{"bike_id":"21b6476f-6488-4ceb-a379-6d0ecc9c7c96","system_id":"levelo_inurba_marseille","lat":43.28617,"lon":5.35104,"is_reserved":false,"is_disabled":false,"rental_uris":{"android":"levelo://app?vid=21b6476f-6488-4ceb-a379-6d0ecc9c7c96","ios":"levelo://app?vid=21b6476f-6488-4ceb-a379-6d0ecc9c7c96"},"vehicle_type_id":"4","last_reported":1722877620,"current_range_meters":0,"station_id":"ce4bhch2rcd13ifvqeug","pricing_plan_id":"cebpf4jnsgd1na2vs0mg"},{"bike_id":"9a0df9f6-cb03-4ea2-80ae-def3185ce2b0","system_id":"levelo_inurba_marseille","lat":43.28615,"lon":5.35108,"is_reserved":false,"is_disabled":false,"rental_uris":{"android":"levelo://app?vid=9a0df9f6-cb03-4ea2-80ae-def3185ce2b0","ios":"levelo://app?vid=9a0df9f6-cb03-4ea2-80ae-def3185ce2b0"},"vehicle_type_id":"4","last_reported":1722877620,"current_range_meters":22800,"station_id":"ce4bhch2rcd13ifvqeug","pricing_plan_id":"cebpf4jnsgd1na2vs0mg"},{"bike_id":"36a3d96b-5720-40ee-9879-95875d247dda","system_id":"levelo_inurba_marseille","lat":43.28616,"lon":5.35102,"is_reserved":false,"is_disabled":false,"rental_uris":{"android":"levelo://app?vid=36a3d96b-5720-40ee-9879-95875d247dda","ios":"levelo://app?vid=36a3d96b-5720-40ee-9879-95875d247dda"},"vehicle_type_id":"4","last_reported":1722877620,"current_range_meters":1200,"station_id":"ce4bhch2rcd13ifvqeug","pricing_plan_id":"cebpf4jnsgd1na2vs0mg"},{"bike_id":"b4161ef6-2b5f-4362-8098-25e4e60d9292","system_id":"levelo_inurba_marseille","lat":43.286138,"lon":5.351081,"is_reserved":false,"is_disabled":false,"rental_uris":{"android":"levelo://app?vid=b4161ef6-2b5f-4362-8098-25e4e60d9292","ios":"levelo://app?vid=b4161ef6-2b5f-4362-8098-25e4e60d9292"},"vehicle_type_id":"4","last_reported":1722877620,"current_range_meters":0,"station_id":"ce4bhch2rcd13ifvqeug","pricing_plan_id":"cebpf4jnsgd1na2vs0mg"},{"bike_id":"6ee456da-3ac4-4ca9-b1db-4cc8e703fbc4","system_id":"levelo_inurba_marseille","lat":43.28618,"lon":5.35094,"is_reserved":false,"is_disabled":false,"rental_uris":{"android":"levelo://app?vid=6ee456da-3ac4-4ca9-b1db-4cc8e703fbc4","ios":"levelo://app?vid=6ee456da-3ac4-4ca9-b1db-4cc8e703fbc4"},"vehicle_type_id":"4","last_reported":1722877620,"current_range_meters":30400,"station_id":"ce4bhch2rcd13ifvqeug","pricing_plan_id":"cebpf4jnsgd1na2vs0mg"},{"bike_id":"0f9fd966-2d8f-4948-9229-9f4ce250cdaa","system_id":"levelo_inurba_marseille","lat":43.28615,"lon":5.35103,"is_reserved":false,"is_disabled":false,"rental_uris":{"android":"levelo://app?vid=0f9fd966-2d8f-4948-9229-9f4ce250cdaa","ios":"levelo://app?vid=0f9fd966-2d8f-4948-9229-9f4ce250cdaa"},"vehicle_type_id":"4","last_reported":1722877620,"current_range_meters":6800,"station_id":"ce4bhch2rcd13ifvqeug","pricing_plan_id":"cebpf4jnsgd1na2vs0mg"},{"bike_id":"dd77d68f-f83b-46dc-8c47-62d2cd142cc5","system_id":"levelo_inurba_marseille","lat":43.28616,"lon":5.35099,"is_reserved":false,"is_disabled":false,"rental_uris":{"android":"levelo://app?vid=dd77d68f-f83b-46dc-8c47-62d2cd142cc5","ios":"levelo://app?vid=dd77d68f-f83b-46dc-8c47-62d2cd142cc5"},"vehicle_type_id":"4","last_reported":1722877620,"current_range_meters":30400,"station_id":"ce4bhch2rcd13ifvqeug","pricing_plan_id":"cebpf4jnsgd1na2vs0mg"},{"bike_id":"599f92d2-038c-4c13-a07c-3c47da1b6063","system_id":"levelo_inurba_marseille","lat":43.28615,"lon":5.35101,"is_reserved":false,"is_disabled":false,"rental_uris":{"android":"levelo://app?vid=599f92d2-038c-4c13-a07c-3c47da1b6063","ios":"levelo://app?vid=599f92d2-038c-4c13-a07c-3c47da1b6063"},"vehicle_type_id":"4","last_reported":1722877620,"current_range_meters":15600,"station_id":"ce4bhch2rcd13ifvqeug","pricing_plan_id":"cebpf4jnsgd1na2vs0mg"},{"bike_id":"ac8b5d41-5e40-429e-b74d-b6e1c95e82d2","system_id":"levelo_inurba_marseille","lat":43.28617,"lon":5.35094,"is_reserved":false,"is_disabled":false,"rental_uris":{"android":"levelo://app?vid=ac8b5d41-5e40-429e-b74d-b6e1c95e82d2","ios":"levelo://app?vid=ac8b5d41-5e40-429e-b74d-b6e1c95e82d2"},"vehicle_type_id":"4","last_reported":1722877620,"current_range_meters":25200,"station_id":"ce4bhch2rcd13ifvqeug","pricing_plan_id":"cebpf4jnsgd1na2vs0mg"},{"bike_id":"c06313fb-5dab-4881-9f24-db16af6e44e3","system_id":"levelo_inurba_marseille","lat":43.28615,"lon":5.351,"is_reserved":false,"is_disabled":false,"rental_uris":{"android":"levelo://app?vid=c06313fb-5dab-4881-9f24-db16af6e44e3","ios":"levelo://app?vid=c06313fb-5dab-4881-9f24-db16af6e44e3"},"vehicle_type_id":"4","last_reported":1722877620,"current_range_meters":9200,"station_id":"ce4bhch2rcd13ifvqeug","pricing_plan_id":"cebpf4jnsgd1na2vs0mg"},{"bike_id":"dbe797a1-c3c3-4a7a-be33-6aaab513ba21","system_id":"levelo_inurba_marseille","lat":43.28613,"lon":5.35104,"is_reserved":false,"is_disabled":false,"rental_uris":{"android":"levelo://app?vid=dbe797a1-c3c3-4a7a-be33-6aaab513ba21","ios":"levelo://app?vid=dbe797a1-c3c3-4a7a-be33-6aaab513ba21"},"vehicle_type_id":"4","last_reported":1722877620,"current_range_meters":29600,"station_id":"ce4bhch2rcd13ifvqeug","pricing_plan_id":"cebpf4jnsgd1na2vs0mg"},{"bike_id":"bd7e87ab-eef9-4ac9-b360-f9389d0ee23d","system_id":"levelo_inurba_marseille","lat":43.28615,"lon":5.35097,"is_reserved":false,"is_disabled":false,"rental_uris":{"android":"levelo://app?vid=bd7e87ab-eef9-4ac9-b360-f9389d0ee23d","ios":"levelo://app?vid=bd7e87ab-eef9-4ac9-b360-f9389d0ee23d"},"vehicle_type_id":"4","last_reported":1722877620,"current_range_meters":30800,"station_id":"ce4bhch2rcd13ifvqeug","pricing_plan_id":"cebpf4jnsgd1na2vs0mg"},{"bike_id":"df32d637-f1b4-4fc8-bb9e-e2ce481f06c5","system_id":"levelo_inurba_marseille","lat":43.28615,"lon":5.35095,"is_reserved":false,"is_disabled":false,"rental_uris":{"android":"levelo://app?vid=df32d637-f1b4-4fc8-bb9e-e2ce481f06c5","ios":"levelo://app?vid=df32d637-f1b4-4fc8-bb9e-e2ce481f06c5"},"vehicle_type_id":"4","last_reported":1722877620,"current_range_meters":30800,"station_id":"ce4bhch2rcd13ifvqeug","pricing_plan_id":"cebpf4jnsgd1na2vs0mg"},{"bike_id":"ac6043f8-8c09-4d29-b978-ba7b053ac7fb","system_id":"levelo_inurba_marseille","lat":43.28612,"lon":5.35104,"is_reserved":false,"is_disabled":false,"rental_uris":{"android":"levelo://app?vid=ac6043f8-8c09-4d29-b978-ba7b053ac7fb","ios":"levelo://app?vid=ac6043f8-8c09-4d29-b978-ba7b053ac7fb"},"vehicle_type_id":"4","last_reported":1722877620,"current_range_meters":25600,"station_id":"ce4bhch2rcd13ifvqeug","pricing_plan_id":"cebpf4jnsgd1na2vs0mg"},{"bike_id":"51825d23-9881-4546-b30d-4669c15301c4","system_id":"levelo_inurba_marseille","lat":43.28613,"lon":5.35099,"is_reserved":false,"is_disabled":false,"rental_uris":{"android":"levelo://app?vid=51825d23-9881-4546-b30d-4669c15301c4","ios":"levelo://app?vid=51825d23-9881-4546-b30d-4669c15301c4"},"vehicle_type_id":"4","last_reported":1722877620,"current_range_meters":30400,"station_id":"ce4bhch2rcd13ifvqeug","pricing_plan_id":"cebpf4jnsgd1na2vs0mg"},{"bike_id":"8db32b5c-69f8-4315-b3c4-f8e2782339d2","system_id":"levelo_inurba_marseille","lat":43.283998,"lon":5.375062,"is_reserved":false,"is_disabled":false,"rental_uris":{"android":"levelo://app?vid=8db32b5c-69f8-4315-b3c4-f8e2782339d2","ios":"levelo://app?vid=8db32b5c-69f8-4315-b3c4-f8e2782339d2"},"vehicle_type_id":"4","last_reported":1722877620,"current_range_meters":0,"station_id":"ce4bh412rcd13ifvqds0","pricing_plan_id":"cebpf4jnsgd1na2vs0mg"},{"bike_id":"9271fb93-443e-4313-b442-0172892ec64d","system_id":"levelo_inurba_marseille","lat":43.28612,"lon":5.35102,"is_reserved":false,"is_disabled":false,"rental_uris":{"android":"levelo://app?vid=9271fb93-443e-4313-b442-0172892ec64d","ios":"levelo://app?vid=9271fb93-443e-4313-b442-0172892ec64d"},"vehicle_type_id":"4","last_reported":1722877620,"current_range_meters":8400,"station_id":"ce4bhch2rcd13ifvqeug","pricing_plan_id":"cebpf4jnsgd1na2vs0mg"},{"bike_id":"61fbd72b-05f9-4950-9dc2-07b01f02e0c4","system_id":"levelo_inurba_marseille","lat":43.28611,"lon":5.35103,"is_reserved":false,"is_disabled":false,"rental_uris":{"android":"levelo://app?vid=61fbd72b-05f9-4950-9dc2-07b01f02e0c4","ios":"levelo://app?vid=61fbd72b-05f9-4950-9dc2-07b01f02e0c4"},"vehicle_type_id":"4","last_reported":1722877620,"current_range_meters":31200,"station_id":"ce4bhch2rcd13ifvqeug","pricing_plan_id":"cebpf4jnsgd1na2vs0mg"},{"bike_id":"5a50a428-516c-4005-b8ae-ddcf8e41b908","system_id":"levelo_inurba_marseille","lat":43.285856,"lon":5.350771,"is_reserved":false,"is_disabled":false,"rental_uris":{"android":"levelo://app?vid=5a50a428-516c-4005-b8ae-ddcf8e41b908","ios":"levelo://app?vid=5a50a428-516c-4005-b8ae-ddcf8e41b908"},"vehicle_type_id":"4","last_reported":1722877620,"current_range_meters":23200,"station_id":"ce4bhch2rcd13ifvqeug","pricing_plan_id":"cebpf4jnsgd1na2vs0mg"},{"bike_id":"be663ab1-180e-4430-a923-aefd8a084ba7","system_id":"levelo_inurba_marseille","lat":43.295713,"lon":5.399639,"is_reserved":false,"is_disabled":false,"rental_uris":{"android":"levelo://app?vid=be663ab1-180e-4430-a923-aefd8a084ba7","ios":"levelo://app?vid=be663ab1-180e-4430-a923-aefd8a084ba7"},"vehicle_type_id":"4","last_reported":1722877620,"current_range_meters":400,"station_id":"ce4bh312rcd13ifvqdj0","pricing_plan_id":"cebpf4jnsgd1na2vs0mg"},{"bike_id":"7e48a232-defa-4906-9d89-1ea6f18b99af","system_id":"levelo_inurba_marseille","lat":43.286595,"lon":5.386795,"is_reserved":false,"is_disabled":false,"rental_uris":{"android":"levelo://app?vid=7e48a232-defa-4906-9d89-1ea6f18b99af","ios":"levelo://app?vid=7e48a232-defa-4906-9d89-1ea6f18b99af"},"vehicle_type_id":"4","last_reported":1722877620,"current_range_meters":1200,"station_id":"ce4bh492rcd13ifvqdug","pricing_plan_id":"cebpf4jnsgd1na2vs0mg"},{"bike_id":"cd20ace8-179d-4b91-ac27-bc24574980e1","system_id":"levelo_inurba_marseille","lat":43.319179,"lon":5.407725,"is_reserved":false,"is_disabled":false,"rental_uris":{"android":"levelo://app?vid=cd20ace8-179d-4b91-ac27-bc24574980e1","ios":"levelo://app?vid=cd20ace8-179d-4b91-ac27-bc24574980e1"},"vehicle_type_id":"4","last_reported":1722877620,"current_range_meters":12000,"station_id":"ce4bhq12rcd13ifvqhig","pricing_plan_id":"cebpf4jnsgd1na2vs0mg"},{"bike_id":"511cf34d-ee5c-4147-95a1-b2621975ff00","system_id":"levelo_inurba_marseille","lat":43.28736,"lon":5.389051,"is_reserved":false,"is_disabled":false,"rental_uris":{"android":"levelo://app?vid=511cf34d-ee5c-4147-95a1-b2621975ff00","ios":"levelo://app?vid=511cf34d-ee5c-4147-95a1-b2621975ff00"},"vehicle_type_id":"4","last_reported":1722877620,"current_range_meters":0,"station_id":"","pricing_plan_id":"cebpf4jnsgd1na2vs0mg"},{"bike_id":"78a6c3c8-7828-40a9-8331-c36ab4bef352","system_id":"levelo_inurba_marseille","lat":43.323464,"lon":5.406297,"is_reserved":false,"is_disabled":false,"rental_uris":{"android":"levelo://app?vid=78a6c3c8-7828-40a9-8331-c36ab4bef352","ios":"levelo://app?vid=78a6c3c8-7828-40a9-8331-c36ab4bef352"},"vehicle_type_id":"4","last_reported":1722877620,"current_range_meters":30800,"station_id":"ce4bhq92rcd13ifvqhjg","pricing_plan_id":"cebpf4jnsgd1na2vs0mg"},{"bike_id":"c00abd0c-a2f8-4a07-854a-955a3b330951","system_id":"levelo_inurba_marseille","lat":43.33717,"lon":5.391857,"is_reserved":false,"is_disabled":false,"rental_uris":{"android":"levelo://app?vid=c00abd0c-a2f8-4a07-854a-955a3b330951","ios":"levelo://app?vid=c00abd0c-a2f8-4a07-854a-955a3b330951"},"vehicle_type_id":"4","last_reported":1722877620,"current_range_meters":14800,"station_id":"ce4bhr92rcd13ifvqhsg","pricing_plan_id":"cebpf4jnsgd1na2vs0mg"},{"bike_id":"526914f7-fe07-4c65-a3e1-855112c93a5f","system_id":"levelo_inurba_marseille","lat":43.28261,"lon":5.37285,"is_reserved":false,"is_disabled":false,"rental_uris":{"android":"levelo://app?vid=526914f7-fe07-4c65-a3e1-855112c93a5f","ios":"levelo://app?vid=526914f7-fe07-4c65-a3e1-855112c93a5f"},"vehicle_type_id":"4","last_reported":1722877620,"current_range_meters":1200,"station_id":"","pricing_plan_id":"cebpf4jnsgd1na2vs0mg"},{"bike_id":"8dcd7962-6e42-415f-846f-8d14c06e1834","system_id":"levelo_inurba_marseille","lat":43.33717,"lon":5.391857,"is_reserved":false,"is_disabled":false,"rental_uris":{"android":"levelo://app?vid=8dcd7962-6e42-415f-846f-8d14c06e1834","ios":"levelo://app?vid=8dcd7962-6e42-415f-846f-8d14c06e1834"},"vehicle_type_id":"4","last_reported":1722877620,"current_range_meters":1200,"station_id":"ce4bhr92rcd13ifvqhsg","pricing_plan_id":"cebpf4jnsgd1na2vs0mg"},{"bike_id":"f57f7be1-3911-4029-8d5a-648ecd1001cc","system_id":"levelo_inurba_marseille","lat":43.28254,"lon":5.37286,"is_reserved":false,"is_disabled":false,"rental_uris":{"android":"levelo://app?vid=f57f7be1-3911-4029-8d5a-648ecd1001cc","ios":"levelo://app?vid=f57f7be1-3911-4029-8d5a-648ecd1001cc"},"vehicle_type_id":"4","last_reported":1722877620,"current_range_meters":0,"station_id":"","pricing_plan_id":"cebpf4jnsgd1na2vs0mg"},{"bike_id":"86d6e256-4977-4f87-80ea-f66aee18c326","system_id":"levelo_inurba_marseille","lat":43.337168,"lon":5.391825,"is_reserved":false,"is_disabled":false,"rental_uris":{"android":"levelo://app?vid=86d6e256-4977-4f87-80ea-f66aee18c326","ios":"levelo://app?vid=86d6e256-4977-4f87-80ea-f66aee18c326"},"vehicle_type_id":"4","last_reported":1722877620,"current_range_meters":22000,"station_id":"ce4bhr92rcd13ifvqhsg","pricing_plan_id":"cebpf4jnsgd1na2vs0mg"},{"bike_id":"b9a31c21-0a1a-49af-b5aa-fab3108a2e21","system_id":"levelo_inurba_marseille","lat":43.33717,"lon":5.391857,"is_reserved":false,"is_disabled":false,"rental_uris":{"android":"levelo://app?vid=b9a31c21-0a1a-49af-b5aa-fab3108a2e21","ios":"levelo://app?vid=b9a31c21-0a1a-49af-b5aa-fab3108a2e21"},"vehicle_type_id":"4","last_reported":1722877620,"current_range_meters":20400,"station_id":"ce4bhr92rcd13ifvqhsg","pricing_plan_id":"cebpf4jnsgd1na2vs0mg"},{"bike_id":"d2ccc851-f498-4c86-ac1b-b5b7b1c11741","system_id":"levelo_inurba_marseille","lat":43.284787,"lon":5.384116,"is_reserved":false,"is_disabled":false,"rental_uris":{"android":"levelo://app?vid=d2ccc851-f498-4c86-ac1b-b5b7b1c11741","ios":"levelo://app?vid=d2ccc851-f498-4c86-ac1b-b5b7b1c11741"},"vehicle_type_id":"4","last_reported":1722877620,"current_range_meters":0,"station_id":"ce4bh512rcd13ifvqe3g","pricing_plan_id":"cebpf4jnsgd1na2vs0mg"},{"bike_id":"f53a67af-6f60-449b-bbec-681fcc639d41","system_id":"levelo_inurba_marseille","lat":43.288501,"lon":5.393087,"is_reserved":false,"is_disabled":false,"rental_uris":{"android":"levelo://app?vid=f53a67af-6f60-449b-bbec-681fcc639d41","ios":"levelo://app?vid=f53a67af-6f60-449b-bbec-681fcc639d41"},"vehicle_type_id":"4","last_reported":1722877620,"current_range_meters":0,"station_id":"ce4bh2p2rcd13ifvqdi0","pricing_plan_id":"cebpf4jnsgd1na2vs0mg"},{"bike_id":"3561f215-ff67-4351-90c2-bb46f95876d5","system_id":"levelo_inurba_marseille","lat":43.284776,"lon":5.385603,"is_reserved":false,"is_disabled":false,"rental_uris":{"android":"levelo://app?vid=3561f215-ff67-4351-90c2-bb46f95876d5","ios":"levelo://app?vid=3561f215-ff67-4351-90c2-bb46f95876d5"},"vehicle_type_id":"4","last_reported":1722877620,"current_range_meters":0,"station_id":"ce4bh8p2rcd13ifvqeb0","pricing_plan_id":"cebpf4jnsgd1na2vs0mg"},{"bike_id":"79b97c5a-b22b-47f4-bbec-73879966d611","system_id":"levelo_inurba_marseille","lat":43.288497,"lon":5.393089,"is_reserved":false,"is_disabled":false,"rental_uris":{"android":"levelo://app?vid=79b97c5a-b22b-47f4-bbec-73879966d611","ios":"levelo://app?vid=79b97c5a-b22b-47f4-bbec-73879966d611"},"vehicle_type_id":"4","last_reported":1722877620,"current_range_meters":8800,"station_id":"ce4bh2p2rcd13ifvqdi0","pricing_plan_id":"cebpf4jnsgd1na2vs0mg"},{"bike_id":"d6c57078-10d0-423b-a901-d977a642e6f1","system_id":"levelo_inurba_marseille","lat":43.28487,"lon":5.385519,"is_reserved":false,"is_disabled":false,"rental_uris":{"android":"levelo://app?vid=d6c57078-10d0-423b-a901-d977a642e6f1","ios":"levelo://app?vid=d6c57078-10d0-423b-a901-d977a642e6f1"},"vehicle_type_id":"4","last_reported":1722877620,"current_range_meters":22400,"station_id":"","pricing_plan_id":"cebpf4jnsgd1na2vs0mg"},{"bike_id":"d8c0f760-6e33-44da-927b-cdf981102b07","system_id":"levelo_inurba_marseille","lat":43.2848,"lon":5.38538,"is_reserved":false,"is_disabled":false,"rental_uris":{"android":"levelo://app?vid=d8c0f760-6e33-44da-927b-cdf981102b07","ios":"levelo://app?vid=d8c0f760-6e33-44da-927b-cdf981102b07"},"vehicle_type_id":"4","last_reported":1722877620,"current_range_meters":0,"station_id":"ce4bh8p2rcd13ifvqeb0","pricing_plan_id":"cebpf4jnsgd1na2vs0mg"},{"bike_id":"51bb6bda-81f6-4827-ae3d-0538edc9f004","system_id":"levelo_inurba_marseille","lat":43.284251,"lon":5.349842,"is_reserved":false,"is_disabled":false,"rental_uris":{"android":"levelo://app?vid=51bb6bda-81f6-4827-ae3d-0538edc9f004","ios":"levelo://app?vid=51bb6bda-81f6-4827-ae3d-0538edc9f004"},"vehicle_type_id":"4","last_reported":1722877620,"current_range_meters":23600,"station_id":"ce4bhbh2rcd13ifvqepg","pricing_plan_id":"cebpf4jnsgd1na2vs0mg"},{"bike_id":"4393bc32-777d-4601-ac0e-1336f1f09d08","system_id":"levelo_inurba_marseille","lat":43.28419,"lon":5.35002,"is_reserved":false,"is_disabled":false,"rental_uris":{"android":"levelo://app?vid=4393bc32-777d-4601-ac0e-1336f1f09d08","ios":"levelo://app?vid=4393bc32-777d-4601-ac0e-1336f1f09d08"},"vehicle_type_id":"4","last_reported":1722877620,"current_range_meters":8000,"station_id":"ce4bhbh2rcd13ifvqepg","pricing_plan_id":"cebpf4jnsgd1na2vs0mg"},{"bike_id":"965eece4-6fe9-492c-81bb-3171ef594272","system_id":"levelo_inurba_marseille","lat":43.284204,"lon":5.349942,"is_reserved":false,"is_disabled":false,"rental_uris":{"android":"levelo://app?vid=965eece4-6fe9-492c-81bb-3171ef594272","ios":"levelo://app?vid=965eece4-6fe9-492c-81bb-3171ef594272"},"vehicle_type_id":"4","last_reported":1722877620,"current_range_meters":28400,"station_id":"ce4bhbh2rcd13ifvqepg","pricing_plan_id":"cebpf4jnsgd1na2vs0mg"},{"bike_id":"b5c1f676-d1c7-451c-aa7a-8e205b119022","system_id":"levelo_inurba_marseille","lat":43.28418,"lon":5.34998,"is_reserved":false,"is_disabled":false,"rental_uris":{"android":"levelo://app?vid=b5c1f676-d1c7-451c-aa7a-8e205b119022","ios":"levelo://app?vid=b5c1f676-d1c7-451c-aa7a-8e205b119022"},"vehicle_type_id":"4","last_reported":1722877620,"current_range_meters":8400,"station_id":"ce4bhbh2rcd13ifvqepg","pricing_plan_id":"cebpf4jnsgd1na2vs0mg"},{"bike_id":"70fcfa8e-99b7-41f6-af9e-e2625c8b3acb","system_id":"levelo_inurba_marseille","lat":43.2842,"lon":5.34991,"is_reserved":false,"is_disabled":false,"rental_uris":{"android":"levelo://app?vid=70fcfa8e-99b7-41f6-af9e-e2625c8b3acb","ios":"levelo://app?vid=70fcfa8e-99b7-41f6-af9e-e2625c8b3acb"},"vehicle_type_id":"4","last_reported":1722877620,"current_range_meters":18400,"station_id":"ce4bhbh2rcd13ifvqepg","pricing_plan_id":"cebpf4jnsgd1na2vs0mg"},{"bike_id":"195202bf-da44-4f70-88e9-01c6a709a3e3","system_id":"levelo_inurba_marseille","lat":43.28422,"lon":5.34984,"is_reserved":false,"is_disabled":false,"rental_uris":{"android":"levelo://app?vid=195202bf-da44-4f70-88e9-01c6a709a3e3","ios":"levelo://app?vid=195202bf-da44-4f70-88e9-01c6a709a3e3"},"vehicle_type_id":"4","last_reported":1722877620,"current_range_meters":30800,"station_id":"ce4bhbh2rcd13ifvqepg","pricing_plan_id":"cebpf4jnsgd1na2vs0mg"},{"bike_id":"6adb9851-3c3f-4745-a0ea-8895feaa3f6d","system_id":"levelo_inurba_marseille","lat":43.284217,"lon":5.349697,"is_reserved":false,"is_disabled":false,"rental_uris":{"android":"levelo://app?vid=6adb9851-3c3f-4745-a0ea-8895feaa3f6d","ios":"levelo://app?vid=6adb9851-3c3f-4745-a0ea-8895feaa3f6d"},"vehicle_type_id":"4","last_reported":1722877620,"current_range_meters":30000,"station_id":"ce4bhbh2rcd13ifvqepg","pricing_plan_id":"cebpf4jnsgd1na2vs0mg"},{"bike_id":"b684b24d-7363-4f07-940e-97d2e91526fe","system_id":"levelo_inurba_marseille","lat":43.2842,"lon":5.34979,"is_reserved":false,"is_disabled":false,"rental_uris":{"android":"levelo://app?vid=b684b24d-7363-4f07-940e-97d2e91526fe","ios":"levelo://app?vid=b684b24d-7363-4f07-940e-97d2e91526fe"},"vehicle_type_id":"4","last_reported":1722877620,"current_range_meters":3600,"station_id":"ce4bhbh2rcd13ifvqepg","pricing_plan_id":"cebpf4jnsgd1na2vs0mg"},{"bike_id":"7ac60ff5-b1b1-4841-8c40-6320a6588521","system_id":"levelo_inurba_marseille","lat":43.282645,"lon":5.355884,"is_reserved":false,"is_disabled":false,"rental_uris":{"android":"levelo://app?vid=7ac60ff5-b1b1-4841-8c40-6320a6588521","ios":"levelo://app?vid=7ac60ff5-b1b1-4841-8c40-6320a6588521"},"vehicle_type_id":"4","last_reported":1722877620,"current_range_meters":1600,"station_id":"","pricing_plan_id":"cebpf4jnsgd1na2vs0mg"},{"bike_id":"6c75b5a5-4c61-489b-a7c1-ae8f05a505eb","system_id":"levelo_inurba_marseille","lat":43.28419,"lon":5.34979,"is_reserved":false,"is_disabled":false,"rental_uris":{"android":"levelo://app?vid=6c75b5a5-4c61-489b-a7c1-ae8f05a505eb","ios":"levelo://app?vid=6c75b5a5-4c61-489b-a7c1-ae8f05a505eb"},"vehicle_type_id":"4","last_reported":1722877620,"current_range_meters":9200,"station_id":"ce4bhbh2rcd13ifvqepg","pricing_plan_id":"cebpf4jnsgd1na2vs0mg"},{"bike_id":"eabb4e2e-6026-4b8d-a1dd-8ffc3b87b427","system_id":"levelo_inurba_marseille","lat":43.28417,"lon":5.34984,"is_reserved":false,"is_disabled":false,"rental_uris":{"android":"levelo://app?vid=eabb4e2e-6026-4b8d-a1dd-8ffc3b87b427","ios":"levelo://app?vid=eabb4e2e-6026-4b8d-a1dd-8ffc3b87b427"},"vehicle_type_id":"4","last_reported":1722877620,"current_range_meters":0,"station_id":"ce4bhbh2rcd13ifvqepg","pricing_plan_id":"cebpf4jnsgd1na2vs0mg"},{"bike_id":"d353384c-04b3-48f6-887a-dd5dd345fee4","system_id":"levelo_inurba_marseille","lat":43.28417,"lon":5.34977,"is_reserved":false,"is_disabled":false,"rental_uris":{"android":"levelo://app?vid=d353384c-04b3-48f6-887a-dd5dd345fee4","ios":"levelo://app?vid=d353384c-04b3-48f6-887a-dd5dd345fee4"},"vehicle_type_id":"4","last_reported":1722877620,"current_range_meters":0,"station_id":"ce4bhbh2rcd13ifvqepg","pricing_plan_id":"cebpf4jnsgd1na2vs0mg"},{"bike_id":"a1d8b0ab-ed69-4d40-9dde-a0a840c8ee18","system_id":"levelo_inurba_marseille","lat":43.28413,"lon":5.34989,"is_reserved":false,"is_disabled":false,"rental_uris":{"android":"levelo://app?vid=a1d8b0ab-ed69-4d40-9dde-a0a840c8ee18","ios":"levelo://app?vid=a1d8b0ab-ed69-4d40-9dde-a0a840c8ee18"},"vehicle_type_id":"4","last_reported":1722877620,"current_range_meters":18000,"station_id":"ce4bhbh2rcd13ifvqepg","pricing_plan_id":"cebpf4jnsgd1na2vs0mg"},{"bike_id":"54c308e6-eb8e-4c78-81de-e0ec6b5a8f4f","system_id":"levelo_inurba_marseille","lat":43.28416,"lon":5.34976,"is_reserved":false,"is_disabled":false,"rental_uris":{"android":"levelo://app?vid=54c308e6-eb8e-4c78-81de-e0ec6b5a8f4f","ios":"levelo://app?vid=54c308e6-eb8e-4c78-81de-e0ec6b5a8f4f"},"vehicle_type_id":"4","last_reported":1722877620,"current_range_meters":2400,"station_id":"ce4bhbh2rcd13ifvqepg","pricing_plan_id":"cebpf4jnsgd1na2vs0mg"},{"bike_id":"2fd3d70b-0fcc-4fff-b2db-b670aeba2b5d","system_id":"levelo_inurba_marseille","lat":43.284067,"lon":5.349993,"is_reserved":false,"is_disabled":false,"rental_uris":{"android":"levelo://app?vid=2fd3d70b-0fcc-4fff-b2db-b670aeba2b5d","ios":"levelo://app?vid=2fd3d70b-0fcc-4fff-b2db-b670aeba2b5d"},"vehicle_type_id":"4","last_reported":1722877620,"current_range_meters":31200,"station_id":"ce4bhbh2rcd13ifvqepg","pricing_plan_id":"cebpf4jnsgd1na2vs0mg"},{"bike_id":"b265af86-0cc7-4cff-b077-d7013777d3d8","system_id":"levelo_inurba_marseille","lat":43.28413,"lon":5.34977,"is_reserved":false,"is_disabled":false,"rental_uris":{"android":"levelo://app?vid=b265af86-0cc7-4cff-b077-d7013777d3d8","ios":"levelo://app?vid=b265af86-0cc7-4cff-b077-d7013777d3d8"},"vehicle_type_id":"4","last_reported":1722877620,"current_range_meters":2000,"station_id":"ce4bhbh2rcd13ifvqepg","pricing_plan_id":"cebpf4jnsgd1na2vs0mg"},{"bike_id":"17ff7366-9c4a-4d56-b180-5ef6e0d719cb","system_id":"levelo_inurba_marseille","lat":43.284103,"lon":5.349843,"is_reserved":false,"is_disabled":false,"rental_uris":{"android":"levelo://app?vid=17ff7366-9c4a-4d56-b180-5ef6e0d719cb","ios":"levelo://app?vid=17ff7366-9c4a-4d56-b180-5ef6e0d719cb"},"vehicle_type_id":"4","last_reported":1722877620,"current_range_meters":12400,"station_id":"ce4bhbh2rcd13ifvqepg","pricing_plan_id":"cebpf4jnsgd1na2vs0mg"},{"bike_id":"76247308-069d-4d54-9fa4-ce084e818e16","system_id":"levelo_inurba_marseille","lat":43.284214,"lon":5.349706,"is_reserved":false,"is_disabled":false,"rental_uris":{"android":"levelo://app?vid=76247308-069d-4d54-9fa4-ce084e818e16","ios":"levelo://app?vid=76247308-069d-4d54-9fa4-ce084e818e16"},"vehicle_type_id":"4","last_reported":1722877620,"current_range_meters":23200,"station_id":"ce4bhbh2rcd13ifvqepg","pricing_plan_id":"cebpf4jnsgd1na2vs0mg"},{"bike_id":"855616d9-3ba4-4a60-9de7-715d9bef479e","system_id":"levelo_inurba_marseille","lat":43.284214,"lon":5.349706,"is_reserved":false,"is_disabled":false,"rental_uris":{"android":"levelo://app?vid=855616d9-3ba4-4a60-9de7-715d9bef479e","ios":"levelo://app?vid=855616d9-3ba4-4a60-9de7-715d9bef479e"},"vehicle_type_id":"4","last_reported":1722877620,"current_range_meters":800,"station_id":"ce4bhbh2rcd13ifvqepg","pricing_plan_id":"cebpf4jnsgd1na2vs0mg"},{"bike_id":"ff4e8b68-90de-4158-8a8f-3d7ff3ca3ae3","system_id":"levelo_inurba_marseille","lat":43.28407,"lon":5.34979,"is_reserved":false,"is_disabled":false,"rental_uris":{"android":"levelo://app?vid=ff4e8b68-90de-4158-8a8f-3d7ff3ca3ae3","ios":"levelo://app?vid=ff4e8b68-90de-4158-8a8f-3d7ff3ca3ae3"},"vehicle_type_id":"4","last_reported":1722877620,"current_range_meters":11200,"station_id":"ce4bhbh2rcd13ifvqepg","pricing_plan_id":"cebpf4jnsgd1na2vs0mg"},{"bike_id":"33c41939-56aa-42e9-9f7a-cce1a1b70029","system_id":"levelo_inurba_marseille","lat":43.28396,"lon":5.34998,"is_reserved":false,"is_disabled":false,"rental_uris":{"android":"levelo://app?vid=33c41939-56aa-42e9-9f7a-cce1a1b70029","ios":"levelo://app?vid=33c41939-56aa-42e9-9f7a-cce1a1b70029"},"vehicle_type_id":"4","last_reported":1722877620,"current_range_meters":27600,"station_id":"ce4bhbh2rcd13ifvqepg","pricing_plan_id":"cebpf4jnsgd1na2vs0mg"},{"bike_id":"7b05bbe8-5c5c-4f59-b66c-215bce493fa9","system_id":"levelo_inurba_marseille","lat":43.34259,"lon":5.382424,"is_reserved":false,"is_disabled":false,"rental_uris":{"android":"levelo://app?vid=7b05bbe8-5c5c-4f59-b66c-215bce493fa9","ios":"levelo://app?vid=7b05bbe8-5c5c-4f59-b66c-215bce493fa9"},"vehicle_type_id":"4","last_reported":1722877620,"current_range_meters":0,"station_id":"","pricing_plan_id":"cebpf4jnsgd1na2vs0mg"},{"bike_id":"f22c7ed0-5e01-4f12-89e7-d3e995892ffa","system_id":"levelo_inurba_marseille","lat":43.34223,"lon":5.38425,"is_reserved":false,"is_disabled":false,"rental_uris":{"android":"levelo://app?vid=f22c7ed0-5e01-4f12-89e7-d3e995892ffa","ios":"levelo://app?vid=f22c7ed0-5e01-4f12-89e7-d3e995892ffa"},