{"last_updated":1779359400,"ttl":60,"version":"2.2","data":{"bikes":[{"bike_id":"7d641315-6110-49cb-a9dd-d637ff032de1","system_id":"levelo_inurba_marseille","lat":43.337444,"lon":5.374475,"is_reserved":false,"is_disabled":false,"rental_uris":{"android":"levelo://app?vid=7d641315-6110-49cb-a9dd-d637ff032de1","ios":"levelo://app?vid=7d641315-6110-49cb-a9dd-d637ff032de1"},"vehicle_type_id":"4","last_reported":1779359401,"current_range_meters":0,"station_id":"","pricing_plan_id":"cebpf4jnsgd1na2vs0mg"},{"bike_id":"cec3c22f-5ca7-47aa-bbd6-df1aac29c3d4","system_id":"levelo_inurba_marseille","lat":43.23203,"lon":5.3997,"is_reserved":false,"is_disabled":false,"rental_uris":{"android":"levelo://app?vid=cec3c22f-5ca7-47aa-bbd6-df1aac29c3d4","ios":"levelo://app?vid=cec3c22f-5ca7-47aa-bbd6-df1aac29c3d4"},"vehicle_type_id":"4","last_reported":1779359401,"current_range_meters":2800,"station_id":"ce4bhn12rcd13ifvqgqg","pricing_plan_id":"cebpf4jnsgd1na2vs0mg"},{"bike_id":"3a50c5a4-deb8-4283-a331-71ea6e0504a8","system_id":"levelo_inurba_marseille","lat":43.28516,"lon":5.44084,"is_reserved":false,"is_disabled":false,"rental_uris":{"android":"levelo://app?vid=3a50c5a4-deb8-4283-a331-71ea6e0504a8","ios":"levelo://app?vid=3a50c5a4-deb8-4283-a331-71ea6e0504a8"},"vehicle_type_id":"4","last_reported":1779359401,"current_range_meters":2800,"station_id":"st_d3j3df2ikq2c7380ej80","pricing_plan_id":"cebpf4jnsgd1na2vs0mg"},{"bike_id":"c74544d9-703e-4b9e-afe2-367e23900b78","system_id":"levelo_inurba_marseille","lat":43.30473,"lon":5.37898,"is_reserved":false,"is_disabled":false,"rental_uris":{"android":"levelo://app?vid=c74544d9-703e-4b9e-afe2-367e23900b78","ios":"levelo://app?vid=c74544d9-703e-4b9e-afe2-367e23900b78"},"vehicle_type_id":"4","last_reported":1779359401,"current_range_meters":2800,"station_id":"ce4bgup2rcd13ifvqcn0","pricing_plan_id":"cebpf4jnsgd1na2vs0mg"},{"bike_id":"ca947316-aac6-40a9-9e57-a7123fc22af0","system_id":"levelo_inurba_marseille","lat":43.31076,"lon":5.42431,"is_reserved":false,"is_disabled":false,"rental_uris":{"android":"levelo://app?vid=ca947316-aac6-40a9-9e57-a7123fc22af0","ios":"levelo://app?vid=ca947316-aac6-40a9-9e57-a7123fc22af0"},"vehicle_type_id":"4","last_reported":1779359401,"current_range_meters":2800,"station_id":"ce4bhp92rcd13ifvqhag","pricing_plan_id":"cebpf4jnsgd1na2vs0mg"},{"bike_id":"0678a0d0-5e67-45e9-bb5f-7bbbb631519b","system_id":"levelo_inurba_marseille","lat":43.30527,"lon":5.36538,"is_reserved":false,"is_disabled":false,"rental_uris":{"android":"levelo://app?vid=0678a0d0-5e67-45e9-bb5f-7bbbb631519b","ios":"levelo://app?vid=0678a0d0-5e67-45e9-bb5f-7bbbb631519b"},"vehicle_type_id":"4","last_reported":1779359401,"current_range_meters":2800,"station_id":"ce4bgs12rcd13ifvqcag","pricing_plan_id":"cebpf4jnsgd1na2vs0mg"},{"bike_id":"65eb9ff9-15c9-4a56-bd3a-d3588f69bdf0","system_id":"levelo_inurba_marseille","lat":43.31854,"lon":5.40855,"is_reserved":false,"is_disabled":false,"rental_uris":{"android":"levelo://app?vid=65eb9ff9-15c9-4a56-bd3a-d3588f69bdf0","ios":"levelo://app?vid=65eb9ff9-15c9-4a56-bd3a-d3588f69bdf0"},"vehicle_type_id":"4","last_reported":1779359401,"current_range_meters":2800,"station_id":"","pricing_plan_id":"cebpf4jnsgd1na2vs0mg"},{"bike_id":"2a25eb9e-2ce5-4a2c-93e4-830a2d531fc1","system_id":"levelo_inurba_marseille","lat":43.3047,"lon":5.37897,"is_reserved":false,"is_disabled":false,"rental_uris":{"android":"levelo://app?vid=2a25eb9e-2ce5-4a2c-93e4-830a2d531fc1","ios":"levelo://app?vid=2a25eb9e-2ce5-4a2c-93e4-830a2d531fc1"},"vehicle_type_id":"4","last_reported":1779359401,"current_range_meters":2800,"station_id":"ce4bgup2rcd13ifvqcn0","pricing_plan_id":"cebpf4jnsgd1na2vs0mg"},{"bike_id":"6160ae8e-a0ef-40fb-a824-ac8b6555538f","system_id":"levelo_inurba_marseille","lat":43.26651,"lon":5.38973,"is_reserved":false,"is_disabled":false,"rental_uris":{"android":"levelo://app?vid=6160ae8e-a0ef-40fb-a824-ac8b6555538f","ios":"levelo://app?vid=6160ae8e-a0ef-40fb-a824-ac8b6555538f"},"vehicle_type_id":"4","last_reported":1779359401,"current_range_meters":3200,"station_id":"","pricing_plan_id":"cebpf4jnsgd1na2vs0mg"},{"bike_id":"e4850232-cc78-4e9f-9019-c3172df3a0df","system_id":"levelo_inurba_marseille","lat":43.28787,"lon":5.38209,"is_reserved":false,"is_disabled":false,"rental_uris":{"android":"levelo://app?vid=e4850232-cc78-4e9f-9019-c3172df3a0df","ios":"levelo://app?vid=e4850232-cc78-4e9f-9019-c3172df3a0df"},"vehicle_type_id":"4","last_reported":1779359401,"current_range_meters":3200,"station_id":"","pricing_plan_id":"cebpf4jnsgd1na2vs0mg"},{"bike_id":"32f3a03c-ffc4-46b3-8e8f-38e9f72abd2e","system_id":"levelo_inurba_marseille","lat":43.30653,"lon":5.40101,"is_reserved":false,"is_disabled":false,"rental_uris":{"android":"levelo://app?vid=32f3a03c-ffc4-46b3-8e8f-38e9f72abd2e","ios":"levelo://app?vid=32f3a03c-ffc4-46b3-8e8f-38e9f72abd2e"},"vehicle_type_id":"4","last_reported":1779359401,"current_range_meters":3200,"station_id":"ce4bh112rcd13ifvqda0","pricing_plan_id":"cebpf4jnsgd1na2vs0mg"},{"bike_id":"cdd577a3-d97e-495f-8406-54f954b721ea","system_id":"levelo_inurba_marseille","lat":43.30194,"lon":5.38171,"is_reserved":false,"is_disabled":true,"rental_uris":{"android":"levelo://app?vid=cdd577a3-d97e-495f-8406-54f954b721ea","ios":"levelo://app?vid=cdd577a3-d97e-495f-8406-54f954b721ea"},"vehicle_type_id":"4","last_reported":1779359401,"current_range_meters":3200,"station_id":"","pricing_plan_id":"cebpf4jnsgd1na2vs0mg"},{"bike_id":"9098e61d-9a28-42cd-ae67-b1623c7e5a2f","system_id":"levelo_inurba_marseille","lat":43.31081,"lon":5.42425,"is_reserved":false,"is_disabled":false,"rental_uris":{"android":"levelo://app?vid=9098e61d-9a28-42cd-ae67-b1623c7e5a2f","ios":"levelo://app?vid=9098e61d-9a28-42cd-ae67-b1623c7e5a2f"},"vehicle_type_id":"4","last_reported":1779359401,"current_range_meters":3200,"station_id":"ce4bhp92rcd13ifvqhag","pricing_plan_id":"cebpf4jnsgd1na2vs0mg"},{"bike_id":"119d868e-41cc-4e15-9d69-417b5959d8b1","system_id":"levelo_inurba_marseille","lat":43.292175,"lon":5.360412,"is_reserved":false,"is_disabled":false,"rental_uris":{"android":"levelo://app?vid=119d868e-41cc-4e15-9d69-417b5959d8b1","ios":"levelo://app?vid=119d868e-41cc-4e15-9d69-417b5959d8b1"},"vehicle_type_id":"4","last_reported":1779359401,"current_range_meters":3200,"station_id":"ce4bhbh2rcd13ifvqeqg","pricing_plan_id":"cebpf4jnsgd1na2vs0mg"},{"bike_id":"22c53493-1d70-4a07-9263-d8a8d8f8ce2d","system_id":"levelo_inurba_marseille","lat":43.24545,"lon":5.39521,"is_reserved":false,"is_disabled":false,"rental_uris":{"android":"levelo://app?vid=22c53493-1d70-4a07-9263-d8a8d8f8ce2d","ios":"levelo://app?vid=22c53493-1d70-4a07-9263-d8a8d8f8ce2d"},"vehicle_type_id":"4","last_reported":1779359401,"current_range_meters":3200,"station_id":"ce4bhlp2rcd13ifvqgjg","pricing_plan_id":"cebpf4jnsgd1na2vs0mg"},{"bike_id":"dd5bca8d-4a0a-4bc1-8cec-b991e57c6089","system_id":"levelo_inurba_marseille","lat":43.24165,"lon":5.36374,"is_reserved":false,"is_disabled":false,"rental_uris":{"android":"levelo://app?vid=dd5bca8d-4a0a-4bc1-8cec-b991e57c6089","ios":"levelo://app?vid=dd5bca8d-4a0a-4bc1-8cec-b991e57c6089"},"vehicle_type_id":"4","last_reported":1779359401,"current_range_meters":3600,"station_id":"cpo36qri1sfpv3e86is0","pricing_plan_id":"cebpf4jnsgd1na2vs0mg"},{"bike_id":"1a1e423d-336e-4f08-8cdb-839ca792da64","system_id":"levelo_inurba_marseille","lat":43.28478,"lon":5.4839,"is_reserved":false,"is_disabled":false,"rental_uris":{"android":"levelo://app?vid=1a1e423d-336e-4f08-8cdb-839ca792da64","ios":"levelo://app?vid=1a1e423d-336e-4f08-8cdb-839ca792da64"},"vehicle_type_id":"4","last_reported":1779359401,"current_range_meters":3600,"station_id":"st_d3svhcjqgbts73a3dn0g","pricing_plan_id":"cebpf4jnsgd1na2vs0mg"},{"bike_id":"3a636bf3-84e4-4339-9994-403a1263860e","system_id":"levelo_inurba_marseille","lat":43.27816,"lon":5.39188,"is_reserved":false,"is_disabled":false,"rental_uris":{"android":"levelo://app?vid=3a636bf3-84e4-4339-9994-403a1263860e","ios":"levelo://app?vid=3a636bf3-84e4-4339-9994-403a1263860e"},"vehicle_type_id":"4","last_reported":1779359401,"current_range_meters":3600,"station_id":"ce4bhjp2rcd13ifvqga0","pricing_plan_id":"cebpf4jnsgd1na2vs0mg"},{"bike_id":"c202bc15-6fd2-4b5b-b9f8-fe2a7981a9a0","system_id":"levelo_inurba_marseille","lat":43.2333,"lon":5.35905,"is_reserved":false,"is_disabled":false,"rental_uris":{"android":"levelo://app?vid=c202bc15-6fd2-4b5b-b9f8-fe2a7981a9a0","ios":"levelo://app?vid=c202bc15-6fd2-4b5b-b9f8-fe2a7981a9a0"},"vehicle_type_id":"4","last_reported":1779359401,"current_range_meters":3600,"station_id":"","pricing_plan_id":"cebpf4jnsgd1na2vs0mg"},{"bike_id":"012b75eb-9e14-4f99-8a64-121e0d4a3385","system_id":"levelo_inurba_marseille","lat":43.26234,"lon":5.38752,"is_reserved":false,"is_disabled":false,"rental_uris":{"android":"levelo://app?vid=012b75eb-9e14-4f99-8a64-121e0d4a3385","ios":"levelo://app?vid=012b75eb-9e14-4f99-8a64-121e0d4a3385"},"vehicle_type_id":"4","last_reported":1779359401,"current_range_meters":3600,"station_id":"","pricing_plan_id":"cebpf4jnsgd1na2vs0mg"},{"bike_id":"f8a0363b-1dda-4545-a43b-f1d90d0aace6","system_id":"levelo_inurba_marseille","lat":43.21199,"lon":5.35051,"is_reserved":false,"is_disabled":false,"rental_uris":{"android":"levelo://app?vid=f8a0363b-1dda-4545-a43b-f1d90d0aace6","ios":"levelo://app?vid=f8a0363b-1dda-4545-a43b-f1d90d0aace6"},"vehicle_type_id":"4","last_reported":1779359401,"current_range_meters":3600,"station_id":"st_cvj6sg6p6f1abm77japg","pricing_plan_id":"cebpf4jnsgd1na2vs0mg"},{"bike_id":"ed0a2e31-3f52-4952-819a-710fa6677d96","system_id":"levelo_inurba_marseille","lat":43.28713,"lon":5.46671,"is_reserved":false,"is_disabled":false,"rental_uris":{"android":"levelo://app?vid=ed0a2e31-3f52-4952-819a-710fa6677d96","ios":"levelo://app?vid=ed0a2e31-3f52-4952-819a-710fa6677d96"},"vehicle_type_id":"4","last_reported":1779359401,"current_range_meters":3600,"station_id":"st_d6tc3vkotcvc738tfjhg","pricing_plan_id":"cebpf4jnsgd1na2vs0mg"},{"bike_id":"47c9cb97-371d-4e9f-9c20-83aba40029f7","system_id":"levelo_inurba_marseille","lat":43.225321,"lon":5.348338,"is_reserved":false,"is_disabled":false,"rental_uris":{"android":"levelo://app?vid=47c9cb97-371d-4e9f-9c20-83aba40029f7","ios":"levelo://app?vid=47c9cb97-371d-4e9f-9c20-83aba40029f7"},"vehicle_type_id":"4","last_reported":1779359401,"current_range_meters":3600,"station_id":"st_cvj5dfep6f1abm77gieg","pricing_plan_id":"cebpf4jnsgd1na2vs0mg"},{"bike_id":"9dc5cab6-2721-4de8-a96d-cb3b72979c4e","system_id":"levelo_inurba_marseille","lat":43.31725,"lon":5.40458,"is_reserved":false,"is_disabled":false,"rental_uris":{"android":"levelo://app?vid=9dc5cab6-2721-4de8-a96d-cb3b72979c4e","ios":"levelo://app?vid=9dc5cab6-2721-4de8-a96d-cb3b72979c4e"},"vehicle_type_id":"4","last_reported":1779359401,"current_range_meters":3600,"station_id":"ce4bh012rcd13ifvqd00","pricing_plan_id":"cebpf4jnsgd1na2vs0mg"},{"bike_id":"ab3d0653-ceb0-447c-b6ee-1608aa7ac29d","system_id":"levelo_inurba_marseille","lat":43.29184,"lon":5.46011,"is_reserved":false,"is_disabled":false,"rental_uris":{"android":"levelo://app?vid=ab3d0653-ceb0-447c-b6ee-1608aa7ac29d","ios":"levelo://app?vid=ab3d0653-ceb0-447c-b6ee-1608aa7ac29d"},"vehicle_type_id":"4","last_reported":1779359401,"current_range_meters":3600,"station_id":"","pricing_plan_id":"cebpf4jnsgd1na2vs0mg"},{"bike_id":"1945c429-a6b3-4afe-8b4e-c989148ef8b4","system_id":"levelo_inurba_marseille","lat":43.28637,"lon":5.37796,"is_reserved":false,"is_disabled":false,"rental_uris":{"android":"levelo://app?vid=1945c429-a6b3-4afe-8b4e-c989148ef8b4","ios":"levelo://app?vid=1945c429-a6b3-4afe-8b4e-c989148ef8b4"},"vehicle_type_id":"4","last_reported":1779359401,"current_range_meters":3600,"station_id":"","pricing_plan_id":"cebpf4jnsgd1na2vs0mg"},{"bike_id":"0399c093-f88e-46e2-b4c0-672c0f240e1a","system_id":"levelo_inurba_marseille","lat":43.30468,"lon":5.37911,"is_reserved":false,"is_disabled":true,"rental_uris":{"android":"levelo://app?vid=0399c093-f88e-46e2-b4c0-672c0f240e1a","ios":"levelo://app?vid=0399c093-f88e-46e2-b4c0-672c0f240e1a"},"vehicle_type_id":"4","last_reported":1779359401,"current_range_meters":4000,"station_id":"ce4bgup2rcd13ifvqcn0","pricing_plan_id":"cebpf4jnsgd1na2vs0mg"},{"bike_id":"0ef34e2f-66cd-4487-b690-57a5f37c205e","system_id":"levelo_inurba_marseille","lat":43.29186,"lon":5.35784,"is_reserved":false,"is_disabled":false,"rental_uris":{"android":"levelo://app?vid=0ef34e2f-66cd-4487-b690-57a5f37c205e","ios":"levelo://app?vid=0ef34e2f-66cd-4487-b690-57a5f37c205e"},"vehicle_type_id":"4","last_reported":1779359401,"current_range_meters":4000,"station_id":"ce4bhb12rcd13ifvqel0","pricing_plan_id":"cebpf4jnsgd1na2vs0mg"},{"bike_id":"1c25aaa8-0f7d-4b5d-87a7-67e7592b9dbc","system_id":"levelo_inurba_marseille","lat":43.31294,"lon":5.36663,"is_reserved":false,"is_disabled":false,"rental_uris":{"android":"levelo://app?vid=1c25aaa8-0f7d-4b5d-87a7-67e7592b9dbc","ios":"levelo://app?vid=1c25aaa8-0f7d-4b5d-87a7-67e7592b9dbc"},"vehicle_type_id":"4","last_reported":1779359401,"current_range_meters":4000,"station_id":"ce4bgr92rcd13ifvqc6g","pricing_plan_id":"cebpf4jnsgd1na2vs0mg"},{"bike_id":"c5e693a5-5aee-4f2f-b3d3-ad6fe1a5da64","system_id":"levelo_inurba_marseille","lat":43.3246,"lon":5.36574,"is_reserved":false,"is_disabled":false,"rental_uris":{"android":"levelo://app?vid=c5e693a5-5aee-4f2f-b3d3-ad6fe1a5da64","ios":"levelo://app?vid=c5e693a5-5aee-4f2f-b3d3-ad6fe1a5da64"},"vehicle_type_id":"4","last_reported":1779359401,"current_range_meters":4400,"station_id":"ce4bhs12rcd13ifvqhvg","pricing_plan_id":"cebpf4jnsgd1na2vs0mg"},{"bike_id":"ce767e1d-3146-4d36-b9f5-2464c56e82bc","system_id":"levelo_inurba_marseille","lat":43.31376,"lon":5.36675,"is_reserved":false,"is_disabled":false,"rental_uris":{"android":"levelo://app?vid=ce767e1d-3146-4d36-b9f5-2464c56e82bc","ios":"levelo://app?vid=ce767e1d-3146-4d36-b9f5-2464c56e82bc"},"vehicle_type_id":"4","last_reported":1779359401,"current_range_meters":4400,"station_id":"ce4bgr92rcd13ifvqc6g","pricing_plan_id":"cebpf4jnsgd1na2vs0mg"},{"bike_id":"e38caa21-a14a-4197-88a1-db68aad57c56","system_id":"levelo_inurba_marseille","lat":43.28703,"lon":5.46685,"is_reserved":false,"is_disabled":false,"rental_uris":{"android":"levelo://app?vid=e38caa21-a14a-4197-88a1-db68aad57c56","ios":"levelo://app?vid=e38caa21-a14a-4197-88a1-db68aad57c56"},"vehicle_type_id":"4","last_reported":1779359401,"current_range_meters":4400,"station_id":"st_d6tc3vkotcvc738tfjhg","pricing_plan_id":"cebpf4jnsgd1na2vs0mg"},{"bike_id":"7459eae7-472e-404d-abc7-b169164289fa","system_id":"levelo_inurba_marseille","lat":43.31689,"lon":5.40477,"is_reserved":false,"is_disabled":false,"rental_uris":{"android":"levelo://app?vid=7459eae7-472e-404d-abc7-b169164289fa","ios":"levelo://app?vid=7459eae7-472e-404d-abc7-b169164289fa"},"vehicle_type_id":"4","last_reported":1779359401,"current_range_meters":4400,"station_id":"ce4bh012rcd13ifvqd00","pricing_plan_id":"cebpf4jnsgd1na2vs0mg"},{"bike_id":"0445ecc2-f392-498e-b020-29b38571e28e","system_id":"levelo_inurba_marseille","lat":43.29687,"lon":5.37294,"is_reserved":false,"is_disabled":false,"rental_uris":{"android":"levelo://app?vid=0445ecc2-f392-498e-b020-29b38571e28e","ios":"levelo://app?vid=0445ecc2-f392-498e-b020-29b38571e28e"},"vehicle_type_id":"4","last_reported":1779359401,"current_range_meters":4400,"station_id":"ce4bgk12rcd13ifvqbj0","pricing_plan_id":"cebpf4jnsgd1na2vs0mg"},{"bike_id":"291bce7d-95a9-4f5c-a2d8-de5b55889c52","system_id":"levelo_inurba_marseille","lat":43.31443,"lon":5.37389,"is_reserved":false,"is_disabled":false,"rental_uris":{"android":"levelo://app?vid=291bce7d-95a9-4f5c-a2d8-de5b55889c52","ios":"levelo://app?vid=291bce7d-95a9-4f5c-a2d8-de5b55889c52"},"vehicle_type_id":"4","last_reported":1779359401,"current_range_meters":4400,"station_id":"","pricing_plan_id":"cebpf4jnsgd1na2vs0mg"},{"bike_id":"3c843cc6-7155-4f95-a5fd-72cf7cd91c5c","system_id":"levelo_inurba_marseille","lat":43.32341,"lon":5.38493,"is_reserved":false,"is_disabled":false,"rental_uris":{"android":"levelo://app?vid=3c843cc6-7155-4f95-a5fd-72cf7cd91c5c","ios":"levelo://app?vid=3c843cc6-7155-4f95-a5fd-72cf7cd91c5c"},"vehicle_type_id":"4","last_reported":1779359401,"current_range_meters":4400,"station_id":"st_d45171o9ee8s73djdqug","pricing_plan_id":"cebpf4jnsgd1na2vs0mg"},{"bike_id":"f7ab8f3b-4da0-4cd3-b63e-76b7560b2b4b","system_id":"levelo_inurba_marseille","lat":43.26195,"lon":5.3745,"is_reserved":false,"is_disabled":true,"rental_uris":{"android":"levelo://app?vid=f7ab8f3b-4da0-4cd3-b63e-76b7560b2b4b","ios":"levelo://app?vid=f7ab8f3b-4da0-4cd3-b63e-76b7560b2b4b"},"vehicle_type_id":"4","last_reported":1779359401,"current_range_meters":4400,"station_id":"ce4bhgp2rcd13ifvqfc0","pricing_plan_id":"cebpf4jnsgd1na2vs0mg"},{"bike_id":"3be0c315-8d5f-4384-8c99-7a5c254757d7","system_id":"levelo_inurba_marseille","lat":43.260543,"lon":5.393878,"is_reserved":false,"is_disabled":false,"rental_uris":{"android":"levelo://app?vid=3be0c315-8d5f-4384-8c99-7a5c254757d7","ios":"levelo://app?vid=3be0c315-8d5f-4384-8c99-7a5c254757d7"},"vehicle_type_id":"4","last_reported":1779359401,"current_range_meters":4400,"station_id":"ce4bhh92rcd13ifvqfj0","pricing_plan_id":"cebpf4jnsgd1na2vs0mg"},{"bike_id":"e9c79968-57af-4722-8759-f011e42a8a35","system_id":"levelo_inurba_marseille","lat":43.29622,"lon":5.3716,"is_reserved":false,"is_disabled":false,"rental_uris":{"android":"levelo://app?vid=e9c79968-57af-4722-8759-f011e42a8a35","ios":"levelo://app?vid=e9c79968-57af-4722-8759-f011e42a8a35"},"vehicle_type_id":"4","last_reported":1779359401,"current_range_meters":4400,"station_id":"ce4bgnh2rcd13ifvqc0g","pricing_plan_id":"cebpf4jnsgd1na2vs0mg"},{"bike_id":"7975b169-5677-4dff-9b59-bed9c727a531","system_id":"levelo_inurba_marseille","lat":43.31104,"lon":5.3779,"is_reserved":false,"is_disabled":true,"rental_uris":{"android":"levelo://app?vid=7975b169-5677-4dff-9b59-bed9c727a531","ios":"levelo://app?vid=7975b169-5677-4dff-9b59-bed9c727a531"},"vehicle_type_id":"4","last_reported":1779359401,"current_range_meters":4800,"station_id":"ce4bgt92rcd13ifvqcg0","pricing_plan_id":"cebpf4jnsgd1na2vs0mg"},{"bike_id":"a495aed4-046f-4460-bc6b-a04262f3a9c0","system_id":"levelo_inurba_marseille","lat":43.29978,"lon":5.37173,"is_reserved":false,"is_disabled":false,"rental_uris":{"android":"levelo://app?vid=a495aed4-046f-4460-bc6b-a04262f3a9c0","ios":"levelo://app?vid=a495aed4-046f-4460-bc6b-a04262f3a9c0"},"vehicle_type_id":"4","last_reported":1779359401,"current_range_meters":4800,"station_id":"ce4bgr92rcd13ifvqc7g","pricing_plan_id":"cebpf4jnsgd1na2vs0mg"},{"bike_id":"f56cb847-edf2-4543-abb2-9ba3a10d749a","system_id":"levelo_inurba_marseille","lat":43.29911,"lon":5.38118,"is_reserved":false,"is_disabled":false,"rental_uris":{"android":"levelo://app?vid=f56cb847-edf2-4543-abb2-9ba3a10d749a","ios":"levelo://app?vid=f56cb847-edf2-4543-abb2-9ba3a10d749a"},"vehicle_type_id":"4","last_reported":1779359401,"current_range_meters":4800,"station_id":"ce4bgj12rcd13ifvqbc0","pricing_plan_id":"cebpf4jnsgd1na2vs0mg"},{"bike_id":"3c25bf23-a79f-4c95-bc3b-2acbe3e49848","system_id":"levelo_inurba_marseille","lat":43.29587,"lon":5.36734,"is_reserved":false,"is_disabled":false,"rental_uris":{"android":"levelo://app?vid=3c25bf23-a79f-4c95-bc3b-2acbe3e49848","ios":"levelo://app?vid=3c25bf23-a79f-4c95-bc3b-2acbe3e49848"},"vehicle_type_id":"4","last_reported":1779359401,"current_range_meters":4800,"station_id":"ce4bgph2rcd13ifvqc2g","pricing_plan_id":"cebpf4jnsgd1na2vs0mg"},{"bike_id":"a3071a58-220a-49d7-933f-639eaa20dffd","system_id":"levelo_inurba_marseille","lat":43.28696,"lon":5.42715,"is_reserved":false,"is_disabled":false,"rental_uris":{"android":"levelo://app?vid=a3071a58-220a-49d7-933f-639eaa20dffd","ios":"levelo://app?vid=a3071a58-220a-49d7-933f-639eaa20dffd"},"vehicle_type_id":"4","last_reported":1779359401,"current_range_meters":4800,"station_id":"","pricing_plan_id":"cebpf4jnsgd1na2vs0mg"},{"bike_id":"846205ce-57c6-4202-b414-b8c33a18fe50","system_id":"levelo_inurba_marseille","lat":43.3257,"lon":5.36572,"is_reserved":false,"is_disabled":false,"rental_uris":{"android":"levelo://app?vid=846205ce-57c6-4202-b414-b8c33a18fe50","ios":"levelo://app?vid=846205ce-57c6-4202-b414-b8c33a18fe50"},"vehicle_type_id":"4","last_reported":1779359401,"current_range_meters":4800,"station_id":"","pricing_plan_id":"cebpf4jnsgd1na2vs0mg"},{"bike_id":"f866df32-1984-464f-b169-bf63661abae8","system_id":"levelo_inurba_marseille","lat":43.27173,"lon":5.40994,"is_reserved":false,"is_disabled":false,"rental_uris":{"android":"levelo://app?vid=f866df32-1984-464f-b169-bf63661abae8","ios":"levelo://app?vid=f866df32-1984-464f-b169-bf63661abae8"},"vehicle_type_id":"4","last_reported":1779359401,"current_range_meters":4800,"station_id":"ce4bhl12rcd13ifvqgf0","pricing_plan_id":"cebpf4jnsgd1na2vs0mg"},{"bike_id":"36c39e76-5e59-44a6-b5db-102260b00396","system_id":"levelo_inurba_marseille","lat":43.30428,"lon":5.38886,"is_reserved":false,"is_disabled":false,"rental_uris":{"android":"levelo://app?vid=36c39e76-5e59-44a6-b5db-102260b00396","ios":"levelo://app?vid=36c39e76-5e59-44a6-b5db-102260b00396"},"vehicle_type_id":"4","last_reported":1779359401,"current_range_meters":4800,"station_id":"ce4bgk12rcd13ifvqbi0","pricing_plan_id":"cebpf4jnsgd1na2vs0mg"},{"bike_id":"a9e4612e-5285-4cfe-8d6b-0ce3ce59344b","system_id":"levelo_inurba_marseille","lat":43.29537,"lon":5.3854,"is_reserved":false,"is_disabled":false,"rental_uris":{"android":"levelo://app?vid=a9e4612e-5285-4cfe-8d6b-0ce3ce59344b","ios":"levelo://app?vid=a9e4612e-5285-4cfe-8d6b-0ce3ce59344b"},"vehicle_type_id":"4","last_reported":1779359401,"current_range_meters":4800,"station_id":"ce4bgih2rcd13ifvqba0","pricing_plan_id":"cebpf4jnsgd1na2vs0mg"},{"bike_id":"5ed2921c-ed1f-479f-8333-e2b1885f61ac","system_id":"levelo_inurba_marseille","lat":43.29282,"lon":5.36834,"is_reserved":false,"is_disabled":false,"rental_uris":{"android":"levelo://app?vid=5ed2921c-ed1f-479f-8333-e2b1885f61ac","ios":"levelo://app?vid=5ed2921c-ed1f-479f-8333-e2b1885f61ac"},"vehicle_type_id":"4","last_reported":1779359401,"current_range_meters":4800,"station_id":"ce4bhbp2rcd13ifvqesg","pricing_plan_id":"cebpf4jnsgd1na2vs0mg"},{"bike_id":"80a22325-b83a-4d6b-bec2-deaf9ab6d823","system_id":"levelo_inurba_marseille","lat":43.30186,"lon":5.38088,"is_reserved":false,"is_disabled":false,"rental_uris":{"android":"levelo://app?vid=80a22325-b83a-4d6b-bec2-deaf9ab6d823","ios":"levelo://app?vid=80a22325-b83a-4d6b-bec2-deaf9ab6d823"},"vehicle_type_id":"4","last_reported":1779359401,"current_range_meters":5600,"station_id":"ce4bgjp2rcd13ifvqbh0","pricing_plan_id":"cebpf4jnsgd1na2vs0mg"},{"bike_id":"75e2c68f-638a-4ae2-bede-4f34839c38af","system_id":"levelo_inurba_marseille","lat":43.32107,"lon":5.36769,"is_reserved":false,"is_disabled":false,"rental_uris":{"android":"levelo://app?vid=75e2c68f-638a-4ae2-bede-4f34839c38af","ios":"levelo://app?vid=75e2c68f-638a-4ae2-bede-4f34839c38af"},"vehicle_type_id":"4","last_reported":1779359401,"current_range_meters":5600,"station_id":"ce4bhrh2rcd13ifvqhug","pricing_plan_id":"cebpf4jnsgd1na2vs0mg"},{"bike_id":"04f92a74-897f-4ed3-9406-88ee3db27b21","system_id":"levelo_inurba_marseille","lat":43.28269,"lon":5.35042,"is_reserved":false,"is_disabled":false,"rental_uris":{"android":"levelo://app?vid=04f92a74-897f-4ed3-9406-88ee3db27b21","ios":"levelo://app?vid=04f92a74-897f-4ed3-9406-88ee3db27b21"},"vehicle_type_id":"4","last_reported":1779359401,"current_range_meters":5600,"station_id":"","pricing_plan_id":"cebpf4jnsgd1na2vs0mg"},{"bike_id":"282c9669-7dad-469f-b087-8dbbc861bbc4","system_id":"levelo_inurba_marseille","lat":43.274223,"lon":5.394069,"is_reserved":false,"is_disabled":true,"rental_uris":{"android":"levelo://app?vid=282c9669-7dad-469f-b087-8dbbc861bbc4","ios":"levelo://app?vid=282c9669-7dad-469f-b087-8dbbc861bbc4"},"vehicle_type_id":"4","last_reported":1779359401,"current_range_meters":5600,"station_id":"ce4bhdp2rcd13ifvqf20","pricing_plan_id":"cebpf4jnsgd1na2vs0mg"},{"bike_id":"c745b2ac-52d9-433b-b44d-7eb643cff2ad","system_id":"levelo_inurba_marseille","lat":43.27696,"lon":5.38895,"is_reserved":false,"is_disabled":false,"rental_uris":{"android":"levelo://app?vid=c745b2ac-52d9-433b-b44d-7eb643cff2ad","ios":"levelo://app?vid=c745b2ac-52d9-433b-b44d-7eb643cff2ad"},"vehicle_type_id":"4","last_reported":1779359401,"current_range_meters":5600,"station_id":"ce4bhi12rcd13ifvqfo0","pricing_plan_id":"cebpf4jnsgd1na2vs0mg"},{"bike_id":"381a1687-3b4c-4e43-ada7-0b296f458493","system_id":"levelo_inurba_marseille","lat":43.2875,"lon":5.46704,"is_reserved":false,"is_disabled":false,"rental_uris":{"android":"levelo://app?vid=381a1687-3b4c-4e43-ada7-0b296f458493","ios":"levelo://app?vid=381a1687-3b4c-4e43-ada7-0b296f458493"},"vehicle_type_id":"4","last_reported":1779359401,"current_range_meters":5600,"station_id":"","pricing_plan_id":"cebpf4jnsgd1na2vs0mg"},{"bike_id":"21774696-19a5-4cfd-8195-f74fefded348","system_id":"levelo_inurba_marseille","lat":43.30255,"lon":5.4003,"is_reserved":false,"is_disabled":false,"rental_uris":{"android":"levelo://app?vid=21774696-19a5-4cfd-8195-f74fefded348","ios":"levelo://app?vid=21774696-19a5-4cfd-8195-f74fefded348"},"vehicle_type_id":"4","last_reported":1779359401,"current_range_meters":5600,"station_id":"ce4bgvh2rcd13ifvqcs0","pricing_plan_id":"cebpf4jnsgd1na2vs0mg"},{"bike_id":"1e79d12b-04a1-4a11-9b2c-8ef6f8b8b2cf","system_id":"levelo_inurba_marseille","lat":43.30122,"lon":5.39885,"is_reserved":false,"is_disabled":true,"rental_uris":{"android":"levelo://app?vid=1e79d12b-04a1-4a11-9b2c-8ef6f8b8b2cf","ios":"levelo://app?vid=1e79d12b-04a1-4a11-9b2c-8ef6f8b8b2cf"},"vehicle_type_id":"4","last_reported":1779359401,"current_range_meters":5600,"station_id":"ce4bh0h2rcd13ifvqd40","pricing_plan_id":"cebpf4jnsgd1na2vs0mg"},{"bike_id":"2300bf2f-cf21-4de0-97e6-a59cb73cef3e","system_id":"levelo_inurba_marseille","lat":43.26785,"lon":5.3943,"is_reserved":false,"is_disabled":false,"rental_uris":{"android":"levelo://app?vid=2300bf2f-cf21-4de0-97e6-a59cb73cef3e","ios":"levelo://app?vid=2300bf2f-cf21-4de0-97e6-a59cb73cef3e"},"vehicle_type_id":"4","last_reported":1779359401,"current_range_meters":5600,"station_id":"ce4bhh12rcd13ifvqfg0","pricing_plan_id":"cebpf4jnsgd1na2vs0mg"},{"bike_id":"4581f6a7-79e9-44cd-b96e-06f3561662b8","system_id":"levelo_inurba_marseille","lat":43.22537,"lon":5.34825,"is_reserved":false,"is_disabled":false,"rental_uris":{"android":"levelo://app?vid=4581f6a7-79e9-44cd-b96e-06f3561662b8","ios":"levelo://app?vid=4581f6a7-79e9-44cd-b96e-06f3561662b8"},"vehicle_type_id":"4","last_reported":1779359401,"current_range_meters":5600,"station_id":"st_cvj5dfep6f1abm77gieg","pricing_plan_id":"cebpf4jnsgd1na2vs0mg"},{"bike_id":"9c7b01cb-3130-4dfa-9e9d-1b3fbc0bd680","system_id":"levelo_inurba_marseille","lat":43.24953,"lon":5.4049,"is_reserved":false,"is_disabled":false,"rental_uris":{"android":"levelo://app?vid=9c7b01cb-3130-4dfa-9e9d-1b3fbc0bd680","ios":"levelo://app?vid=9c7b01cb-3130-4dfa-9e9d-1b3fbc0bd680"},"vehicle_type_id":"4","last_reported":1779359401,"current_range_meters":5600,"station_id":"st_d2ngiaodas8pm72gd1h0","pricing_plan_id":"cebpf4jnsgd1na2vs0mg"},{"bike_id":"fb094e4b-6baa-4308-836f-97eb7d995621","system_id":"levelo_inurba_marseille","lat":43.26058,"lon":5.39378,"is_reserved":false,"is_disabled":false,"rental_uris":{"android":"levelo://app?vid=fb094e4b-6baa-4308-836f-97eb7d995621","ios":"levelo://app?vid=fb094e4b-6baa-4308-836f-97eb7d995621"},"vehicle_type_id":"4","last_reported":1779359401,"current_range_meters":5600,"station_id":"ce4bhh92rcd13ifvqfj0","pricing_plan_id":"cebpf4jnsgd1na2vs0mg"},{"bike_id":"1935cd1a-b924-4df0-b244-712dc0c80707","system_id":"levelo_inurba_marseille","lat":43.2319,"lon":5.39977,"is_reserved":false,"is_disabled":false,"rental_uris":{"android":"levelo://app?vid=1935cd1a-b924-4df0-b244-712dc0c80707","ios":"levelo://app?vid=1935cd1a-b924-4df0-b244-712dc0c80707"},"vehicle_type_id":"4","last_reported":1779359401,"current_range_meters":5600,"station_id":"ce4bhn12rcd13ifvqgqg","pricing_plan_id":"cebpf4jnsgd1na2vs0mg"},{"bike_id":"e7b2834d-0414-4c8b-95bb-dbeba87a5cba","system_id":"levelo_inurba_marseille","lat":43.32959,"lon":5.38909,"is_reserved":false,"is_disabled":false,"rental_uris":{"android":"levelo://app?vid=e7b2834d-0414-4c8b-95bb-dbeba87a5cba","ios":"levelo://app?vid=e7b2834d-0414-4c8b-95bb-dbeba87a5cba"},"vehicle_type_id":"4","last_reported":1779359401,"current_range_meters":6000,"station_id":"","pricing_plan_id":"cebpf4jnsgd1na2vs0mg"},{"bike_id":"86a0fb52-613b-4a6c-942d-1abbde400b19","system_id":"levelo_inurba_marseille","lat":43.28436,"lon":5.34971,"is_reserved":false,"is_disabled":true,"rental_uris":{"android":"levelo://app?vid=86a0fb52-613b-4a6c-942d-1abbde400b19","ios":"levelo://app?vid=86a0fb52-613b-4a6c-942d-1abbde400b19"},"vehicle_type_id":"4","last_reported":1779359401,"current_range_meters":6000,"station_id":"ce4bhbh2rcd13ifvqepg","pricing_plan_id":"cebpf4jnsgd1na2vs0mg"},{"bike_id":"1a889478-559e-4a35-b70d-296ee42876a0","system_id":"levelo_inurba_marseille","lat":43.27957,"lon":5.40989,"is_reserved":false,"is_disabled":false,"rental_uris":{"android":"levelo://app?vid=1a889478-559e-4a35-b70d-296ee42876a0","ios":"levelo://app?vid=1a889478-559e-4a35-b70d-296ee42876a0"},"vehicle_type_id":"4","last_reported":1779359401,"current_range_meters":6000,"station_id":"ce4bhnp2rcd13ifvqh0g","pricing_plan_id":"cebpf4jnsgd1na2vs0mg"},{"bike_id":"1ee93046-8175-4062-9c76-992cefe1c488","system_id":"levelo_inurba_marseille","lat":43.28972,"lon":5.37824,"is_reserved":false,"is_disabled":false,"rental_uris":{"android":"levelo://app?vid=1ee93046-8175-4062-9c76-992cefe1c488","ios":"levelo://app?vid=1ee93046-8175-4062-9c76-992cefe1c488"},"vehicle_type_id":"4","last_reported":1779359401,"current_range_meters":6000,"station_id":"ce4bh9p2rcd13ifvqed0","pricing_plan_id":"cebpf4jnsgd1na2vs0mg"},{"bike_id":"5b2a581a-ec1c-4cbe-ba39-04ebd8922ba0","system_id":"levelo_inurba_marseille","lat":43.28335,"lon":5.40256,"is_reserved":false,"is_disabled":false,"rental_uris":{"android":"levelo://app?vid=5b2a581a-ec1c-4cbe-ba39-04ebd8922ba0","ios":"levelo://app?vid=5b2a581a-ec1c-4cbe-ba39-04ebd8922ba0"},"vehicle_type_id":"4","last_reported":1779359401,"current_range_meters":6000,"station_id":"","pricing_plan_id":"cebpf4jnsgd1na2vs0mg"},{"bike_id":"8c39b6dd-b754-48e2-823c-6f28d51803e0","system_id":"levelo_inurba_marseille","lat":43.29266,"lon":5.39811,"is_reserved":false,"is_disabled":false,"rental_uris":{"android":"levelo://app?vid=8c39b6dd-b754-48e2-823c-6f28d51803e0","ios":"levelo://app?vid=8c39b6dd-b754-48e2-823c-6f28d51803e0"},"vehicle_type_id":"4","last_reported":1779359401,"current_range_meters":6000,"station_id":"","pricing_plan_id":"cebpf4jnsgd1na2vs0mg"},{"bike_id":"0c363e8c-f4b2-4257-aec3-02b3ae59566b","system_id":"levelo_inurba_marseille","lat":43.33026,"lon":5.39031,"is_reserved":false,"is_disabled":false,"rental_uris":{"android":"levelo://app?vid=0c363e8c-f4b2-4257-aec3-02b3ae59566b","ios":"levelo://app?vid=0c363e8c-f4b2-4257-aec3-02b3ae59566b"},"vehicle_type_id":"4","last_reported":1779359401,"current_range_meters":6000,"station_id":"ce4bhr92rcd13ifvqhrg","pricing_plan_id":"cebpf4jnsgd1na2vs0mg"},{"bike_id":"c3ffcc5b-f6ff-444d-813e-ec51eef9009c","system_id":"levelo_inurba_marseille","lat":43.30136,"lon":5.37395,"is_reserved":false,"is_disabled":false,"rental_uris":{"android":"levelo://app?vid=c3ffcc5b-f6ff-444d-813e-ec51eef9009c","ios":"levelo://app?vid=c3ffcc5b-f6ff-444d-813e-ec51eef9009c"},"vehicle_type_id":"4","last_reported":1779359401,"current_range_meters":6000,"station_id":"ce4bgs92rcd13ifvqcc0","pricing_plan_id":"cebpf4jnsgd1na2vs0mg"},{"bike_id":"2c4067b0-b18b-45e4-8ccd-fc3affc00724","system_id":"levelo_inurba_marseille","lat":43.28975,"lon":5.35626,"is_reserved":false,"is_disabled":false,"rental_uris":{"android":"levelo://app?vid=2c4067b0-b18b-45e4-8ccd-fc3affc00724","ios":"levelo://app?vid=2c4067b0-b18b-45e4-8ccd-fc3affc00724"},"vehicle_type_id":"4","last_reported":1779359401,"current_range_meters":6000,"station_id":"ce4bhb92rcd13ifvqen0","pricing_plan_id":"cebpf4jnsgd1na2vs0mg"},{"bike_id":"4a539b4d-76ab-4538-aab0-b937fb417564","system_id":"levelo_inurba_marseille","lat":43.30527,"lon":5.36646,"is_reserved":false,"is_disabled":false,"rental_uris":{"android":"levelo://app?vid=4a539b4d-76ab-4538-aab0-b937fb417564","ios":"levelo://app?vid=4a539b4d-76ab-4538-aab0-b937fb417564"},"vehicle_type_id":"4","last_reported":1779359401,"current_range_meters":6400,"station_id":"","pricing_plan_id":"cebpf4jnsgd1na2vs0mg"},{"bike_id":"b0c3fc90-97d2-4734-ac76-b7559d809d47","system_id":"levelo_inurba_marseille","lat":43.29043,"lon":5.39949,"is_reserved":false,"is_disabled":false,"rental_uris":{"android":"levelo://app?vid=b0c3fc90-97d2-4734-ac76-b7559d809d47","ios":"levelo://app?vid=b0c3fc90-97d2-4734-ac76-b7559d809d47"},"vehicle_type_id":"4","last_reported":1779359401,"current_range_meters":6400,"station_id":"ce4bh392rcd13ifvqdm0","pricing_plan_id":"cebpf4jnsgd1na2vs0mg"},{"bike_id":"b3c58742-0569-4988-8f74-9982023b97a6","system_id":"levelo_inurba_marseille","lat":43.31905,"lon":5.36782,"is_reserved":false,"is_disabled":false,"rental_uris":{"android":"levelo://app?vid=b3c58742-0569-4988-8f74-9982023b97a6","ios":"levelo://app?vid=b3c58742-0569-4988-8f74-9982023b97a6"},"vehicle_type_id":"4","last_reported":1779359401,"current_range_meters":6400,"station_id":"st_d6o2h0d0559c73evc1b0","pricing_plan_id":"cebpf4jnsgd1na2vs0mg"},{"bike_id":"36aa6f0d-c8a5-421f-bb1a-43d21232f078","system_id":"levelo_inurba_marseille","lat":43.22553,"lon":5.41631,"is_reserved":false,"is_disabled":true,"rental_uris":{"android":"levelo://app?vid=36aa6f0d-c8a5-421f-bb1a-43d21232f078","ios":"levelo://app?vid=36aa6f0d-c8a5-421f-bb1a-43d21232f078"},"vehicle_type_id":"4","last_reported":1779359401,"current_range_meters":6400,"station_id":"st_d2o4gvlbi1j2169b742g","pricing_plan_id":"cebpf4jnsgd1na2vs0mg"},{"bike_id":"f58a1fcb-c733-47d3-b8a3-fc42db268f65","system_id":"levelo_inurba_marseille","lat":43.29009,"lon":5.35591,"is_reserved":false,"is_disabled":false,"rental_uris":{"android":"levelo://app?vid=f58a1fcb-c733-47d3-b8a3-fc42db268f65","ios":"levelo://app?vid=f58a1fcb-c733-47d3-b8a3-fc42db268f65"},"vehicle_type_id":"4","last_reported":1779359401,"current_range_meters":6400,"station_id":"ce4bhb92rcd13ifvqen0","pricing_plan_id":"cebpf4jnsgd1na2vs0mg"},{"bike_id":"cdea3a3f-ad21-4609-8ff7-db1e94c68a25","system_id":"levelo_inurba_marseille","lat":43.21759,"lon":5.34591,"is_reserved":false,"is_disabled":false,"rental_uris":{"android":"levelo://app?vid=cdea3a3f-ad21-4609-8ff7-db1e94c68a25","ios":"levelo://app?vid=cdea3a3f-ad21-4609-8ff7-db1e94c68a25"},"vehicle_type_id":"4","last_reported":1779359401,"current_range_meters":6400,"station_id":"st_cvj6r9ubvosntc0bgbag","pricing_plan_id":"cebpf4jnsgd1na2vs0mg"},{"bike_id":"10a6ad89-90b3-4175-8560-8712ab5583af","system_id":"levelo_inurba_marseille","lat":43.30141,"lon":5.37428,"is_reserved":false,"is_disabled":false,"rental_uris":{"android":"levelo://app?vid=10a6ad89-90b3-4175-8560-8712ab5583af","ios":"levelo://app?vid=10a6ad89-90b3-4175-8560-8712ab5583af"},"vehicle_type_id":"4","last_reported":1779359401,"current_range_meters":6400,"station_id":"ce4bgs92rcd13ifvqcc0","pricing_plan_id":"cebpf4jnsgd1na2vs0mg"},{"bike_id":"e339a416-b9b3-491e-bc54-e0a8ef4b0934","system_id":"levelo_inurba_marseille","lat":43.26244,"lon":5.40454,"is_reserved":false,"is_disabled":false,"rental_uris":{"android":"levelo://app?vid=e339a416-b9b3-491e-bc54-e0a8ef4b0934","ios":"levelo://app?vid=e339a416-b9b3-491e-bc54-e0a8ef4b0934"},"vehicle_type_id":"4","last_reported":1779359401,"current_range_meters":6400,"station_id":"ce4bhmh2rcd13ifvqgmg","pricing_plan_id":"cebpf4jnsgd1na2vs0mg"},{"bike_id":"eb7cf91f-1616-4ca1-8779-6065aa69c5c0","system_id":"levelo_inurba_marseille","lat":43.30524,"lon":5.3654,"is_reserved":false,"is_disabled":false,"rental_uris":{"android":"levelo://app?vid=eb7cf91f-1616-4ca1-8779-6065aa69c5c0","ios":"levelo://app?vid=eb7cf91f-1616-4ca1-8779-6065aa69c5c0"},"vehicle_type_id":"4","last_reported":1779359401,"current_range_meters":6400,"station_id":"ce4bgs12rcd13ifvqcag","pricing_plan_id":"cebpf4jnsgd1na2vs0mg"},{"bike_id":"02cfdbbe-39a2-492c-a81b-53960f7bc4f3","system_id":"levelo_inurba_marseille","lat":43.29851,"lon":5.36281,"is_reserved":false,"is_disabled":false,"rental_uris":{"android":"levelo://app?vid=02cfdbbe-39a2-492c-a81b-53960f7bc4f3","ios":"levelo://app?vid=02cfdbbe-39a2-492c-a81b-53960f7bc4f3"},"vehicle_type_id":"4","last_reported":1779359401,"current_range_meters":6400,"station_id":"ce4bgpp2rcd13ifvqc3g","pricing_plan_id":"cebpf4jnsgd1na2vs0mg"},{"bike_id":"54ebc614-4655-4582-83f2-3a009523bce0","system_id":"levelo_inurba_marseille","lat":43.25526,"lon":5.37645,"is_reserved":false,"is_disabled":false,"rental_uris":{"android":"levelo://app?vid=54ebc614-4655-4582-83f2-3a009523bce0","ios":"levelo://app?vid=54ebc614-4655-4582-83f2-3a009523bce0"},"vehicle_type_id":"4","last_reported":1779359401,"current_range_meters":6400,"station_id":"ce4bhh12rcd13ifvqff0","pricing_plan_id":"cebpf4jnsgd1na2vs0mg"},{"bike_id":"aad75fce-f297-4a66-8546-74ab6bfcd851","system_id":"levelo_inurba_marseille","lat":43.24173,"lon":5.36395,"is_reserved":false,"is_disabled":false,"rental_uris":{"android":"levelo://app?vid=aad75fce-f297-4a66-8546-74ab6bfcd851","ios":"levelo://app?vid=aad75fce-f297-4a66-8546-74ab6bfcd851"},"vehicle_type_id":"4","last_reported":1779359401,"current_range_meters":6400,"station_id":"cpo36qri1sfpv3e86is0","pricing_plan_id":"cebpf4jnsgd1na2vs0mg"},{"bike_id":"3a8bf2dd-1d04-4ee7-9d7d-732a70692881","system_id":"levelo_inurba_marseille","lat":43.30879,"lon":5.36842,"is_reserved":false,"is_disabled":false,"rental_uris":{"android":"levelo://app?vid=3a8bf2dd-1d04-4ee7-9d7d-732a70692881","ios":"levelo://app?vid=3a8bf2dd-1d04-4ee7-9d7d-732a70692881"},"vehicle_type_id":"4","last_reported":1779359401,"current_range_meters":6400,"station_id":"ce4bgn92rcd13ifvqbvg","pricing_plan_id":"cebpf4jnsgd1na2vs0mg"},{"bike_id":"bac299b5-fc4e-424f-8c05-a5bbed976d4c","system_id":"levelo_inurba_marseille","lat":43.22534,"lon":5.34833,"is_reserved":false,"is_disabled":false,"rental_uris":{"android":"levelo://app?vid=bac299b5-fc4e-424f-8c05-a5bbed976d4c","ios":"levelo://app?vid=bac299b5-fc4e-424f-8c05-a5bbed976d4c"},"vehicle_type_id":"4","last_reported":1779359401,"current_range_meters":6400,"station_id":"st_cvj5dfep6f1abm77gieg","pricing_plan_id":"cebpf4jnsgd1na2vs0mg"},{"bike_id":"bdb8ea9e-f317-4a97-aecb-97370038e137","system_id":"levelo_inurba_marseille","lat":43.31082,"lon":5.42422,"is_reserved":false,"is_disabled":false,"rental_uris":{"android":"levelo://app?vid=bdb8ea9e-f317-4a97-aecb-97370038e137","ios":"levelo://app?vid=bdb8ea9e-f317-4a97-aecb-97370038e137"},"vehicle_type_id":"4","last_reported":1779359401,"current_range_meters":6400,"station_id":"ce4bhp92rcd13ifvqhag","pricing_plan_id":"cebpf4jnsgd1na2vs0mg"},{"bike_id":"3096f3f7-7fc7-4228-b175-4b649f17f6c1","system_id":"levelo_inurba_marseille","lat":43.2798,"lon":5.41663,"is_reserved":false,"is_disabled":false,"rental_uris":{"android":"levelo://app?vid=3096f3f7-7fc7-4228-b175-4b649f17f6c1","ios":"levelo://app?vid=3096f3f7-7fc7-4228-b175-4b649f17f6c1"},"vehicle_type_id":"4","last_reported":1779359401,"current_range_meters":6400,"station_id":"ce4bho12rcd13ifvqh1g","pricing_plan_id":"cebpf4jnsgd1na2vs0mg"},{"bike_id":"85aa7030-1d2d-4efc-851d-09155d499f3c","system_id":"levelo_inurba_marseille","lat":43.3273,"lon":5.41805,"is_reserved":false,"is_disabled":false,"rental_uris":{"android":"levelo://app?vid=85aa7030-1d2d-4efc-851d-09155d499f3c","ios":"levelo://app?vid=85aa7030-1d2d-4efc-851d-09155d499f3c"},"vehicle_type_id":"4","last_reported":1779359401,"current_range_meters":6400,"station_id":"","pricing_plan_id":"cebpf4jnsgd1na2vs0mg"},{"bike_id":"0b9fb95c-cf6b-4ed5-8bf4-759fc5a571cc","system_id":"levelo_inurba_marseille","lat":43.26852,"lon":5.40671,"is_reserved":false,"is_disabled":false,"rental_uris":{"android":"levelo://app?vid=0b9fb95c-cf6b-4ed5-8bf4-759fc5a571cc","ios":"levelo://app?vid=0b9fb95c-cf6b-4ed5-8bf4-759fc5a571cc"},"vehicle_type_id":"4","last_reported":1779359401,"current_range_meters":6400,"station_id":"","pricing_plan_id":"cebpf4jnsgd1na2vs0mg"},{"bike_id":"41f7cc6a-fbef-47d7-ba2a-3598cf82d140","system_id":"levelo_inurba_marseille","lat":43.231559,"lon":5.43704,"is_reserved":false,"is_disabled":false,"rental_uris":{"android":"levelo://app?vid=41f7cc6a-fbef-47d7-ba2a-3598cf82d140","ios":"levelo://app?vid=41f7cc6a-fbef-47d7-ba2a-3598cf82d140"},"vehicle_type_id":"4","last_reported":1779359401,"current_range_meters":6400,"station_id":"ce4bhmp2rcd13ifvqgog","pricing_plan_id":"cebpf4jnsgd1na2vs0mg"},{"bike_id":"0a3b05a4-eeb2-4a43-bcd3-8110dcb0cf7e","system_id":"levelo_inurba_marseille","lat":43.26129,"lon":5.37512,"is_reserved":false,"is_disabled":true,"rental_uris":{"android":"levelo://app?vid=0a3b05a4-eeb2-4a43-bcd3-8110dcb0cf7e","ios":"levelo://app?vid=0a3b05a4-eeb2-4a43-bcd3-8110dcb0cf7e"},"vehicle_type_id":"4","last_reported":1779359401,"current_range_meters":6800,"station_id":"","pricing_plan_id":"cebpf4jnsgd1na2vs0mg"},{"bike_id":"056a7c16-a4c8-4437-a264-fe04c59ff5a6","system_id":"levelo_inurba_marseille","lat":43.29595,"lon":5.38102,"is_reserved":false,"is_disabled":false,"rental_uris":{"android":"levelo://app?vid=056a7c16-a4c8-4437-a264-fe04c59ff5a6","ios":"levelo://app?vid=056a7c16-a4c8-4437-a264-fe04c59ff5a6"},"vehicle_type_id":"4","last_reported":1779359401,"current_range_meters":6800,"station_id":"ce4bgl12rcd13ifvqbo0","pricing_plan_id":"cebpf4jnsgd1na2vs0mg"},{"bike_id":"94c49980-82e9-40c1-8742-79af726fe66b","system_id":"levelo_inurba_marseille","lat":43.29859,"lon":5.4207,"is_reserved":false,"is_disabled":false,"rental_uris":{"android":"levelo://app?vid=94c49980-82e9-40c1-8742-79af726fe66b","ios":"levelo://app?vid=94c49980-82e9-40c1-8742-79af726fe66b"},"vehicle_type_id":"4","last_reported":1779359401,"current_range_meters":6800,"station_id":"st_d6tc004otcvc738tfe70","pricing_plan_id":"cebpf4jnsgd1na2vs0mg"},{"bike_id":"b54a0860-ff04-4417-9804-a7525879c950","system_id":"levelo_inurba_marseille","lat":43.29493,"lon":5.37506,"is_reserved":false,"is_disabled":false,"rental_uris":{"android":"levelo://app?vid=b54a0860-ff04-4417-9804-a7525879c950","ios":"levelo://app?vid=b54a0860-ff04-4417-9804-a7525879c950"},"vehicle_type_id":"4","last_reported":1779359401,"current_range_meters":6800,"station_id":"ce4bgkp2rcd13ifvqbmg","pricing_plan_id":"cebpf4jnsgd1na2vs0mg"},{"bike_id":"98fcdbbd-e4d8-4771-9353-475c9a5b8209","system_id":"levelo_inurba_marseille","lat":43.30529,"lon":5.36523,"is_reserved":false,"is_disabled":false,"rental_uris":{"android":"levelo://app?vid=98fcdbbd-e4d8-4771-9353-475c9a5b8209","ios":"levelo://app?vid=98fcdbbd-e4d8-4771-9353-475c9a5b8209"},"vehicle_type_id":"4","last_reported":1779359401,"current_range_meters":6800,"station_id":"ce4bgs12rcd13ifvqcag","pricing_plan_id":"cebpf4jnsgd1na2vs0mg"},{"bike_id":"4fdd8c15-1bcb-4fa5-b5bd-d33affd8bbad","system_id":"levelo_inurba_marseille","lat":43.30195,"lon":5.39947,"is_reserved":false,"is_disabled":false,"rental_uris":{"android":"levelo://app?vid=4fdd8c15-1bcb-4fa5-b5bd-d33affd8bbad","ios":"levelo://app?vid=4fdd8c15-1bcb-4fa5-b5bd-d33affd8bbad"},"vehicle_type_id":"4","last_reported":1779359401,"current_range_meters":6800,"station_id":"","pricing_plan_id":"cebpf4jnsgd1na2vs0mg"},{"bike_id":"f4039305-8ffd-457f-86e4-4835e894e52f","system_id":"levelo_inurba_marseille","lat":43.26361,"lon":5.4108,"is_reserved":false,"is_disabled":false,"rental_uris":{"android":"levelo://app?vid=f4039305-8ffd-457f-86e4-4835e894e52f","ios":"levelo://app?vid=f4039305-8ffd-457f-86e4-4835e894e52f"},"vehicle_type_id":"4","last_reported":1779359401,"current_range_meters":6800,"station_id":"st_d4e5ca6na9uc73bfl5fg","pricing_plan_id":"cebpf4jnsgd1na2vs0mg"},{"bike_id":"eba5b50f-71b1-416f-9115-3f585c8cd4a8","system_id":"levelo_inurba_marseille","lat":43.32486,"lon":5.36559,"is_reserved":false,"is_disabled":false,"rental_uris":{"android":"levelo://app?vid=eba5b50f-71b1-416f-9115-3f585c8cd4a8","ios":"levelo://app?vid=eba5b50f-71b1-416f-9115-3f585c8cd4a8"},"vehicle_type_id":"4","last_reported":1779359401,"current_range_meters":6800,"station_id":"ce4bhs12rcd13ifvqhvg","pricing_plan_id":"cebpf4jnsgd1na2vs0mg"},{"bike_id":"125aa9aa-2382-4be1-a581-d6cead763f18","system_id":"levelo_inurba_marseille","lat":43.28267,"lon":5.35046,"is_reserved":false,"is_disabled":false,"rental_uris":{"android":"levelo://app?vid=125aa9aa-2382-4be1-a581-d6cead763f18","ios":"levelo://app?vid=125aa9aa-2382-4be1-a581-d6cead763f18"},"vehicle_type_id":"4","last_reported":1779359401,"current_range_meters":6800,"station_id":"","pricing_plan_id":"cebpf4jnsgd1na2vs0mg"},{"bike_id":"63bd1dc0-8981-4ec2-8430-8f17162b8c3c","system_id":"levelo_inurba_marseille","lat":43.26555,"lon":5.37279,"is_reserved":false,"is_disabled":false,"rental_uris":{"android":"levelo://app?vid=63bd1dc0-8981-4ec2-8430-8f17162b8c3c","ios":"levelo://app?vid=63bd1dc0-8981-4ec2-8430-8f17162b8c3c"},"vehicle_type_id":"4","last_reported":1779359401,"current_range_meters":6800,"station_id":"ce4bhg12rcd13ifvqf70","pricing_plan_id":"cebpf4jnsgd1na2vs0mg"},{"bike_id":"34737952-9ba9-4908-8d7f-00dc15e5bbab","system_id":"levelo_inurba_marseille","lat":43.32344,"lon":5.38499,"is_reserved":false,"is_disabled":false,"rental_uris":{"android":"levelo://app?vid=34737952-9ba9-4908-8d7f-00dc15e5bbab","ios":"levelo://app?vid=34737952-9ba9-4908-8d7f-00dc15e5bbab"},"vehicle_type_id":"4","last_reported":1779359401,"current_range_meters":6800,"station_id":"st_d45171o9ee8s73djdqug","pricing_plan_id":"cebpf4jnsgd1na2vs0mg"},{"bike_id":"1cdc32f3-8eaf-4e82-aabe-e6069c4483aa","system_id":"levelo_inurba_marseille","lat":43.31999,"lon":5.38156,"is_reserved":false,"is_disabled":false,"rental_uris":{"android":"levelo://app?vid=1cdc32f3-8eaf-4e82-aabe-e6069c4483aa","ios":"levelo://app?vid=1cdc32f3-8eaf-4e82-aabe-e6069c4483aa"},"vehicle_type_id":"4","last_reported":1779359401,"current_range_meters":6800,"station_id":"ce4bhr12rcd13ifvqhpg","pricing_plan_id":"cebpf4jnsgd1na2vs0mg"},{"bike_id":"2417956b-f325-4b75-806c-e42e7b7f598c","system_id":"levelo_inurba_marseille","lat":43.24975,"lon":5.41787,"is_reserved":false,"is_disabled":false,"rental_uris":{"android":"levelo://app?vid=2417956b-f325-4b75-806c-e42e7b7f598c","ios":"levelo://app?vid=2417956b-f325-4b75-806c-e42e7b7f598c"},"vehicle_type_id":"4","last_reported":1779359401,"current_range_meters":6800,"station_id":"","pricing_plan_id":"cebpf4jnsgd1na2vs0mg"},{"bike_id":"615c49a8-b4db-44a4-9999-da0b264dbd08","system_id":"levelo_inurba_marseille","lat":43.25868,"lon":5.39895,"is_reserved":false,"is_disabled":false,"rental_uris":{"android":"levelo://app?vid=615c49a8-b4db-44a4-9999-da0b264dbd08","ios":"levelo://app?vid=615c49a8-b4db-44a4-9999-da0b264dbd08"},"vehicle_type_id":"4","last_reported":1779359401,"current_range_meters":6800,"station_id":"ce4bhl92rcd13ifvqghg","pricing_plan_id":"cebpf4jnsgd1na2vs0mg"},{"bike_id":"951de660-ff88-4c81-bb27-267ffe8cd50c","system_id":"levelo_inurba_marseille","lat":43.29003,"lon":5.35599,"is_reserved":false,"is_disabled":false,"rental_uris":{"android":"levelo://app?vid=951de660-ff88-4c81-bb27-267ffe8cd50c","ios":"levelo://app?vid=951de660-ff88-4c81-bb27-267ffe8cd50c"},"vehicle_type_id":"4","last_reported":1779359401,"current_range_meters":7200,"station_id":"ce4bhb92rcd13ifvqen0","pricing_plan_id":"cebpf4jnsgd1na2vs0mg"},{"bike_id":"a6a09eef-233b-46cb-a007-800293c6dacb","system_id":"levelo_inurba_marseille","lat":43.30119,"lon":5.3743,"is_reserved":false,"is_disabled":false,"rental_uris":{"android":"levelo://app?vid=a6a09eef-233b-46cb-a007-800293c6dacb","ios":"levelo://app?vid=a6a09eef-233b-46cb-a007-800293c6dacb"},"vehicle_type_id":"4","last_reported":1779359401,"current_range_meters":7200,"station_id":"ce4bgs92rcd13ifvqcc0","pricing_plan_id":"cebpf4jnsgd1na2vs0mg"},{"bike_id":"5aee5052-f82b-48a3-9797-313893695311","system_id":"levelo_inurba_marseille","lat":43.28418,"lon":5.34987,"is_reserved":false,"is_disabled":false,"rental_uris":{"android":"levelo://app?vid=5aee5052-f82b-48a3-9797-313893695311","ios":"levelo://app?vid=5aee5052-f82b-48a3-9797-313893695311"},"vehicle_type_id":"4","last_reported":1779359401,"current_range_meters":7200,"station_id":"ce4bhbh2rcd13ifvqepg","pricing_plan_id":"cebpf4jnsgd1na2vs0mg"},{"bike_id":"bb62ad4e-951b-4e22-9800-2e97db05eb48","system_id":"levelo_inurba_marseille","lat":43.30142,"lon":5.37408,"is_reserved":false,"is_disabled":false,"rental_uris":{"android":"levelo://app?vid=bb62ad4e-951b-4e22-9800-2e97db05eb48","ios":"levelo://app?vid=bb62ad4e-951b-4e22-9800-2e97db05eb48"},"vehicle_type_id":"4","last_reported":1779359401,"current_range_meters":7200,"station_id":"ce4bgs92rcd13ifvqcc0","pricing_plan_id":"cebpf4jnsgd1na2vs0mg"},{"bike_id":"12481d7b-ca53-44d2-a72d-3641cbe06950","system_id":"levelo_inurba_marseille","lat":43.29912,"lon":5.41024,"is_reserved":false,"is_disabled":false,"rental_uris":{"android":"levelo://app?vid=12481d7b-ca53-44d2-a72d-3641cbe06950","ios":"levelo://app?vid=12481d7b-ca53-44d2-a72d-3641cbe06950"},"vehicle_type_id":"4","last_reported":1779359401,"current_range_meters":7200,"station_id":"","pricing_plan_id":"cebpf4jnsgd1na2vs0mg"},{"bike_id":"8e7115e5-afd0-482b-bfd7-f75a7925e115","system_id":"levelo_inurba_marseille","lat":43.30261,"lon":5.41219,"is_reserved":false,"is_disabled":false,"rental_uris":{"android":"levelo://app?vid=8e7115e5-afd0-482b-bfd7-f75a7925e115","ios":"levelo://app?vid=8e7115e5-afd0-482b-bfd7-f75a7925e115"},"vehicle_type_id":"4","last_reported":1779359401,"current_range_meters":7200,"station_id":"","pricing_plan_id":"cebpf4jnsgd1na2vs0mg"},{"bike_id":"cac40514-c1da-4874-913f-33b1937cdac8","system_id":"levelo_inurba_marseille","lat":43.31097,"lon":5.42433,"is_reserved":false,"is_disabled":false,"rental_uris":{"android":"levelo://app?vid=cac40514-c1da-4874-913f-33b1937cdac8","ios":"levelo://app?vid=cac40514-c1da-4874-913f-33b1937cdac8"},"vehicle_type_id":"4","last_reported":1779359401,"current_range_meters":7200,"station_id":"ce4bhp92rcd13ifvqhag","pricing_plan_id":"cebpf4jnsgd1na2vs0mg"},{"bike_id":"3f641b9f-4005-42f3-b103-a8f37e60dd94","system_id":"levelo_inurba_marseille","lat":43.28706,"lon":5.37945,"is_reserved":false,"is_disabled":false,"rental_uris":{"android":"levelo://app?vid=3f641b9f-4005-42f3-b103-a8f37e60dd94","ios":"levelo://app?vid=3f641b9f-4005-42f3-b103-a8f37e60dd94"},"vehicle_type_id":"4","last_reported":1779359401,"current_range_meters":7200,"station_id":"ce4bh9p2rcd13ifvqec0","pricing_plan_id":"cebpf4jnsgd1na2vs0mg"},{"bike_id":"86acb344-9066-47c1-bef7-dff26b637764","system_id":"levelo_inurba_marseille","lat":43.31701,"lon":5.40479,"is_reserved":false,"is_disabled":false,"rental_uris":{"android":"levelo://app?vid=86acb344-9066-47c1-bef7-dff26b637764","ios":"levelo://app?vid=86acb344-9066-47c1-bef7-dff26b637764"},"vehicle_type_id":"4","last_reported":1779359401,"current_range_meters":7200,"station_id":"ce4bh012rcd13ifvqd00","pricing_plan_id":"cebpf4jnsgd1na2vs0mg"},{"bike_id":"1ca95aee-a991-4a29-b8d4-54ec712d9fb3","system_id":"levelo_inurba_marseille","lat":43.28701,"lon":5.46677,"is_reserved":false,"is_disabled":false,"rental_uris":{"android":"levelo://app?vid=1ca95aee-a991-4a29-b8d4-54ec712d9fb3","ios":"levelo://app?vid=1ca95aee-a991-4a29-b8d4-54ec712d9fb3"},"vehicle_type_id":"4","last_reported":1779359401,"current_range_meters":7200,"station_id":"st_d6tc3vkotcvc738tfjhg","pricing_plan_id":"cebpf4jnsgd1na2vs0mg"},{"bike_id":"f443cce0-a810-4a4f-8dc0-d717c2f3eb61","system_id":"levelo_inurba_marseille","lat":43.26364,"lon":5.410845,"is_reserved":false,"is_disabled":false,"rental_uris":{"android":"levelo://app?vid=f443cce0-a810-4a4f-8dc0-d717c2f3eb61","ios":"levelo://app?vid=f443cce0-a810-4a4f-8dc0-d717c2f3eb61"},"vehicle_type_id":"4","last_reported":1779359401,"current_range_meters":7200,"station_id":"st_d4e5ca6na9uc73bfl5fg","pricing_plan_id":"cebpf4jnsgd1na2vs0mg"},{"bike_id":"616259e1-99b9-477f-9be8-a931d2e539ff","system_id":"levelo_inurba_marseille","lat":43.231941,"lon":5.355529,"is_reserved":false,"is_disabled":false,"rental_uris":{"android":"levelo://app?vid=616259e1-99b9-477f-9be8-a931d2e539ff","ios":"levelo://app?vid=616259e1-99b9-477f-9be8-a931d2e539ff"},"vehicle_type_id":"4","last_reported":1779359401,"current_range_meters":8000,"station_id":"ce4bgi92rcd13ifvqb90","pricing_plan_id":"cebpf4jnsgd1na2vs0mg"},{"bike_id":"375ee5aa-b3a4-4687-9cb5-9ce27e5d544e","system_id":"levelo_inurba_marseille","lat":43.31076,"lon":5.42434,"is_reserved":false,"is_disabled":false,"rental_uris":{"android":"levelo://app?vid=375ee5aa-b3a4-4687-9cb5-9ce27e5d544e","ios":"levelo://app?vid=375ee5aa-b3a4-4687-9cb5-9ce27e5d544e"},"vehicle_type_id":"4","last_reported":1779359401,"current_range_meters":8000,"station_id":"ce4bhp92rcd13ifvqhag","pricing_plan_id":"cebpf4jnsgd1na2vs0mg"},{"bike_id":"5195998f-29c0-451a-9b35-063ca4547e00","system_id":"levelo_inurba_marseille","lat":43.24169,"lon":5.36397,"is_reserved":false,"is_disabled":true,"rental_uris":{"android":"levelo://app?vid=5195998f-29c0-451a-9b35-063ca4547e00","ios":"levelo://app?vid=5195998f-29c0-451a-9b35-063ca4547e00"},"vehicle_type_id":"4","last_reported":1779359401,"current_range_meters":8000,"station_id":"cpo36qri1sfpv3e86is0","pricing_plan_id":"cebpf4jnsgd1na2vs0mg"},{"bike_id":"f400ac63-3fcc-4f78-8797-3a09faf2e8cd","system_id":"levelo_inurba_marseille","lat":43.28416,"lon":5.34973,"is_reserved":false,"is_disabled":false,"rental_uris":{"android":"levelo://app?vid=f400ac63-3fcc-4f78-8797-3a09faf2e8cd","ios":"levelo://app?vid=f400ac63-3fcc-4f78-8797-3a09faf2e8cd"},"vehicle_type_id":"4","last_reported":1779359401,"current_range_meters":8000,"station_id":"ce4bhbh2rcd13ifvqepg","pricing_plan_id":"cebpf4jnsgd1na2vs0mg"},{"bike_id":"8a745c24-f2e2-43e1-8588-618d43689edc","system_id":"levelo_inurba_marseille","lat":43.25923,"lon":5.40903,"is_reserved":false,"is_disabled":false,"rental_uris":{"android":"levelo://app?vid=8a745c24-f2e2-43e1-8588-618d43689edc","ios":"levelo://app?vid=8a745c24-f2e2-43e1-8588-618d43689edc"},"vehicle_type_id":"4","last_reported":1779359401,"current_range_meters":8000,"station_id":"ce4bhm92rcd13ifvqglg","pricing_plan_id":"cebpf4jnsgd1na2vs0mg"},{"bike_id":"e7e37ae8-311e-41e2-bfd9-ceafe0a976e9","system_id":"levelo_inurba_marseille","lat":43.30544,"lon":5.36547,"is_reserved":false,"is_disabled":false,"rental_uris":{"android":"levelo://app?vid=e7e37ae8-311e-41e2-bfd9-ceafe0a976e9","ios":"levelo://app?vid=e7e37ae8-311e-41e2-bfd9-ceafe0a976e9"},"vehicle_type_id":"4","last_reported":1779359401,"current_range_meters":8000,"station_id":"ce4bgs12rcd13ifvqcag","pricing_plan_id":"cebpf4jnsgd1na2vs0mg"},{"bike_id":"65f41086-23fc-487a-9ced-5f748d2e3f5e","system_id":"levelo_inurba_marseille","lat":43.26219,"lon":5.37431,"is_reserved":false,"is_disabled":true,"rental_uris":{"android":"levelo://app?vid=65f41086-23fc-487a-9ced-5f748d2e3f5e","ios":"levelo://app?vid=65f41086-23fc-487a-9ced-5f748d2e3f5e"},"vehicle_type_id":"4","last_reported":1779359401,"current_range_meters":8000,"station_id":"ce4bhgp2rcd13ifvqfc0","pricing_plan_id":"cebpf4jnsgd1na2vs0mg"},{"bike_id":"97bc8a21-bf9e-4085-93be-aff8964a1112","system_id":"levelo_inurba_marseille","lat":43.2828,"lon":5.35065,"is_reserved":false,"is_disabled":false,"rental_uris":{"android":"levelo://app?vid=97bc8a21-bf9e-4085-93be-aff8964a1112","ios":"levelo://app?vid=97bc8a21-bf9e-4085-93be-aff8964a1112"},"vehicle_type_id":"4","last_reported":1779359401,"current_range_meters":8000,"station_id":"ce4bhbp2rcd13ifvqerg","pricing_plan_id":"cebpf4jnsgd1na2vs0mg"},{"bike_id":"543af00f-77c8-4c77-9e99-97b870cb82ec","system_id":"levelo_inurba_marseille","lat":43.27219,"lon":5.39168,"is_reserved":false,"is_disabled":false,"rental_uris":{"android":"levelo://app?vid=543af00f-77c8-4c77-9e99-97b870cb82ec","ios":"levelo://app?vid=543af00f-77c8-4c77-9e99-97b870cb82ec"},"vehicle_type_id":"4","last_reported":1779359401,"current_range_meters":8000,"station_id":"ce4bhhp2rcd13ifvqfm0","pricing_plan_id":"cebpf4jnsgd1na2vs0mg"},{"bike_id":"86befede-3518-4707-9ee3-c3703cbfebd0","system_id":"levelo_inurba_marseille","lat":43.30461,"lon":5.37904,"is_reserved":false,"is_disabled":false,"rental_uris":{"android":"levelo://app?vid=86befede-3518-4707-9ee3-c3703cbfebd0","ios":"levelo://app?vid=86befede-3518-4707-9ee3-c3703cbfebd0"},"vehicle_type_id":"4","last_reported":1779359401,"current_range_meters":8000,"station_id":"ce4bgup2rcd13ifvqcn0","pricing_plan_id":"cebpf4jnsgd1na2vs0mg"},{"bike_id":"976b60a4-b35a-4d13-b73c-5c5f5f51d4f6","system_id":"levelo_inurba_marseille","lat":43.33124,"lon":5.37698,"is_reserved":false,"is_disabled":false,"rental_uris":{"android":"levelo://app?vid=976b60a4-b35a-4d13-b73c-5c5f5f51d4f6","ios":"levelo://app?vid=976b60a4-b35a-4d13-b73c-5c5f5f51d4f6"},"vehicle_type_id":"4","last_reported":1779359401,"current_range_meters":8000,"station_id":"st_d46cu089ee8s73dldbu0","pricing_plan_id":"cebpf4jnsgd1na2vs0mg"},{"bike_id":"96c60a48-be49-40d5-8335-2329b2af94cc","system_id":"levelo_inurba_marseille","lat":43.301489,"lon":5.380914,"is_reserved":false,"is_disabled":false,"rental_uris":{"android":"levelo://app?vid=96c60a48-be49-40d5-8335-2329b2af94cc","ios":"levelo://app?vid=96c60a48-be49-40d5-8335-2329b2af94cc"},"vehicle_type_id":"4","last_reported":1779359401,"current_range_meters":8000,"station_id":"ce4bgjp2rcd13ifvqbh0","pricing_plan_id":"cebpf4jnsgd1na2vs0mg"},{"bike_id":"c958ab3f-0516-4bf3-a184-970575a9651e","system_id":"levelo_inurba_marseille","lat":43.30466,"lon":5.37898,"is_reserved":false,"is_disabled":false,"rental_uris":{"android":"levelo://app?vid=c958ab3f-0516-4bf3-a184-970575a9651e","ios":"levelo://app?vid=c958ab3f-0516-4bf3-a184-970575a9651e"},"vehicle_type_id":"4","last_reported":1779359401,"current_range_meters":8000,"station_id":"ce4bgup2rcd13ifvqcn0","pricing_plan_id":"cebpf4jnsgd1na2vs0mg"},{"bike_id":"370b83f0-fc40-4045-aa0b-adbb399bd60e","system_id":"levelo_inurba_marseille","lat":43.294375,"lon":5.397543,"is_reserved":false,"is_disabled":false,"rental_uris":{"android":"levelo://app?vid=370b83f0-fc40-4045-aa0b-adbb399bd60e","ios":"levelo://app?vid=370b83f0-fc40-4045-aa0b-adbb399bd60e"},"vehicle_type_id":"4","last_reported":1779359401,"current_range_meters":8000,"station_id":"ce4bh3h2rcd13ifvqdo0","pricing_plan_id":"cebpf4jnsgd1na2vs0mg"},{"bike_id":"e27feea1-9bc4-4f71-870f-9ba99b38e6d2","system_id":"levelo_inurba_marseille","lat":43.29167,"lon":5.3725,"is_reserved":false,"is_disabled":false,"rental_uris":{"android":"levelo://app?vid=e27feea1-9bc4-4f71-870f-9ba99b38e6d2","ios":"levelo://app?vid=e27feea1-9bc4-4f71-870f-9ba99b38e6d2"},"vehicle_type_id":"4","last_reported":1779359401,"current_range_meters":8000,"station_id":"","pricing_plan_id":"cebpf4jnsgd1na2vs0mg"},{"bike_id":"386b3dc2-3da3-470d-92db-655a8a30a91f","system_id":"levelo_inurba_marseille","lat":43.28847,"lon":5.3586,"is_reserved":false,"is_disabled":false,"rental_uris":{"android":"levelo://app?vid=386b3dc2-3da3-470d-92db-655a8a30a91f","ios":"levelo://app?vid=386b3dc2-3da3-470d-92db-655a8a30a91f"},"vehicle_type_id":"4","last_reported":1779359401,"current_range_meters":8000,"station_id":"ce4bhb12rcd13ifvqem0","pricing_plan_id":"cebpf4jnsgd1na2vs0mg"},{"bike_id":"b95cfd12-4ccd-47f6-9284-1ffc9cc59bc2","system_id":"levelo_inurba_marseille","lat":43.29148,"lon":5.37155,"is_reserved":false,"is_disabled":false,"rental_uris":{"android":"levelo://app?vid=b95cfd12-4ccd-47f6-9284-1ffc9cc59bc2","ios":"levelo://app?vid=b95cfd12-4ccd-47f6-9284-1ffc9cc59bc2"},"vehicle_type_id":"4","last_reported":1779359401,"current_range_meters":8000,"station_id":"ce4bha92rcd13ifvqeh0","pricing_plan_id":"cebpf4jnsgd1na2vs0mg"},{"bike_id":"5a297e80-d2f0-4fb4-9886-093528a3567a","system_id":"levelo_inurba_marseille","lat":43.31454,"lon":5.37363,"is_reserved":false,"is_disabled":true,"rental_uris":{"android":"levelo://app?vid=5a297e80-d2f0-4fb4-9886-093528a3567a","ios":"levelo://app?vid=5a297e80-d2f0-4fb4-9886-093528a3567a"},"vehicle_type_id":"4","last_reported":1779359401,"current_range_meters":8400,"station_id":"","pricing_plan_id":"cebpf4jnsgd1na2vs0mg"},{"bike_id":"d3e05c6f-a1b3-40e4-b3d3-0cba3631af5b","system_id":"levelo_inurba_marseille","lat":43.28486,"lon":5.38413,"is_reserved":false,"is_disabled":false,"rental_uris":{"android":"levelo://app?vid=d3e05c6f-a1b3-40e4-b3d3-0cba3631af5b","ios":"levelo://app?vid=d3e05c6f-a1b3-40e4-b3d3-0cba3631af5b"},"vehicle_type_id":"4","last_reported":1779359401,"current_range_meters":8400,"station_id":"ce4bh512rcd13ifvqe3g","pricing_plan_id":"cebpf4jnsgd1na2vs0mg"},{"bike_id":"2fbac758-0692-4d8a-9705-7fcad4dab252","system_id":"levelo_inurba_marseille","lat":43.30922,"lon":5.38003,"is_reserved":false,"is_disabled":false,"rental_uris":{"android":"levelo://app?vid=2fbac758-0692-4d8a-9705-7fcad4dab252","ios":"levelo://app?vid=2fbac758-0692-4d8a-9705-7fcad4dab252"},"vehicle_type_id":"4","last_reported":1779359401,"current_range_meters":8400,"station_id":"","pricing_plan_id":"cebpf4jnsgd1na2vs0mg"},{"bike_id":"c869259c-16e6-4722-bb8a-be08425e50f0","system_id":"levelo_inurba_marseille","lat":43.24373,"lon":5.37068,"is_reserved":false,"is_disabled":false,"rental_uris":{"android":"levelo://app?vid=c869259c-16e6-4722-bb8a-be08425e50f0","ios":"levelo://app?vid=c869259c-16e6-4722-bb8a-be08425e50f0"},"vehicle_type_id":"4","last_reported":1779359401,"current_range_meters":8400,"station_id":"ce4bhhh2rcd13ifvqfk0","pricing_plan_id":"cebpf4jnsgd1na2vs0mg"},{"bike_id":"868c7f6d-3724-4708-98f5-65cb966b2d4a","system_id":"levelo_inurba_marseille","lat":43.33549,"lon":5.37448,"is_reserved":false,"is_disabled":false,"rental_uris":{"android":"levelo://app?vid=868c7f6d-3724-4708-98f5-65cb966b2d4a","ios":"levelo://app?vid=868c7f6d-3724-4708-98f5-65cb966b2d4a"},"vehicle_type_id":"4","last_reported":1779359401,"current_range_meters":8400,"station_id":"st_d46tts09ee8s73dlu43g","pricing_plan_id":"cebpf4jnsgd1na2vs0mg"},{"bike_id":"228922d6-0543-4267-82f9-aa9e0618e2e5","system_id":"levelo_inurba_marseille","lat":43.26191,"lon":5.37442,"is_reserved":false,"is_disabled":false,"rental_uris":{"android":"levelo://app?vid=228922d6-0543-4267-82f9-aa9e0618e2e5","ios":"levelo://app?vid=228922d6-0543-4267-82f9-aa9e0618e2e5"},"vehicle_type_id":"4","last_reported":1779359401,"current_range_meters":8400,"station_id":"ce4bhgp2rcd13ifvqfc0","pricing_plan_id":"cebpf4jnsgd1na2vs0mg"},{"bike_id":"70bd1697-29a9-464f-a79a-74a540437e6e","system_id":"levelo_inurba_marseille","lat":43.33754,"lon":5.37469,"is_reserved":false,"is_disabled":false,"rental_uris":{"android":"levelo://app?vid=70bd1697-29a9-464f-a79a-74a540437e6e","ios":"levelo://app?vid=70bd1697-29a9-464f-a79a-74a540437e6e"},"vehicle_type_id":"4","last_reported":1779359401,"current_range_meters":8400,"station_id":"","pricing_plan_id":"cebpf4jnsgd1na2vs0mg"},{"bike_id":"4c2a58ee-7222-45f9-b317-eaee57da5c79","system_id":"levelo_inurba_marseille","lat":43.28932,"lon":5.38383,"is_reserved":false,"is_disabled":false,"rental_uris":{"android":"levelo://app?vid=4c2a58ee-7222-45f9-b317-eaee57da5c79","ios":"levelo://app?vid=4c2a58ee-7222-45f9-b317-eaee57da5c79"},"vehicle_type_id":"4","last_reported":1779359401,"current_range_meters":8400,"station_id":"ce4bh612rcd13ifvqe6g","pricing_plan_id":"cebpf4jnsgd1na2vs0mg"},{"bike_id":"fe43aa86-a7cf-4764-b3b2-76656fe17e19","system_id":"levelo_inurba_marseille","lat":43.30206,"lon":5.37404,"is_reserved":false,"is_disabled":false,"rental_uris":{"android":"levelo://app?vid=fe43aa86-a7cf-4764-b3b2-76656fe17e19","ios":"levelo://app?vid=fe43aa86-a7cf-4764-b3b2-76656fe17e19"},"vehicle_type_id":"4","last_reported":1779359401,"current_range_meters":8400,"station_id":"","pricing_plan_id":"cebpf4jnsgd1na2vs0mg"},{"bike_id":"7ec93175-8d9c-4b31-b534-34e06405c4e0","system_id":"levelo_inurba_marseille","lat":43.29614,"lon":5.44686,"is_reserved":false,"is_disabled":false,"rental_uris":{"android":"levelo://app?vid=7ec93175-8d9c-4b31-b534-34e06405c4e0","ios":"levelo://app?vid=7ec93175-8d9c-4b31-b534-34e06405c4e0"},"vehicle_type_id":"4","last_reported":1779359401,"current_range_meters":8400,"station_id":"","pricing_plan_id":"cebpf4jnsgd1na2vs0mg"},{"bike_id":"e130231f-d80a-41e6-aaff-6a1c080fe988","system_id":"levelo_inurba_marseille","lat":43.29972,"lon":5.3717,"is_reserved":false,"is_disabled":false,"rental_uris":{"android":"levelo://app?vid=e130231f-d80a-41e6-aaff-6a1c080fe988","ios":"levelo://app?vid=e130231f-d80a-41e6-aaff-6a1c080fe988"},"vehicle_type_id":"4","last_reported":1779359401,"current_range_meters":8400,"station_id":"ce4bgr92rcd13ifvqc7g","pricing_plan_id":"cebpf4jnsgd1na2vs0mg"},{"bike_id":"7fb09f73-e743-428c-96ed-4cdd12f5bc7f","system_id":"levelo_inurba_marseille","lat":43.29884,"lon":5.37471,"is_reserved":false,"is_disabled":false,"rental_uris":{"android":"levelo://app?vid=7fb09f73-e743-428c-96ed-4cdd12f5bc7f","ios":"levelo://app?vid=7fb09f73-e743-428c-96ed-4cdd12f5bc7f"},"vehicle_type_id":"4","last_reported":1779359401,"current_range_meters":8400,"station_id":"ce4bgjh2rcd13ifvqbg0","pricing_plan_id":"cebpf4jnsgd1na2vs0mg"},{"bike_id":"89f018e6-b2b2-405c-83b7-e598f822f15d","system_id":"levelo_inurba_marseille","lat":43.27057,"lon":5.38306,"is_reserved":false,"is_disabled":false,"rental_uris":{"android":"levelo://app?vid=89f018e6-b2b2-405c-83b7-e598f822f15d","ios":"levelo://app?vid=89f018e6-b2b2-405c-83b7-e598f822f15d"},"vehicle_type_id":"4","last_reported":1779359401,"current_range_meters":8400,"station_id":"st_d3n2fo6cfp8s73cte1j0","pricing_plan_id":"cebpf4jnsgd1na2vs0mg"},{"bike_id":"e30ebf53-ca2b-4ae7-a9b8-5e935403d3db","system_id":"levelo_inurba_marseille","lat":43.3176,"lon":5.3901,"is_reserved":false,"is_disabled":false,"rental_uris":{"android":"levelo://app?vid=e30ebf53-ca2b-4ae7-a9b8-5e935403d3db","ios":"levelo://app?vid=e30ebf53-ca2b-4ae7-a9b8-5e935403d3db"},"vehicle_type_id":"4","last_reported":1779359401,"current_range_meters":8400,"station_id":"ce4bhqp2rcd13ifvqhng","pricing_plan_id":"cebpf4jnsgd1na2vs0mg"},{"bike_id":"b1f8e745-20cc-4e84-acf0-d5220eea7662","system_id":"levelo_inurba_marseille","lat":43.28617,"lon":5.35095,"is_reserved":false,"is_disabled":false,"rental_uris":{"android":"levelo://app?vid=b1f8e745-20cc-4e84-acf0-d5220eea7662","ios":"levelo://app?vid=b1f8e745-20cc-4e84-acf0-d5220eea7662"},"vehicle_type_id":"4","last_reported":1779359401,"current_range_meters":8400,"station_id":"ce4bhch2rcd13ifvqeug","pricing_plan_id":"cebpf4jnsgd1na2vs0mg"},{"bike_id":"8ae01fbd-13ec-4abe-9b2c-1050445b111f","system_id":"levelo_inurba_marseille","lat":43.22531,"lon":5.34827,"is_reserved":false,"is_disabled":false,"rental_uris":{"android":"levelo://app?vid=8ae01fbd-13ec-4abe-9b2c-1050445b111f","ios":"levelo://app?vid=8ae01fbd-13ec-4abe-9b2c-1050445b111f"},"vehicle_type_id":"4","last_reported":1779359401,"current_range_meters":8400,"station_id":"st_cvj5dfep6f1abm77gieg","pricing_plan_id":"cebpf4jnsgd1na2vs0mg"},{"bike_id":"13096f42-3c20-4d54-a4ae-a412dadb18bf","system_id":"levelo_inurba_marseille","lat":43.23146,"lon":5.4371,"is_reserved":false,"is_disabled":false,"rental_uris":{"android":"levelo://app?vid=13096f42-3c20-4d54-a4ae-a412dadb18bf","ios":"levelo://app?vid=13096f42-3c20-4d54-a4ae-a412dadb18bf"},"vehicle_type_id":"4","last_reported":1779359401,"current_range_meters":8400,"station_id":"ce4bhmp2rcd13ifvqgog","pricing_plan_id":"cebpf4jnsgd1na2vs0mg"},{"bike_id":"86a115ef-cf81-4e79-8396-9e4d595b93ed","system_id":"levelo_inurba_marseille","lat":43.268,"lon":5.40254,"is_reserved":false,"is_disabled":false,"rental_uris":{"android":"levelo://app?vid=86a115ef-cf81-4e79-8396-9e4d595b93ed","ios":"levelo://app?vid=86a115ef-cf81-4e79-8396-9e4d595b93ed"},"vehicle_type_id":"4","last_reported":1779359401,"current_range_meters":8400,"station_id":"ce501612rcd8frsf0b60","pricing_plan_id":"cebpf4jnsgd1na2vs0mg"},{"bike_id":"6447d1f1-d1c7-4d9e-8db3-e49b12bbf104","system_id":"levelo_inurba_marseille","lat":43.24174,"lon":5.39716,"is_reserved":false,"is_disabled":false,"rental_uris":{"android":"levelo://app?vid=6447d1f1-d1c7-4d9e-8db3-e49b12bbf104","ios":"levelo://app?vid=6447d1f1-d1c7-4d9e-8db3-e49b12bbf104"},"vehicle_type_id":"4","last_reported":1779359401,"current_range_meters":8400,"station_id":"ce4bhn12rcd13ifvqgpg","pricing_plan_id":"cebpf4jnsgd1na2vs0mg"},{"bike_id":"7926970b-b546-4bd9-8ad0-0c1e21624b17","system_id":"levelo_inurba_marseille","lat":43.29589,"lon":5.381,"is_reserved":false,"is_disabled":true,"rental_uris":{"android":"levelo://app?vid=7926970b-b546-4bd9-8ad0-0c1e21624b17","ios":"levelo://app?vid=7926970b-b546-4bd9-8ad0-0c1e21624b17"},"vehicle_type_id":"4","last_reported":1779359401,"current_range_meters":8400,"station_id":"ce4bgl12rcd13ifvqbo0","pricing_plan_id":"cebpf4jnsgd1na2vs0mg"},{"bike_id":"3164d9e8-c839-4029-b458-2d3d9b344e5f","system_id":"levelo_inurba_marseille","lat":43.275716,"lon":5.396434,"is_reserved":false,"is_disabled":false,"rental_uris":{"android":"levelo://app?vid=3164d9e8-c839-4029-b458-2d3d9b344e5f","ios":"levelo://app?vid=3164d9e8-c839-4029-b458-2d3d9b344e5f"},"vehicle_type_id":"4","last_reported":1779359401,"current_range_meters":8400,"station_id":"","pricing_plan_id":"cebpf4jnsgd1na2vs0mg"},{"bike_id":"fde6787b-4f2b-47b0-a0b5-820834f79162","system_id":"levelo_inurba_marseille","lat":43.32033,"lon":5.40627,"is_reserved":false,"is_disabled":false,"rental_uris":{"android":"levelo://app?vid=fde6787b-4f2b-47b0-a0b5-820834f79162","ios":"levelo://app?vid=fde6787b-4f2b-47b0-a0b5-820834f79162"},"vehicle_type_id":"4","last_reported":1779359401,"current_range_meters":8400,"station_id":"","pricing_plan_id":"cebpf4jnsgd1na2vs0mg"},{"bike_id":"c7e0ae95-6b20-4940-b884-0c38daa064d2","system_id":"levelo_inurba_marseille","lat":43.34146,"lon":5.40888,"is_reserved":false,"is_disabled":false,"rental_uris":{"android":"levelo://app?vid=c7e0ae95-6b20-4940-b884-0c38daa064d2","ios":"levelo://app?vid=c7e0ae95-6b20-4940-b884-0c38daa064d2"},"vehicle_type_id":"4","last_reported":1779359401,"current_range_meters":8400,"station_id":"ce4bhqh2rcd13ifvqhlg","pricing_plan_id":"cebpf4jnsgd1na2vs0mg"},{"bike_id":"832594d1-625f-4ac9-b8e4-401295e4ea26","system_id":"levelo_inurba_marseille","lat":43.3,"lon":5.37179,"is_reserved":false,"is_disabled":false,"rental_uris":{"android":"levelo://app?vid=832594d1-625f-4ac9-b8e4-401295e4ea26","ios":"levelo://app?vid=832594d1-625f-4ac9-b8e4-401295e4ea26"},"vehicle_type_id":"4","last_reported":1779359401,"current_range_meters":8800,"station_id":"ce4bgr92rcd13ifvqc7g","pricing_plan_id":"cebpf4jnsgd1na2vs0mg"},{"bike_id":"ad6d8b73-6259-410d-979f-09e40ec16dc9","system_id":"levelo_inurba_marseille","lat":43.3082,"lon":5.37198,"is_reserved":false,"is_disabled":false,"rental_uris":{"android":"levelo://app?vid=ad6d8b73-6259-410d-979f-09e40ec16dc9","ios":"levelo://app?vid=ad6d8b73-6259-410d-979f-09e40ec16dc9"},"vehicle_type_id":"4","last_reported":1779359401,"current_range_meters":8800,"station_id":"","pricing_plan_id":"cebpf4jnsgd1na2vs0mg"},{"bike_id":"b108d68d-acb9-441e-8383-3553a3b94e36","system_id":"levelo_inurba_marseille","lat":43.24182,"lon":5.36375,"is_reserved":false,"is_disabled":false,"rental_uris":{"android":"levelo://app?vid=b108d68d-acb9-441e-8383-3553a3b94e36","ios":"levelo://app?vid=b108d68d-acb9-441e-8383-3553a3b94e36"},"vehicle_type_id":"4","last_reported":1779359401,"current_range_meters":8800,"station_id":"cpo36qri1sfpv3e86is0","pricing_plan_id":"cebpf4jnsgd1na2vs0mg"},{"bike_id":"129d1c1e-a4ec-4956-9f3f-d6961f012ff9","system_id":"levelo_inurba_marseille","lat":43.28827,"lon":5.36634,"is_reserved":false,"is_disabled":false,"rental_uris":{"android":"levelo://app?vid=129d1c1e-a4ec-4956-9f3f-d6961f012ff9","ios":"levelo://app?vid=129d1c1e-a4ec-4956-9f3f-d6961f012ff9"},"vehicle_type_id":"4","last_reported":1779359401,"current_range_meters":8800,"station_id":"","pricing_plan_id":"cebpf4jnsgd1na2vs0mg"},{"bike_id":"678c2486-f208-445a-a253-9dfac60b0dc7","system_id":"levelo_inurba_marseille","lat":43.32476,"lon":5.36871,"is_reserved":false,"is_disabled":false,"rental_uris":{"android":"levelo://app?vid=678c2486-f208-445a-a253-9dfac60b0dc7","ios":"levelo://app?vid=678c2486-f208-445a-a253-9dfac60b0dc7"},"vehicle_type_id":"4","last_reported":1779359401,"current_range_meters":8800,"station_id":"","pricing_plan_id":"cebpf4jnsgd1na2vs0mg"},{"bike_id":"3e98885b-dfca-4cf2-bbd7-b2d6787eced1","system_id":"levelo_inurba_marseille","lat":43.3176,"lon":5.39015,"is_reserved":false,"is_disabled":false,"rental_uris":{"android":"levelo://app?vid=3e98885b-dfca-4cf2-bbd7-b2d6787eced1","ios":"levelo://app?vid=3e98885b-dfca-4cf2-bbd7-b2d6787eced1"},"vehicle_type_id":"4","last_reported":1779359401,"current_range_meters":8800,"station_id":"ce4bhqp2rcd13ifvqhng","pricing_plan_id":"cebpf4jnsgd1na2vs0mg"},{"bike_id":"c15a0844-1863-4ceb-92aa-a8e0955bdd64","system_id":"levelo_inurba_marseille","lat":43.26795,"lon":5.394,"is_reserved":false,"is_disabled":false,"rental_uris":{"android":"levelo://app?vid=c15a0844-1863-4ceb-92aa-a8e0955bdd64","ios":"levelo://app?vid=c15a0844-1863-4ceb-92aa-a8e0955bdd64"},"vehicle_type_id":"4","last_reported":1779359401,"current_range_meters":8800,"station_id":"ce4bhh12rcd13ifvqfg0","pricing_plan_id":"cebpf4jnsgd1na2vs0mg"},{"bike_id":"fd8fd789-28e9-4218-9e5f-9f5a28a95f28","system_id":"levelo_inurba_marseille","lat":43.33161,"lon":5.37694,"is_reserved":false,"is_disabled":false,"rental_uris":{"android":"levelo://app?vid=fd8fd789-28e9-4218-9e5f-9f5a28a95f28","ios":"levelo://app?vid=fd8fd789-28e9-4218-9e5f-9f5a28a95f28"},"vehicle_type_id":"4","last_reported":1779359401,"current_range_meters":8800,"station_id":"st_d46cu089ee8s73dldbu0","pricing_plan_id":"cebpf4jnsgd1na2vs0mg"},{"bike_id":"924fb5a7-6478-4e31-9ad7-34a2292df595","system_id":"levelo_inurba_marseille","lat":43.28479,"lon":5.43731,"is_reserved":false,"is_disabled":false,"rental_uris":{"android":"levelo://app?vid=924fb5a7-6478-4e31-9ad7-34a2292df595","ios":"levelo://app?vid=924fb5a7-6478-4e31-9ad7-34a2292df595"},"vehicle_type_id":"4","last_reported":1779359401,"current_range_meters":8800,"station_id":"","pricing_plan_id":"cebpf4jnsgd1na2vs0mg"},{"bike_id":"03539575-ee79-4bb5-b2ac-865ec9354a3a","system_id":"levelo_inurba_marseille","lat":43.32461,"lon":5.36532,"is_reserved":false,"is_disabled":false,"rental_uris":{"android":"levelo://app?vid=03539575-ee79-4bb5-b2ac-865ec9354a3a","ios":"levelo://app?vid=03539575-ee79-4bb5-b2ac-865ec9354a3a"},"vehicle_type_id":"4","last_reported":1779359401,"current_range_meters":8800,"station_id":"ce4bhs12rcd13ifvqhvg","pricing_plan_id":"cebpf4jnsgd1na2vs0mg"},{"bike_id":"4b71a1c7-4c52-492e-93ac-ce9bec253055","system_id":"levelo_inurba_marseille","lat":43.27679,"lon":5.3888,"is_reserved":false,"is_disabled":false,"rental_uris":{"android":"levelo://app?vid=4b71a1c7-4c52-492e-93ac-ce9bec253055","ios":"levelo://app?vid=4b71a1c7-4c52-492e-93ac-ce9bec253055"},"vehicle_type_id":"4","last_reported":1779359401,"current_range_meters":8800,"station_id":"ce4bhi12rcd13ifvqfo0","pricing_plan_id":"cebpf4jnsgd1na2vs0mg"},{"bike_id":"a9940280-1380-4b59-bb57-b57ac30452b9","system_id":"levelo_inurba_marseille","lat":43.26225,"lon":5.38757,"is_reserved":false,"is_disabled":false,"rental_uris":{"android":"levelo://app?vid=a9940280-1380-4b59-bb57-b57ac30452b9","ios":"levelo://app?vid=a9940280-1380-4b59-bb57-b57ac30452b9"},"vehicle_type_id":"4","last_reported":1779359401,"current_range_meters":8800,"station_id":"","pricing_plan_id":"cebpf4jnsgd1na2vs0mg"},{"bike_id":"e23b8c78-46aa-4e6f-a5ec-bb5d93fa0cee","system_id":"levelo_inurba_marseille","lat":43.29632,"lon":5.37147,"is_reserved":false,"is_disabled":false,"rental_uris":{"android":"levelo://app?vid=e23b8c78-46aa-4e6f-a5ec-bb5d93fa0cee","ios":"levelo://app?vid=e23b8c78-46aa-4e6f-a5ec-bb5d93fa0cee"},"vehicle_type_id":"4","last_reported":1779359401,"current_range_meters":8800,"station_id":"ce4bgnh2rcd13ifvqc0g","pricing_plan_id":"cebpf4jnsgd1na2vs0mg"},{"bike_id":"c1ed57f6-f105-460c-8703-1c2eae17785a","system_id":"levelo_inurba_marseille","lat":43.22536,"lon":5.34874,"is_reserved":false,"is_disabled":false,"rental_uris":{"android":"levelo://app?vid=c1ed57f6-f105-460c-8703-1c2eae17785a","ios":"levelo://app?vid=c1ed57f6-f105-460c-8703-1c2eae17785a"},"vehicle_type_id":"4","last_reported":1779359401,"current_range_meters":8800,"station_id":"st_cvj5dfep6f1abm77gieg","pricing_plan_id":"cebpf4jnsgd1na2vs0mg"},{"bike_id":"489c427c-ff56-4c0e-b39f-19ac01a69697","system_id":"levelo_inurba_marseille","lat":43.31365,"lon":5.36715,"is_reserved":false,"is_disabled":false,"rental_uris":{"android":"levelo://app?vid=489c427c-ff56-4c0e-b39f-19ac01a69697","ios":"levelo://app?vid=489c427c-ff56-4c0e-b39f-19ac01a69697"},"vehicle_type_id":"4","last_reported":1779359401,"current_range_meters":8800,"station_id":"ce4bgr92rcd13ifvqc6g","pricing_plan_id":"cebpf4jnsgd1na2vs0mg"},{"bike_id":"363fa2c4-0a50-4671-8950-81089b3353bb","system_id":"levelo_inurba_marseille","lat":43.30947,"lon":5.39013,"is_reserved":false,"is_disabled":false,"rental_uris":{"android":"levelo://app?vid=363fa2c4-0a50-4671-8950-81089b3353bb","ios":"levelo://app?vid=363fa2c4-0a50-4671-8950-81089b3353bb"},"vehicle_type_id":"4","last_reported":1779359401,"current_range_meters":8800,"station_id":"ce4bgup2rcd13ifvqco0","pricing_plan_id":"cebpf4jnsgd1na2vs0mg"},{"bike_id":"5c9b595c-fedd-4026-a23f-858b3cdd4f6a","system_id":"levelo_inurba_marseille","lat":43.24404,"lon":5.37036,"is_reserved":false,"is_disabled":false,"rental_uris":{"android":"levelo://app?vid=5c9b595c-fedd-4026-a23f-858b3cdd4f6a","ios":"levelo://app?vid=5c9b595c-fedd-4026-a23f-858b3cdd4f6a"},"vehicle_type_id":"4","last_reported":1779359401,"current_range_meters":8800,"station_id":"ce4bhhh2rcd13ifvqfk0","pricing_plan_id":"cebpf4jnsgd1na2vs0mg"},{"bike_id":"ce8ffc2f-e682-4f9d-9e49-61205f46759d","system_id":"levelo_inurba_marseille","lat":43.32314,"lon":5.38525,"is_reserved":false,"is_disabled":false,"rental_uris":{"android":"levelo://app?vid=ce8ffc2f-e682-4f9d-9e49-61205f46759d","ios":"levelo://app?vid=ce8ffc2f-e682-4f9d-9e49-61205f46759d"},"vehicle_type_id":"4","last_reported":1779359401,"current_range_meters":8800,"station_id":"st_d45171o9ee8s73djdqug","pricing_plan_id":"cebpf4jnsgd1na2vs0mg"},{"bike_id":"15f9ab83-6f45-4208-8b0f-c39d9f9f21ac","system_id":"levelo_inurba_marseille","lat":43.29069,"lon":5.37155,"is_reserved":false,"is_disabled":false,"rental_uris":{"android":"levelo://app?vid=15f9ab83-6f45-4208-8b0f-c39d9f9f21ac","ios":"levelo://app?vid=15f9ab83-6f45-4208-8b0f-c39d9f9f21ac"},"vehicle_type_id":"4","last_reported":1779359401,"current_range_meters":8800,"station_id":"ce4bh5p2rcd13ifvqe4g","pricing_plan_id":"cebpf4jnsgd1na2vs0mg"},{"bike_id":"aa24fbeb-0620-4e80-a78b-e0ce357c060f","system_id":"levelo_inurba_marseille","lat":43.25509,"lon":5.3762,"is_reserved":false,"is_disabled":false,"rental_uris":{"android":"levelo://app?vid=aa24fbeb-0620-4e80-a78b-e0ce357c060f","ios":"levelo://app?vid=aa24fbeb-0620-4e80-a78b-e0ce357c060f"},"vehicle_type_id":"4","last_reported":1779359401,"current_range_meters":9200,"station_id":"ce4bhh12rcd13ifvqff0","pricing_plan_id":"cebpf4jnsgd1na2vs0mg"},{"bike_id":"e4f1f133-2456-42cd-b6a4-7ef8b050cd6c","system_id":"levelo_inurba_marseille","lat":43.27658,"lon":5.39745,"is_reserved":false,"is_disabled":false,"rental_uris":{"android":"levelo://app?vid=e4f1f133-2456-42cd-b6a4-7ef8b050cd6c","ios":"levelo://app?vid=e4f1f133-2456-42cd-b6a4-7ef8b050cd6c"},"vehicle_type_id":"4","last_reported":1779359401,"current_range_meters":9200,"station_id":"","pricing_plan_id":"cebpf4jnsgd1na2vs0mg"},{"bike_id":"12952e40-96a0-496b-886e-69aa766fd39c","system_id":"levelo_inurba_marseille","lat":43.3011,"lon":5.37437,"is_reserved":false,"is_disabled":false,"rental_uris":{"android":"levelo://app?vid=12952e40-96a0-496b-886e-69aa766fd39c","ios":"levelo://app?vid=12952e40-96a0-496b-886e-69aa766fd39c"},"vehicle_type_id":"4","last_reported":1779359401,"current_range_meters":9200,"station_id":"ce4bgs92rcd13ifvqcc0","pricing_plan_id":"cebpf4jnsgd1na2vs0mg"},{"bike_id":"812988ad-8e5b-4d23-978a-f9e4f287cfcb","system_id":"levelo_inurba_marseille","lat":43.28264,"lon":5.35049,"is_reserved":false,"is_disabled":false,"rental_uris":{"android":"levelo://app?vid=812988ad-8e5b-4d23-978a-f9e4f287cfcb","ios":"levelo://app?vid=812988ad-8e5b-4d23-978a-f9e4f287cfcb"},"vehicle_type_id":"4","last_reported":1779359401,"current_range_meters":9200,"station_id":"","pricing_plan_id":"cebpf4jnsgd1na2vs0mg"},{"bike_id":"caa52f26-8447-48bd-bc8f-987183652bd7","system_id":"levelo_inurba_marseille","lat":43.2657,"lon":5.39032,"is_reserved":false,"is_disabled":false,"rental_uris":{"android":"levelo://app?vid=caa52f26-8447-48bd-bc8f-987183652bd7","ios":"levelo://app?vid=caa52f26-8447-48bd-bc8f-987183652bd7"},"vehicle_type_id":"4","last_reported":1779359401,"current_range_meters":9200,"station_id":"ce4bhe12rcd13ifvqf30","pricing_plan_id":"cebpf4jnsgd1na2vs0mg"},{"bike_id":"24bb42dc-3126-46ff-b083-39a12cb9fbdc","system_id":"levelo_inurba_marseille","lat":43.27955,"lon":5.41036,"is_reserved":false,"is_disabled":false,"rental_uris":{"android":"levelo://app?vid=24bb42dc-3126-46ff-b083-39a12cb9fbdc","ios":"levelo://app?vid=24bb42dc-3126-46ff-b083-39a12cb9fbdc"},"vehicle_type_id":"4","last_reported":1779359401,"current_range_meters":9200,"station_id":"ce4bhnp2rcd13ifvqh0g","pricing_plan_id":"cebpf4jnsgd1na2vs0mg"},{"bike_id":"09daaf22-a0f4-4e77-a8c7-1bb872a35932","system_id":"levelo_inurba_marseille","lat":43.30797,"lon":5.38136,"is_reserved":false,"is_disabled":false,"rental_uris":{"android":"levelo://app?vid=09daaf22-a0f4-4e77-a8c7-1bb872a35932","ios":"levelo://app?vid=09daaf22-a0f4-4e77-a8c7-1bb872a35932"},"vehicle_type_id":"4","last_reported":1779359401,"current_range_meters":9200,"station_id":"ce4bgt12rcd13ifvqce0","pricing_plan_id":"cebpf4jnsgd1na2vs0mg"},{"bike_id":"65e93d25-13d9-4015-8a34-e3f9d63bc483","system_id":"levelo_inurba_marseille","lat":43.25858,"lon":5.39887,"is_reserved":false,"is_disabled":false,"rental_uris":{"android":"levelo://app?vid=65e93d25-13d9-4015-8a34-e3f9d63bc483","ios":"levelo://app?vid=65e93d25-13d9-4015-8a34-e3f9d63bc483"},"vehicle_type_id":"4","last_reported":1779359401,"current_range_meters":9200,"station_id":"ce4bhl92rcd13ifvqghg","pricing_plan_id":"cebpf4jnsgd1na2vs0mg"},{"bike_id":"3c8e4601-2639-4196-a3e1-f497274faeed","system_id":"levelo_inurba_marseille","lat":43.26058,"lon":5.39381,"is_reserved":false,"is_disabled":false,"rental_uris":{"android":"levelo://app?vid=3c8e4601-2639-4196-a3e1-f497274faeed","ios":"levelo://app?vid=3c8e4601-2639-4196-a3e1-f497274faeed"},"vehicle_type_id":"4","last_reported":1779359401,"current_range_meters":9200,"station_id":"ce4bhh92rcd13ifvqfj0","pricing_plan_id":"cebpf4jnsgd1na2vs0mg"},{"bike_id":"6ecace9b-c16d-43aa-9c1a-0ebc2e7bcfc4","system_id":"levelo_inurba_marseille","lat":43.32111,"lon":5.36773,"is_reserved":false,"is_disabled":false,"rental_uris":{"android":"levelo://app?vid=6ecace9b-c16d-43aa-9c1a-0ebc2e7bcfc4","ios":"levelo://app?vid=6ecace9b-c16d-43aa-9c1a-0ebc2e7bcfc4"},"vehicle_type_id":"4","last_reported":1779359401,"current_range_meters":9200,"station_id":"ce4bhrh2rcd13ifvqhug","pricing_plan_id":"cebpf4jnsgd1na2vs0mg"},{"bike_id":"af4307cd-6a70-449a-b4c2-d9fa8e486bba","system_id":"levelo_inurba_marseille","lat":43.29792,"lon":5.37097,"is_reserved":false,"is_disabled":false,"rental_uris":{"android":"levelo://app?vid=af4307cd-6a70-449a-b4c2-d9fa8e486bba","ios":"levelo://app?vid=af4307cd-6a70-449a-b4c2-d9fa8e486bba"},"vehicle_type_id":"4","last_reported":1779359401,"current_range_meters":9200,"station_id":"ce4bgop2rcd13ifvqc1g","pricing_plan_id":"cebpf4jnsgd1na2vs0mg"},{"bike_id":"9c4521f1-b414-4b4a-8769-c16b8f3c97e7","system_id":"levelo_inurba_marseille","lat":43.253,"lon":5.42141,"is_reserved":false,"is_disabled":true,"rental_uris":{"android":"levelo://app?vid=9c4521f1-b414-4b4a-8769-c16b8f3c97e7","ios":"levelo://app?vid=9c4521f1-b414-4b4a-8769-c16b8f3c97e7"},"vehicle_type_id":"4","last_reported":1779359401,"current_range_meters":9200,"station_id":"","pricing_plan_id":"cebpf4jnsgd1na2vs0mg"},{"bike_id":"ca6b9f7f-6ce5-48f1-bb9c-e6d4eae67af2","system_id":"levelo_inurba_marseille","lat":43.30277,"lon":5.37695,"is_reserved":false,"is_disabled":false,"rental_uris":{"android":"levelo://app?vid=ca6b9f7f-6ce5-48f1-bb9c-e6d4eae67af2","ios":"levelo://app?vid=ca6b9f7f-6ce5-48f1-bb9c-e6d4eae67af2"},"vehicle_type_id":"4","last_reported":1779359401,"current_range_meters":9200,"station_id":"ce4bguh2rcd13ifvqcj0","pricing_plan_id":"cebpf4jnsgd1na2vs0mg"},{"bike_id":"645a1ef7-0064-4039-ad33-29abf8979447","system_id":"levelo_inurba_marseille","lat":43.29983,"lon":5.37174,"is_reserved":false,"is_disabled":false,"rental_uris":{"android":"levelo://app?vid=645a1ef7-0064-4039-ad33-29abf8979447","ios":"levelo://app?vid=645a1ef7-0064-4039-ad33-29abf8979447"},"vehicle_type_id":"4","last_reported":1779359401,"current_range_meters":9200,"station_id":"ce4bgr92rcd13ifvqc7g","pricing_plan_id":"cebpf4jnsgd1na2vs0mg"},{"bike_id":"fb200bc6-0f4c-42a0-863e-3d1bf2efeb07","system_id":"levelo_inurba_marseille","lat":43.29012,"lon":5.35607,"is_reserved":false,"is_disabled":false,"rental_uris":{"android":"levelo://app?vid=fb200bc6-0f4c-42a0-863e-3d1bf2efeb07","ios":"levelo://app?vid=fb200bc6-0f4c-42a0-863e-3d1bf2efeb07"},"vehicle_type_id":"4","last_reported":1779359401,"current_range_meters":9200,"station_id":"ce4bhb92rcd13ifvqen0","pricing_plan_id":"cebpf4jnsgd1na2vs0mg"},{"bike_id":"0f282fe7-79c1-4b5a-b37a-9d3f0eab2834","system_id":"levelo_inurba_marseille","lat":43.23781,"lon":5.36632,"is_reserved":false,"is_disabled":false,"rental_uris":{"android":"levelo://app?vid=0f282fe7-79c1-4b5a-b37a-9d3f0eab2834","ios":"levelo://app?vid=0f282fe7-79c1-4b5a-b37a-9d3f0eab2834"},"vehicle_type_id":"4","last_reported":1779359401,"current_range_meters":9200,"station_id":"st_d3nk18o9ro0c73en2l3g","pricing_plan_id":"cebpf4jnsgd1na2vs0mg"},{"bike_id":"2545f3fc-095b-4a99-a5d4-3696cc7ad01e","system_id":"levelo_inurba_marseille","lat":43.30731,"lon":5.4244,"is_reserved":false,"is_disabled":false,"rental_uris":{"android":"levelo://app?vid=2545f3fc-095b-4a99-a5d4-3696cc7ad01e","ios":"levelo://app?vid=2545f3fc-095b-4a99-a5d4-3696cc7ad01e"},"vehicle_type_id":"4","last_reported":1779359401,"current_range_meters":9200,"station_id":"st_cvj6ca6bvosntc0bfgr0","pricing_plan_id":"cebpf4jnsgd1na2vs0mg"},{"bike_id":"3d436a0d-575b-42d3-8681-5c87057b3b7f","system_id":"levelo_inurba_marseille","lat":43.27971,"lon":5.43615,"is_reserved":false,"is_disabled":false,"rental_uris":{"android":"levelo://app?vid=3d436a0d-575b-42d3-8681-5c87057b3b7f","ios":"levelo://app?vid=3d436a0d-575b-42d3-8681-5c87057b3b7f"},"vehicle_type_id":"4","last_reported":1779359401,"current_range_meters":9200,"station_id":"","pricing_plan_id":"cebpf4jnsgd1na2vs0mg"},{"bike_id":"2f38cdcf-4a72-47d9-977c-70bb20e34759","system_id":"levelo_inurba_marseille","lat":43.30654,"lon":5.40066,"is_reserved":false,"is_disabled":false,"rental_uris":{"android":"levelo://app?vid=2f38cdcf-4a72-47d9-977c-70bb20e34759","ios":"levelo://app?vid=2f38cdcf-4a72-47d9-977c-70bb20e34759"},"vehicle_type_id":"4","last_reported":1779359401,"current_range_meters":9600,"station_id":"ce4bh112rcd13ifvqda0","pricing_plan_id":"cebpf4jnsgd1na2vs0mg"},{"bike_id":"315a2eba-2035-4156-9313-908336f3846b","system_id":"levelo_inurba_marseille","lat":43.31547,"lon":5.38483,"is_reserved":false,"is_disabled":false,"rental_uris":{"android":"levelo://app?vid=315a2eba-2035-4156-9313-908336f3846b","ios":"levelo://app?vid=315a2eba-2035-4156-9313-908336f3846b"},"vehicle_type_id":"4","last_reported":1779359401,"current_range_meters":9600,"station_id":"","pricing_plan_id":"cebpf4jnsgd1na2vs0mg"},{"bike_id":"b7b1190c-b5c6-4401-98fd-327abc9a6496","system_id":"levelo_inurba_marseille","lat":43.31749,"lon":5.39018,"is_reserved":false,"is_disabled":false,"rental_uris":{"android":"levelo://app?vid=b7b1190c-b5c6-4401-98fd-327abc9a6496","ios":"levelo://app?vid=b7b1190c-b5c6-4401-98fd-327abc9a6496"},"vehicle_type_id":"4","last_reported":1779359401,"current_range_meters":9600,"station_id":"ce4bhqp2rcd13ifvqhng","pricing_plan_id":"cebpf4jnsgd1na2vs0mg"},{"bike_id":"2867f625-8401-41e4-a87f-2a6c444dd23d","system_id":"levelo_inurba_marseille","lat":43.31444,"lon":5.37385,"is_reserved":false,"is_disabled":false,"rental_uris":{"android":"levelo://app?vid=2867f625-8401-41e4-a87f-2a6c444dd23d","ios":"levelo://app?vid=2867f625-8401-41e4-a87f-2a6c444dd23d"},"vehicle_type_id":"4","last_reported":1779359401,"current_range_meters":9600,"station_id":"","pricing_plan_id":"cebpf4jnsgd1na2vs0mg"},{"bike_id":"c44f220c-d819-40bc-a7d5-67b141b5d139","system_id":"levelo_inurba_marseille","lat":43.28969,"lon":5.36623,"is_reserved":false,"is_disabled":false,"rental_uris":{"android":"levelo://app?vid=c44f220c-d819-40bc-a7d5-67b141b5d139","ios":"levelo://app?vid=c44f220c-d819-40bc-a7d5-67b141b5d139"},"vehicle_type_id":"4","last_reported":1779359401,"current_range_meters":9600,"station_id":"","pricing_plan_id":"cebpf4jnsgd1na2vs0mg"},{"bike_id":"7b11dcaf-36eb-43a7-b88b-ebf7143fd7da","system_id":"levelo_inurba_marseille","lat":43.275291,"lon":5.359964,"is_reserved":false,"is_disabled":false,"rental_uris":{"android":"levelo://app?vid=7b11dcaf-36eb-43a7-b88b-ebf7143fd7da","ios":"levelo://app?vid=7b11dcaf-36eb-43a7-b88b-ebf7143fd7da"},"vehicle_type_id":"4","last_reported":1779359401,"current_range_meters":9600,"station_id":"ce4bgj92rcd13ifvqbe0","pricing_plan_id":"cebpf4jnsgd1na2vs0mg"},{"bike_id":"20f6c490-37f4-461b-98c8-5b26a935732f","system_id":"levelo_inurba_marseille","lat":43.29746,"lon":5.37075,"is_reserved":false,"is_disabled":false,"rental_uris":{"android":"levelo://app?vid=20f6c490-37f4-461b-98c8-5b26a935732f","ios":"levelo://app?vid=20f6c490-37f4-461b-98c8-5b26a935732f"},"vehicle_type_id":"4","last_reported":1779359401,"current_range_meters":9600,"station_id":"ce4bgop2rcd13ifvqc1g","pricing_plan_id":"cebpf4jnsgd1na2vs0mg"},{"bike_id":"0733d3d3-e158-47c9-9d13-96cffab47922","system_id":"levelo_inurba_marseille","lat":43.31375,"lon":5.367,"is_reserved":false,"is_disabled":false,"rental_uris":{"android":"levelo://app?vid=0733d3d3-e158-47c9-9d13-96cffab47922","ios":"levelo://app?vid=0733d3d3-e158-47c9-9d13-96cffab47922"},"vehicle_type_id":"4","last_reported":1779359401,"current_range_meters":9600,"station_id":"ce4bgr92rcd13ifvqc6g","pricing_plan_id":"cebpf4jnsgd1na2vs0mg"},{"bike_id":"6388140b-4453-42b8-a7c1-5ff89e7f00bf","system_id":"levelo_inurba_marseille","lat":43.30149,"lon":5.3741,"is_reserved":false,"is_disabled":false,"rental_uris":{"android":"levelo://app?vid=6388140b-4453-42b8-a7c1-5ff89e7f00bf","ios":"levelo://app?vid=6388140b-4453-42b8-a7c1-5ff89e7f00bf"},"vehicle_type_id":"4","last_reported":1779359401,"current_range_meters":9600,"station_id":"ce4bgs92rcd13ifvqcc0","pricing_plan_id":"cebpf4jnsgd1na2vs0mg"},{"bike_id":"7fa661a8-4c44-4381-9a2e-7f612607b100","system_id":"levelo_inurba_marseille","lat":43.30527,"lon":5.36717,"is_reserved":false,"is_disabled":false,"rental_uris":{"android":"levelo://app?vid=7fa661a8-4c44-4381-9a2e-7f612607b100","ios":"levelo://app?vid=7fa661a8-4c44-4381-9a2e-7f612607b100"},"vehicle_type_id":"4","last_reported":1779359401,"current_range_meters":9600,"station_id":"ce4bgrp2rcd13ifvqc9g","pricing_plan_id":"cebpf4jnsgd1na2vs0mg"},{"bike_id":"985f0de4-50e3-4aac-9e41-065157699a0f","system_id":"levelo_inurba_marseille","lat":43.26545,"lon":5.37288,"is_reserved":false,"is_disabled":true,"rental_uris":{"android":"levelo://app?vid=985f0de4-50e3-4aac-9e41-065157699a0f","ios":"levelo://app?vid=985f0de4-50e3-4aac-9e41-065157699a0f"},"vehicle_type_id":"4","last_reported":1779359401,"current_range_meters":9600,"station_id":"ce4bhg12rcd13ifvqf70","pricing_plan_id":"cebpf4jnsgd1na2vs0mg"},{"bike_id":"57b5e58d-484b-4626-9403-8308fd362689","system_id":"levelo_inurba_marseille","lat":43.24075,"lon":5.37764,"is_reserved":false,"is_disabled":false,"rental_uris":{"android":"levelo://app?vid=57b5e58d-484b-4626-9403-8308fd362689","ios":"levelo://app?vid=57b5e58d-484b-4626-9403-8308fd362689"},"vehicle_type_id":"4","last_reported":1779359401,"current_range_meters":9600,"station_id":"ce4bhnp2rcd13ifvqgvg","pricing_plan_id":"cebpf4jnsgd1na2vs0mg"},{"bike_id":"e07fc706-058e-481d-99de-bd77fa8e3dab","system_id":"levelo_inurba_marseille","lat":43.26796,"lon":5.39416,"is_reserved":false,"is_disabled":false,"rental_uris":{"android":"levelo://app?vid=e07fc706-058e-481d-99de-bd77fa8e3dab","ios":"levelo://app?vid=e07fc706-058e-481d-99de-bd77fa8e3dab"},"vehicle_type_id":"4","last_reported":1779359401,"current_range_meters":9600,"station_id":"ce4bhh12rcd13ifvqfg0","pricing_plan_id":"cebpf4jnsgd1na2vs0mg"},{"bike_id":"f5d4d902-b391-40c3-9ed3-adb235a834d3","system_id":"levelo_inurba_marseille","lat":43.26574,"lon":5.39013,"is_reserved":false,"is_disabled":false,"rental_uris":{"android":"levelo://app?vid=f5d4d902-b391-40c3-9ed3-adb235a834d3","ios":"levelo://app?vid=f5d4d902-b391-40c3-9ed3-adb235a834d3"},"vehicle_type_id":"4","last_reported":1779359401,"current_range_meters":9600,"station_id":"ce4bhe12rcd13ifvqf30","pricing_plan_id":"cebpf4jnsgd1na2vs0mg"},{"bike_id":"2d5fe3a0-72fa-4deb-8ba6-4ec3d747864f","system_id":"levelo_inurba_marseille","lat":43.30456,"lon":5.37902,"is_reserved":false,"is_disabled":false,"rental_uris":{"android":"levelo://app?vid=2d5fe3a0-72fa-4deb-8ba6-4ec3d747864f","ios":"levelo://app?vid=2d5fe3a0-72fa-4deb-8ba6-4ec3d747864f"},"vehicle_type_id":"4","last_reported":1779359401,"current_range_meters":9600,"station_id":"ce4bgup2rcd13ifvqcn0","pricing_plan_id":"cebpf4jnsgd1na2vs0mg"},{"bike_id":"7bbb346c-18fa-49dc-ad83-d3e113dc2f73","system_id":"levelo_inurba_marseille","lat":43.29005,"lon":5.35603,"is_reserved":false,"is_disabled":false,"rental_uris":{"android":"levelo://app?vid=7bbb346c-18fa-49dc-ad83-d3e113dc2f73","ios":"levelo://app?vid=7bbb346c-18fa-49dc-ad83-d3e113dc2f73"},"vehicle_type_id":"4","last_reported":1779359401,"current_range_meters":9600,"station_id":"ce4bhb92rcd13ifvqen0","pricing_plan_id":"cebpf4jnsgd1na2vs0mg"},{"bike_id":"5c40c61d-8f10-4973-a7a6-8d4fbb2d60ff","system_id":"levelo_inurba_marseille","lat":43.29308,"lon":5.37442,"is_reserved":false,"is_disabled":false,"rental_uris":{"android":"levelo://app?vid=5c40c61d-8f10-4973-a7a6-8d4fbb2d60ff","ios":"levelo://app?vid=5c40c61d-8f10-4973-a7a6-8d4fbb2d60ff"},"vehicle_type_id":"4","last_reported":1779359401,"current_range_meters":9600,"station_id":"ce4bgi12rcd13ifvqb70","pricing_plan_id":"cebpf4jnsgd1na2vs0mg"},{"bike_id":"5d370724-77a2-4752-996e-f01dda7a3379","system_id":"levelo_inurba_marseille","lat":43.22555,"lon":5.41624,"is_reserved":false,"is_disabled":false,"rental_uris":{"android":"levelo://app?vid=5d370724-77a2-4752-996e-f01dda7a3379","ios":"levelo://app?vid=5d370724-77a2-4752-996e-f01dda7a3379"},"vehicle_type_id":"4","last_reported":1779359401,"current_range_meters":9600,"station_id":"st_d2o4gvlbi1j2169b742g","pricing_plan_id":"cebpf4jnsgd1na2vs0mg"},{"bike_id":"8216794e-f192-445f-a980-32895c9a9cfc","system_id":"levelo_inurba_marseille","lat":43.30535,"lon":5.36701,"is_reserved":false,"is_disabled":false,"rental_uris":{"android":"levelo://app?vid=8216794e-f192-445f-a980-32895c9a9cfc","ios":"levelo://app?vid=8216794e-f192-445f-a980-32895c9a9cfc"},"vehicle_type_id":"4","last_reported":1779359401,"current_range_meters":9600,"station_id":"ce4bgrp2rcd13ifvqc9g","pricing_plan_id":"cebpf4jnsgd1na2vs0mg"},{"bike_id":"edbd4f3d-4c81-4c44-959d-5771809cfc48","system_id":"levelo_inurba_marseille","lat":43.28579,"lon":5.35084,"is_reserved":false,"is_disabled":false,"rental_uris":{"android":"levelo://app?vid=edbd4f3d-4c81-4c44-959d-5771809cfc48","ios":"levelo://app?vid=edbd4f3d-4c81-4c44-959d-5771809cfc48"},"vehicle_type_id":"4","last_reported":1779359401,"current_range_meters":9600,"station_id":"","pricing_plan_id":"cebpf4jnsgd1na2vs0mg"},{"bike_id":"b80a594b-f237-4b95-9be1-2fe1570d6dc3","system_id":"levelo_inurba_marseille","lat":43.28441,"lon":5.35916,"is_reserved":false,"is_disabled":true,"rental_uris":{"android":"levelo://app?vid=b80a594b-f237-4b95-9be1-2fe1570d6dc3","ios":"levelo://app?vid=b80a594b-f237-4b95-9be1-2fe1570d6dc3"},"vehicle_type_id":"4","last_reported":1779359401,"current_range_meters":9600,"station_id":"ce4bhah2rcd13ifvqei0","pricing_plan_id":"cebpf4jnsgd1na2vs0mg"},{"bike_id":"6dde41ee-19a8-40a0-9114-1012cbd6438a","system_id":"levelo_inurba_marseille","lat":43.29612,"lon":5.37721,"is_reserved":false,"is_disabled":false,"rental_uris":{"android":"levelo://app?vid=6dde41ee-19a8-40a0-9114-1012cbd6438a","ios":"levelo://app?vid=6dde41ee-19a8-40a0-9114-1012cbd6438a"},"vehicle_type_id":"4","last_reported":1779359401,"current_range_meters":10000,"station_id":"ce4bgi92rcd13ifvqb90","pricing_plan_id":"cebpf4jnsgd1na2vs0mg"},{"bike_id":"128f0fb9-73fa-4b0c-ad29-5b3388c17195","system_id":"levelo_inurba_marseille","lat":43.28083,"lon":5.38343,"is_reserved":false,"is_disabled":false,"rental_uris":{"android":"levelo://app?vid=128f0fb9-73fa-4b0c-ad29-5b3388c17195","ios":"levelo://app?vid=128f0fb9-73fa-4b0c-ad29-5b3388c17195"},"vehicle_type_id":"4","last_reported":1779359401,"current_range_meters":10000,"station_id":"","pricing_plan_id":"cebpf4jnsgd1na2vs0mg"},{"bike_id":"8c13bd70-fa1e-4149-a8a1-392020a5554f","system_id":"levelo_inurba_marseille","lat":43.22552,"lon":5.41642,"is_reserved":false,"is_disabled":false,"rental_uris":{"android":"levelo://app?vid=8c13bd70-fa1e-4149-a8a1-392020a5554f","ios":"levelo://app?vid=8c13bd70-fa1e-4149-a8a1-392020a5554f"},"vehicle_type_id":"4","last_reported":1779359401,"current_range_meters":10000,"station_id":"st_d2o4gvlbi1j2169b742g","pricing_plan_id":"cebpf4jnsgd1na2vs0mg"},{"bike_id":"36295a78-f486-469a-b29a-23a7cdb9a628","system_id":"levelo_inurba_marseille","lat":43.28919,"lon":5.36375,"is_reserved":false,"is_disabled":false,"rental_uris":{"android":"levelo://app?vid=36295a78-f486-469a-b29a-23a7cdb9a628","ios":"levelo://app?vid=36295a78-f486-469a-b29a-23a7cdb9a628"},"vehicle_type_id":"4","last_reported":1779359401,"current_range_meters":10000,"station_id":"ce4bhc92rcd13ifvqetg","pricing_plan_id":"cebpf4jnsgd1na2vs0mg"},{"bike_id":"60a16368-519a-4aa5-889a-f31cdc0a5be1","system_id":"levelo_inurba_marseille","lat":43.32019,"lon":5.41504,"is_reserved":false,"is_disabled":false,"rental_uris":{"android":"levelo://app?vid=60a16368-519a-4aa5-889a-f31cdc0a5be1","ios":"levelo://app?vid=60a16368-519a-4aa5-889a-f31cdc0a5be1"},"vehicle_type_id":"4","last_reported":1779359401,"current_range_meters":10000,"station_id":"ce4bhq92rcd13ifvqhkg","pricing_plan_id":"cebpf4jnsgd1na2vs0mg"},{"bike_id":"858bf12d-5f3c-44f8-930a-3fb149cff8ce","system_id":"levelo_inurba_marseille","lat":43.24995,"lon":5.38929,"is_reserved":false,"is_disabled":false,"rental_uris":{"android":"levelo://app?vid=858bf12d-5f3c-44f8-930a-3fb149cff8ce","ios":"levelo://app?vid=858bf12d-5f3c-44f8-930a-3fb149cff8ce"},"vehicle_type_id":"4","last_reported":1779359401,"current_range_meters":10000,"station_id":"ce4bhgp2rcd13ifvqfd0","pricing_plan_id":"cebpf4jnsgd1na2vs0mg"},{"bike_id":"3200b978-002a-4bf0-9ea7-51cc9e75e711","system_id":"levelo_inurba_marseille","lat":43.27174,"lon":5.40996,"is_reserved":false,"is_disabled":false,"rental_uris":{"android":"levelo://app?vid=3200b978-002a-4bf0-9ea7-51cc9e75e711","ios":"levelo://app?vid=3200b978-002a-4bf0-9ea7-51cc9e75e711"},"vehicle_type_id":"4","last_reported":1779359401,"current_range_meters":10000,"station_id":"ce4bhl12rcd13ifvqgf0","pricing_plan_id":"cebpf4jnsgd1na2vs0mg"},{"bike_id":"7b897032-3323-4401-bc60-c7460e420b68","system_id":"levelo_inurba_marseille","lat":43.25929,"lon":5.40914,"is_reserved":false,"is_disabled":false,"rental_uris":{"android":"levelo://app?vid=7b897032-3323-4401-bc60-c7460e420b68","ios":"levelo://app?vid=7b897032-3323-4401-bc60-c7460e420b68"},"vehicle_type_id":"4","last_reported":1779359401,"current_range_meters":10000,"station_id":"ce4bhm92rcd13ifvqglg","pricing_plan_id":"cebpf4jnsgd1na2vs0mg"},