{"last_updated":1703160776,"ttl":30,"version":"2.2","data":{"bikes":[{"bike_id":"0f4cc70e-ce1e-4e82-a66e-5588a43de74a","system_id":"levelo_inurba_marseille","lat":43.313391,"lon":5.36706,"is_reserved":false,"is_disabled":false,"rental_uris":{"android":"levelo://app?vid=0f4cc70e-ce1e-4e82-a66e-5588a43de74a","ios":"levelo://app?vid=0f4cc70e-ce1e-4e82-a66e-5588a43de74a"},"vehicle_type_id":"4","last_reported":1703160776,"current_range_meters":32000,"station_id":"ce4bgr92rcd13ifvqc6g","pricing_plan_id":"free"},{"bike_id":"9e8522a6-8d12-4a90-a6fc-5f975dcf5153","system_id":"levelo_inurba_marseille","lat":43.313391,"lon":5.36706,"is_reserved":false,"is_disabled":false,"rental_uris":{"android":"levelo://app?vid=9e8522a6-8d12-4a90-a6fc-5f975dcf5153","ios":"levelo://app?vid=9e8522a6-8d12-4a90-a6fc-5f975dcf5153"},"vehicle_type_id":"4","last_reported":1703160776,"current_range_meters":20400,"station_id":"ce4bgr92rcd13ifvqc6g","pricing_plan_id":"free"},{"bike_id":"c32e3021-2d39-45a9-8f5c-43c0f9699d07","system_id":"levelo_inurba_marseille","lat":43.313391,"lon":5.36706,"is_reserved":false,"is_disabled":false,"rental_uris":{"android":"levelo://app?vid=c32e3021-2d39-45a9-8f5c-43c0f9699d07","ios":"levelo://app?vid=c32e3021-2d39-45a9-8f5c-43c0f9699d07"},"vehicle_type_id":"4","last_reported":1703160776,"current_range_meters":24400,"station_id":"ce4bgr92rcd13ifvqc6g","pricing_plan_id":"free"},{"bike_id":"01e8188e-a813-4a19-b955-6b9bcc876833","system_id":"levelo_inurba_marseille","lat":43.313391,"lon":5.36706,"is_reserved":false,"is_disabled":false,"rental_uris":{"android":"levelo://app?vid=01e8188e-a813-4a19-b955-6b9bcc876833","ios":"levelo://app?vid=01e8188e-a813-4a19-b955-6b9bcc876833"},"vehicle_type_id":"4","last_reported":1703160776,"current_range_meters":11200,"station_id":"ce4bgr92rcd13ifvqc6g","pricing_plan_id":"free"},{"bike_id":"58d3b9e0-6402-4a47-b126-d305d66a04b8","system_id":"levelo_inurba_marseille","lat":43.313391,"lon":5.36706,"is_reserved":false,"is_disabled":false,"rental_uris":{"android":"levelo://app?vid=58d3b9e0-6402-4a47-b126-d305d66a04b8","ios":"levelo://app?vid=58d3b9e0-6402-4a47-b126-d305d66a04b8"},"vehicle_type_id":"4","last_reported":1703160776,"current_range_meters":31600,"station_id":"ce4bgr92rcd13ifvqc6g","pricing_plan_id":"free"},{"bike_id":"9c4bed50-4c08-46fb-9163-9ec5afa45ff6","system_id":"levelo_inurba_marseille","lat":43.31341,"lon":5.367098,"is_reserved":false,"is_disabled":false,"rental_uris":{"android":"levelo://app?vid=9c4bed50-4c08-46fb-9163-9ec5afa45ff6","ios":"levelo://app?vid=9c4bed50-4c08-46fb-9163-9ec5afa45ff6"},"vehicle_type_id":"4","last_reported":1703160776,"current_range_meters":0,"station_id":"ce4bgr92rcd13ifvqc6g","pricing_plan_id":"free"},{"bike_id":"863d1d39-2b2c-4c20-9587-ed3879c48410","system_id":"levelo_inurba_marseille","lat":43.313391,"lon":5.36706,"is_reserved":false,"is_disabled":false,"rental_uris":{"android":"levelo://app?vid=863d1d39-2b2c-4c20-9587-ed3879c48410","ios":"levelo://app?vid=863d1d39-2b2c-4c20-9587-ed3879c48410"},"vehicle_type_id":"4","last_reported":1703160776,"current_range_meters":20400,"station_id":"ce4bgr92rcd13ifvqc6g","pricing_plan_id":"free"},{"bike_id":"0f877e39-0671-47e1-bc9c-1ec99ea40997","system_id":"levelo_inurba_marseille","lat":43.312239,"lon":5.368562,"is_reserved":false,"is_disabled":false,"rental_uris":{"android":"levelo://app?vid=0f877e39-0671-47e1-bc9c-1ec99ea40997","ios":"levelo://app?vid=0f877e39-0671-47e1-bc9c-1ec99ea40997"},"vehicle_type_id":"4","last_reported":1703160776,"current_range_meters":27200,"station_id":"ce4bgl92rcd13ifvqbq0","pricing_plan_id":"free"},{"bike_id":"7a8eff8a-d94e-4a19-840c-bc93c8b246ae","system_id":"levelo_inurba_marseille","lat":43.312239,"lon":5.368562,"is_reserved":false,"is_disabled":false,"rental_uris":{"android":"levelo://app?vid=7a8eff8a-d94e-4a19-840c-bc93c8b246ae","ios":"levelo://app?vid=7a8eff8a-d94e-4a19-840c-bc93c8b246ae"},"vehicle_type_id":"4","last_reported":1703160776,"current_range_meters":18000,"station_id":"ce4bgl92rcd13ifvqbq0","pricing_plan_id":"free"},{"bike_id":"9610fd63-0e45-4cc8-85a9-ff3c4789afda","system_id":"levelo_inurba_marseille","lat":43.309076,"lon":5.368465,"is_reserved":false,"is_disabled":false,"rental_uris":{"android":"levelo://app?vid=9610fd63-0e45-4cc8-85a9-ff3c4789afda","ios":"levelo://app?vid=9610fd63-0e45-4cc8-85a9-ff3c4789afda"},"vehicle_type_id":"4","last_reported":1703160776,"current_range_meters":31200,"station_id":"ce4bgn92rcd13ifvqbvg","pricing_plan_id":"free"},{"bike_id":"3f05b37f-301d-4339-aa2b-f77d51aad7e1","system_id":"levelo_inurba_marseille","lat":43.314811,"lon":5.373104,"is_reserved":false,"is_disabled":false,"rental_uris":{"android":"levelo://app?vid=3f05b37f-301d-4339-aa2b-f77d51aad7e1","ios":"levelo://app?vid=3f05b37f-301d-4339-aa2b-f77d51aad7e1"},"vehicle_type_id":"4","last_reported":1703160776,"current_range_meters":10800,"station_id":"ce4bgt12rcd13ifvqcd0","pricing_plan_id":"free"},{"bike_id":"c2446bcf-4180-47bf-a07a-d9ee0612d91b","system_id":"levelo_inurba_marseille","lat":43.30554,"lon":5.36535,"is_reserved":false,"is_disabled":false,"rental_uris":{"android":"levelo://app?vid=c2446bcf-4180-47bf-a07a-d9ee0612d91b","ios":"levelo://app?vid=c2446bcf-4180-47bf-a07a-d9ee0612d91b"},"vehicle_type_id":"4","last_reported":1703160776,"current_range_meters":20400,"station_id":"ce4bgs12rcd13ifvqcag","pricing_plan_id":"free"},{"bike_id":"52a98006-4d2a-4dde-8525-b5f89dcc2730","system_id":"levelo_inurba_marseille","lat":43.305448,"lon":5.365414,"is_reserved":false,"is_disabled":false,"rental_uris":{"android":"levelo://app?vid=52a98006-4d2a-4dde-8525-b5f89dcc2730","ios":"levelo://app?vid=52a98006-4d2a-4dde-8525-b5f89dcc2730"},"vehicle_type_id":"4","last_reported":1703160776,"current_range_meters":26800,"station_id":"ce4bgs12rcd13ifvqcag","pricing_plan_id":"free"},{"bike_id":"77e684ab-1748-4e3f-a9ee-7352b6d17e4c","system_id":"levelo_inurba_marseille","lat":43.305424,"lon":5.365466,"is_reserved":false,"is_disabled":false,"rental_uris":{"android":"levelo://app?vid=77e684ab-1748-4e3f-a9ee-7352b6d17e4c","ios":"levelo://app?vid=77e684ab-1748-4e3f-a9ee-7352b6d17e4c"},"vehicle_type_id":"4","last_reported":1703160776,"current_range_meters":19600,"station_id":"ce4bgs12rcd13ifvqcag","pricing_plan_id":"free"},{"bike_id":"e4651f1c-0e33-4d3a-a2f4-4fe670884c1e","system_id":"levelo_inurba_marseille","lat":43.305368,"lon":5.367343,"is_reserved":false,"is_disabled":false,"rental_uris":{"android":"levelo://app?vid=e4651f1c-0e33-4d3a-a2f4-4fe670884c1e","ios":"levelo://app?vid=e4651f1c-0e33-4d3a-a2f4-4fe670884c1e"},"vehicle_type_id":"4","last_reported":1703160776,"current_range_meters":10000,"station_id":"ce4bgrp2rcd13ifvqc9g","pricing_plan_id":"free"},{"bike_id":"3b889af7-a29d-437b-9dae-21d150b3c58a","system_id":"levelo_inurba_marseille","lat":43.305408,"lon":5.365285,"is_reserved":false,"is_disabled":false,"rental_uris":{"android":"levelo://app?vid=3b889af7-a29d-437b-9dae-21d150b3c58a","ios":"levelo://app?vid=3b889af7-a29d-437b-9dae-21d150b3c58a"},"vehicle_type_id":"4","last_reported":1703160776,"current_range_meters":27200,"station_id":"ce4bgs12rcd13ifvqcag","pricing_plan_id":"free"},{"bike_id":"55c7e0e6-70ff-4dcc-8e80-f76823d81cd6","system_id":"levelo_inurba_marseille","lat":43.305368,"lon":5.367343,"is_reserved":false,"is_disabled":false,"rental_uris":{"android":"levelo://app?vid=55c7e0e6-70ff-4dcc-8e80-f76823d81cd6","ios":"levelo://app?vid=55c7e0e6-70ff-4dcc-8e80-f76823d81cd6"},"vehicle_type_id":"4","last_reported":1703160776,"current_range_meters":20800,"station_id":"ce4bgrp2rcd13ifvqc9g","pricing_plan_id":"free"},{"bike_id":"c9d0122a-6b42-40f5-97c4-0904d724d9ec","system_id":"levelo_inurba_marseille","lat":43.305706,"lon":5.365654,"is_reserved":false,"is_disabled":false,"rental_uris":{"android":"levelo://app?vid=c9d0122a-6b42-40f5-97c4-0904d724d9ec","ios":"levelo://app?vid=c9d0122a-6b42-40f5-97c4-0904d724d9ec"},"vehicle_type_id":"4","last_reported":1703160776,"current_range_meters":24000,"station_id":"ce4bgs12rcd13ifvqcag","pricing_plan_id":"free"},{"bike_id":"18171d1a-eaa0-403c-8f6e-6cd57e374d11","system_id":"levelo_inurba_marseille","lat":43.305706,"lon":5.365654,"is_reserved":false,"is_disabled":false,"rental_uris":{"android":"levelo://app?vid=18171d1a-eaa0-403c-8f6e-6cd57e374d11","ios":"levelo://app?vid=18171d1a-eaa0-403c-8f6e-6cd57e374d11"},"vehicle_type_id":"4","last_reported":1703160776,"current_range_meters":24800,"station_id":"ce4bgs12rcd13ifvqcag","pricing_plan_id":"free"},{"bike_id":"9d46b7a0-b3f2-4495-a8a2-61cf6a2662f1","system_id":"levelo_inurba_marseille","lat":43.305706,"lon":5.365654,"is_reserved":false,"is_disabled":false,"rental_uris":{"android":"levelo://app?vid=9d46b7a0-b3f2-4495-a8a2-61cf6a2662f1","ios":"levelo://app?vid=9d46b7a0-b3f2-4495-a8a2-61cf6a2662f1"},"vehicle_type_id":"4","last_reported":1703160776,"current_range_meters":28400,"station_id":"ce4bgs12rcd13ifvqcag","pricing_plan_id":"free"},{"bike_id":"dbed54b7-24b8-410f-96e1-acc1e1eb8e42","system_id":"levelo_inurba_marseille","lat":43.305706,"lon":5.365654,"is_reserved":false,"is_disabled":false,"rental_uris":{"android":"levelo://app?vid=dbed54b7-24b8-410f-96e1-acc1e1eb8e42","ios":"levelo://app?vid=dbed54b7-24b8-410f-96e1-acc1e1eb8e42"},"vehicle_type_id":"4","last_reported":1703160776,"current_range_meters":32000,"station_id":"ce4bgs12rcd13ifvqcag","pricing_plan_id":"free"},{"bike_id":"984b5b41-4ba1-4be6-b744-4deb48302254","system_id":"levelo_inurba_marseille","lat":43.306156,"lon":5.372223,"is_reserved":false,"is_disabled":false,"rental_uris":{"android":"levelo://app?vid=984b5b41-4ba1-4be6-b744-4deb48302254","ios":"levelo://app?vid=984b5b41-4ba1-4be6-b744-4deb48302254"},"vehicle_type_id":"4","last_reported":1703160776,"current_range_meters":20000,"station_id":"ce4bgv12rcd13ifvqcp0","pricing_plan_id":"free"},{"bike_id":"68ab9cb2-1f02-45b3-97c4-82e1b21f9d50","system_id":"levelo_inurba_marseille","lat":43.305989,"lon":5.37225,"is_reserved":false,"is_disabled":false,"rental_uris":{"android":"levelo://app?vid=68ab9cb2-1f02-45b3-97c4-82e1b21f9d50","ios":"levelo://app?vid=68ab9cb2-1f02-45b3-97c4-82e1b21f9d50"},"vehicle_type_id":"4","last_reported":1703160776,"current_range_meters":21600,"station_id":"ce4bgqh2rcd13ifvqc4g","pricing_plan_id":"free"},{"bike_id":"9f0e03f7-ca2b-46e5-a4dc-0fd187cebc43","system_id":"levelo_inurba_marseille","lat":43.303046,"lon":5.368981,"is_reserved":false,"is_disabled":false,"rental_uris":{"android":"levelo://app?vid=9f0e03f7-ca2b-46e5-a4dc-0fd187cebc43","ios":"levelo://app?vid=9f0e03f7-ca2b-46e5-a4dc-0fd187cebc43"},"vehicle_type_id":"4","last_reported":1703160776,"current_range_meters":5600,"station_id":"ce4bgqh2rcd13ifvqc5g","pricing_plan_id":"free"},{"bike_id":"0f29f9fc-ade1-445d-ba8d-4631c9525c9b","system_id":"levelo_inurba_marseille","lat":43.30639,"lon":5.37998,"is_reserved":false,"is_disabled":false,"rental_uris":{"android":"levelo://app?vid=0f29f9fc-ade1-445d-ba8d-4631c9525c9b","ios":"levelo://app?vid=0f29f9fc-ade1-445d-ba8d-4631c9525c9b"},"vehicle_type_id":"4","last_reported":1703160776,"current_range_meters":400,"station_id":"","pricing_plan_id":"free"},{"bike_id":"89b11b43-f54e-4746-94fb-ab897a4a02f6","system_id":"levelo_inurba_marseille","lat":43.304606,"lon":5.379026,"is_reserved":false,"is_disabled":false,"rental_uris":{"android":"levelo://app?vid=89b11b43-f54e-4746-94fb-ab897a4a02f6","ios":"levelo://app?vid=89b11b43-f54e-4746-94fb-ab897a4a02f6"},"vehicle_type_id":"4","last_reported":1703160776,"current_range_meters":20400,"station_id":"ce4bgup2rcd13ifvqcn0","pricing_plan_id":"free"},{"bike_id":"a4c81745-a500-48ee-8a99-745edbdd1ca8","system_id":"levelo_inurba_marseille","lat":43.324771,"lon":5.36557,"is_reserved":false,"is_disabled":false,"rental_uris":{"android":"levelo://app?vid=a4c81745-a500-48ee-8a99-745edbdd1ca8","ios":"levelo://app?vid=a4c81745-a500-48ee-8a99-745edbdd1ca8"},"vehicle_type_id":"4","last_reported":1703160776,"current_range_meters":6400,"station_id":"ce4bhs12rcd13ifvqhvg","pricing_plan_id":"free"},{"bike_id":"d99f8765-3cac-454e-8ad7-0b650cb2e665","system_id":"levelo_inurba_marseille","lat":43.30143,"lon":5.37413,"is_reserved":false,"is_disabled":false,"rental_uris":{"android":"levelo://app?vid=d99f8765-3cac-454e-8ad7-0b650cb2e665","ios":"levelo://app?vid=d99f8765-3cac-454e-8ad7-0b650cb2e665"},"vehicle_type_id":"4","last_reported":1703160776,"current_range_meters":24400,"station_id":"ce4bgs92rcd13ifvqcc0","pricing_plan_id":"free"},{"bike_id":"ad0dedf2-0cd4-4d6b-9ecb-d240001f99ef","system_id":"levelo_inurba_marseille","lat":43.319935,"lon":5.381699,"is_reserved":false,"is_disabled":false,"rental_uris":{"android":"levelo://app?vid=ad0dedf2-0cd4-4d6b-9ecb-d240001f99ef","ios":"levelo://app?vid=ad0dedf2-0cd4-4d6b-9ecb-d240001f99ef"},"vehicle_type_id":"4","last_reported":1703160776,"current_range_meters":0,"station_id":"ce4bhr12rcd13ifvqhpg","pricing_plan_id":"free"},{"bike_id":"bf29f302-2dda-4aeb-bd7f-38d08e28933e","system_id":"levelo_inurba_marseille","lat":43.320005,"lon":5.381601,"is_reserved":false,"is_disabled":false,"rental_uris":{"android":"levelo://app?vid=bf29f302-2dda-4aeb-bd7f-38d08e28933e","ios":"levelo://app?vid=bf29f302-2dda-4aeb-bd7f-38d08e28933e"},"vehicle_type_id":"4","last_reported":1703160776,"current_range_meters":10400,"station_id":"ce4bhr12rcd13ifvqhpg","pricing_plan_id":"free"},{"bike_id":"b49579de-d807-4f01-a3ab-54416c291fae","system_id":"levelo_inurba_marseille","lat":43.313571,"lon":5.384829,"is_reserved":false,"is_disabled":false,"rental_uris":{"android":"levelo://app?vid=b49579de-d807-4f01-a3ab-54416c291fae","ios":"levelo://app?vid=b49579de-d807-4f01-a3ab-54416c291fae"},"vehicle_type_id":"4","last_reported":1703160776,"current_range_meters":3200,"station_id":"ce4bgt92rcd13ifvqcf0","pricing_plan_id":"free"},{"bike_id":"e2976019-7b89-4cc5-9cfb-045bbf74915d","system_id":"levelo_inurba_marseille","lat":43.298433,"lon":5.362774,"is_reserved":false,"is_disabled":false,"rental_uris":{"android":"levelo://app?vid=e2976019-7b89-4cc5-9cfb-045bbf74915d","ios":"levelo://app?vid=e2976019-7b89-4cc5-9cfb-045bbf74915d"},"vehicle_type_id":"4","last_reported":1703160776,"current_range_meters":11200,"station_id":"ce4bgpp2rcd13ifvqc3g","pricing_plan_id":"free"},{"bike_id":"db4fffcc-d7f7-42b8-8946-844d8963797e","system_id":"levelo_inurba_marseille","lat":43.298433,"lon":5.362774,"is_reserved":false,"is_disabled":false,"rental_uris":{"android":"levelo://app?vid=db4fffcc-d7f7-42b8-8946-844d8963797e","ios":"levelo://app?vid=db4fffcc-d7f7-42b8-8946-844d8963797e"},"vehicle_type_id":"4","last_reported":1703160776,"current_range_meters":27600,"station_id":"ce4bgpp2rcd13ifvqc3g","pricing_plan_id":"free"},{"bike_id":"320fd6bc-9934-4f00-8583-40902cb3794b","system_id":"levelo_inurba_marseille","lat":43.297163,"lon":5.365866,"is_reserved":false,"is_disabled":false,"rental_uris":{"android":"levelo://app?vid=320fd6bc-9934-4f00-8583-40902cb3794b","ios":"levelo://app?vid=320fd6bc-9934-4f00-8583-40902cb3794b"},"vehicle_type_id":"4","last_reported":1703160776,"current_range_meters":22400,"station_id":"ce4bgn12rcd13ifvqbt0","pricing_plan_id":"free"},{"bike_id":"c12df297-168e-4ca3-95d9-a300ff1ffbd9","system_id":"levelo_inurba_marseille","lat":43.328371,"lon":5.366909,"is_reserved":false,"is_disabled":false,"rental_uris":{"android":"levelo://app?vid=c12df297-168e-4ca3-95d9-a300ff1ffbd9","ios":"levelo://app?vid=c12df297-168e-4ca3-95d9-a300ff1ffbd9"},"vehicle_type_id":"4","last_reported":1703160776,"current_range_meters":25200,"station_id":"ce4bhs92rcd13ifvqi0g","pricing_plan_id":"free"},{"bike_id":"7b61e578-eb09-4c42-8536-5cf1eb9d1ca6","system_id":"levelo_inurba_marseille","lat":43.328331,"lon":5.366792,"is_reserved":false,"is_disabled":false,"rental_uris":{"android":"levelo://app?vid=7b61e578-eb09-4c42-8536-5cf1eb9d1ca6","ios":"levelo://app?vid=7b61e578-eb09-4c42-8536-5cf1eb9d1ca6"},"vehicle_type_id":"4","last_reported":1703160776,"current_range_meters":29600,"station_id":"ce4bhs92rcd13ifvqi0g","pricing_plan_id":"free"},{"bike_id":"c22e4b9f-ba20-4a7c-a7c8-fd0a73d903e0","system_id":"levelo_inurba_marseille","lat":43.32834,"lon":5.36687,"is_reserved":false,"is_disabled":false,"rental_uris":{"android":"levelo://app?vid=c22e4b9f-ba20-4a7c-a7c8-fd0a73d903e0","ios":"levelo://app?vid=c22e4b9f-ba20-4a7c-a7c8-fd0a73d903e0"},"vehicle_type_id":"4","last_reported":1703160776,"current_range_meters":19200,"station_id":"ce4bhs92rcd13ifvqi0g","pricing_plan_id":"free"},{"bike_id":"0cdbd0f0-d3c9-4a82-8c6d-6ffa03bfbf25","system_id":"levelo_inurba_marseille","lat":43.328366,"lon":5.366912,"is_reserved":false,"is_disabled":false,"rental_uris":{"android":"levelo://app?vid=0cdbd0f0-d3c9-4a82-8c6d-6ffa03bfbf25","ios":"levelo://app?vid=0cdbd0f0-d3c9-4a82-8c6d-6ffa03bfbf25"},"vehicle_type_id":"4","last_reported":1703160776,"current_range_meters":18000,"station_id":"ce4bhs92rcd13ifvqi0g","pricing_plan_id":"free"},{"bike_id":"294ad968-ca99-481b-98e2-10348aec4f31","system_id":"levelo_inurba_marseille","lat":43.296129,"lon":5.370777,"is_reserved":false,"is_disabled":false,"rental_uris":{"android":"levelo://app?vid=294ad968-ca99-481b-98e2-10348aec4f31","ios":"levelo://app?vid=294ad968-ca99-481b-98e2-10348aec4f31"},"vehicle_type_id":"4","last_reported":1703160776,"current_range_meters":23200,"station_id":"ce4bgnh2rcd13ifvqc0g","pricing_plan_id":"free"},{"bike_id":"eb74d9ef-7ef0-4254-ad44-9385450c4bbd","system_id":"levelo_inurba_marseille","lat":43.296131,"lon":5.370791,"is_reserved":false,"is_disabled":false,"rental_uris":{"android":"levelo://app?vid=eb74d9ef-7ef0-4254-ad44-9385450c4bbd","ios":"levelo://app?vid=eb74d9ef-7ef0-4254-ad44-9385450c4bbd"},"vehicle_type_id":"4","last_reported":1703160776,"current_range_meters":10400,"station_id":"ce4bgnh2rcd13ifvqc0g","pricing_plan_id":"free"},{"bike_id":"707561d9-10f7-4c99-ac27-c6cdd72284c2","system_id":"levelo_inurba_marseille","lat":43.29618,"lon":5.37165,"is_reserved":false,"is_disabled":false,"rental_uris":{"android":"levelo://app?vid=707561d9-10f7-4c99-ac27-c6cdd72284c2","ios":"levelo://app?vid=707561d9-10f7-4c99-ac27-c6cdd72284c2"},"vehicle_type_id":"4","last_reported":1703160776,"current_range_meters":3600,"station_id":"ce4bgnh2rcd13ifvqc0g","pricing_plan_id":"free"},{"bike_id":"1070b6b2-92be-4e1d-89aa-c7d35e79e3d2","system_id":"levelo_inurba_marseille","lat":43.29573,"lon":5.367355,"is_reserved":false,"is_disabled":false,"rental_uris":{"android":"levelo://app?vid=1070b6b2-92be-4e1d-89aa-c7d35e79e3d2","ios":"levelo://app?vid=1070b6b2-92be-4e1d-89aa-c7d35e79e3d2"},"vehicle_type_id":"4","last_reported":1703160776,"current_range_meters":13200,"station_id":"ce4bgph2rcd13ifvqc2g","pricing_plan_id":"free"},{"bike_id":"91f97631-d0df-430c-be7e-5771f04a351c","system_id":"levelo_inurba_marseille","lat":43.29573,"lon":5.367355,"is_reserved":false,"is_disabled":false,"rental_uris":{"android":"levelo://app?vid=91f97631-d0df-430c-be7e-5771f04a351c","ios":"levelo://app?vid=91f97631-d0df-430c-be7e-5771f04a351c"},"vehicle_type_id":"4","last_reported":1703160776,"current_range_meters":28400,"station_id":"ce4bgph2rcd13ifvqc2g","pricing_plan_id":"free"},{"bike_id":"db2a879c-84dc-4de0-893b-32a2de5f0fe2","system_id":"levelo_inurba_marseille","lat":43.296921,"lon":5.376579,"is_reserved":false,"is_disabled":false,"rental_uris":{"android":"levelo://app?vid=db2a879c-84dc-4de0-893b-32a2de5f0fe2","ios":"levelo://app?vid=db2a879c-84dc-4de0-893b-32a2de5f0fe2"},"vehicle_type_id":"4","last_reported":1703160776,"current_range_meters":16000,"station_id":"ce4bgkh2rcd13ifvqbl0","pricing_plan_id":"free"},{"bike_id":"c14d1ddc-0fa2-48f7-9945-7bce6596099e","system_id":"levelo_inurba_marseille","lat":43.309589,"lon":5.390258,"is_reserved":false,"is_disabled":false,"rental_uris":{"android":"levelo://app?vid=c14d1ddc-0fa2-48f7-9945-7bce6596099e","ios":"levelo://app?vid=c14d1ddc-0fa2-48f7-9945-7bce6596099e"},"vehicle_type_id":"4","last_reported":1703160776,"current_range_meters":8400,"station_id":"ce4bgup2rcd13ifvqco0","pricing_plan_id":"free"},{"bike_id":"7418aef1-2d6b-4722-a52a-2d051420b8f1","system_id":"levelo_inurba_marseille","lat":43.317557,"lon":5.390173,"is_reserved":false,"is_disabled":false,"rental_uris":{"android":"levelo://app?vid=7418aef1-2d6b-4722-a52a-2d051420b8f1","ios":"levelo://app?vid=7418aef1-2d6b-4722-a52a-2d051420b8f1"},"vehicle_type_id":"4","last_reported":1703160776,"current_range_meters":1600,"station_id":"ce4bhqp2rcd13ifvqhng","pricing_plan_id":"free"},{"bike_id":"04ca680c-0493-4f1b-9ef8-db1e704523dd","system_id":"levelo_inurba_marseille","lat":43.317557,"lon":5.390173,"is_reserved":false,"is_disabled":false,"rental_uris":{"android":"levelo://app?vid=04ca680c-0493-4f1b-9ef8-db1e704523dd","ios":"levelo://app?vid=04ca680c-0493-4f1b-9ef8-db1e704523dd"},"vehicle_type_id":"4","last_reported":1703160776,"current_range_meters":25600,"station_id":"ce4bhqp2rcd13ifvqhng","pricing_plan_id":"free"},{"bike_id":"320b8cad-f6ae-4b81-93b6-b8ad8f686936","system_id":"levelo_inurba_marseille","lat":43.298037,"lon":5.381066,"is_reserved":false,"is_disabled":false,"rental_uris":{"android":"levelo://app?vid=320b8cad-f6ae-4b81-93b6-b8ad8f686936","ios":"levelo://app?vid=320b8cad-f6ae-4b81-93b6-b8ad8f686936"},"vehicle_type_id":"4","last_reported":1703160776,"current_range_meters":18800,"station_id":"ce4bgip2rcd13ifvqbb0","pricing_plan_id":"free"},{"bike_id":"1f458cf7-013b-41ab-9987-4bce3dbc6950","system_id":"levelo_inurba_marseille","lat":43.304274,"lon":5.388873,"is_reserved":false,"is_disabled":false,"rental_uris":{"android":"levelo://app?vid=1f458cf7-013b-41ab-9987-4bce3dbc6950","ios":"levelo://app?vid=1f458cf7-013b-41ab-9987-4bce3dbc6950"},"vehicle_type_id":"4","last_reported":1703160776,"current_range_meters":29200,"station_id":"ce4bgk12rcd13ifvqbi0","pricing_plan_id":"free"},{"bike_id":"591a2747-cb9a-4f9f-92b8-e7c41d935eaf","system_id":"levelo_inurba_marseille","lat":43.304278,"lon":5.388868,"is_reserved":false,"is_disabled":false,"rental_uris":{"android":"levelo://app?vid=591a2747-cb9a-4f9f-92b8-e7c41d935eaf","ios":"levelo://app?vid=591a2747-cb9a-4f9f-92b8-e7c41d935eaf"},"vehicle_type_id":"4","last_reported":1703160776,"current_range_meters":12400,"station_id":"ce4bgk12rcd13ifvqbi0","pricing_plan_id":"free"},{"bike_id":"e5dcca3b-92aa-4ea2-9bdc-2b2763f4fb70","system_id":"levelo_inurba_marseille","lat":43.29623,"lon":5.37718,"is_reserved":false,"is_disabled":false,"rental_uris":{"android":"levelo://app?vid=e5dcca3b-92aa-4ea2-9bdc-2b2763f4fb70","ios":"levelo://app?vid=e5dcca3b-92aa-4ea2-9bdc-2b2763f4fb70"},"vehicle_type_id":"4","last_reported":1703160776,"current_range_meters":0,"station_id":"ce4bgi92rcd13ifvqb90","pricing_plan_id":"free"},{"bike_id":"99d4b27d-328f-46a0-bb59-31a380ef8a9d","system_id":"levelo_inurba_marseille","lat":43.299717,"lon":5.384845,"is_reserved":false,"is_disabled":false,"rental_uris":{"android":"levelo://app?vid=99d4b27d-328f-46a0-bb59-31a380ef8a9d","ios":"levelo://app?vid=99d4b27d-328f-46a0-bb59-31a380ef8a9d"},"vehicle_type_id":"4","last_reported":1703160776,"current_range_meters":12400,"station_id":"ce4bgj92rcd13ifvqbd0","pricing_plan_id":"free"},{"bike_id":"e4c9d497-8363-469c-997d-20e382cecb9c","system_id":"levelo_inurba_marseille","lat":43.299717,"lon":5.384845,"is_reserved":false,"is_disabled":false,"rental_uris":{"android":"levelo://app?vid=e4c9d497-8363-469c-997d-20e382cecb9c","ios":"levelo://app?vid=e4c9d497-8363-469c-997d-20e382cecb9c"},"vehicle_type_id":"4","last_reported":1703160776,"current_range_meters":18400,"station_id":"ce4bgj92rcd13ifvqbd0","pricing_plan_id":"free"},{"bike_id":"864ae675-7378-47f7-a322-57dfe19a1748","system_id":"levelo_inurba_marseille","lat":43.299717,"lon":5.384845,"is_reserved":false,"is_disabled":false,"rental_uris":{"android":"levelo://app?vid=864ae675-7378-47f7-a322-57dfe19a1748","ios":"levelo://app?vid=864ae675-7378-47f7-a322-57dfe19a1748"},"vehicle_type_id":"4","last_reported":1703160776,"current_range_meters":26400,"station_id":"ce4bgj92rcd13ifvqbd0","pricing_plan_id":"free"},{"bike_id":"b14d6c2f-a087-4536-90f1-6bbe41ee049d","system_id":"levelo_inurba_marseille","lat":43.299717,"lon":5.384845,"is_reserved":false,"is_disabled":false,"rental_uris":{"android":"levelo://app?vid=b14d6c2f-a087-4536-90f1-6bbe41ee049d","ios":"levelo://app?vid=b14d6c2f-a087-4536-90f1-6bbe41ee049d"},"vehicle_type_id":"4","last_reported":1703160776,"current_range_meters":14400,"station_id":"ce4bgj92rcd13ifvqbd0","pricing_plan_id":"free"},{"bike_id":"b8d8447f-aba5-462f-8e51-834e44ec54c6","system_id":"levelo_inurba_marseille","lat":43.299724,"lon":5.384848,"is_reserved":false,"is_disabled":false,"rental_uris":{"android":"levelo://app?vid=b8d8447f-aba5-462f-8e51-834e44ec54c6","ios":"levelo://app?vid=b8d8447f-aba5-462f-8e51-834e44ec54c6"},"vehicle_type_id":"4","last_reported":1703160776,"current_range_meters":26000,"station_id":"ce4bgj92rcd13ifvqbd0","pricing_plan_id":"free"},{"bike_id":"39a5a7f1-613e-4ce9-85dc-bf406e7675c4","system_id":"levelo_inurba_marseille","lat":43.32367,"lon":5.388836,"is_reserved":false,"is_disabled":false,"rental_uris":{"android":"levelo://app?vid=39a5a7f1-613e-4ce9-85dc-bf406e7675c4","ios":"levelo://app?vid=39a5a7f1-613e-4ce9-85dc-bf406e7675c4"},"vehicle_type_id":"4","last_reported":1703160776,"current_range_meters":0,"station_id":"ce4bhqp2rcd13ifvqhog","pricing_plan_id":"free"},{"bike_id":"4851cd58-f6e9-4458-8780-5aa48e90ad10","system_id":"levelo_inurba_marseille","lat":43.29602,"lon":5.381084,"is_reserved":false,"is_disabled":false,"rental_uris":{"android":"levelo://app?vid=4851cd58-f6e9-4458-8780-5aa48e90ad10","ios":"levelo://app?vid=4851cd58-f6e9-4458-8780-5aa48e90ad10"},"vehicle_type_id":"4","last_reported":1703160776,"current_range_meters":22800,"station_id":"ce4bgl12rcd13ifvqbo0","pricing_plan_id":"free"},{"bike_id":"65d4c50c-5fb8-459c-bc53-9059926e739d","system_id":"levelo_inurba_marseille","lat":43.29602,"lon":5.381084,"is_reserved":false,"is_disabled":false,"rental_uris":{"android":"levelo://app?vid=65d4c50c-5fb8-459c-bc53-9059926e739d","ios":"levelo://app?vid=65d4c50c-5fb8-459c-bc53-9059926e739d"},"vehicle_type_id":"4","last_reported":1703160776,"current_range_meters":24800,"station_id":"ce4bgl12rcd13ifvqbo0","pricing_plan_id":"free"},{"bike_id":"e7bbc65e-7baf-4990-80ab-7791babffccf","system_id":"levelo_inurba_marseille","lat":43.29602,"lon":5.381084,"is_reserved":false,"is_disabled":false,"rental_uris":{"android":"levelo://app?vid=e7bbc65e-7baf-4990-80ab-7791babffccf","ios":"levelo://app?vid=e7bbc65e-7baf-4990-80ab-7791babffccf"},"vehicle_type_id":"4","last_reported":1703160776,"current_range_meters":22800,"station_id":"ce4bgl12rcd13ifvqbo0","pricing_plan_id":"free"},{"bike_id":"b0f25976-608a-4949-99f4-0d4d60db2f98","system_id":"levelo_inurba_marseille","lat":43.296277,"lon":5.377108,"is_reserved":false,"is_disabled":false,"rental_uris":{"android":"levelo://app?vid=b0f25976-608a-4949-99f4-0d4d60db2f98","ios":"levelo://app?vid=b0f25976-608a-4949-99f4-0d4d60db2f98"},"vehicle_type_id":"4","last_reported":1703160776,"current_range_meters":21200,"station_id":"ce4bgi92rcd13ifvqb90","pricing_plan_id":"free"},{"bike_id":"9f8fe673-18c7-4def-8ae7-6c96c2209d5e","system_id":"levelo_inurba_marseille","lat":43.29321,"lon":5.37444,"is_reserved":false,"is_disabled":false,"rental_uris":{"android":"levelo://app?vid=9f8fe673-18c7-4def-8ae7-6c96c2209d5e","ios":"levelo://app?vid=9f8fe673-18c7-4def-8ae7-6c96c2209d5e"},"vehicle_type_id":"4","last_reported":1703160776,"current_range_meters":28000,"station_id":"ce4bgi12rcd13ifvqb70","pricing_plan_id":"free"},{"bike_id":"8d94c612-3136-4d7c-b558-00bd3a87157b","system_id":"levelo_inurba_marseille","lat":43.305994,"lon":5.393687,"is_reserved":false,"is_disabled":false,"rental_uris":{"android":"levelo://app?vid=8d94c612-3136-4d7c-b558-00bd3a87157b","ios":"levelo://app?vid=8d94c612-3136-4d7c-b558-00bd3a87157b"},"vehicle_type_id":"4","last_reported":1703160776,"current_range_meters":4800,"station_id":"ce4bh0p2rcd13ifvqd80","pricing_plan_id":"free"},{"bike_id":"018a1945-8bb3-42d3-886f-69ea51dd2b14","system_id":"levelo_inurba_marseille","lat":43.2936,"lon":5.37835,"is_reserved":false,"is_disabled":false,"rental_uris":{"android":"levelo://app?vid=018a1945-8bb3-42d3-886f-69ea51dd2b14","ios":"levelo://app?vid=018a1945-8bb3-42d3-886f-69ea51dd2b14"},"vehicle_type_id":"4","last_reported":1703160776,"current_range_meters":24800,"station_id":"ce4bgjh2rcd13ifvqbf0","pricing_plan_id":"free"},{"bike_id":"6a59a8d4-52dc-4030-b6df-5ff883015fc6","system_id":"levelo_inurba_marseille","lat":43.2936,"lon":5.37835,"is_reserved":false,"is_disabled":false,"rental_uris":{"android":"levelo://app?vid=6a59a8d4-52dc-4030-b6df-5ff883015fc6","ios":"levelo://app?vid=6a59a8d4-52dc-4030-b6df-5ff883015fc6"},"vehicle_type_id":"4","last_reported":1703160776,"current_range_meters":24400,"station_id":"ce4bgjh2rcd13ifvqbf0","pricing_plan_id":"free"},{"bike_id":"af1adae3-1411-49f4-919b-e1afb3fc5238","system_id":"levelo_inurba_marseille","lat":43.2936,"lon":5.37835,"is_reserved":false,"is_disabled":false,"rental_uris":{"android":"levelo://app?vid=af1adae3-1411-49f4-919b-e1afb3fc5238","ios":"levelo://app?vid=af1adae3-1411-49f4-919b-e1afb3fc5238"},"vehicle_type_id":"4","last_reported":1703160776,"current_range_meters":30000,"station_id":"ce4bgjh2rcd13ifvqbf0","pricing_plan_id":"free"},{"bike_id":"d1874fca-e879-441e-93c1-91795e18e719","system_id":"levelo_inurba_marseille","lat":43.2936,"lon":5.37835,"is_reserved":false,"is_disabled":false,"rental_uris":{"android":"levelo://app?vid=d1874fca-e879-441e-93c1-91795e18e719","ios":"levelo://app?vid=d1874fca-e879-441e-93c1-91795e18e719"},"vehicle_type_id":"4","last_reported":1703160776,"current_range_meters":400,"station_id":"ce4bgjh2rcd13ifvqbf0","pricing_plan_id":"free"},{"bike_id":"4ed8415b-ad26-4039-a3c2-e3f7642eab89","system_id":"levelo_inurba_marseille","lat":43.292311,"lon":5.360731,"is_reserved":false,"is_disabled":false,"rental_uris":{"android":"levelo://app?vid=4ed8415b-ad26-4039-a3c2-e3f7642eab89","ios":"levelo://app?vid=4ed8415b-ad26-4039-a3c2-e3f7642eab89"},"vehicle_type_id":"4","last_reported":1703160776,"current_range_meters":27200,"station_id":"ce4bhbh2rcd13ifvqeqg","pricing_plan_id":"free"},{"bike_id":"4166a8b8-7310-4d9f-925f-ddaeea915939","system_id":"levelo_inurba_marseille","lat":43.30085,"lon":5.390856,"is_reserved":false,"is_disabled":false,"rental_uris":{"android":"levelo://app?vid=4166a8b8-7310-4d9f-925f-ddaeea915939","ios":"levelo://app?vid=4166a8b8-7310-4d9f-925f-ddaeea915939"},"vehicle_type_id":"4","last_reported":1703160776,"current_range_meters":16000,"station_id":"ce4bh192rcd13ifvqdb0","pricing_plan_id":"free"},{"bike_id":"3c68bbaa-112e-4994-92c5-4223311094cc","system_id":"levelo_inurba_marseille","lat":43.29279,"lon":5.37633,"is_reserved":false,"is_disabled":false,"rental_uris":{"android":"levelo://app?vid=3c68bbaa-112e-4994-92c5-4223311094cc","ios":"levelo://app?vid=3c68bbaa-112e-4994-92c5-4223311094cc"},"vehicle_type_id":"4","last_reported":1703160776,"current_range_meters":7600,"station_id":"","pricing_plan_id":"free"},{"bike_id":"5f495086-b90a-4330-90b7-b73d292c511d","system_id":"levelo_inurba_marseille","lat":43.292702,"lon":5.37618,"is_reserved":false,"is_disabled":false,"rental_uris":{"android":"levelo://app?vid=5f495086-b90a-4330-90b7-b73d292c511d","ios":"levelo://app?vid=5f495086-b90a-4330-90b7-b73d292c511d"},"vehicle_type_id":"4","last_reported":1703160776,"current_range_meters":23600,"station_id":"","pricing_plan_id":"free"},{"bike_id":"ea87bcd5-f421-4f88-bdc4-2da09ff9bd94","system_id":"levelo_inurba_marseille","lat":43.291675,"lon":5.371583,"is_reserved":false,"is_disabled":false,"rental_uris":{"android":"levelo://app?vid=ea87bcd5-f421-4f88-bdc4-2da09ff9bd94","ios":"levelo://app?vid=ea87bcd5-f421-4f88-bdc4-2da09ff9bd94"},"vehicle_type_id":"4","last_reported":1703160776,"current_range_meters":18400,"station_id":"ce4bha92rcd13ifvqeh0","pricing_plan_id":"free"},{"bike_id":"5ab45285-d35f-44d3-9343-f7e3cc0d0d42","system_id":"levelo_inurba_marseille","lat":43.309038,"lon":5.396546,"is_reserved":false,"is_disabled":false,"rental_uris":{"android":"levelo://app?vid=5ab45285-d35f-44d3-9343-f7e3cc0d0d42","ios":"levelo://app?vid=5ab45285-d35f-44d3-9343-f7e3cc0d0d42"},"vehicle_type_id":"4","last_reported":1703160776,"current_range_meters":24400,"station_id":"ce4bh012rcd13ifvqcv0","pricing_plan_id":"free"},{"bike_id":"786367b5-9dc6-48b8-ab81-5706acc87a83","system_id":"levelo_inurba_marseille","lat":43.290779,"lon":5.371482,"is_reserved":false,"is_disabled":false,"rental_uris":{"android":"levelo://app?vid=786367b5-9dc6-48b8-ab81-5706acc87a83","ios":"levelo://app?vid=786367b5-9dc6-48b8-ab81-5706acc87a83"},"vehicle_type_id":"4","last_reported":1703160776,"current_range_meters":800,"station_id":"ce4bh5p2rcd13ifvqe4g","pricing_plan_id":"free"},{"bike_id":"f4e55c92-44cf-4468-b8c8-6583f0c0bc2c","system_id":"levelo_inurba_marseille","lat":43.290779,"lon":5.371482,"is_reserved":false,"is_disabled":false,"rental_uris":{"android":"levelo://app?vid=f4e55c92-44cf-4468-b8c8-6583f0c0bc2c","ios":"levelo://app?vid=f4e55c92-44cf-4468-b8c8-6583f0c0bc2c"},"vehicle_type_id":"4","last_reported":1703160776,"current_range_meters":15200,"station_id":"ce4bh5p2rcd13ifvqe4g","pricing_plan_id":"free"},{"bike_id":"a30eff3d-cca5-4284-96cc-0376a425a73b","system_id":"levelo_inurba_marseille","lat":43.290779,"lon":5.371482,"is_reserved":false,"is_disabled":false,"rental_uris":{"android":"levelo://app?vid=a30eff3d-cca5-4284-96cc-0376a425a73b","ios":"levelo://app?vid=a30eff3d-cca5-4284-96cc-0376a425a73b"},"vehicle_type_id":"4","last_reported":1703160776,"current_range_meters":16000,"station_id":"ce4bh5p2rcd13ifvqe4g","pricing_plan_id":"free"},{"bike_id":"2e88d8bb-dec4-4446-b6f9-19c61fb204a3","system_id":"levelo_inurba_marseille","lat":43.302008,"lon":5.394694,"is_reserved":false,"is_disabled":false,"rental_uris":{"android":"levelo://app?vid=2e88d8bb-dec4-4446-b6f9-19c61fb204a3","ios":"levelo://app?vid=2e88d8bb-dec4-4446-b6f9-19c61fb204a3"},"vehicle_type_id":"4","last_reported":1703160776,"current_range_meters":21200,"station_id":"ce4bh0p2rcd13ifvqd70","pricing_plan_id":"free"},{"bike_id":"7c7cb339-f594-4d67-9bec-f5787319f4de","system_id":"levelo_inurba_marseille","lat":43.299717,"lon":5.384845,"is_reserved":false,"is_disabled":false,"rental_uris":{"android":"levelo://app?vid=7c7cb339-f594-4d67-9bec-f5787319f4de","ios":"levelo://app?vid=7c7cb339-f594-4d67-9bec-f5787319f4de"},"vehicle_type_id":"4","last_reported":1703160776,"current_range_meters":15600,"station_id":"ce4bgj92rcd13ifvqbd0","pricing_plan_id":"free"},{"bike_id":"77594df9-0e05-4f07-bc59-2c569c95268f","system_id":"levelo_inurba_marseille","lat":43.294162,"lon":5.386292,"is_reserved":false,"is_disabled":false,"rental_uris":{"android":"levelo://app?vid=77594df9-0e05-4f07-bc59-2c569c95268f","ios":"levelo://app?vid=77594df9-0e05-4f07-bc59-2c569c95268f"},"vehicle_type_id":"4","last_reported":1703160776,"current_range_meters":20800,"station_id":"ce4bh2h2rcd13ifvqdh0","pricing_plan_id":"free"},{"bike_id":"1e1b683d-03a8-4de0-a6c8-e70c74e3138e","system_id":"levelo_inurba_marseille","lat":43.289184,"lon":5.366408,"is_reserved":false,"is_disabled":false,"rental_uris":{"android":"levelo://app?vid=1e1b683d-03a8-4de0-a6c8-e70c74e3138e","ios":"levelo://app?vid=1e1b683d-03a8-4de0-a6c8-e70c74e3138e"},"vehicle_type_id":"4","last_reported":1703160776,"current_range_meters":12000,"station_id":"ce4bhap2rcd13ifvqek0","pricing_plan_id":"free"},{"bike_id":"ecbf95c8-04fb-4350-b913-76d490bd4936","system_id":"levelo_inurba_marseille","lat":43.289468,"lon":5.363719,"is_reserved":false,"is_disabled":false,"rental_uris":{"android":"levelo://app?vid=ecbf95c8-04fb-4350-b913-76d490bd4936","ios":"levelo://app?vid=ecbf95c8-04fb-4350-b913-76d490bd4936"},"vehicle_type_id":"4","last_reported":1703160776,"current_range_meters":22400,"station_id":"ce4bhc92rcd13ifvqetg","pricing_plan_id":"free"},{"bike_id":"918cfe44-6887-4bcb-84e8-6b9f71abc617","system_id":"levelo_inurba_marseille","lat":43.330442,"lon":5.389148,"is_reserved":false,"is_disabled":false,"rental_uris":{"android":"levelo://app?vid=918cfe44-6887-4bcb-84e8-6b9f71abc617","ios":"levelo://app?vid=918cfe44-6887-4bcb-84e8-6b9f71abc617"},"vehicle_type_id":"4","last_reported":1703160776,"current_range_meters":8400,"station_id":"ce4bhr92rcd13ifvqhrg","pricing_plan_id":"free"},{"bike_id":"5961899a-c90d-4b53-9920-bac82dc04d3a","system_id":"levelo_inurba_marseille","lat":43.290104,"lon":5.356111,"is_reserved":false,"is_disabled":false,"rental_uris":{"android":"levelo://app?vid=5961899a-c90d-4b53-9920-bac82dc04d3a","ios":"levelo://app?vid=5961899a-c90d-4b53-9920-bac82dc04d3a"},"vehicle_type_id":"4","last_reported":1703160776,"current_range_meters":13600,"station_id":"ce4bhb92rcd13ifvqen0","pricing_plan_id":"free"},{"bike_id":"d26cb1dd-e127-411a-9f9c-7182dd7e6e7e","system_id":"levelo_inurba_marseille","lat":43.290104,"lon":5.356111,"is_reserved":false,"is_disabled":false,"rental_uris":{"android":"levelo://app?vid=d26cb1dd-e127-411a-9f9c-7182dd7e6e7e","ios":"levelo://app?vid=d26cb1dd-e127-411a-9f9c-7182dd7e6e7e"},"vehicle_type_id":"4","last_reported":1703160776,"current_range_meters":22400,"station_id":"ce4bhb92rcd13ifvqen0","pricing_plan_id":"free"},{"bike_id":"755d175d-d54a-494d-8c58-85d1b0ab2282","system_id":"levelo_inurba_marseille","lat":43.290103,"lon":5.356114,"is_reserved":false,"is_disabled":false,"rental_uris":{"android":"levelo://app?vid=755d175d-d54a-494d-8c58-85d1b0ab2282","ios":"levelo://app?vid=755d175d-d54a-494d-8c58-85d1b0ab2282"},"vehicle_type_id":"4","last_reported":1703160776,"current_range_meters":20400,"station_id":"ce4bhb92rcd13ifvqen0","pricing_plan_id":"free"},{"bike_id":"d72721e0-d2d4-450b-bd03-611e83612c17","system_id":"levelo_inurba_marseille","lat":43.290995,"lon":5.381361,"is_reserved":false,"is_disabled":false,"rental_uris":{"android":"levelo://app?vid=d72721e0-d2d4-450b-bd03-611e83612c17","ios":"levelo://app?vid=d72721e0-d2d4-450b-bd03-611e83612c17"},"vehicle_type_id":"4","last_reported":1703160776,"current_range_meters":24800,"station_id":"ce4bh512rcd13ifvqe2g","pricing_plan_id":"free"},{"bike_id":"51d33bc5-199c-40d6-a622-902bcd39562c","system_id":"levelo_inurba_marseille","lat":43.29529,"lon":5.39039,"is_reserved":false,"is_disabled":false,"rental_uris":{"android":"levelo://app?vid=51d33bc5-199c-40d6-a622-902bcd39562c","ios":"levelo://app?vid=51d33bc5-199c-40d6-a622-902bcd39562c"},"vehicle_type_id":"4","last_reported":1703160776,"current_range_meters":5200,"station_id":"ce4bh3p2rcd13ifvqdp0","pricing_plan_id":"free"},{"bike_id":"78c977e9-2605-4199-a8eb-3f0312dcf128","system_id":"levelo_inurba_marseille","lat":43.29524,"lon":5.39037,"is_reserved":false,"is_disabled":false,"rental_uris":{"android":"levelo://app?vid=78c977e9-2605-4199-a8eb-3f0312dcf128","ios":"levelo://app?vid=78c977e9-2605-4199-a8eb-3f0312dcf128"},"vehicle_type_id":"4","last_reported":1703160776,"current_range_meters":12800,"station_id":"ce4bh3p2rcd13ifvqdp0","pricing_plan_id":"free"},{"bike_id":"cf64b4fa-d9d3-4b24-9a22-dd29895def99","system_id":"levelo_inurba_marseille","lat":43.28856,"lon":5.358371,"is_reserved":false,"is_disabled":false,"rental_uris":{"android":"levelo://app?vid=cf64b4fa-d9d3-4b24-9a22-dd29895def99","ios":"levelo://app?vid=cf64b4fa-d9d3-4b24-9a22-dd29895def99"},"vehicle_type_id":"4","last_reported":1703160776,"current_range_meters":0,"station_id":"ce4bhb12rcd13ifvqem0","pricing_plan_id":"free"},{"bike_id":"6bf830c5-a8f6-4cfc-a90e-3c68aaedb3ca","system_id":"levelo_inurba_marseille","lat":43.28856,"lon":5.358371,"is_reserved":false,"is_disabled":false,"rental_uris":{"android":"levelo://app?vid=6bf830c5-a8f6-4cfc-a90e-3c68aaedb3ca","ios":"levelo://app?vid=6bf830c5-a8f6-4cfc-a90e-3c68aaedb3ca"},"vehicle_type_id":"4","last_reported":1703160776,"current_range_meters":8800,"station_id":"ce4bhb12rcd13ifvqem0","pricing_plan_id":"free"},{"bike_id":"cd70171d-ec98-4233-a1e2-c525be36acbf","system_id":"levelo_inurba_marseille","lat":43.28856,"lon":5.358371,"is_reserved":false,"is_disabled":false,"rental_uris":{"android":"levelo://app?vid=cd70171d-ec98-4233-a1e2-c525be36acbf","ios":"levelo://app?vid=cd70171d-ec98-4233-a1e2-c525be36acbf"},"vehicle_type_id":"4","last_reported":1703160776,"current_range_meters":13600,"station_id":"ce4bhb12rcd13ifvqem0","pricing_plan_id":"free"},{"bike_id":"fdd7f490-de60-4a2a-901f-16c82262eed9","system_id":"levelo_inurba_marseille","lat":43.28856,"lon":5.358371,"is_reserved":false,"is_disabled":false,"rental_uris":{"android":"levelo://app?vid=fdd7f490-de60-4a2a-901f-16c82262eed9","ios":"levelo://app?vid=fdd7f490-de60-4a2a-901f-16c82262eed9"},"vehicle_type_id":"4","last_reported":1703160776,"current_range_meters":12400,"station_id":"ce4bhb12rcd13ifvqem0","pricing_plan_id":"free"},{"bike_id":"c8b85199-dabf-421f-9a19-2ebde103b63c","system_id":"levelo_inurba_marseille","lat":43.28856,"lon":5.358371,"is_reserved":false,"is_disabled":false,"rental_uris":{"android":"levelo://app?vid=c8b85199-dabf-421f-9a19-2ebde103b63c","ios":"levelo://app?vid=c8b85199-dabf-421f-9a19-2ebde103b63c"},"vehicle_type_id":"4","last_reported":1703160776,"current_range_meters":22000,"station_id":"ce4bhb12rcd13ifvqem0","pricing_plan_id":"free"},{"bike_id":"62172e79-b21c-46e2-81d3-7ec8994ddae6","system_id":"levelo_inurba_marseille","lat":43.309371,"lon":5.401449,"is_reserved":false,"is_disabled":false,"rental_uris":{"android":"levelo://app?vid=62172e79-b21c-46e2-81d3-7ec8994ddae6","ios":"levelo://app?vid=62172e79-b21c-46e2-81d3-7ec8994ddae6"},"vehicle_type_id":"4","last_reported":1703160776,"current_range_meters":21200,"station_id":"ce4bgvp2rcd13ifvqct0","pricing_plan_id":"free"},{"bike_id":"68a32d3f-36c1-4f53-bdba-3f502fe83b4c","system_id":"levelo_inurba_marseille","lat":43.309371,"lon":5.401449,"is_reserved":false,"is_disabled":false,"rental_uris":{"android":"levelo://app?vid=68a32d3f-36c1-4f53-bdba-3f502fe83b4c","ios":"levelo://app?vid=68a32d3f-36c1-4f53-bdba-3f502fe83b4c"},"vehicle_type_id":"4","last_reported":1703160776,"current_range_meters":16400,"station_id":"ce4bgvp2rcd13ifvqct0","pricing_plan_id":"free"},{"bike_id":"a3dcd3ae-94fe-4858-8289-9607b0a21047","system_id":"levelo_inurba_marseille","lat":43.337663,"lon":5.374547,"is_reserved":false,"is_disabled":false,"rental_uris":{"android":"levelo://app?vid=a3dcd3ae-94fe-4858-8289-9607b0a21047","ios":"levelo://app?vid=a3dcd3ae-94fe-4858-8289-9607b0a21047"},"vehicle_type_id":"4","last_reported":1703160776,"current_range_meters":26400,"station_id":"","pricing_plan_id":"free"},{"bike_id":"ffa6eac4-f778-4765-b8e0-b4e6a89b2ecc","system_id":"levelo_inurba_marseille","lat":43.28727,"lon":5.36078,"is_reserved":false,"is_disabled":false,"rental_uris":{"android":"levelo://app?vid=ffa6eac4-f778-4765-b8e0-b4e6a89b2ecc","ios":"levelo://app?vid=ffa6eac4-f778-4765-b8e0-b4e6a89b2ecc"},"vehicle_type_id":"4","last_reported":1703160776,"current_range_meters":6800,"station_id":"cki0cbj6b192h4jlfktg","pricing_plan_id":"free"},{"bike_id":"c23103b6-f57e-4d3d-830f-5cf803ea5464","system_id":"levelo_inurba_marseille","lat":43.286961,"lon":5.373785,"is_reserved":false,"is_disabled":false,"rental_uris":{"android":"levelo://app?vid=c23103b6-f57e-4d3d-830f-5cf803ea5464","ios":"levelo://app?vid=c23103b6-f57e-4d3d-830f-5cf803ea5464"},"vehicle_type_id":"4","last_reported":1703160776,"current_range_meters":10000,"station_id":"ce4bh3p2rcd13ifvqdq0","pricing_plan_id":"free"},{"bike_id":"4a3dce4d-9723-4003-8d55-9c56bac9d26b","system_id":"levelo_inurba_marseille","lat":43.29875,"lon":5.39736,"is_reserved":false,"is_disabled":false,"rental_uris":{"android":"levelo://app?vid=4a3dce4d-9723-4003-8d55-9c56bac9d26b","ios":"levelo://app?vid=4a3dce4d-9723-4003-8d55-9c56bac9d26b"},"vehicle_type_id":"4","last_reported":1703160776,"current_range_meters":0,"station_id":"ce4bh0h2rcd13ifvqd50","pricing_plan_id":"free"},{"bike_id":"2df2cd82-f212-4697-94ad-e6c5ed4d2697","system_id":"levelo_inurba_marseille","lat":43.298681,"lon":5.397225,"is_reserved":false,"is_disabled":false,"rental_uris":{"android":"levelo://app?vid=2df2cd82-f212-4697-94ad-e6c5ed4d2697","ios":"levelo://app?vid=2df2cd82-f212-4697-94ad-e6c5ed4d2697"},"vehicle_type_id":"4","last_reported":1703160776,"current_range_meters":22400,"station_id":"ce4bh0h2rcd13ifvqd50","pricing_plan_id":"free"},{"bike_id":"1d9935be-2f50-4e56-aa36-c1570b5cae0b","system_id":"levelo_inurba_marseille","lat":43.302759,"lon":5.400793,"is_reserved":false,"is_disabled":false,"rental_uris":{"android":"levelo://app?vid=1d9935be-2f50-4e56-aa36-c1570b5cae0b","ios":"levelo://app?vid=1d9935be-2f50-4e56-aa36-c1570b5cae0b"},"vehicle_type_id":"4","last_reported":1703160776,"current_range_meters":21200,"station_id":"ce4bgvh2rcd13ifvqcs0","pricing_plan_id":"free"},{"bike_id":"8f64d522-7a38-45fb-b6e6-5b4d6337952b","system_id":"levelo_inurba_marseille","lat":43.29032,"lon":5.38645,"is_reserved":false,"is_disabled":false,"rental_uris":{"android":"levelo://app?vid=8f64d522-7a38-45fb-b6e6-5b4d6337952b","ios":"levelo://app?vid=8f64d522-7a38-45fb-b6e6-5b4d6337952b"},"vehicle_type_id":"4","last_reported":1703160776,"current_range_meters":0,"station_id":"","pricing_plan_id":"free"},{"bike_id":"97cdd1a4-ce85-4707-b2e2-54a2fab6a6ba","system_id":"levelo_inurba_marseille","lat":43.280784,"lon":5.396622,"is_reserved":false,"is_disabled":false,"rental_uris":{"android":"levelo://app?vid=97cdd1a4-ce85-4707-b2e2-54a2fab6a6ba","ios":"levelo://app?vid=97cdd1a4-ce85-4707-b2e2-54a2fab6a6ba"},"vehicle_type_id":"4","last_reported":1703160776,"current_range_meters":19200,"station_id":"ce4bho12rcd13ifvqh2g","pricing_plan_id":"free"},{"bike_id":"efbddc92-855c-48c4-b89d-bc45ab095836","system_id":"levelo_inurba_marseille","lat":43.284538,"lon":5.358657,"is_reserved":false,"is_disabled":false,"rental_uris":{"android":"levelo://app?vid=efbddc92-855c-48c4-b89d-bc45ab095836","ios":"levelo://app?vid=efbddc92-855c-48c4-b89d-bc45ab095836"},"vehicle_type_id":"4","last_reported":1703160776,"current_range_meters":23600,"station_id":"ce4bhah2rcd13ifvqei0","pricing_plan_id":"free"},{"bike_id":"10d22d61-57d2-4b15-9af8-b13b3183a9cc","system_id":"levelo_inurba_marseille","lat":43.284538,"lon":5.358657,"is_reserved":false,"is_disabled":false,"rental_uris":{"android":"levelo://app?vid=10d22d61-57d2-4b15-9af8-b13b3183a9cc","ios":"levelo://app?vid=10d22d61-57d2-4b15-9af8-b13b3183a9cc"},"vehicle_type_id":"4","last_reported":1703160776,"current_range_meters":12000,"station_id":"ce4bhah2rcd13ifvqei0","pricing_plan_id":"free"},{"bike_id":"0c82463d-d9f7-4091-8846-acfabf229e72","system_id":"levelo_inurba_marseille","lat":43.284538,"lon":5.358657,"is_reserved":false,"is_disabled":false,"rental_uris":{"android":"levelo://app?vid=0c82463d-d9f7-4091-8846-acfabf229e72","ios":"levelo://app?vid=0c82463d-d9f7-4091-8846-acfabf229e72"},"vehicle_type_id":"4","last_reported":1703160776,"current_range_meters":2400,"station_id":"ce4bhah2rcd13ifvqei0","pricing_plan_id":"free"},{"bike_id":"152d8e57-f7c5-44be-a835-6bd95a868408","system_id":"levelo_inurba_marseille","lat":43.284538,"lon":5.358657,"is_reserved":false,"is_disabled":false,"rental_uris":{"android":"levelo://app?vid=152d8e57-f7c5-44be-a835-6bd95a868408","ios":"levelo://app?vid=152d8e57-f7c5-44be-a835-6bd95a868408"},"vehicle_type_id":"4","last_reported":1703160776,"current_range_meters":12800,"station_id":"ce4bhah2rcd13ifvqei0","pricing_plan_id":"free"},{"bike_id":"ccf3ce3d-1b6a-4b46-b53e-3213aa048bca","system_id":"levelo_inurba_marseille","lat":43.284538,"lon":5.358657,"is_reserved":false,"is_disabled":false,"rental_uris":{"android":"levelo://app?vid=ccf3ce3d-1b6a-4b46-b53e-3213aa048bca","ios":"levelo://app?vid=ccf3ce3d-1b6a-4b46-b53e-3213aa048bca"},"vehicle_type_id":"4","last_reported":1703160776,"current_range_meters":23600,"station_id":"ce4bhah2rcd13ifvqei0","pricing_plan_id":"free"},{"bike_id":"943152d2-5d58-49d7-ac56-829a128fae10","system_id":"levelo_inurba_marseille","lat":43.283998,"lon":5.375062,"is_reserved":false,"is_disabled":false,"rental_uris":{"android":"levelo://app?vid=943152d2-5d58-49d7-ac56-829a128fae10","ios":"levelo://app?vid=943152d2-5d58-49d7-ac56-829a128fae10"},"vehicle_type_id":"4","last_reported":1703160776,"current_range_meters":18800,"station_id":"ce4bh412rcd13ifvqds0","pricing_plan_id":"free"},{"bike_id":"478375b6-629d-460a-85a0-b4cd38b50748","system_id":"levelo_inurba_marseille","lat":43.285856,"lon":5.350771,"is_reserved":false,"is_disabled":false,"rental_uris":{"android":"levelo://app?vid=478375b6-629d-460a-85a0-b4cd38b50748","ios":"levelo://app?vid=478375b6-629d-460a-85a0-b4cd38b50748"},"vehicle_type_id":"4","last_reported":1703160776,"current_range_meters":22400,"station_id":"ce4bhch2rcd13ifvqeug","pricing_plan_id":"free"},{"bike_id":"7eeaae8b-982b-42e4-8538-83fd54adcf1b","system_id":"levelo_inurba_marseille","lat":43.285848,"lon":5.350787,"is_reserved":false,"is_disabled":false,"rental_uris":{"android":"levelo://app?vid=7eeaae8b-982b-42e4-8538-83fd54adcf1b","ios":"levelo://app?vid=7eeaae8b-982b-42e4-8538-83fd54adcf1b"},"vehicle_type_id":"4","last_reported":1703160776,"current_range_meters":20400,"station_id":"ce4bhch2rcd13ifvqeug","pricing_plan_id":"free"},{"bike_id":"93a736df-211c-4b1b-9cc6-83a381c0b635","system_id":"levelo_inurba_marseille","lat":43.285848,"lon":5.350787,"is_reserved":false,"is_disabled":false,"rental_uris":{"android":"levelo://app?vid=93a736df-211c-4b1b-9cc6-83a381c0b635","ios":"levelo://app?vid=93a736df-211c-4b1b-9cc6-83a381c0b635"},"vehicle_type_id":"4","last_reported":1703160776,"current_range_meters":16800,"station_id":"ce4bhch2rcd13ifvqeug","pricing_plan_id":"free"},{"bike_id":"23f1c0ca-6a2a-40bf-9750-46ae705a5358","system_id":"levelo_inurba_marseille","lat":43.285848,"lon":5.350787,"is_reserved":false,"is_disabled":false,"rental_uris":{"android":"levelo://app?vid=23f1c0ca-6a2a-40bf-9750-46ae705a5358","ios":"levelo://app?vid=23f1c0ca-6a2a-40bf-9750-46ae705a5358"},"vehicle_type_id":"4","last_reported":1703160776,"current_range_meters":19200,"station_id":"ce4bhch2rcd13ifvqeug","pricing_plan_id":"free"},{"bike_id":"e37b4275-35e2-4ab1-8678-47b99109b001","system_id":"levelo_inurba_marseille","lat":43.295713,"lon":5.399639,"is_reserved":false,"is_disabled":false,"rental_uris":{"android":"levelo://app?vid=e37b4275-35e2-4ab1-8678-47b99109b001","ios":"levelo://app?vid=e37b4275-35e2-4ab1-8678-47b99109b001"},"vehicle_type_id":"4","last_reported":1703160776,"current_range_meters":31200,"station_id":"ce4bh312rcd13ifvqdj0","pricing_plan_id":"free"},{"bike_id":"8538e6dd-dbef-4a5a-a119-9a857fd021ad","system_id":"levelo_inurba_marseille","lat":43.33218,"lon":5.397067,"is_reserved":false,"is_disabled":false,"rental_uris":{"android":"levelo://app?vid=8538e6dd-dbef-4a5a-a119-9a857fd021ad","ios":"levelo://app?vid=8538e6dd-dbef-4a5a-a119-9a857fd021ad"},"vehicle_type_id":"4","last_reported":1703160776,"current_range_meters":0,"station_id":"","pricing_plan_id":"free"},{"bike_id":"ae6384dd-9aca-4b2a-bb49-b41b0550f9ad","system_id":"levelo_inurba_marseille","lat":43.295713,"lon":5.399639,"is_reserved":false,"is_disabled":false,"rental_uris":{"android":"levelo://app?vid=ae6384dd-9aca-4b2a-bb49-b41b0550f9ad","ios":"levelo://app?vid=ae6384dd-9aca-4b2a-bb49-b41b0550f9ad"},"vehicle_type_id":"4","last_reported":1703160776,"current_range_meters":7600,"station_id":"ce4bh312rcd13ifvqdj0","pricing_plan_id":"free"},{"bike_id":"40eae74c-fb79-47ec-9afc-de5176b3ee2d","system_id":"levelo_inurba_marseille","lat":43.319179,"lon":5.407725,"is_reserved":false,"is_disabled":false,"rental_uris":{"android":"levelo://app?vid=40eae74c-fb79-47ec-9afc-de5176b3ee2d","ios":"levelo://app?vid=40eae74c-fb79-47ec-9afc-de5176b3ee2d"},"vehicle_type_id":"4","last_reported":1703160776,"current_range_meters":2800,"station_id":"ce4bhq12rcd13ifvqhig","pricing_plan_id":"free"},{"bike_id":"a4bd4468-e48f-4b19-a1a4-c86f81bd715d","system_id":"levelo_inurba_marseille","lat":43.288501,"lon":5.393087,"is_reserved":false,"is_disabled":false,"rental_uris":{"android":"levelo://app?vid=a4bd4468-e48f-4b19-a1a4-c86f81bd715d","ios":"levelo://app?vid=a4bd4468-e48f-4b19-a1a4-c86f81bd715d"},"vehicle_type_id":"4","last_reported":1703160776,"current_range_meters":15200,"station_id":"ce4bh2p2rcd13ifvqdi0","pricing_plan_id":"free"},{"bike_id":"487765f3-17d6-467d-936a-191628991105","system_id":"levelo_inurba_marseille","lat":43.283494,"lon":5.380945,"is_reserved":false,"is_disabled":false,"rental_uris":{"android":"levelo://app?vid=487765f3-17d6-467d-936a-191628991105","ios":"levelo://app?vid=487765f3-17d6-467d-936a-191628991105"},"vehicle_type_id":"4","last_reported":1703160776,"current_range_meters":18400,"station_id":"ce4bh412rcd13ifvqdr0","pricing_plan_id":"free"},{"bike_id":"25acf729-0c15-45f0-8053-2c35b0919b50","system_id":"levelo_inurba_marseille","lat":43.284219,"lon":5.3497,"is_reserved":false,"is_disabled":false,"rental_uris":{"android":"levelo://app?vid=25acf729-0c15-45f0-8053-2c35b0919b50","ios":"levelo://app?vid=25acf729-0c15-45f0-8053-2c35b0919b50"},"vehicle_type_id":"4","last_reported":1703160776,"current_range_meters":30800,"station_id":"ce4bhbh2rcd13ifvqepg","pricing_plan_id":"free"},{"bike_id":"e68ad7a3-9f73-42da-8e90-59adcc6ccfbd","system_id":"levelo_inurba_marseille","lat":43.284219,"lon":5.3497,"is_reserved":false,"is_disabled":false,"rental_uris":{"android":"levelo://app?vid=e68ad7a3-9f73-42da-8e90-59adcc6ccfbd","ios":"levelo://app?vid=e68ad7a3-9f73-42da-8e90-59adcc6ccfbd"},"vehicle_type_id":"4","last_reported":1703160776,"current_range_meters":31600,"station_id":"ce4bhbh2rcd13ifvqepg","pricing_plan_id":"free"},{"bike_id":"0f42eedd-bd33-445f-91fc-4e7504a96eb4","system_id":"levelo_inurba_marseille","lat":43.324184,"lon":5.40678,"is_reserved":false,"is_disabled":false,"rental_uris":{"android":"levelo://app?vid=0f42eedd-bd33-445f-91fc-4e7504a96eb4","ios":"levelo://app?vid=0f42eedd-bd33-445f-91fc-4e7504a96eb4"},"vehicle_type_id":"4","last_reported":1703160776,"current_range_meters":17600,"station_id":"","pricing_plan_id":"free"},{"bike_id":"9288d875-1c8e-487a-93e8-33ef46564c8b","system_id":"levelo_inurba_marseille","lat":43.284219,"lon":5.3497,"is_reserved":false,"is_disabled":false,"rental_uris":{"android":"levelo://app?vid=9288d875-1c8e-487a-93e8-33ef46564c8b","ios":"levelo://app?vid=9288d875-1c8e-487a-93e8-33ef46564c8b"},"vehicle_type_id":"4","last_reported":1703160776,"current_range_meters":29200,"station_id":"ce4bhbh2rcd13ifvqepg","pricing_plan_id":"free"},{"bike_id":"d0d30fde-c8ad-40e2-b14e-380b8f6e2410","system_id":"levelo_inurba_marseille","lat":43.284217,"lon":5.349697,"is_reserved":false,"is_disabled":false,"rental_uris":{"android":"levelo://app?vid=d0d30fde-c8ad-40e2-b14e-380b8f6e2410","ios":"levelo://app?vid=d0d30fde-c8ad-40e2-b14e-380b8f6e2410"},"vehicle_type_id":"4","last_reported":1703160776,"current_range_meters":15200,"station_id":"ce4bhbh2rcd13ifvqepg","pricing_plan_id":"free"},{"bike_id":"d33d70d6-0a1e-4a44-bfc5-d3da5ecf10ca","system_id":"levelo_inurba_marseille","lat":43.289363,"lon":5.396322,"is_reserved":false,"is_disabled":false,"rental_uris":{"android":"levelo://app?vid=d33d70d6-0a1e-4a44-bfc5-d3da5ecf10ca","ios":"levelo://app?vid=d33d70d6-0a1e-4a44-bfc5-d3da5ecf10ca"},"vehicle_type_id":"4","last_reported":1703160776,"current_range_meters":22000,"station_id":"ce4bh3h2rcd13ifvqdn0","pricing_plan_id":"free"},{"bike_id":"73604bf9-cafe-4685-a2c6-fdfd54d8f6d3","system_id":"levelo_inurba_marseille","lat":43.289363,"lon":5.396322,"is_reserved":false,"is_disabled":false,"rental_uris":{"android":"levelo://app?vid=73604bf9-cafe-4685-a2c6-fdfd54d8f6d3","ios":"levelo://app?vid=73604bf9-cafe-4685-a2c6-fdfd54d8f6d3"},"vehicle_type_id":"4","last_reported":1703160776,"current_range_meters":29200,"station_id":"ce4bh3h2rcd13ifvqdn0","pricing_plan_id":"free"},{"bike_id":"d48c44f4-d1c7-4462-865a-7961e19fcaec","system_id":"levelo_inurba_marseille","lat":43.282924,"lon":5.383991,"is_reserved":false,"is_disabled":false,"rental_uris":{"android":"levelo://app?vid=d48c44f4-d1c7-4462-865a-7961e19fcaec","ios":"levelo://app?vid=d48c44f4-d1c7-4462-865a-7961e19fcaec"},"vehicle_type_id":"4","last_reported":1703160776,"current_range_meters":8000,"station_id":"","pricing_plan_id":"free"},{"bike_id":"3f9ea8e0-b4d8-48e7-bc96-d7be42de5f87","system_id":"levelo_inurba_marseille","lat":43.282754,"lon":5.350519,"is_reserved":false,"is_disabled":false,"rental_uris":{"android":"levelo://app?vid=3f9ea8e0-b4d8-48e7-bc96-d7be42de5f87","ios":"levelo://app?vid=3f9ea8e0-b4d8-48e7-bc96-d7be42de5f87"},"vehicle_type_id":"4","last_reported":1703160776,"current_range_meters":8800,"station_id":"ce4bhbp2rcd13ifvqerg","pricing_plan_id":"free"},{"bike_id":"9fa3b104-82ef-48ad-b347-3faa3770a0e7","system_id":"levelo_inurba_marseille","lat":43.282744,"lon":5.350533,"is_reserved":false,"is_disabled":false,"rental_uris":{"android":"levelo://app?vid=9fa3b104-82ef-48ad-b347-3faa3770a0e7","ios":"levelo://app?vid=9fa3b104-82ef-48ad-b347-3faa3770a0e7"},"vehicle_type_id":"4","last_reported":1703160776,"current_range_meters":12400,"station_id":"ce4bhbp2rcd13ifvqerg","pricing_plan_id":"free"},{"bike_id":"9a335322-ac84-4228-a1fc-2adb9ff22f79","system_id":"levelo_inurba_marseille","lat":43.283502,"lon":5.386471,"is_reserved":false,"is_disabled":false,"rental_uris":{"android":"levelo://app?vid=9a335322-ac84-4228-a1fc-2adb9ff22f79","ios":"levelo://app?vid=9a335322-ac84-4228-a1fc-2adb9ff22f79"},"vehicle_type_id":"4","last_reported":1703160776,"current_range_meters":24400,"station_id":"ce4bh492rcd13ifvqdvg","pricing_plan_id":"free"},{"bike_id":"f057150e-9467-4585-8889-aeabb62637d4","system_id":"levelo_inurba_marseille","lat":43.283502,"lon":5.386471,"is_reserved":false,"is_disabled":false,"rental_uris":{"android":"levelo://app?vid=f057150e-9467-4585-8889-aeabb62637d4","ios":"levelo://app?vid=f057150e-9467-4585-8889-aeabb62637d4"},"vehicle_type_id":"4","last_reported":1703160776,"current_range_meters":20000,"station_id":"ce4bh492rcd13ifvqdvg","pricing_plan_id":"free"},{"bike_id":"0e298bdb-800b-496e-b0fa-cbdcb63a0efc","system_id":"levelo_inurba_marseille","lat":43.28039,"lon":5.369297,"is_reserved":false,"is_disabled":false,"rental_uris":{"android":"levelo://app?vid=0e298bdb-800b-496e-b0fa-cbdcb63a0efc","ios":"levelo://app?vid=0e298bdb-800b-496e-b0fa-cbdcb63a0efc"},"vehicle_type_id":"4","last_reported":1703160776,"current_range_meters":12000,"station_id":"ce4bha12rcd13ifvqef0","pricing_plan_id":"free"},{"bike_id":"00a102a6-35ff-40ea-b7c8-26f7f79e9662","system_id":"levelo_inurba_marseille","lat":43.29041,"lon":5.399634,"is_reserved":false,"is_disabled":false,"rental_uris":{"android":"levelo://app?vid=00a102a6-35ff-40ea-b7c8-26f7f79e9662","ios":"levelo://app?vid=00a102a6-35ff-40ea-b7c8-26f7f79e9662"},"vehicle_type_id":"4","last_reported":1703160776,"current_range_meters":7600,"station_id":"ce4bh392rcd13ifvqdm0","pricing_plan_id":"free"},{"bike_id":"bd357e6e-a2a4-491d-8e20-aac481452c2d","system_id":"levelo_inurba_marseille","lat":43.284462,"lon":5.392121,"is_reserved":false,"is_disabled":false,"rental_uris":{"android":"levelo://app?vid=bd357e6e-a2a4-491d-8e20-aac481452c2d","ios":"levelo://app?vid=bd357e6e-a2a4-491d-8e20-aac481452c2d"},"vehicle_type_id":"4","last_reported":1703160776,"current_range_meters":18400,"station_id":"ce4bhoh2rcd13ifvqh5g","pricing_plan_id":"free"},{"bike_id":"fbd2ce6e-c792-49b4-81a5-c8cdbe45b2c3","system_id":"levelo_inurba_marseille","lat":43.284462,"lon":5.392121,"is_reserved":false,"is_disabled":false,"rental_uris":{"android":"levelo://app?vid=fbd2ce6e-c792-49b4-81a5-c8cdbe45b2c3","ios":"levelo://app?vid=fbd2ce6e-c792-49b4-81a5-c8cdbe45b2c3"},"vehicle_type_id":"4","last_reported":1703160776,"current_range_meters":31200,"station_id":"ce4bhoh2rcd13ifvqh5g","pricing_plan_id":"free"},{"bike_id":"a3699879-f32d-49c2-b48e-0a3aa32e9ad2","system_id":"levelo_inurba_marseille","lat":43.284462,"lon":5.392121,"is_reserved":false,"is_disabled":false,"rental_uris":{"android":"levelo://app?vid=a3699879-f32d-49c2-b48e-0a3aa32e9ad2","ios":"levelo://app?vid=a3699879-f32d-49c2-b48e-0a3aa32e9ad2"},"vehicle_type_id":"4","last_reported":1703160776,"current_range_meters":23200,"station_id":"ce4bhoh2rcd13ifvqh5g","pricing_plan_id":"free"},{"bike_id":"680fa8af-7943-44dd-8eb9-29665e18eb41","system_id":"levelo_inurba_marseille","lat":43.284462,"lon":5.392121,"is_reserved":false,"is_disabled":false,"rental_uris":{"android":"levelo://app?vid=680fa8af-7943-44dd-8eb9-29665e18eb41","ios":"levelo://app?vid=680fa8af-7943-44dd-8eb9-29665e18eb41"},"vehicle_type_id":"4","last_reported":1703160776,"current_range_meters":20400,"station_id":"ce4bhoh2rcd13ifvqh5g","pricing_plan_id":"free"},{"bike_id":"bdddb89b-d4ea-48fd-84d2-aafa175bf35f","system_id":"levelo_inurba_marseille","lat":43.284462,"lon":5.392121,"is_reserved":false,"is_disabled":false,"rental_uris":{"android":"levelo://app?vid=bdddb89b-d4ea-48fd-84d2-aafa175bf35f","ios":"levelo://app?vid=bdddb89b-d4ea-48fd-84d2-aafa175bf35f"},"vehicle_type_id":"4","last_reported":1703160776,"current_range_meters":27200,"station_id":"ce4bhoh2rcd13ifvqh5g","pricing_plan_id":"free"},{"bike_id":"20a66e52-3814-408d-87be-64cea1c56576","system_id":"levelo_inurba_marseille","lat":43.284462,"lon":5.392121,"is_reserved":false,"is_disabled":false,"rental_uris":{"android":"levelo://app?vid=20a66e52-3814-408d-87be-64cea1c56576","ios":"levelo://app?vid=20a66e52-3814-408d-87be-64cea1c56576"},"vehicle_type_id":"4","last_reported":1703160776,"current_range_meters":28000,"station_id":"ce4bhoh2rcd13ifvqh5g","pricing_plan_id":"free"},{"bike_id":"12dc0ac8-8431-4f45-b8fa-4270a91d62a9","system_id":"levelo_inurba_marseille","lat":43.284462,"lon":5.392121,"is_reserved":false,"is_disabled":false,"rental_uris":{"android":"levelo://app?vid=12dc0ac8-8431-4f45-b8fa-4270a91d62a9","ios":"levelo://app?vid=12dc0ac8-8431-4f45-b8fa-4270a91d62a9"},"vehicle_type_id":"4","last_reported":1703160776,"current_range_meters":32000,"station_id":"ce4bhoh2rcd13ifvqh5g","pricing_plan_id":"free"},{"bike_id":"c50f95f9-02bf-42b8-bff8-8bb7d69bb1ce","system_id":"levelo_inurba_marseille","lat":43.304188,"lon":5.412904,"is_reserved":false,"is_disabled":false,"rental_uris":{"android":"levelo://app?vid=c50f95f9-02bf-42b8-bff8-8bb7d69bb1ce","ios":"levelo://app?vid=c50f95f9-02bf-42b8-bff8-8bb7d69bb1ce"},"vehicle_type_id":"4","last_reported":1703160776,"current_range_meters":7600,"station_id":"ce4bhop2rcd13ifvqh8g","pricing_plan_id":"free"},{"bike_id":"adcd56aa-785f-4acc-9fb4-aba9ca0440ab","system_id":"levelo_inurba_marseille","lat":43.304188,"lon":5.412904,"is_reserved":false,"is_disabled":false,"rental_uris":{"android":"levelo://app?vid=adcd56aa-785f-4acc-9fb4-aba9ca0440ab","ios":"levelo://app?vid=adcd56aa-785f-4acc-9fb4-aba9ca0440ab"},"vehicle_type_id":"4","last_reported":1703160776,"current_range_meters":27600,"station_id":"ce4bhop2rcd13ifvqh8g","pricing_plan_id":"free"},{"bike_id":"d0bcc55d-1a98-4ca4-9c2a-563c2b448ef6","system_id":"levelo_inurba_marseille","lat":43.279742,"lon":5.38744,"is_reserved":false,"is_disabled":false,"rental_uris":{"android":"levelo://app?vid=d0bcc55d-1a98-4ca4-9c2a-563c2b448ef6","ios":"levelo://app?vid=d0bcc55d-1a98-4ca4-9c2a-563c2b448ef6"},"vehicle_type_id":"4","last_reported":1703160776,"current_range_meters":31600,"station_id":"ce4bhg12rcd13ifvqf80","pricing_plan_id":"free"},{"bike_id":"d01314d5-9b32-4be8-b389-9158cdfa8b11","system_id":"levelo_inurba_marseille","lat":43.279742,"lon":5.38744,"is_reserved":false,"is_disabled":false,"rental_uris":{"android":"levelo://app?vid=d01314d5-9b32-4be8-b389-9158cdfa8b11","ios":"levelo://app?vid=d01314d5-9b32-4be8-b389-9158cdfa8b11"},"vehicle_type_id":"4","last_reported":1703160776,"current_range_meters":20800,"station_id":"ce4bhg12rcd13ifvqf80","pricing_plan_id":"free"},{"bike_id":"0376f90b-09f4-4856-8739-2f9508cf0a27","system_id":"levelo_inurba_marseille","lat":43.320045,"lon":5.415046,"is_reserved":false,"is_disabled":false,"rental_uris":{"android":"levelo://app?vid=0376f90b-09f4-4856-8739-2f9508cf0a27","ios":"levelo://app?vid=0376f90b-09f4-4856-8739-2f9508cf0a27"},"vehicle_type_id":"4","last_reported":1703160776,"current_range_meters":22800,"station_id":"ce4bhq92rcd13ifvqhkg","pricing_plan_id":"free"},{"bike_id":"b7f90704-26af-4d37-b76f-1a966422bb17","system_id":"levelo_inurba_marseille","lat":43.32535,"lon":5.41419,"is_reserved":false,"is_disabled":false,"rental_uris":{"android":"levelo://app?vid=b7f90704-26af-4d37-b76f-1a966422bb17","ios":"levelo://app?vid=b7f90704-26af-4d37-b76f-1a966422bb17"},"vehicle_type_id":"4","last_reported":1703160776,"current_range_meters":30400,"station_id":"ce4bhq12rcd13ifvqhhg","pricing_plan_id":"free"},{"bike_id":"12a389ad-c2a2-4a79-b30b-58e593528180","system_id":"levelo_inurba_marseille","lat":43.292569,"lon":5.409107,"is_reserved":false,"is_disabled":false,"rental_uris":{"android":"levelo://app?vid=12a389ad-c2a2-4a79-b30b-58e593528180","ios":"levelo://app?vid=12a389ad-c2a2-4a79-b30b-58e593528180"},"vehicle_type_id":"4","last_reported":1703160776,"current_range_meters":20800,"station_id":"ce4bh192rcd13ifvqdc0","pricing_plan_id":"free"},{"bike_id":"28eaa4d0-79f3-489e-a95c-dde171fca768","system_id":"levelo_inurba_marseille","lat":43.278399,"lon":5.392139,"is_reserved":false,"is_disabled":false,"rental_uris":{"android":"levelo://app?vid=28eaa4d0-79f3-489e-a95c-dde171fca768","ios":"levelo://app?vid=28eaa4d0-79f3-489e-a95c-dde171fca768"},"vehicle_type_id":"4","last_reported":1703160776,"current_range_meters":14000,"station_id":"ce4bhjp2rcd13ifvqga0","pricing_plan_id":"free"},{"bike_id":"b5ee4127-c76e-4aaa-9a28-5246f644a434","system_id":"levelo_inurba_marseille","lat":43.280784,"lon":5.396622,"is_reserved":false,"is_disabled":false,"rental_uris":{"android":"levelo://app?vid=b5ee4127-c76e-4aaa-9a28-5246f644a434","ios":"levelo://app?vid=b5ee4127-c76e-4aaa-9a28-5246f644a434"},"vehicle_type_id":"4","last_reported":1703160776,"current_range_meters":21200,"station_id":"ce4bho12rcd13ifvqh2g","pricing_plan_id":"free"},{"bike_id":"3b562322-9638-432a-87c6-0ac738afdf62","system_id":"levelo_inurba_marseille","lat":43.280784,"lon":5.396622,"is_reserved":false,"is_disabled":false,"rental_uris":{"android":"levelo://app?vid=3b562322-9638-432a-87c6-0ac738afdf62","ios":"levelo://app?vid=3b562322-9638-432a-87c6-0ac738afdf62"},"vehicle_type_id":"4","last_reported":1703160776,"current_range_meters":27600,"station_id":"ce4bho12rcd13ifvqh2g","pricing_plan_id":"free"},{"bike_id":"baae2333-da32-441c-bf16-666cb1740e97","system_id":"levelo_inurba_marseille","lat":43.278401,"lon":5.392152,"is_reserved":false,"is_disabled":false,"rental_uris":{"android":"levelo://app?vid=baae2333-da32-441c-bf16-666cb1740e97","ios":"levelo://app?vid=baae2333-da32-441c-bf16-666cb1740e97"},"vehicle_type_id":"4","last_reported":1703160776,"current_range_meters":24000,"station_id":"ce4bhjp2rcd13ifvqga0","pricing_plan_id":"free"},{"bike_id":"540ac599-4153-4e15-ba77-9492bb1ab383","system_id":"levelo_inurba_marseille","lat":43.278401,"lon":5.392152,"is_reserved":false,"is_disabled":false,"rental_uris":{"android":"levelo://app?vid=540ac599-4153-4e15-ba77-9492bb1ab383","ios":"levelo://app?vid=540ac599-4153-4e15-ba77-9492bb1ab383"},"vehicle_type_id":"4","last_reported":1703160776,"current_range_meters":2000,"station_id":"ce4bhjp2rcd13ifvqga0","pricing_plan_id":"free"},{"bike_id":"be9ef183-979f-46b8-bd78-d77acf676610","system_id":"levelo_inurba_marseille","lat":43.278401,"lon":5.392152,"is_reserved":false,"is_disabled":false,"rental_uris":{"android":"levelo://app?vid=be9ef183-979f-46b8-bd78-d77acf676610","ios":"levelo://app?vid=be9ef183-979f-46b8-bd78-d77acf676610"},"vehicle_type_id":"4","last_reported":1703160776,"current_range_meters":22400,"station_id":"ce4bhjp2rcd13ifvqga0","pricing_plan_id":"free"},{"bike_id":"e08b7c96-79e5-4077-b55f-738f27113a8b","system_id":"levelo_inurba_marseille","lat":43.278399,"lon":5.392139,"is_reserved":false,"is_disabled":false,"rental_uris":{"android":"levelo://app?vid=e08b7c96-79e5-4077-b55f-738f27113a8b","ios":"levelo://app?vid=e08b7c96-79e5-4077-b55f-738f27113a8b"},"vehicle_type_id":"4","last_reported":1703160776,"current_range_meters":30800,"station_id":"ce4bhjp2rcd13ifvqga0","pricing_plan_id":"free"},{"bike_id":"a2961cf9-de37-41a0-9b1a-96bfa4e4887c","system_id":"levelo_inurba_marseille","lat":43.27573,"lon":5.38422,"is_reserved":false,"is_disabled":false,"rental_uris":{"android":"levelo://app?vid=a2961cf9-de37-41a0-9b1a-96bfa4e4887c","ios":"levelo://app?vid=a2961cf9-de37-41a0-9b1a-96bfa4e4887c"},"vehicle_type_id":"4","last_reported":1703160776,"current_range_meters":24800,"station_id":"ce4bhh92rcd13ifvqfi0","pricing_plan_id":"free"},{"bike_id":"8440783c-07c9-423e-a7fc-7d68df01cf8d","system_id":"levelo_inurba_marseille","lat":43.273613,"lon":5.362705,"is_reserved":false,"is_disabled":false,"rental_uris":{"android":"levelo://app?vid=8440783c-07c9-423e-a7fc-7d68df01cf8d","ios":"levelo://app?vid=8440783c-07c9-423e-a7fc-7d68df01cf8d"},"vehicle_type_id":"4","last_reported":1703160776,"current_range_meters":26800,"station_id":"ce4bhbh2rcd13ifvqeo0","pricing_plan_id":"free"},{"bike_id":"dd474116-9a35-4e3e-9468-cbbbfe126149","system_id":"levelo_inurba_marseille","lat":43.275625,"lon":5.384392,"is_reserved":false,"is_disabled":false,"rental_uris":{"android":"levelo://app?vid=dd474116-9a35-4e3e-9468-cbbbfe126149","ios":"levelo://app?vid=dd474116-9a35-4e3e-9468-cbbbfe126149"},"vehicle_type_id":"4","last_reported":1703160776,"current_range_meters":16400,"station_id":"ce4bhh92rcd13ifvqfi0","pricing_plan_id":"free"},{"bike_id":"bf0b7df0-b0e7-4a73-badc-61dc2893c385","system_id":"levelo_inurba_marseille","lat":43.275625,"lon":5.384392,"is_reserved":false,"is_disabled":false,"rental_uris":{"android":"levelo://app?vid=bf0b7df0-b0e7-4a73-badc-61dc2893c385","ios":"levelo://app?vid=bf0b7df0-b0e7-4a73-badc-61dc2893c385"},"vehicle_type_id":"4","last_reported":1703160776,"current_range_meters":23600,"station_id":"ce4bhh92rcd13ifvqfi0","pricing_plan_id":"free"},{"bike_id":"2c17836b-d352-4608-86db-4838a8d4f541","system_id":"levelo_inurba_marseille","lat":43.276769,"lon":5.388787,"is_reserved":false,"is_disabled":false,"rental_uris":{"android":"levelo://app?vid=2c17836b-d352-4608-86db-4838a8d4f541","ios":"levelo://app?vid=2c17836b-d352-4608-86db-4838a8d4f541"},"vehicle_type_id":"4","last_reported":1703160776,"current_range_meters":3600,"station_id":"ce4bhi12rcd13ifvqfo0","pricing_plan_id":"free"},{"bike_id":"bb0ac8e6-dcfa-4315-b57d-451f7491dfcb","system_id":"levelo_inurba_marseille","lat":43.276771,"lon":5.388799,"is_reserved":false,"is_disabled":false,"rental_uris":{"android":"levelo://app?vid=bb0ac8e6-dcfa-4315-b57d-451f7491dfcb","ios":"levelo://app?vid=bb0ac8e6-dcfa-4315-b57d-451f7491dfcb"},"vehicle_type_id":"4","last_reported":1703160776,"current_range_meters":30400,"station_id":"ce4bhi12rcd13ifvqfo0","pricing_plan_id":"free"},{"bike_id":"e41ac5a2-9343-4c24-902f-1b8bfd0fa19e","system_id":"levelo_inurba_marseille","lat":43.276771,"lon":5.388799,"is_reserved":false,"is_disabled":false,"rental_uris":{"android":"levelo://app?vid=e41ac5a2-9343-4c24-902f-1b8bfd0fa19e","ios":"levelo://app?vid=e41ac5a2-9343-4c24-902f-1b8bfd0fa19e"},"vehicle_type_id":"4","last_reported":1703160776,"current_range_meters":10000,"station_id":"ce4bhi12rcd13ifvqfo0","pricing_plan_id":"free"},{"bike_id":"c166fdab-dbad-4efb-9f3b-b327c0cb0b53","system_id":"levelo_inurba_marseille","lat":43.279975,"lon":5.40009,"is_reserved":false,"is_disabled":false,"rental_uris":{"android":"levelo://app?vid=c166fdab-dbad-4efb-9f3b-b327c0cb0b53","ios":"levelo://app?vid=c166fdab-dbad-4efb-9f3b-b327c0cb0b53"},"vehicle_type_id":"4","last_reported":1703160776,"current_range_meters":23200,"station_id":"ce4bho92rcd13ifvqh4g","pricing_plan_id":"free"},{"bike_id":"0078fc31-b533-44cb-b47c-4aff8b27716d","system_id":"levelo_inurba_marseille","lat":43.27997,"lon":5.4002,"is_reserved":false,"is_disabled":false,"rental_uris":{"android":"levelo://app?vid=0078fc31-b533-44cb-b47c-4aff8b27716d","ios":"levelo://app?vid=0078fc31-b533-44cb-b47c-4aff8b27716d"},"vehicle_type_id":"4","last_reported":1703160776,"current_range_meters":24800,"station_id":"ce4bho92rcd13ifvqh4g","pricing_plan_id":"free"},{"bike_id":"2ccdce10-14f3-49aa-864f-a4af82f9832d","system_id":"levelo_inurba_marseille","lat":43.279952,"lon":5.400085,"is_reserved":false,"is_disabled":false,"rental_uris":{"android":"levelo://app?vid=2ccdce10-14f3-49aa-864f-a4af82f9832d","ios":"levelo://app?vid=2ccdce10-14f3-49aa-864f-a4af82f9832d"},"vehicle_type_id":"4","last_reported":1703160776,"current_range_meters":30000,"station_id":"ce4bho92rcd13ifvqh4g","pricing_plan_id":"free"},{"bike_id":"a7ebbe4e-e4b4-4b88-92ae-339f682a95cb","system_id":"levelo_inurba_marseille","lat":43.310785,"lon":5.424305,"is_reserved":false,"is_disabled":false,"rental_uris":{"android":"levelo://app?vid=a7ebbe4e-e4b4-4b88-92ae-339f682a95cb","ios":"levelo://app?vid=a7ebbe4e-e4b4-4b88-92ae-339f682a95cb"},"vehicle_type_id":"4","last_reported":1703160776,"current_range_meters":22800,"station_id":"ce4bhp92rcd13ifvqhag","pricing_plan_id":"free"},{"bike_id":"21f4a169-6e35-4a8e-94ba-dad1b033815c","system_id":"levelo_inurba_marseille","lat":43.310785,"lon":5.424305,"is_reserved":false,"is_disabled":false,"rental_uris":{"android":"levelo://app?vid=21f4a169-6e35-4a8e-94ba-dad1b033815c","ios":"levelo://app?vid=21f4a169-6e35-4a8e-94ba-dad1b033815c"},"vehicle_type_id":"4","last_reported":1703160776,"current_range_meters":1600,"station_id":"ce4bhp92rcd13ifvqhag","pricing_plan_id":"free"},{"bike_id":"974dc7db-ff3c-4554-8964-132f9db52d9b","system_id":"levelo_inurba_marseille","lat":43.276092,"lon":5.395289,"is_reserved":false,"is_disabled":false,"rental_uris":{"android":"levelo://app?vid=974dc7db-ff3c-4554-8964-132f9db52d9b","ios":"levelo://app?vid=974dc7db-ff3c-4554-8964-132f9db52d9b"},"vehicle_type_id":"4","last_reported":1703160776,"current_range_meters":0,"station_id":"","pricing_plan_id":"free"},{"bike_id":"d2d6bb40-e26f-452b-8643-4a39c70c8e7a","system_id":"levelo_inurba_marseille","lat":43.273125,"lon":5.390731,"is_reserved":false,"is_disabled":false,"rental_uris":{"android":"levelo://app?vid=d2d6bb40-e26f-452b-8643-4a39c70c8e7a","ios":"levelo://app?vid=d2d6bb40-e26f-452b-8643-4a39c70c8e7a"},"vehicle_type_id":"4","last_reported":1703160776,"current_range_meters":1600,"station_id":"ce4bhgp2rcd13ifvqfe0","pricing_plan_id":"free"},{"bike_id":"1fd9990e-87b6-4227-9bc3-c3da7ec2a908","system_id":"levelo_inurba_marseille","lat":43.304096,"lon":5.425385,"is_reserved":false,"is_disabled":false,"rental_uris":{"android":"levelo://app?vid=1fd9990e-87b6-4227-9bc3-c3da7ec2a908","ios":"levelo://app?vid=1fd9990e-87b6-4227-9bc3-c3da7ec2a908"},"vehicle_type_id":"4","last_reported":1703160776,"current_range_meters":24400,"station_id":"ce4bhoh2rcd13ifvqh6g","pricing_plan_id":"free"},{"bike_id":"96484c65-8dd7-4167-a438-a7d837c6b7a7","system_id":"levelo_inurba_marseille","lat":43.295523,"lon":5.422926,"is_reserved":false,"is_disabled":false,"rental_uris":{"android":"levelo://app?vid=96484c65-8dd7-4167-a438-a7d837c6b7a7","ios":"levelo://app?vid=96484c65-8dd7-4167-a438-a7d837c6b7a7"},"vehicle_type_id":"4","last_reported":1703160776,"current_range_meters":31200,"station_id":"ce4bhph2rcd13ifvqhdg","pricing_plan_id":"free"},{"bike_id":"e1bf0a92-1001-45ad-b936-6f06e086a92c","system_id":"levelo_inurba_marseille","lat":43.295511,"lon":5.422926,"is_reserved":false,"is_disabled":false,"rental_uris":{"android":"levelo://app?vid=e1bf0a92-1001-45ad-b936-6f06e086a92c","ios":"levelo://app?vid=e1bf0a92-1001-45ad-b936-6f06e086a92c"},"vehicle_type_id":"4","last_reported":1703160776,"current_range_meters":4000,"station_id":"ce4bhph2rcd13ifvqhdg","pricing_plan_id":"free"},{"bike_id":"5b29fe46-f98b-40e4-8c4c-2a510e7be214","system_id":"levelo_inurba_marseille","lat":43.295511,"lon":5.422926,"is_reserved":false,"is_disabled":false,"rental_uris":{"android":"levelo://app?vid=5b29fe46-f98b-40e4-8c4c-2a510e7be214","ios":"levelo://app?vid=5b29fe46-f98b-40e4-8c4c-2a510e7be214"},"vehicle_type_id":"4","last_reported":1703160776,"current_range_meters":14800,"station_id":"ce4bhph2rcd13ifvqhdg","pricing_plan_id":"free"},{"bike_id":"b820e38f-be0d-4e7b-9fb1-dfc16632fe0d","system_id":"levelo_inurba_marseille","lat":43.295511,"lon":5.422926,"is_reserved":false,"is_disabled":false,"rental_uris":{"android":"levelo://app?vid=b820e38f-be0d-4e7b-9fb1-dfc16632fe0d","ios":"levelo://app?vid=b820e38f-be0d-4e7b-9fb1-dfc16632fe0d"},"vehicle_type_id":"4","last_reported":1703160776,"current_range_meters":25200,"station_id":"ce4bhph2rcd13ifvqhdg","pricing_plan_id":"free"},{"bike_id":"97999d47-e50f-4006-afef-b554a87fcfb7","system_id":"levelo_inurba_marseille","lat":43.295511,"lon":5.422926,"is_reserved":false,"is_disabled":false,"rental_uris":{"android":"levelo://app?vid=97999d47-e50f-4006-afef-b554a87fcfb7","ios":"levelo://app?vid=97999d47-e50f-4006-afef-b554a87fcfb7"},"vehicle_type_id":"4","last_reported":1703160776,"current_range_meters":9600,"station_id":"ce4bhph2rcd13ifvqhdg","pricing_plan_id":"free"},{"bike_id":"b55db1a0-b820-479b-9929-7610c21584c5","system_id":"levelo_inurba_marseille","lat":43.295511,"lon":5.422926,"is_reserved":false,"is_disabled":false,"rental_uris":{"android":"levelo://app?vid=b55db1a0-b820-479b-9929-7610c21584c5","ios":"levelo://app?vid=b55db1a0-b820-479b-9929-7610c21584c5"},"vehicle_type_id":"4","last_reported":1703160776,"current_range_meters":25200,"station_id":"ce4bhph2rcd13ifvqhdg","pricing_plan_id":"free"},{"bike_id":"b84af925-9355-4cef-82dc-6c3d2177e04d","system_id":"levelo_inurba_marseille","lat":43.278128,"lon":5.407195,"is_reserved":false,"is_disabled":false,"rental_uris":{"android":"levelo://app?vid=b84af925-9355-4cef-82dc-6c3d2177e04d","ios":"levelo://app?vid=b84af925-9355-4cef-82dc-6c3d2177e04d"},"vehicle_type_id":"4","last_reported":1703160776,"current_range_meters":25600,"station_id":"ce4bhnh2rcd13ifvqgtg","pricing_plan_id":"free"},{"bike_id":"aad8eac8-fc1a-4c98-9137-d05308592460","system_id":"levelo_inurba_marseille","lat":43.278128,"lon":5.407195,"is_reserved":false,"is_disabled":false,"rental_uris":{"android":"levelo://app?vid=aad8eac8-fc1a-4c98-9137-d05308592460","ios":"levelo://app?vid=aad8eac8-fc1a-4c98-9137-d05308592460"},"vehicle_type_id":"4","last_reported":1703160776,"current_range_meters":18800,"station_id":"ce4bhnh2rcd13ifvqgtg","pricing_plan_id":"free"},{"bike_id":"1cf29c8c-3aa7-45da-9151-6233028e2361","system_id":"levelo_inurba_marseille","lat":43.278128,"lon":5.407195,"is_reserved":false,"is_disabled":false,"rental_uris":{"android":"levelo://app?vid=1cf29c8c-3aa7-45da-9151-6233028e2361","ios":"levelo://app?vid=1cf29c8c-3aa7-45da-9151-6233028e2361"},"vehicle_type_id":"4","last_reported":1703160776,"current_range_meters":31200,"station_id":"ce4bhnh2rcd13ifvqgtg","pricing_plan_id":"free"},{"bike_id":"c6640060-cd81-49c1-9c3b-b620b8348ace","system_id":"levelo_inurba_marseille","lat":43.278128,"lon":5.407195,"is_reserved":false,"is_disabled":false,"rental_uris":{"android":"levelo://app?vid=c6640060-cd81-49c1-9c3b-b620b8348ace","ios":"levelo://app?vid=c6640060-cd81-49c1-9c3b-b620b8348ace"},"vehicle_type_id":"4","last_reported":1703160776,"current_range_meters":32000,"station_id":"ce4bhnh2rcd13ifvqgtg","pricing_plan_id":"free"},{"bike_id":"c88b703b-066a-43b4-a6d1-740a963469fc","system_id":"levelo_inurba_marseille","lat":43.278128,"lon":5.407195,"is_reserved":false,"is_disabled":false,"rental_uris":{"android":"levelo://app?vid=c88b703b-066a-43b4-a6d1-740a963469fc","ios":"levelo://app?vid=c88b703b-066a-43b4-a6d1-740a963469fc"},"vehicle_type_id":"4","last_reported":1703160776,"current_range_meters":12800,"station_id":"ce4bhnh2rcd13ifvqgtg","pricing_plan_id":"free"},{"bike_id":"934e6eae-f346-4018-bb25-353c75a5712b","system_id":"levelo_inurba_marseille","lat":43.269467,"lon":5.386439,"is_reserved":false,"is_disabled":false,"rental_uris":{"android":"levelo://app?vid=934e6eae-f346-4018-bb25-353c75a5712b","ios":"levelo://app?vid=934e6eae-f346-4018-bb25-353c75a5712b"},"vehicle_type_id":"4","last_reported":1703160776,"current_range_meters":28800,"station_id":"ce4bhh92rcd13ifvqfh0","pricing_plan_id":"free"},{"bike_id":"54f2e7eb-ce57-4b70-ad6c-b3421601538b","system_id":"levelo_inurba_marseille","lat":43.269467,"lon":5.386439,"is_reserved":false,"is_disabled":false,"rental_uris":{"android":"levelo://app?vid=54f2e7eb-ce57-4b70-ad6c-b3421601538b","ios":"levelo://app?vid=54f2e7eb-ce57-4b70-ad6c-b3421601538b"},"vehicle_type_id":"4","last_reported":1703160776,"current_range_meters":25600,"station_id":"ce4bhh92rcd13ifvqfh0","pricing_plan_id":"free"},{"bike_id":"7e9c2d59-c8cd-4749-853a-de401ef5c64b","system_id":"levelo_inurba_marseille","lat":43.269467,"lon":5.386439,"is_reserved":false,"is_disabled":false,"rental_uris":{"android":"levelo://app?vid=7e9c2d59-c8cd-4749-853a-de401ef5c64b","ios":"levelo://app?vid=7e9c2d59-c8cd-4749-853a-de401ef5c64b"},"vehicle_type_id":"4","last_reported":1703160776,"current_range_meters":25600,"station_id":"ce4bhh92rcd13ifvqfh0","pricing_plan_id":"free"},{"bike_id":"078db193-9b4a-4dc0-be05-c6902d995ea5","system_id":"levelo_inurba_marseille","lat":43.269467,"lon":5.386439,"is_reserved":false,"is_disabled":false,"rental_uris":{"android":"levelo://app?vid=078db193-9b4a-4dc0-be05-c6902d995ea5","ios":"levelo://app?vid=078db193-9b4a-4dc0-be05-c6902d995ea5"},"vehicle_type_id":"4","last_reported":1703160776,"current_range_meters":0,"station_id":"ce4bhh92rcd13ifvqfh0","pricing_plan_id":"free"},{"bike_id":"6e326e4a-a1e9-4d87-ae26-77379b2bd957","system_id":"levelo_inurba_marseille","lat":43.279465,"lon":5.410561,"is_reserved":false,"is_disabled":false,"rental_uris":{"android":"levelo://app?vid=6e326e4a-a1e9-4d87-ae26-77379b2bd957","ios":"levelo://app?vid=6e326e4a-a1e9-4d87-ae26-77379b2bd957"},"vehicle_type_id":"4","last_reported":1703160776,"current_range_meters":10800,"station_id":"ce4bhnp2rcd13ifvqh0g","pricing_plan_id":"free"},{"bike_id":"73b73050-58ad-407f-ba84-a2376b055bbf","system_id":"levelo_inurba_marseille","lat":43.279465,"lon":5.410561,"is_reserved":false,"is_disabled":false,"rental_uris":{"android":"levelo://app?vid=73b73050-58ad-407f-ba84-a2376b055bbf","ios":"levelo://app?vid=73b73050-58ad-407f-ba84-a2376b055bbf"},"vehicle_type_id":"4","last_reported":1703160776,"current_range_meters":29200,"station_id":"ce4bhnp2rcd13ifvqh0g","pricing_plan_id":"free"},{"bike_id":"00d94300-9cc3-49c6-804e-e1b12cf31ae4","system_id":"levelo_inurba_marseille","lat":43.269319,"lon":5.389397,"is_reserved":false,"is_disabled":false,"rental_uris":{"android":"levelo://app?vid=00d94300-9cc3-49c6-804e-e1b12cf31ae4","ios":"levelo://app?vid=00d94300-9cc3-49c6-804e-e1b12cf31ae4"},"vehicle_type_id":"4","last_reported":1703160776,"current_range_meters":29200,"station_id":"ce4bhhh2rcd13ifvqfl0","pricing_plan_id":"free"},{"bike_id":"acbf4b26-bb5a-4573-9a38-34126576a94f","system_id":"levelo_inurba_marseille","lat":43.269319,"lon":5.389397,"is_reserved":false,"is_disabled":false,"rental_uris":{"android":"levelo://app?vid=acbf4b26-bb5a-4573-9a38-34126576a94f","ios":"levelo://app?vid=acbf4b26-bb5a-4573-9a38-34126576a94f"},"vehicle_type_id":"4","last_reported":1703160776,"current_range_meters":24000,"station_id":"ce4bhhh2rcd13ifvqfl0","pricing_plan_id":"free"},{"bike_id":"a50adce9-7e83-49e9-89e2-3ad4dd6bbf5a","system_id":"levelo_inurba_marseille","lat":43.26681,"lon":5.382694,"is_reserved":false,"is_disabled":false,"rental_uris":{"android":"levelo://app?vid=a50adce9-7e83-49e9-89e2-3ad4dd6bbf5a","ios":"levelo://app?vid=a50adce9-7e83-49e9-89e2-3ad4dd6bbf5a"},"vehicle_type_id":"4","last_reported":1703160776,"current_range_meters":24000,"station_id":"ce4bhg92rcd13ifvqf90","pricing_plan_id":"free"},{"bike_id":"3fabb490-1eca-4163-8e53-bef8dac04080","system_id":"levelo_inurba_marseille","lat":43.26681,"lon":5.382694,"is_reserved":false,"is_disabled":false,"rental_uris":{"android":"levelo://app?vid=3fabb490-1eca-4163-8e53-bef8dac04080","ios":"levelo://app?vid=3fabb490-1eca-4163-8e53-bef8dac04080"},"vehicle_type_id":"4","last_reported":1703160776,"current_range_meters":21200,"station_id":"ce4bhg92rcd13ifvqf90","pricing_plan_id":"free"},{"bike_id":"8fc52bef-c77b-4ff5-83b2-07112d147534","system_id":"levelo_inurba_marseille","lat":43.26681,"lon":5.382694,"is_reserved":false,"is_disabled":false,"rental_uris":{"android":"levelo://app?vid=8fc52bef-c77b-4ff5-83b2-07112d147534","ios":"levelo://app?vid=8fc52bef-c77b-4ff5-83b2-07112d147534"},"vehicle_type_id":"4","last_reported":1703160776,"current_range_meters":13600,"station_id":"ce4bhg92rcd13ifvqf90","pricing_plan_id":"free"},{"bike_id":"6cbb1baa-520f-413c-92de-b815422a7a1f","system_id":"levelo_inurba_marseille","lat":43.26683,"lon":5.38273,"is_reserved":false,"is_disabled":false,"rental_uris":{"android":"levelo://app?vid=6cbb1baa-520f-413c-92de-b815422a7a1f","ios":"levelo://app?vid=6cbb1baa-520f-413c-92de-b815422a7a1f"},"vehicle_type_id":"4","last_reported":1703160776,"current_range_meters":18000,"station_id":"ce4bhg92rcd13ifvqf90","pricing_plan_id":"free"},{"bike_id":"499e0ea3-b36e-4411-bf4a-88455c2cfc35","system_id":"levelo_inurba_marseille","lat":43.26681,"lon":5.382694,"is_reserved":false,"is_disabled":false,"rental_uris":{"android":"levelo://app?vid=499e0ea3-b36e-4411-bf4a-88455c2cfc35","ios":"levelo://app?vid=499e0ea3-b36e-4411-bf4a-88455c2cfc35"},"vehicle_type_id":"4","last_reported":1703160776,"current_range_meters":16800,"station_id":"ce4bhg92rcd13ifvqf90","pricing_plan_id":"free"},{"bike_id":"28409cfa-9604-442b-9a4d-7f70005b036e","system_id":"levelo_inurba_marseille","lat":43.26681,"lon":5.382694,"is_reserved":false,"is_disabled":false,"rental_uris":{"android":"levelo://app?vid=28409cfa-9604-442b-9a4d-7f70005b036e","ios":"levelo://app?vid=28409cfa-9604-442b-9a4d-7f70005b036e"},"vehicle_type_id":"4","last_reported":1703160776,"current_range_meters":30800,"station_id":"ce4bhg92rcd13ifvqf90","pricing_plan_id":"free"},{"bike_id":"07504c57-91ae-45ae-8a0d-990c16247452","system_id":"levelo_inurba_marseille","lat":43.267966,"lon":5.393976,"is_reserved":false,"is_disabled":false,"rental_uris":{"android":"levelo://app?vid=07504c57-91ae-45ae-8a0d-990c16247452","ios":"levelo://app?vid=07504c57-91ae-45ae-8a0d-990c16247452"},"vehicle_type_id":"4","last_reported":1703160776,"current_range_meters":20000,"station_id":"ce4bhh12rcd13ifvqfg0","pricing_plan_id":"free"},{"bike_id":"d185a919-1fd5-4bf5-b1c7-0e1a680294c2","system_id":"levelo_inurba_marseille","lat":43.2694,"lon":5.40253,"is_reserved":false,"is_disabled":false,"rental_uris":{"android":"levelo://app?vid=d185a919-1fd5-4bf5-b1c7-0e1a680294c2","ios":"levelo://app?vid=d185a919-1fd5-4bf5-b1c7-0e1a680294c2"},"vehicle_type_id":"4","last_reported":1703160776,"current_range_meters":12400,"station_id":"cjm6bp8fraef2m0cb0m0","pricing_plan_id":"free"},{"bike_id":"cc94c972-ff7b-4546-9d86-9d0a06b255e4","system_id":"levelo_inurba_marseille","lat":43.26949,"lon":5.40262,"is_reserved":false,"is_disabled":false,"rental_uris":{"android":"levelo://app?vid=cc94c972-ff7b-4546-9d86-9d0a06b255e4","ios":"levelo://app?vid=cc94c972-ff7b-4546-9d86-9d0a06b255e4"},"vehicle_type_id":"4","last_reported":1703160776,"current_range_meters":27200,"station_id":"cjm6bp8fraef2m0cb0m0","pricing_plan_id":"free"},{"bike_id":"ec186e34-f2f2-4dfc-98d7-8df8fcd1a03b","system_id":"levelo_inurba_marseille","lat":43.261782,"lon":5.374515,"is_reserved":false,"is_disabled":false,"rental_uris":{"android":"levelo://app?vid=ec186e34-f2f2-4dfc-98d7-8df8fcd1a03b","ios":"levelo://app?vid=ec186e34-f2f2-4dfc-98d7-8df8fcd1a03b"},"vehicle_type_id":"4","last_reported":1703160776,"current_range_meters":26400,"station_id":"ce4bhgp2rcd13ifvqfc0","pricing_plan_id":"free"},{"bike_id":"419893e7-347d-42e4-b465-371c4c127f8c","system_id":"levelo_inurba_marseille","lat":43.267959,"lon":5.402685,"is_reserved":false,"is_disabled":false,"rental_uris":{"android":"levelo://app?vid=419893e7-347d-42e4-b465-371c4c127f8c","ios":"levelo://app?vid=419893e7-347d-42e4-b465-371c4c127f8c"},"vehicle_type_id":"4","last_reported":1703160776,"current_range_meters":27600,"station_id":"ce501612rcd8frsf0b60","pricing_plan_id":"free"},{"bike_id":"992ce9fe-5814-41bf-839f-b7e4f55ad55a","system_id":"levelo_inurba_marseille","lat":43.267959,"lon":5.402687,"is_reserved":false,"is_disabled":false,"rental_uris":{"android":"levelo://app?vid=992ce9fe-5814-41bf-839f-b7e4f55ad55a","ios":"levelo://app?vid=992ce9fe-5814-41bf-839f-b7e4f55ad55a"},"vehicle_type_id":"4","last_reported":1703160776,"current_range_meters":24000,"station_id":"ce501612rcd8frsf0b60","pricing_plan_id":"free"},{"bike_id":"ae43e19b-0e98-4b60-9dfb-6a3b3be8102b","system_id":"levelo_inurba_marseille","lat":43.2651,"lon":5.39469,"is_reserved":false,"is_disabled":false,"rental_uris":{"android":"levelo://app?vid=ae43e19b-0e98-4b60-9dfb-6a3b3be8102b","ios":"levelo://app?vid=ae43e19b-0e98-4b60-9dfb-6a3b3be8102b"},"vehicle_type_id":"4","last_reported":1703160776,"current_range_meters":22800,"station_id":"ce4bhi12rcd13ifvqfq0","pricing_plan_id":"free"},{"bike_id":"bd28b5cb-98cb-4d05-a55e-5887aadc1636","system_id":"levelo_inurba_marseille","lat":43.298768,"lon":5.43643,"is_reserved":false,"is_disabled":false,"rental_uris":{"android":"levelo://app?vid=bd28b5cb-98cb-4d05-a55e-5887aadc1636","ios":"levelo://app?vid=bd28b5cb-98cb-4d05-a55e-5887aadc1636"},"vehicle_type_id":"4","last_reported":1703160776,"current_range_meters":30400,"station_id":"ce4bhpp2rcd13ifvqhfg","pricing_plan_id":"free"},{"bike_id":"2b7af1fb-dafe-42ce-9d9a-e13c5fbf000c","system_id":"levelo_inurba_marseille","lat":43.281548,"lon":5.42643,"is_reserved":false,"is_disabled":false,"rental_uris":{"android":"levelo://app?vid=2b7af1fb-dafe-42ce-9d9a-e13c5fbf000c","ios":"levelo://app?vid=2b7af1fb-dafe-42ce-9d9a-e13c5fbf000c"},"vehicle_type_id":"4","last_reported":1703160776,"current_range_meters":26400,"station_id":"ce4bhnh2rcd13ifvqgug","pricing_plan_id":"free"},{"bike_id":"7942fcd2-247b-4f07-b81d-f3e0e5c73666","system_id":"levelo_inurba_marseille","lat":43.281548,"lon":5.42643,"is_reserved":false,"is_disabled":false,"rental_uris":{"android":"levelo://app?vid=7942fcd2-247b-4f07-b81d-f3e0e5c73666","ios":"levelo://app?vid=7942fcd2-247b-4f07-b81d-f3e0e5c73666"},"vehicle_type_id":"4","last_reported":1703160776,"current_range_meters":31200,"station_id":"ce4bhnh2rcd13ifvqgug","pricing_plan_id":"free"},{"bike_id":"d539178b-f717-44eb-9b50-206cfa7cb568","system_id":"levelo_inurba_marseille","lat":43.275028,"lon":5.424534,"is_reserved":false,"is_disabled":false,"rental_uris":{"android":"levelo://app?vid=d539178b-f717-44eb-9b50-206cfa7cb568","ios":"levelo://app?vid=d539178b-f717-44eb-9b50-206cfa7cb568"},"vehicle_type_id":"4","last_reported":1703160776,"current_range_meters":27200,"station_id":"ce4bhn92rcd13ifvqgrg","pricing_plan_id":"free"},{"bike_id":"ca337847-851c-429e-ba13-a619aa4cf5f9","system_id":"levelo_inurba_marseille","lat":43.275028,"lon":5.424534,"is_reserved":false,"is_disabled":false,"rental_uris":{"android":"levelo://app?vid=ca337847-851c-429e-ba13-a619aa4cf5f9","ios":"levelo://app?vid=ca337847-851c-429e-ba13-a619aa4cf5f9"},"vehicle_type_id":"4","last_reported":1703160776,"current_range_meters":16000,"station_id":"ce4bhn92rcd13ifvqgrg","pricing_plan_id":"free"},{"bike_id":"04dd24d8-3655-49a6-9905-8a55a84651f4","system_id":"levelo_inurba_marseille","lat":43.275028,"lon":5.424534,"is_reserved":false,"is_disabled":false,"rental_uris":{"android":"levelo://app?vid=04dd24d8-3655-49a6-9905-8a55a84651f4","ios":"levelo://app?vid=04dd24d8-3655-49a6-9905-8a55a84651f4"},"vehicle_type_id":"4","last_reported":1703160776,"current_range_meters":4400,"station_id":"ce4bhn92rcd13ifvqgrg","pricing_plan_id":"free"},{"bike_id":"f7fbbbad-a181-4384-85d3-2a89aa086443","system_id":"levelo_inurba_marseille","lat":43.275028,"lon":5.424534,"is_reserved":false,"is_disabled":false,"rental_uris":{"android":"levelo://app?vid=f7fbbbad-a181-4384-85d3-2a89aa086443","ios":"levelo://app?vid=f7fbbbad-a181-4384-85d3-2a89aa086443"},"vehicle_type_id":"4","last_reported":1703160776,"current_range_meters":6000,"station_id":"ce4bhn92rcd13ifvqgrg","pricing_plan_id":"free"},{"bike_id":"fcb5238d-712c-489c-9cf0-d1833758fe50","system_id":"levelo_inurba_marseille","lat":43.27492,"lon":5.4246,"is_reserved":false,"is_disabled":false,"rental_uris":{"android":"levelo://app?vid=fcb5238d-712c-489c-9cf0-d1833758fe50","ios":"levelo://app?vid=fcb5238d-712c-489c-9cf0-d1833758fe50"},"vehicle_type_id":"4","last_reported":1703160776,"current_range_meters":18800,"station_id":"ce4bhn92rcd13ifvqgrg","pricing_plan_id":"free"},{"bike_id":"4130e873-8028-4aeb-8fab-f9dbb9b29662","system_id":"levelo_inurba_marseille","lat":43.275028,"lon":5.424534,"is_reserved":false,"is_disabled":false,"rental_uris":{"android":"levelo://app?vid=4130e873-8028-4aeb-8fab-f9dbb9b29662","ios":"levelo://app?vid=4130e873-8028-4aeb-8fab-f9dbb9b29662"},"vehicle_type_id":"4","last_reported":1703160776,"current_range_meters":0,"station_id":"ce4bhn92rcd13ifvqgrg","pricing_plan_id":"free"},{"bike_id":"e69ed7d4-bd04-4c97-a118-42867299e6b8","system_id":"levelo_inurba_marseille","lat":43.25826,"lon":5.39426,"is_reserved":false,"is_disabled":false,"rental_uris":{"android":"levelo://app?vid=e69ed7d4-bd04-4c97-a118-42867299e6b8","ios":"levelo://app?vid=e69ed7d4-bd04-4c97-a118-42867299e6b8"},"vehicle_type_id":"4","last_reported":1703160776,"current_range_meters":18800,"station_id":"ce4bhip2rcd13ifvqft0","pricing_plan_id":"free"},{"bike_id":"ebc3ac68-1825-4d95-af5d-fa1cf3744326","system_id":"levelo_inurba_marseille","lat":43.255756,"lon":5.382303,"is_reserved":false,"is_disabled":false,"rental_uris":{"android":"levelo://app?vid=ebc3ac68-1825-4d95-af5d-fa1cf3744326","ios":"levelo://app?vid=ebc3ac68-1825-4d95-af5d-fa1cf3744326"},"vehicle_type_id":"4","last_reported":1703160776,"current_range_meters":20000,"station_id":"ce4bhih2rcd13ifvqfs0","pricing_plan_id":"free"},{"bike_id":"5d55d735-3e14-4288-9c38-1c6b44b70b09","system_id":"levelo_inurba_marseille","lat":43.255756,"lon":5.382303,"is_reserved":false,"is_disabled":false,"rental_uris":{"android":"levelo://app?vid=5d55d735-3e14-4288-9c38-1c6b44b70b09","ios":"levelo://app?vid=5d55d735-3e14-4288-9c38-1c6b44b70b09"},"vehicle_type_id":"4","last_reported":1703160776,"current_range_meters":26800,"station_id":"ce4bhih2rcd13ifvqfs0","pricing_plan_id":"free"},{"bike_id":"f327e107-9afa-4627-9c71-48a52c45eae8","system_id":"levelo_inurba_marseille","lat":43.255756,"lon":5.382303,"is_reserved":false,"is_disabled":false,"rental_uris":{"android":"levelo://app?vid=f327e107-9afa-4627-9c71-48a52c45eae8","ios":"levelo://app?vid=f327e107-9afa-4627-9c71-48a52c45eae8"},"vehicle_type_id":"4","last_reported":1703160776,"current_range_meters":18400,"station_id":"ce4bhih2rcd13ifvqfs0","pricing_plan_id":"free"},{"bike_id":"79d6ddb3-ba37-44bf-82a2-5489ff59e6c7","system_id":"levelo_inurba_marseille","lat":43.255756,"lon":5.382303,"is_reserved":false,"is_disabled":false,"rental_uris":{"android":"levelo://app?vid=79d6ddb3-ba37-44bf-82a2-5489ff59e6c7","ios":"levelo://app?vid=79d6ddb3-ba37-44bf-82a2-5489ff59e6c7"},"vehicle_type_id":"4","last_reported":1703160776,"current_range_meters":32000,"station_id":"ce4bhih2rcd13ifvqfs0","pricing_plan_id":"free"},{"bike_id":"71de0b4c-0c02-4e86-8349-6038e5ece961","system_id":"levelo_inurba_marseille","lat":43.255756,"lon":5.382303,"is_reserved":false,"is_disabled":false,"rental_uris":{"android":"levelo://app?vid=71de0b4c-0c02-4e86-8349-6038e5ece961","ios":"levelo://app?vid=71de0b4c-0c02-4e86-8349-6038e5ece961"},"vehicle_type_id":"4","last_reported":1703160776,"current_range_meters":20000,"station_id":"ce4bhih2rcd13ifvqfs0","pricing_plan_id":"free"},{"bike_id":"de25785d-3f39-4f19-bac4-7e53333c11bf","system_id":"levelo_inurba_marseille","lat":43.255756,"lon":5.382303,"is_reserved":false,"is_disabled":false,"rental_uris":{"android":"levelo://app?vid=de25785d-3f39-4f19-bac4-7e53333c11bf","ios":"levelo://app?vid=de25785d-3f39-4f19-bac4-7e53333c11bf"},"vehicle_type_id":"4","last_reported":1703160776,"current_range_meters":23600,"station_id":"ce4bhih2rcd13ifvqfs0","pricing_plan_id":"free"},{"bike_id":"721f50f2-21ea-4950-8aa5-26d09df5bb0c","system_id":"levelo_inurba_marseille","lat":43.25574,"lon":5.38226,"is_reserved":false,"is_disabled":false,"rental_uris":{"android":"levelo://app?vid=721f50f2-21ea-4950-8aa5-26d09df5bb0c","ios":"levelo://app?vid=721f50f2-21ea-4950-8aa5-26d09df5bb0c"},"vehicle_type_id":"4","last_reported":1703160776,"current_range_meters":5200,"station_id":"ce4bhih2rcd13ifvqfs0","pricing_plan_id":"free"},{"bike_id":"0e63af7a-c63e-40dc-8a36-c530c0658fec","system_id":"levelo_inurba_marseille","lat":43.255756,"lon":5.382303,"is_reserved":false,"is_disabled":false,"rental_uris":{"android":"levelo://app?vid=0e63af7a-c63e-40dc-8a36-c530c0658fec","ios":"levelo://app?vid=0e63af7a-c63e-40dc-8a36-c530c0658fec"},"vehicle_type_id":"4","last_reported":1703160776,"current_range_meters":8400,"station_id":"ce4bhih2rcd13ifvqfs0","pricing_plan_id":"free"},{"bike_id":"77180e4b-b393-44b3-84e3-771a3a113129","system_id":"levelo_inurba_marseille","lat":43.25576,"lon":5.38244,"is_reserved":false,"is_disabled":false,"rental_uris":{"android":"levelo://app?vid=77180e4b-b393-44b3-84e3-771a3a113129","ios":"levelo://app?vid=77180e4b-b393-44b3-84e3-771a3a113129"},"vehicle_type_id":"4","last_reported":1703160776,"current_range_meters":10000,"station_id":"ce4bhih2rcd13ifvqfs0","pricing_plan_id":"free"},{"bike_id":"520270b4-6fc8-4dd5-9f3e-5d3012568312","system_id":"levelo_inurba_marseille","lat":43.254947,"lon":5.376454,"is_reserved":false,"is_disabled":false,"rental_uris":{"android":"levelo://app?vid=520270b4-6fc8-4dd5-9f3e-5d3012568312","ios":"levelo://app?vid=520270b4-6fc8-4dd5-9f3e-5d3012568312"},"vehicle_type_id":"4","last_reported":1703160776,"current_range_meters":24000,"station_id":"ce4bhh12rcd13ifvqff0","pricing_plan_id":"free"},{"bike_id":"5465ce53-4f9d-47be-be7c-576ef0088194","system_id":"levelo_inurba_marseille","lat":43.27071,"lon":5.42279,"is_reserved":false,"is_disabled":false,"rental_uris":{"android":"levelo://app?vid=5465ce53-4f9d-47be-be7c-576ef0088194","ios":"levelo://app?vid=5465ce53-4f9d-47be-be7c-576ef0088194"},"vehicle_type_id":"4","last_reported":1703160776,"current_range_meters":19200,"station_id":"ce4bhk92rcd13ifvqgb0","pricing_plan_id":"free"},{"bike_id":"e1448d40-a1b2-49d6-b8d7-585335485a42","system_id":"levelo_inurba_marseille","lat":43.259013,"lon":5.409301,"is_reserved":false,"is_disabled":false,"rental_uris":{"android":"levelo://app?vid=e1448d40-a1b2-49d6-b8d7-585335485a42","ios":"levelo://app?vid=e1448d40-a1b2-49d6-b8d7-585335485a42"},"vehicle_type_id":"4","last_reported":1703160776,"current_range_meters":22400,"station_id":"ce4bhm92rcd13ifvqglg","pricing_plan_id":"free"},{"bike_id":"9cfaaf9a-586a-45a1-810b-0272552a29d3","system_id":"levelo_inurba_marseille","lat":43.259013,"lon":5.409301,"is_reserved":false,"is_disabled":false,"rental_uris":{"android":"levelo://app?vid=9cfaaf9a-586a-45a1-810b-0272552a29d3","ios":"levelo://app?vid=9cfaaf9a-586a-45a1-810b-0272552a29d3"},"vehicle_type_id":"4","last_reported":1703160776,"current_range_meters":15600,"station_id":"ce4bhm92rcd13ifvqglg","pricing_plan_id":"free"},{"bike_id":"c9d66f62-a62d-44c0-8d1a-847b7e11cab9","system_id":"levelo_inurba_marseille","lat":43.259013,"lon":5.409301,"is_reserved":false,"is_disabled":false,"rental_uris":{"android":"levelo://app?vid=c9d66f62-a62d-44c0-8d1a-847b7e11cab9","ios":"levelo://app?vid=c9d66f62-a62d-44c0-8d1a-847b7e11cab9"},"vehicle_type_id":"4","last_reported":1703160776,"current_range_meters":24000,"station_id":"ce4bhm92rcd13ifvqglg","pricing_plan_id":"free"},{"bike_id":"1d4cf2a8-8b32-4f88-b713-572b8899209a","system_id":"levelo_inurba_marseille","lat":43.259013,"lon":5.409301,"is_reserved":false,"is_disabled":false,"rental_uris":{"android":"levelo://app?vid=1d4cf2a8-8b32-4f88-b713-572b8899209a","ios":"levelo://app?vid=1d4cf2a8-8b32-4f88-b713-572b8899209a"},"vehicle_type_id":"4","last_reported":1703160776,"current_range_meters":4800,"station_id":"ce4bhm92rcd13ifvqglg","pricing_plan_id":"free"},