{"last_updated":1727539809,"ttl":60,"version":"2.2","data":{"bikes":[{"bike_id":"f9116ead-95a6-41da-a2d5-91f21f50016e","system_id":"levelo_inurba_marseille","lat":43.27439,"lon":5.39414,"is_reserved":false,"is_disabled":false,"rental_uris":{"android":"levelo://app?vid=f9116ead-95a6-41da-a2d5-91f21f50016e","ios":"levelo://app?vid=f9116ead-95a6-41da-a2d5-91f21f50016e"},"vehicle_type_id":"4","last_reported":1727539809,"current_range_meters":6400,"station_id":"ce4bhdp2rcd13ifvqf20","pricing_plan_id":"cebpf4jnsgd1na2vs0mg"},{"bike_id":"73aa0c7e-726a-4296-bac2-f2d872d1e286","system_id":"levelo_inurba_marseille","lat":43.28004,"lon":5.40024,"is_reserved":false,"is_disabled":false,"rental_uris":{"android":"levelo://app?vid=73aa0c7e-726a-4296-bac2-f2d872d1e286","ios":"levelo://app?vid=73aa0c7e-726a-4296-bac2-f2d872d1e286"},"vehicle_type_id":"4","last_reported":1727539809,"current_range_meters":15200,"station_id":"ce4bho92rcd13ifvqh4g","pricing_plan_id":"cebpf4jnsgd1na2vs0mg"},{"bike_id":"04db4914-e8e5-48e9-b22d-dccca41b691d","system_id":"levelo_inurba_marseille","lat":43.28152,"lon":5.42642,"is_reserved":false,"is_disabled":false,"rental_uris":{"android":"levelo://app?vid=04db4914-e8e5-48e9-b22d-dccca41b691d","ios":"levelo://app?vid=04db4914-e8e5-48e9-b22d-dccca41b691d"},"vehicle_type_id":"4","last_reported":1727539809,"current_range_meters":30000,"station_id":"ce4bhnh2rcd13ifvqgug","pricing_plan_id":"cebpf4jnsgd1na2vs0mg"},{"bike_id":"3a69eb7a-5587-4f81-b1ac-1685f2d26a50","system_id":"levelo_inurba_marseille","lat":43.31712,"lon":5.37786,"is_reserved":false,"is_disabled":false,"rental_uris":{"android":"levelo://app?vid=3a69eb7a-5587-4f81-b1ac-1685f2d26a50","ios":"levelo://app?vid=3a69eb7a-5587-4f81-b1ac-1685f2d26a50"},"vehicle_type_id":"4","last_reported":1727539809,"current_range_meters":2000,"station_id":"ce4bgth2rcd13ifvqch0","pricing_plan_id":"cebpf4jnsgd1na2vs0mg"},{"bike_id":"0ea9e4c4-cc08-41d9-862d-a80f7d54740c","system_id":"levelo_inurba_marseille","lat":43.32288,"lon":5.38261,"is_reserved":false,"is_disabled":false,"rental_uris":{"android":"levelo://app?vid=0ea9e4c4-cc08-41d9-862d-a80f7d54740c","ios":"levelo://app?vid=0ea9e4c4-cc08-41d9-862d-a80f7d54740c"},"vehicle_type_id":"4","last_reported":1727539809,"current_range_meters":34000,"station_id":"ce4bhr12rcd13ifvqhqg","pricing_plan_id":"cebpf4jnsgd1na2vs0mg"},{"bike_id":"014a3605-b40e-48d9-8664-d72aed2786ba","system_id":"levelo_inurba_marseille","lat":43.27812,"lon":5.38246,"is_reserved":false,"is_disabled":false,"rental_uris":{"android":"levelo://app?vid=014a3605-b40e-48d9-8664-d72aed2786ba","ios":"levelo://app?vid=014a3605-b40e-48d9-8664-d72aed2786ba"},"vehicle_type_id":"4","last_reported":1727539809,"current_range_meters":30000,"station_id":"ce4bhf92rcd13ifvqf50","pricing_plan_id":"cebpf4jnsgd1na2vs0mg"},{"bike_id":"59ad5670-a433-4f13-8268-33950de5e282","system_id":"levelo_inurba_marseille","lat":43.25497,"lon":5.3765,"is_reserved":false,"is_disabled":false,"rental_uris":{"android":"levelo://app?vid=59ad5670-a433-4f13-8268-33950de5e282","ios":"levelo://app?vid=59ad5670-a433-4f13-8268-33950de5e282"},"vehicle_type_id":"4","last_reported":1727539809,"current_range_meters":24000,"station_id":"ce4bhh12rcd13ifvqff0","pricing_plan_id":"cebpf4jnsgd1na2vs0mg"},{"bike_id":"e8f339a7-5e65-4275-8576-718fc09f5e43","system_id":"levelo_inurba_marseille","lat":43.27619,"lon":5.36105,"is_reserved":false,"is_disabled":false,"rental_uris":{"android":"levelo://app?vid=e8f339a7-5e65-4275-8576-718fc09f5e43","ios":"levelo://app?vid=e8f339a7-5e65-4275-8576-718fc09f5e43"},"vehicle_type_id":"4","last_reported":1727539809,"current_range_meters":14400,"station_id":"ce4bgj92rcd13ifvqbe0","pricing_plan_id":"cebpf4jnsgd1na2vs0mg"},{"bike_id":"733480c8-3e9f-4bb4-8fb7-d24c07132a1f","system_id":"levelo_inurba_marseille","lat":43.27675,"lon":5.38912,"is_reserved":false,"is_disabled":false,"rental_uris":{"android":"levelo://app?vid=733480c8-3e9f-4bb4-8fb7-d24c07132a1f","ios":"levelo://app?vid=733480c8-3e9f-4bb4-8fb7-d24c07132a1f"},"vehicle_type_id":"4","last_reported":1727539809,"current_range_meters":22000,"station_id":"ce4bhi12rcd13ifvqfo0","pricing_plan_id":"cebpf4jnsgd1na2vs0mg"},{"bike_id":"7d54d53e-9465-4eb7-988f-3be552d17282","system_id":"levelo_inurba_marseille","lat":43.249945,"lon":5.389373,"is_reserved":false,"is_disabled":false,"rental_uris":{"android":"levelo://app?vid=7d54d53e-9465-4eb7-988f-3be552d17282","ios":"levelo://app?vid=7d54d53e-9465-4eb7-988f-3be552d17282"},"vehicle_type_id":"4","last_reported":1727539809,"current_range_meters":16400,"station_id":"ce4bhgp2rcd13ifvqfd0","pricing_plan_id":"cebpf4jnsgd1na2vs0mg"},{"bike_id":"9a47dcb1-61bb-411f-affb-55731480b4cc","system_id":"levelo_inurba_marseille","lat":43.23958,"lon":5.36631,"is_reserved":false,"is_disabled":false,"rental_uris":{"android":"levelo://app?vid=9a47dcb1-61bb-411f-affb-55731480b4cc","ios":"levelo://app?vid=9a47dcb1-61bb-411f-affb-55731480b4cc"},"vehicle_type_id":"4","last_reported":1727539809,"current_range_meters":39200,"station_id":"ce4bhi12rcd13ifvqfp0","pricing_plan_id":"cebpf4jnsgd1na2vs0mg"},{"bike_id":"3982aa73-f90e-410b-9603-3bebfddb4bb6","system_id":"levelo_inurba_marseille","lat":43.3079,"lon":5.38158,"is_reserved":false,"is_disabled":false,"rental_uris":{"android":"levelo://app?vid=3982aa73-f90e-410b-9603-3bebfddb4bb6","ios":"levelo://app?vid=3982aa73-f90e-410b-9603-3bebfddb4bb6"},"vehicle_type_id":"4","last_reported":1727539809,"current_range_meters":30800,"station_id":"ce4bgt12rcd13ifvqce0","pricing_plan_id":"cebpf4jnsgd1na2vs0mg"},{"bike_id":"f63240a5-9260-4da2-b04a-81cb251a274d","system_id":"levelo_inurba_marseille","lat":43.29638,"lon":5.40595,"is_reserved":false,"is_disabled":false,"rental_uris":{"android":"levelo://app?vid=f63240a5-9260-4da2-b04a-81cb251a274d","ios":"levelo://app?vid=f63240a5-9260-4da2-b04a-81cb251a274d"},"vehicle_type_id":"4","last_reported":1727539809,"current_range_meters":36800,"station_id":"ce4bh0h2rcd13ifvqd60","pricing_plan_id":"cebpf4jnsgd1na2vs0mg"},{"bike_id":"48cda0b0-244d-4505-b693-61ec1701b78e","system_id":"levelo_inurba_marseille","lat":43.29367,"lon":5.3853,"is_reserved":false,"is_disabled":false,"rental_uris":{"android":"levelo://app?vid=48cda0b0-244d-4505-b693-61ec1701b78e","ios":"levelo://app?vid=48cda0b0-244d-4505-b693-61ec1701b78e"},"vehicle_type_id":"4","last_reported":1727539809,"current_range_meters":21600,"station_id":"","pricing_plan_id":"cebpf4jnsgd1na2vs0mg"},{"bike_id":"3afc3938-1136-4249-8a01-c9d063a0172a","system_id":"levelo_inurba_marseille","lat":43.29272,"lon":5.36842,"is_reserved":false,"is_disabled":false,"rental_uris":{"android":"levelo://app?vid=3afc3938-1136-4249-8a01-c9d063a0172a","ios":"levelo://app?vid=3afc3938-1136-4249-8a01-c9d063a0172a"},"vehicle_type_id":"4","last_reported":1727539809,"current_range_meters":32000,"station_id":"ce4bhbp2rcd13ifvqesg","pricing_plan_id":"cebpf4jnsgd1na2vs0mg"},{"bike_id":"72777533-dc19-484d-bae4-e7f4f9270820","system_id":"levelo_inurba_marseille","lat":43.28407,"lon":5.37506,"is_reserved":false,"is_disabled":false,"rental_uris":{"android":"levelo://app?vid=72777533-dc19-484d-bae4-e7f4f9270820","ios":"levelo://app?vid=72777533-dc19-484d-bae4-e7f4f9270820"},"vehicle_type_id":"4","last_reported":1727539809,"current_range_meters":9200,"station_id":"ce4bh412rcd13ifvqds0","pricing_plan_id":"cebpf4jnsgd1na2vs0mg"},{"bike_id":"83ab67e9-9683-40ac-9b80-c07390469159","system_id":"levelo_inurba_marseille","lat":43.22928,"lon":5.35373,"is_reserved":false,"is_disabled":false,"rental_uris":{"android":"levelo://app?vid=83ab67e9-9683-40ac-9b80-c07390469159","ios":"levelo://app?vid=83ab67e9-9683-40ac-9b80-c07390469159"},"vehicle_type_id":"4","last_reported":1727539809,"current_range_meters":36800,"station_id":"cpo3532slgdg3j2ikp40","pricing_plan_id":"cebpf4jnsgd1na2vs0mg"},{"bike_id":"e4e47c0d-39db-4e87-aa03-c44c40bcb4f1","system_id":"levelo_inurba_marseille","lat":43.292,"lon":5.39324,"is_reserved":false,"is_disabled":false,"rental_uris":{"android":"levelo://app?vid=e4e47c0d-39db-4e87-aa03-c44c40bcb4f1","ios":"levelo://app?vid=e4e47c0d-39db-4e87-aa03-c44c40bcb4f1"},"vehicle_type_id":"4","last_reported":1727539809,"current_range_meters":9600,"station_id":"ce4bh192rcd13ifvqdd0","pricing_plan_id":"cebpf4jnsgd1na2vs0mg"},{"bike_id":"42ccb2ed-8a36-4845-a3a3-73a982bf04f4","system_id":"levelo_inurba_marseille","lat":43.25496,"lon":5.37647,"is_reserved":false,"is_disabled":false,"rental_uris":{"android":"levelo://app?vid=42ccb2ed-8a36-4845-a3a3-73a982bf04f4","ios":"levelo://app?vid=42ccb2ed-8a36-4845-a3a3-73a982bf04f4"},"vehicle_type_id":"4","last_reported":1727539809,"current_range_meters":28000,"station_id":"ce4bhh12rcd13ifvqff0","pricing_plan_id":"cebpf4jnsgd1na2vs0mg"},{"bike_id":"7bdb6542-34d4-409e-96e4-4aeb97032ede","system_id":"levelo_inurba_marseille","lat":43.29552,"lon":5.42283,"is_reserved":false,"is_disabled":false,"rental_uris":{"android":"levelo://app?vid=7bdb6542-34d4-409e-96e4-4aeb97032ede","ios":"levelo://app?vid=7bdb6542-34d4-409e-96e4-4aeb97032ede"},"vehicle_type_id":"4","last_reported":1727539809,"current_range_meters":9600,"station_id":"ce4bhph2rcd13ifvqhdg","pricing_plan_id":"cebpf4jnsgd1na2vs0mg"},{"bike_id":"8524a85f-8427-4a60-91b5-869fad39ff42","system_id":"levelo_inurba_marseille","lat":43.25003,"lon":5.38935,"is_reserved":false,"is_disabled":false,"rental_uris":{"android":"levelo://app?vid=8524a85f-8427-4a60-91b5-869fad39ff42","ios":"levelo://app?vid=8524a85f-8427-4a60-91b5-869fad39ff42"},"vehicle_type_id":"4","last_reported":1727539809,"current_range_meters":32800,"station_id":"ce4bhgp2rcd13ifvqfd0","pricing_plan_id":"cebpf4jnsgd1na2vs0mg"},{"bike_id":"f053dd8e-63e9-4c59-b908-3cfad35f1fa9","system_id":"levelo_inurba_marseille","lat":43.26943,"lon":5.40257,"is_reserved":false,"is_disabled":false,"rental_uris":{"android":"levelo://app?vid=f053dd8e-63e9-4c59-b908-3cfad35f1fa9","ios":"levelo://app?vid=f053dd8e-63e9-4c59-b908-3cfad35f1fa9"},"vehicle_type_id":"4","last_reported":1727539809,"current_range_meters":38400,"station_id":"cjm6bp8fraef2m0cb0m0","pricing_plan_id":"cebpf4jnsgd1na2vs0mg"},{"bike_id":"67e81774-7bff-4904-b044-329477d62ffa","system_id":"levelo_inurba_marseille","lat":43.28719,"lon":5.37942,"is_reserved":false,"is_disabled":false,"rental_uris":{"android":"levelo://app?vid=67e81774-7bff-4904-b044-329477d62ffa","ios":"levelo://app?vid=67e81774-7bff-4904-b044-329477d62ffa"},"vehicle_type_id":"4","last_reported":1727539809,"current_range_meters":23200,"station_id":"ce4bh9p2rcd13ifvqec0","pricing_plan_id":"cebpf4jnsgd1na2vs0mg"},{"bike_id":"1ce7c25b-6bd2-4b64-b4ae-543ea784fc5d","system_id":"levelo_inurba_marseille","lat":43.337444,"lon":5.374475,"is_reserved":false,"is_disabled":false,"rental_uris":{"android":"levelo://app?vid=1ce7c25b-6bd2-4b64-b4ae-543ea784fc5d","ios":"levelo://app?vid=1ce7c25b-6bd2-4b64-b4ae-543ea784fc5d"},"vehicle_type_id":"4","last_reported":1727539809,"current_range_meters":36400,"station_id":"","pricing_plan_id":"cebpf4jnsgd1na2vs0mg"},{"bike_id":"ccb0399a-af8d-4a08-a739-b071793d1a1b","system_id":"levelo_inurba_marseille","lat":43.31712,"lon":5.43704,"is_reserved":false,"is_disabled":false,"rental_uris":{"android":"levelo://app?vid=ccb0399a-af8d-4a08-a739-b071793d1a1b","ios":"levelo://app?vid=ccb0399a-af8d-4a08-a739-b071793d1a1b"},"vehicle_type_id":"4","last_reported":1727539809,"current_range_meters":19600,"station_id":"ce4bhp92rcd13ifvqhcg","pricing_plan_id":"cebpf4jnsgd1na2vs0mg"},{"bike_id":"8a019057-df41-4cd9-8391-6e887f9eb193","system_id":"levelo_inurba_marseille","lat":43.29263,"lon":5.36805,"is_reserved":false,"is_disabled":false,"rental_uris":{"android":"levelo://app?vid=8a019057-df41-4cd9-8391-6e887f9eb193","ios":"levelo://app?vid=8a019057-df41-4cd9-8391-6e887f9eb193"},"vehicle_type_id":"4","last_reported":1727539809,"current_range_meters":8800,"station_id":"ce4bhbp2rcd13ifvqesg","pricing_plan_id":"cebpf4jnsgd1na2vs0mg"},{"bike_id":"573b4ba3-daee-4664-a11c-6a466f916896","system_id":"levelo_inurba_marseille","lat":43.24387,"lon":5.37069,"is_reserved":false,"is_disabled":false,"rental_uris":{"android":"levelo://app?vid=573b4ba3-daee-4664-a11c-6a466f916896","ios":"levelo://app?vid=573b4ba3-daee-4664-a11c-6a466f916896"},"vehicle_type_id":"4","last_reported":1727539809,"current_range_meters":6400,"station_id":"ce4bhhh2rcd13ifvqfk0","pricing_plan_id":"cebpf4jnsgd1na2vs0mg"},{"bike_id":"0c6a3edd-0259-43fd-a8d1-3d4bb6023605","system_id":"levelo_inurba_marseille","lat":43.24382,"lon":5.37047,"is_reserved":false,"is_disabled":false,"rental_uris":{"android":"levelo://app?vid=0c6a3edd-0259-43fd-a8d1-3d4bb6023605","ios":"levelo://app?vid=0c6a3edd-0259-43fd-a8d1-3d4bb6023605"},"vehicle_type_id":"4","last_reported":1727539809,"current_range_meters":39200,"station_id":"ce4bhhh2rcd13ifvqfk0","pricing_plan_id":"cebpf4jnsgd1na2vs0mg"},{"bike_id":"75bdc7d7-45c5-4893-b741-7e5f3d0bb639","system_id":"levelo_inurba_marseille","lat":43.29512,"lon":5.39407,"is_reserved":false,"is_disabled":false,"rental_uris":{"android":"levelo://app?vid=75bdc7d7-45c5-4893-b741-7e5f3d0bb639","ios":"levelo://app?vid=75bdc7d7-45c5-4893-b741-7e5f3d0bb639"},"vehicle_type_id":"4","last_reported":1727539809,"current_range_meters":37600,"station_id":"ce4bh292rcd13ifvqdf0","pricing_plan_id":"cebpf4jnsgd1na2vs0mg"},{"bike_id":"403d3694-1d50-4a4c-8a59-449ba312f4e5","system_id":"levelo_inurba_marseille","lat":43.31173,"lon":5.38712,"is_reserved":false,"is_disabled":false,"rental_uris":{"android":"levelo://app?vid=403d3694-1d50-4a4c-8a59-449ba312f4e5","ios":"levelo://app?vid=403d3694-1d50-4a4c-8a59-449ba312f4e5"},"vehicle_type_id":"4","last_reported":1727539809,"current_range_meters":13600,"station_id":"ce4bgv12rcd13ifvqcp0","pricing_plan_id":"cebpf4jnsgd1na2vs0mg"},{"bike_id":"30084e07-e74a-40d4-b4f5-6b087f5969f5","system_id":"levelo_inurba_marseille","lat":43.27073,"lon":5.42278,"is_reserved":false,"is_disabled":false,"rental_uris":{"android":"levelo://app?vid=30084e07-e74a-40d4-b4f5-6b087f5969f5","ios":"levelo://app?vid=30084e07-e74a-40d4-b4f5-6b087f5969f5"},"vehicle_type_id":"4","last_reported":1727539809,"current_range_meters":30800,"station_id":"ce4bhk92rcd13ifvqgb0","pricing_plan_id":"cebpf4jnsgd1na2vs0mg"},{"bike_id":"6b0e3b67-3daf-4b03-8aa0-99e6c8dc5e62","system_id":"levelo_inurba_marseille","lat":43.28154,"lon":5.42643,"is_reserved":false,"is_disabled":false,"rental_uris":{"android":"levelo://app?vid=6b0e3b67-3daf-4b03-8aa0-99e6c8dc5e62","ios":"levelo://app?vid=6b0e3b67-3daf-4b03-8aa0-99e6c8dc5e62"},"vehicle_type_id":"4","last_reported":1727539809,"current_range_meters":20400,"station_id":"ce4bhnh2rcd13ifvqgug","pricing_plan_id":"cebpf4jnsgd1na2vs0mg"},{"bike_id":"8fe46ecc-1e67-4f19-8b8d-10a6acd8bd0b","system_id":"levelo_inurba_marseille","lat":43.26001,"lon":5.38687,"is_reserved":false,"is_disabled":false,"rental_uris":{"android":"levelo://app?vid=8fe46ecc-1e67-4f19-8b8d-10a6acd8bd0b","ios":"levelo://app?vid=8fe46ecc-1e67-4f19-8b8d-10a6acd8bd0b"},"vehicle_type_id":"4","last_reported":1727539809,"current_range_meters":8000,"station_id":"","pricing_plan_id":"cebpf4jnsgd1na2vs0mg"},{"bike_id":"31f6e716-5c69-46e5-88bb-60d69e56eb2b","system_id":"levelo_inurba_marseille","lat":43.32294,"lon":5.38279,"is_reserved":false,"is_disabled":false,"rental_uris":{"android":"levelo://app?vid=31f6e716-5c69-46e5-88bb-60d69e56eb2b","ios":"levelo://app?vid=31f6e716-5c69-46e5-88bb-60d69e56eb2b"},"vehicle_type_id":"4","last_reported":1727539809,"current_range_meters":38000,"station_id":"ce4bhq92rcd13ifvqhkg","pricing_plan_id":"cebpf4jnsgd1na2vs0mg"},{"bike_id":"340baa0f-e752-4632-96a4-9de762f3fb4d","system_id":"levelo_inurba_marseille","lat":43.25576,"lon":5.38239,"is_reserved":false,"is_disabled":false,"rental_uris":{"android":"levelo://app?vid=340baa0f-e752-4632-96a4-9de762f3fb4d","ios":"levelo://app?vid=340baa0f-e752-4632-96a4-9de762f3fb4d"},"vehicle_type_id":"4","last_reported":1727539809,"current_range_meters":24000,"station_id":"ce4bhih2rcd13ifvqfs0","pricing_plan_id":"cebpf4jnsgd1na2vs0mg"},{"bike_id":"6a52f468-9bf5-46c2-819d-2c732c18128e","system_id":"levelo_inurba_marseille","lat":43.23969,"lon":5.36608,"is_reserved":false,"is_disabled":false,"rental_uris":{"android":"levelo://app?vid=6a52f468-9bf5-46c2-819d-2c732c18128e","ios":"levelo://app?vid=6a52f468-9bf5-46c2-819d-2c732c18128e"},"vehicle_type_id":"4","last_reported":1727539809,"current_range_meters":39200,"station_id":"ce4bhi12rcd13ifvqfp0","pricing_plan_id":"cebpf4jnsgd1na2vs0mg"},{"bike_id":"305fd8d9-5d52-4443-b99f-43a47406e444","system_id":"levelo_inurba_marseille","lat":43.30192,"lon":5.36619,"is_reserved":false,"is_disabled":false,"rental_uris":{"android":"levelo://app?vid=305fd8d9-5d52-4443-b99f-43a47406e444","ios":"levelo://app?vid=305fd8d9-5d52-4443-b99f-43a47406e444"},"vehicle_type_id":"4","last_reported":1727539809,"current_range_meters":31200,"station_id":"ce4bgrh2rcd13ifvqc8g","pricing_plan_id":"cebpf4jnsgd1na2vs0mg"},{"bike_id":"d28f8417-69bd-41eb-bedf-2188a8e77b8d","system_id":"levelo_inurba_marseille","lat":43.2827,"lon":5.35068,"is_reserved":false,"is_disabled":false,"rental_uris":{"android":"levelo://app?vid=d28f8417-69bd-41eb-bedf-2188a8e77b8d","ios":"levelo://app?vid=d28f8417-69bd-41eb-bedf-2188a8e77b8d"},"vehicle_type_id":"4","last_reported":1727539809,"current_range_meters":9200,"station_id":"ce4bhbp2rcd13ifvqerg","pricing_plan_id":"cebpf4jnsgd1na2vs0mg"},{"bike_id":"67b9eb05-c36e-4582-9b61-98d56d57348d","system_id":"levelo_inurba_marseille","lat":43.26058,"lon":5.39397,"is_reserved":false,"is_disabled":false,"rental_uris":{"android":"levelo://app?vid=67b9eb05-c36e-4582-9b61-98d56d57348d","ios":"levelo://app?vid=67b9eb05-c36e-4582-9b61-98d56d57348d"},"vehicle_type_id":"4","last_reported":1727539809,"current_range_meters":37600,"station_id":"ce4bhh92rcd13ifvqfj0","pricing_plan_id":"cebpf4jnsgd1na2vs0mg"},{"bike_id":"5e8aca01-0f4e-4162-a12a-f053d895f3b3","system_id":"levelo_inurba_marseille","lat":43.2804,"lon":5.36954,"is_reserved":false,"is_disabled":false,"rental_uris":{"android":"levelo://app?vid=5e8aca01-0f4e-4162-a12a-f053d895f3b3","ios":"levelo://app?vid=5e8aca01-0f4e-4162-a12a-f053d895f3b3"},"vehicle_type_id":"4","last_reported":1727539809,"current_range_meters":38800,"station_id":"ce4bha12rcd13ifvqef0","pricing_plan_id":"cebpf4jnsgd1na2vs0mg"},{"bike_id":"7b7972df-38f6-4844-a1ac-7273e8026644","system_id":"levelo_inurba_marseille","lat":43.25582,"lon":5.3824,"is_reserved":false,"is_disabled":false,"rental_uris":{"android":"levelo://app?vid=7b7972df-38f6-4844-a1ac-7273e8026644","ios":"levelo://app?vid=7b7972df-38f6-4844-a1ac-7273e8026644"},"vehicle_type_id":"4","last_reported":1727539809,"current_range_meters":34800,"station_id":"ce4bhih2rcd13ifvqfs0","pricing_plan_id":"cebpf4jnsgd1na2vs0mg"},{"bike_id":"c47b7dfd-0594-4552-8d2a-3fdb32d47594","system_id":"levelo_inurba_marseille","lat":43.30953,"lon":5.39029,"is_reserved":false,"is_disabled":false,"rental_uris":{"android":"levelo://app?vid=c47b7dfd-0594-4552-8d2a-3fdb32d47594","ios":"levelo://app?vid=c47b7dfd-0594-4552-8d2a-3fdb32d47594"},"vehicle_type_id":"4","last_reported":1727539809,"current_range_meters":26000,"station_id":"ce4bgup2rcd13ifvqco0","pricing_plan_id":"cebpf4jnsgd1na2vs0mg"},{"bike_id":"770d846e-e02d-4385-8269-1c165ccc198a","system_id":"levelo_inurba_marseille","lat":43.29266,"lon":5.36846,"is_reserved":false,"is_disabled":false,"rental_uris":{"android":"levelo://app?vid=770d846e-e02d-4385-8269-1c165ccc198a","ios":"levelo://app?vid=770d846e-e02d-4385-8269-1c165ccc198a"},"vehicle_type_id":"4","last_reported":1727539809,"current_range_meters":38800,"station_id":"ce4bhbp2rcd13ifvqesg","pricing_plan_id":"cebpf4jnsgd1na2vs0mg"},{"bike_id":"e28cc070-a8c1-4ff3-9c6d-44730ce24ac3","system_id":"levelo_inurba_marseille","lat":43.24386,"lon":5.37052,"is_reserved":false,"is_disabled":false,"rental_uris":{"android":"levelo://app?vid=e28cc070-a8c1-4ff3-9c6d-44730ce24ac3","ios":"levelo://app?vid=e28cc070-a8c1-4ff3-9c6d-44730ce24ac3"},"vehicle_type_id":"4","last_reported":1727539809,"current_range_meters":36800,"station_id":"ce4bhhh2rcd13ifvqfk0","pricing_plan_id":"cebpf4jnsgd1na2vs0mg"},{"bike_id":"0568c567-b1f5-4d37-a0e9-83b1906a1f0b","system_id":"levelo_inurba_marseille","lat":43.29193,"lon":5.35804,"is_reserved":false,"is_disabled":false,"rental_uris":{"android":"levelo://app?vid=0568c567-b1f5-4d37-a0e9-83b1906a1f0b","ios":"levelo://app?vid=0568c567-b1f5-4d37-a0e9-83b1906a1f0b"},"vehicle_type_id":"4","last_reported":1727539809,"current_range_meters":3600,"station_id":"ce4bhb12rcd13ifvqel0","pricing_plan_id":"cebpf4jnsgd1na2vs0mg"},{"bike_id":"869403bb-4fcc-4f66-8ec3-05c3e0e700b7","system_id":"levelo_inurba_marseille","lat":43.27425,"lon":5.3941,"is_reserved":false,"is_disabled":false,"rental_uris":{"android":"levelo://app?vid=869403bb-4fcc-4f66-8ec3-05c3e0e700b7","ios":"levelo://app?vid=869403bb-4fcc-4f66-8ec3-05c3e0e700b7"},"vehicle_type_id":"4","last_reported":1727539809,"current_range_meters":38800,"station_id":"ce4bhdp2rcd13ifvqf20","pricing_plan_id":"cebpf4jnsgd1na2vs0mg"},{"bike_id":"d8e39119-8071-4591-9c9f-95589d42449d","system_id":"levelo_inurba_marseille","lat":43.28712,"lon":5.37378,"is_reserved":false,"is_disabled":false,"rental_uris":{"android":"levelo://app?vid=d8e39119-8071-4591-9c9f-95589d42449d","ios":"levelo://app?vid=d8e39119-8071-4591-9c9f-95589d42449d"},"vehicle_type_id":"4","last_reported":1727539809,"current_range_meters":27600,"station_id":"ce4bh3p2rcd13ifvqdq0","pricing_plan_id":"cebpf4jnsgd1na2vs0mg"},{"bike_id":"a83d20da-5a32-4b2d-96e5-eef23c3f117c","system_id":"levelo_inurba_marseille","lat":43.30108,"lon":5.39894,"is_reserved":false,"is_disabled":false,"rental_uris":{"android":"levelo://app?vid=a83d20da-5a32-4b2d-96e5-eef23c3f117c","ios":"levelo://app?vid=a83d20da-5a32-4b2d-96e5-eef23c3f117c"},"vehicle_type_id":"4","last_reported":1727539809,"current_range_meters":6800,"station_id":"ce4bh0h2rcd13ifvqd40","pricing_plan_id":"cebpf4jnsgd1na2vs0mg"},{"bike_id":"8003d138-aab1-4127-ba8c-56a30e6fc389","system_id":"levelo_inurba_marseille","lat":43.29521,"lon":5.39061,"is_reserved":false,"is_disabled":false,"rental_uris":{"android":"levelo://app?vid=8003d138-aab1-4127-ba8c-56a30e6fc389","ios":"levelo://app?vid=8003d138-aab1-4127-ba8c-56a30e6fc389"},"vehicle_type_id":"4","last_reported":1727539809,"current_range_meters":12000,"station_id":"ce4bh3p2rcd13ifvqdp0","pricing_plan_id":"cebpf4jnsgd1na2vs0mg"},{"bike_id":"cf2a99f0-171d-46e2-b5f9-b8e518581e33","system_id":"levelo_inurba_marseille","lat":43.2395,"lon":5.36646,"is_reserved":false,"is_disabled":false,"rental_uris":{"android":"levelo://app?vid=cf2a99f0-171d-46e2-b5f9-b8e518581e33","ios":"levelo://app?vid=cf2a99f0-171d-46e2-b5f9-b8e518581e33"},"vehicle_type_id":"4","last_reported":1727539809,"current_range_meters":36800,"station_id":"ce4bhi12rcd13ifvqfp0","pricing_plan_id":"cebpf4jnsgd1na2vs0mg"},{"bike_id":"3d1afe0b-ea43-4342-b690-12d5459ac11e","system_id":"levelo_inurba_marseille","lat":43.292764,"lon":5.409059,"is_reserved":false,"is_disabled":false,"rental_uris":{"android":"levelo://app?vid=3d1afe0b-ea43-4342-b690-12d5459ac11e","ios":"levelo://app?vid=3d1afe0b-ea43-4342-b690-12d5459ac11e"},"vehicle_type_id":"4","last_reported":1727539809,"current_range_meters":36800,"station_id":"ce4bh192rcd13ifvqdc0","pricing_plan_id":"cebpf4jnsgd1na2vs0mg"},{"bike_id":"3de9dbf1-19c0-4b7b-8643-e40a89c78cf0","system_id":"levelo_inurba_marseille","lat":43.24549,"lon":5.39522,"is_reserved":false,"is_disabled":false,"rental_uris":{"android":"levelo://app?vid=3de9dbf1-19c0-4b7b-8643-e40a89c78cf0","ios":"levelo://app?vid=3de9dbf1-19c0-4b7b-8643-e40a89c78cf0"},"vehicle_type_id":"4","last_reported":1727539809,"current_range_meters":20800,"station_id":"ce4bhlp2rcd13ifvqgjg","pricing_plan_id":"cebpf4jnsgd1na2vs0mg"},{"bike_id":"af27e55c-9092-4f57-a5c6-7251428e651f","system_id":"levelo_inurba_marseille","lat":43.23199,"lon":5.35547,"is_reserved":false,"is_disabled":false,"rental_uris":{"android":"levelo://app?vid=af27e55c-9092-4f57-a5c6-7251428e651f","ios":"levelo://app?vid=af27e55c-9092-4f57-a5c6-7251428e651f"},"vehicle_type_id":"4","last_reported":1727539809,"current_range_meters":15200,"station_id":"ce4bhu92rcd13ifvqi70","pricing_plan_id":"cebpf4jnsgd1na2vs0mg"},{"bike_id":"fdb61897-97d0-4689-adc4-02e79ee31d57","system_id":"levelo_inurba_marseille","lat":43.23956,"lon":5.36627,"is_reserved":false,"is_disabled":false,"rental_uris":{"android":"levelo://app?vid=fdb61897-97d0-4689-adc4-02e79ee31d57","ios":"levelo://app?vid=fdb61897-97d0-4689-adc4-02e79ee31d57"},"vehicle_type_id":"4","last_reported":1727539809,"current_range_meters":38800,"station_id":"ce4bhi12rcd13ifvqfp0","pricing_plan_id":"cebpf4jnsgd1na2vs0mg"},{"bike_id":"52f17877-110a-422d-89ae-fdeda162e6f3","system_id":"levelo_inurba_marseille","lat":43.23963,"lon":5.36619,"is_reserved":false,"is_disabled":false,"rental_uris":{"android":"levelo://app?vid=52f17877-110a-422d-89ae-fdeda162e6f3","ios":"levelo://app?vid=52f17877-110a-422d-89ae-fdeda162e6f3"},"vehicle_type_id":"4","last_reported":1727539809,"current_range_meters":10800,"station_id":"ce4bhi12rcd13ifvqfp0","pricing_plan_id":"cebpf4jnsgd1na2vs0mg"},{"bike_id":"137db193-0726-4090-8d4a-df4989087e6a","system_id":"levelo_inurba_marseille","lat":43.28152,"lon":5.42641,"is_reserved":false,"is_disabled":false,"rental_uris":{"android":"levelo://app?vid=137db193-0726-4090-8d4a-df4989087e6a","ios":"levelo://app?vid=137db193-0726-4090-8d4a-df4989087e6a"},"vehicle_type_id":"4","last_reported":1727539809,"current_range_meters":3200,"station_id":"ce4bhnh2rcd13ifvqgug","pricing_plan_id":"cebpf4jnsgd1na2vs0mg"},{"bike_id":"7a8f28c6-ab6f-49c3-b59d-8e597cfc4655","system_id":"levelo_inurba_marseille","lat":43.3372,"lon":5.39186,"is_reserved":false,"is_disabled":false,"rental_uris":{"android":"levelo://app?vid=7a8f28c6-ab6f-49c3-b59d-8e597cfc4655","ios":"levelo://app?vid=7a8f28c6-ab6f-49c3-b59d-8e597cfc4655"},"vehicle_type_id":"4","last_reported":1727539809,"current_range_meters":23200,"station_id":"ce4bhr92rcd13ifvqhsg","pricing_plan_id":"cebpf4jnsgd1na2vs0mg"},{"bike_id":"66090a2d-c8e8-444b-97ee-580cb870764a","system_id":"levelo_inurba_marseille","lat":43.273243,"lon":5.390795,"is_reserved":false,"is_disabled":false,"rental_uris":{"android":"levelo://app?vid=66090a2d-c8e8-444b-97ee-580cb870764a","ios":"levelo://app?vid=66090a2d-c8e8-444b-97ee-580cb870764a"},"vehicle_type_id":"4","last_reported":1727539809,"current_range_meters":6400,"station_id":"ce4bhgp2rcd13ifvqfe0","pricing_plan_id":"cebpf4jnsgd1na2vs0mg"},{"bike_id":"dc91c218-3532-4cef-bf3b-c9517a9a38c7","system_id":"levelo_inurba_marseille","lat":43.28487,"lon":5.38557,"is_reserved":false,"is_disabled":false,"rental_uris":{"android":"levelo://app?vid=dc91c218-3532-4cef-bf3b-c9517a9a38c7","ios":"levelo://app?vid=dc91c218-3532-4cef-bf3b-c9517a9a38c7"},"vehicle_type_id":"4","last_reported":1727539809,"current_range_meters":12800,"station_id":"ce4bh8p2rcd13ifvqeb0","pricing_plan_id":"cebpf4jnsgd1na2vs0mg"},{"bike_id":"64b766d9-1105-495f-ab22-09d209ac1873","system_id":"levelo_inurba_marseille","lat":43.2998,"lon":5.37188,"is_reserved":false,"is_disabled":false,"rental_uris":{"android":"levelo://app?vid=64b766d9-1105-495f-ab22-09d209ac1873","ios":"levelo://app?vid=64b766d9-1105-495f-ab22-09d209ac1873"},"vehicle_type_id":"4","last_reported":1727539809,"current_range_meters":12400,"station_id":"ce4bgr92rcd13ifvqc7g","pricing_plan_id":"cebpf4jnsgd1na2vs0mg"},{"bike_id":"8706dbad-74a1-4401-bd4a-b4ae01455ac4","system_id":"levelo_inurba_marseille","lat":43.27611,"lon":5.3611,"is_reserved":false,"is_disabled":false,"rental_uris":{"android":"levelo://app?vid=8706dbad-74a1-4401-bd4a-b4ae01455ac4","ios":"levelo://app?vid=8706dbad-74a1-4401-bd4a-b4ae01455ac4"},"vehicle_type_id":"4","last_reported":1727539809,"current_range_meters":22800,"station_id":"ce4bgj92rcd13ifvqbe0","pricing_plan_id":"cebpf4jnsgd1na2vs0mg"},{"bike_id":"9e0e602a-711e-4e75-a4b3-f0d70db8f823","system_id":"levelo_inurba_marseille","lat":43.23959,"lon":5.36627,"is_reserved":false,"is_disabled":false,"rental_uris":{"android":"levelo://app?vid=9e0e602a-711e-4e75-a4b3-f0d70db8f823","ios":"levelo://app?vid=9e0e602a-711e-4e75-a4b3-f0d70db8f823"},"vehicle_type_id":"4","last_reported":1727539809,"current_range_meters":19600,"station_id":"ce4bhi12rcd13ifvqfp0","pricing_plan_id":"cebpf4jnsgd1na2vs0mg"},{"bike_id":"fc77dcc9-9923-4301-a1e1-c6abc5edcd22","system_id":"levelo_inurba_marseille","lat":43.29558,"lon":5.42296,"is_reserved":false,"is_disabled":false,"rental_uris":{"android":"levelo://app?vid=fc77dcc9-9923-4301-a1e1-c6abc5edcd22","ios":"levelo://app?vid=fc77dcc9-9923-4301-a1e1-c6abc5edcd22"},"vehicle_type_id":"4","last_reported":1727539809,"current_range_meters":30400,"station_id":"ce4bhph2rcd13ifvqhdg","pricing_plan_id":"cebpf4jnsgd1na2vs0mg"},{"bike_id":"9568fd49-2c0b-4d46-b776-a5a1bf91a907","system_id":"levelo_inurba_marseille","lat":43.29602,"lon":5.38108,"is_reserved":false,"is_disabled":false,"rental_uris":{"android":"levelo://app?vid=9568fd49-2c0b-4d46-b776-a5a1bf91a907","ios":"levelo://app?vid=9568fd49-2c0b-4d46-b776-a5a1bf91a907"},"vehicle_type_id":"4","last_reported":1727539809,"current_range_meters":11200,"station_id":"ce4bgl12rcd13ifvqbo0","pricing_plan_id":"cebpf4jnsgd1na2vs0mg"},{"bike_id":"e36bd4ce-a4ac-48e7-8f72-df578ec5b0cb","system_id":"levelo_inurba_marseille","lat":43.28848,"lon":5.35858,"is_reserved":false,"is_disabled":false,"rental_uris":{"android":"levelo://app?vid=e36bd4ce-a4ac-48e7-8f72-df578ec5b0cb","ios":"levelo://app?vid=e36bd4ce-a4ac-48e7-8f72-df578ec5b0cb"},"vehicle_type_id":"4","last_reported":1727539809,"current_range_meters":3600,"station_id":"ce4bhb12rcd13ifvqem0","pricing_plan_id":"cebpf4jnsgd1na2vs0mg"},{"bike_id":"641975b5-1ac3-4578-8ba9-81b9722281df","system_id":"levelo_inurba_marseille","lat":43.30086,"lon":5.39072,"is_reserved":false,"is_disabled":false,"rental_uris":{"android":"levelo://app?vid=641975b5-1ac3-4578-8ba9-81b9722281df","ios":"levelo://app?vid=641975b5-1ac3-4578-8ba9-81b9722281df"},"vehicle_type_id":"4","last_reported":1727539809,"current_range_meters":30400,"station_id":"ce4bh192rcd13ifvqdb0","pricing_plan_id":"cebpf4jnsgd1na2vs0mg"},{"bike_id":"67f10b04-27c2-4902-8b8e-506c4ac38649","system_id":"levelo_inurba_marseille","lat":43.29916,"lon":5.37466,"is_reserved":false,"is_disabled":false,"rental_uris":{"android":"levelo://app?vid=67f10b04-27c2-4902-8b8e-506c4ac38649","ios":"levelo://app?vid=67f10b04-27c2-4902-8b8e-506c4ac38649"},"vehicle_type_id":"4","last_reported":1727539809,"current_range_meters":32000,"station_id":"ce4bgjh2rcd13ifvqbg0","pricing_plan_id":"cebpf4jnsgd1na2vs0mg"},{"bike_id":"0bbfc1e4-b762-4454-8669-e2912a861c77","system_id":"levelo_inurba_marseille","lat":43.2927,"lon":5.38446,"is_reserved":false,"is_disabled":false,"rental_uris":{"android":"levelo://app?vid=0bbfc1e4-b762-4454-8669-e2912a861c77","ios":"levelo://app?vid=0bbfc1e4-b762-4454-8669-e2912a861c77"},"vehicle_type_id":"4","last_reported":1727539809,"current_range_meters":32400,"station_id":"ce4bh692rcd13ifvqea0","pricing_plan_id":"cebpf4jnsgd1na2vs0mg"},{"bike_id":"15043f73-9cd0-4c0d-b3a6-581ad921c828","system_id":"levelo_inurba_marseille","lat":43.29195,"lon":5.35801,"is_reserved":false,"is_disabled":false,"rental_uris":{"android":"levelo://app?vid=15043f73-9cd0-4c0d-b3a6-581ad921c828","ios":"levelo://app?vid=15043f73-9cd0-4c0d-b3a6-581ad921c828"},"vehicle_type_id":"4","last_reported":1727539809,"current_range_meters":17200,"station_id":"ce4bhb12rcd13ifvqel0","pricing_plan_id":"cebpf4jnsgd1na2vs0mg"},{"bike_id":"59354317-2b98-46e7-8c16-4858e1ea505d","system_id":"levelo_inurba_marseille","lat":43.30948,"lon":5.3904,"is_reserved":false,"is_disabled":false,"rental_uris":{"android":"levelo://app?vid=59354317-2b98-46e7-8c16-4858e1ea505d","ios":"levelo://app?vid=59354317-2b98-46e7-8c16-4858e1ea505d"},"vehicle_type_id":"4","last_reported":1727539809,"current_range_meters":30000,"station_id":"ce4bgup2rcd13ifvqco0","pricing_plan_id":"cebpf4jnsgd1na2vs0mg"},{"bike_id":"cc13c78f-12f3-4502-aaeb-52b82de6174a","system_id":"levelo_inurba_marseille","lat":43.26055,"lon":5.39401,"is_reserved":false,"is_disabled":false,"rental_uris":{"android":"levelo://app?vid=cc13c78f-12f3-4502-aaeb-52b82de6174a","ios":"levelo://app?vid=cc13c78f-12f3-4502-aaeb-52b82de6174a"},"vehicle_type_id":"4","last_reported":1727539809,"current_range_meters":5600,"station_id":"ce4bhh92rcd13ifvqfj0","pricing_plan_id":"cebpf4jnsgd1na2vs0mg"},{"bike_id":"cb295ede-b51c-49e8-98ca-136548cdfb55","system_id":"levelo_inurba_marseille","lat":43.29271,"lon":5.36837,"is_reserved":false,"is_disabled":false,"rental_uris":{"android":"levelo://app?vid=cb295ede-b51c-49e8-98ca-136548cdfb55","ios":"levelo://app?vid=cb295ede-b51c-49e8-98ca-136548cdfb55"},"vehicle_type_id":"4","last_reported":1727539809,"current_range_meters":30000,"station_id":"ce4bhbp2rcd13ifvqesg","pricing_plan_id":"cebpf4jnsgd1na2vs0mg"},{"bike_id":"258e025d-f605-4338-84a0-17f713af0b8d","system_id":"levelo_inurba_marseille","lat":43.24806,"lon":5.37452,"is_reserved":false,"is_disabled":false,"rental_uris":{"android":"levelo://app?vid=258e025d-f605-4338-84a0-17f713af0b8d","ios":"levelo://app?vid=258e025d-f605-4338-84a0-17f713af0b8d"},"vehicle_type_id":"4","last_reported":1727539809,"current_range_meters":38800,"station_id":"ce4bhgh2rcd13ifvqfb0","pricing_plan_id":"cebpf4jnsgd1na2vs0mg"},{"bike_id":"988a7f0b-8392-44dc-a5d3-9ca683b7b572","system_id":"levelo_inurba_marseille","lat":43.30158,"lon":5.38091,"is_reserved":false,"is_disabled":false,"rental_uris":{"android":"levelo://app?vid=988a7f0b-8392-44dc-a5d3-9ca683b7b572","ios":"levelo://app?vid=988a7f0b-8392-44dc-a5d3-9ca683b7b572"},"vehicle_type_id":"4","last_reported":1727539809,"current_range_meters":38400,"station_id":"ce4bgjp2rcd13ifvqbh0","pricing_plan_id":"cebpf4jnsgd1na2vs0mg"},{"bike_id":"a2d0536d-93ba-4a3c-a1f3-0f7fac770de2","system_id":"levelo_inurba_marseille","lat":43.32662,"lon":5.40989,"is_reserved":false,"is_disabled":false,"rental_uris":{"android":"levelo://app?vid=a2d0536d-93ba-4a3c-a1f3-0f7fac770de2","ios":"levelo://app?vid=a2d0536d-93ba-4a3c-a1f3-0f7fac770de2"},"vehicle_type_id":"4","last_reported":1727539809,"current_range_meters":6800,"station_id":"ce4bhpp2rcd13ifvqhgg","pricing_plan_id":"cebpf4jnsgd1na2vs0mg"},{"bike_id":"1f313afb-1cf8-4bb7-8831-2c9f193c2d0c","system_id":"levelo_inurba_marseille","lat":43.24807,"lon":5.37457,"is_reserved":false,"is_disabled":false,"rental_uris":{"android":"levelo://app?vid=1f313afb-1cf8-4bb7-8831-2c9f193c2d0c","ios":"levelo://app?vid=1f313afb-1cf8-4bb7-8831-2c9f193c2d0c"},"vehicle_type_id":"4","last_reported":1727539809,"current_range_meters":40000,"station_id":"ce4bhgh2rcd13ifvqfb0","pricing_plan_id":"cebpf4jnsgd1na2vs0mg"},{"bike_id":"a63d4449-4f5a-4f1c-9a3c-27c8d74bd2a3","system_id":"levelo_inurba_marseille","lat":43.2439,"lon":5.37066,"is_reserved":false,"is_disabled":false,"rental_uris":{"android":"levelo://app?vid=a63d4449-4f5a-4f1c-9a3c-27c8d74bd2a3","ios":"levelo://app?vid=a63d4449-4f5a-4f1c-9a3c-27c8d74bd2a3"},"vehicle_type_id":"4","last_reported":1727539809,"current_range_meters":15200,"station_id":"ce4bhhh2rcd13ifvqfk0","pricing_plan_id":"cebpf4jnsgd1na2vs0mg"},{"bike_id":"0c379a78-6b2b-43d7-880a-cfd4b4b80e4c","system_id":"levelo_inurba_marseille","lat":43.29296,"lon":5.37162,"is_reserved":false,"is_disabled":false,"rental_uris":{"android":"levelo://app?vid=0c379a78-6b2b-43d7-880a-cfd4b4b80e4c","ios":"levelo://app?vid=0c379a78-6b2b-43d7-880a-cfd4b4b80e4c"},"vehicle_type_id":"4","last_reported":1727539809,"current_range_meters":38400,"station_id":"ce4bgh92rcd13ifvqb40","pricing_plan_id":"cebpf4jnsgd1na2vs0mg"},{"bike_id":"1216c16b-df6c-4d2a-bb1f-5ea99fd1d655","system_id":"levelo_inurba_marseille","lat":43.303101,"lon":5.368858,"is_reserved":false,"is_disabled":false,"rental_uris":{"android":"levelo://app?vid=1216c16b-df6c-4d2a-bb1f-5ea99fd1d655","ios":"levelo://app?vid=1216c16b-df6c-4d2a-bb1f-5ea99fd1d655"},"vehicle_type_id":"4","last_reported":1727539809,"current_range_meters":7200,"station_id":"ce4bgqh2rcd13ifvqc5g","pricing_plan_id":"cebpf4jnsgd1na2vs0mg"},{"bike_id":"1c59a3bd-5c6e-40a6-a733-d162a4e1b5e8","system_id":"levelo_inurba_marseille","lat":43.29977,"lon":5.3718,"is_reserved":false,"is_disabled":false,"rental_uris":{"android":"levelo://app?vid=1c59a3bd-5c6e-40a6-a733-d162a4e1b5e8","ios":"levelo://app?vid=1c59a3bd-5c6e-40a6-a733-d162a4e1b5e8"},"vehicle_type_id":"4","last_reported":1727539809,"current_range_meters":12800,"station_id":"ce4bgr92rcd13ifvqc7g","pricing_plan_id":"cebpf4jnsgd1na2vs0mg"},{"bike_id":"3c70977f-b0f7-4701-a2ba-1534fc728aac","system_id":"levelo_inurba_marseille","lat":43.27615,"lon":5.36114,"is_reserved":false,"is_disabled":false,"rental_uris":{"android":"levelo://app?vid=3c70977f-b0f7-4701-a2ba-1534fc728aac","ios":"levelo://app?vid=3c70977f-b0f7-4701-a2ba-1534fc728aac"},"vehicle_type_id":"4","last_reported":1727539809,"current_range_meters":15200,"station_id":"ce4bgj92rcd13ifvqbe0","pricing_plan_id":"cebpf4jnsgd1na2vs0mg"},{"bike_id":"bc7dc6a9-589f-4649-9e06-6ce7434d3293","system_id":"levelo_inurba_marseille","lat":43.2866,"lon":5.36351,"is_reserved":false,"is_disabled":false,"rental_uris":{"android":"levelo://app?vid=bc7dc6a9-589f-4649-9e06-6ce7434d3293","ios":"levelo://app?vid=bc7dc6a9-589f-4649-9e06-6ce7434d3293"},"vehicle_type_id":"4","last_reported":1727539809,"current_range_meters":24800,"station_id":"ce4bhah2rcd13ifvqej0","pricing_plan_id":"cebpf4jnsgd1na2vs0mg"},{"bike_id":"f8cd1665-2182-42bb-993d-799437deb95c","system_id":"levelo_inurba_marseille","lat":43.23188,"lon":5.35557,"is_reserved":false,"is_disabled":false,"rental_uris":{"android":"levelo://app?vid=f8cd1665-2182-42bb-993d-799437deb95c","ios":"levelo://app?vid=f8cd1665-2182-42bb-993d-799437deb95c"},"vehicle_type_id":"4","last_reported":1727539809,"current_range_meters":7200,"station_id":"ce4bhu92rcd13ifvqi70","pricing_plan_id":"cebpf4jnsgd1na2vs0mg"},{"bike_id":"bd1b70fa-a6e2-4db0-84a7-3df96ccc609d","system_id":"levelo_inurba_marseille","lat":43.27426,"lon":5.39413,"is_reserved":false,"is_disabled":false,"rental_uris":{"android":"levelo://app?vid=bd1b70fa-a6e2-4db0-84a7-3df96ccc609d","ios":"levelo://app?vid=bd1b70fa-a6e2-4db0-84a7-3df96ccc609d"},"vehicle_type_id":"4","last_reported":1727539809,"current_range_meters":32800,"station_id":"ce4bhdp2rcd13ifvqf20","pricing_plan_id":"cebpf4jnsgd1na2vs0mg"},{"bike_id":"e4afc0a2-5197-4d9e-b487-dccf2d337309","system_id":"levelo_inurba_marseille","lat":43.2827,"lon":5.35064,"is_reserved":false,"is_disabled":false,"rental_uris":{"android":"levelo://app?vid=e4afc0a2-5197-4d9e-b487-dccf2d337309","ios":"levelo://app?vid=e4afc0a2-5197-4d9e-b487-dccf2d337309"},"vehicle_type_id":"4","last_reported":1727539809,"current_range_meters":5600,"station_id":"ce4bhbp2rcd13ifvqerg","pricing_plan_id":"cebpf4jnsgd1na2vs0mg"},{"bike_id":"f1744a45-8cc1-43f0-a056-8fbc29251b34","system_id":"levelo_inurba_marseille","lat":43.29973,"lon":5.38496,"is_reserved":false,"is_disabled":false,"rental_uris":{"android":"levelo://app?vid=f1744a45-8cc1-43f0-a056-8fbc29251b34","ios":"levelo://app?vid=f1744a45-8cc1-43f0-a056-8fbc29251b34"},"vehicle_type_id":"4","last_reported":1727539809,"current_range_meters":7200,"station_id":"ce4bgj92rcd13ifvqbd0","pricing_plan_id":"cebpf4jnsgd1na2vs0mg"},{"bike_id":"c20aa169-0982-4da6-8a27-37e8c5a04ddc","system_id":"levelo_inurba_marseille","lat":43.24393,"lon":5.37066,"is_reserved":false,"is_disabled":false,"rental_uris":{"android":"levelo://app?vid=c20aa169-0982-4da6-8a27-37e8c5a04ddc","ios":"levelo://app?vid=c20aa169-0982-4da6-8a27-37e8c5a04ddc"},"vehicle_type_id":"4","last_reported":1727539809,"current_range_meters":28800,"station_id":"ce4bhhh2rcd13ifvqfk0","pricing_plan_id":"cebpf4jnsgd1na2vs0mg"},{"bike_id":"92d61c86-2f54-4d1e-9552-aebd2b517cb4","system_id":"levelo_inurba_marseille","lat":43.2657,"lon":5.39005,"is_reserved":false,"is_disabled":false,"rental_uris":{"android":"levelo://app?vid=92d61c86-2f54-4d1e-9552-aebd2b517cb4","ios":"levelo://app?vid=92d61c86-2f54-4d1e-9552-aebd2b517cb4"},"vehicle_type_id":"4","last_reported":1727539809,"current_range_meters":26000,"station_id":"ce4bhe12rcd13ifvqf30","pricing_plan_id":"cebpf4jnsgd1na2vs0mg"},{"bike_id":"98cb64c4-b057-4980-ac8c-eaa93863987c","system_id":"levelo_inurba_marseille","lat":43.31417,"lon":5.40291,"is_reserved":false,"is_disabled":false,"rental_uris":{"android":"levelo://app?vid=98cb64c4-b057-4980-ac8c-eaa93863987c","ios":"levelo://app?vid=98cb64c4-b057-4980-ac8c-eaa93863987c"},"vehicle_type_id":"4","last_reported":1727539809,"current_range_meters":28800,"station_id":"","pricing_plan_id":"cebpf4jnsgd1na2vs0mg"},{"bike_id":"be3d43c6-d695-4955-ad9b-57392bb76d57","system_id":"levelo_inurba_marseille","lat":43.30951,"lon":5.39027,"is_reserved":false,"is_disabled":false,"rental_uris":{"android":"levelo://app?vid=be3d43c6-d695-4955-ad9b-57392bb76d57","ios":"levelo://app?vid=be3d43c6-d695-4955-ad9b-57392bb76d57"},"vehicle_type_id":"4","last_reported":1727539809,"current_range_meters":20400,"station_id":"ce4bgup2rcd13ifvqco0","pricing_plan_id":"cebpf4jnsgd1na2vs0mg"},{"bike_id":"f81b0272-b21c-49a5-8d6e-cff2d78c5887","system_id":"levelo_inurba_marseille","lat":43.28849,"lon":5.35857,"is_reserved":false,"is_disabled":false,"rental_uris":{"android":"levelo://app?vid=f81b0272-b21c-49a5-8d6e-cff2d78c5887","ios":"levelo://app?vid=f81b0272-b21c-49a5-8d6e-cff2d78c5887"},"vehicle_type_id":"4","last_reported":1727539809,"current_range_meters":16400,"station_id":"ce4bhb12rcd13ifvqem0","pricing_plan_id":"cebpf4jnsgd1na2vs0mg"},{"bike_id":"3b170ecf-4bbb-421f-886d-94818fba1de8","system_id":"levelo_inurba_marseille","lat":43.28491,"lon":5.40019,"is_reserved":false,"is_disabled":false,"rental_uris":{"android":"levelo://app?vid=3b170ecf-4bbb-421f-886d-94818fba1de8","ios":"levelo://app?vid=3b170ecf-4bbb-421f-886d-94818fba1de8"},"vehicle_type_id":"4","last_reported":1727539809,"current_range_meters":36800,"station_id":"ce4bh2h2rcd13ifvqdh0","pricing_plan_id":"cebpf4jnsgd1na2vs0mg"},{"bike_id":"6122a88c-d0e4-4033-a23d-81b5c8637dfd","system_id":"levelo_inurba_marseille","lat":43.29032,"lon":5.38645,"is_reserved":false,"is_disabled":false,"rental_uris":{"android":"levelo://app?vid=6122a88c-d0e4-4033-a23d-81b5c8637dfd","ios":"levelo://app?vid=6122a88c-d0e4-4033-a23d-81b5c8637dfd"},"vehicle_type_id":"4","last_reported":1727539809,"current_range_meters":1600,"station_id":"ce4bh4p2rcd13ifvqe0g","pricing_plan_id":"cebpf4jnsgd1na2vs0mg"},{"bike_id":"1b5c59f8-89a9-4e46-93f7-af2461aa251a","system_id":"levelo_inurba_marseille","lat":43.23964,"lon":5.36629,"is_reserved":false,"is_disabled":false,"rental_uris":{"android":"levelo://app?vid=1b5c59f8-89a9-4e46-93f7-af2461aa251a","ios":"levelo://app?vid=1b5c59f8-89a9-4e46-93f7-af2461aa251a"},"vehicle_type_id":"4","last_reported":1727539809,"current_range_meters":9600,"station_id":"ce4bhi12rcd13ifvqfp0","pricing_plan_id":"cebpf4jnsgd1na2vs0mg"},{"bike_id":"ca7150be-e6ce-4a0c-9bff-0b82d4b35c5f","system_id":"levelo_inurba_marseille","lat":43.27178,"lon":5.40984,"is_reserved":false,"is_disabled":false,"rental_uris":{"android":"levelo://app?vid=ca7150be-e6ce-4a0c-9bff-0b82d4b35c5f","ios":"levelo://app?vid=ca7150be-e6ce-4a0c-9bff-0b82d4b35c5f"},"vehicle_type_id":"4","last_reported":1727539809,"current_range_meters":38000,"station_id":"ce4bhl12rcd13ifvqgf0","pricing_plan_id":"cebpf4jnsgd1na2vs0mg"},{"bike_id":"0363835e-d2f4-4497-a205-1db18f615e3a","system_id":"levelo_inurba_marseille","lat":43.29303,"lon":5.37471,"is_reserved":false,"is_disabled":false,"rental_uris":{"android":"levelo://app?vid=0363835e-d2f4-4497-a205-1db18f615e3a","ios":"levelo://app?vid=0363835e-d2f4-4497-a205-1db18f615e3a"},"vehicle_type_id":"4","last_reported":1727539809,"current_range_meters":24000,"station_id":"ce4bgi12rcd13ifvqb70","pricing_plan_id":"cebpf4jnsgd1na2vs0mg"},{"bike_id":"9c56d3f3-169f-4a84-8276-4d8a874d28c0","system_id":"levelo_inurba_marseille","lat":43.26936,"lon":5.38926,"is_reserved":false,"is_disabled":false,"rental_uris":{"android":"levelo://app?vid=9c56d3f3-169f-4a84-8276-4d8a874d28c0","ios":"levelo://app?vid=9c56d3f3-169f-4a84-8276-4d8a874d28c0"},"vehicle_type_id":"4","last_reported":1727539809,"current_range_meters":36800,"station_id":"ce4bhhh2rcd13ifvqfl0","pricing_plan_id":"cebpf4jnsgd1na2vs0mg"},{"bike_id":"244125dd-b0ed-4f4a-9d66-ed542380efdd","system_id":"levelo_inurba_marseille","lat":43.29429,"lon":5.38619,"is_reserved":false,"is_disabled":false,"rental_uris":{"android":"levelo://app?vid=244125dd-b0ed-4f4a-9d66-ed542380efdd","ios":"levelo://app?vid=244125dd-b0ed-4f4a-9d66-ed542380efdd"},"vehicle_type_id":"4","last_reported":1727539809,"current_range_meters":34800,"station_id":"ce4bh2h2rcd13ifvqdh0","pricing_plan_id":"cebpf4jnsgd1na2vs0mg"},{"bike_id":"9da5050b-2fe3-418d-a909-dcdb659b7076","system_id":"levelo_inurba_marseille","lat":43.2936,"lon":5.37837,"is_reserved":false,"is_disabled":false,"rental_uris":{"android":"levelo://app?vid=9da5050b-2fe3-418d-a909-dcdb659b7076","ios":"levelo://app?vid=9da5050b-2fe3-418d-a909-dcdb659b7076"},"vehicle_type_id":"4","last_reported":1727539809,"current_range_meters":14800,"station_id":"ce4bgjh2rcd13ifvqbf0","pricing_plan_id":"cebpf4jnsgd1na2vs0mg"},{"bike_id":"bf4aa265-cfa0-489a-81b7-6dae8db26b48","system_id":"levelo_inurba_marseille","lat":43.26506,"lon":5.39535,"is_reserved":false,"is_disabled":false,"rental_uris":{"android":"levelo://app?vid=bf4aa265-cfa0-489a-81b7-6dae8db26b48","ios":"levelo://app?vid=bf4aa265-cfa0-489a-81b7-6dae8db26b48"},"vehicle_type_id":"4","last_reported":1727539809,"current_range_meters":14400,"station_id":"ce4bhi12rcd13ifvqfq0","pricing_plan_id":"cebpf4jnsgd1na2vs0mg"},{"bike_id":"34312402-666c-454d-895a-0b2eb60ac375","system_id":"levelo_inurba_marseille","lat":43.271819,"lon":5.421789,"is_reserved":false,"is_disabled":false,"rental_uris":{"android":"levelo://app?vid=34312402-666c-454d-895a-0b2eb60ac375","ios":"levelo://app?vid=34312402-666c-454d-895a-0b2eb60ac375"},"vehicle_type_id":"4","last_reported":1727539809,"current_range_meters":31200,"station_id":"ce4bhk92rcd13ifvqgb0","pricing_plan_id":"cebpf4jnsgd1na2vs0mg"},{"bike_id":"d2050c85-c29a-4ee3-81e1-e7e7c304d8f1","system_id":"levelo_inurba_marseille","lat":43.30545,"lon":5.36717,"is_reserved":false,"is_disabled":false,"rental_uris":{"android":"levelo://app?vid=d2050c85-c29a-4ee3-81e1-e7e7c304d8f1","ios":"levelo://app?vid=d2050c85-c29a-4ee3-81e1-e7e7c304d8f1"},"vehicle_type_id":"4","last_reported":1727539809,"current_range_meters":30800,"station_id":"ce4bgrp2rcd13ifvqc9g","pricing_plan_id":"cebpf4jnsgd1na2vs0mg"},{"bike_id":"eb35b74a-e100-4849-baf8-86135e114bef","system_id":"levelo_inurba_marseille","lat":43.23157,"lon":5.437,"is_reserved":false,"is_disabled":false,"rental_uris":{"android":"levelo://app?vid=eb35b74a-e100-4849-baf8-86135e114bef","ios":"levelo://app?vid=eb35b74a-e100-4849-baf8-86135e114bef"},"vehicle_type_id":"4","last_reported":1727539809,"current_range_meters":37600,"station_id":"ce4bhmp2rcd13ifvqgog","pricing_plan_id":"cebpf4jnsgd1na2vs0mg"},{"bike_id":"5c3b8ee2-9428-4552-b70d-3573fc8d8649","system_id":"levelo_inurba_marseille","lat":43.23152,"lon":5.43723,"is_reserved":false,"is_disabled":false,"rental_uris":{"android":"levelo://app?vid=5c3b8ee2-9428-4552-b70d-3573fc8d8649","ios":"levelo://app?vid=5c3b8ee2-9428-4552-b70d-3573fc8d8649"},"vehicle_type_id":"4","last_reported":1727539809,"current_range_meters":8000,"station_id":"ce4bhg12rcd13ifvqf80","pricing_plan_id":"cebpf4jnsgd1na2vs0mg"},{"bike_id":"34c92d90-9ebe-4a1e-9314-0010adda252b","system_id":"levelo_inurba_marseille","lat":43.29778,"lon":5.39332,"is_reserved":false,"is_disabled":false,"rental_uris":{"android":"levelo://app?vid=34c92d90-9ebe-4a1e-9314-0010adda252b","ios":"levelo://app?vid=34c92d90-9ebe-4a1e-9314-0010adda252b"},"vehicle_type_id":"4","last_reported":1727539809,"current_range_meters":14800,"station_id":"chh1huq6cuj3fo74tm60","pricing_plan_id":"cebpf4jnsgd1na2vs0mg"},{"bike_id":"b7edec61-05a9-4448-8725-131f3fa0925d","system_id":"levelo_inurba_marseille","lat":43.30137,"lon":5.37427,"is_reserved":false,"is_disabled":false,"rental_uris":{"android":"levelo://app?vid=b7edec61-05a9-4448-8725-131f3fa0925d","ios":"levelo://app?vid=b7edec61-05a9-4448-8725-131f3fa0925d"},"vehicle_type_id":"4","last_reported":1727539809,"current_range_meters":38800,"station_id":"ce4bgs92rcd13ifvqcc0","pricing_plan_id":"cebpf4jnsgd1na2vs0mg"},{"bike_id":"ee793be9-e5a6-4680-a4f0-69863964e071","system_id":"levelo_inurba_marseille","lat":43.26204,"lon":5.37928,"is_reserved":false,"is_disabled":false,"rental_uris":{"android":"levelo://app?vid=ee793be9-e5a6-4680-a4f0-69863964e071","ios":"levelo://app?vid=ee793be9-e5a6-4680-a4f0-69863964e071"},"vehicle_type_id":"4","last_reported":1727539809,"current_range_meters":13600,"station_id":"ce4bhjp2rcd13ifvqg90","pricing_plan_id":"cebpf4jnsgd1na2vs0mg"},{"bike_id":"1e514b98-6e1c-45e7-99e3-24ae397ec8e2","system_id":"levelo_inurba_marseille","lat":43.30464,"lon":5.37909,"is_reserved":false,"is_disabled":false,"rental_uris":{"android":"levelo://app?vid=1e514b98-6e1c-45e7-99e3-24ae397ec8e2","ios":"levelo://app?vid=1e514b98-6e1c-45e7-99e3-24ae397ec8e2"},"vehicle_type_id":"4","last_reported":1727539809,"current_range_meters":17200,"station_id":"ce4bgup2rcd13ifvqcn0","pricing_plan_id":"cebpf4jnsgd1na2vs0mg"},{"bike_id":"715cb632-0517-4677-b73a-7e44de62bdc0","system_id":"levelo_inurba_marseille","lat":43.23152,"lon":5.43726,"is_reserved":false,"is_disabled":false,"rental_uris":{"android":"levelo://app?vid=715cb632-0517-4677-b73a-7e44de62bdc0","ios":"levelo://app?vid=715cb632-0517-4677-b73a-7e44de62bdc0"},"vehicle_type_id":"4","last_reported":1727539809,"current_range_meters":9200,"station_id":"ce4bhmp2rcd13ifvqgog","pricing_plan_id":"cebpf4jnsgd1na2vs0mg"},{"bike_id":"ceda1303-8e1d-4d6f-8792-80ce6a3025d5","system_id":"levelo_inurba_marseille","lat":43.31722,"lon":5.43678,"is_reserved":false,"is_disabled":false,"rental_uris":{"android":"levelo://app?vid=ceda1303-8e1d-4d6f-8792-80ce6a3025d5","ios":"levelo://app?vid=ceda1303-8e1d-4d6f-8792-80ce6a3025d5"},"vehicle_type_id":"4","last_reported":1727539809,"current_range_meters":5600,"station_id":"ce4bhp92rcd13ifvqhcg","pricing_plan_id":"cebpf4jnsgd1na2vs0mg"},{"bike_id":"61e10d90-1bb9-4c62-abe7-5b2652018e77","system_id":"levelo_inurba_marseille","lat":43.30308,"lon":5.36908,"is_reserved":false,"is_disabled":false,"rental_uris":{"android":"levelo://app?vid=61e10d90-1bb9-4c62-abe7-5b2652018e77","ios":"levelo://app?vid=61e10d90-1bb9-4c62-abe7-5b2652018e77"},"vehicle_type_id":"4","last_reported":1727539809,"current_range_meters":36400,"station_id":"ce4bgqh2rcd13ifvqc5g","pricing_plan_id":"cebpf4jnsgd1na2vs0mg"},{"bike_id":"9d2cf83d-d9a0-4f6b-b022-5a5d0b1b2f8d","system_id":"levelo_inurba_marseille","lat":43.29415,"lon":5.38628,"is_reserved":false,"is_disabled":false,"rental_uris":{"android":"levelo://app?vid=9d2cf83d-d9a0-4f6b-b022-5a5d0b1b2f8d","ios":"levelo://app?vid=9d2cf83d-d9a0-4f6b-b022-5a5d0b1b2f8d"},"vehicle_type_id":"4","last_reported":1727539809,"current_range_meters":6800,"station_id":"ce4bh2h2rcd13ifvqdh0","pricing_plan_id":"cebpf4jnsgd1na2vs0mg"},{"bike_id":"8eb5911f-c95e-4f31-a6d6-b3cd459f46bc","system_id":"levelo_inurba_marseille","lat":43.32472,"lon":5.36558,"is_reserved":false,"is_disabled":false,"rental_uris":{"android":"levelo://app?vid=8eb5911f-c95e-4f31-a6d6-b3cd459f46bc","ios":"levelo://app?vid=8eb5911f-c95e-4f31-a6d6-b3cd459f46bc"},"vehicle_type_id":"4","last_reported":1727539809,"current_range_meters":4400,"station_id":"ce4bhs12rcd13ifvqhvg","pricing_plan_id":"cebpf4jnsgd1na2vs0mg"},{"bike_id":"c049a602-ba08-44c1-a4f9-1cbd185f086f","system_id":"levelo_inurba_marseille","lat":43.22926,"lon":5.35377,"is_reserved":false,"is_disabled":false,"rental_uris":{"android":"levelo://app?vid=c049a602-ba08-44c1-a4f9-1cbd185f086f","ios":"levelo://app?vid=c049a602-ba08-44c1-a4f9-1cbd185f086f"},"vehicle_type_id":"4","last_reported":1727539809,"current_range_meters":38400,"station_id":"cpo3532slgdg3j2ikp40","pricing_plan_id":"cebpf4jnsgd1na2vs0mg"},{"bike_id":"2617c06e-e17f-43d0-bd86-b5a25b7cd217","system_id":"levelo_inurba_marseille","lat":43.27425,"lon":5.3941,"is_reserved":false,"is_disabled":false,"rental_uris":{"android":"levelo://app?vid=2617c06e-e17f-43d0-bd86-b5a25b7cd217","ios":"levelo://app?vid=2617c06e-e17f-43d0-bd86-b5a25b7cd217"},"vehicle_type_id":"4","last_reported":1727539809,"current_range_meters":8000,"station_id":"ce4bhdp2rcd13ifvqf20","pricing_plan_id":"cebpf4jnsgd1na2vs0mg"},{"bike_id":"8561e4c7-4d0a-42ee-837d-8db6ef23a787","system_id":"levelo_inurba_marseille","lat":43.27617,"lon":5.3611,"is_reserved":false,"is_disabled":false,"rental_uris":{"android":"levelo://app?vid=8561e4c7-4d0a-42ee-837d-8db6ef23a787","ios":"levelo://app?vid=8561e4c7-4d0a-42ee-837d-8db6ef23a787"},"vehicle_type_id":"4","last_reported":1727539809,"current_range_meters":16400,"station_id":"ce4bgj92rcd13ifvqbe0","pricing_plan_id":"cebpf4jnsgd1na2vs0mg"},{"bike_id":"d9b0248e-4fe9-4b6d-8c8d-c5e07ed87016","system_id":"levelo_inurba_marseille","lat":43.2955,"lon":5.42291,"is_reserved":false,"is_disabled":false,"rental_uris":{"android":"levelo://app?vid=d9b0248e-4fe9-4b6d-8c8d-c5e07ed87016","ios":"levelo://app?vid=d9b0248e-4fe9-4b6d-8c8d-c5e07ed87016"},"vehicle_type_id":"4","last_reported":1727539809,"current_range_meters":22000,"station_id":"ce4bhph2rcd13ifvqhdg","pricing_plan_id":"cebpf4jnsgd1na2vs0mg"},{"bike_id":"2c2bc187-328d-4c9e-a687-59de39de986d","system_id":"levelo_inurba_marseille","lat":43.23196,"lon":5.35556,"is_reserved":false,"is_disabled":false,"rental_uris":{"android":"levelo://app?vid=2c2bc187-328d-4c9e-a687-59de39de986d","ios":"levelo://app?vid=2c2bc187-328d-4c9e-a687-59de39de986d"},"vehicle_type_id":"4","last_reported":1727539809,"current_range_meters":7200,"station_id":"ce4bhu92rcd13ifvqi70","pricing_plan_id":"cebpf4jnsgd1na2vs0mg"},{"bike_id":"c072c389-0316-40e5-857e-db4da2524e5c","system_id":"levelo_inurba_marseille","lat":43.29274,"lon":5.36838,"is_reserved":false,"is_disabled":false,"rental_uris":{"android":"levelo://app?vid=c072c389-0316-40e5-857e-db4da2524e5c","ios":"levelo://app?vid=c072c389-0316-40e5-857e-db4da2524e5c"},"vehicle_type_id":"4","last_reported":1727539809,"current_range_meters":36000,"station_id":"ce4bhbp2rcd13ifvqesg","pricing_plan_id":"cebpf4jnsgd1na2vs0mg"},{"bike_id":"9efdf05c-571e-4c3a-a0bf-af0e0fbc032d","system_id":"levelo_inurba_marseille","lat":43.25092,"lon":5.39515,"is_reserved":false,"is_disabled":false,"rental_uris":{"android":"levelo://app?vid=9efdf05c-571e-4c3a-a0bf-af0e0fbc032d","ios":"levelo://app?vid=9efdf05c-571e-4c3a-a0bf-af0e0fbc032d"},"vehicle_type_id":"4","last_reported":1727539809,"current_range_meters":23200,"station_id":"ce4bhm12rcd13ifvqgkg","pricing_plan_id":"cebpf4jnsgd1na2vs0mg"},{"bike_id":"d31f8daa-636d-44cc-87f9-977814eb38d0","system_id":"levelo_inurba_marseille","lat":43.3055,"lon":5.36706,"is_reserved":false,"is_disabled":false,"rental_uris":{"android":"levelo://app?vid=d31f8daa-636d-44cc-87f9-977814eb38d0","ios":"levelo://app?vid=d31f8daa-636d-44cc-87f9-977814eb38d0"},"vehicle_type_id":"4","last_reported":1727539809,"current_range_meters":25200,"station_id":"ce4bgrp2rcd13ifvqc9g","pricing_plan_id":"cebpf4jnsgd1na2vs0mg"},{"bike_id":"6b4676b4-342a-4c1f-a13d-81e6837280ad","system_id":"levelo_inurba_marseille","lat":43.321686,"lon":5.406934,"is_reserved":false,"is_disabled":false,"rental_uris":{"android":"levelo://app?vid=6b4676b4-342a-4c1f-a13d-81e6837280ad","ios":"levelo://app?vid=6b4676b4-342a-4c1f-a13d-81e6837280ad"},"vehicle_type_id":"4","last_reported":1727539809,"current_range_meters":28400,"station_id":"ce4bhq12rcd13ifvqhig","pricing_plan_id":"cebpf4jnsgd1na2vs0mg"},{"bike_id":"275c91b7-df54-445e-8c9e-c5f2f2082c5a","system_id":"levelo_inurba_marseille","lat":43.297,"lon":5.3769,"is_reserved":false,"is_disabled":false,"rental_uris":{"android":"levelo://app?vid=275c91b7-df54-445e-8c9e-c5f2f2082c5a","ios":"levelo://app?vid=275c91b7-df54-445e-8c9e-c5f2f2082c5a"},"vehicle_type_id":"4","last_reported":1727539809,"current_range_meters":11200,"station_id":"ce4bgkh2rcd13ifvqbl0","pricing_plan_id":"cebpf4jnsgd1na2vs0mg"},{"bike_id":"33f264f7-59da-4fc8-831c-958dce74f649","system_id":"levelo_inurba_marseille","lat":43.30536,"lon":5.36545,"is_reserved":false,"is_disabled":false,"rental_uris":{"android":"levelo://app?vid=33f264f7-59da-4fc8-831c-958dce74f649","ios":"levelo://app?vid=33f264f7-59da-4fc8-831c-958dce74f649"},"vehicle_type_id":"4","last_reported":1727539809,"current_range_meters":30400,"station_id":"ce4bgs12rcd13ifvqcag","pricing_plan_id":"cebpf4jnsgd1na2vs0mg"},{"bike_id":"8537bd26-c143-480b-ac7c-86d2b5338011","system_id":"levelo_inurba_marseille","lat":43.26215,"lon":5.37441,"is_reserved":false,"is_disabled":false,"rental_uris":{"android":"levelo://app?vid=8537bd26-c143-480b-ac7c-86d2b5338011","ios":"levelo://app?vid=8537bd26-c143-480b-ac7c-86d2b5338011"},"vehicle_type_id":"4","last_reported":1727539809,"current_range_meters":4800,"station_id":"ce4bhgp2rcd13ifvqfc0","pricing_plan_id":"cebpf4jnsgd1na2vs0mg"},{"bike_id":"0701cf2a-674c-4c9d-af1e-6650acbaaf74","system_id":"levelo_inurba_marseille","lat":43.28376,"lon":5.37298,"is_reserved":false,"is_disabled":false,"rental_uris":{"android":"levelo://app?vid=0701cf2a-674c-4c9d-af1e-6650acbaaf74","ios":"levelo://app?vid=0701cf2a-674c-4c9d-af1e-6650acbaaf74"},"vehicle_type_id":"4","last_reported":1727539809,"current_range_meters":15200,"station_id":"","pricing_plan_id":"cebpf4jnsgd1na2vs0mg"},{"bike_id":"4a2b3099-b3a7-4872-8384-c1ded8c76e41","system_id":"levelo_inurba_marseille","lat":43.25719,"lon":5.41111,"is_reserved":false,"is_disabled":false,"rental_uris":{"android":"levelo://app?vid=4a2b3099-b3a7-4872-8384-c1ded8c76e41","ios":"levelo://app?vid=4a2b3099-b3a7-4872-8384-c1ded8c76e41"},"vehicle_type_id":"4","last_reported":1727539809,"current_range_meters":7200,"station_id":"ce4bhkp2rcd13ifvqgd0","pricing_plan_id":"cebpf4jnsgd1na2vs0mg"},{"bike_id":"48dd8be6-53cb-4e56-80e9-0a26cb8e43ce","system_id":"levelo_inurba_marseille","lat":43.28149,"lon":5.42649,"is_reserved":false,"is_disabled":false,"rental_uris":{"android":"levelo://app?vid=48dd8be6-53cb-4e56-80e9-0a26cb8e43ce","ios":"levelo://app?vid=48dd8be6-53cb-4e56-80e9-0a26cb8e43ce"},"vehicle_type_id":"4","last_reported":1727539809,"current_range_meters":32800,"station_id":"ce4bhnh2rcd13ifvqgug","pricing_plan_id":"cebpf4jnsgd1na2vs0mg"},{"bike_id":"38da95a6-89bf-4be1-9437-2e50c153d063","system_id":"levelo_inurba_marseille","lat":43.25498,"lon":5.37649,"is_reserved":false,"is_disabled":false,"rental_uris":{"android":"levelo://app?vid=38da95a6-89bf-4be1-9437-2e50c153d063","ios":"levelo://app?vid=38da95a6-89bf-4be1-9437-2e50c153d063"},"vehicle_type_id":"4","last_reported":1727539809,"current_range_meters":20800,"station_id":"ce4bhh12rcd13ifvqff0","pricing_plan_id":"cebpf4jnsgd1na2vs0mg"},{"bike_id":"171c6e85-8719-43c8-8116-af39a4f62f43","system_id":"levelo_inurba_marseille","lat":43.29803,"lon":5.381,"is_reserved":false,"is_disabled":false,"rental_uris":{"android":"levelo://app?vid=171c6e85-8719-43c8-8116-af39a4f62f43","ios":"levelo://app?vid=171c6e85-8719-43c8-8116-af39a4f62f43"},"vehicle_type_id":"4","last_reported":1727539809,"current_range_meters":14800,"station_id":"ce4bgip2rcd13ifvqbb0","pricing_plan_id":"cebpf4jnsgd1na2vs0mg"},{"bike_id":"377ad4b6-beeb-4567-bf42-a9cd5b0c767b","system_id":"levelo_inurba_marseille","lat":43.28105,"lon":5.37831,"is_reserved":false,"is_disabled":false,"rental_uris":{"android":"levelo://app?vid=377ad4b6-beeb-4567-bf42-a9cd5b0c767b","ios":"levelo://app?vid=377ad4b6-beeb-4567-bf42-a9cd5b0c767b"},"vehicle_type_id":"4","last_reported":1727539809,"current_range_meters":2000,"station_id":"ce4bha12rcd13ifvqee0","pricing_plan_id":"cebpf4jnsgd1na2vs0mg"},{"bike_id":"6cdca13d-24d1-4302-912a-54d18c748242","system_id":"levelo_inurba_marseille","lat":43.31083,"lon":5.40132,"is_reserved":false,"is_disabled":false,"rental_uris":{"android":"levelo://app?vid=6cdca13d-24d1-4302-912a-54d18c748242","ios":"levelo://app?vid=6cdca13d-24d1-4302-912a-54d18c748242"},"vehicle_type_id":"4","last_reported":1727539809,"current_range_meters":8800,"station_id":"","pricing_plan_id":"cebpf4jnsgd1na2vs0mg"},{"bike_id":"da970ec7-c9f9-4cc2-bc0f-220ade7e509e","system_id":"levelo_inurba_marseille","lat":43.29707,"lon":5.36611,"is_reserved":false,"is_disabled":false,"rental_uris":{"android":"levelo://app?vid=da970ec7-c9f9-4cc2-bc0f-220ade7e509e","ios":"levelo://app?vid=da970ec7-c9f9-4cc2-bc0f-220ade7e509e"},"vehicle_type_id":"4","last_reported":1727539809,"current_range_meters":5600,"station_id":"ce4bgn12rcd13ifvqbt0","pricing_plan_id":"cebpf4jnsgd1na2vs0mg"},{"bike_id":"43a5593b-3cb1-4e37-af74-891624828909","system_id":"levelo_inurba_marseille","lat":43.29173,"lon":5.37158,"is_reserved":false,"is_disabled":false,"rental_uris":{"android":"levelo://app?vid=43a5593b-3cb1-4e37-af74-891624828909","ios":"levelo://app?vid=43a5593b-3cb1-4e37-af74-891624828909"},"vehicle_type_id":"4","last_reported":1727539809,"current_range_meters":38800,"station_id":"ce4bha92rcd13ifvqeh0","pricing_plan_id":"cebpf4jnsgd1na2vs0mg"},{"bike_id":"84d2be3e-daa5-4b81-b65e-90c077780fb8","system_id":"levelo_inurba_marseille","lat":43.279107,"lon":5.3802,"is_reserved":false,"is_disabled":false,"rental_uris":{"android":"levelo://app?vid=84d2be3e-daa5-4b81-b65e-90c077780fb8","ios":"levelo://app?vid=84d2be3e-daa5-4b81-b65e-90c077780fb8"},"vehicle_type_id":"4","last_reported":1727539809,"current_range_meters":11600,"station_id":"ce4bhf92rcd13ifvqf50","pricing_plan_id":"cebpf4jnsgd1na2vs0mg"},{"bike_id":"b49d23a5-c31c-43f1-8c3e-42b6961ed155","system_id":"levelo_inurba_marseille","lat":43.2782,"lon":5.4072,"is_reserved":false,"is_disabled":false,"rental_uris":{"android":"levelo://app?vid=b49d23a5-c31c-43f1-8c3e-42b6961ed155","ios":"levelo://app?vid=b49d23a5-c31c-43f1-8c3e-42b6961ed155"},"vehicle_type_id":"4","last_reported":1727539809,"current_range_meters":30800,"station_id":"ce4bhnh2rcd13ifvqgtg","pricing_plan_id":"cebpf4jnsgd1na2vs0mg"},{"bike_id":"da2e7afb-45a7-4193-9960-716c0aa1657b","system_id":"levelo_inurba_marseille","lat":43.32294,"lon":5.38259,"is_reserved":false,"is_disabled":false,"rental_uris":{"android":"levelo://app?vid=da2e7afb-45a7-4193-9960-716c0aa1657b","ios":"levelo://app?vid=da2e7afb-45a7-4193-9960-716c0aa1657b"},"vehicle_type_id":"4","last_reported":1727539809,"current_range_meters":39200,"station_id":"ce4bhr12rcd13ifvqhqg","pricing_plan_id":"cebpf4jnsgd1na2vs0mg"},{"bike_id":"f4e15ca9-1898-48d3-a2a3-178470996f4e","system_id":"levelo_inurba_marseille","lat":43.26205,"lon":5.37926,"is_reserved":false,"is_disabled":false,"rental_uris":{"android":"levelo://app?vid=f4e15ca9-1898-48d3-a2a3-178470996f4e","ios":"levelo://app?vid=f4e15ca9-1898-48d3-a2a3-178470996f4e"},"vehicle_type_id":"4","last_reported":1727539809,"current_range_meters":36800,"station_id":"ce4bhjp2rcd13ifvqg90","pricing_plan_id":"cebpf4jnsgd1na2vs0mg"},{"bike_id":"3c93fbbd-8622-4242-a41d-d2bb9dd345f2","system_id":"levelo_inurba_marseille","lat":43.25719,"lon":5.41118,"is_reserved":false,"is_disabled":false,"rental_uris":{"android":"levelo://app?vid=3c93fbbd-8622-4242-a41d-d2bb9dd345f2","ios":"levelo://app?vid=3c93fbbd-8622-4242-a41d-d2bb9dd345f2"},"vehicle_type_id":"4","last_reported":1727539809,"current_range_meters":6400,"station_id":"ce4bhkp2rcd13ifvqgd0","pricing_plan_id":"cebpf4jnsgd1na2vs0mg"},{"bike_id":"13418fd9-173b-4832-8916-201d311a373e","system_id":"levelo_inurba_marseille","lat":43.29006,"lon":5.3562,"is_reserved":false,"is_disabled":false,"rental_uris":{"android":"levelo://app?vid=13418fd9-173b-4832-8916-201d311a373e","ios":"levelo://app?vid=13418fd9-173b-4832-8916-201d311a373e"},"vehicle_type_id":"4","last_reported":1727539809,"current_range_meters":16400,"station_id":"ce4bhb92rcd13ifvqen0","pricing_plan_id":"cebpf4jnsgd1na2vs0mg"},{"bike_id":"461e340d-39c6-4038-afc1-a90ec854c734","system_id":"levelo_inurba_marseille","lat":43.29558,"lon":5.37512,"is_reserved":false,"is_disabled":false,"rental_uris":{"android":"levelo://app?vid=461e340d-39c6-4038-afc1-a90ec854c734","ios":"levelo://app?vid=461e340d-39c6-4038-afc1-a90ec854c734"},"vehicle_type_id":"4","last_reported":1727539809,"current_range_meters":16000,"station_id":"ce4bgh92rcd13ifvqb50","pricing_plan_id":"cebpf4jnsgd1na2vs0mg"},{"bike_id":"bee020bb-eff1-460c-942a-3e5e3324ae01","system_id":"levelo_inurba_marseille","lat":43.23068,"lon":5.355,"is_reserved":false,"is_disabled":false,"rental_uris":{"android":"levelo://app?vid=bee020bb-eff1-460c-942a-3e5e3324ae01","ios":"levelo://app?vid=bee020bb-eff1-460c-942a-3e5e3324ae01"},"vehicle_type_id":"4","last_reported":1727539809,"current_range_meters":38000,"station_id":"cpo3342slgdg3j2ifvpg","pricing_plan_id":"cebpf4jnsgd1na2vs0mg"},{"bike_id":"3407da71-e9f5-4375-9956-506983640a2f","system_id":"levelo_inurba_marseille","lat":43.28995,"lon":5.37588,"is_reserved":false,"is_disabled":false,"rental_uris":{"android":"levelo://app?vid=3407da71-e9f5-4375-9956-506983640a2f","ios":"levelo://app?vid=3407da71-e9f5-4375-9956-506983640a2f"},"vehicle_type_id":"4","last_reported":1727539809,"current_range_meters":28000,"station_id":"ce4bh692rcd13ifvqe90","pricing_plan_id":"cebpf4jnsgd1na2vs0mg"},{"bike_id":"a356ea74-71bf-4955-9e54-b181f9d3d0b1","system_id":"levelo_inurba_marseille","lat":43.25865,"lon":5.39903,"is_reserved":false,"is_disabled":false,"rental_uris":{"android":"levelo://app?vid=a356ea74-71bf-4955-9e54-b181f9d3d0b1","ios":"levelo://app?vid=a356ea74-71bf-4955-9e54-b181f9d3d0b1"},"vehicle_type_id":"4","last_reported":1727539809,"current_range_meters":29600,"station_id":"ce4bhl92rcd13ifvqghg","pricing_plan_id":"cebpf4jnsgd1na2vs0mg"},{"bike_id":"eb74d917-9f5c-4e55-9a8d-c5beaa4685eb","system_id":"levelo_inurba_marseille","lat":43.24662,"lon":5.38169,"is_reserved":false,"is_disabled":false,"rental_uris":{"android":"levelo://app?vid=eb74d917-9f5c-4e55-9a8d-c5beaa4685eb","ios":"levelo://app?vid=eb74d917-9f5c-4e55-9a8d-c5beaa4685eb"},"vehicle_type_id":"4","last_reported":1727539809,"current_range_meters":30000,"station_id":"ce4bhih2rcd13ifvqfr0","pricing_plan_id":"cebpf4jnsgd1na2vs0mg"},{"bike_id":"a228e209-ecf5-43e9-afe5-9c3e3c18124c","system_id":"levelo_inurba_marseille","lat":43.30893,"lon":5.371892,"is_reserved":false,"is_disabled":false,"rental_uris":{"android":"levelo://app?vid=a228e209-ecf5-43e9-afe5-9c3e3c18124c","ios":"levelo://app?vid=a228e209-ecf5-43e9-afe5-9c3e3c18124c"},"vehicle_type_id":"4","last_reported":1727539809,"current_range_meters":24400,"station_id":"ce4bguh2rcd13ifvqckg","pricing_plan_id":"cebpf4jnsgd1na2vs0mg"},{"bike_id":"28f69e3e-a8c5-45e5-a8aa-ef25c4dd14a9","system_id":"levelo_inurba_marseille","lat":43.30602,"lon":5.37233,"is_reserved":false,"is_disabled":false,"rental_uris":{"android":"levelo://app?vid=28f69e3e-a8c5-45e5-a8aa-ef25c4dd14a9","ios":"levelo://app?vid=28f69e3e-a8c5-45e5-a8aa-ef25c4dd14a9"},"vehicle_type_id":"4","last_reported":1727539809,"current_range_meters":18000,"station_id":"ce4bhr92rcd13ifvqhrg","pricing_plan_id":"cebpf4jnsgd1na2vs0mg"},{"bike_id":"d683260e-cf35-4f18-b4a8-e7e6cd00a9bd","system_id":"levelo_inurba_marseille","lat":43.25001,"lon":5.38942,"is_reserved":false,"is_disabled":false,"rental_uris":{"android":"levelo://app?vid=d683260e-cf35-4f18-b4a8-e7e6cd00a9bd","ios":"levelo://app?vid=d683260e-cf35-4f18-b4a8-e7e6cd00a9bd"},"vehicle_type_id":"4","last_reported":1727539809,"current_range_meters":24000,"station_id":"ce4bhgp2rcd13ifvqfd0","pricing_plan_id":"cebpf4jnsgd1na2vs0mg"},{"bike_id":"b219ffa8-062f-4555-aee7-940d50357d55","system_id":"levelo_inurba_marseille","lat":43.32544,"lon":5.41441,"is_reserved":false,"is_disabled":false,"rental_uris":{"android":"levelo://app?vid=b219ffa8-062f-4555-aee7-940d50357d55","ios":"levelo://app?vid=b219ffa8-062f-4555-aee7-940d50357d55"},"vehicle_type_id":"4","last_reported":1727539809,"current_range_meters":37600,"station_id":"ce4bhq12rcd13ifvqhhg","pricing_plan_id":"cebpf4jnsgd1na2vs0mg"},{"bike_id":"275b0a25-1a9f-498c-9202-be550b06c3de","system_id":"levelo_inurba_marseille","lat":43.32291,"lon":5.38279,"is_reserved":false,"is_disabled":false,"rental_uris":{"android":"levelo://app?vid=275b0a25-1a9f-498c-9202-be550b06c3de","ios":"levelo://app?vid=275b0a25-1a9f-498c-9202-be550b06c3de"},"vehicle_type_id":"4","last_reported":1727539809,"current_range_meters":32800,"station_id":"ce4bhr12rcd13ifvqhqg","pricing_plan_id":"cebpf4jnsgd1na2vs0mg"},{"bike_id":"a840744e-f5ba-493b-a121-a825bd5d67de","system_id":"levelo_inurba_marseille","lat":43.2737,"lon":5.36255,"is_reserved":false,"is_disabled":false,"rental_uris":{"android":"levelo://app?vid=a840744e-f5ba-493b-a121-a825bd5d67de","ios":"levelo://app?vid=a840744e-f5ba-493b-a121-a825bd5d67de"},"vehicle_type_id":"4","last_reported":1727539809,"current_range_meters":38400,"station_id":"ce4bhbh2rcd13ifvqeo0","pricing_plan_id":"cebpf4jnsgd1na2vs0mg"},{"bike_id":"e0448498-1923-4013-96e2-5aec4fc93af7","system_id":"levelo_inurba_marseille","lat":43.24804,"lon":5.37454,"is_reserved":false,"is_disabled":false,"rental_uris":{"android":"levelo://app?vid=e0448498-1923-4013-96e2-5aec4fc93af7","ios":"levelo://app?vid=e0448498-1923-4013-96e2-5aec4fc93af7"},"vehicle_type_id":"4","last_reported":1727539809,"current_range_meters":38800,"station_id":"ce4bhgh2rcd13ifvqfb0","pricing_plan_id":"cebpf4jnsgd1na2vs0mg"},{"bike_id":"67ad384a-3a16-4e29-9113-32c6258c1182","system_id":"levelo_inurba_marseille","lat":43.3052,"lon":5.36712,"is_reserved":false,"is_disabled":false,"rental_uris":{"android":"levelo://app?vid=67ad384a-3a16-4e29-9113-32c6258c1182","ios":"levelo://app?vid=67ad384a-3a16-4e29-9113-32c6258c1182"},"vehicle_type_id":"4","last_reported":1727539809,"current_range_meters":38800,"station_id":"ce4bgrp2rcd13ifvqc9g","pricing_plan_id":"cebpf4jnsgd1na2vs0mg"},{"bike_id":"0c3f0369-7cdf-4cba-a0db-09435ab8c8da","system_id":"levelo_inurba_marseille","lat":43.23182,"lon":5.39995,"is_reserved":false,"is_disabled":false,"rental_uris":{"android":"levelo://app?vid=0c3f0369-7cdf-4cba-a0db-09435ab8c8da","ios":"levelo://app?vid=0c3f0369-7cdf-4cba-a0db-09435ab8c8da"},"vehicle_type_id":"4","last_reported":1727539809,"current_range_meters":30400,"station_id":"ce4bhn12rcd13ifvqgqg","pricing_plan_id":"cebpf4jnsgd1na2vs0mg"},{"bike_id":"b9f153f1-fb12-4698-ac2c-06d658287ea8","system_id":"levelo_inurba_marseille","lat":43.27571,"lon":5.38423,"is_reserved":false,"is_disabled":false,"rental_uris":{"android":"levelo://app?vid=b9f153f1-fb12-4698-ac2c-06d658287ea8","ios":"levelo://app?vid=b9f153f1-fb12-4698-ac2c-06d658287ea8"},"vehicle_type_id":"4","last_reported":1727539809,"current_range_meters":35600,"station_id":"ce4bhh92rcd13ifvqfi0","pricing_plan_id":"cebpf4jnsgd1na2vs0mg"},{"bike_id":"02f25695-5a17-4ed6-b6a9-b2ee9d2bf28d","system_id":"levelo_inurba_marseille","lat":43.30616,"lon":5.37225,"is_reserved":false,"is_disabled":false,"rental_uris":{"android":"levelo://app?vid=02f25695-5a17-4ed6-b6a9-b2ee9d2bf28d","ios":"levelo://app?vid=02f25695-5a17-4ed6-b6a9-b2ee9d2bf28d"},"vehicle_type_id":"4","last_reported":1727539809,"current_range_meters":26800,"station_id":"ce4bgqh2rcd13ifvqc4g","pricing_plan_id":"cebpf4jnsgd1na2vs0mg"},{"bike_id":"9ef80c8e-5ce5-4b39-8720-9968a49186b6","system_id":"levelo_inurba_marseille","lat":43.275649,"lon":5.384211,"is_reserved":false,"is_disabled":false,"rental_uris":{"android":"levelo://app?vid=9ef80c8e-5ce5-4b39-8720-9968a49186b6","ios":"levelo://app?vid=9ef80c8e-5ce5-4b39-8720-9968a49186b6"},"vehicle_type_id":"4","last_reported":1727539809,"current_range_meters":8000,"station_id":"ce4bhh92rcd13ifvqfi0","pricing_plan_id":"cebpf4jnsgd1na2vs0mg"},{"bike_id":"4f60ac6d-d090-4e5a-ad32-615be1f1114a","system_id":"levelo_inurba_marseille","lat":43.29312,"lon":5.37459,"is_reserved":false,"is_disabled":false,"rental_uris":{"android":"levelo://app?vid=4f60ac6d-d090-4e5a-ad32-615be1f1114a","ios":"levelo://app?vid=4f60ac6d-d090-4e5a-ad32-615be1f1114a"},"vehicle_type_id":"4","last_reported":1727539809,"current_range_meters":39200,"station_id":"ce4bgi12rcd13ifvqb70","pricing_plan_id":"cebpf4jnsgd1na2vs0mg"},{"bike_id":"bc20af5c-be7b-4c51-b09b-2e170ca1b5b9","system_id":"levelo_inurba_marseille","lat":43.25489,"lon":5.37643,"is_reserved":false,"is_disabled":false,"rental_uris":{"android":"levelo://app?vid=bc20af5c-be7b-4c51-b09b-2e170ca1b5b9","ios":"levelo://app?vid=bc20af5c-be7b-4c51-b09b-2e170ca1b5b9"},"vehicle_type_id":"4","last_reported":1727539809,"current_range_meters":36800,"station_id":"ce4bhh12rcd13ifvqff0","pricing_plan_id":"cebpf4jnsgd1na2vs0mg"},{"bike_id":"1cdd532a-306b-47d0-8a3b-e164107a50fd","system_id":"levelo_inurba_marseille","lat":43.25004,"lon":5.38928,"is_reserved":false,"is_disabled":false,"rental_uris":{"android":"levelo://app?vid=1cdd532a-306b-47d0-8a3b-e164107a50fd","ios":"levelo://app?vid=1cdd532a-306b-47d0-8a3b-e164107a50fd"},"vehicle_type_id":"4","last_reported":1727539809,"current_range_meters":20400,"station_id":"ce4bhgp2rcd13ifvqfd0","pricing_plan_id":"cebpf4jnsgd1na2vs0mg"},{"bike_id":"d8e32f1c-4c32-4777-922d-4d90b15b71c7","system_id":"levelo_inurba_marseille","lat":43.30863,"lon":5.3685,"is_reserved":false,"is_disabled":false,"rental_uris":{"android":"levelo://app?vid=d8e32f1c-4c32-4777-922d-4d90b15b71c7","ios":"levelo://app?vid=d8e32f1c-4c32-4777-922d-4d90b15b71c7"},"vehicle_type_id":"4","last_reported":1727539809,"current_range_meters":9200,"station_id":"ce4bgn92rcd13ifvqbvg","pricing_plan_id":"cebpf4jnsgd1na2vs0mg"},{"bike_id":"b470945e-f45c-4291-ac95-d7061c9aab44","system_id":"levelo_inurba_marseille","lat":43.27368,"lon":5.41218,"is_reserved":false,"is_disabled":false,"rental_uris":{"android":"levelo://app?vid=b470945e-f45c-4291-ac95-d7061c9aab44","ios":"levelo://app?vid=b470945e-f45c-4291-ac95-d7061c9aab44"},"vehicle_type_id":"4","last_reported":1727539809,"current_range_meters":27600,"station_id":"","pricing_plan_id":"cebpf4jnsgd1na2vs0mg"},{"bike_id":"e4361fa2-90d9-45ff-9d8a-e7b112f4e011","system_id":"levelo_inurba_marseille","lat":43.28523,"lon":5.39138,"is_reserved":false,"is_disabled":false,"rental_uris":{"android":"levelo://app?vid=e4361fa2-90d9-45ff-9d8a-e7b112f4e011","ios":"levelo://app?vid=e4361fa2-90d9-45ff-9d8a-e7b112f4e011"},"vehicle_type_id":"4","last_reported":1727539809,"current_range_meters":32400,"station_id":"ce4bh3p2rcd13ifvqdp0","pricing_plan_id":"cebpf4jnsgd1na2vs0mg"},{"bike_id":"2bee11eb-3cbe-45f6-9449-abbf56a16843","system_id":"levelo_inurba_marseille","lat":43.241491,"lon":5.378972,"is_reserved":false,"is_disabled":false,"rental_uris":{"android":"levelo://app?vid=2bee11eb-3cbe-45f6-9449-abbf56a16843","ios":"levelo://app?vid=2bee11eb-3cbe-45f6-9449-abbf56a16843"},"vehicle_type_id":"4","last_reported":1727539809,"current_range_meters":24400,"station_id":"ce4bhnp2rcd13ifvqgvg","pricing_plan_id":"cebpf4jnsgd1na2vs0mg"},{"bike_id":"65f828c7-d12b-47c9-87f8-27b2e7121317","system_id":"levelo_inurba_marseille","lat":43.249986,"lon":5.389271,"is_reserved":false,"is_disabled":false,"rental_uris":{"android":"levelo://app?vid=65f828c7-d12b-47c9-87f8-27b2e7121317","ios":"levelo://app?vid=65f828c7-d12b-47c9-87f8-27b2e7121317"},"vehicle_type_id":"4","last_reported":1727539809,"current_range_meters":13600,"station_id":"ce4bhgp2rcd13ifvqfd0","pricing_plan_id":"cebpf4jnsgd1na2vs0mg"},{"bike_id":"cab45fd0-efbe-42f4-815f-9d32eba24a97","system_id":"levelo_inurba_marseille","lat":43.27899,"lon":5.41209,"is_reserved":false,"is_disabled":false,"rental_uris":{"android":"levelo://app?vid=cab45fd0-efbe-42f4-815f-9d32eba24a97","ios":"levelo://app?vid=cab45fd0-efbe-42f4-815f-9d32eba24a97"},"vehicle_type_id":"4","last_reported":1727539809,"current_range_meters":18800,"station_id":"","pricing_plan_id":"cebpf4jnsgd1na2vs0mg"},{"bike_id":"6eff8d2d-61fa-4715-9388-b30a052d3e98","system_id":"levelo_inurba_marseille","lat":43.337444,"lon":5.374475,"is_reserved":false,"is_disabled":false,"rental_uris":{"android":"levelo://app?vid=6eff8d2d-61fa-4715-9388-b30a052d3e98","ios":"levelo://app?vid=6eff8d2d-61fa-4715-9388-b30a052d3e98"},"vehicle_type_id":"4","last_reported":1727539809,"current_range_meters":32400,"station_id":"","pricing_plan_id":"cebpf4jnsgd1na2vs0mg"},{"bike_id":"a8a96814-ef71-4d3b-8776-1be068f66c14","system_id":"levelo_inurba_marseille","lat":43.270427,"lon":5.402592,"is_reserved":false,"is_disabled":false,"rental_uris":{"android":"levelo://app?vid=a8a96814-ef71-4d3b-8776-1be068f66c14","ios":"levelo://app?vid=a8a96814-ef71-4d3b-8776-1be068f66c14"},"vehicle_type_id":"4","last_reported":1727539809,"current_range_meters":23200,"station_id":"ce4bhk92rcd13ifvqgc0","pricing_plan_id":"cebpf4jnsgd1na2vs0mg"},{"bike_id":"b8960b3a-c99b-47dc-b1ac-2453653d9fb5","system_id":"levelo_inurba_marseille","lat":43.23194,"lon":5.35554,"is_reserved":false,"is_disabled":false,"rental_uris":{"android":"levelo://app?vid=b8960b3a-c99b-47dc-b1ac-2453653d9fb5","ios":"levelo://app?vid=b8960b3a-c99b-47dc-b1ac-2453653d9fb5"},"vehicle_type_id":"4","last_reported":1727539809,"current_range_meters":30800,"station_id":"ce4bhu92rcd13ifvqi70","pricing_plan_id":"cebpf4jnsgd1na2vs0mg"},{"bike_id":"e10d7d9b-88ad-4d2c-bf42-128fcac5e21d","system_id":"levelo_inurba_marseille","lat":43.2781,"lon":5.40711,"is_reserved":false,"is_disabled":false,"rental_uris":{"android":"levelo://app?vid=e10d7d9b-88ad-4d2c-bf42-128fcac5e21d","ios":"levelo://app?vid=e10d7d9b-88ad-4d2c-bf42-128fcac5e21d"},"vehicle_type_id":"4","last_reported":1727539809,"current_range_meters":35200,"station_id":"ce4bhnh2rcd13ifvqgtg","pricing_plan_id":"cebpf4jnsgd1na2vs0mg"},{"bike_id":"97348786-1b13-4256-959a-4835e97ef306","system_id":"levelo_inurba_marseille","lat":43.29046,"lon":5.37564,"is_reserved":false,"is_disabled":false,"rental_uris":{"android":"levelo://app?vid=97348786-1b13-4256-959a-4835e97ef306","ios":"levelo://app?vid=97348786-1b13-4256-959a-4835e97ef306"},"vehicle_type_id":"4","last_reported":1727539809,"current_range_meters":9200,"station_id":"ce4bh692rcd13ifvqe90","pricing_plan_id":"cebpf4jnsgd1na2vs0mg"},{"bike_id":"49103c36-092f-43a6-a665-96ac4218adb8","system_id":"levelo_inurba_marseille","lat":43.32297,"lon":5.38259,"is_reserved":false,"is_disabled":false,"rental_uris":{"android":"levelo://app?vid=49103c36-092f-43a6-a665-96ac4218adb8","ios":"levelo://app?vid=49103c36-092f-43a6-a665-96ac4218adb8"},"vehicle_type_id":"4","last_reported":1727539809,"current_range_meters":39200,"station_id":"ce4bhr12rcd13ifvqhqg","pricing_plan_id":"cebpf4jnsgd1na2vs0mg"},{"bike_id":"ef052844-7158-404d-b6f4-1822984bd4b2","system_id":"levelo_inurba_marseille","lat":43.29226,"lon":5.36072,"is_reserved":false,"is_disabled":false,"rental_uris":{"android":"levelo://app?vid=ef052844-7158-404d-b6f4-1822984bd4b2","ios":"levelo://app?vid=ef052844-7158-404d-b6f4-1822984bd4b2"},"vehicle_type_id":"4","last_reported":1727539809,"current_range_meters":30800,"station_id":"ce4bhbh2rcd13ifvqeqg","pricing_plan_id":"cebpf4jnsgd1na2vs0mg"},{"bike_id":"3da18e03-4bf7-43c0-a10c-e05b7c37b9ac","system_id":"levelo_inurba_marseille","lat":43.27212,"lon":5.39183,"is_reserved":false,"is_disabled":false,"rental_uris":{"android":"levelo://app?vid=3da18e03-4bf7-43c0-a10c-e05b7c37b9ac","ios":"levelo://app?vid=3da18e03-4bf7-43c0-a10c-e05b7c37b9ac"},"vehicle_type_id":"4","last_reported":1727539809,"current_range_meters":38800,"station_id":"ce4bhhp2rcd13ifvqfm0","pricing_plan_id":"cebpf4jnsgd1na2vs0mg"},{"bike_id":"034f10b5-c26f-43f9-8ca9-2b79442eb450","system_id":"levelo_inurba_marseille","lat":43.26213,"lon":5.3744,"is_reserved":false,"is_disabled":false,"rental_uris":{"android":"levelo://app?vid=034f10b5-c26f-43f9-8ca9-2b79442eb450","ios":"levelo://app?vid=034f10b5-c26f-43f9-8ca9-2b79442eb450"},"vehicle_type_id":"4","last_reported":1727539809,"current_range_meters":34800,"station_id":"ce4bhgp2rcd13ifvqfc0","pricing_plan_id":"cebpf4jnsgd1na2vs0mg"},{"bike_id":"6f0f9c32-de70-4574-9b89-cca29ab0554e","system_id":"levelo_inurba_marseille","lat":43.337444,"lon":5.374475,"is_reserved":false,"is_disabled":false,"rental_uris":{"android":"levelo://app?vid=6f0f9c32-de70-4574-9b89-cca29ab0554e","ios":"levelo://app?vid=6f0f9c32-de70-4574-9b89-cca29ab0554e"},"vehicle_type_id":"4","last_reported":1727539809,"current_range_meters":30000,"station_id":"","pricing_plan_id":"cebpf4jnsgd1na2vs0mg"},{"bike_id":"4aa2291d-cde6-4f13-b370-9a6ea3100296","system_id":"levelo_inurba_marseille","lat":43.28475,"lon":5.38407,"is_reserved":false,"is_disabled":false,"rental_uris":{"android":"levelo://app?vid=4aa2291d-cde6-4f13-b370-9a6ea3100296","ios":"levelo://app?vid=4aa2291d-cde6-4f13-b370-9a6ea3100296"},"vehicle_type_id":"4","last_reported":1727539809,"current_range_meters":4800,"station_id":"ce4bh512rcd13ifvqe3g","pricing_plan_id":"cebpf4jnsgd1na2vs0mg"},{"bike_id":"44839918-e841-4578-a34d-4d8014b09bc8","system_id":"levelo_inurba_marseille","lat":43.31235,"lon":5.36862,"is_reserved":false,"is_disabled":false,"rental_uris":{"android":"levelo://app?vid=44839918-e841-4578-a34d-4d8014b09bc8","ios":"levelo://app?vid=44839918-e841-4578-a34d-4d8014b09bc8"},"vehicle_type_id":"4","last_reported":1727539809,"current_range_meters":38800,"station_id":"ce4bgl92rcd13ifvqbq0","pricing_plan_id":"cebpf4jnsgd1na2vs0mg"},{"bike_id":"fecd1f7a-fcd4-42bd-9449-f81c3865d9cc","system_id":"levelo_inurba_marseille","lat":43.27372,"lon":5.36278,"is_reserved":false,"is_disabled":false,"rental_uris":{"android":"levelo://app?vid=fecd1f7a-fcd4-42bd-9449-f81c3865d9cc","ios":"levelo://app?vid=fecd1f7a-fcd4-42bd-9449-f81c3865d9cc"},"vehicle_type_id":"4","last_reported":1727539809,"current_range_meters":38800,"station_id":"ce4bhbh2rcd13ifvqeo0","pricing_plan_id":"cebpf4jnsgd1na2vs0mg"},{"bike_id":"0687a646-be72-47a3-8907-22e0afb02a46","system_id":"levelo_inurba_marseille","lat":43.23959,"lon":5.36625,"is_reserved":false,"is_disabled":false,"rental_uris":{"android":"levelo://app?vid=0687a646-be72-47a3-8907-22e0afb02a46","ios":"levelo://app?vid=0687a646-be72-47a3-8907-22e0afb02a46"},"vehicle_type_id":"4","last_reported":1727539809,"current_range_meters":36000,"station_id":"ce4bhi12rcd13ifvqfp0","pricing_plan_id":"cebpf4jnsgd1na2vs0mg"},{"bike_id":"6e0896c6-ce0e-44c9-b132-b75a668c9127","system_id":"levelo_inurba_marseille","lat":43.28727,"lon":5.37933,"is_reserved":false,"is_disabled":false,"rental_uris":{"android":"levelo://app?vid=6e0896c6-ce0e-44c9-b132-b75a668c9127","ios":"levelo://app?vid=6e0896c6-ce0e-44c9-b132-b75a668c9127"},"vehicle_type_id":"4","last_reported":1727539809,"current_range_meters":9200,"station_id":"ce4bhh92rcd13ifvqfi0","pricing_plan_id":"cebpf4jnsgd1na2vs0mg"},{"bike_id":"90c05d40-f5db-4a12-95b3-f8d41ae2e51b","system_id":"levelo_inurba_marseille","lat":43.32377,"lon":5.3892,"is_reserved":false,"is_disabled":false,"rental_uris":{"android":"levelo://app?vid=90c05d40-f5db-4a12-95b3-f8d41ae2e51b","ios":"levelo://app?vid=90c05d40-f5db-4a12-95b3-f8d41ae2e51b"},"vehicle_type_id":"4","last_reported":1727539809,"current_range_meters":33600,"station_id":"ce4bhqp2rcd13ifvqhog","pricing_plan_id":"cebpf4jnsgd1na2vs0mg"},{"bike_id":"8fae9806-5c62-4e3e-a0ab-957205936f7f","system_id":"levelo_inurba_marseille","lat":43.29266,"lon":5.40906,"is_reserved":false,"is_disabled":false,"rental_uris":{"android":"levelo://app?vid=8fae9806-5c62-4e3e-a0ab-957205936f7f","ios":"levelo://app?vid=8fae9806-5c62-4e3e-a0ab-957205936f7f"},"vehicle_type_id":"4","last_reported":1727539809,"current_range_meters":27200,"station_id":"ce4bh192rcd13ifvqdc0","pricing_plan_id":"cebpf4jnsgd1na2vs0mg"},{"bike_id":"cd182716-040d-4582-9a43-ac963222e2fc","system_id":"levelo_inurba_marseille","lat":43.29196,"lon":5.39328,"is_reserved":false,"is_disabled":false,"rental_uris":{"android":"levelo://app?vid=cd182716-040d-4582-9a43-ac963222e2fc","ios":"levelo://app?vid=cd182716-040d-4582-9a43-ac963222e2fc"},"vehicle_type_id":"4","last_reported":1727539809,"current_range_meters":12400,"station_id":"ce4bh192rcd13ifvqdd0","pricing_plan_id":"cebpf4jnsgd1na2vs0mg"},{"bike_id":"154acbff-e53a-4480-a758-a53dbe8f0288","system_id":"levelo_inurba_marseille","lat":43.27428,"lon":5.39418,"is_reserved":false,"is_disabled":false,"rental_uris":{"android":"levelo://app?vid=154acbff-e53a-4480-a758-a53dbe8f0288","ios":"levelo://app?vid=154acbff-e53a-4480-a758-a53dbe8f0288"},"vehicle_type_id":"4","last_reported":1727539809,"current_range_meters":2800,"station_id":"ce4bhdp2rcd13ifvqf20","pricing_plan_id":"cebpf4jnsgd1na2vs0mg"},{"bike_id":"e4eaeb27-47b9-44e2-bb54-1467b9b29a60","system_id":"levelo_inurba_marseille","lat":43.2782,"lon":5.40708,"is_reserved":false,"is_disabled":false,"rental_uris":{"android":"levelo://app?vid=e4eaeb27-47b9-44e2-bb54-1467b9b29a60","ios":"levelo://app?vid=e4eaeb27-47b9-44e2-bb54-1467b9b29a60"},"vehicle_type_id":"4","last_reported":1727539809,"current_range_meters":31200,"station_id":"ce4bhnh2rcd13ifvqgtg","pricing_plan_id":"cebpf4jnsgd1na2vs0mg"},{"bike_id":"9fcb71b8-23d8-4fcd-abcf-98182e2b2bbc","system_id":"levelo_inurba_marseille","lat":43.28031,"lon":5.3694,"is_reserved":false,"is_disabled":false,"rental_uris":{"android":"levelo://app?vid=9fcb71b8-23d8-4fcd-abcf-98182e2b2bbc","ios":"levelo://app?vid=9fcb71b8-23d8-4fcd-abcf-98182e2b2bbc"},"vehicle_type_id":"4","last_reported":1727539809,"current_range_meters":34800,"station_id":"ce4bha12rcd13ifvqef0","pricing_plan_id":"cebpf4jnsgd1na2vs0mg"},{"bike_id":"a3892bf0-31bf-40f2-9594-e76055c6adde","system_id":"levelo_inurba_marseille","lat":43.24388,"lon":5.37053,"is_reserved":false,"is_disabled":false,"rental_uris":{"android":"levelo://app?vid=a3892bf0-31bf-40f2-9594-e76055c6adde","ios":"levelo://app?vid=a3892bf0-31bf-40f2-9594-e76055c6adde"},"vehicle_type_id":"4","last_reported":1727539809,"current_range_meters":16000,"station_id":"ce4bhhh2rcd13ifvqfk0","pricing_plan_id":"cebpf4jnsgd1na2vs0mg"},{"bike_id":"308fd9db-a231-4a3c-8556-3ed96671c48f","system_id":"levelo_inurba_marseille","lat":43.28479,"lon":5.38053,"is_reserved":false,"is_disabled":false,"rental_uris":{"android":"levelo://app?vid=308fd9db-a231-4a3c-8556-3ed96671c48f","ios":"levelo://app?vid=308fd9db-a231-4a3c-8556-3ed96671c48f"},"vehicle_type_id":"4","last_reported":1727539809,"current_range_meters":8000,"station_id":"ce4bh412rcd13ifvqdr0","pricing_plan_id":"cebpf4jnsgd1na2vs0mg"},{"bike_id":"5d39741f-2363-41a8-815d-c805b77c976d","system_id":"levelo_inurba_marseille","lat":43.23194,"lon":5.35558,"is_reserved":false,"is_disabled":false,"rental_uris":{"android":"levelo://app?vid=5d39741f-2363-41a8-815d-c805b77c976d","ios":"levelo://app?vid=5d39741f-2363-41a8-815d-c805b77c976d"},"vehicle_type_id":"4","last_reported":1727539809,"current_range_meters":38400,"station_id":"ce4bhu92rcd13ifvqi70","pricing_plan_id":"cebpf4jnsgd1na2vs0mg"},{"bike_id":"3357c55b-6f49-4ceb-ad5b-5378b86c00e0","system_id":"levelo_inurba_marseille","lat":43.291817,"lon":5.380419,"is_reserved":false,"is_disabled":false,"rental_uris":{"android":"levelo://app?vid=3357c55b-6f49-4ceb-ad5b-5378b86c00e0","ios":"levelo://app?vid=3357c55b-6f49-4ceb-ad5b-5378b86c00e0"},"vehicle_type_id":"4","last_reported":1727539809,"current_range_meters":32400,"station_id":"","pricing_plan_id":"cebpf4jnsgd1na2vs0mg"},{"bike_id":"1fb6acea-a8eb-4dae-b344-8c90184b04ca","system_id":"levelo_inurba_marseille","lat":43.29094,"lon":5.38146,"is_reserved":false,"is_disabled":false,"rental_uris":{"android":"levelo://app?vid=1fb6acea-a8eb-4dae-b344-8c90184b04ca","ios":"levelo://app?vid=1fb6acea-a8eb-4dae-b344-8c90184b04ca"},"vehicle_type_id":"4","last_reported":1727539809,"current_range_meters":17600,"station_id":"ce4bh512rcd13ifvqe2g","pricing_plan_id":"cebpf4jnsgd1na2vs0mg"},{"bike_id":"96d7f3f2-c9a8-4bdf-9d90-38dbf549b453","system_id":"levelo_inurba_marseille","lat":43.29794,"lon":5.3808,"is_reserved":false,"is_disabled":false,"rental_uris":{"android":"levelo://app?vid=96d7f3f2-c9a8-4bdf-9d90-38dbf549b453","ios":"levelo://app?vid=96d7f3f2-c9a8-4bdf-9d90-38dbf549b453"},"vehicle_type_id":"4","last_reported":1727539809,"current_range_meters":18800,"station_id":"ce4bgip2rcd13ifvqbb0","pricing_plan_id":"cebpf4jnsgd1na2vs0mg"},{"bike_id":"9d933d2a-f72c-492c-ae3d-eb238dac3442","system_id":"levelo_inurba_marseille","lat":43.317589,"lon":5.390251,"is_reserved":false,"is_disabled":false,"rental_uris":{"android":"levelo://app?vid=9d933d2a-f72c-492c-ae3d-eb238dac3442","ios":"levelo://app?vid=9d933d2a-f72c-492c-ae3d-eb238dac3442"},"vehicle_type_id":"4","last_reported":1727539809,"current_range_meters":17200,"station_id":"ce4bhqp2rcd13ifvqhng","pricing_plan_id":"cebpf4jnsgd1na2vs0mg"},{"bike_id":"3adeeb46-792c-45e8-a7a7-3bab195c8a30","system_id":"levelo_inurba_marseille","lat":43.298,"lon":5.38092,"is_reserved":false,"is_disabled":false,"rental_uris":{"android":"levelo://app?vid=3adeeb46-792c-45e8-a7a7-3bab195c8a30","ios":"levelo://app?vid=3adeeb46-792c-45e8-a7a7-3bab195c8a30"},"vehicle_type_id":"4","last_reported":1727539809,"current_range_meters":38800,"station_id":"ce4bgip2rcd13ifvqbb0","pricing_plan_id":"cebpf4jnsgd1na2vs0mg"},{"bike_id":"0aa32216-91c3-4d12-b507-e338559527a1","system_id":"levelo_inurba_marseille","lat":43.24805,"lon":5.37455,"is_reserved":false,"is_disabled":false,"rental_uris":{"android":"levelo://app?vid=0aa32216-91c3-4d12-b507-e338559527a1","ios":"levelo://app?vid=0aa32216-91c3-4d12-b507-e338559527a1"},"vehicle_type_id":"4","last_reported":1727539809,"current_range_meters":22000,"station_id":"ce4bhgh2rcd13ifvqfb0","pricing_plan_id":"cebpf4jnsgd1na2vs0mg"},{"bike_id":"8488359f-8981-4fa3-95e5-3d3ff791f8c4","system_id":"levelo_inurba_marseille","lat":43.26941,"lon":5.40248,"is_reserved":false,"is_disabled":false,"rental_uris":{"android":"levelo://app?vid=8488359f-8981-4fa3-95e5-3d3ff791f8c4","ios":"levelo://app?vid=8488359f-8981-4fa3-95e5-3d3ff791f8c4"},"vehicle_type_id":"4","last_reported":1727539809,"current_range_meters":37600,"station_id":"cjm6bp8fraef2m0cb0m0","pricing_plan_id":"cebpf4jnsgd1na2vs0mg"},{"bike_id":"1dacb03d-dafe-4a35-a189-73774891a72c","system_id":"levelo_inurba_marseille","lat":43.30141,"lon":5.39864,"is_reserved":false,"is_disabled":false,"rental_uris":{"android":"levelo://app?vid=1dacb03d-dafe-4a35-a189-73774891a72c","ios":"levelo://app?vid=1dacb03d-dafe-4a35-a189-73774891a72c"},"vehicle_type_id":"4","last_reported":1727539809,"current_range_meters":38800,"station_id":"ce4bh0h2rcd13ifvqd40","pricing_plan_id":"cebpf4jnsgd1na2vs0mg"},{"bike_id":"4ced7e61-0929-481f-8875-e2cf90f386a5","system_id":"levelo_inurba_marseille","lat":43.25725,"lon":5.41106,"is_reserved":false,"is_disabled":false,"rental_uris":{"android":"levelo://app?vid=4ced7e61-0929-481f-8875-e2cf90f386a5","ios":"levelo://app?vid=4ced7e61-0929-481f-8875-e2cf90f386a5"},"vehicle_type_id":"4","last_reported":1727539809,"current_range_meters":3600,"station_id":"ce4bhkp2rcd13ifvqgd0","pricing_plan_id":"cebpf4jnsgd1na2vs0mg"},{"bike_id":"a01c167d-b0a8-417d-983c-973ea4c07ac2","system_id":"levelo_inurba_marseille","lat":43.29273,"lon":5.36845,"is_reserved":false,"is_disabled":false,"rental_uris":{"android":"levelo://app?vid=a01c167d-b0a8-417d-983c-973ea4c07ac2","ios":"levelo://app?vid=a01c167d-b0a8-417d-983c-973ea4c07ac2"},"vehicle_type_id":"4","last_reported":1727539809,"current_range_meters":8000,"station_id":"ce4bhbp2rcd13ifvqesg","pricing_plan_id":"cebpf4jnsgd1na2vs0mg"},{"bike_id":"ee1ec0f3-cbe4-4b1b-a224-e1c6e98305b3","system_id":"levelo_inurba_marseille","lat":43.30528,"lon":5.36703,"is_reserved":false,"is_disabled":false,"rental_uris":{"android":"levelo://app?vid=ee1ec0f3-cbe4-4b1b-a224-e1c6e98305b3","ios":"levelo://app?vid=ee1ec0f3-cbe4-4b1b-a224-e1c6e98305b3"},"vehicle_type_id":"4","last_reported":1727539809,"current_range_meters":4000,"station_id":"ce4bgrp2rcd13ifvqc9g","pricing_plan_id":"cebpf4jnsgd1na2vs0mg"},{"bike_id":"979195a6-b272-4171-b8d9-2a5b814785b0","system_id":"levelo_inurba_marseille","lat":43.30148,"lon":5.38078,"is_reserved":false,"is_disabled":false,"rental_uris":{"android":"levelo://app?vid=979195a6-b272-4171-b8d9-2a5b814785b0","ios":"levelo://app?vid=979195a6-b272-4171-b8d9-2a5b814785b0"},"vehicle_type_id":"4","last_reported":1727539809,"current_range_meters":12800,"station_id":"ce4bgjp2rcd13ifvqbh0","pricing_plan_id":"cebpf4jnsgd1na2vs0mg"},{"bike_id":"656cc9ac-9883-4253-8797-20d29a24b057","system_id":"levelo_inurba_marseille","lat":43.27429,"lon":5.3942,"is_reserved":false,"is_disabled":false,"rental_uris":{"android":"levelo://app?vid=656cc9ac-9883-4253-8797-20d29a24b057","ios":"levelo://app?vid=656cc9ac-9883-4253-8797-20d29a24b057"},"vehicle_type_id":"4","last_reported":1727539809,"current_range_meters":17600,"station_id":"ce4bhdp2rcd13ifvqf20","pricing_plan_id":"cebpf4jnsgd1na2vs0mg"},{"bike_id":"36ed04b4-991d-4723-bdb6-3d4a929049f2","system_id":"levelo_inurba_marseille","lat":43.30151,"lon":5.37427,"is_reserved":false,"is_disabled":false,"rental_uris":{"android":"levelo://app?vid=36ed04b4-991d-4723-bdb6-3d4a929049f2","ios":"levelo://app?vid=36ed04b4-991d-4723-bdb6-3d4a929049f2"},"vehicle_type_id":"4","last_reported":1727539809,"current_range_meters":3600,"station_id":"ce4bgs92rcd13ifvqcc0","pricing_plan_id":"cebpf4jnsgd1na2vs0mg"},{"bike_id":"95582641-febb-4e59-9102-89aeedd5e6cc","system_id":"levelo_inurba_marseille","lat":43.30766,"lon":5.38755,"is_reserved":false,"is_disabled":false,"rental_uris":{"android":"levelo://app?vid=95582641-febb-4e59-9102-89aeedd5e6cc","ios":"levelo://app?vid=95582641-febb-4e59-9102-89aeedd5e6cc"},"vehicle_type_id":"4","last_reported":1727539809,"current_range_meters":26800,"station_id":"ce4bgup2rcd13ifvqco0","pricing_plan_id":"cebpf4jnsgd1na2vs0mg"},{"bike_id":"20a14a4d-4a11-4d70-a718-43d70735285c","system_id":"levelo_inurba_marseille","lat":43.2439,"lon":5.37061,"is_reserved":false,"is_disabled":false,"rental_uris":{"android":"levelo://app?vid=20a14a4d-4a11-4d70-a718-43d70735285c","ios":"levelo://app?vid=20a14a4d-4a11-4d70-a718-43d70735285c"},"vehicle_type_id":"4","last_reported":1727539809,"current_range_meters":20000,"station_id":"ce4bhhh2rcd13ifvqfk0","pricing_plan_id":"cebpf4jnsgd1na2vs0mg"},{"bike_id":"24159c55-62c5-435f-adc2-95f55362b550","system_id":"levelo_inurba_marseille","lat":43.29796,"lon":5.38073,"is_reserved":false,"is_disabled":false,"rental_uris":{"android":"levelo://app?vid=24159c55-62c5-435f-adc2-95f55362b550","ios":"levelo://app?vid=24159c55-62c5-435f-adc2-95f55362b550"},"vehicle_type_id":"4","last_reported":1727539809,"current_range_meters":31200,"station_id":"ce4bgip2rcd13ifvqbb0","pricing_plan_id":"cebpf4jnsgd1na2vs0mg"},{"bike_id":"42b709e1-cc2a-4a6a-8583-99d3bf7ee505","system_id":"levelo_inurba_marseille","lat":43.28709,"lon":5.37393,"is_reserved":false,"is_disabled":false,"rental_uris":{"android":"levelo://app?vid=42b709e1-cc2a-4a6a-8583-99d3bf7ee505","ios":"levelo://app?vid=42b709e1-cc2a-4a6a-8583-99d3bf7ee505"},"vehicle_type_id":"4","last_reported":1727539809,"current_range_meters":28000,"station_id":"ce4bh3p2rcd13ifvqdq0","pricing_plan_id":"cebpf4jnsgd1na2vs0mg"},{"bike_id":"ae420688-5730-4c04-90f7-fb439220597f","system_id":"levelo_inurba_marseille","lat":43.337444,"lon":5.374475,"is_reserved":false,"is_disabled":false,"rental_uris":{"android":"levelo://app?vid=ae420688-5730-4c04-90f7-fb439220597f","ios":"levelo://app?vid=ae420688-5730-4c04-90f7-fb439220597f"},"vehicle_type_id":"4","last_reported":1727539809,"current_range_meters":32800,"station_id":"","pricing_plan_id":"cebpf4jnsgd1na2vs0mg"},{"bike_id":"a48463dd-ea3a-4fc2-84b2-c1bbb54ff2cf","system_id":"levelo_inurba_marseille","lat":43.31752,"lon":5.39016,"is_reserved":false,"is_disabled":false,"rental_uris":{"android":"levelo://app?vid=a48463dd-ea3a-4fc2-84b2-c1bbb54ff2cf","ios":"levelo://app?vid=a48463dd-ea3a-4fc2-84b2-c1bbb54ff2cf"},"vehicle_type_id":"4","last_reported":1727539809,"current_range_meters":32800,"station_id":"ce4bhqp2rcd13ifvqhng","pricing_plan_id":"cebpf4jnsgd1na2vs0mg"},{"bike_id":"f602a99a-8945-4d4f-8888-b097e0039ba6","system_id":"levelo_inurba_marseille","lat":43.29608,"lon":5.40019,"is_reserved":false,"is_disabled":false,"rental_uris":{"android":"levelo://app?vid=f602a99a-8945-4d4f-8888-b097e0039ba6","ios":"levelo://app?vid=f602a99a-8945-4d4f-8888-b097e0039ba6"},"vehicle_type_id":"4","last_reported":1727539809,"current_range_meters":26000,"station_id":"ce4bh312rcd13ifvqdj0","pricing_plan_id":"cebpf4jnsgd1na2vs0mg"},{"bike_id":"86a71ee8-d43f-4ebe-bee2-169dfe2232ae","system_id":"levelo_inurba_marseille","lat":43.23965,"lon":5.36626,"is_reserved":false,"is_disabled":false,"rental_uris":{"android":"levelo://app?vid=86a71ee8-d43f-4ebe-bee2-169dfe2232ae","ios":"levelo://app?vid=86a71ee8-d43f-4ebe-bee2-169dfe2232ae"},"vehicle_type_id":"4","last_reported":1727539809,"current_range_meters":38400,"station_id":"ce4bhi12rcd13ifvqfp0","pricing_plan_id":"cebpf4jnsgd1na2vs0mg"},{"bike_id":"071252ba-45a3-40f7-bf18-017d1e532c32","system_id":"levelo_inurba_marseille","lat":43.29604,"lon":5.38674,"is_reserved":false,"is_disabled":false,"rental_uris":{"android":"levelo://app?vid=071252ba-45a3-40f7-bf18-017d1e532c32","ios":"levelo://app?vid=071252ba-45a3-40f7-bf18-017d1e532c32"},"vehicle_type_id":"4","last_reported":1727539809,"current_range_meters":6800,"station_id":"ce4bgih2rcd13ifvqba0","pricing_plan_id":"cebpf4jnsgd1na2vs0mg"},{"bike_id":"ddf2c496-baab-47f2-abb2-8a8d2f6d378c","system_id":"levelo_inurba_marseille","lat":43.29038,"lon":5.38654,"is_reserved":false,"is_disabled":false,"rental_uris":{"android":"levelo://app?vid=ddf2c496-baab-47f2-abb2-8a8d2f6d378c","ios":"levelo://app?vid=ddf2c496-baab-47f2-abb2-8a8d2f6d378c"},"vehicle_type_id":"4","last_reported":1727539809,"current_range_meters":14400,"station_id":"","pricing_plan_id":"cebpf4jnsgd1na2vs0mg"},{"bike_id":"2120281d-853d-4458-aec2-de006de68b30","system_id":"levelo_inurba_marseille","lat":43.25581,"lon":5.38221,"is_reserved":false,"is_disabled":false,"rental_uris":{"android":"levelo://app?vid=2120281d-853d-4458-aec2-de006de68b30","ios":"levelo://app?vid=2120281d-853d-4458-aec2-de006de68b30"},"vehicle_type_id":"4","last_reported":1727539809,"current_range_meters":7200,"station_id":"ce4bhih2rcd13ifvqfs0","pricing_plan_id":"cebpf4jnsgd1na2vs0mg"},{"bike_id":"8ede4708-b1c8-4006-8620-6b37a75ab16e","system_id":"levelo_inurba_marseille","lat":43.25002,"lon":5.38927,"is_reserved":false,"is_disabled":false,"rental_uris":{"android":"levelo://app?vid=8ede4708-b1c8-4006-8620-6b37a75ab16e","ios":"levelo://app?vid=8ede4708-b1c8-4006-8620-6b37a75ab16e"},"vehicle_type_id":"4","last_reported":1727539809,"current_range_meters":2800,"station_id":"ce4bhgp2rcd13ifvqfd0","pricing_plan_id":"cebpf4jnsgd1na2vs0mg"},{"bike_id":"8a0e042a-826a-4100-b05e-b74cd1b30fb8","system_id":"levelo_inurba_marseille","lat":43.29899,"lon":5.43676,"is_reserved":false,"is_disabled":false,"rental_uris":{"android":"levelo://app?vid=8a0e042a-826a-4100-b05e-b74cd1b30fb8","ios":"levelo://app?vid=8a0e042a-826a-4100-b05e-b74cd1b30fb8"},"vehicle_type_id":"4","last_reported":1727539809,"current_range_meters":38800,"station_id":"ce4bhpp2rcd13ifvqhfg","pricing_plan_id":"cebpf4jnsgd1na2vs0mg"},{"bike_id":"ee187807-9a0b-4538-8c01-d589976c877e","system_id":"levelo_inurba_marseille","lat":43.23181,"lon":5.39984,"is_reserved":false,"is_disabled":false,"rental_uris":{"android":"levelo://app?vid=ee187807-9a0b-4538-8c01-d589976c877e","ios":"levelo://app?vid=ee187807-9a0b-4538-8c01-d589976c877e"},"vehicle_type_id":"4","last_reported":1727539809,"current_range_meters":38800,"station_id":"ce4bhn12rcd13ifvqgqg","pricing_plan_id":"cebpf4jnsgd1na2vs0mg"},{"bike_id":"a7e4951f-d9cd-4ef6-baba-b38b02dc4037","system_id":"levelo_inurba_marseille","lat":43.29796,"lon":5.3935,"is_reserved":false,"is_disabled":false,"rental_uris":{"android":"levelo://app?vid=a7e4951f-d9cd-4ef6-baba-b38b02dc4037","ios":"levelo://app?vid=a7e4951f-d9cd-4ef6-baba-b38b02dc4037"},"vehicle_type_id":"4","last_reported":1727539809,"current_range_meters":17200,"station_id":"chh1huq6cuj3fo74tm60","pricing_plan_id":"cebpf4jnsgd1na2vs0mg"},