{"last_updated":1778931693,"ttl":60,"version":"2.2","data":{"bikes":[{"bike_id":"db053045-ed2b-4e0d-ad9c-d47a93c3c242","system_id":"levelo_inurba_marseille","lat":43.2959,"lon":5.37506,"is_reserved":false,"is_disabled":true,"rental_uris":{"android":"levelo://app?vid=db053045-ed2b-4e0d-ad9c-d47a93c3c242","ios":"levelo://app?vid=db053045-ed2b-4e0d-ad9c-d47a93c3c242"},"vehicle_type_id":"4","last_reported":1778931694,"current_range_meters":2800,"station_id":"ce4bgh92rcd13ifvqb50","pricing_plan_id":"cebpf4jnsgd1na2vs0mg"},{"bike_id":"08c772e3-0504-446f-b5ab-8f8a5debda77","system_id":"levelo_inurba_marseille","lat":43.28153,"lon":5.42621,"is_reserved":false,"is_disabled":false,"rental_uris":{"android":"levelo://app?vid=08c772e3-0504-446f-b5ab-8f8a5debda77","ios":"levelo://app?vid=08c772e3-0504-446f-b5ab-8f8a5debda77"},"vehicle_type_id":"4","last_reported":1778931694,"current_range_meters":2800,"station_id":"ce4bhnh2rcd13ifvqgug","pricing_plan_id":"cebpf4jnsgd1na2vs0mg"},{"bike_id":"a4c2eede-e013-4321-8302-912589e82a3a","system_id":"levelo_inurba_marseille","lat":43.31181,"lon":5.36826,"is_reserved":false,"is_disabled":false,"rental_uris":{"android":"levelo://app?vid=a4c2eede-e013-4321-8302-912589e82a3a","ios":"levelo://app?vid=a4c2eede-e013-4321-8302-912589e82a3a"},"vehicle_type_id":"4","last_reported":1778931694,"current_range_meters":2800,"station_id":"","pricing_plan_id":"cebpf4jnsgd1na2vs0mg"},{"bike_id":"683c2f64-d560-477d-bf79-f81884be1301","system_id":"levelo_inurba_marseille","lat":43.26383,"lon":5.40297,"is_reserved":false,"is_disabled":false,"rental_uris":{"android":"levelo://app?vid=683c2f64-d560-477d-bf79-f81884be1301","ios":"levelo://app?vid=683c2f64-d560-477d-bf79-f81884be1301"},"vehicle_type_id":"4","last_reported":1778931694,"current_range_meters":2800,"station_id":"","pricing_plan_id":"cebpf4jnsgd1na2vs0mg"},{"bike_id":"0d5dd8d5-22ce-4cf4-96c4-a16487c95253","system_id":"levelo_inurba_marseille","lat":43.29966,"lon":5.38673,"is_reserved":false,"is_disabled":false,"rental_uris":{"android":"levelo://app?vid=0d5dd8d5-22ce-4cf4-96c4-a16487c95253","ios":"levelo://app?vid=0d5dd8d5-22ce-4cf4-96c4-a16487c95253"},"vehicle_type_id":"4","last_reported":1778931694,"current_range_meters":2800,"station_id":"","pricing_plan_id":"cebpf4jnsgd1na2vs0mg"},{"bike_id":"3a4f4877-6366-4cf4-82d1-f835cd4c4b50","system_id":"levelo_inurba_marseille","lat":43.231499,"lon":5.43724,"is_reserved":false,"is_disabled":false,"rental_uris":{"android":"levelo://app?vid=3a4f4877-6366-4cf4-82d1-f835cd4c4b50","ios":"levelo://app?vid=3a4f4877-6366-4cf4-82d1-f835cd4c4b50"},"vehicle_type_id":"4","last_reported":1778931694,"current_range_meters":2800,"station_id":"ce4bhmp2rcd13ifvqgog","pricing_plan_id":"cebpf4jnsgd1na2vs0mg"},{"bike_id":"a25c7dfe-3cf1-45e6-98f0-576db10cdfab","system_id":"levelo_inurba_marseille","lat":43.25328,"lon":5.42151,"is_reserved":false,"is_disabled":false,"rental_uris":{"android":"levelo://app?vid=a25c7dfe-3cf1-45e6-98f0-576db10cdfab","ios":"levelo://app?vid=a25c7dfe-3cf1-45e6-98f0-576db10cdfab"},"vehicle_type_id":"4","last_reported":1778931694,"current_range_meters":3200,"station_id":"st_d2m65c5bi1j21697t3ng","pricing_plan_id":"cebpf4jnsgd1na2vs0mg"},{"bike_id":"c4ee361f-040e-4ad9-8fc8-7b730e9f0c39","system_id":"levelo_inurba_marseille","lat":43.337444,"lon":5.374475,"is_reserved":false,"is_disabled":true,"rental_uris":{"android":"levelo://app?vid=c4ee361f-040e-4ad9-8fc8-7b730e9f0c39","ios":"levelo://app?vid=c4ee361f-040e-4ad9-8fc8-7b730e9f0c39"},"vehicle_type_id":"4","last_reported":1778931694,"current_range_meters":3200,"station_id":"","pricing_plan_id":"cebpf4jnsgd1na2vs0mg"},{"bike_id":"9b0d300e-df14-4113-9c71-af15c744e30b","system_id":"levelo_inurba_marseille","lat":43.31714,"lon":5.42382,"is_reserved":false,"is_disabled":false,"rental_uris":{"android":"levelo://app?vid=9b0d300e-df14-4113-9c71-af15c744e30b","ios":"levelo://app?vid=9b0d300e-df14-4113-9c71-af15c744e30b"},"vehicle_type_id":"4","last_reported":1778931694,"current_range_meters":3200,"station_id":"ce4bhp92rcd13ifvqhbg","pricing_plan_id":"cebpf4jnsgd1na2vs0mg"},{"bike_id":"216987c8-1f68-4f7b-91e0-236683f77960","system_id":"levelo_inurba_marseille","lat":43.2465,"lon":5.38904,"is_reserved":false,"is_disabled":false,"rental_uris":{"android":"levelo://app?vid=216987c8-1f68-4f7b-91e0-236683f77960","ios":"levelo://app?vid=216987c8-1f68-4f7b-91e0-236683f77960"},"vehicle_type_id":"4","last_reported":1778931694,"current_range_meters":3200,"station_id":"ce4bhg12rcd13ifvqf60","pricing_plan_id":"cebpf4jnsgd1na2vs0mg"},{"bike_id":"b1b1c9ad-0e11-41a8-95b1-ee1803460284","system_id":"levelo_inurba_marseille","lat":43.3355,"lon":5.37458,"is_reserved":false,"is_disabled":false,"rental_uris":{"android":"levelo://app?vid=b1b1c9ad-0e11-41a8-95b1-ee1803460284","ios":"levelo://app?vid=b1b1c9ad-0e11-41a8-95b1-ee1803460284"},"vehicle_type_id":"4","last_reported":1778931694,"current_range_meters":3200,"station_id":"st_d46tts09ee8s73dlu43g","pricing_plan_id":"cebpf4jnsgd1na2vs0mg"},{"bike_id":"f3198137-cbc8-4311-8899-b4ab689fee46","system_id":"levelo_inurba_marseille","lat":43.26031,"lon":5.37542,"is_reserved":false,"is_disabled":true,"rental_uris":{"android":"levelo://app?vid=f3198137-cbc8-4311-8899-b4ab689fee46","ios":"levelo://app?vid=f3198137-cbc8-4311-8899-b4ab689fee46"},"vehicle_type_id":"4","last_reported":1778931694,"current_range_meters":3200,"station_id":"ce4bhgh2rcd13ifvqfa0","pricing_plan_id":"cebpf4jnsgd1na2vs0mg"},{"bike_id":"2e76f4d6-2f20-4e80-a9b5-3132602c2ce9","system_id":"levelo_inurba_marseille","lat":43.24679,"lon":5.38145,"is_reserved":false,"is_disabled":false,"rental_uris":{"android":"levelo://app?vid=2e76f4d6-2f20-4e80-a9b5-3132602c2ce9","ios":"levelo://app?vid=2e76f4d6-2f20-4e80-a9b5-3132602c2ce9"},"vehicle_type_id":"4","last_reported":1778931694,"current_range_meters":3200,"station_id":"ce4bhih2rcd13ifvqfr0","pricing_plan_id":"cebpf4jnsgd1na2vs0mg"},{"bike_id":"0851ef02-abf8-47b5-8d41-445bb5757760","system_id":"levelo_inurba_marseille","lat":43.26951,"lon":5.40241,"is_reserved":false,"is_disabled":false,"rental_uris":{"android":"levelo://app?vid=0851ef02-abf8-47b5-8d41-445bb5757760","ios":"levelo://app?vid=0851ef02-abf8-47b5-8d41-445bb5757760"},"vehicle_type_id":"4","last_reported":1778931694,"current_range_meters":3200,"station_id":"cjm6bp8fraef2m0cb0m0","pricing_plan_id":"cebpf4jnsgd1na2vs0mg"},{"bike_id":"eb69ded8-3844-4366-a6c0-c2401c6cc839","system_id":"levelo_inurba_marseille","lat":43.28711,"lon":5.46647,"is_reserved":false,"is_disabled":false,"rental_uris":{"android":"levelo://app?vid=eb69ded8-3844-4366-a6c0-c2401c6cc839","ios":"levelo://app?vid=eb69ded8-3844-4366-a6c0-c2401c6cc839"},"vehicle_type_id":"4","last_reported":1778931694,"current_range_meters":3200,"station_id":"st_d6tc3vkotcvc738tfjhg","pricing_plan_id":"cebpf4jnsgd1na2vs0mg"},{"bike_id":"5842d00e-d8a8-43bf-a2c8-9628aa748a0e","system_id":"levelo_inurba_marseille","lat":43.27912,"lon":5.39606,"is_reserved":false,"is_disabled":false,"rental_uris":{"android":"levelo://app?vid=5842d00e-d8a8-43bf-a2c8-9628aa748a0e","ios":"levelo://app?vid=5842d00e-d8a8-43bf-a2c8-9628aa748a0e"},"vehicle_type_id":"4","last_reported":1778931694,"current_range_meters":3600,"station_id":"ce4bhf92rcd13ifvqf40","pricing_plan_id":"cebpf4jnsgd1na2vs0mg"},{"bike_id":"39902a5f-dd3a-4dff-a866-265ab0aae161","system_id":"levelo_inurba_marseille","lat":43.296282,"lon":5.377255,"is_reserved":false,"is_disabled":false,"rental_uris":{"android":"levelo://app?vid=39902a5f-dd3a-4dff-a866-265ab0aae161","ios":"levelo://app?vid=39902a5f-dd3a-4dff-a866-265ab0aae161"},"vehicle_type_id":"4","last_reported":1778931694,"current_range_meters":3600,"station_id":"ce4bgi92rcd13ifvqb90","pricing_plan_id":"cebpf4jnsgd1na2vs0mg"},{"bike_id":"6661dcda-2c61-4ee5-8306-6a982459bb60","system_id":"levelo_inurba_marseille","lat":43.25694,"lon":5.4112,"is_reserved":false,"is_disabled":false,"rental_uris":{"android":"levelo://app?vid=6661dcda-2c61-4ee5-8306-6a982459bb60","ios":"levelo://app?vid=6661dcda-2c61-4ee5-8306-6a982459bb60"},"vehicle_type_id":"4","last_reported":1778931694,"current_range_meters":3600,"station_id":"ce4bhkp2rcd13ifvqgd0","pricing_plan_id":"cebpf4jnsgd1na2vs0mg"},{"bike_id":"4c4af55b-f60f-4b0e-bc18-caba52c3f95e","system_id":"levelo_inurba_marseille","lat":43.29553,"lon":5.42292,"is_reserved":false,"is_disabled":false,"rental_uris":{"android":"levelo://app?vid=4c4af55b-f60f-4b0e-bc18-caba52c3f95e","ios":"levelo://app?vid=4c4af55b-f60f-4b0e-bc18-caba52c3f95e"},"vehicle_type_id":"4","last_reported":1778931694,"current_range_meters":3600,"station_id":"ce4bhph2rcd13ifvqhdg","pricing_plan_id":"cebpf4jnsgd1na2vs0mg"},{"bike_id":"07616618-da5b-453a-b67e-7729193fe1f9","system_id":"levelo_inurba_marseille","lat":43.27956,"lon":5.38745,"is_reserved":false,"is_disabled":false,"rental_uris":{"android":"levelo://app?vid=07616618-da5b-453a-b67e-7729193fe1f9","ios":"levelo://app?vid=07616618-da5b-453a-b67e-7729193fe1f9"},"vehicle_type_id":"4","last_reported":1778931694,"current_range_meters":3600,"station_id":"ce4bhg12rcd13ifvqf80","pricing_plan_id":"cebpf4jnsgd1na2vs0mg"},{"bike_id":"18eb90ac-eec2-4913-9241-dd8d26049a6e","system_id":"levelo_inurba_marseille","lat":43.28756,"lon":5.46717,"is_reserved":false,"is_disabled":false,"rental_uris":{"android":"levelo://app?vid=18eb90ac-eec2-4913-9241-dd8d26049a6e","ios":"levelo://app?vid=18eb90ac-eec2-4913-9241-dd8d26049a6e"},"vehicle_type_id":"4","last_reported":1778931694,"current_range_meters":3600,"station_id":"","pricing_plan_id":"cebpf4jnsgd1na2vs0mg"},{"bike_id":"8d116804-73f0-4e31-802f-be4ec134b69f","system_id":"levelo_inurba_marseille","lat":43.28853,"lon":5.39332,"is_reserved":false,"is_disabled":false,"rental_uris":{"android":"levelo://app?vid=8d116804-73f0-4e31-802f-be4ec134b69f","ios":"levelo://app?vid=8d116804-73f0-4e31-802f-be4ec134b69f"},"vehicle_type_id":"4","last_reported":1778931694,"current_range_meters":3600,"station_id":"ce4bh2p2rcd13ifvqdi0","pricing_plan_id":"cebpf4jnsgd1na2vs0mg"},{"bike_id":"a631b4d6-9c94-4ced-89ed-f9b00f473821","system_id":"levelo_inurba_marseille","lat":43.28595,"lon":5.35116,"is_reserved":false,"is_disabled":false,"rental_uris":{"android":"levelo://app?vid=a631b4d6-9c94-4ced-89ed-f9b00f473821","ios":"levelo://app?vid=a631b4d6-9c94-4ced-89ed-f9b00f473821"},"vehicle_type_id":"4","last_reported":1778931694,"current_range_meters":4000,"station_id":"ce4bhch2rcd13ifvqeug","pricing_plan_id":"cebpf4jnsgd1na2vs0mg"},{"bike_id":"8dbf00ed-ebb6-4545-a181-a737a2afcaf2","system_id":"levelo_inurba_marseille","lat":43.21193,"lon":5.35076,"is_reserved":false,"is_disabled":false,"rental_uris":{"android":"levelo://app?vid=8dbf00ed-ebb6-4545-a181-a737a2afcaf2","ios":"levelo://app?vid=8dbf00ed-ebb6-4545-a181-a737a2afcaf2"},"vehicle_type_id":"4","last_reported":1778931694,"current_range_meters":4000,"station_id":"st_cvj6sg6p6f1abm77japg","pricing_plan_id":"cebpf4jnsgd1na2vs0mg"},{"bike_id":"df06f853-df8b-44c5-8abd-63dd254e997c","system_id":"levelo_inurba_marseille","lat":43.29831,"lon":5.38625,"is_reserved":false,"is_disabled":false,"rental_uris":{"android":"levelo://app?vid=df06f853-df8b-44c5-8abd-63dd254e997c","ios":"levelo://app?vid=df06f853-df8b-44c5-8abd-63dd254e997c"},"vehicle_type_id":"4","last_reported":1778931694,"current_range_meters":4000,"station_id":"","pricing_plan_id":"cebpf4jnsgd1na2vs0mg"},{"bike_id":"197f8590-4140-4e11-8b87-67ad98bb4bca","system_id":"levelo_inurba_marseille","lat":43.28611,"lon":5.37059,"is_reserved":false,"is_disabled":true,"rental_uris":{"android":"levelo://app?vid=197f8590-4140-4e11-8b87-67ad98bb4bca","ios":"levelo://app?vid=197f8590-4140-4e11-8b87-67ad98bb4bca"},"vehicle_type_id":"4","last_reported":1778931694,"current_range_meters":4000,"station_id":"ce4bht12rcd13ifvqi60","pricing_plan_id":"cebpf4jnsgd1na2vs0mg"},{"bike_id":"ca67e4cc-935b-43a2-8cd4-9d559cc29bb0","system_id":"levelo_inurba_marseille","lat":43.26954,"lon":5.38641,"is_reserved":false,"is_disabled":false,"rental_uris":{"android":"levelo://app?vid=ca67e4cc-935b-43a2-8cd4-9d559cc29bb0","ios":"levelo://app?vid=ca67e4cc-935b-43a2-8cd4-9d559cc29bb0"},"vehicle_type_id":"4","last_reported":1778931694,"current_range_meters":4000,"station_id":"ce4bhh92rcd13ifvqfh0","pricing_plan_id":"cebpf4jnsgd1na2vs0mg"},{"bike_id":"e0da8364-460d-4f6a-afe8-09ef339ab7cf","system_id":"levelo_inurba_marseille","lat":43.29273,"lon":5.37616,"is_reserved":false,"is_disabled":false,"rental_uris":{"android":"levelo://app?vid=e0da8364-460d-4f6a-afe8-09ef339ab7cf","ios":"levelo://app?vid=e0da8364-460d-4f6a-afe8-09ef339ab7cf"},"vehicle_type_id":"4","last_reported":1778931694,"current_range_meters":4000,"station_id":"ce4bgi12rcd13ifvqb80","pricing_plan_id":"cebpf4jnsgd1na2vs0mg"},{"bike_id":"919a8fad-5bee-4771-be4b-62810fbda372","system_id":"levelo_inurba_marseille","lat":43.26225,"lon":5.40445,"is_reserved":false,"is_disabled":false,"rental_uris":{"android":"levelo://app?vid=919a8fad-5bee-4771-be4b-62810fbda372","ios":"levelo://app?vid=919a8fad-5bee-4771-be4b-62810fbda372"},"vehicle_type_id":"4","last_reported":1778931694,"current_range_meters":4000,"station_id":"ce4bhmh2rcd13ifvqgmg","pricing_plan_id":"cebpf4jnsgd1na2vs0mg"},{"bike_id":"69a4de94-ae1f-4385-aa61-58a2336f8cb8","system_id":"levelo_inurba_marseille","lat":43.30005,"lon":5.43049,"is_reserved":false,"is_disabled":false,"rental_uris":{"android":"levelo://app?vid=69a4de94-ae1f-4385-aa61-58a2336f8cb8","ios":"levelo://app?vid=69a4de94-ae1f-4385-aa61-58a2336f8cb8"},"vehicle_type_id":"4","last_reported":1778931694,"current_range_meters":4000,"station_id":"","pricing_plan_id":"cebpf4jnsgd1na2vs0mg"},{"bike_id":"417bd26b-1701-485b-b896-bb7adc98bac9","system_id":"levelo_inurba_marseille","lat":43.2396,"lon":5.36613,"is_reserved":false,"is_disabled":true,"rental_uris":{"android":"levelo://app?vid=417bd26b-1701-485b-b896-bb7adc98bac9","ios":"levelo://app?vid=417bd26b-1701-485b-b896-bb7adc98bac9"},"vehicle_type_id":"4","last_reported":1778931694,"current_range_meters":4000,"station_id":"ce4bhi12rcd13ifvqfp0","pricing_plan_id":"cebpf4jnsgd1na2vs0mg"},{"bike_id":"44d71ae5-a5e6-42a3-99db-4175ddd046fa","system_id":"levelo_inurba_marseille","lat":43.3105,"lon":5.37172,"is_reserved":false,"is_disabled":false,"rental_uris":{"android":"levelo://app?vid=44d71ae5-a5e6-42a3-99db-4175ddd046fa","ios":"levelo://app?vid=44d71ae5-a5e6-42a3-99db-4175ddd046fa"},"vehicle_type_id":"4","last_reported":1778931694,"current_range_meters":4000,"station_id":"st_d4kl2rp97mjs73e7tdfg","pricing_plan_id":"cebpf4jnsgd1na2vs0mg"},{"bike_id":"4c1456b4-c5f4-49ed-bd33-6f63525d7c4f","system_id":"levelo_inurba_marseille","lat":43.27978,"lon":5.3872,"is_reserved":false,"is_disabled":true,"rental_uris":{"android":"levelo://app?vid=4c1456b4-c5f4-49ed-bd33-6f63525d7c4f","ios":"levelo://app?vid=4c1456b4-c5f4-49ed-bd33-6f63525d7c4f"},"vehicle_type_id":"4","last_reported":1778931694,"current_range_meters":4000,"station_id":"ce4bhg12rcd13ifvqf80","pricing_plan_id":"cebpf4jnsgd1na2vs0mg"},{"bike_id":"664a66cf-32f5-4d4e-b164-e0c7e3c4db03","system_id":"levelo_inurba_marseille","lat":43.250845,"lon":5.395246,"is_reserved":false,"is_disabled":false,"rental_uris":{"android":"levelo://app?vid=664a66cf-32f5-4d4e-b164-e0c7e3c4db03","ios":"levelo://app?vid=664a66cf-32f5-4d4e-b164-e0c7e3c4db03"},"vehicle_type_id":"4","last_reported":1778931694,"current_range_meters":4000,"station_id":"ce4bhm12rcd13ifvqgkg","pricing_plan_id":"cebpf4jnsgd1na2vs0mg"},{"bike_id":"6333f407-6aa7-4348-8257-6f3e46ee6fc2","system_id":"levelo_inurba_marseille","lat":43.26282,"lon":5.40494,"is_reserved":false,"is_disabled":false,"rental_uris":{"android":"levelo://app?vid=6333f407-6aa7-4348-8257-6f3e46ee6fc2","ios":"levelo://app?vid=6333f407-6aa7-4348-8257-6f3e46ee6fc2"},"vehicle_type_id":"4","last_reported":1778931694,"current_range_meters":4000,"station_id":"ce4bhmh2rcd13ifvqgmg","pricing_plan_id":"cebpf4jnsgd1na2vs0mg"},{"bike_id":"2a01f0d7-8080-47d7-9ca5-40364fc7ed22","system_id":"levelo_inurba_marseille","lat":43.27622,"lon":5.36096,"is_reserved":false,"is_disabled":false,"rental_uris":{"android":"levelo://app?vid=2a01f0d7-8080-47d7-9ca5-40364fc7ed22","ios":"levelo://app?vid=2a01f0d7-8080-47d7-9ca5-40364fc7ed22"},"vehicle_type_id":"4","last_reported":1778931694,"current_range_meters":4000,"station_id":"ce4bgj92rcd13ifvqbe0","pricing_plan_id":"cebpf4jnsgd1na2vs0mg"},{"bike_id":"c15b7d9d-4d2e-4558-9fe7-1ee3f2efc7ae","system_id":"levelo_inurba_marseille","lat":43.29491,"lon":5.43311,"is_reserved":false,"is_disabled":false,"rental_uris":{"android":"levelo://app?vid=c15b7d9d-4d2e-4558-9fe7-1ee3f2efc7ae","ios":"levelo://app?vid=c15b7d9d-4d2e-4558-9fe7-1ee3f2efc7ae"},"vehicle_type_id":"4","last_reported":1778931694,"current_range_meters":4000,"station_id":"st_d3j5ugp08ojc73fj9d10","pricing_plan_id":"cebpf4jnsgd1na2vs0mg"},{"bike_id":"55ba4af7-a49e-4f0b-adbf-e969fb355a90","system_id":"levelo_inurba_marseille","lat":43.30117,"lon":5.39859,"is_reserved":false,"is_disabled":false,"rental_uris":{"android":"levelo://app?vid=55ba4af7-a49e-4f0b-adbf-e969fb355a90","ios":"levelo://app?vid=55ba4af7-a49e-4f0b-adbf-e969fb355a90"},"vehicle_type_id":"4","last_reported":1778931694,"current_range_meters":4000,"station_id":"ce4bh0h2rcd13ifvqd40","pricing_plan_id":"cebpf4jnsgd1na2vs0mg"},{"bike_id":"dba95504-7c13-4871-8944-98dc8ed31e4f","system_id":"levelo_inurba_marseille","lat":43.28454,"lon":5.35892,"is_reserved":false,"is_disabled":false,"rental_uris":{"android":"levelo://app?vid=dba95504-7c13-4871-8944-98dc8ed31e4f","ios":"levelo://app?vid=dba95504-7c13-4871-8944-98dc8ed31e4f"},"vehicle_type_id":"4","last_reported":1778931694,"current_range_meters":4000,"station_id":"ce4bhah2rcd13ifvqei0","pricing_plan_id":"cebpf4jnsgd1na2vs0mg"},{"bike_id":"a47210f8-ae85-48d0-963a-6b250afbdadb","system_id":"levelo_inurba_marseille","lat":43.27999,"lon":5.40019,"is_reserved":false,"is_disabled":false,"rental_uris":{"android":"levelo://app?vid=a47210f8-ae85-48d0-963a-6b250afbdadb","ios":"levelo://app?vid=a47210f8-ae85-48d0-963a-6b250afbdadb"},"vehicle_type_id":"4","last_reported":1778931694,"current_range_meters":4000,"station_id":"ce4bho92rcd13ifvqh4g","pricing_plan_id":"cebpf4jnsgd1na2vs0mg"},{"bike_id":"094f6459-ae1b-44c0-8ecd-9766a290b1ae","system_id":"levelo_inurba_marseille","lat":43.24952,"lon":5.40491,"is_reserved":false,"is_disabled":false,"rental_uris":{"android":"levelo://app?vid=094f6459-ae1b-44c0-8ecd-9766a290b1ae","ios":"levelo://app?vid=094f6459-ae1b-44c0-8ecd-9766a290b1ae"},"vehicle_type_id":"4","last_reported":1778931694,"current_range_meters":4000,"station_id":"st_d2ngiaodas8pm72gd1h0","pricing_plan_id":"cebpf4jnsgd1na2vs0mg"},{"bike_id":"bcb4ea4e-05ef-462c-bde5-747a9b9d0362","system_id":"levelo_inurba_marseille","lat":43.28836,"lon":5.35857,"is_reserved":false,"is_disabled":false,"rental_uris":{"android":"levelo://app?vid=bcb4ea4e-05ef-462c-bde5-747a9b9d0362","ios":"levelo://app?vid=bcb4ea4e-05ef-462c-bde5-747a9b9d0362"},"vehicle_type_id":"4","last_reported":1778931694,"current_range_meters":4000,"station_id":"ce4bhb12rcd13ifvqem0","pricing_plan_id":"cebpf4jnsgd1na2vs0mg"},{"bike_id":"67ecae68-d24a-4dbc-b685-351365b700de","system_id":"levelo_inurba_marseille","lat":43.25497,"lon":5.37644,"is_reserved":false,"is_disabled":false,"rental_uris":{"android":"levelo://app?vid=67ecae68-d24a-4dbc-b685-351365b700de","ios":"levelo://app?vid=67ecae68-d24a-4dbc-b685-351365b700de"},"vehicle_type_id":"4","last_reported":1778931694,"current_range_meters":4400,"station_id":"ce4bhh12rcd13ifvqff0","pricing_plan_id":"cebpf4jnsgd1na2vs0mg"},{"bike_id":"fd959105-0404-434b-9e6f-8cdc000d6a99","system_id":"levelo_inurba_marseille","lat":43.3019,"lon":5.36631,"is_reserved":false,"is_disabled":false,"rental_uris":{"android":"levelo://app?vid=fd959105-0404-434b-9e6f-8cdc000d6a99","ios":"levelo://app?vid=fd959105-0404-434b-9e6f-8cdc000d6a99"},"vehicle_type_id":"4","last_reported":1778931694,"current_range_meters":4400,"station_id":"ce4bgrh2rcd13ifvqc8g","pricing_plan_id":"cebpf4jnsgd1na2vs0mg"},{"bike_id":"66867cd3-7d4c-4388-960a-415671360cb4","system_id":"levelo_inurba_marseille","lat":43.30803,"lon":5.38155,"is_reserved":false,"is_disabled":false,"rental_uris":{"android":"levelo://app?vid=66867cd3-7d4c-4388-960a-415671360cb4","ios":"levelo://app?vid=66867cd3-7d4c-4388-960a-415671360cb4"},"vehicle_type_id":"4","last_reported":1778931694,"current_range_meters":4400,"station_id":"ce4bgt12rcd13ifvqce0","pricing_plan_id":"cebpf4jnsgd1na2vs0mg"},{"bike_id":"ac7fb6af-df53-4daf-971f-82496e99f4ea","system_id":"levelo_inurba_marseille","lat":43.291942,"lon":5.357929,"is_reserved":false,"is_disabled":false,"rental_uris":{"android":"levelo://app?vid=ac7fb6af-df53-4daf-971f-82496e99f4ea","ios":"levelo://app?vid=ac7fb6af-df53-4daf-971f-82496e99f4ea"},"vehicle_type_id":"4","last_reported":1778931694,"current_range_meters":4400,"station_id":"ce4bhb12rcd13ifvqel0","pricing_plan_id":"cebpf4jnsgd1na2vs0mg"},{"bike_id":"3007388a-056f-4684-be3d-794e8cb052f8","system_id":"levelo_inurba_marseille","lat":43.29741,"lon":5.37687,"is_reserved":false,"is_disabled":false,"rental_uris":{"android":"levelo://app?vid=3007388a-056f-4684-be3d-794e8cb052f8","ios":"levelo://app?vid=3007388a-056f-4684-be3d-794e8cb052f8"},"vehicle_type_id":"4","last_reported":1778931694,"current_range_meters":4400,"station_id":"ce4bgkh2rcd13ifvqbl0","pricing_plan_id":"cebpf4jnsgd1na2vs0mg"},{"bike_id":"86b19a19-42d3-4b2a-bcb2-c54a24dacf44","system_id":"levelo_inurba_marseille","lat":43.28224,"lon":5.39057,"is_reserved":false,"is_disabled":false,"rental_uris":{"android":"levelo://app?vid=86b19a19-42d3-4b2a-bcb2-c54a24dacf44","ios":"levelo://app?vid=86b19a19-42d3-4b2a-bcb2-c54a24dacf44"},"vehicle_type_id":"4","last_reported":1778931694,"current_range_meters":4400,"station_id":"ce4bhn92rcd13ifvqgsg","pricing_plan_id":"cebpf4jnsgd1na2vs0mg"},{"bike_id":"dd96011d-4f3b-4ccc-a1bb-a3f377ad91bb","system_id":"levelo_inurba_marseille","lat":43.23177,"lon":5.39985,"is_reserved":false,"is_disabled":false,"rental_uris":{"android":"levelo://app?vid=dd96011d-4f3b-4ccc-a1bb-a3f377ad91bb","ios":"levelo://app?vid=dd96011d-4f3b-4ccc-a1bb-a3f377ad91bb"},"vehicle_type_id":"4","last_reported":1778931694,"current_range_meters":4400,"station_id":"ce4bhn12rcd13ifvqgqg","pricing_plan_id":"cebpf4jnsgd1na2vs0mg"},{"bike_id":"6f25f3df-5ff0-4b30-afe7-1a30d82680dc","system_id":"levelo_inurba_marseille","lat":43.27609,"lon":5.3612,"is_reserved":false,"is_disabled":false,"rental_uris":{"android":"levelo://app?vid=6f25f3df-5ff0-4b30-afe7-1a30d82680dc","ios":"levelo://app?vid=6f25f3df-5ff0-4b30-afe7-1a30d82680dc"},"vehicle_type_id":"4","last_reported":1778931694,"current_range_meters":4400,"station_id":"ce4bgj92rcd13ifvqbe0","pricing_plan_id":"cebpf4jnsgd1na2vs0mg"},{"bike_id":"f35538c5-f923-479b-ac74-73e10ca6c589","system_id":"levelo_inurba_marseille","lat":43.25598,"lon":5.38225,"is_reserved":false,"is_disabled":false,"rental_uris":{"android":"levelo://app?vid=f35538c5-f923-479b-ac74-73e10ca6c589","ios":"levelo://app?vid=f35538c5-f923-479b-ac74-73e10ca6c589"},"vehicle_type_id":"4","last_reported":1778931694,"current_range_meters":4400,"station_id":"ce4bhih2rcd13ifvqfs0","pricing_plan_id":"cebpf4jnsgd1na2vs0mg"},{"bike_id":"2214caf3-9aea-4a83-affe-5bf61833eb11","system_id":"levelo_inurba_marseille","lat":43.30041,"lon":5.39848,"is_reserved":false,"is_disabled":true,"rental_uris":{"android":"levelo://app?vid=2214caf3-9aea-4a83-affe-5bf61833eb11","ios":"levelo://app?vid=2214caf3-9aea-4a83-affe-5bf61833eb11"},"vehicle_type_id":"4","last_reported":1778931694,"current_range_meters":4400,"station_id":"","pricing_plan_id":"cebpf4jnsgd1na2vs0mg"},{"bike_id":"4a8828bf-5352-4721-8c19-0a06947545c0","system_id":"levelo_inurba_marseille","lat":43.28025,"lon":5.4165,"is_reserved":false,"is_disabled":false,"rental_uris":{"android":"levelo://app?vid=4a8828bf-5352-4721-8c19-0a06947545c0","ios":"levelo://app?vid=4a8828bf-5352-4721-8c19-0a06947545c0"},"vehicle_type_id":"4","last_reported":1778931694,"current_range_meters":4400,"station_id":"ce4bho12rcd13ifvqh1g","pricing_plan_id":"cebpf4jnsgd1na2vs0mg"},{"bike_id":"89a26143-74c4-49ae-b5cf-e30eaecdc6d9","system_id":"levelo_inurba_marseille","lat":43.25324,"lon":5.42041,"is_reserved":false,"is_disabled":false,"rental_uris":{"android":"levelo://app?vid=89a26143-74c4-49ae-b5cf-e30eaecdc6d9","ios":"levelo://app?vid=89a26143-74c4-49ae-b5cf-e30eaecdc6d9"},"vehicle_type_id":"4","last_reported":1778931694,"current_range_meters":4400,"station_id":"","pricing_plan_id":"cebpf4jnsgd1na2vs0mg"},{"bike_id":"8afefca6-8f25-4662-9f8a-5dfd73083971","system_id":"levelo_inurba_marseille","lat":43.31131,"lon":5.378283,"is_reserved":false,"is_disabled":false,"rental_uris":{"android":"levelo://app?vid=8afefca6-8f25-4662-9f8a-5dfd73083971","ios":"levelo://app?vid=8afefca6-8f25-4662-9f8a-5dfd73083971"},"vehicle_type_id":"4","last_reported":1778931694,"current_range_meters":4800,"station_id":"ce4bgt92rcd13ifvqcg0","pricing_plan_id":"cebpf4jnsgd1na2vs0mg"},{"bike_id":"305f8012-853c-4e5c-b4a3-badea1215a44","system_id":"levelo_inurba_marseille","lat":43.33754,"lon":5.37506,"is_reserved":false,"is_disabled":false,"rental_uris":{"android":"levelo://app?vid=305f8012-853c-4e5c-b4a3-badea1215a44","ios":"levelo://app?vid=305f8012-853c-4e5c-b4a3-badea1215a44"},"vehicle_type_id":"4","last_reported":1778931694,"current_range_meters":4800,"station_id":"","pricing_plan_id":"cebpf4jnsgd1na2vs0mg"},{"bike_id":"b519419a-dce7-4ad3-83c9-f5555993760a","system_id":"levelo_inurba_marseille","lat":43.21194,"lon":5.3507,"is_reserved":false,"is_disabled":false,"rental_uris":{"android":"levelo://app?vid=b519419a-dce7-4ad3-83c9-f5555993760a","ios":"levelo://app?vid=b519419a-dce7-4ad3-83c9-f5555993760a"},"vehicle_type_id":"4","last_reported":1778931694,"current_range_meters":5600,"station_id":"st_cvj6sg6p6f1abm77japg","pricing_plan_id":"cebpf4jnsgd1na2vs0mg"},{"bike_id":"ceeae13a-87c9-4495-9238-e5a5cc9c4c69","system_id":"levelo_inurba_marseille","lat":43.29619,"lon":5.3715,"is_reserved":false,"is_disabled":false,"rental_uris":{"android":"levelo://app?vid=ceeae13a-87c9-4495-9238-e5a5cc9c4c69","ios":"levelo://app?vid=ceeae13a-87c9-4495-9238-e5a5cc9c4c69"},"vehicle_type_id":"4","last_reported":1778931694,"current_range_meters":5600,"station_id":"ce4bgnh2rcd13ifvqc0g","pricing_plan_id":"cebpf4jnsgd1na2vs0mg"},{"bike_id":"4a1cb5aa-30fd-413c-854e-87a16ba9759a","system_id":"levelo_inurba_marseille","lat":43.30155,"lon":5.3808,"is_reserved":false,"is_disabled":false,"rental_uris":{"android":"levelo://app?vid=4a1cb5aa-30fd-413c-854e-87a16ba9759a","ios":"levelo://app?vid=4a1cb5aa-30fd-413c-854e-87a16ba9759a"},"vehicle_type_id":"4","last_reported":1778931694,"current_range_meters":5600,"station_id":"ce4bgjp2rcd13ifvqbh0","pricing_plan_id":"cebpf4jnsgd1na2vs0mg"},{"bike_id":"ba857fbd-dfd7-4912-a275-4ec1b34f9a01","system_id":"levelo_inurba_marseille","lat":43.28013,"lon":5.36937,"is_reserved":false,"is_disabled":false,"rental_uris":{"android":"levelo://app?vid=ba857fbd-dfd7-4912-a275-4ec1b34f9a01","ios":"levelo://app?vid=ba857fbd-dfd7-4912-a275-4ec1b34f9a01"},"vehicle_type_id":"4","last_reported":1778931694,"current_range_meters":5600,"station_id":"ce4bha12rcd13ifvqef0","pricing_plan_id":"cebpf4jnsgd1na2vs0mg"},{"bike_id":"9eb50ef0-d222-4848-9f4f-b79a03731b4c","system_id":"levelo_inurba_marseille","lat":43.21191,"lon":5.35072,"is_reserved":false,"is_disabled":false,"rental_uris":{"android":"levelo://app?vid=9eb50ef0-d222-4848-9f4f-b79a03731b4c","ios":"levelo://app?vid=9eb50ef0-d222-4848-9f4f-b79a03731b4c"},"vehicle_type_id":"4","last_reported":1778931694,"current_range_meters":5600,"station_id":"st_cvj6sg6p6f1abm77japg","pricing_plan_id":"cebpf4jnsgd1na2vs0mg"},{"bike_id":"1f27b9c7-f593-4ee3-b394-7ce199ed2756","system_id":"levelo_inurba_marseille","lat":43.309018,"lon":5.37188,"is_reserved":false,"is_disabled":false,"rental_uris":{"android":"levelo://app?vid=1f27b9c7-f593-4ee3-b394-7ce199ed2756","ios":"levelo://app?vid=1f27b9c7-f593-4ee3-b394-7ce199ed2756"},"vehicle_type_id":"4","last_reported":1778931694,"current_range_meters":5600,"station_id":"","pricing_plan_id":"cebpf4jnsgd1na2vs0mg"},{"bike_id":"76e33348-6a4a-4160-8477-e9650ddfdc10","system_id":"levelo_inurba_marseille","lat":43.29575,"lon":5.42294,"is_reserved":false,"is_disabled":false,"rental_uris":{"android":"levelo://app?vid=76e33348-6a4a-4160-8477-e9650ddfdc10","ios":"levelo://app?vid=76e33348-6a4a-4160-8477-e9650ddfdc10"},"vehicle_type_id":"4","last_reported":1778931694,"current_range_meters":5600,"station_id":"ce4bhph2rcd13ifvqhdg","pricing_plan_id":"cebpf4jnsgd1na2vs0mg"},{"bike_id":"333431c5-f8f5-4bce-8e5d-c4a52b90e3b8","system_id":"levelo_inurba_marseille","lat":43.27574,"lon":5.38418,"is_reserved":false,"is_disabled":false,"rental_uris":{"android":"levelo://app?vid=333431c5-f8f5-4bce-8e5d-c4a52b90e3b8","ios":"levelo://app?vid=333431c5-f8f5-4bce-8e5d-c4a52b90e3b8"},"vehicle_type_id":"4","last_reported":1778931694,"current_range_meters":5600,"station_id":"ce4bhh92rcd13ifvqfi0","pricing_plan_id":"cebpf4jnsgd1na2vs0mg"},{"bike_id":"9ff893e8-a35b-4276-8349-bacec107d22b","system_id":"levelo_inurba_marseille","lat":43.31294,"lon":5.37931,"is_reserved":false,"is_disabled":false,"rental_uris":{"android":"levelo://app?vid=9ff893e8-a35b-4276-8349-bacec107d22b","ios":"levelo://app?vid=9ff893e8-a35b-4276-8349-bacec107d22b"},"vehicle_type_id":"4","last_reported":1778931694,"current_range_meters":5600,"station_id":"","pricing_plan_id":"cebpf4jnsgd1na2vs0mg"},{"bike_id":"8b2a1e53-6091-4f36-b742-1f3a7f876716","system_id":"levelo_inurba_marseille","lat":43.25511,"lon":5.37658,"is_reserved":false,"is_disabled":false,"rental_uris":{"android":"levelo://app?vid=8b2a1e53-6091-4f36-b742-1f3a7f876716","ios":"levelo://app?vid=8b2a1e53-6091-4f36-b742-1f3a7f876716"},"vehicle_type_id":"4","last_reported":1778931694,"current_range_meters":5600,"station_id":"ce4bhh12rcd13ifvqff0","pricing_plan_id":"cebpf4jnsgd1na2vs0mg"},{"bike_id":"ca01c33c-99c8-4ff8-a274-d065c7262a1a","system_id":"levelo_inurba_marseille","lat":43.26418,"lon":5.38805,"is_reserved":false,"is_disabled":false,"rental_uris":{"android":"levelo://app?vid=ca01c33c-99c8-4ff8-a274-d065c7262a1a","ios":"levelo://app?vid=ca01c33c-99c8-4ff8-a274-d065c7262a1a"},"vehicle_type_id":"4","last_reported":1778931694,"current_range_meters":5600,"station_id":"","pricing_plan_id":"cebpf4jnsgd1na2vs0mg"},{"bike_id":"c0c29511-8416-448c-89d4-cd7673d31c70","system_id":"levelo_inurba_marseille","lat":43.21194,"lon":5.35074,"is_reserved":false,"is_disabled":false,"rental_uris":{"android":"levelo://app?vid=c0c29511-8416-448c-89d4-cd7673d31c70","ios":"levelo://app?vid=c0c29511-8416-448c-89d4-cd7673d31c70"},"vehicle_type_id":"4","last_reported":1778931694,"current_range_meters":5600,"station_id":"st_cvj6sg6p6f1abm77japg","pricing_plan_id":"cebpf4jnsgd1na2vs0mg"},{"bike_id":"e7dc8666-d660-459c-b749-3649acf06c31","system_id":"levelo_inurba_marseille","lat":43.2703,"lon":5.40251,"is_reserved":false,"is_disabled":false,"rental_uris":{"android":"levelo://app?vid=e7dc8666-d660-459c-b749-3649acf06c31","ios":"levelo://app?vid=e7dc8666-d660-459c-b749-3649acf06c31"},"vehicle_type_id":"4","last_reported":1778931694,"current_range_meters":5600,"station_id":"ce4bhk92rcd13ifvqgc0","pricing_plan_id":"cebpf4jnsgd1na2vs0mg"},{"bike_id":"33833229-ef28-4f91-b3a0-0a9a37bc4c8f","system_id":"levelo_inurba_marseille","lat":43.27484,"lon":5.4245,"is_reserved":false,"is_disabled":false,"rental_uris":{"android":"levelo://app?vid=33833229-ef28-4f91-b3a0-0a9a37bc4c8f","ios":"levelo://app?vid=33833229-ef28-4f91-b3a0-0a9a37bc4c8f"},"vehicle_type_id":"4","last_reported":1778931694,"current_range_meters":5600,"station_id":"ce4bhn92rcd13ifvqgrg","pricing_plan_id":"cebpf4jnsgd1na2vs0mg"},{"bike_id":"59c8b2a9-d5b8-4b0d-8fb0-f7b1bccda6e2","system_id":"levelo_inurba_marseille","lat":43.21193,"lon":5.35071,"is_reserved":false,"is_disabled":false,"rental_uris":{"android":"levelo://app?vid=59c8b2a9-d5b8-4b0d-8fb0-f7b1bccda6e2","ios":"levelo://app?vid=59c8b2a9-d5b8-4b0d-8fb0-f7b1bccda6e2"},"vehicle_type_id":"4","last_reported":1778931694,"current_range_meters":5600,"station_id":"st_cvj6sg6p6f1abm77japg","pricing_plan_id":"cebpf4jnsgd1na2vs0mg"},{"bike_id":"34332cd6-ef2d-4e3f-b93e-28855488db1e","system_id":"levelo_inurba_marseille","lat":43.26692,"lon":5.38251,"is_reserved":false,"is_disabled":false,"rental_uris":{"android":"levelo://app?vid=34332cd6-ef2d-4e3f-b93e-28855488db1e","ios":"levelo://app?vid=34332cd6-ef2d-4e3f-b93e-28855488db1e"},"vehicle_type_id":"4","last_reported":1778931694,"current_range_meters":5600,"station_id":"ce4bhg92rcd13ifvqf90","pricing_plan_id":"cebpf4jnsgd1na2vs0mg"},{"bike_id":"d90e1575-ec76-461f-9701-a245bb59404f","system_id":"levelo_inurba_marseille","lat":43.2439,"lon":5.37057,"is_reserved":false,"is_disabled":false,"rental_uris":{"android":"levelo://app?vid=d90e1575-ec76-461f-9701-a245bb59404f","ios":"levelo://app?vid=d90e1575-ec76-461f-9701-a245bb59404f"},"vehicle_type_id":"4","last_reported":1778931694,"current_range_meters":5600,"station_id":"ce4bhhh2rcd13ifvqfk0","pricing_plan_id":"cebpf4jnsgd1na2vs0mg"},{"bike_id":"fc3434ec-3f12-4fe2-a883-c7406c4652f9","system_id":"levelo_inurba_marseille","lat":43.29486,"lon":5.43293,"is_reserved":false,"is_disabled":false,"rental_uris":{"android":"levelo://app?vid=fc3434ec-3f12-4fe2-a883-c7406c4652f9","ios":"levelo://app?vid=fc3434ec-3f12-4fe2-a883-c7406c4652f9"},"vehicle_type_id":"4","last_reported":1778931694,"current_range_meters":6000,"station_id":"st_d3j5ugp08ojc73fj9d10","pricing_plan_id":"cebpf4jnsgd1na2vs0mg"},{"bike_id":"09099464-4f17-4a84-bc25-c18dd5728f2f","system_id":"levelo_inurba_marseille","lat":43.2679,"lon":5.39432,"is_reserved":false,"is_disabled":false,"rental_uris":{"android":"levelo://app?vid=09099464-4f17-4a84-bc25-c18dd5728f2f","ios":"levelo://app?vid=09099464-4f17-4a84-bc25-c18dd5728f2f"},"vehicle_type_id":"4","last_reported":1778931694,"current_range_meters":6000,"station_id":"ce4bhh12rcd13ifvqfg0","pricing_plan_id":"cebpf4jnsgd1na2vs0mg"},{"bike_id":"b6acbf8c-bacd-487d-8128-5244dbbd5a1c","system_id":"levelo_inurba_marseille","lat":43.30518,"lon":5.36521,"is_reserved":false,"is_disabled":false,"rental_uris":{"android":"levelo://app?vid=b6acbf8c-bacd-487d-8128-5244dbbd5a1c","ios":"levelo://app?vid=b6acbf8c-bacd-487d-8128-5244dbbd5a1c"},"vehicle_type_id":"4","last_reported":1778931694,"current_range_meters":6000,"station_id":"","pricing_plan_id":"cebpf4jnsgd1na2vs0mg"},{"bike_id":"ff716fa4-2b4e-4fea-86c6-6b57c6f62225","system_id":"levelo_inurba_marseille","lat":43.23066,"lon":5.35483,"is_reserved":false,"is_disabled":false,"rental_uris":{"android":"levelo://app?vid=ff716fa4-2b4e-4fea-86c6-6b57c6f62225","ios":"levelo://app?vid=ff716fa4-2b4e-4fea-86c6-6b57c6f62225"},"vehicle_type_id":"4","last_reported":1778931694,"current_range_meters":6000,"station_id":"cpo3342slgdg3j2ifvpg","pricing_plan_id":"cebpf4jnsgd1na2vs0mg"},{"bike_id":"310313f9-4c8b-458d-834b-81e71f22dc3f","system_id":"levelo_inurba_marseille","lat":43.27929,"lon":5.39588,"is_reserved":false,"is_disabled":true,"rental_uris":{"android":"levelo://app?vid=310313f9-4c8b-458d-834b-81e71f22dc3f","ios":"levelo://app?vid=310313f9-4c8b-458d-834b-81e71f22dc3f"},"vehicle_type_id":"4","last_reported":1778931694,"current_range_meters":6000,"station_id":"ce4bhf92rcd13ifvqf40","pricing_plan_id":"cebpf4jnsgd1na2vs0mg"},{"bike_id":"92aa287c-1ffd-4e0d-a777-d680461d889a","system_id":"levelo_inurba_marseille","lat":43.22564,"lon":5.41624,"is_reserved":false,"is_disabled":false,"rental_uris":{"android":"levelo://app?vid=92aa287c-1ffd-4e0d-a777-d680461d889a","ios":"levelo://app?vid=92aa287c-1ffd-4e0d-a777-d680461d889a"},"vehicle_type_id":"4","last_reported":1778931694,"current_range_meters":6000,"station_id":"st_d2o4gvlbi1j2169b742g","pricing_plan_id":"cebpf4jnsgd1na2vs0mg"},{"bike_id":"ab883a8a-7183-49e5-b0ca-478bfd40dbb5","system_id":"levelo_inurba_marseille","lat":43.27579,"lon":5.38419,"is_reserved":false,"is_disabled":false,"rental_uris":{"android":"levelo://app?vid=ab883a8a-7183-49e5-b0ca-478bfd40dbb5","ios":"levelo://app?vid=ab883a8a-7183-49e5-b0ca-478bfd40dbb5"},"vehicle_type_id":"4","last_reported":1778931694,"current_range_meters":6000,"station_id":"ce4bhh92rcd13ifvqfi0","pricing_plan_id":"cebpf4jnsgd1na2vs0mg"},{"bike_id":"c522deca-789e-49b3-982f-1f0402a24572","system_id":"levelo_inurba_marseille","lat":43.2463,"lon":5.38914,"is_reserved":false,"is_disabled":false,"rental_uris":{"android":"levelo://app?vid=c522deca-789e-49b3-982f-1f0402a24572","ios":"levelo://app?vid=c522deca-789e-49b3-982f-1f0402a24572"},"vehicle_type_id":"4","last_reported":1778931694,"current_range_meters":6000,"station_id":"ce4bhg12rcd13ifvqf60","pricing_plan_id":"cebpf4jnsgd1na2vs0mg"},{"bike_id":"f2155f52-8bee-4917-9ad6-c70fd2ebaa35","system_id":"levelo_inurba_marseille","lat":43.25327,"lon":5.42167,"is_reserved":false,"is_disabled":false,"rental_uris":{"android":"levelo://app?vid=f2155f52-8bee-4917-9ad6-c70fd2ebaa35","ios":"levelo://app?vid=f2155f52-8bee-4917-9ad6-c70fd2ebaa35"},"vehicle_type_id":"4","last_reported":1778931694,"current_range_meters":6000,"station_id":"st_d2m65c5bi1j21697t3ng","pricing_plan_id":"cebpf4jnsgd1na2vs0mg"},{"bike_id":"236c5423-3de2-4984-a104-160edb8897a0","system_id":"levelo_inurba_marseille","lat":43.307291,"lon":5.40954,"is_reserved":false,"is_disabled":false,"rental_uris":{"android":"levelo://app?vid=236c5423-3de2-4984-a104-160edb8897a0","ios":"levelo://app?vid=236c5423-3de2-4984-a104-160edb8897a0"},"vehicle_type_id":"4","last_reported":1778931694,"current_range_meters":6000,"station_id":"","pricing_plan_id":"cebpf4jnsgd1na2vs0mg"},{"bike_id":"1c155cb8-50aa-4ad8-95d4-a32cca5f7a07","system_id":"levelo_inurba_marseille","lat":43.2448,"lon":5.42537,"is_reserved":false,"is_disabled":false,"rental_uris":{"android":"levelo://app?vid=1c155cb8-50aa-4ad8-95d4-a32cca5f7a07","ios":"levelo://app?vid=1c155cb8-50aa-4ad8-95d4-a32cca5f7a07"},"vehicle_type_id":"4","last_reported":1778931694,"current_range_meters":6000,"station_id":"st_d4a3vfp97mjs738cd8kg","pricing_plan_id":"cebpf4jnsgd1na2vs0mg"},{"bike_id":"bf4140c2-b60d-49c9-a4a2-8e589e154982","system_id":"levelo_inurba_marseille","lat":43.33543,"lon":5.37478,"is_reserved":false,"is_disabled":false,"rental_uris":{"android":"levelo://app?vid=bf4140c2-b60d-49c9-a4a2-8e589e154982","ios":"levelo://app?vid=bf4140c2-b60d-49c9-a4a2-8e589e154982"},"vehicle_type_id":"4","last_reported":1778931694,"current_range_meters":6000,"station_id":"st_d46tts09ee8s73dlu43g","pricing_plan_id":"cebpf4jnsgd1na2vs0mg"},{"bike_id":"9e90ecb9-eb42-4b6f-b217-a489aed4d6ac","system_id":"levelo_inurba_marseille","lat":43.32493,"lon":5.38293,"is_reserved":false,"is_disabled":false,"rental_uris":{"android":"levelo://app?vid=9e90ecb9-eb42-4b6f-b217-a489aed4d6ac","ios":"levelo://app?vid=9e90ecb9-eb42-4b6f-b217-a489aed4d6ac"},"vehicle_type_id":"4","last_reported":1778931694,"current_range_meters":6000,"station_id":"st_d4asgbiv49dc73anf9m0","pricing_plan_id":"cebpf4jnsgd1na2vs0mg"},{"bike_id":"b279d425-b605-4dce-aa38-d74dc6161e68","system_id":"levelo_inurba_marseille","lat":43.22538,"lon":5.41619,"is_reserved":false,"is_disabled":false,"rental_uris":{"android":"levelo://app?vid=b279d425-b605-4dce-aa38-d74dc6161e68","ios":"levelo://app?vid=b279d425-b605-4dce-aa38-d74dc6161e68"},"vehicle_type_id":"4","last_reported":1778931694,"current_range_meters":6000,"station_id":"st_d2o4gvlbi1j2169b742g","pricing_plan_id":"cebpf4jnsgd1na2vs0mg"},{"bike_id":"2c4e2c80-7a7f-49e7-8a11-230c3e37ee87","system_id":"levelo_inurba_marseille","lat":43.22563,"lon":5.41628,"is_reserved":false,"is_disabled":false,"rental_uris":{"android":"levelo://app?vid=2c4e2c80-7a7f-49e7-8a11-230c3e37ee87","ios":"levelo://app?vid=2c4e2c80-7a7f-49e7-8a11-230c3e37ee87"},"vehicle_type_id":"4","last_reported":1778931694,"current_range_meters":6400,"station_id":"st_d2o4gvlbi1j2169b742g","pricing_plan_id":"cebpf4jnsgd1na2vs0mg"},{"bike_id":"a56a8a0c-3ab9-465a-bdae-f5897ec1f98a","system_id":"levelo_inurba_marseille","lat":43.2419,"lon":5.36405,"is_reserved":false,"is_disabled":false,"rental_uris":{"android":"levelo://app?vid=a56a8a0c-3ab9-465a-bdae-f5897ec1f98a","ios":"levelo://app?vid=a56a8a0c-3ab9-465a-bdae-f5897ec1f98a"},"vehicle_type_id":"4","last_reported":1778931694,"current_range_meters":6400,"station_id":"cpo36qri1sfpv3e86is0","pricing_plan_id":"cebpf4jnsgd1na2vs0mg"},{"bike_id":"da25d015-d7dd-4fbf-997f-9acf97aa246b","system_id":"levelo_inurba_marseille","lat":43.28615,"lon":5.35099,"is_reserved":false,"is_disabled":false,"rental_uris":{"android":"levelo://app?vid=da25d015-d7dd-4fbf-997f-9acf97aa246b","ios":"levelo://app?vid=da25d015-d7dd-4fbf-997f-9acf97aa246b"},"vehicle_type_id":"4","last_reported":1778931694,"current_range_meters":6400,"station_id":"ce4bhch2rcd13ifvqeug","pricing_plan_id":"cebpf4jnsgd1na2vs0mg"},{"bike_id":"6ed28fa0-f20b-450d-a789-f0b565e64f1b","system_id":"levelo_inurba_marseille","lat":43.29841,"lon":5.3827,"is_reserved":false,"is_disabled":false,"rental_uris":{"android":"levelo://app?vid=6ed28fa0-f20b-450d-a789-f0b565e64f1b","ios":"levelo://app?vid=6ed28fa0-f20b-450d-a789-f0b565e64f1b"},"vehicle_type_id":"4","last_reported":1778931694,"current_range_meters":6400,"station_id":"","pricing_plan_id":"cebpf4jnsgd1na2vs0mg"},{"bike_id":"a925d029-af9d-439e-b7ff-1c5bb1c3c5db","system_id":"levelo_inurba_marseille","lat":43.26505,"lon":5.39521,"is_reserved":false,"is_disabled":false,"rental_uris":{"android":"levelo://app?vid=a925d029-af9d-439e-b7ff-1c5bb1c3c5db","ios":"levelo://app?vid=a925d029-af9d-439e-b7ff-1c5bb1c3c5db"},"vehicle_type_id":"4","last_reported":1778931694,"current_range_meters":6400,"station_id":"ce4bhi12rcd13ifvqfq0","pricing_plan_id":"cebpf4jnsgd1na2vs0mg"},{"bike_id":"a2647aa1-f01d-4da6-93ee-57a490b72134","system_id":"levelo_inurba_marseille","lat":43.29563,"lon":5.37498,"is_reserved":false,"is_disabled":false,"rental_uris":{"android":"levelo://app?vid=a2647aa1-f01d-4da6-93ee-57a490b72134","ios":"levelo://app?vid=a2647aa1-f01d-4da6-93ee-57a490b72134"},"vehicle_type_id":"4","last_reported":1778931694,"current_range_meters":6400,"station_id":"ce4bgh92rcd13ifvqb50","pricing_plan_id":"cebpf4jnsgd1na2vs0mg"},{"bike_id":"996bb126-198e-42bb-99a0-1c834dfbb3ba","system_id":"levelo_inurba_marseille","lat":43.30151,"lon":5.38085,"is_reserved":false,"is_disabled":false,"rental_uris":{"android":"levelo://app?vid=996bb126-198e-42bb-99a0-1c834dfbb3ba","ios":"levelo://app?vid=996bb126-198e-42bb-99a0-1c834dfbb3ba"},"vehicle_type_id":"4","last_reported":1778931694,"current_range_meters":6400,"station_id":"ce4bgjp2rcd13ifvqbh0","pricing_plan_id":"cebpf4jnsgd1na2vs0mg"},{"bike_id":"255a8db9-6ac5-445d-8da2-584280160595","system_id":"levelo_inurba_marseille","lat":43.29973,"lon":5.36758,"is_reserved":false,"is_disabled":false,"rental_uris":{"android":"levelo://app?vid=255a8db9-6ac5-445d-8da2-584280160595","ios":"levelo://app?vid=255a8db9-6ac5-445d-8da2-584280160595"},"vehicle_type_id":"4","last_reported":1778931694,"current_range_meters":6400,"station_id":"","pricing_plan_id":"cebpf4jnsgd1na2vs0mg"},{"bike_id":"3e44fca3-02a2-4749-97d7-65b07cc773b7","system_id":"levelo_inurba_marseille","lat":43.26033,"lon":5.37549,"is_reserved":false,"is_disabled":false,"rental_uris":{"android":"levelo://app?vid=3e44fca3-02a2-4749-97d7-65b07cc773b7","ios":"levelo://app?vid=3e44fca3-02a2-4749-97d7-65b07cc773b7"},"vehicle_type_id":"4","last_reported":1778931694,"current_range_meters":6400,"station_id":"ce4bhgh2rcd13ifvqfa0","pricing_plan_id":"cebpf4jnsgd1na2vs0mg"},{"bike_id":"bc1ceef2-7ab6-4b29-97cf-e699caf1898f","system_id":"levelo_inurba_marseille","lat":43.24647,"lon":5.38892,"is_reserved":false,"is_disabled":false,"rental_uris":{"android":"levelo://app?vid=bc1ceef2-7ab6-4b29-97cf-e699caf1898f","ios":"levelo://app?vid=bc1ceef2-7ab6-4b29-97cf-e699caf1898f"},"vehicle_type_id":"4","last_reported":1778931694,"current_range_meters":6400,"station_id":"ce4bhg12rcd13ifvqf60","pricing_plan_id":"cebpf4jnsgd1na2vs0mg"},{"bike_id":"8127193b-061d-4151-9b21-a5da8a7dddab","system_id":"levelo_inurba_marseille","lat":43.23379,"lon":5.41238,"is_reserved":false,"is_disabled":false,"rental_uris":{"android":"levelo://app?vid=8127193b-061d-4151-9b21-a5da8a7dddab","ios":"levelo://app?vid=8127193b-061d-4151-9b21-a5da8a7dddab"},"vehicle_type_id":"4","last_reported":1778931694,"current_range_meters":6400,"station_id":"st_d75pvndhf9lc73cqq3eg","pricing_plan_id":"cebpf4jnsgd1na2vs0mg"},{"bike_id":"ecb43cf3-4571-441f-b7de-470cf95dfc38","system_id":"levelo_inurba_marseille","lat":43.21758,"lon":5.34584,"is_reserved":false,"is_disabled":false,"rental_uris":{"android":"levelo://app?vid=ecb43cf3-4571-441f-b7de-470cf95dfc38","ios":"levelo://app?vid=ecb43cf3-4571-441f-b7de-470cf95dfc38"},"vehicle_type_id":"4","last_reported":1778931694,"current_range_meters":6400,"station_id":"st_cvj6r9ubvosntc0bgbag","pricing_plan_id":"cebpf4jnsgd1na2vs0mg"},{"bike_id":"381f618b-1154-486d-b846-8d597099ccb8","system_id":"levelo_inurba_marseille","lat":43.23784,"lon":5.41462,"is_reserved":false,"is_disabled":false,"rental_uris":{"android":"levelo://app?vid=381f618b-1154-486d-b846-8d597099ccb8","ios":"levelo://app?vid=381f618b-1154-486d-b846-8d597099ccb8"},"vehicle_type_id":"4","last_reported":1778931694,"current_range_meters":6400,"station_id":"","pricing_plan_id":"cebpf4jnsgd1na2vs0mg"},{"bike_id":"d2b9001b-3bd6-4e11-a455-c06b5cf0ca28","system_id":"levelo_inurba_marseille","lat":43.29654,"lon":5.38093,"is_reserved":false,"is_disabled":false,"rental_uris":{"android":"levelo://app?vid=d2b9001b-3bd6-4e11-a455-c06b5cf0ca28","ios":"levelo://app?vid=d2b9001b-3bd6-4e11-a455-c06b5cf0ca28"},"vehicle_type_id":"4","last_reported":1778931694,"current_range_meters":6400,"station_id":"ce4bgl12rcd13ifvqbo0","pricing_plan_id":"cebpf4jnsgd1na2vs0mg"},{"bike_id":"c0afe38e-1b1f-4737-9474-5d6681e1c046","system_id":"levelo_inurba_marseille","lat":43.29913,"lon":5.42086,"is_reserved":false,"is_disabled":false,"rental_uris":{"android":"levelo://app?vid=c0afe38e-1b1f-4737-9474-5d6681e1c046","ios":"levelo://app?vid=c0afe38e-1b1f-4737-9474-5d6681e1c046"},"vehicle_type_id":"4","last_reported":1778931694,"current_range_meters":6800,"station_id":"st_d6tc004otcvc738tfe70","pricing_plan_id":"cebpf4jnsgd1na2vs0mg"},{"bike_id":"03891f04-e4d5-4f4c-a686-0dee6d4aa3c1","system_id":"levelo_inurba_marseille","lat":43.31049,"lon":5.36903,"is_reserved":false,"is_disabled":false,"rental_uris":{"android":"levelo://app?vid=03891f04-e4d5-4f4c-a686-0dee6d4aa3c1","ios":"levelo://app?vid=03891f04-e4d5-4f4c-a686-0dee6d4aa3c1"},"vehicle_type_id":"4","last_reported":1778931694,"current_range_meters":6800,"station_id":"ce4bgn92rcd13ifvqbvg","pricing_plan_id":"cebpf4jnsgd1na2vs0mg"},{"bike_id":"2d2c7674-d2ca-402f-b8b0-47c4cc0178f0","system_id":"levelo_inurba_marseille","lat":43.23144,"lon":5.43702,"is_reserved":false,"is_disabled":false,"rental_uris":{"android":"levelo://app?vid=2d2c7674-d2ca-402f-b8b0-47c4cc0178f0","ios":"levelo://app?vid=2d2c7674-d2ca-402f-b8b0-47c4cc0178f0"},"vehicle_type_id":"4","last_reported":1778931694,"current_range_meters":6800,"station_id":"ce4bhmp2rcd13ifvqgog","pricing_plan_id":"cebpf4jnsgd1na2vs0mg"},{"bike_id":"c6c3ffa5-2514-4dce-9955-6dea3b87213e","system_id":"levelo_inurba_marseille","lat":43.33534,"lon":5.37466,"is_reserved":false,"is_disabled":false,"rental_uris":{"android":"levelo://app?vid=c6c3ffa5-2514-4dce-9955-6dea3b87213e","ios":"levelo://app?vid=c6c3ffa5-2514-4dce-9955-6dea3b87213e"},"vehicle_type_id":"4","last_reported":1778931694,"current_range_meters":6800,"station_id":"st_d46tts09ee8s73dlu43g","pricing_plan_id":"cebpf4jnsgd1na2vs0mg"},{"bike_id":"17f1f105-6499-4ea1-97a8-e3638d2a108a","system_id":"levelo_inurba_marseille","lat":43.254971,"lon":5.376529,"is_reserved":false,"is_disabled":false,"rental_uris":{"android":"levelo://app?vid=17f1f105-6499-4ea1-97a8-e3638d2a108a","ios":"levelo://app?vid=17f1f105-6499-4ea1-97a8-e3638d2a108a"},"vehicle_type_id":"4","last_reported":1778931694,"current_range_meters":6800,"station_id":"ce4bhh12rcd13ifvqff0","pricing_plan_id":"cebpf4jnsgd1na2vs0mg"},{"bike_id":"61e5287a-43e9-4282-a973-bcefe063a8e6","system_id":"levelo_inurba_marseille","lat":43.2175,"lon":5.34606,"is_reserved":false,"is_disabled":false,"rental_uris":{"android":"levelo://app?vid=61e5287a-43e9-4282-a973-bcefe063a8e6","ios":"levelo://app?vid=61e5287a-43e9-4282-a973-bcefe063a8e6"},"vehicle_type_id":"4","last_reported":1778931694,"current_range_meters":6800,"station_id":"st_cvj6r9ubvosntc0bgbag","pricing_plan_id":"cebpf4jnsgd1na2vs0mg"},{"bike_id":"a36168d9-0b2a-4981-8b8e-6a59ec3108e0","system_id":"levelo_inurba_marseille","lat":43.29594,"lon":5.37694,"is_reserved":false,"is_disabled":true,"rental_uris":{"android":"levelo://app?vid=a36168d9-0b2a-4981-8b8e-6a59ec3108e0","ios":"levelo://app?vid=a36168d9-0b2a-4981-8b8e-6a59ec3108e0"},"vehicle_type_id":"4","last_reported":1778931694,"current_range_meters":6800,"station_id":"ce4bgi92rcd13ifvqb90","pricing_plan_id":"cebpf4jnsgd1na2vs0mg"},{"bike_id":"e36e9ae6-760f-4d6b-b27b-2683e1da6b8e","system_id":"levelo_inurba_marseille","lat":43.31752,"lon":5.39022,"is_reserved":false,"is_disabled":false,"rental_uris":{"android":"levelo://app?vid=e36e9ae6-760f-4d6b-b27b-2683e1da6b8e","ios":"levelo://app?vid=e36e9ae6-760f-4d6b-b27b-2683e1da6b8e"},"vehicle_type_id":"4","last_reported":1778931694,"current_range_meters":6800,"station_id":"ce4bhqp2rcd13ifvqhng","pricing_plan_id":"cebpf4jnsgd1na2vs0mg"},{"bike_id":"dc437964-578c-4f7a-be1e-9a5b7abec9f5","system_id":"levelo_inurba_marseille","lat":43.24505,"lon":5.37588,"is_reserved":false,"is_disabled":false,"rental_uris":{"android":"levelo://app?vid=dc437964-578c-4f7a-be1e-9a5b7abec9f5","ios":"levelo://app?vid=dc437964-578c-4f7a-be1e-9a5b7abec9f5"},"vehicle_type_id":"4","last_reported":1778931694,"current_range_meters":6800,"station_id":"","pricing_plan_id":"cebpf4jnsgd1na2vs0mg"},{"bike_id":"bc8c2695-d41e-43a5-a503-073f39b3a18d","system_id":"levelo_inurba_marseille","lat":43.2761,"lon":5.36116,"is_reserved":false,"is_disabled":false,"rental_uris":{"android":"levelo://app?vid=bc8c2695-d41e-43a5-a503-073f39b3a18d","ios":"levelo://app?vid=bc8c2695-d41e-43a5-a503-073f39b3a18d"},"vehicle_type_id":"4","last_reported":1778931694,"current_range_meters":6800,"station_id":"ce4bgj92rcd13ifvqbe0","pricing_plan_id":"cebpf4jnsgd1na2vs0mg"},{"bike_id":"559d1e2a-3378-464a-bb49-bac80a61d607","system_id":"levelo_inurba_marseille","lat":43.24456,"lon":5.42538,"is_reserved":false,"is_disabled":false,"rental_uris":{"android":"levelo://app?vid=559d1e2a-3378-464a-bb49-bac80a61d607","ios":"levelo://app?vid=559d1e2a-3378-464a-bb49-bac80a61d607"},"vehicle_type_id":"4","last_reported":1778931694,"current_range_meters":6800,"station_id":"st_d4a3vfp97mjs738cd8kg","pricing_plan_id":"cebpf4jnsgd1na2vs0mg"},{"bike_id":"489a1706-c3ea-4b0e-8e98-c2ee70717ba8","system_id":"levelo_inurba_marseille","lat":43.22546,"lon":5.41634,"is_reserved":false,"is_disabled":false,"rental_uris":{"android":"levelo://app?vid=489a1706-c3ea-4b0e-8e98-c2ee70717ba8","ios":"levelo://app?vid=489a1706-c3ea-4b0e-8e98-c2ee70717ba8"},"vehicle_type_id":"4","last_reported":1778931694,"current_range_meters":6800,"station_id":"st_d2o4gvlbi1j2169b742g","pricing_plan_id":"cebpf4jnsgd1na2vs0mg"},{"bike_id":"470ea25e-7fd9-4141-8ab7-89f5e202b013","system_id":"levelo_inurba_marseille","lat":43.28,"lon":5.4001,"is_reserved":false,"is_disabled":false,"rental_uris":{"android":"levelo://app?vid=470ea25e-7fd9-4141-8ab7-89f5e202b013","ios":"levelo://app?vid=470ea25e-7fd9-4141-8ab7-89f5e202b013"},"vehicle_type_id":"4","last_reported":1778931694,"current_range_meters":6800,"station_id":"ce4bho92rcd13ifvqh4g","pricing_plan_id":"cebpf4jnsgd1na2vs0mg"},{"bike_id":"e953480e-ea01-46b9-bf84-0d366d266078","system_id":"levelo_inurba_marseille","lat":43.29771,"lon":5.37108,"is_reserved":false,"is_disabled":false,"rental_uris":{"android":"levelo://app?vid=e953480e-ea01-46b9-bf84-0d366d266078","ios":"levelo://app?vid=e953480e-ea01-46b9-bf84-0d366d266078"},"vehicle_type_id":"4","last_reported":1778931694,"current_range_meters":6800,"station_id":"ce4bgop2rcd13ifvqc1g","pricing_plan_id":"cebpf4jnsgd1na2vs0mg"},{"bike_id":"11cfcfb7-7cef-4ca3-94fd-d649299b0219","system_id":"levelo_inurba_marseille","lat":43.31714,"lon":5.42416,"is_reserved":false,"is_disabled":false,"rental_uris":{"android":"levelo://app?vid=11cfcfb7-7cef-4ca3-94fd-d649299b0219","ios":"levelo://app?vid=11cfcfb7-7cef-4ca3-94fd-d649299b0219"},"vehicle_type_id":"4","last_reported":1778931694,"current_range_meters":6800,"station_id":"ce4bhp92rcd13ifvqhbg","pricing_plan_id":"cebpf4jnsgd1na2vs0mg"},{"bike_id":"e0ce2f37-052e-484f-8e3c-c297b98b6f87","system_id":"levelo_inurba_marseille","lat":43.30147,"lon":5.38088,"is_reserved":false,"is_disabled":false,"rental_uris":{"android":"levelo://app?vid=e0ce2f37-052e-484f-8e3c-c297b98b6f87","ios":"levelo://app?vid=e0ce2f37-052e-484f-8e3c-c297b98b6f87"},"vehicle_type_id":"4","last_reported":1778931694,"current_range_meters":6800,"station_id":"ce4bgjp2rcd13ifvqbh0","pricing_plan_id":"cebpf4jnsgd1na2vs0mg"},{"bike_id":"b467cf52-e84d-42b9-ad71-bed97235ec79","system_id":"levelo_inurba_marseille","lat":43.29727,"lon":5.37682,"is_reserved":false,"is_disabled":false,"rental_uris":{"android":"levelo://app?vid=b467cf52-e84d-42b9-ad71-bed97235ec79","ios":"levelo://app?vid=b467cf52-e84d-42b9-ad71-bed97235ec79"},"vehicle_type_id":"4","last_reported":1778931694,"current_range_meters":7200,"station_id":"ce4bgkh2rcd13ifvqbl0","pricing_plan_id":"cebpf4jnsgd1na2vs0mg"},{"bike_id":"3de64d2d-b4d9-4cbf-a1f6-2f87d0874401","system_id":"levelo_inurba_marseille","lat":43.30539,"lon":5.36694,"is_reserved":false,"is_disabled":false,"rental_uris":{"android":"levelo://app?vid=3de64d2d-b4d9-4cbf-a1f6-2f87d0874401","ios":"levelo://app?vid=3de64d2d-b4d9-4cbf-a1f6-2f87d0874401"},"vehicle_type_id":"4","last_reported":1778931694,"current_range_meters":7200,"station_id":"ce4bgrp2rcd13ifvqc9g","pricing_plan_id":"cebpf4jnsgd1na2vs0mg"},{"bike_id":"dbf94776-63a1-426f-85ae-41abd5903310","system_id":"levelo_inurba_marseille","lat":43.3092,"lon":5.37669,"is_reserved":false,"is_disabled":false,"rental_uris":{"android":"levelo://app?vid=dbf94776-63a1-426f-85ae-41abd5903310","ios":"levelo://app?vid=dbf94776-63a1-426f-85ae-41abd5903310"},"vehicle_type_id":"4","last_reported":1778931694,"current_range_meters":7200,"station_id":"","pricing_plan_id":"cebpf4jnsgd1na2vs0mg"},{"bike_id":"74f12a6d-7a94-4ce3-8725-e3fbbe23ae70","system_id":"levelo_inurba_marseille","lat":43.33539,"lon":5.37475,"is_reserved":false,"is_disabled":false,"rental_uris":{"android":"levelo://app?vid=74f12a6d-7a94-4ce3-8725-e3fbbe23ae70","ios":"levelo://app?vid=74f12a6d-7a94-4ce3-8725-e3fbbe23ae70"},"vehicle_type_id":"4","last_reported":1778931694,"current_range_meters":7200,"station_id":"st_d46tts09ee8s73dlu43g","pricing_plan_id":"cebpf4jnsgd1na2vs0mg"},{"bike_id":"2afb1c43-c4ae-4dbf-a94b-bbd6e75c31b0","system_id":"levelo_inurba_marseille","lat":43.29715,"lon":5.37695,"is_reserved":false,"is_disabled":false,"rental_uris":{"android":"levelo://app?vid=2afb1c43-c4ae-4dbf-a94b-bbd6e75c31b0","ios":"levelo://app?vid=2afb1c43-c4ae-4dbf-a94b-bbd6e75c31b0"},"vehicle_type_id":"4","last_reported":1778931694,"current_range_meters":7200,"station_id":"ce4bgkh2rcd13ifvqbl0","pricing_plan_id":"cebpf4jnsgd1na2vs0mg"},{"bike_id":"9d9da9b1-62c5-4232-8888-7d36c96bb153","system_id":"levelo_inurba_marseille","lat":43.27492,"lon":5.41551,"is_reserved":false,"is_disabled":false,"rental_uris":{"android":"levelo://app?vid=9d9da9b1-62c5-4232-8888-7d36c96bb153","ios":"levelo://app?vid=9d9da9b1-62c5-4232-8888-7d36c96bb153"},"vehicle_type_id":"4","last_reported":1778931694,"current_range_meters":7200,"station_id":"st_d6im8g6chgec73a5pndg","pricing_plan_id":"cebpf4jnsgd1na2vs0mg"},{"bike_id":"9328df09-7c77-4ef9-a326-cd1cda9dd29d","system_id":"levelo_inurba_marseille","lat":43.30792,"lon":5.3852,"is_reserved":false,"is_disabled":false,"rental_uris":{"android":"levelo://app?vid=9328df09-7c77-4ef9-a326-cd1cda9dd29d","ios":"levelo://app?vid=9328df09-7c77-4ef9-a326-cd1cda9dd29d"},"vehicle_type_id":"4","last_reported":1778931694,"current_range_meters":7200,"station_id":"","pricing_plan_id":"cebpf4jnsgd1na2vs0mg"},{"bike_id":"015aad6e-f7c0-4598-9ad7-38c4d3fee62c","system_id":"levelo_inurba_marseille","lat":43.28621,"lon":5.35099,"is_reserved":false,"is_disabled":false,"rental_uris":{"android":"levelo://app?vid=015aad6e-f7c0-4598-9ad7-38c4d3fee62c","ios":"levelo://app?vid=015aad6e-f7c0-4598-9ad7-38c4d3fee62c"},"vehicle_type_id":"4","last_reported":1778931694,"current_range_meters":7200,"station_id":"ce4bhch2rcd13ifvqeug","pricing_plan_id":"cebpf4jnsgd1na2vs0mg"},{"bike_id":"4d31ed6e-13e0-4959-aa6c-cce6ffc3f7ff","system_id":"levelo_inurba_marseille","lat":43.27487,"lon":5.41593,"is_reserved":false,"is_disabled":false,"rental_uris":{"android":"levelo://app?vid=4d31ed6e-13e0-4959-aa6c-cce6ffc3f7ff","ios":"levelo://app?vid=4d31ed6e-13e0-4959-aa6c-cce6ffc3f7ff"},"vehicle_type_id":"4","last_reported":1778931694,"current_range_meters":7200,"station_id":"st_d6im8g6chgec73a5pndg","pricing_plan_id":"cebpf4jnsgd1na2vs0mg"},{"bike_id":"b9fc383d-7675-4ac1-96a8-b14863e064c9","system_id":"levelo_inurba_marseille","lat":43.31334,"lon":5.37254,"is_reserved":false,"is_disabled":false,"rental_uris":{"android":"levelo://app?vid=b9fc383d-7675-4ac1-96a8-b14863e064c9","ios":"levelo://app?vid=b9fc383d-7675-4ac1-96a8-b14863e064c9"},"vehicle_type_id":"4","last_reported":1778931694,"current_range_meters":7200,"station_id":"","pricing_plan_id":"cebpf4jnsgd1na2vs0mg"},{"bike_id":"e191454c-916c-4e6d-bb9a-b71fe6d913bf","system_id":"levelo_inurba_marseille","lat":43.23188,"lon":5.35564,"is_reserved":false,"is_disabled":false,"rental_uris":{"android":"levelo://app?vid=e191454c-916c-4e6d-bb9a-b71fe6d913bf","ios":"levelo://app?vid=e191454c-916c-4e6d-bb9a-b71fe6d913bf"},"vehicle_type_id":"4","last_reported":1778931694,"current_range_meters":7200,"station_id":"ce4bhu92rcd13ifvqi70","pricing_plan_id":"cebpf4jnsgd1na2vs0mg"},{"bike_id":"b307ebcf-a623-4ce8-bd6b-ce1a3ee616ac","system_id":"levelo_inurba_marseille","lat":43.25103,"lon":5.3952,"is_reserved":false,"is_disabled":false,"rental_uris":{"android":"levelo://app?vid=b307ebcf-a623-4ce8-bd6b-ce1a3ee616ac","ios":"levelo://app?vid=b307ebcf-a623-4ce8-bd6b-ce1a3ee616ac"},"vehicle_type_id":"4","last_reported":1778931694,"current_range_meters":7200,"station_id":"ce4bhm12rcd13ifvqgkg","pricing_plan_id":"cebpf4jnsgd1na2vs0mg"},{"bike_id":"40fba273-30a0-4610-9faa-17aeee18cf47","system_id":"levelo_inurba_marseille","lat":43.29667,"lon":5.38053,"is_reserved":false,"is_disabled":false,"rental_uris":{"android":"levelo://app?vid=40fba273-30a0-4610-9faa-17aeee18cf47","ios":"levelo://app?vid=40fba273-30a0-4610-9faa-17aeee18cf47"},"vehicle_type_id":"4","last_reported":1778931694,"current_range_meters":7200,"station_id":"ce4bgl12rcd13ifvqbo0","pricing_plan_id":"cebpf4jnsgd1na2vs0mg"},{"bike_id":"23c7a8d6-3cfa-456d-b438-60a0b1f1d263","system_id":"levelo_inurba_marseille","lat":43.25136,"lon":5.40348,"is_reserved":false,"is_disabled":false,"rental_uris":{"android":"levelo://app?vid=23c7a8d6-3cfa-456d-b438-60a0b1f1d263","ios":"levelo://app?vid=23c7a8d6-3cfa-456d-b438-60a0b1f1d263"},"vehicle_type_id":"4","last_reported":1778931694,"current_range_meters":7200,"station_id":"ce4bhlh2rcd13ifvqgig","pricing_plan_id":"cebpf4jnsgd1na2vs0mg"},{"bike_id":"810ef53a-5aff-49f3-99db-34213da1b1cf","system_id":"levelo_inurba_marseille","lat":43.28728,"lon":5.4671,"is_reserved":false,"is_disabled":false,"rental_uris":{"android":"levelo://app?vid=810ef53a-5aff-49f3-99db-34213da1b1cf","ios":"levelo://app?vid=810ef53a-5aff-49f3-99db-34213da1b1cf"},"vehicle_type_id":"4","last_reported":1778931694,"current_range_meters":7200,"station_id":"st_d6tc3vkotcvc738tfjhg","pricing_plan_id":"cebpf4jnsgd1na2vs0mg"},{"bike_id":"76a60325-3637-446f-8657-c09446c957ad","system_id":"levelo_inurba_marseille","lat":43.28259,"lon":5.35079,"is_reserved":false,"is_disabled":false,"rental_uris":{"android":"levelo://app?vid=76a60325-3637-446f-8657-c09446c957ad","ios":"levelo://app?vid=76a60325-3637-446f-8657-c09446c957ad"},"vehicle_type_id":"4","last_reported":1778931694,"current_range_meters":7200,"station_id":"ce4bhbp2rcd13ifvqerg","pricing_plan_id":"cebpf4jnsgd1na2vs0mg"},{"bike_id":"4cf8e064-21a7-4e57-ac70-a7acee42c98c","system_id":"levelo_inurba_marseille","lat":43.27616,"lon":5.36122,"is_reserved":false,"is_disabled":false,"rental_uris":{"android":"levelo://app?vid=4cf8e064-21a7-4e57-ac70-a7acee42c98c","ios":"levelo://app?vid=4cf8e064-21a7-4e57-ac70-a7acee42c98c"},"vehicle_type_id":"4","last_reported":1778931694,"current_range_meters":7200,"station_id":"ce4bgj92rcd13ifvqbe0","pricing_plan_id":"cebpf4jnsgd1na2vs0mg"},{"bike_id":"5b61ad3d-c4b3-4bf0-9170-da55ed29dbbb","system_id":"levelo_inurba_marseille","lat":43.30751,"lon":5.39341,"is_reserved":false,"is_disabled":false,"rental_uris":{"android":"levelo://app?vid=5b61ad3d-c4b3-4bf0-9170-da55ed29dbbb","ios":"levelo://app?vid=5b61ad3d-c4b3-4bf0-9170-da55ed29dbbb"},"vehicle_type_id":"4","last_reported":1778931694,"current_range_meters":7200,"station_id":"","pricing_plan_id":"cebpf4jnsgd1na2vs0mg"},{"bike_id":"b645593d-f67c-4f1b-b9f9-f8e1b08f24ee","system_id":"levelo_inurba_marseille","lat":43.25096,"lon":5.41356,"is_reserved":false,"is_disabled":false,"rental_uris":{"android":"levelo://app?vid=b645593d-f67c-4f1b-b9f9-f8e1b08f24ee","ios":"levelo://app?vid=b645593d-f67c-4f1b-b9f9-f8e1b08f24ee"},"vehicle_type_id":"4","last_reported":1778931694,"current_range_meters":7200,"station_id":"","pricing_plan_id":"cebpf4jnsgd1na2vs0mg"},{"bike_id":"6dc49104-6ebc-428c-b699-af8ff18314e2","system_id":"levelo_inurba_marseille","lat":43.282722,"lon":5.350622,"is_reserved":false,"is_disabled":false,"rental_uris":{"android":"levelo://app?vid=6dc49104-6ebc-428c-b699-af8ff18314e2","ios":"levelo://app?vid=6dc49104-6ebc-428c-b699-af8ff18314e2"},"vehicle_type_id":"4","last_reported":1778931694,"current_range_meters":7200,"station_id":"ce4bhbp2rcd13ifvqerg","pricing_plan_id":"cebpf4jnsgd1na2vs0mg"},{"bike_id":"62d156b1-3ed6-496f-9d27-264502b676a3","system_id":"levelo_inurba_marseille","lat":43.3354,"lon":5.37466,"is_reserved":false,"is_disabled":false,"rental_uris":{"android":"levelo://app?vid=62d156b1-3ed6-496f-9d27-264502b676a3","ios":"levelo://app?vid=62d156b1-3ed6-496f-9d27-264502b676a3"},"vehicle_type_id":"4","last_reported":1778931694,"current_range_meters":7200,"station_id":"st_d46tts09ee8s73dlu43g","pricing_plan_id":"cebpf4jnsgd1na2vs0mg"},{"bike_id":"275452fa-49c7-4ee3-b3e6-44621052e7fd","system_id":"levelo_inurba_marseille","lat":43.28419,"lon":5.34989,"is_reserved":false,"is_disabled":false,"rental_uris":{"android":"levelo://app?vid=275452fa-49c7-4ee3-b3e6-44621052e7fd","ios":"levelo://app?vid=275452fa-49c7-4ee3-b3e6-44621052e7fd"},"vehicle_type_id":"4","last_reported":1778931694,"current_range_meters":7200,"station_id":"ce4bhbh2rcd13ifvqepg","pricing_plan_id":"cebpf4jnsgd1na2vs0mg"},{"bike_id":"4ec959dd-1de1-448f-b442-aa2685dcb0b4","system_id":"levelo_inurba_marseille","lat":43.31161,"lon":5.36859,"is_reserved":false,"is_disabled":false,"rental_uris":{"android":"levelo://app?vid=4ec959dd-1de1-448f-b442-aa2685dcb0b4","ios":"levelo://app?vid=4ec959dd-1de1-448f-b442-aa2685dcb0b4"},"vehicle_type_id":"4","last_reported":1778931694,"current_range_meters":7200,"station_id":"ce4bgl92rcd13ifvqbq0","pricing_plan_id":"cebpf4jnsgd1na2vs0mg"},{"bike_id":"6eb70678-e4de-48b2-9bcf-c2743dfd747c","system_id":"levelo_inurba_marseille","lat":43.23146,"lon":5.43709,"is_reserved":false,"is_disabled":false,"rental_uris":{"android":"levelo://app?vid=6eb70678-e4de-48b2-9bcf-c2743dfd747c","ios":"levelo://app?vid=6eb70678-e4de-48b2-9bcf-c2743dfd747c"},"vehicle_type_id":"4","last_reported":1778931694,"current_range_meters":7200,"station_id":"ce4bhmp2rcd13ifvqgog","pricing_plan_id":"cebpf4jnsgd1na2vs0mg"},{"bike_id":"659fb7a5-acda-4bf0-b4d5-df0d7201ad7c","system_id":"levelo_inurba_marseille","lat":43.28703,"lon":5.46683,"is_reserved":false,"is_disabled":false,"rental_uris":{"android":"levelo://app?vid=659fb7a5-acda-4bf0-b4d5-df0d7201ad7c","ios":"levelo://app?vid=659fb7a5-acda-4bf0-b4d5-df0d7201ad7c"},"vehicle_type_id":"4","last_reported":1778931694,"current_range_meters":7200,"station_id":"st_d6tc3vkotcvc738tfjhg","pricing_plan_id":"cebpf4jnsgd1na2vs0mg"},{"bike_id":"e9ed5a73-9e2f-4f68-a07d-5bc3f0b80e50","system_id":"levelo_inurba_marseille","lat":43.2826,"lon":5.35055,"is_reserved":false,"is_disabled":false,"rental_uris":{"android":"levelo://app?vid=e9ed5a73-9e2f-4f68-a07d-5bc3f0b80e50","ios":"levelo://app?vid=e9ed5a73-9e2f-4f68-a07d-5bc3f0b80e50"},"vehicle_type_id":"4","last_reported":1778931694,"current_range_meters":7200,"station_id":"ce4bhbp2rcd13ifvqerg","pricing_plan_id":"cebpf4jnsgd1na2vs0mg"},{"bike_id":"25d874e2-4fb0-465d-875a-02b69a82441a","system_id":"levelo_inurba_marseille","lat":43.24809,"lon":5.37454,"is_reserved":false,"is_disabled":false,"rental_uris":{"android":"levelo://app?vid=25d874e2-4fb0-465d-875a-02b69a82441a","ios":"levelo://app?vid=25d874e2-4fb0-465d-875a-02b69a82441a"},"vehicle_type_id":"4","last_reported":1778931694,"current_range_meters":7200,"station_id":"ce4bhgh2rcd13ifvqfb0","pricing_plan_id":"cebpf4jnsgd1na2vs0mg"},{"bike_id":"b3d3f46d-8b61-4048-a49d-46db42a99359","system_id":"levelo_inurba_marseille","lat":43.24807,"lon":5.3745,"is_reserved":false,"is_disabled":false,"rental_uris":{"android":"levelo://app?vid=b3d3f46d-8b61-4048-a49d-46db42a99359","ios":"levelo://app?vid=b3d3f46d-8b61-4048-a49d-46db42a99359"},"vehicle_type_id":"4","last_reported":1778931694,"current_range_meters":8000,"station_id":"ce4bhgh2rcd13ifvqfb0","pricing_plan_id":"cebpf4jnsgd1na2vs0mg"},{"bike_id":"5b744d3a-164e-40a7-b9c8-92dc8a498fc5","system_id":"levelo_inurba_marseille","lat":43.2621,"lon":5.3755,"is_reserved":false,"is_disabled":true,"rental_uris":{"android":"levelo://app?vid=5b744d3a-164e-40a7-b9c8-92dc8a498fc5","ios":"levelo://app?vid=5b744d3a-164e-40a7-b9c8-92dc8a498fc5"},"vehicle_type_id":"4","last_reported":1778931694,"current_range_meters":8000,"station_id":"","pricing_plan_id":"cebpf4jnsgd1na2vs0mg"},{"bike_id":"616353f1-4754-4f57-9465-e46d49d24354","system_id":"levelo_inurba_marseille","lat":43.33629,"lon":5.36285,"is_reserved":false,"is_disabled":false,"rental_uris":{"android":"levelo://app?vid=616353f1-4754-4f57-9465-e46d49d24354","ios":"levelo://app?vid=616353f1-4754-4f57-9465-e46d49d24354"},"vehicle_type_id":"4","last_reported":1778931694,"current_range_meters":8000,"station_id":"","pricing_plan_id":"cebpf4jnsgd1na2vs0mg"},{"bike_id":"fd40b65e-4533-406f-9f7a-1eb7ebc9e5a5","system_id":"levelo_inurba_marseille","lat":43.302,"lon":5.3658,"is_reserved":false,"is_disabled":false,"rental_uris":{"android":"levelo://app?vid=fd40b65e-4533-406f-9f7a-1eb7ebc9e5a5","ios":"levelo://app?vid=fd40b65e-4533-406f-9f7a-1eb7ebc9e5a5"},"vehicle_type_id":"4","last_reported":1778931694,"current_range_meters":8000,"station_id":"ce4bgrh2rcd13ifvqc8g","pricing_plan_id":"cebpf4jnsgd1na2vs0mg"},{"bike_id":"95d4bd31-b89c-4cb2-afa3-9e6e4ba15e30","system_id":"levelo_inurba_marseille","lat":43.2551,"lon":5.37642,"is_reserved":false,"is_disabled":false,"rental_uris":{"android":"levelo://app?vid=95d4bd31-b89c-4cb2-afa3-9e6e4ba15e30","ios":"levelo://app?vid=95d4bd31-b89c-4cb2-afa3-9e6e4ba15e30"},"vehicle_type_id":"4","last_reported":1778931694,"current_range_meters":8000,"station_id":"ce4bhh12rcd13ifvqff0","pricing_plan_id":"cebpf4jnsgd1na2vs0mg"},{"bike_id":"1124e8ed-181a-445d-9220-36e963831e6c","system_id":"levelo_inurba_marseille","lat":43.23904,"lon":5.37437,"is_reserved":false,"is_disabled":true,"rental_uris":{"android":"levelo://app?vid=1124e8ed-181a-445d-9220-36e963831e6c","ios":"levelo://app?vid=1124e8ed-181a-445d-9220-36e963831e6c"},"vehicle_type_id":"4","last_reported":1778931694,"current_range_meters":8000,"station_id":"st_d6sm7csbq4hs73f8fpjg","pricing_plan_id":"cebpf4jnsgd1na2vs0mg"},{"bike_id":"c840fdcf-1e65-4005-a5a6-debdb0deb9d7","system_id":"levelo_inurba_marseille","lat":43.31136,"lon":5.3776,"is_reserved":false,"is_disabled":false,"rental_uris":{"android":"levelo://app?vid=c840fdcf-1e65-4005-a5a6-debdb0deb9d7","ios":"levelo://app?vid=c840fdcf-1e65-4005-a5a6-debdb0deb9d7"},"vehicle_type_id":"4","last_reported":1778931694,"current_range_meters":8000,"station_id":"ce4bgt92rcd13ifvqcg0","pricing_plan_id":"cebpf4jnsgd1na2vs0mg"},{"bike_id":"c64c5002-311e-4610-a452-071ebf4e579d","system_id":"levelo_inurba_marseille","lat":43.2499,"lon":5.38931,"is_reserved":false,"is_disabled":false,"rental_uris":{"android":"levelo://app?vid=c64c5002-311e-4610-a452-071ebf4e579d","ios":"levelo://app?vid=c64c5002-311e-4610-a452-071ebf4e579d"},"vehicle_type_id":"4","last_reported":1778931694,"current_range_meters":8000,"station_id":"ce4bhgp2rcd13ifvqfd0","pricing_plan_id":"cebpf4jnsgd1na2vs0mg"},{"bike_id":"37ca5b86-b3d0-4bc0-80e9-3ce47d4dd8d3","system_id":"levelo_inurba_marseille","lat":43.23888,"lon":5.37459,"is_reserved":false,"is_disabled":false,"rental_uris":{"android":"levelo://app?vid=37ca5b86-b3d0-4bc0-80e9-3ce47d4dd8d3","ios":"levelo://app?vid=37ca5b86-b3d0-4bc0-80e9-3ce47d4dd8d3"},"vehicle_type_id":"4","last_reported":1778931694,"current_range_meters":8000,"station_id":"st_d6sm7csbq4hs73f8fpjg","pricing_plan_id":"cebpf4jnsgd1na2vs0mg"},{"bike_id":"57716f1b-e850-455e-8535-b5db4b2543ce","system_id":"levelo_inurba_marseille","lat":43.27976,"lon":5.38762,"is_reserved":false,"is_disabled":false,"rental_uris":{"android":"levelo://app?vid=57716f1b-e850-455e-8535-b5db4b2543ce","ios":"levelo://app?vid=57716f1b-e850-455e-8535-b5db4b2543ce"},"vehicle_type_id":"4","last_reported":1778931694,"current_range_meters":8000,"station_id":"ce4bhg12rcd13ifvqf80","pricing_plan_id":"cebpf4jnsgd1na2vs0mg"},{"bike_id":"34678a1c-60f3-45d1-98d5-4a975c55a3b5","system_id":"levelo_inurba_marseille","lat":43.29222,"lon":5.36062,"is_reserved":false,"is_disabled":true,"rental_uris":{"android":"levelo://app?vid=34678a1c-60f3-45d1-98d5-4a975c55a3b5","ios":"levelo://app?vid=34678a1c-60f3-45d1-98d5-4a975c55a3b5"},"vehicle_type_id":"4","last_reported":1778931694,"current_range_meters":8000,"station_id":"ce4bhbh2rcd13ifvqeqg","pricing_plan_id":"cebpf4jnsgd1na2vs0mg"},{"bike_id":"934f1e1a-454b-4248-a848-802a9ff33fb2","system_id":"levelo_inurba_marseille","lat":43.211888,"lon":5.350731,"is_reserved":false,"is_disabled":false,"rental_uris":{"android":"levelo://app?vid=934f1e1a-454b-4248-a848-802a9ff33fb2","ios":"levelo://app?vid=934f1e1a-454b-4248-a848-802a9ff33fb2"},"vehicle_type_id":"4","last_reported":1778931694,"current_range_meters":8000,"station_id":"st_cvj6sg6p6f1abm77japg","pricing_plan_id":"cebpf4jnsgd1na2vs0mg"},{"bike_id":"dbcb99d7-b21a-4ba8-9326-06fe4ababdac","system_id":"levelo_inurba_marseille","lat":43.23238,"lon":5.35552,"is_reserved":false,"is_disabled":false,"rental_uris":{"android":"levelo://app?vid=dbcb99d7-b21a-4ba8-9326-06fe4ababdac","ios":"levelo://app?vid=dbcb99d7-b21a-4ba8-9326-06fe4ababdac"},"vehicle_type_id":"4","last_reported":1778931694,"current_range_meters":8000,"station_id":"","pricing_plan_id":"cebpf4jnsgd1na2vs0mg"},{"bike_id":"edd5c786-8d24-46bc-bdcd-f0f00a11c1c1","system_id":"levelo_inurba_marseille","lat":43.25504,"lon":5.37667,"is_reserved":false,"is_disabled":true,"rental_uris":{"android":"levelo://app?vid=edd5c786-8d24-46bc-bdcd-f0f00a11c1c1","ios":"levelo://app?vid=edd5c786-8d24-46bc-bdcd-f0f00a11c1c1"},"vehicle_type_id":"4","last_reported":1778931694,"current_range_meters":8000,"station_id":"ce4bhh12rcd13ifvqff0","pricing_plan_id":"cebpf4jnsgd1na2vs0mg"},{"bike_id":"f1828d5c-4a6d-47d8-9802-638377778610","system_id":"levelo_inurba_marseille","lat":43.29226,"lon":5.36085,"is_reserved":false,"is_disabled":false,"rental_uris":{"android":"levelo://app?vid=f1828d5c-4a6d-47d8-9802-638377778610","ios":"levelo://app?vid=f1828d5c-4a6d-47d8-9802-638377778610"},"vehicle_type_id":"4","last_reported":1778931694,"current_range_meters":8000,"station_id":"ce4bhbh2rcd13ifvqeqg","pricing_plan_id":"cebpf4jnsgd1na2vs0mg"},{"bike_id":"5ca2a651-1081-4448-8a0d-b4a6e57f52b6","system_id":"levelo_inurba_marseille","lat":43.28484,"lon":5.3855,"is_reserved":false,"is_disabled":false,"rental_uris":{"android":"levelo://app?vid=5ca2a651-1081-4448-8a0d-b4a6e57f52b6","ios":"levelo://app?vid=5ca2a651-1081-4448-8a0d-b4a6e57f52b6"},"vehicle_type_id":"4","last_reported":1778931694,"current_range_meters":8000,"station_id":"ce4bh8p2rcd13ifvqeb0","pricing_plan_id":"cebpf4jnsgd1na2vs0mg"},{"bike_id":"78a05d99-04e8-4d44-b30f-76f897048f1b","system_id":"levelo_inurba_marseille","lat":43.27919,"lon":5.39586,"is_reserved":false,"is_disabled":false,"rental_uris":{"android":"levelo://app?vid=78a05d99-04e8-4d44-b30f-76f897048f1b","ios":"levelo://app?vid=78a05d99-04e8-4d44-b30f-76f897048f1b"},"vehicle_type_id":"4","last_reported":1778931694,"current_range_meters":8000,"station_id":"ce4bhf92rcd13ifvqf40","pricing_plan_id":"cebpf4jnsgd1na2vs0mg"},{"bike_id":"a90bb131-ab97-4866-93b6-a21239fc5036","system_id":"levelo_inurba_marseille","lat":43.29254,"lon":5.3844,"is_reserved":false,"is_disabled":false,"rental_uris":{"android":"levelo://app?vid=a90bb131-ab97-4866-93b6-a21239fc5036","ios":"levelo://app?vid=a90bb131-ab97-4866-93b6-a21239fc5036"},"vehicle_type_id":"4","last_reported":1778931694,"current_range_meters":8000,"station_id":"ce4bh692rcd13ifvqea0","pricing_plan_id":"cebpf4jnsgd1na2vs0mg"},{"bike_id":"380b5b02-7761-49fd-a03f-39d0fb476707","system_id":"levelo_inurba_marseille","lat":43.24498,"lon":5.42575,"is_reserved":false,"is_disabled":false,"rental_uris":{"android":"levelo://app?vid=380b5b02-7761-49fd-a03f-39d0fb476707","ios":"levelo://app?vid=380b5b02-7761-49fd-a03f-39d0fb476707"},"vehicle_type_id":"4","last_reported":1778931694,"current_range_meters":8000,"station_id":"st_d4a3vfp97mjs738cd8kg","pricing_plan_id":"cebpf4jnsgd1na2vs0mg"},{"bike_id":"b5700011-a486-4e56-b8fb-207aaf85d4db","system_id":"levelo_inurba_marseille","lat":43.31912,"lon":5.36796,"is_reserved":false,"is_disabled":false,"rental_uris":{"android":"levelo://app?vid=b5700011-a486-4e56-b8fb-207aaf85d4db","ios":"levelo://app?vid=b5700011-a486-4e56-b8fb-207aaf85d4db"},"vehicle_type_id":"4","last_reported":1778931694,"current_range_meters":8000,"station_id":"st_d6o2h0d0559c73evc1b0","pricing_plan_id":"cebpf4jnsgd1na2vs0mg"},{"bike_id":"d1f3b13b-a61c-41fc-b986-79acc9b16fe8","system_id":"levelo_inurba_marseille","lat":43.28531,"lon":5.44097,"is_reserved":false,"is_disabled":false,"rental_uris":{"android":"levelo://app?vid=d1f3b13b-a61c-41fc-b986-79acc9b16fe8","ios":"levelo://app?vid=d1f3b13b-a61c-41fc-b986-79acc9b16fe8"},"vehicle_type_id":"4","last_reported":1778931694,"current_range_meters":8000,"station_id":"st_d3j3df2ikq2c7380ej80","pricing_plan_id":"cebpf4jnsgd1na2vs0mg"},{"bike_id":"ee15264c-c5fd-4c69-a06f-329fd6fb9d0d","system_id":"levelo_inurba_marseille","lat":43.30122,"lon":5.43099,"is_reserved":false,"is_disabled":false,"rental_uris":{"android":"levelo://app?vid=ee15264c-c5fd-4c69-a06f-329fd6fb9d0d","ios":"levelo://app?vid=ee15264c-c5fd-4c69-a06f-329fd6fb9d0d"},"vehicle_type_id":"4","last_reported":1778931694,"current_range_meters":8000,"station_id":"st_d3js3co5814s73ftftug","pricing_plan_id":"cebpf4jnsgd1na2vs0mg"},{"bike_id":"52fb7434-896e-4c97-817e-ac9657918ab4","system_id":"levelo_inurba_marseille","lat":43.3355,"lon":5.37463,"is_reserved":false,"is_disabled":false,"rental_uris":{"android":"levelo://app?vid=52fb7434-896e-4c97-817e-ac9657918ab4","ios":"levelo://app?vid=52fb7434-896e-4c97-817e-ac9657918ab4"},"vehicle_type_id":"4","last_reported":1778931694,"current_range_meters":8000,"station_id":"st_d46tts09ee8s73dlu43g","pricing_plan_id":"cebpf4jnsgd1na2vs0mg"},{"bike_id":"fea54104-bb98-4d6d-b765-f71a537f5666","system_id":"levelo_inurba_marseille","lat":43.23531,"lon":5.40685,"is_reserved":false,"is_disabled":false,"rental_uris":{"android":"levelo://app?vid=fea54104-bb98-4d6d-b765-f71a537f5666","ios":"levelo://app?vid=fea54104-bb98-4d6d-b765-f71a537f5666"},"vehicle_type_id":"4","last_reported":1778931694,"current_range_meters":8000,"station_id":"","pricing_plan_id":"cebpf4jnsgd1na2vs0mg"},{"bike_id":"698b85c5-bf11-437e-913f-7d2243a0f74a","system_id":"levelo_inurba_marseille","lat":43.26226,"lon":5.3757,"is_reserved":false,"is_disabled":false,"rental_uris":{"android":"levelo://app?vid=698b85c5-bf11-437e-913f-7d2243a0f74a","ios":"levelo://app?vid=698b85c5-bf11-437e-913f-7d2243a0f74a"},"vehicle_type_id":"4","last_reported":1778931694,"current_range_meters":8000,"station_id":"","pricing_plan_id":"cebpf4jnsgd1na2vs0mg"},{"bike_id":"83655719-ddfd-490b-952e-717c396c4dc6","system_id":"levelo_inurba_marseille","lat":43.29604,"lon":5.38095,"is_reserved":false,"is_disabled":false,"rental_uris":{"android":"levelo://app?vid=83655719-ddfd-490b-952e-717c396c4dc6","ios":"levelo://app?vid=83655719-ddfd-490b-952e-717c396c4dc6"},"vehicle_type_id":"4","last_reported":1778931694,"current_range_meters":8000,"station_id":"ce4bgl12rcd13ifvqbo0","pricing_plan_id":"cebpf4jnsgd1na2vs0mg"},{"bike_id":"b609bd99-0408-43a0-9a9d-8206ba067457","system_id":"levelo_inurba_marseille","lat":43.29932,"lon":5.36527,"is_reserved":false,"is_disabled":false,"rental_uris":{"android":"levelo://app?vid=b609bd99-0408-43a0-9a9d-8206ba067457","ios":"levelo://app?vid=b609bd99-0408-43a0-9a9d-8206ba067457"},"vehicle_type_id":"4","last_reported":1778931694,"current_range_meters":8400,"station_id":"ce4bgm92rcd13ifvqbr0","pricing_plan_id":"cebpf4jnsgd1na2vs0mg"},{"bike_id":"b85c6d79-bf2e-49ca-8635-115961a7a63d","system_id":"levelo_inurba_marseille","lat":43.30949,"lon":5.40133,"is_reserved":false,"is_disabled":false,"rental_uris":{"android":"levelo://app?vid=b85c6d79-bf2e-49ca-8635-115961a7a63d","ios":"levelo://app?vid=b85c6d79-bf2e-49ca-8635-115961a7a63d"},"vehicle_type_id":"4","last_reported":1778931694,"current_range_meters":8400,"station_id":"ce4bgvp2rcd13ifvqct0","pricing_plan_id":"cebpf4jnsgd1na2vs0mg"},{"bike_id":"c091a819-21d8-46ac-8161-23f60b78cf02","system_id":"levelo_inurba_marseille","lat":43.27608,"lon":5.36117,"is_reserved":false,"is_disabled":true,"rental_uris":{"android":"levelo://app?vid=c091a819-21d8-46ac-8161-23f60b78cf02","ios":"levelo://app?vid=c091a819-21d8-46ac-8161-23f60b78cf02"},"vehicle_type_id":"4","last_reported":1778931694,"current_range_meters":8400,"station_id":"ce4bgj92rcd13ifvqbe0","pricing_plan_id":"cebpf4jnsgd1na2vs0mg"},{"bike_id":"df3b4c65-b594-43d2-9619-bf34b1560986","system_id":"levelo_inurba_marseille","lat":43.33528,"lon":5.37467,"is_reserved":false,"is_disabled":false,"rental_uris":{"android":"levelo://app?vid=df3b4c65-b594-43d2-9619-bf34b1560986","ios":"levelo://app?vid=df3b4c65-b594-43d2-9619-bf34b1560986"},"vehicle_type_id":"4","last_reported":1778931694,"current_range_meters":8400,"station_id":"st_d46tts09ee8s73dlu43g","pricing_plan_id":"cebpf4jnsgd1na2vs0mg"},{"bike_id":"ef20a65f-19f4-4491-8360-61efaea0f2fe","system_id":"levelo_inurba_marseille","lat":43.27679,"lon":5.41377,"is_reserved":false,"is_disabled":false,"rental_uris":{"android":"levelo://app?vid=ef20a65f-19f4-4491-8360-61efaea0f2fe","ios":"levelo://app?vid=ef20a65f-19f4-4491-8360-61efaea0f2fe"},"vehicle_type_id":"4","last_reported":1778931694,"current_range_meters":8400,"station_id":"","pricing_plan_id":"cebpf4jnsgd1na2vs0mg"},{"bike_id":"7b1dec29-4a90-4c62-a15c-7321693f7cdf","system_id":"levelo_inurba_marseille","lat":43.21762,"lon":5.346,"is_reserved":false,"is_disabled":false,"rental_uris":{"android":"levelo://app?vid=7b1dec29-4a90-4c62-a15c-7321693f7cdf","ios":"levelo://app?vid=7b1dec29-4a90-4c62-a15c-7321693f7cdf"},"vehicle_type_id":"4","last_reported":1778931694,"current_range_meters":8400,"station_id":"st_cvj6r9ubvosntc0bgbag","pricing_plan_id":"cebpf4jnsgd1na2vs0mg"},{"bike_id":"abe259cd-da5a-4a80-a4b0-3b06abbda90f","system_id":"levelo_inurba_marseille","lat":43.25521,"lon":5.37661,"is_reserved":false,"is_disabled":false,"rental_uris":{"android":"levelo://app?vid=abe259cd-da5a-4a80-a4b0-3b06abbda90f","ios":"levelo://app?vid=abe259cd-da5a-4a80-a4b0-3b06abbda90f"},"vehicle_type_id":"4","last_reported":1778931694,"current_range_meters":8400,"station_id":"ce4bhh12rcd13ifvqff0","pricing_plan_id":"cebpf4jnsgd1na2vs0mg"},{"bike_id":"b9785728-d604-45a3-8811-1929b23ae6f4","system_id":"levelo_inurba_marseille","lat":43.24392,"lon":5.3707,"is_reserved":false,"is_disabled":false,"rental_uris":{"android":"levelo://app?vid=b9785728-d604-45a3-8811-1929b23ae6f4","ios":"levelo://app?vid=b9785728-d604-45a3-8811-1929b23ae6f4"},"vehicle_type_id":"4","last_reported":1778931694,"current_range_meters":8400,"station_id":"ce4bhhh2rcd13ifvqfk0","pricing_plan_id":"cebpf4jnsgd1na2vs0mg"},{"bike_id":"4ee69d41-30d6-469e-829a-74d2ce79aff4","system_id":"levelo_inurba_marseille","lat":43.33543,"lon":5.37461,"is_reserved":false,"is_disabled":false,"rental_uris":{"android":"levelo://app?vid=4ee69d41-30d6-469e-829a-74d2ce79aff4","ios":"levelo://app?vid=4ee69d41-30d6-469e-829a-74d2ce79aff4"},"vehicle_type_id":"4","last_reported":1778931694,"current_range_meters":8400,"station_id":"st_d46tts09ee8s73dlu43g","pricing_plan_id":"cebpf4jnsgd1na2vs0mg"},{"bike_id":"6318188d-a7e6-43b4-b011-3b8ec9dda8d9","system_id":"levelo_inurba_marseille","lat":43.21754,"lon":5.34597,"is_reserved":false,"is_disabled":false,"rental_uris":{"android":"levelo://app?vid=6318188d-a7e6-43b4-b011-3b8ec9dda8d9","ios":"levelo://app?vid=6318188d-a7e6-43b4-b011-3b8ec9dda8d9"},"vehicle_type_id":"4","last_reported":1778931694,"current_range_meters":8400,"station_id":"st_cvj6r9ubvosntc0bgbag","pricing_plan_id":"cebpf4jnsgd1na2vs0mg"},{"bike_id":"3b262f3c-5b03-4b53-8a66-da358a5a543b","system_id":"levelo_inurba_marseille","lat":43.29595,"lon":5.38093,"is_reserved":false,"is_disabled":false,"rental_uris":{"android":"levelo://app?vid=3b262f3c-5b03-4b53-8a66-da358a5a543b","ios":"levelo://app?vid=3b262f3c-5b03-4b53-8a66-da358a5a543b"},"vehicle_type_id":"4","last_reported":1778931694,"current_range_meters":8400,"station_id":"ce4bgl12rcd13ifvqbo0","pricing_plan_id":"cebpf4jnsgd1na2vs0mg"},{"bike_id":"5ce80697-225a-4775-9620-63268fa34f78","system_id":"levelo_inurba_marseille","lat":43.30151,"lon":5.38085,"is_reserved":false,"is_disabled":false,"rental_uris":{"android":"levelo://app?vid=5ce80697-225a-4775-9620-63268fa34f78","ios":"levelo://app?vid=5ce80697-225a-4775-9620-63268fa34f78"},"vehicle_type_id":"4","last_reported":1778931694,"current_range_meters":8400,"station_id":"ce4bgjp2rcd13ifvqbh0","pricing_plan_id":"cebpf4jnsgd1na2vs0mg"},{"bike_id":"a4ba461a-05e4-4064-8adc-3f9a63a2e312","system_id":"levelo_inurba_marseille","lat":43.29672,"lon":5.37724,"is_reserved":false,"is_disabled":false,"rental_uris":{"android":"levelo://app?vid=a4ba461a-05e4-4064-8adc-3f9a63a2e312","ios":"levelo://app?vid=a4ba461a-05e4-4064-8adc-3f9a63a2e312"},"vehicle_type_id":"4","last_reported":1778931694,"current_range_meters":8400,"station_id":"","pricing_plan_id":"cebpf4jnsgd1na2vs0mg"},{"bike_id":"b99f3fcb-1bd8-490c-9327-4f96d9f8fa4c","system_id":"levelo_inurba_marseille","lat":43.27958,"lon":5.38691,"is_reserved":false,"is_disabled":false,"rental_uris":{"android":"levelo://app?vid=b99f3fcb-1bd8-490c-9327-4f96d9f8fa4c","ios":"levelo://app?vid=b99f3fcb-1bd8-490c-9327-4f96d9f8fa4c"},"vehicle_type_id":"4","last_reported":1778931694,"current_range_meters":8400,"station_id":"ce4bhg12rcd13ifvqf80","pricing_plan_id":"cebpf4jnsgd1na2vs0mg"},{"bike_id":"ae292c7b-0f60-4dc1-9e06-163aacb9f71d","system_id":"levelo_inurba_marseille","lat":43.21197,"lon":5.3507,"is_reserved":false,"is_disabled":false,"rental_uris":{"android":"levelo://app?vid=ae292c7b-0f60-4dc1-9e06-163aacb9f71d","ios":"levelo://app?vid=ae292c7b-0f60-4dc1-9e06-163aacb9f71d"},"vehicle_type_id":"4","last_reported":1778931694,"current_range_meters":8400,"station_id":"st_cvj6sg6p6f1abm77japg","pricing_plan_id":"cebpf4jnsgd1na2vs0mg"},{"bike_id":"d74e6cb2-9b2e-4676-ab53-3e763325f771","system_id":"levelo_inurba_marseille","lat":43.24379,"lon":5.37022,"is_reserved":false,"is_disabled":false,"rental_uris":{"android":"levelo://app?vid=d74e6cb2-9b2e-4676-ab53-3e763325f771","ios":"levelo://app?vid=d74e6cb2-9b2e-4676-ab53-3e763325f771"},"vehicle_type_id":"4","last_reported":1778931694,"current_range_meters":8400,"station_id":"ce4bhhh2rcd13ifvqfk0","pricing_plan_id":"cebpf4jnsgd1na2vs0mg"},{"bike_id":"2345b843-5a5e-4d20-a142-4f42e112b289","system_id":"levelo_inurba_marseille","lat":43.34139,"lon":5.40899,"is_reserved":false,"is_disabled":false,"rental_uris":{"android":"levelo://app?vid=2345b843-5a5e-4d20-a142-4f42e112b289","ios":"levelo://app?vid=2345b843-5a5e-4d20-a142-4f42e112b289"},"vehicle_type_id":"4","last_reported":1778931694,"current_range_meters":8400,"station_id":"ce4bhqh2rcd13ifvqhlg","pricing_plan_id":"cebpf4jnsgd1na2vs0mg"},{"bike_id":"d00e3e37-2d05-44c6-b4da-80cc44be61fd","system_id":"levelo_inurba_marseille","lat":43.29714,"lon":5.37639,"is_reserved":false,"is_disabled":false,"rental_uris":{"android":"levelo://app?vid=d00e3e37-2d05-44c6-b4da-80cc44be61fd","ios":"levelo://app?vid=d00e3e37-2d05-44c6-b4da-80cc44be61fd"},"vehicle_type_id":"4","last_reported":1778931694,"current_range_meters":8400,"station_id":"ce4bgkh2rcd13ifvqbl0","pricing_plan_id":"cebpf4jnsgd1na2vs0mg"},{"bike_id":"85a2b855-aa59-4e7a-8e8c-d4d155f4732b","system_id":"levelo_inurba_marseille","lat":43.29575,"lon":5.3675,"is_reserved":false,"is_disabled":false,"rental_uris":{"android":"levelo://app?vid=85a2b855-aa59-4e7a-8e8c-d4d155f4732b","ios":"levelo://app?vid=85a2b855-aa59-4e7a-8e8c-d4d155f4732b"},"vehicle_type_id":"4","last_reported":1778931694,"current_range_meters":8400,"station_id":"ce4bgph2rcd13ifvqc2g","pricing_plan_id":"cebpf4jnsgd1na2vs0mg"},{"bike_id":"2f701455-9a88-4bab-99f0-da0dade42e53","system_id":"levelo_inurba_marseille","lat":43.29465,"lon":5.43303,"is_reserved":false,"is_disabled":false,"rental_uris":{"android":"levelo://app?vid=2f701455-9a88-4bab-99f0-da0dade42e53","ios":"levelo://app?vid=2f701455-9a88-4bab-99f0-da0dade42e53"},"vehicle_type_id":"4","last_reported":1778931694,"current_range_meters":8400,"station_id":"st_d3j5ugp08ojc73fj9d10","pricing_plan_id":"cebpf4jnsgd1na2vs0mg"},{"bike_id":"dace259d-e3eb-491e-95dc-863daa176674","system_id":"levelo_inurba_marseille","lat":43.24192,"lon":5.36376,"is_reserved":false,"is_disabled":false,"rental_uris":{"android":"levelo://app?vid=dace259d-e3eb-491e-95dc-863daa176674","ios":"levelo://app?vid=dace259d-e3eb-491e-95dc-863daa176674"},"vehicle_type_id":"4","last_reported":1778931694,"current_range_meters":8400,"station_id":"cpo36qri1sfpv3e86is0","pricing_plan_id":"cebpf4jnsgd1na2vs0mg"},{"bike_id":"16563b41-ae10-4e2f-a0fe-eb22ad006f33","system_id":"levelo_inurba_marseille","lat":43.24956,"lon":5.40497,"is_reserved":false,"is_disabled":false,"rental_uris":{"android":"levelo://app?vid=16563b41-ae10-4e2f-a0fe-eb22ad006f33","ios":"levelo://app?vid=16563b41-ae10-4e2f-a0fe-eb22ad006f33"},"vehicle_type_id":"4","last_reported":1778931694,"current_range_meters":8400,"station_id":"st_d2ngiaodas8pm72gd1h0","pricing_plan_id":"cebpf4jnsgd1na2vs0mg"},{"bike_id":"fedccf78-7208-491e-ad79-9052f3365971","system_id":"levelo_inurba_marseille","lat":43.27645,"lon":5.36094,"is_reserved":false,"is_disabled":false,"rental_uris":{"android":"levelo://app?vid=fedccf78-7208-491e-ad79-9052f3365971","ios":"levelo://app?vid=fedccf78-7208-491e-ad79-9052f3365971"},"vehicle_type_id":"4","last_reported":1778931694,"current_range_meters":8400,"station_id":"ce4bgj92rcd13ifvqbe0","pricing_plan_id":"cebpf4jnsgd1na2vs0mg"},{"bike_id":"acb74f7b-0e8d-4aa0-a451-a35d8a14e4b7","system_id":"levelo_inurba_marseille","lat":43.28346,"lon":5.3812,"is_reserved":false,"is_disabled":false,"rental_uris":{"android":"levelo://app?vid=acb74f7b-0e8d-4aa0-a451-a35d8a14e4b7","ios":"levelo://app?vid=acb74f7b-0e8d-4aa0-a451-a35d8a14e4b7"},"vehicle_type_id":"4","last_reported":1778931694,"current_range_meters":8400,"station_id":"ce4bh412rcd13ifvqdr0","pricing_plan_id":"cebpf4jnsgd1na2vs0mg"},{"bike_id":"96ac44c7-837c-47fd-9d61-3c07df27a74e","system_id":"levelo_inurba_marseille","lat":43.28276,"lon":5.35062,"is_reserved":false,"is_disabled":false,"rental_uris":{"android":"levelo://app?vid=96ac44c7-837c-47fd-9d61-3c07df27a74e","ios":"levelo://app?vid=96ac44c7-837c-47fd-9d61-3c07df27a74e"},"vehicle_type_id":"4","last_reported":1778931694,"current_range_meters":8400,"station_id":"ce4bhbp2rcd13ifvqerg","pricing_plan_id":"cebpf4jnsgd1na2vs0mg"},{"bike_id":"daee90c6-7d87-4a78-92fc-7e5c72ba257d","system_id":"levelo_inurba_marseille","lat":43.28493,"lon":5.38549,"is_reserved":false,"is_disabled":false,"rental_uris":{"android":"levelo://app?vid=daee90c6-7d87-4a78-92fc-7e5c72ba257d","ios":"levelo://app?vid=daee90c6-7d87-4a78-92fc-7e5c72ba257d"},"vehicle_type_id":"4","last_reported":1778931694,"current_range_meters":8800,"station_id":"ce4bh8p2rcd13ifvqeb0","pricing_plan_id":"cebpf4jnsgd1na2vs0mg"},{"bike_id":"0d51e5ef-ab9b-491a-8c9e-45cfe2cd3256","system_id":"levelo_inurba_marseille","lat":43.29596,"lon":5.36739,"is_reserved":false,"is_disabled":false,"rental_uris":{"android":"levelo://app?vid=0d51e5ef-ab9b-491a-8c9e-45cfe2cd3256","ios":"levelo://app?vid=0d51e5ef-ab9b-491a-8c9e-45cfe2cd3256"},"vehicle_type_id":"4","last_reported":1778931694,"current_range_meters":8800,"station_id":"ce4bgph2rcd13ifvqc2g","pricing_plan_id":"cebpf4jnsgd1na2vs0mg"},{"bike_id":"03708e57-f82c-472f-9ce8-535a83c715b0","system_id":"levelo_inurba_marseille","lat":43.22932,"lon":5.35378,"is_reserved":false,"is_disabled":false,"rental_uris":{"android":"levelo://app?vid=03708e57-f82c-472f-9ce8-535a83c715b0","ios":"levelo://app?vid=03708e57-f82c-472f-9ce8-535a83c715b0"},"vehicle_type_id":"4","last_reported":1778931694,"current_range_meters":8800,"station_id":"cpo3532slgdg3j2ikp40","pricing_plan_id":"cebpf4jnsgd1na2vs0mg"},{"bike_id":"ed8b9caf-da29-4c6c-b8b8-2bb3a2494930","system_id":"levelo_inurba_marseille","lat":43.22602,"lon":5.41626,"is_reserved":false,"is_disabled":false,"rental_uris":{"android":"levelo://app?vid=ed8b9caf-da29-4c6c-b8b8-2bb3a2494930","ios":"levelo://app?vid=ed8b9caf-da29-4c6c-b8b8-2bb3a2494930"},"vehicle_type_id":"4","last_reported":1778931694,"current_range_meters":8800,"station_id":"st_d2o4gvlbi1j2169b742g","pricing_plan_id":"cebpf4jnsgd1na2vs0mg"},{"bike_id":"97a6a3f6-a426-4345-a0e3-e9e66abd3345","system_id":"levelo_inurba_marseille","lat":43.30575,"lon":5.36528,"is_reserved":false,"is_disabled":false,"rental_uris":{"android":"levelo://app?vid=97a6a3f6-a426-4345-a0e3-e9e66abd3345","ios":"levelo://app?vid=97a6a3f6-a426-4345-a0e3-e9e66abd3345"},"vehicle_type_id":"4","last_reported":1778931694,"current_range_meters":8800,"station_id":"ce4bgs12rcd13ifvqcag","pricing_plan_id":"cebpf4jnsgd1na2vs0mg"},{"bike_id":"86507b1b-bc31-4a81-bf67-bec0a597c983","system_id":"levelo_inurba_marseille","lat":43.26404,"lon":5.41055,"is_reserved":false,"is_disabled":false,"rental_uris":{"android":"levelo://app?vid=86507b1b-bc31-4a81-bf67-bec0a597c983","ios":"levelo://app?vid=86507b1b-bc31-4a81-bf67-bec0a597c983"},"vehicle_type_id":"4","last_reported":1778931694,"current_range_meters":8800,"station_id":"st_d4e5ca6na9uc73bfl5fg","pricing_plan_id":"cebpf4jnsgd1na2vs0mg"},{"bike_id":"a1475d99-48d4-492a-9346-7b6c84ba6610","system_id":"levelo_inurba_marseille","lat":43.25088,"lon":5.39516,"is_reserved":false,"is_disabled":false,"rental_uris":{"android":"levelo://app?vid=a1475d99-48d4-492a-9346-7b6c84ba6610","ios":"levelo://app?vid=a1475d99-48d4-492a-9346-7b6c84ba6610"},"vehicle_type_id":"4","last_reported":1778931694,"current_range_meters":8800,"station_id":"ce4bhm12rcd13ifvqgkg","pricing_plan_id":"cebpf4jnsgd1na2vs0mg"},{"bike_id":"813d27aa-24d7-4600-b8e2-7ee95192926c","system_id":"levelo_inurba_marseille","lat":43.29575,"lon":5.37524,"is_reserved":false,"is_disabled":false,"rental_uris":{"android":"levelo://app?vid=813d27aa-24d7-4600-b8e2-7ee95192926c","ios":"levelo://app?vid=813d27aa-24d7-4600-b8e2-7ee95192926c"},"vehicle_type_id":"4","last_reported":1778931694,"current_range_meters":8800,"station_id":"ce4bgh92rcd13ifvqb50","pricing_plan_id":"cebpf4jnsgd1na2vs0mg"},{"bike_id":"59063f1e-10d8-4690-9ce0-08923f74ec53","system_id":"levelo_inurba_marseille","lat":43.29033,"lon":5.35597,"is_reserved":false,"is_disabled":false,"rental_uris":{"android":"levelo://app?vid=59063f1e-10d8-4690-9ce0-08923f74ec53","ios":"levelo://app?vid=59063f1e-10d8-4690-9ce0-08923f74ec53"},"vehicle_type_id":"4","last_reported":1778931694,"current_range_meters":8800,"station_id":"ce4bhb92rcd13ifvqen0","pricing_plan_id":"cebpf4jnsgd1na2vs0mg"},{"bike_id":"7c9517e3-38cb-4a87-948b-926583eebece","system_id":"levelo_inurba_marseille","lat":43.21182,"lon":5.35069,"is_reserved":false,"is_disabled":false,"rental_uris":{"android":"levelo://app?vid=7c9517e3-38cb-4a87-948b-926583eebece","ios":"levelo://app?vid=7c9517e3-38cb-4a87-948b-926583eebece"},"vehicle_type_id":"4","last_reported":1778931694,"current_range_meters":8800,"station_id":"st_cvj6sg6p6f1abm77japg","pricing_plan_id":"cebpf4jnsgd1na2vs0mg"},{"bike_id":"707aeda5-beeb-4b0f-a43b-8908dbd6120b","system_id":"levelo_inurba_marseille","lat":43.30183,"lon":5.36591,"is_reserved":false,"is_disabled":false,"rental_uris":{"android":"levelo://app?vid=707aeda5-beeb-4b0f-a43b-8908dbd6120b","ios":"levelo://app?vid=707aeda5-beeb-4b0f-a43b-8908dbd6120b"},"vehicle_type_id":"4","last_reported":1778931694,"current_range_meters":8800,"station_id":"ce4bgrh2rcd13ifvqc8g","pricing_plan_id":"cebpf4jnsgd1na2vs0mg"},{"bike_id":"0aabf782-ccac-4c6e-b424-2952407b7d7c","system_id":"levelo_inurba_marseille","lat":43.2312,"lon":5.43719,"is_reserved":false,"is_disabled":false,"rental_uris":{"android":"levelo://app?vid=0aabf782-ccac-4c6e-b424-2952407b7d7c","ios":"levelo://app?vid=0aabf782-ccac-4c6e-b424-2952407b7d7c"},"vehicle_type_id":"4","last_reported":1778931694,"current_range_meters":8800,"station_id":"ce4bhmp2rcd13ifvqgog","pricing_plan_id":"cebpf4jnsgd1na2vs0mg"},{"bike_id":"6ea257e9-ce11-4d49-a2f8-fd99dac0cf24","system_id":"levelo_inurba_marseille","lat":43.24678,"lon":5.3814,"is_reserved":false,"is_disabled":false,"rental_uris":{"android":"levelo://app?vid=6ea257e9-ce11-4d49-a2f8-fd99dac0cf24","ios":"levelo://app?vid=6ea257e9-ce11-4d49-a2f8-fd99dac0cf24"},"vehicle_type_id":"4","last_reported":1778931694,"current_range_meters":8800,"station_id":"ce4bhih2rcd13ifvqfr0","pricing_plan_id":"cebpf4jnsgd1na2vs0mg"},{"bike_id":"39f5e5e3-bdaa-431e-ab82-46a06c8cb2ae","system_id":"levelo_inurba_marseille","lat":43.24478,"lon":5.42526,"is_reserved":false,"is_disabled":false,"rental_uris":{"android":"levelo://app?vid=39f5e5e3-bdaa-431e-ab82-46a06c8cb2ae","ios":"levelo://app?vid=39f5e5e3-bdaa-431e-ab82-46a06c8cb2ae"},"vehicle_type_id":"4","last_reported":1778931694,"current_range_meters":8800,"station_id":"st_d4a3vfp97mjs738cd8kg","pricing_plan_id":"cebpf4jnsgd1na2vs0mg"},{"bike_id":"de17aa78-af3b-474d-b16e-76c40c910e54","system_id":"levelo_inurba_marseille","lat":43.30961,"lon":5.40146,"is_reserved":false,"is_disabled":false,"rental_uris":{"android":"levelo://app?vid=de17aa78-af3b-474d-b16e-76c40c910e54","ios":"levelo://app?vid=de17aa78-af3b-474d-b16e-76c40c910e54"},"vehicle_type_id":"4","last_reported":1778931694,"current_range_meters":8800,"station_id":"ce4bgvp2rcd13ifvqct0","pricing_plan_id":"cebpf4jnsgd1na2vs0mg"},{"bike_id":"6e07fdcc-5bd1-475f-bd15-3140883aeeee","system_id":"levelo_inurba_marseille","lat":43.28998,"lon":5.35595,"is_reserved":false,"is_disabled":false,"rental_uris":{"android":"levelo://app?vid=6e07fdcc-5bd1-475f-bd15-3140883aeeee","ios":"levelo://app?vid=6e07fdcc-5bd1-475f-bd15-3140883aeeee"},"vehicle_type_id":"4","last_reported":1778931694,"current_range_meters":8800,"station_id":"ce4bhb92rcd13ifvqen0","pricing_plan_id":"cebpf4jnsgd1na2vs0mg"},{"bike_id":"db434070-fbc8-463e-8a86-acaf6a506c56","system_id":"levelo_inurba_marseille","lat":43.28402,"lon":5.34993,"is_reserved":false,"is_disabled":false,"rental_uris":{"android":"levelo://app?vid=db434070-fbc8-463e-8a86-acaf6a506c56","ios":"levelo://app?vid=db434070-fbc8-463e-8a86-acaf6a506c56"},"vehicle_type_id":"4","last_reported":1778931694,"current_range_meters":8800,"station_id":"ce4bhbh2rcd13ifvqepg","pricing_plan_id":"cebpf4jnsgd1na2vs0mg"},{"bike_id":"88676436-b644-4b39-91d3-cc5d29c9ef88","system_id":"levelo_inurba_marseille","lat":43.29869,"lon":5.38346,"is_reserved":false,"is_disabled":false,"rental_uris":{"android":"levelo://app?vid=88676436-b644-4b39-91d3-cc5d29c9ef88","ios":"levelo://app?vid=88676436-b644-4b39-91d3-cc5d29c9ef88"},"vehicle_type_id":"4","last_reported":1778931694,"current_range_meters":8800,"station_id":"","pricing_plan_id":"cebpf4jnsgd1na2vs0mg"},{"bike_id":"0e4b3cc2-d0d1-4acc-8ee4-dbc0c18861db","system_id":"levelo_inurba_marseille","lat":43.32502,"lon":5.38291,"is_reserved":false,"is_disabled":false,"rental_uris":{"android":"levelo://app?vid=0e4b3cc2-d0d1-4acc-8ee4-dbc0c18861db","ios":"levelo://app?vid=0e4b3cc2-d0d1-4acc-8ee4-dbc0c18861db"},"vehicle_type_id":"4","last_reported":1778931694,"current_range_meters":8800,"station_id":"st_d4asgbiv49dc73anf9m0","pricing_plan_id":"cebpf4jnsgd1na2vs0mg"},{"bike_id":"41ed03a9-ce21-4903-a810-ca307a88c332","system_id":"levelo_inurba_marseille","lat":43.26216,"lon":5.40459,"is_reserved":false,"is_disabled":false,"rental_uris":{"android":"levelo://app?vid=41ed03a9-ce21-4903-a810-ca307a88c332","ios":"levelo://app?vid=41ed03a9-ce21-4903-a810-ca307a88c332"},"vehicle_type_id":"4","last_reported":1778931694,"current_range_meters":8800,"station_id":"ce4bhmh2rcd13ifvqgmg","pricing_plan_id":"cebpf4jnsgd1na2vs0mg"},{"bike_id":"b5a74427-3e46-48dd-a66c-8536ea753a89","system_id":"levelo_inurba_marseille","lat":43.28607,"lon":5.35102,"is_reserved":false,"is_disabled":false,"rental_uris":{"android":"levelo://app?vid=b5a74427-3e46-48dd-a66c-8536ea753a89","ios":"levelo://app?vid=b5a74427-3e46-48dd-a66c-8536ea753a89"},"vehicle_type_id":"4","last_reported":1778931694,"current_range_meters":8800,"station_id":"ce4bhch2rcd13ifvqeug","pricing_plan_id":"cebpf4jnsgd1na2vs0mg"},{"bike_id":"6e641e4a-f875-4eb7-b3e5-a8519e5f488d","system_id":"levelo_inurba_marseille","lat":43.292787,"lon":5.40117,"is_reserved":false,"is_disabled":false,"rental_uris":{"android":"levelo://app?vid=6e641e4a-f875-4eb7-b3e5-a8519e5f488d","ios":"levelo://app?vid=6e641e4a-f875-4eb7-b3e5-a8519e5f488d"},"vehicle_type_id":"4","last_reported":1778931694,"current_range_meters":8800,"station_id":"ce4bh312rcd13ifvqdk0","pricing_plan_id":"cebpf4jnsgd1na2vs0mg"},{"bike_id":"183ecbf2-1487-4e31-a0b0-97fce68bdb3c","system_id":"levelo_inurba_marseille","lat":43.31345,"lon":5.38512,"is_reserved":false,"is_disabled":false,"rental_uris":{"android":"levelo://app?vid=183ecbf2-1487-4e31-a0b0-97fce68bdb3c","ios":"levelo://app?vid=183ecbf2-1487-4e31-a0b0-97fce68bdb3c"},"vehicle_type_id":"4","last_reported":1778931694,"current_range_meters":8800,"station_id":"ce4bgt92rcd13ifvqcf0","pricing_plan_id":"cebpf4jnsgd1na2vs0mg"},{"bike_id":"ea931ebd-1bf3-4e19-9335-f087cbfbab1c","system_id":"levelo_inurba_marseille","lat":43.2446,"lon":5.42534,"is_reserved":false,"is_disabled":false,"rental_uris":{"android":"levelo://app?vid=ea931ebd-1bf3-4e19-9335-f087cbfbab1c","ios":"levelo://app?vid=ea931ebd-1bf3-4e19-9335-f087cbfbab1c"},"vehicle_type_id":"4","last_reported":1778931694,"current_range_meters":8800,"station_id":"st_d4a3vfp97mjs738cd8kg","pricing_plan_id":"cebpf4jnsgd1na2vs0mg"},{"bike_id":"cc421a39-fb72-4a11-ba11-b6c7fd9e1c12","system_id":"levelo_inurba_marseille","lat":43.30139,"lon":5.38085,"is_reserved":false,"is_disabled":false,"rental_uris":{"android":"levelo://app?vid=cc421a39-fb72-4a11-ba11-b6c7fd9e1c12","ios":"levelo://app?vid=cc421a39-fb72-4a11-ba11-b6c7fd9e1c12"},"vehicle_type_id":"4","last_reported":1778931694,"current_range_meters":8800,"station_id":"ce4bgjp2rcd13ifvqbh0","pricing_plan_id":"cebpf4jnsgd1na2vs0mg"},