{"last_updated":1758608163,"ttl":60,"version":"2.2","data":{"bikes":[{"bike_id":"3db05dd3-0d66-4fdb-94de-5bd4574dab07","system_id":"levelo_inurba_marseille","lat":43.27504,"lon":5.42529,"is_reserved":false,"is_disabled":false,"rental_uris":{"android":"levelo://app?vid=3db05dd3-0d66-4fdb-94de-5bd4574dab07","ios":"levelo://app?vid=3db05dd3-0d66-4fdb-94de-5bd4574dab07"},"vehicle_type_id":"4","last_reported":1758608163,"current_range_meters":2800,"station_id":"","pricing_plan_id":"cebpf4jnsgd1na2vs0mg"},{"bike_id":"76ddf0ec-5630-4145-87a4-c2dd11d6c324","system_id":"levelo_inurba_marseille","lat":43.33604,"lon":5.41039,"is_reserved":false,"is_disabled":false,"rental_uris":{"android":"levelo://app?vid=76ddf0ec-5630-4145-87a4-c2dd11d6c324","ios":"levelo://app?vid=76ddf0ec-5630-4145-87a4-c2dd11d6c324"},"vehicle_type_id":"4","last_reported":1758608163,"current_range_meters":2000,"station_id":"ce4bhqh2rcd13ifvqhmg","pricing_plan_id":"cebpf4jnsgd1na2vs0mg"},{"bike_id":"647bc9ad-6004-4daa-bbe1-62899f6109a7","system_id":"levelo_inurba_marseille","lat":43.31244,"lon":5.36824,"is_reserved":false,"is_disabled":false,"rental_uris":{"android":"levelo://app?vid=647bc9ad-6004-4daa-bbe1-62899f6109a7","ios":"levelo://app?vid=647bc9ad-6004-4daa-bbe1-62899f6109a7"},"vehicle_type_id":"4","last_reported":1758608163,"current_range_meters":3200,"station_id":"ce4bgl92rcd13ifvqbq0","pricing_plan_id":"cebpf4jnsgd1na2vs0mg"},{"bike_id":"7ab2e8ba-c44d-4892-8e64-5c2b725ce842","system_id":"levelo_inurba_marseille","lat":43.29079,"lon":5.37177,"is_reserved":false,"is_disabled":false,"rental_uris":{"android":"levelo://app?vid=7ab2e8ba-c44d-4892-8e64-5c2b725ce842","ios":"levelo://app?vid=7ab2e8ba-c44d-4892-8e64-5c2b725ce842"},"vehicle_type_id":"4","last_reported":1758608163,"current_range_meters":3200,"station_id":"ce4bh5p2rcd13ifvqe4g","pricing_plan_id":"cebpf4jnsgd1na2vs0mg"},{"bike_id":"6509e9ce-8963-4fdb-8043-a7e39e563e61","system_id":"levelo_inurba_marseille","lat":43.30165,"lon":5.38085,"is_reserved":false,"is_disabled":false,"rental_uris":{"android":"levelo://app?vid=6509e9ce-8963-4fdb-8043-a7e39e563e61","ios":"levelo://app?vid=6509e9ce-8963-4fdb-8043-a7e39e563e61"},"vehicle_type_id":"4","last_reported":1758608163,"current_range_meters":3600,"station_id":"ce4bgjp2rcd13ifvqbh0","pricing_plan_id":"cebpf4jnsgd1na2vs0mg"},{"bike_id":"2289a0ff-9c3e-4f79-ad38-4b41158d6057","system_id":"levelo_inurba_marseille","lat":43.29882,"lon":5.37911,"is_reserved":false,"is_disabled":false,"rental_uris":{"android":"levelo://app?vid=2289a0ff-9c3e-4f79-ad38-4b41158d6057","ios":"levelo://app?vid=2289a0ff-9c3e-4f79-ad38-4b41158d6057"},"vehicle_type_id":"4","last_reported":1758608163,"current_range_meters":3600,"station_id":"","pricing_plan_id":"cebpf4jnsgd1na2vs0mg"},{"bike_id":"55d1bc08-fd54-4a82-afc7-2adcaa7b1c4e","system_id":"levelo_inurba_marseille","lat":43.30031,"lon":5.37707,"is_reserved":false,"is_disabled":false,"rental_uris":{"android":"levelo://app?vid=55d1bc08-fd54-4a82-afc7-2adcaa7b1c4e","ios":"levelo://app?vid=55d1bc08-fd54-4a82-afc7-2adcaa7b1c4e"},"vehicle_type_id":"4","last_reported":1758608163,"current_range_meters":3600,"station_id":"","pricing_plan_id":"cebpf4jnsgd1na2vs0mg"},{"bike_id":"f3abae84-f314-4b71-8af5-0305b38b68bc","system_id":"levelo_inurba_marseille","lat":43.30143,"lon":5.38098,"is_reserved":false,"is_disabled":false,"rental_uris":{"android":"levelo://app?vid=f3abae84-f314-4b71-8af5-0305b38b68bc","ios":"levelo://app?vid=f3abae84-f314-4b71-8af5-0305b38b68bc"},"vehicle_type_id":"4","last_reported":1758608163,"current_range_meters":4000,"station_id":"ce4bgjp2rcd13ifvqbh0","pricing_plan_id":"cebpf4jnsgd1na2vs0mg"},{"bike_id":"0ad5c6a5-8b05-4faa-8590-609348c11288","system_id":"levelo_inurba_marseille","lat":43.278256,"lon":5.407115,"is_reserved":false,"is_disabled":true,"rental_uris":{"android":"levelo://app?vid=0ad5c6a5-8b05-4faa-8590-609348c11288","ios":"levelo://app?vid=0ad5c6a5-8b05-4faa-8590-609348c11288"},"vehicle_type_id":"4","last_reported":1758608163,"current_range_meters":4000,"station_id":"ce4bhnh2rcd13ifvqgtg","pricing_plan_id":"cebpf4jnsgd1na2vs0mg"},{"bike_id":"906223e0-7f0b-4506-8707-36d1364f6232","system_id":"levelo_inurba_marseille","lat":43.29479,"lon":5.37412,"is_reserved":false,"is_disabled":true,"rental_uris":{"android":"levelo://app?vid=906223e0-7f0b-4506-8707-36d1364f6232","ios":"levelo://app?vid=906223e0-7f0b-4506-8707-36d1364f6232"},"vehicle_type_id":"4","last_reported":1758608163,"current_range_meters":4000,"station_id":"","pricing_plan_id":"cebpf4jnsgd1na2vs0mg"},{"bike_id":"15e2f99a-d724-4ace-b4de-3f27a2d92ad8","system_id":"levelo_inurba_marseille","lat":43.30436,"lon":5.37814,"is_reserved":false,"is_disabled":false,"rental_uris":{"android":"levelo://app?vid=15e2f99a-d724-4ace-b4de-3f27a2d92ad8","ios":"levelo://app?vid=15e2f99a-d724-4ace-b4de-3f27a2d92ad8"},"vehicle_type_id":"4","last_reported":1758608163,"current_range_meters":4000,"station_id":"","pricing_plan_id":"cebpf4jnsgd1na2vs0mg"},{"bike_id":"b6536b39-d494-42d8-975e-cdd406476798","system_id":"levelo_inurba_marseille","lat":43.26783,"lon":5.39427,"is_reserved":false,"is_disabled":false,"rental_uris":{"android":"levelo://app?vid=b6536b39-d494-42d8-975e-cdd406476798","ios":"levelo://app?vid=b6536b39-d494-42d8-975e-cdd406476798"},"vehicle_type_id":"4","last_reported":1758608163,"current_range_meters":4400,"station_id":"ce4bhh12rcd13ifvqfg0","pricing_plan_id":"cebpf4jnsgd1na2vs0mg"},{"bike_id":"6dc5226a-7c65-409d-851b-f5fb988d77dc","system_id":"levelo_inurba_marseille","lat":43.29255,"lon":5.40142,"is_reserved":false,"is_disabled":false,"rental_uris":{"android":"levelo://app?vid=6dc5226a-7c65-409d-851b-f5fb988d77dc","ios":"levelo://app?vid=6dc5226a-7c65-409d-851b-f5fb988d77dc"},"vehicle_type_id":"4","last_reported":1758608163,"current_range_meters":4400,"station_id":"ce4bh312rcd13ifvqdk0","pricing_plan_id":"cebpf4jnsgd1na2vs0mg"},{"bike_id":"68adab37-f5ad-4072-b58a-fe6c68285ca6","system_id":"levelo_inurba_marseille","lat":43.306201,"lon":5.376508,"is_reserved":false,"is_disabled":false,"rental_uris":{"android":"levelo://app?vid=68adab37-f5ad-4072-b58a-fe6c68285ca6","ios":"levelo://app?vid=68adab37-f5ad-4072-b58a-fe6c68285ca6"},"vehicle_type_id":"4","last_reported":1758608163,"current_range_meters":4400,"station_id":"","pricing_plan_id":"cebpf4jnsgd1na2vs0mg"},{"bike_id":"41e03531-d926-4714-9cb0-33d759375f30","system_id":"levelo_inurba_marseille","lat":43.295197,"lon":5.364941,"is_reserved":false,"is_disabled":false,"rental_uris":{"android":"levelo://app?vid=41e03531-d926-4714-9cb0-33d759375f30","ios":"levelo://app?vid=41e03531-d926-4714-9cb0-33d759375f30"},"vehicle_type_id":"4","last_reported":1758608163,"current_range_meters":4400,"station_id":"ce4bgl92rcd13ifvqbq0","pricing_plan_id":"cebpf4jnsgd1na2vs0mg"},{"bike_id":"35e58ae7-40e5-4d86-9d99-68b307eff43f","system_id":"levelo_inurba_marseille","lat":43.27211,"lon":5.3919,"is_reserved":false,"is_disabled":false,"rental_uris":{"android":"levelo://app?vid=35e58ae7-40e5-4d86-9d99-68b307eff43f","ios":"levelo://app?vid=35e58ae7-40e5-4d86-9d99-68b307eff43f"},"vehicle_type_id":"4","last_reported":1758608163,"current_range_meters":4800,"station_id":"ce4bhhp2rcd13ifvqfm0","pricing_plan_id":"cebpf4jnsgd1na2vs0mg"},{"bike_id":"01033f9b-5188-4987-bcc4-d83c4fe4f0f3","system_id":"levelo_inurba_marseille","lat":43.25008,"lon":5.38933,"is_reserved":false,"is_disabled":false,"rental_uris":{"android":"levelo://app?vid=01033f9b-5188-4987-bcc4-d83c4fe4f0f3","ios":"levelo://app?vid=01033f9b-5188-4987-bcc4-d83c4fe4f0f3"},"vehicle_type_id":"4","last_reported":1758608163,"current_range_meters":4800,"station_id":"ce4bhgp2rcd13ifvqfd0","pricing_plan_id":"cebpf4jnsgd1na2vs0mg"},{"bike_id":"0dbc7da0-0362-4020-94e8-7c158950cbc3","system_id":"levelo_inurba_marseille","lat":43.27047,"lon":5.4027,"is_reserved":false,"is_disabled":true,"rental_uris":{"android":"levelo://app?vid=0dbc7da0-0362-4020-94e8-7c158950cbc3","ios":"levelo://app?vid=0dbc7da0-0362-4020-94e8-7c158950cbc3"},"vehicle_type_id":"4","last_reported":1758608163,"current_range_meters":5600,"station_id":"ce4bhk92rcd13ifvqgc0","pricing_plan_id":"cebpf4jnsgd1na2vs0mg"},{"bike_id":"54502de0-09ba-43cd-a1f2-9f84e6e6c1cb","system_id":"levelo_inurba_marseille","lat":43.290149,"lon":5.381283,"is_reserved":false,"is_disabled":false,"rental_uris":{"android":"levelo://app?vid=54502de0-09ba-43cd-a1f2-9f84e6e6c1cb","ios":"levelo://app?vid=54502de0-09ba-43cd-a1f2-9f84e6e6c1cb"},"vehicle_type_id":"4","last_reported":1758608163,"current_range_meters":5600,"station_id":"","pricing_plan_id":"cebpf4jnsgd1na2vs0mg"},{"bike_id":"922e7484-6e53-4b8d-8a95-cf9f5390d601","system_id":"levelo_inurba_marseille","lat":43.21193,"lon":5.35065,"is_reserved":false,"is_disabled":false,"rental_uris":{"android":"levelo://app?vid=922e7484-6e53-4b8d-8a95-cf9f5390d601","ios":"levelo://app?vid=922e7484-6e53-4b8d-8a95-cf9f5390d601"},"vehicle_type_id":"4","last_reported":1758608163,"current_range_meters":5600,"station_id":"st_cvj6sg6p6f1abm77japg","pricing_plan_id":"cebpf4jnsgd1na2vs0mg"},{"bike_id":"1b790372-5d34-489f-a29a-5f2319ad70e0","system_id":"levelo_inurba_marseille","lat":43.28261,"lon":5.35048,"is_reserved":false,"is_disabled":true,"rental_uris":{"android":"levelo://app?vid=1b790372-5d34-489f-a29a-5f2319ad70e0","ios":"levelo://app?vid=1b790372-5d34-489f-a29a-5f2319ad70e0"},"vehicle_type_id":"4","last_reported":1758608163,"current_range_meters":5600,"station_id":"ce4bhbp2rcd13ifvqerg","pricing_plan_id":"cebpf4jnsgd1na2vs0mg"},{"bike_id":"822a41c4-eb3c-491f-a392-2ad22e81489c","system_id":"levelo_inurba_marseille","lat":43.2752,"lon":5.42448,"is_reserved":false,"is_disabled":false,"rental_uris":{"android":"levelo://app?vid=822a41c4-eb3c-491f-a392-2ad22e81489c","ios":"levelo://app?vid=822a41c4-eb3c-491f-a392-2ad22e81489c"},"vehicle_type_id":"4","last_reported":1758608163,"current_range_meters":6000,"station_id":"ce4bhn92rcd13ifvqgrg","pricing_plan_id":"cebpf4jnsgd1na2vs0mg"},{"bike_id":"5212b67d-7f01-4f88-a59f-f8f25914a6c4","system_id":"levelo_inurba_marseille","lat":43.29261,"lon":5.40149,"is_reserved":false,"is_disabled":false,"rental_uris":{"android":"levelo://app?vid=5212b67d-7f01-4f88-a59f-f8f25914a6c4","ios":"levelo://app?vid=5212b67d-7f01-4f88-a59f-f8f25914a6c4"},"vehicle_type_id":"4","last_reported":1758608163,"current_range_meters":6000,"station_id":"ce4bh312rcd13ifvqdk0","pricing_plan_id":"cebpf4jnsgd1na2vs0mg"},{"bike_id":"6cb880a8-7e9c-40a6-8dc1-33998afc4d57","system_id":"levelo_inurba_marseille","lat":43.30152,"lon":5.38083,"is_reserved":false,"is_disabled":false,"rental_uris":{"android":"levelo://app?vid=6cb880a8-7e9c-40a6-8dc1-33998afc4d57","ios":"levelo://app?vid=6cb880a8-7e9c-40a6-8dc1-33998afc4d57"},"vehicle_type_id":"4","last_reported":1758608163,"current_range_meters":6000,"station_id":"ce4bgjp2rcd13ifvqbh0","pricing_plan_id":"cebpf4jnsgd1na2vs0mg"},{"bike_id":"9278c8e4-f92e-4b80-9d1a-f8764c260a72","system_id":"levelo_inurba_marseille","lat":43.21757,"lon":5.346,"is_reserved":false,"is_disabled":false,"rental_uris":{"android":"levelo://app?vid=9278c8e4-f92e-4b80-9d1a-f8764c260a72","ios":"levelo://app?vid=9278c8e4-f92e-4b80-9d1a-f8764c260a72"},"vehicle_type_id":"4","last_reported":1758608163,"current_range_meters":6800,"station_id":"st_cvj6r9ubvosntc0bgbag","pricing_plan_id":"cebpf4jnsgd1na2vs0mg"},{"bike_id":"9176512c-2cc1-4df2-a8e0-6be514fbcdbf","system_id":"levelo_inurba_marseille","lat":43.33748,"lon":5.37465,"is_reserved":false,"is_disabled":false,"rental_uris":{"android":"levelo://app?vid=9176512c-2cc1-4df2-a8e0-6be514fbcdbf","ios":"levelo://app?vid=9176512c-2cc1-4df2-a8e0-6be514fbcdbf"},"vehicle_type_id":"4","last_reported":1758608163,"current_range_meters":6800,"station_id":"","pricing_plan_id":"cebpf4jnsgd1na2vs0mg"},{"bike_id":"9b4c088d-4676-46cb-9b7b-66c3f0960ac6","system_id":"levelo_inurba_marseille","lat":43.28267,"lon":5.35069,"is_reserved":false,"is_disabled":false,"rental_uris":{"android":"levelo://app?vid=9b4c088d-4676-46cb-9b7b-66c3f0960ac6","ios":"levelo://app?vid=9b4c088d-4676-46cb-9b7b-66c3f0960ac6"},"vehicle_type_id":"4","last_reported":1758608163,"current_range_meters":6800,"station_id":"ce4bhbp2rcd13ifvqerg","pricing_plan_id":"cebpf4jnsgd1na2vs0mg"},{"bike_id":"438ead59-de14-4fa0-a61d-03a70a4122ae","system_id":"levelo_inurba_marseille","lat":43.97285,"lon":4.89134,"is_reserved":false,"is_disabled":true,"rental_uris":{"android":"levelo://app?vid=438ead59-de14-4fa0-a61d-03a70a4122ae","ios":"levelo://app?vid=438ead59-de14-4fa0-a61d-03a70a4122ae"},"vehicle_type_id":"4","last_reported":1758608163,"current_range_meters":6800,"station_id":"","pricing_plan_id":"cebpf4jnsgd1na2vs0mg"},{"bike_id":"698a1659-1be4-4464-8e40-0054e6845364","system_id":"levelo_inurba_marseille","lat":43.29405,"lon":5.40383,"is_reserved":false,"is_disabled":false,"rental_uris":{"android":"levelo://app?vid=698a1659-1be4-4464-8e40-0054e6845364","ios":"levelo://app?vid=698a1659-1be4-4464-8e40-0054e6845364"},"vehicle_type_id":"4","last_reported":1758608163,"current_range_meters":7200,"station_id":"","pricing_plan_id":"cebpf4jnsgd1na2vs0mg"},{"bike_id":"8a569a47-46ff-4e91-972f-c6991b590b75","system_id":"levelo_inurba_marseille","lat":43.30263,"lon":5.40057,"is_reserved":false,"is_disabled":false,"rental_uris":{"android":"levelo://app?vid=8a569a47-46ff-4e91-972f-c6991b590b75","ios":"levelo://app?vid=8a569a47-46ff-4e91-972f-c6991b590b75"},"vehicle_type_id":"4","last_reported":1758608163,"current_range_meters":7200,"station_id":"ce4bgvh2rcd13ifvqcs0","pricing_plan_id":"cebpf4jnsgd1na2vs0mg"},{"bike_id":"59362b21-e7ae-4d89-a581-7623f0cabe74","system_id":"levelo_inurba_marseille","lat":43.29016,"lon":5.3559,"is_reserved":false,"is_disabled":true,"rental_uris":{"android":"levelo://app?vid=59362b21-e7ae-4d89-a581-7623f0cabe74","ios":"levelo://app?vid=59362b21-e7ae-4d89-a581-7623f0cabe74"},"vehicle_type_id":"4","last_reported":1758608163,"current_range_meters":7200,"station_id":"ce4bhb92rcd13ifvqen0","pricing_plan_id":"cebpf4jnsgd1na2vs0mg"},{"bike_id":"a05ae472-c8cd-45e2-a932-99dd3423ed46","system_id":"levelo_inurba_marseille","lat":43.24938,"lon":5.40496,"is_reserved":false,"is_disabled":false,"rental_uris":{"android":"levelo://app?vid=a05ae472-c8cd-45e2-a932-99dd3423ed46","ios":"levelo://app?vid=a05ae472-c8cd-45e2-a932-99dd3423ed46"},"vehicle_type_id":"4","last_reported":1758608163,"current_range_meters":7200,"station_id":"st_d2ngiaodas8pm72gd1h0","pricing_plan_id":"cebpf4jnsgd1na2vs0mg"},{"bike_id":"c07e2816-467a-4d5b-aab2-f49fd8a4f6dc","system_id":"levelo_inurba_marseille","lat":43.23962,"lon":5.36637,"is_reserved":false,"is_disabled":false,"rental_uris":{"android":"levelo://app?vid=c07e2816-467a-4d5b-aab2-f49fd8a4f6dc","ios":"levelo://app?vid=c07e2816-467a-4d5b-aab2-f49fd8a4f6dc"},"vehicle_type_id":"4","last_reported":1758608163,"current_range_meters":7200,"station_id":"ce4bhi12rcd13ifvqfp0","pricing_plan_id":"cebpf4jnsgd1na2vs0mg"},{"bike_id":"c6716601-9eaa-4ee4-8fbf-f1f9c63c000d","system_id":"levelo_inurba_marseille","lat":43.30461,"lon":5.37916,"is_reserved":false,"is_disabled":false,"rental_uris":{"android":"levelo://app?vid=c6716601-9eaa-4ee4-8fbf-f1f9c63c000d","ios":"levelo://app?vid=c6716601-9eaa-4ee4-8fbf-f1f9c63c000d"},"vehicle_type_id":"4","last_reported":1758608163,"current_range_meters":7200,"station_id":"","pricing_plan_id":"cebpf4jnsgd1na2vs0mg"},{"bike_id":"7a9d054a-33d2-4ab9-8282-d7fe3644a2a9","system_id":"levelo_inurba_marseille","lat":43.33618,"lon":5.41035,"is_reserved":false,"is_disabled":false,"rental_uris":{"android":"levelo://app?vid=7a9d054a-33d2-4ab9-8282-d7fe3644a2a9","ios":"levelo://app?vid=7a9d054a-33d2-4ab9-8282-d7fe3644a2a9"},"vehicle_type_id":"4","last_reported":1758608163,"current_range_meters":7200,"station_id":"ce4bhqh2rcd13ifvqhmg","pricing_plan_id":"cebpf4jnsgd1na2vs0mg"},{"bike_id":"49d9eb13-9c16-42a5-8b0a-553a0ab4ac5f","system_id":"levelo_inurba_marseille","lat":43.33624,"lon":5.41049,"is_reserved":false,"is_disabled":false,"rental_uris":{"android":"levelo://app?vid=49d9eb13-9c16-42a5-8b0a-553a0ab4ac5f","ios":"levelo://app?vid=49d9eb13-9c16-42a5-8b0a-553a0ab4ac5f"},"vehicle_type_id":"4","last_reported":1758608163,"current_range_meters":8000,"station_id":"ce4bhqh2rcd13ifvqhmg","pricing_plan_id":"cebpf4jnsgd1na2vs0mg"},{"bike_id":"4b4433a1-5f03-46dc-9cde-98800859df22","system_id":"levelo_inurba_marseille","lat":43.26219,"lon":5.37927,"is_reserved":false,"is_disabled":false,"rental_uris":{"android":"levelo://app?vid=4b4433a1-5f03-46dc-9cde-98800859df22","ios":"levelo://app?vid=4b4433a1-5f03-46dc-9cde-98800859df22"},"vehicle_type_id":"4","last_reported":1758608163,"current_range_meters":8000,"station_id":"ce4bhjp2rcd13ifvqg90","pricing_plan_id":"cebpf4jnsgd1na2vs0mg"},{"bike_id":"6d533051-1e2b-475d-8af2-2c5d402777d7","system_id":"levelo_inurba_marseille","lat":43.31999,"lon":5.38155,"is_reserved":false,"is_disabled":false,"rental_uris":{"android":"levelo://app?vid=6d533051-1e2b-475d-8af2-2c5d402777d7","ios":"levelo://app?vid=6d533051-1e2b-475d-8af2-2c5d402777d7"},"vehicle_type_id":"4","last_reported":1758608163,"current_range_meters":8000,"station_id":"ce4bhr12rcd13ifvqhpg","pricing_plan_id":"cebpf4jnsgd1na2vs0mg"},{"bike_id":"8d770f34-c886-4d43-948e-e5850ad324d2","system_id":"levelo_inurba_marseille","lat":43.30613,"lon":5.37231,"is_reserved":false,"is_disabled":false,"rental_uris":{"android":"levelo://app?vid=8d770f34-c886-4d43-948e-e5850ad324d2","ios":"levelo://app?vid=8d770f34-c886-4d43-948e-e5850ad324d2"},"vehicle_type_id":"4","last_reported":1758608163,"current_range_meters":8000,"station_id":"ce4bgqh2rcd13ifvqc4g","pricing_plan_id":"cebpf4jnsgd1na2vs0mg"},{"bike_id":"0ca405c5-50f7-42f0-ad59-fa4f401dba3d","system_id":"levelo_inurba_marseille","lat":43.24669,"lon":5.38239,"is_reserved":false,"is_disabled":false,"rental_uris":{"android":"levelo://app?vid=0ca405c5-50f7-42f0-ad59-fa4f401dba3d","ios":"levelo://app?vid=0ca405c5-50f7-42f0-ad59-fa4f401dba3d"},"vehicle_type_id":"4","last_reported":1758608163,"current_range_meters":8400,"station_id":"","pricing_plan_id":"cebpf4jnsgd1na2vs0mg"},{"bike_id":"e9e76509-d8f8-4f94-a678-f951a2aa16ee","system_id":"levelo_inurba_marseille","lat":43.27214,"lon":5.3918,"is_reserved":false,"is_disabled":false,"rental_uris":{"android":"levelo://app?vid=e9e76509-d8f8-4f94-a678-f951a2aa16ee","ios":"levelo://app?vid=e9e76509-d8f8-4f94-a678-f951a2aa16ee"},"vehicle_type_id":"4","last_reported":1758608163,"current_range_meters":8400,"station_id":"ce4bhhp2rcd13ifvqfm0","pricing_plan_id":"cebpf4jnsgd1na2vs0mg"},{"bike_id":"87cd164e-455e-440c-a9b4-7d077f46bd57","system_id":"levelo_inurba_marseille","lat":43.30184,"lon":5.38117,"is_reserved":false,"is_disabled":false,"rental_uris":{"android":"levelo://app?vid=87cd164e-455e-440c-a9b4-7d077f46bd57","ios":"levelo://app?vid=87cd164e-455e-440c-a9b4-7d077f46bd57"},"vehicle_type_id":"4","last_reported":1758608163,"current_range_meters":8800,"station_id":"","pricing_plan_id":"cebpf4jnsgd1na2vs0mg"},{"bike_id":"a15e48c8-16c3-437e-a237-62b9e19d84cb","system_id":"levelo_inurba_marseille","lat":43.21758,"lon":5.34593,"is_reserved":false,"is_disabled":false,"rental_uris":{"android":"levelo://app?vid=a15e48c8-16c3-437e-a237-62b9e19d84cb","ios":"levelo://app?vid=a15e48c8-16c3-437e-a237-62b9e19d84cb"},"vehicle_type_id":"4","last_reported":1758608163,"current_range_meters":8800,"station_id":"st_cvj6r9ubvosntc0bgbag","pricing_plan_id":"cebpf4jnsgd1na2vs0mg"},{"bike_id":"34e41d84-c218-450d-aa5a-7f2f4f8a3b48","system_id":"levelo_inurba_marseille","lat":43.23153,"lon":5.43719,"is_reserved":false,"is_disabled":false,"rental_uris":{"android":"levelo://app?vid=34e41d84-c218-450d-aa5a-7f2f4f8a3b48","ios":"levelo://app?vid=34e41d84-c218-450d-aa5a-7f2f4f8a3b48"},"vehicle_type_id":"4","last_reported":1758608163,"current_range_meters":8800,"station_id":"ce4bhmp2rcd13ifvqgog","pricing_plan_id":"cebpf4jnsgd1na2vs0mg"},{"bike_id":"186c7e32-caca-4e97-a9b0-8cea0b8314c0","system_id":"levelo_inurba_marseille","lat":43.24089,"lon":5.37767,"is_reserved":false,"is_disabled":false,"rental_uris":{"android":"levelo://app?vid=186c7e32-caca-4e97-a9b0-8cea0b8314c0","ios":"levelo://app?vid=186c7e32-caca-4e97-a9b0-8cea0b8314c0"},"vehicle_type_id":"4","last_reported":1758608163,"current_range_meters":8800,"station_id":"ce4bhnp2rcd13ifvqgvg","pricing_plan_id":"cebpf4jnsgd1na2vs0mg"},{"bike_id":"ccdc98b1-daeb-48da-8027-ffa9919763db","system_id":"levelo_inurba_marseille","lat":43.341432,"lon":5.40908,"is_reserved":false,"is_disabled":false,"rental_uris":{"android":"levelo://app?vid=ccdc98b1-daeb-48da-8027-ffa9919763db","ios":"levelo://app?vid=ccdc98b1-daeb-48da-8027-ffa9919763db"},"vehicle_type_id":"4","last_reported":1758608163,"current_range_meters":8800,"station_id":"ce4bhqh2rcd13ifvqhlg","pricing_plan_id":"cebpf4jnsgd1na2vs0mg"},{"bike_id":"dbda0f9b-f10d-4368-94b9-da813112fe99","system_id":"levelo_inurba_marseille","lat":43.33612,"lon":5.4104,"is_reserved":false,"is_disabled":false,"rental_uris":{"android":"levelo://app?vid=dbda0f9b-f10d-4368-94b9-da813112fe99","ios":"levelo://app?vid=dbda0f9b-f10d-4368-94b9-da813112fe99"},"vehicle_type_id":"4","last_reported":1758608163,"current_range_meters":8800,"station_id":"ce4bhqh2rcd13ifvqhmg","pricing_plan_id":"cebpf4jnsgd1na2vs0mg"},{"bike_id":"bcc85f5a-4dd4-4193-b8b3-f87e0df6ed01","system_id":"levelo_inurba_marseille","lat":43.286928,"lon":5.400092,"is_reserved":false,"is_disabled":false,"rental_uris":{"android":"levelo://app?vid=bcc85f5a-4dd4-4193-b8b3-f87e0df6ed01","ios":"levelo://app?vid=bcc85f5a-4dd4-4193-b8b3-f87e0df6ed01"},"vehicle_type_id":"4","last_reported":1758608163,"current_range_meters":9200,"station_id":"ce4bho92rcd13ifvqh3g","pricing_plan_id":"cebpf4jnsgd1na2vs0mg"},{"bike_id":"6e417fed-8d43-4963-b52e-c54cd79d652e","system_id":"levelo_inurba_marseille","lat":43.30138,"lon":5.38797,"is_reserved":false,"is_disabled":true,"rental_uris":{"android":"levelo://app?vid=6e417fed-8d43-4963-b52e-c54cd79d652e","ios":"levelo://app?vid=6e417fed-8d43-4963-b52e-c54cd79d652e"},"vehicle_type_id":"4","last_reported":1758608163,"current_range_meters":9200,"station_id":"ce4bghh2rcd13ifvqb60","pricing_plan_id":"cebpf4jnsgd1na2vs0mg"},{"bike_id":"0a1cf5eb-6714-4d71-9f12-2a2867443fdd","system_id":"levelo_inurba_marseille","lat":43.28418,"lon":5.37514,"is_reserved":false,"is_disabled":false,"rental_uris":{"android":"levelo://app?vid=0a1cf5eb-6714-4d71-9f12-2a2867443fdd","ios":"levelo://app?vid=0a1cf5eb-6714-4d71-9f12-2a2867443fdd"},"vehicle_type_id":"4","last_reported":1758608163,"current_range_meters":9600,"station_id":"ce4bh412rcd13ifvqds0","pricing_plan_id":"cebpf4jnsgd1na2vs0mg"},{"bike_id":"7ad3d0fb-a098-47ad-9919-9cd4c4f4d5b8","system_id":"levelo_inurba_marseille","lat":43.32339,"lon":5.40623,"is_reserved":false,"is_disabled":false,"rental_uris":{"android":"levelo://app?vid=7ad3d0fb-a098-47ad-9919-9cd4c4f4d5b8","ios":"levelo://app?vid=7ad3d0fb-a098-47ad-9919-9cd4c4f4d5b8"},"vehicle_type_id":"4","last_reported":1758608163,"current_range_meters":9200,"station_id":"ce4bhq92rcd13ifvqhjg","pricing_plan_id":"cebpf4jnsgd1na2vs0mg"},{"bike_id":"39c62842-960d-4aac-828d-b5b135ddef2b","system_id":"levelo_inurba_marseille","lat":43.29558,"lon":5.38174,"is_reserved":false,"is_disabled":false,"rental_uris":{"android":"levelo://app?vid=39c62842-960d-4aac-828d-b5b135ddef2b","ios":"levelo://app?vid=39c62842-960d-4aac-828d-b5b135ddef2b"},"vehicle_type_id":"4","last_reported":1758608163,"current_range_meters":9200,"station_id":"","pricing_plan_id":"cebpf4jnsgd1na2vs0mg"},{"bike_id":"17d5d9cb-ded7-4f06-b429-86e8fa40cd67","system_id":"levelo_inurba_marseille","lat":43.27989,"lon":5.41671,"is_reserved":false,"is_disabled":false,"rental_uris":{"android":"levelo://app?vid=17d5d9cb-ded7-4f06-b429-86e8fa40cd67","ios":"levelo://app?vid=17d5d9cb-ded7-4f06-b429-86e8fa40cd67"},"vehicle_type_id":"4","last_reported":1758608163,"current_range_meters":9200,"station_id":"ce4bho12rcd13ifvqh1g","pricing_plan_id":"cebpf4jnsgd1na2vs0mg"},{"bike_id":"fa859d1b-6658-409b-9c59-4c9fd94cf81f","system_id":"levelo_inurba_marseille","lat":43.24072,"lon":5.37758,"is_reserved":false,"is_disabled":false,"rental_uris":{"android":"levelo://app?vid=fa859d1b-6658-409b-9c59-4c9fd94cf81f","ios":"levelo://app?vid=fa859d1b-6658-409b-9c59-4c9fd94cf81f"},"vehicle_type_id":"4","last_reported":1758608163,"current_range_meters":9200,"station_id":"ce4bhnp2rcd13ifvqgvg","pricing_plan_id":"cebpf4jnsgd1na2vs0mg"},{"bike_id":"7d430680-5b99-4e4d-bced-5540a76e37cd","system_id":"levelo_inurba_marseille","lat":43.281553,"lon":5.426332,"is_reserved":false,"is_disabled":false,"rental_uris":{"android":"levelo://app?vid=7d430680-5b99-4e4d-bced-5540a76e37cd","ios":"levelo://app?vid=7d430680-5b99-4e4d-bced-5540a76e37cd"},"vehicle_type_id":"4","last_reported":1758608163,"current_range_meters":9600,"station_id":"ce4bhnh2rcd13ifvqgug","pricing_plan_id":"cebpf4jnsgd1na2vs0mg"},{"bike_id":"7d73570a-4165-46a4-a4d9-6c3b91773a9c","system_id":"levelo_inurba_marseille","lat":43.22941,"lon":5.35403,"is_reserved":false,"is_disabled":false,"rental_uris":{"android":"levelo://app?vid=7d73570a-4165-46a4-a4d9-6c3b91773a9c","ios":"levelo://app?vid=7d73570a-4165-46a4-a4d9-6c3b91773a9c"},"vehicle_type_id":"4","last_reported":1758608163,"current_range_meters":9600,"station_id":"cpo3532slgdg3j2ikp40","pricing_plan_id":"cebpf4jnsgd1na2vs0mg"},{"bike_id":"a95a546a-691f-414b-9f19-eb455305a59b","system_id":"levelo_inurba_marseille","lat":43.217573,"lon":5.346047,"is_reserved":false,"is_disabled":false,"rental_uris":{"android":"levelo://app?vid=a95a546a-691f-414b-9f19-eb455305a59b","ios":"levelo://app?vid=a95a546a-691f-414b-9f19-eb455305a59b"},"vehicle_type_id":"4","last_reported":1758608163,"current_range_meters":9600,"station_id":"st_cvj6r9ubvosntc0bgbag","pricing_plan_id":"cebpf4jnsgd1na2vs0mg"},{"bike_id":"367bd538-9d97-47e8-a4a8-bc9f338f4b76","system_id":"levelo_inurba_marseille","lat":43.29966,"lon":5.38494,"is_reserved":false,"is_disabled":false,"rental_uris":{"android":"levelo://app?vid=367bd538-9d97-47e8-a4a8-bc9f338f4b76","ios":"levelo://app?vid=367bd538-9d97-47e8-a4a8-bc9f338f4b76"},"vehicle_type_id":"4","last_reported":1758608163,"current_range_meters":9600,"station_id":"ce4bgj92rcd13ifvqbd0","pricing_plan_id":"cebpf4jnsgd1na2vs0mg"},{"bike_id":"90e14a2d-1c9e-457a-a1d7-7257e3270581","system_id":"levelo_inurba_marseille","lat":43.28026,"lon":5.4163,"is_reserved":false,"is_disabled":true,"rental_uris":{"android":"levelo://app?vid=90e14a2d-1c9e-457a-a1d7-7257e3270581","ios":"levelo://app?vid=90e14a2d-1c9e-457a-a1d7-7257e3270581"},"vehicle_type_id":"4","last_reported":1758608163,"current_range_meters":9600,"station_id":"ce4bho12rcd13ifvqh1g","pricing_plan_id":"cebpf4jnsgd1na2vs0mg"},{"bike_id":"484824ba-7606-4fb3-bf26-e193345a1b8c","system_id":"levelo_inurba_marseille","lat":43.28925,"lon":5.3661,"is_reserved":false,"is_disabled":false,"rental_uris":{"android":"levelo://app?vid=484824ba-7606-4fb3-bf26-e193345a1b8c","ios":"levelo://app?vid=484824ba-7606-4fb3-bf26-e193345a1b8c"},"vehicle_type_id":"4","last_reported":1758608163,"current_range_meters":9600,"station_id":"ce4bhap2rcd13ifvqek0","pricing_plan_id":"cebpf4jnsgd1na2vs0mg"},{"bike_id":"b057d200-2092-4a1d-a1be-1bc912550882","system_id":"levelo_inurba_marseille","lat":43.29366,"lon":5.37856,"is_reserved":false,"is_disabled":false,"rental_uris":{"android":"levelo://app?vid=b057d200-2092-4a1d-a1be-1bc912550882","ios":"levelo://app?vid=b057d200-2092-4a1d-a1be-1bc912550882"},"vehicle_type_id":"4","last_reported":1758608163,"current_range_meters":9600,"station_id":"ce4bgjh2rcd13ifvqbf0","pricing_plan_id":"cebpf4jnsgd1na2vs0mg"},{"bike_id":"6c904949-cdb0-44c8-8f2a-f8af4da27399","system_id":"levelo_inurba_marseille","lat":43.2961,"lon":5.38105,"is_reserved":false,"is_disabled":false,"rental_uris":{"android":"levelo://app?vid=6c904949-cdb0-44c8-8f2a-f8af4da27399","ios":"levelo://app?vid=6c904949-cdb0-44c8-8f2a-f8af4da27399"},"vehicle_type_id":"4","last_reported":1758608163,"current_range_meters":10000,"station_id":"ce4bgl12rcd13ifvqbo0","pricing_plan_id":"cebpf4jnsgd1na2vs0mg"},{"bike_id":"6a077151-2089-47d0-bcd1-faf1c42cc7b3","system_id":"levelo_inurba_marseille","lat":43.28869,"lon":5.42526,"is_reserved":false,"is_disabled":false,"rental_uris":{"android":"levelo://app?vid=6a077151-2089-47d0-bcd1-faf1c42cc7b3","ios":"levelo://app?vid=6a077151-2089-47d0-bcd1-faf1c42cc7b3"},"vehicle_type_id":"4","last_reported":1758608163,"current_range_meters":10000,"station_id":"","pricing_plan_id":"cebpf4jnsgd1na2vs0mg"},{"bike_id":"0b2230e3-adb9-421c-91b1-c113eb397705","system_id":"levelo_inurba_marseille","lat":43.28896,"lon":5.37667,"is_reserved":false,"is_disabled":false,"rental_uris":{"android":"levelo://app?vid=0b2230e3-adb9-421c-91b1-c113eb397705","ios":"levelo://app?vid=0b2230e3-adb9-421c-91b1-c113eb397705"},"vehicle_type_id":"4","last_reported":1758608163,"current_range_meters":10000,"station_id":"","pricing_plan_id":"cebpf4jnsgd1na2vs0mg"},{"bike_id":"6db28454-81f6-427f-9549-0eecf00e0fff","system_id":"levelo_inurba_marseille","lat":43.28632,"lon":5.35101,"is_reserved":false,"is_disabled":false,"rental_uris":{"android":"levelo://app?vid=6db28454-81f6-427f-9549-0eecf00e0fff","ios":"levelo://app?vid=6db28454-81f6-427f-9549-0eecf00e0fff"},"vehicle_type_id":"4","last_reported":1758608163,"current_range_meters":10000,"station_id":"ce4bhch2rcd13ifvqeug","pricing_plan_id":"cebpf4jnsgd1na2vs0mg"},{"bike_id":"dc646a3d-3f6b-488c-9f75-24e621325e5f","system_id":"levelo_inurba_marseille","lat":43.24665,"lon":5.38166,"is_reserved":false,"is_disabled":false,"rental_uris":{"android":"levelo://app?vid=dc646a3d-3f6b-488c-9f75-24e621325e5f","ios":"levelo://app?vid=dc646a3d-3f6b-488c-9f75-24e621325e5f"},"vehicle_type_id":"4","last_reported":1758608163,"current_range_meters":9600,"station_id":"ce4bhih2rcd13ifvqfr0","pricing_plan_id":"cebpf4jnsgd1na2vs0mg"},{"bike_id":"5b6b3b7d-c808-4e60-988f-97a17f8a001f","system_id":"levelo_inurba_marseille","lat":43.28424,"lon":5.3756,"is_reserved":false,"is_disabled":false,"rental_uris":{"android":"levelo://app?vid=5b6b3b7d-c808-4e60-988f-97a17f8a001f","ios":"levelo://app?vid=5b6b3b7d-c808-4e60-988f-97a17f8a001f"},"vehicle_type_id":"4","last_reported":1758608163,"current_range_meters":10800,"station_id":"","pricing_plan_id":"cebpf4jnsgd1na2vs0mg"},{"bike_id":"36f59c8d-fcf6-4ab2-8f57-cf61bb820dbb","system_id":"levelo_inurba_marseille","lat":43.260544,"lon":5.406949,"is_reserved":false,"is_disabled":false,"rental_uris":{"android":"levelo://app?vid=36f59c8d-fcf6-4ab2-8f57-cf61bb820dbb","ios":"levelo://app?vid=36f59c8d-fcf6-4ab2-8f57-cf61bb820dbb"},"vehicle_type_id":"4","last_reported":1758608163,"current_range_meters":10800,"station_id":"ce4bhm92rcd13ifvqglg","pricing_plan_id":"cebpf4jnsgd1na2vs0mg"},{"bike_id":"e3722477-b766-46f2-910a-0a19fd875eed","system_id":"levelo_inurba_marseille","lat":43.29927,"lon":5.36558,"is_reserved":false,"is_disabled":false,"rental_uris":{"android":"levelo://app?vid=e3722477-b766-46f2-910a-0a19fd875eed","ios":"levelo://app?vid=e3722477-b766-46f2-910a-0a19fd875eed"},"vehicle_type_id":"4","last_reported":1758608163,"current_range_meters":10800,"station_id":"ce4bgm92rcd13ifvqbr0","pricing_plan_id":"cebpf4jnsgd1na2vs0mg"},{"bike_id":"8d5a9e5a-2243-417e-9398-58e31878a41d","system_id":"levelo_inurba_marseille","lat":43.24637,"lon":5.43146,"is_reserved":false,"is_disabled":false,"rental_uris":{"android":"levelo://app?vid=8d5a9e5a-2243-417e-9398-58e31878a41d","ios":"levelo://app?vid=8d5a9e5a-2243-417e-9398-58e31878a41d"},"vehicle_type_id":"4","last_reported":1758608163,"current_range_meters":0,"station_id":"st_d2m6c4gdas8pm72e190g","pricing_plan_id":"cebpf4jnsgd1na2vs0mg"},{"bike_id":"77eeb9b5-0e68-4a7b-b5d1-530ce6c04cd4","system_id":"levelo_inurba_marseille","lat":43.22927,"lon":5.354,"is_reserved":false,"is_disabled":false,"rental_uris":{"android":"levelo://app?vid=77eeb9b5-0e68-4a7b-b5d1-530ce6c04cd4","ios":"levelo://app?vid=77eeb9b5-0e68-4a7b-b5d1-530ce6c04cd4"},"vehicle_type_id":"4","last_reported":1758608163,"current_range_meters":10800,"station_id":"cpo3532slgdg3j2ikp40","pricing_plan_id":"cebpf4jnsgd1na2vs0mg"},{"bike_id":"7140fce0-c9ab-4ae7-b1ac-0bd75d74b622","system_id":"levelo_inurba_marseille","lat":43.287048,"lon":5.399775,"is_reserved":false,"is_disabled":false,"rental_uris":{"android":"levelo://app?vid=7140fce0-c9ab-4ae7-b1ac-0bd75d74b622","ios":"levelo://app?vid=7140fce0-c9ab-4ae7-b1ac-0bd75d74b622"},"vehicle_type_id":"4","last_reported":1758608163,"current_range_meters":10800,"station_id":"ce4bho92rcd13ifvqh3g","pricing_plan_id":"cebpf4jnsgd1na2vs0mg"},{"bike_id":"4d9a34a0-f9ba-4fab-b22f-98510d8b948a","system_id":"levelo_inurba_marseille","lat":43.24545,"lon":5.39518,"is_reserved":false,"is_disabled":false,"rental_uris":{"android":"levelo://app?vid=4d9a34a0-f9ba-4fab-b22f-98510d8b948a","ios":"levelo://app?vid=4d9a34a0-f9ba-4fab-b22f-98510d8b948a"},"vehicle_type_id":"4","last_reported":1758608163,"current_range_meters":10800,"station_id":"ce4bhlp2rcd13ifvqgjg","pricing_plan_id":"cebpf4jnsgd1na2vs0mg"},{"bike_id":"b2be2404-53eb-4f74-9829-8104df3de106","system_id":"levelo_inurba_marseille","lat":43.33612,"lon":5.35447,"is_reserved":false,"is_disabled":false,"rental_uris":{"android":"levelo://app?vid=b2be2404-53eb-4f74-9829-8104df3de106","ios":"levelo://app?vid=b2be2404-53eb-4f74-9829-8104df3de106"},"vehicle_type_id":"4","last_reported":1758608163,"current_range_meters":10800,"station_id":"","pricing_plan_id":"cebpf4jnsgd1na2vs0mg"},{"bike_id":"1efddf8d-578f-4e4c-8c3f-e3a8bd592ba4","system_id":"levelo_inurba_marseille","lat":43.29574,"lon":5.37409,"is_reserved":false,"is_disabled":false,"rental_uris":{"android":"levelo://app?vid=1efddf8d-578f-4e4c-8c3f-e3a8bd592ba4","ios":"levelo://app?vid=1efddf8d-578f-4e4c-8c3f-e3a8bd592ba4"},"vehicle_type_id":"4","last_reported":1758608163,"current_range_meters":11200,"station_id":"","pricing_plan_id":"cebpf4jnsgd1na2vs0mg"},{"bike_id":"94d430e6-52b3-4d21-80c9-c6dd4519a8fb","system_id":"levelo_inurba_marseille","lat":43.317741,"lon":5.382904,"is_reserved":false,"is_disabled":false,"rental_uris":{"android":"levelo://app?vid=94d430e6-52b3-4d21-80c9-c6dd4519a8fb","ios":"levelo://app?vid=94d430e6-52b3-4d21-80c9-c6dd4519a8fb"},"vehicle_type_id":"4","last_reported":1758608163,"current_range_meters":11200,"station_id":"","pricing_plan_id":"cebpf4jnsgd1na2vs0mg"},{"bike_id":"4bd99102-57b6-4acf-a1f9-d448906c94db","system_id":"levelo_inurba_marseille","lat":43.24171,"lon":5.363977,"is_reserved":false,"is_disabled":false,"rental_uris":{"android":"levelo://app?vid=4bd99102-57b6-4acf-a1f9-d448906c94db","ios":"levelo://app?vid=4bd99102-57b6-4acf-a1f9-d448906c94db"},"vehicle_type_id":"4","last_reported":1758608163,"current_range_meters":11200,"station_id":"cpo36qri1sfpv3e86is0","pricing_plan_id":"cebpf4jnsgd1na2vs0mg"},{"bike_id":"744c7514-6e60-45f9-bcf8-4a675e967ddf","system_id":"levelo_inurba_marseille","lat":43.30152,"lon":5.38084,"is_reserved":false,"is_disabled":false,"rental_uris":{"android":"levelo://app?vid=744c7514-6e60-45f9-bcf8-4a675e967ddf","ios":"levelo://app?vid=744c7514-6e60-45f9-bcf8-4a675e967ddf"},"vehicle_type_id":"4","last_reported":1758608163,"current_range_meters":11200,"station_id":"ce4bgjp2rcd13ifvqbh0","pricing_plan_id":"cebpf4jnsgd1na2vs0mg"},{"bike_id":"dd83bee8-c803-47e8-91dd-afab74068a08","system_id":"levelo_inurba_marseille","lat":43.24067,"lon":5.37766,"is_reserved":false,"is_disabled":false,"rental_uris":{"android":"levelo://app?vid=dd83bee8-c803-47e8-91dd-afab74068a08","ios":"levelo://app?vid=dd83bee8-c803-47e8-91dd-afab74068a08"},"vehicle_type_id":"4","last_reported":1758608163,"current_range_meters":11200,"station_id":"ce4bhnp2rcd13ifvqgvg","pricing_plan_id":"cebpf4jnsgd1na2vs0mg"},{"bike_id":"ec6a1430-1daa-44e7-b177-eb53b4fb8209","system_id":"levelo_inurba_marseille","lat":43.29796,"lon":5.38104,"is_reserved":false,"is_disabled":false,"rental_uris":{"android":"levelo://app?vid=ec6a1430-1daa-44e7-b177-eb53b4fb8209","ios":"levelo://app?vid=ec6a1430-1daa-44e7-b177-eb53b4fb8209"},"vehicle_type_id":"4","last_reported":1758608163,"current_range_meters":11200,"station_id":"ce4bgip2rcd13ifvqbb0","pricing_plan_id":"cebpf4jnsgd1na2vs0mg"},{"bike_id":"239c893c-a482-4890-a8d0-83cba2bbb59d","system_id":"levelo_inurba_marseille","lat":43.24566,"lon":5.39539,"is_reserved":false,"is_disabled":false,"rental_uris":{"android":"levelo://app?vid=239c893c-a482-4890-a8d0-83cba2bbb59d","ios":"levelo://app?vid=239c893c-a482-4890-a8d0-83cba2bbb59d"},"vehicle_type_id":"4","last_reported":1758608163,"current_range_meters":11200,"station_id":"ce4bhlp2rcd13ifvqgjg","pricing_plan_id":"cebpf4jnsgd1na2vs0mg"},{"bike_id":"eb14e0c2-3194-45ec-8471-2fc50af87dad","system_id":"levelo_inurba_marseille","lat":43.22926,"lon":5.3538,"is_reserved":false,"is_disabled":false,"rental_uris":{"android":"levelo://app?vid=eb14e0c2-3194-45ec-8471-2fc50af87dad","ios":"levelo://app?vid=eb14e0c2-3194-45ec-8471-2fc50af87dad"},"vehicle_type_id":"4","last_reported":1758608163,"current_range_meters":11600,"station_id":"cpo3532slgdg3j2ikp40","pricing_plan_id":"cebpf4jnsgd1na2vs0mg"},{"bike_id":"ef75d15d-c28a-4fe7-853a-ed887e41d629","system_id":"levelo_inurba_marseille","lat":43.21749,"lon":5.34604,"is_reserved":false,"is_disabled":false,"rental_uris":{"android":"levelo://app?vid=ef75d15d-c28a-4fe7-853a-ed887e41d629","ios":"levelo://app?vid=ef75d15d-c28a-4fe7-853a-ed887e41d629"},"vehicle_type_id":"4","last_reported":1758608163,"current_range_meters":11600,"station_id":"st_cvj6r9ubvosntc0bgbag","pricing_plan_id":"cebpf4jnsgd1na2vs0mg"},{"bike_id":"c8ffba09-9053-42ae-a9b8-b0b84e9dd812","system_id":"levelo_inurba_marseille","lat":43.28847,"lon":5.39305,"is_reserved":false,"is_disabled":false,"rental_uris":{"android":"levelo://app?vid=c8ffba09-9053-42ae-a9b8-b0b84e9dd812","ios":"levelo://app?vid=c8ffba09-9053-42ae-a9b8-b0b84e9dd812"},"vehicle_type_id":"4","last_reported":1758608163,"current_range_meters":11200,"station_id":"ce4bh2p2rcd13ifvqdi0","pricing_plan_id":"cebpf4jnsgd1na2vs0mg"},{"bike_id":"c7784061-4436-4bdc-8dba-c84d605f6073","system_id":"levelo_inurba_marseille","lat":43.33607,"lon":5.41034,"is_reserved":false,"is_disabled":false,"rental_uris":{"android":"levelo://app?vid=c7784061-4436-4bdc-8dba-c84d605f6073","ios":"levelo://app?vid=c7784061-4436-4bdc-8dba-c84d605f6073"},"vehicle_type_id":"4","last_reported":1758608163,"current_range_meters":11600,"station_id":"ce4bhqh2rcd13ifvqhmg","pricing_plan_id":"cebpf4jnsgd1na2vs0mg"},{"bike_id":"f14f0085-2f3a-4298-b969-55075656919b","system_id":"levelo_inurba_marseille","lat":43.30464,"lon":5.379115,"is_reserved":false,"is_disabled":false,"rental_uris":{"android":"levelo://app?vid=f14f0085-2f3a-4298-b969-55075656919b","ios":"levelo://app?vid=f14f0085-2f3a-4298-b969-55075656919b"},"vehicle_type_id":"4","last_reported":1758608163,"current_range_meters":11600,"station_id":"ce4bgup2rcd13ifvqcn0","pricing_plan_id":"cebpf4jnsgd1na2vs0mg"},{"bike_id":"1dc0664d-bbc9-48d4-b7a9-aa5bd6be4dfc","system_id":"levelo_inurba_marseille","lat":43.24173,"lon":5.39732,"is_reserved":false,"is_disabled":false,"rental_uris":{"android":"levelo://app?vid=1dc0664d-bbc9-48d4-b7a9-aa5bd6be4dfc","ios":"levelo://app?vid=1dc0664d-bbc9-48d4-b7a9-aa5bd6be4dfc"},"vehicle_type_id":"4","last_reported":1758608163,"current_range_meters":11600,"station_id":"ce4bhn12rcd13ifvqgpg","pricing_plan_id":"cebpf4jnsgd1na2vs0mg"},{"bike_id":"e928cb80-192e-403c-981a-31571abb9cb0","system_id":"levelo_inurba_marseille","lat":43.2319,"lon":5.39998,"is_reserved":false,"is_disabled":true,"rental_uris":{"android":"levelo://app?vid=e928cb80-192e-403c-981a-31571abb9cb0","ios":"levelo://app?vid=e928cb80-192e-403c-981a-31571abb9cb0"},"vehicle_type_id":"4","last_reported":1758608163,"current_range_meters":11600,"station_id":"ce4bhn12rcd13ifvqgqg","pricing_plan_id":"cebpf4jnsgd1na2vs0mg"},{"bike_id":"30a45839-bcf9-4766-8e20-c8b30ef16a15","system_id":"levelo_inurba_marseille","lat":43.323389,"lon":5.40619,"is_reserved":false,"is_disabled":false,"rental_uris":{"android":"levelo://app?vid=30a45839-bcf9-4766-8e20-c8b30ef16a15","ios":"levelo://app?vid=30a45839-bcf9-4766-8e20-c8b30ef16a15"},"vehicle_type_id":"4","last_reported":1758608163,"current_range_meters":12000,"station_id":"ce4bhq92rcd13ifvqhjg","pricing_plan_id":"cebpf4jnsgd1na2vs0mg"},{"bike_id":"2d4e9e1d-14dc-44bb-8381-dfef8e19a136","system_id":"levelo_inurba_marseille","lat":43.25111,"lon":5.40325,"is_reserved":false,"is_disabled":true,"rental_uris":{"android":"levelo://app?vid=2d4e9e1d-14dc-44bb-8381-dfef8e19a136","ios":"levelo://app?vid=2d4e9e1d-14dc-44bb-8381-dfef8e19a136"},"vehicle_type_id":"4","last_reported":1758608163,"current_range_meters":12000,"station_id":"ce4bhlh2rcd13ifvqgig","pricing_plan_id":"cebpf4jnsgd1na2vs0mg"},{"bike_id":"34072093-f9b6-4017-998e-95b181d82c91","system_id":"levelo_inurba_marseille","lat":43.29449,"lon":5.38836,"is_reserved":false,"is_disabled":false,"rental_uris":{"android":"levelo://app?vid=34072093-f9b6-4017-998e-95b181d82c91","ios":"levelo://app?vid=34072093-f9b6-4017-998e-95b181d82c91"},"vehicle_type_id":"4","last_reported":1758608163,"current_range_meters":12000,"station_id":"","pricing_plan_id":"cebpf4jnsgd1na2vs0mg"},{"bike_id":"ca5043d1-e787-444b-ab15-85713ac21934","system_id":"levelo_inurba_marseille","lat":43.259388,"lon":5.409028,"is_reserved":false,"is_disabled":false,"rental_uris":{"android":"levelo://app?vid=ca5043d1-e787-444b-ab15-85713ac21934","ios":"levelo://app?vid=ca5043d1-e787-444b-ab15-85713ac21934"},"vehicle_type_id":"4","last_reported":1758608163,"current_range_meters":12400,"station_id":"ce4bhm92rcd13ifvqglg","pricing_plan_id":"cebpf4jnsgd1na2vs0mg"},{"bike_id":"acd69273-9115-4c3f-9400-d9fa46eb8c71","system_id":"levelo_inurba_marseille","lat":43.26935,"lon":5.38913,"is_reserved":false,"is_disabled":false,"rental_uris":{"android":"levelo://app?vid=acd69273-9115-4c3f-9400-d9fa46eb8c71","ios":"levelo://app?vid=acd69273-9115-4c3f-9400-d9fa46eb8c71"},"vehicle_type_id":"4","last_reported":1758608163,"current_range_meters":11200,"station_id":"ce4bhhh2rcd13ifvqfl0","pricing_plan_id":"cebpf4jnsgd1na2vs0mg"},{"bike_id":"0ceafd37-2aa0-4518-a2ed-2ee38ccb4b03","system_id":"levelo_inurba_marseille","lat":43.24085,"lon":5.37748,"is_reserved":false,"is_disabled":false,"rental_uris":{"android":"levelo://app?vid=0ceafd37-2aa0-4518-a2ed-2ee38ccb4b03","ios":"levelo://app?vid=0ceafd37-2aa0-4518-a2ed-2ee38ccb4b03"},"vehicle_type_id":"4","last_reported":1758608163,"current_range_meters":12400,"station_id":"ce4bhnp2rcd13ifvqgvg","pricing_plan_id":"cebpf4jnsgd1na2vs0mg"},{"bike_id":"a852b4cc-d6de-4ba7-8fba-a6dcc6efe526","system_id":"levelo_inurba_marseille","lat":43.28159,"lon":5.42642,"is_reserved":false,"is_disabled":true,"rental_uris":{"android":"levelo://app?vid=a852b4cc-d6de-4ba7-8fba-a6dcc6efe526","ios":"levelo://app?vid=a852b4cc-d6de-4ba7-8fba-a6dcc6efe526"},"vehicle_type_id":"4","last_reported":1758608163,"current_range_meters":12400,"station_id":"ce4bhnh2rcd13ifvqgug","pricing_plan_id":"cebpf4jnsgd1na2vs0mg"},{"bike_id":"8d243e83-cc74-44d3-bf18-f20421549672","system_id":"levelo_inurba_marseille","lat":43.289258,"lon":5.359286,"is_reserved":false,"is_disabled":false,"rental_uris":{"android":"levelo://app?vid=8d243e83-cc74-44d3-bf18-f20421549672","ios":"levelo://app?vid=8d243e83-cc74-44d3-bf18-f20421549672"},"vehicle_type_id":"4","last_reported":1758608163,"current_range_meters":12400,"station_id":"","pricing_plan_id":"cebpf4jnsgd1na2vs0mg"},{"bike_id":"5337dcdc-c6f5-44ae-a466-a1ebe14dfbb3","system_id":"levelo_inurba_marseille","lat":43.24186,"lon":5.36421,"is_reserved":false,"is_disabled":false,"rental_uris":{"android":"levelo://app?vid=5337dcdc-c6f5-44ae-a466-a1ebe14dfbb3","ios":"levelo://app?vid=5337dcdc-c6f5-44ae-a466-a1ebe14dfbb3"},"vehicle_type_id":"4","last_reported":1758608163,"current_range_meters":12800,"station_id":"cpo36qri1sfpv3e86is0","pricing_plan_id":"cebpf4jnsgd1na2vs0mg"},{"bike_id":"beb42e98-dff7-41f2-be88-1fa7f6f0819a","system_id":"levelo_inurba_marseille","lat":43.25339,"lon":5.42161,"is_reserved":false,"is_disabled":false,"rental_uris":{"android":"levelo://app?vid=beb42e98-dff7-41f2-be88-1fa7f6f0819a","ios":"levelo://app?vid=beb42e98-dff7-41f2-be88-1fa7f6f0819a"},"vehicle_type_id":"4","last_reported":1758608163,"current_range_meters":12800,"station_id":"st_d2m65c5bi1j21697t3ng","pricing_plan_id":"cebpf4jnsgd1na2vs0mg"},{"bike_id":"51a9c263-d6ee-4c02-8240-84e51c074158","system_id":"levelo_inurba_marseille","lat":43.31715,"lon":5.43709,"is_reserved":false,"is_disabled":false,"rental_uris":{"android":"levelo://app?vid=51a9c263-d6ee-4c02-8240-84e51c074158","ios":"levelo://app?vid=51a9c263-d6ee-4c02-8240-84e51c074158"},"vehicle_type_id":"4","last_reported":1758608163,"current_range_meters":12800,"station_id":"ce4bhp92rcd13ifvqhcg","pricing_plan_id":"cebpf4jnsgd1na2vs0mg"},{"bike_id":"9ae740e4-3adc-446d-9e7d-3e7e8265b244","system_id":"levelo_inurba_marseille","lat":43.28949,"lon":5.3664,"is_reserved":false,"is_disabled":false,"rental_uris":{"android":"levelo://app?vid=9ae740e4-3adc-446d-9e7d-3e7e8265b244","ios":"levelo://app?vid=9ae740e4-3adc-446d-9e7d-3e7e8265b244"},"vehicle_type_id":"4","last_reported":1758608163,"current_range_meters":12800,"station_id":"ce4bhap2rcd13ifvqek0","pricing_plan_id":"cebpf4jnsgd1na2vs0mg"},{"bike_id":"bf878ec6-d729-4443-a3b4-9fa5cc136616","system_id":"levelo_inurba_marseille","lat":43.27596,"lon":5.42659,"is_reserved":false,"is_disabled":false,"rental_uris":{"android":"levelo://app?vid=bf878ec6-d729-4443-a3b4-9fa5cc136616","ios":"levelo://app?vid=bf878ec6-d729-4443-a3b4-9fa5cc136616"},"vehicle_type_id":"4","last_reported":1758608163,"current_range_meters":13600,"station_id":"","pricing_plan_id":"cebpf4jnsgd1na2vs0mg"},{"bike_id":"3d1eb3e8-8f08-4965-9820-5f51a6b6f681","system_id":"levelo_inurba_marseille","lat":43.2408,"lon":5.37759,"is_reserved":false,"is_disabled":false,"rental_uris":{"android":"levelo://app?vid=3d1eb3e8-8f08-4965-9820-5f51a6b6f681","ios":"levelo://app?vid=3d1eb3e8-8f08-4965-9820-5f51a6b6f681"},"vehicle_type_id":"4","last_reported":1758608163,"current_range_meters":13600,"station_id":"ce4bhnp2rcd13ifvqgvg","pricing_plan_id":"cebpf4jnsgd1na2vs0mg"},{"bike_id":"05ffe9a6-4a01-4566-a6c5-04b47ca5b439","system_id":"levelo_inurba_marseille","lat":43.241925,"lon":5.379405,"is_reserved":false,"is_disabled":false,"rental_uris":{"android":"levelo://app?vid=05ffe9a6-4a01-4566-a6c5-04b47ca5b439","ios":"levelo://app?vid=05ffe9a6-4a01-4566-a6c5-04b47ca5b439"},"vehicle_type_id":"4","last_reported":1758608163,"current_range_meters":13600,"station_id":"ce4bhnp2rcd13ifvqgvg","pricing_plan_id":"cebpf4jnsgd1na2vs0mg"},{"bike_id":"24518e1a-6330-4699-ab57-6b28ebad1e7f","system_id":"levelo_inurba_marseille","lat":43.306248,"lon":5.372222,"is_reserved":false,"is_disabled":false,"rental_uris":{"android":"levelo://app?vid=24518e1a-6330-4699-ab57-6b28ebad1e7f","ios":"levelo://app?vid=24518e1a-6330-4699-ab57-6b28ebad1e7f"},"vehicle_type_id":"4","last_reported":1758608163,"current_range_meters":13600,"station_id":"ce4bgqh2rcd13ifvqc4g","pricing_plan_id":"cebpf4jnsgd1na2vs0mg"},{"bike_id":"37306240-1f8b-4d9d-950f-5144697742a5","system_id":"levelo_inurba_marseille","lat":43.2872,"lon":5.40008,"is_reserved":false,"is_disabled":false,"rental_uris":{"android":"levelo://app?vid=37306240-1f8b-4d9d-950f-5144697742a5","ios":"levelo://app?vid=37306240-1f8b-4d9d-950f-5144697742a5"},"vehicle_type_id":"4","last_reported":1758608163,"current_range_meters":14000,"station_id":"ce4bho92rcd13ifvqh3g","pricing_plan_id":"cebpf4jnsgd1na2vs0mg"},{"bike_id":"2a2f1ce0-5eb2-4ab6-a692-64d9649dcb94","system_id":"levelo_inurba_marseille","lat":43.2256,"lon":5.41649,"is_reserved":false,"is_disabled":false,"rental_uris":{"android":"levelo://app?vid=2a2f1ce0-5eb2-4ab6-a692-64d9649dcb94","ios":"levelo://app?vid=2a2f1ce0-5eb2-4ab6-a692-64d9649dcb94"},"vehicle_type_id":"4","last_reported":1758608163,"current_range_meters":14000,"station_id":"st_d2o4gvlbi1j2169b742g","pricing_plan_id":"cebpf4jnsgd1na2vs0mg"},{"bike_id":"cd32d5fa-71cf-4797-acec-fc5460711915","system_id":"levelo_inurba_marseille","lat":43.25726,"lon":5.41097,"is_reserved":false,"is_disabled":true,"rental_uris":{"android":"levelo://app?vid=cd32d5fa-71cf-4797-acec-fc5460711915","ios":"levelo://app?vid=cd32d5fa-71cf-4797-acec-fc5460711915"},"vehicle_type_id":"4","last_reported":1758608163,"current_range_meters":14000,"station_id":"ce4bhkp2rcd13ifvqgd0","pricing_plan_id":"cebpf4jnsgd1na2vs0mg"},{"bike_id":"5f6cc508-bd25-468c-a7ec-a34626f101f0","system_id":"levelo_inurba_marseille","lat":43.30431,"lon":5.3781,"is_reserved":false,"is_disabled":false,"rental_uris":{"android":"levelo://app?vid=5f6cc508-bd25-468c-a7ec-a34626f101f0","ios":"levelo://app?vid=5f6cc508-bd25-468c-a7ec-a34626f101f0"},"vehicle_type_id":"4","last_reported":1758608163,"current_range_meters":14000,"station_id":"","pricing_plan_id":"cebpf4jnsgd1na2vs0mg"},{"bike_id":"eba01587-aeed-4123-b2ce-9abc98879f91","system_id":"levelo_inurba_marseille","lat":43.27085,"lon":5.42296,"is_reserved":false,"is_disabled":false,"rental_uris":{"android":"levelo://app?vid=eba01587-aeed-4123-b2ce-9abc98879f91","ios":"levelo://app?vid=eba01587-aeed-4123-b2ce-9abc98879f91"},"vehicle_type_id":"4","last_reported":1758608163,"current_range_meters":14400,"station_id":"ce4bhk92rcd13ifvqgb0","pricing_plan_id":"cebpf4jnsgd1na2vs0mg"},{"bike_id":"6ac17a81-0487-4557-9f83-8f554f6e083e","system_id":"levelo_inurba_marseille","lat":43.32032,"lon":5.37148,"is_reserved":false,"is_disabled":false,"rental_uris":{"android":"levelo://app?vid=6ac17a81-0487-4557-9f83-8f554f6e083e","ios":"levelo://app?vid=6ac17a81-0487-4557-9f83-8f554f6e083e"},"vehicle_type_id":"4","last_reported":1758608163,"current_range_meters":14400,"station_id":"","pricing_plan_id":"cebpf4jnsgd1na2vs0mg"},{"bike_id":"da64a509-72ad-45f0-a9bf-3cc012993de2","system_id":"levelo_inurba_marseille","lat":43.29698,"lon":5.36613,"is_reserved":false,"is_disabled":true,"rental_uris":{"android":"levelo://app?vid=da64a509-72ad-45f0-a9bf-3cc012993de2","ios":"levelo://app?vid=da64a509-72ad-45f0-a9bf-3cc012993de2"},"vehicle_type_id":"4","last_reported":1758608163,"current_range_meters":14400,"station_id":"ce4bgn12rcd13ifvqbt0","pricing_plan_id":"cebpf4jnsgd1na2vs0mg"},{"bike_id":"8dc69592-a229-4af4-b92c-de5588c3f590","system_id":"levelo_inurba_marseille","lat":43.31286,"lon":5.40185,"is_reserved":false,"is_disabled":false,"rental_uris":{"android":"levelo://app?vid=8dc69592-a229-4af4-b92c-de5588c3f590","ios":"levelo://app?vid=8dc69592-a229-4af4-b92c-de5588c3f590"},"vehicle_type_id":"4","last_reported":1758608163,"current_range_meters":14400,"station_id":"ce4bh092rcd13ifvqd30","pricing_plan_id":"cebpf4jnsgd1na2vs0mg"},{"bike_id":"b21d6aa6-a228-411f-ba50-4d64f2bc07ea","system_id":"levelo_inurba_marseille","lat":43.314983,"lon":5.372977,"is_reserved":false,"is_disabled":false,"rental_uris":{"android":"levelo://app?vid=b21d6aa6-a228-411f-ba50-4d64f2bc07ea","ios":"levelo://app?vid=b21d6aa6-a228-411f-ba50-4d64f2bc07ea"},"vehicle_type_id":"4","last_reported":1758608163,"current_range_meters":14400,"station_id":"ce4bgt12rcd13ifvqcd0","pricing_plan_id":"cebpf4jnsgd1na2vs0mg"},{"bike_id":"47fe8ecd-0327-4d83-b8c0-ab7264c95b0b","system_id":"levelo_inurba_marseille","lat":43.24538,"lon":5.39511,"is_reserved":false,"is_disabled":false,"rental_uris":{"android":"levelo://app?vid=47fe8ecd-0327-4d83-b8c0-ab7264c95b0b","ios":"levelo://app?vid=47fe8ecd-0327-4d83-b8c0-ab7264c95b0b"},"vehicle_type_id":"4","last_reported":1758608163,"current_range_meters":14400,"station_id":"ce4bhlp2rcd13ifvqgjg","pricing_plan_id":"cebpf4jnsgd1na2vs0mg"},{"bike_id":"3a2f0200-19f6-4563-8356-bbb5c698396a","system_id":"levelo_inurba_marseille","lat":43.21762,"lon":5.34614,"is_reserved":false,"is_disabled":false,"rental_uris":{"android":"levelo://app?vid=3a2f0200-19f6-4563-8356-bbb5c698396a","ios":"levelo://app?vid=3a2f0200-19f6-4563-8356-bbb5c698396a"},"vehicle_type_id":"4","last_reported":1758608163,"current_range_meters":14400,"station_id":"st_cvj6r9ubvosntc0bgbag","pricing_plan_id":"cebpf4jnsgd1na2vs0mg"},{"bike_id":"0d93d80f-23fc-4b4f-918d-28fde704208b","system_id":"levelo_inurba_marseille","lat":43.241785,"lon":5.363875,"is_reserved":false,"is_disabled":false,"rental_uris":{"android":"levelo://app?vid=0d93d80f-23fc-4b4f-918d-28fde704208b","ios":"levelo://app?vid=0d93d80f-23fc-4b4f-918d-28fde704208b"},"vehicle_type_id":"4","last_reported":1758608163,"current_range_meters":14800,"station_id":"cpo36qri1sfpv3e86is0","pricing_plan_id":"cebpf4jnsgd1na2vs0mg"},{"bike_id":"2d87fd37-542a-42d0-b0b0-9ec6a0ac9730","system_id":"levelo_inurba_marseille","lat":43.24074,"lon":5.37749,"is_reserved":false,"is_disabled":false,"rental_uris":{"android":"levelo://app?vid=2d87fd37-542a-42d0-b0b0-9ec6a0ac9730","ios":"levelo://app?vid=2d87fd37-542a-42d0-b0b0-9ec6a0ac9730"},"vehicle_type_id":"4","last_reported":1758608163,"current_range_meters":14800,"station_id":"ce4bhnp2rcd13ifvqgvg","pricing_plan_id":"cebpf4jnsgd1na2vs0mg"},{"bike_id":"30bb83fe-1759-4439-94c7-873da2c2a5e5","system_id":"levelo_inurba_marseille","lat":43.23139,"lon":5.43725,"is_reserved":false,"is_disabled":false,"rental_uris":{"android":"levelo://app?vid=30bb83fe-1759-4439-94c7-873da2c2a5e5","ios":"levelo://app?vid=30bb83fe-1759-4439-94c7-873da2c2a5e5"},"vehicle_type_id":"4","last_reported":1758608163,"current_range_meters":14800,"station_id":"ce4bhmp2rcd13ifvqgog","pricing_plan_id":"cebpf4jnsgd1na2vs0mg"},{"bike_id":"dfaaa427-b224-4263-9b57-e0c604efa28b","system_id":"levelo_inurba_marseille","lat":43.29535,"lon":5.3869,"is_reserved":false,"is_disabled":false,"rental_uris":{"android":"levelo://app?vid=dfaaa427-b224-4263-9b57-e0c604efa28b","ios":"levelo://app?vid=dfaaa427-b224-4263-9b57-e0c604efa28b"},"vehicle_type_id":"4","last_reported":1758608163,"current_range_meters":15200,"station_id":"","pricing_plan_id":"cebpf4jnsgd1na2vs0mg"},{"bike_id":"3c293287-a68a-44ee-a87a-185e5f5aab66","system_id":"levelo_inurba_marseille","lat":43.30465,"lon":5.37904,"is_reserved":false,"is_disabled":false,"rental_uris":{"android":"levelo://app?vid=3c293287-a68a-44ee-a87a-185e5f5aab66","ios":"levelo://app?vid=3c293287-a68a-44ee-a87a-185e5f5aab66"},"vehicle_type_id":"4","last_reported":1758608163,"current_range_meters":15200,"station_id":"ce4bgup2rcd13ifvqcn0","pricing_plan_id":"cebpf4jnsgd1na2vs0mg"},{"bike_id":"27193951-ccd5-4b45-9649-91296360b84d","system_id":"levelo_inurba_marseille","lat":43.24172,"lon":5.39715,"is_reserved":false,"is_disabled":false,"rental_uris":{"android":"levelo://app?vid=27193951-ccd5-4b45-9649-91296360b84d","ios":"levelo://app?vid=27193951-ccd5-4b45-9649-91296360b84d"},"vehicle_type_id":"4","last_reported":1758608163,"current_range_meters":14800,"station_id":"ce4bhn12rcd13ifvqgpg","pricing_plan_id":"cebpf4jnsgd1na2vs0mg"},{"bike_id":"c4448be8-d4bc-4bbb-bb4f-81f45f3fafa8","system_id":"levelo_inurba_marseille","lat":43.31483,"lon":5.37261,"is_reserved":false,"is_disabled":false,"rental_uris":{"android":"levelo://app?vid=c4448be8-d4bc-4bbb-bb4f-81f45f3fafa8","ios":"levelo://app?vid=c4448be8-d4bc-4bbb-bb4f-81f45f3fafa8"},"vehicle_type_id":"4","last_reported":1758608163,"current_range_meters":15200,"station_id":"ce4bgt12rcd13ifvqcd0","pricing_plan_id":"cebpf4jnsgd1na2vs0mg"},{"bike_id":"18a05041-df0b-4871-a1b2-d886eafc146a","system_id":"levelo_inurba_marseille","lat":43.2911,"lon":5.38169,"is_reserved":false,"is_disabled":false,"rental_uris":{"android":"levelo://app?vid=18a05041-df0b-4871-a1b2-d886eafc146a","ios":"levelo://app?vid=18a05041-df0b-4871-a1b2-d886eafc146a"},"vehicle_type_id":"4","last_reported":1758608163,"current_range_meters":15200,"station_id":"ce4bh512rcd13ifvqe2g","pricing_plan_id":"cebpf4jnsgd1na2vs0mg"},{"bike_id":"3a064ddb-01a0-40dc-8d23-609cb4b61dec","system_id":"levelo_inurba_marseille","lat":43.29628,"lon":5.38086,"is_reserved":false,"is_disabled":false,"rental_uris":{"android":"levelo://app?vid=3a064ddb-01a0-40dc-8d23-609cb4b61dec","ios":"levelo://app?vid=3a064ddb-01a0-40dc-8d23-609cb4b61dec"},"vehicle_type_id":"4","last_reported":1758608163,"current_range_meters":15200,"station_id":"ce4bgl12rcd13ifvqbo0","pricing_plan_id":"cebpf4jnsgd1na2vs0mg"},{"bike_id":"b365696d-de4a-411c-94bb-d7a24d824189","system_id":"levelo_inurba_marseille","lat":43.23966,"lon":5.36632,"is_reserved":false,"is_disabled":false,"rental_uris":{"android":"levelo://app?vid=b365696d-de4a-411c-94bb-d7a24d824189","ios":"levelo://app?vid=b365696d-de4a-411c-94bb-d7a24d824189"},"vehicle_type_id":"4","last_reported":1758608163,"current_range_meters":16000,"station_id":"ce4bhi12rcd13ifvqfp0","pricing_plan_id":"cebpf4jnsgd1na2vs0mg"},{"bike_id":"7c0482c3-9253-4d1b-b4f3-be55cdb7721d","system_id":"levelo_inurba_marseille","lat":43.33757,"lon":5.37466,"is_reserved":false,"is_disabled":false,"rental_uris":{"android":"levelo://app?vid=7c0482c3-9253-4d1b-b4f3-be55cdb7721d","ios":"levelo://app?vid=7c0482c3-9253-4d1b-b4f3-be55cdb7721d"},"vehicle_type_id":"4","last_reported":1758608163,"current_range_meters":16000,"station_id":"","pricing_plan_id":"cebpf4jnsgd1na2vs0mg"},{"bike_id":"ed883389-1672-49b0-a5c4-8def0ee0fc42","system_id":"levelo_inurba_marseille","lat":43.275034,"lon":5.424386,"is_reserved":false,"is_disabled":false,"rental_uris":{"android":"levelo://app?vid=ed883389-1672-49b0-a5c4-8def0ee0fc42","ios":"levelo://app?vid=ed883389-1672-49b0-a5c4-8def0ee0fc42"},"vehicle_type_id":"4","last_reported":1758608163,"current_range_meters":16000,"station_id":"ce4bhn92rcd13ifvqgrg","pricing_plan_id":"cebpf4jnsgd1na2vs0mg"},{"bike_id":"21433f39-0227-4542-b543-81b2405dcd01","system_id":"levelo_inurba_marseille","lat":43.28301,"lon":5.433638,"is_reserved":false,"is_disabled":false,"rental_uris":{"android":"levelo://app?vid=21433f39-0227-4542-b543-81b2405dcd01","ios":"levelo://app?vid=21433f39-0227-4542-b543-81b2405dcd01"},"vehicle_type_id":"4","last_reported":1758608163,"current_range_meters":16000,"station_id":"","pricing_plan_id":"cebpf4jnsgd1na2vs0mg"},{"bike_id":"a1e06df0-87b9-409a-9b1e-f1bc83ecc770","system_id":"levelo_inurba_marseille","lat":43.29054,"lon":5.38333,"is_reserved":false,"is_disabled":false,"rental_uris":{"android":"levelo://app?vid=a1e06df0-87b9-409a-9b1e-f1bc83ecc770","ios":"levelo://app?vid=a1e06df0-87b9-409a-9b1e-f1bc83ecc770"},"vehicle_type_id":"4","last_reported":1758608163,"current_range_meters":16000,"station_id":"","pricing_plan_id":"cebpf4jnsgd1na2vs0mg"},{"bike_id":"4479e67d-c109-41c5-94bd-d34a1a742903","system_id":"levelo_inurba_marseille","lat":43.31238,"lon":5.36867,"is_reserved":false,"is_disabled":false,"rental_uris":{"android":"levelo://app?vid=4479e67d-c109-41c5-94bd-d34a1a742903","ios":"levelo://app?vid=4479e67d-c109-41c5-94bd-d34a1a742903"},"vehicle_type_id":"4","last_reported":1758608163,"current_range_meters":16000,"station_id":"ce4bgl92rcd13ifvqbq0","pricing_plan_id":"cebpf4jnsgd1na2vs0mg"},{"bike_id":"4c0b651b-953c-4759-a0f7-0074f59a45eb","system_id":"levelo_inurba_marseille","lat":43.25801,"lon":5.39283,"is_reserved":false,"is_disabled":false,"rental_uris":{"android":"levelo://app?vid=4c0b651b-953c-4759-a0f7-0074f59a45eb","ios":"levelo://app?vid=4c0b651b-953c-4759-a0f7-0074f59a45eb"},"vehicle_type_id":"4","last_reported":1758608163,"current_range_meters":16000,"station_id":"","pricing_plan_id":"cebpf4jnsgd1na2vs0mg"},{"bike_id":"1964a7c4-f341-4518-b3f3-4cff78a650f1","system_id":"levelo_inurba_marseille","lat":43.32497,"lon":5.3656,"is_reserved":false,"is_disabled":false,"rental_uris":{"android":"levelo://app?vid=1964a7c4-f341-4518-b3f3-4cff78a650f1","ios":"levelo://app?vid=1964a7c4-f341-4518-b3f3-4cff78a650f1"},"vehicle_type_id":"4","last_reported":1758608163,"current_range_meters":16000,"station_id":"ce4bhs12rcd13ifvqhvg","pricing_plan_id":"cebpf4jnsgd1na2vs0mg"},{"bike_id":"43d57fd4-047e-4ac8-97e5-ec9b96239472","system_id":"levelo_inurba_marseille","lat":43.33231,"lon":5.39821,"is_reserved":false,"is_disabled":false,"rental_uris":{"android":"levelo://app?vid=43d57fd4-047e-4ac8-97e5-ec9b96239472","ios":"levelo://app?vid=43d57fd4-047e-4ac8-97e5-ec9b96239472"},"vehicle_type_id":"4","last_reported":1758608163,"current_range_meters":16000,"station_id":"","pricing_plan_id":"cebpf4jnsgd1na2vs0mg"},{"bike_id":"9565a68f-ca6e-46b8-994d-e558e732be97","system_id":"levelo_inurba_marseille","lat":43.28949,"lon":5.39624,"is_reserved":false,"is_disabled":false,"rental_uris":{"android":"levelo://app?vid=9565a68f-ca6e-46b8-994d-e558e732be97","ios":"levelo://app?vid=9565a68f-ca6e-46b8-994d-e558e732be97"},"vehicle_type_id":"4","last_reported":1758608163,"current_range_meters":16000,"station_id":"ce4bh3h2rcd13ifvqdn0","pricing_plan_id":"cebpf4jnsgd1na2vs0mg"},{"bike_id":"d3494fc0-34c2-431a-a2d3-71af77605232","system_id":"levelo_inurba_marseille","lat":43.25585,"lon":5.38227,"is_reserved":false,"is_disabled":false,"rental_uris":{"android":"levelo://app?vid=d3494fc0-34c2-431a-a2d3-71af77605232","ios":"levelo://app?vid=d3494fc0-34c2-431a-a2d3-71af77605232"},"vehicle_type_id":"4","last_reported":1758608163,"current_range_meters":16400,"station_id":"ce4bhih2rcd13ifvqfs0","pricing_plan_id":"cebpf4jnsgd1na2vs0mg"},{"bike_id":"f888fc63-af13-4086-93de-8a2b77c85818","system_id":"levelo_inurba_marseille","lat":43.3047,"lon":5.37907,"is_reserved":false,"is_disabled":false,"rental_uris":{"android":"levelo://app?vid=f888fc63-af13-4086-93de-8a2b77c85818","ios":"levelo://app?vid=f888fc63-af13-4086-93de-8a2b77c85818"},"vehicle_type_id":"4","last_reported":1758608163,"current_range_meters":16400,"station_id":"ce4bgup2rcd13ifvqcn0","pricing_plan_id":"cebpf4jnsgd1na2vs0mg"},{"bike_id":"06a24bce-028d-4b4a-b4a3-d45296145db5","system_id":"levelo_inurba_marseille","lat":43.28425,"lon":5.34991,"is_reserved":false,"is_disabled":true,"rental_uris":{"android":"levelo://app?vid=06a24bce-028d-4b4a-b4a3-d45296145db5","ios":"levelo://app?vid=06a24bce-028d-4b4a-b4a3-d45296145db5"},"vehicle_type_id":"4","last_reported":1758608163,"current_range_meters":16400,"station_id":"ce4bhch2rcd13ifvqeug","pricing_plan_id":"cebpf4jnsgd1na2vs0mg"},{"bike_id":"ca851ddc-e46b-4ca0-b01c-b780ccada1d0","system_id":"levelo_inurba_marseille","lat":43.29799,"lon":5.381,"is_reserved":false,"is_disabled":false,"rental_uris":{"android":"levelo://app?vid=ca851ddc-e46b-4ca0-b01c-b780ccada1d0","ios":"levelo://app?vid=ca851ddc-e46b-4ca0-b01c-b780ccada1d0"},"vehicle_type_id":"4","last_reported":1758608163,"current_range_meters":16800,"station_id":"ce4bgip2rcd13ifvqbb0","pricing_plan_id":"cebpf4jnsgd1na2vs0mg"},{"bike_id":"e15e7425-1d2e-43f2-a937-42c73da66651","system_id":"levelo_inurba_marseille","lat":43.29539,"lon":5.38548,"is_reserved":false,"is_disabled":false,"rental_uris":{"android":"levelo://app?vid=e15e7425-1d2e-43f2-a937-42c73da66651","ios":"levelo://app?vid=e15e7425-1d2e-43f2-a937-42c73da66651"},"vehicle_type_id":"4","last_reported":1758608163,"current_range_meters":16800,"station_id":"ce4bgih2rcd13ifvqba0","pricing_plan_id":"cebpf4jnsgd1na2vs0mg"},{"bike_id":"d24dd466-02ce-4a40-865e-e4b5699b5ac4","system_id":"levelo_inurba_marseille","lat":43.292636,"lon":5.384441,"is_reserved":false,"is_disabled":false,"rental_uris":{"android":"levelo://app?vid=d24dd466-02ce-4a40-865e-e4b5699b5ac4","ios":"levelo://app?vid=d24dd466-02ce-4a40-865e-e4b5699b5ac4"},"vehicle_type_id":"4","last_reported":1758608163,"current_range_meters":16800,"station_id":"","pricing_plan_id":"cebpf4jnsgd1na2vs0mg"},{"bike_id":"b0b4631e-3fe3-47ae-a1f2-5862ae6a4392","system_id":"levelo_inurba_marseille","lat":43.30245,"lon":5.40038,"is_reserved":false,"is_disabled":true,"rental_uris":{"android":"levelo://app?vid=b0b4631e-3fe3-47ae-a1f2-5862ae6a4392","ios":"levelo://app?vid=b0b4631e-3fe3-47ae-a1f2-5862ae6a4392"},"vehicle_type_id":"4","last_reported":1758608163,"current_range_meters":16800,"station_id":"ce4bgvh2rcd13ifvqcs0","pricing_plan_id":"cebpf4jnsgd1na2vs0mg"},{"bike_id":"8f63bb28-daf3-434a-b520-4ffc9e66dc1c","system_id":"levelo_inurba_marseille","lat":43.25618,"lon":5.41216,"is_reserved":false,"is_disabled":false,"rental_uris":{"android":"levelo://app?vid=8f63bb28-daf3-434a-b520-4ffc9e66dc1c","ios":"levelo://app?vid=8f63bb28-daf3-434a-b520-4ffc9e66dc1c"},"vehicle_type_id":"4","last_reported":1758608163,"current_range_meters":16800,"station_id":"","pricing_plan_id":"cebpf4jnsgd1na2vs0mg"},{"bike_id":"a57ec678-3f9e-4769-a06b-b0e36f8205fe","system_id":"levelo_inurba_marseille","lat":43.23196,"lon":5.40006,"is_reserved":false,"is_disabled":false,"rental_uris":{"android":"levelo://app?vid=a57ec678-3f9e-4769-a06b-b0e36f8205fe","ios":"levelo://app?vid=a57ec678-3f9e-4769-a06b-b0e36f8205fe"},"vehicle_type_id":"4","last_reported":1758608163,"current_range_meters":16800,"station_id":"ce4bhn12rcd13ifvqgqg","pricing_plan_id":"cebpf4jnsgd1na2vs0mg"},{"bike_id":"70b43b54-596c-4808-8848-7d5f352b3175","system_id":"levelo_inurba_marseille","lat":43.2572,"lon":5.41113,"is_reserved":false,"is_disabled":false,"rental_uris":{"android":"levelo://app?vid=70b43b54-596c-4808-8848-7d5f352b3175","ios":"levelo://app?vid=70b43b54-596c-4808-8848-7d5f352b3175"},"vehicle_type_id":"4","last_reported":1758608163,"current_range_meters":16400,"station_id":"ce4bhkp2rcd13ifvqgd0","pricing_plan_id":"cebpf4jnsgd1na2vs0mg"},{"bike_id":"d0f7480c-e5ca-49b8-910b-2a2a89a51c6d","system_id":"levelo_inurba_marseille","lat":43.2315,"lon":5.43718,"is_reserved":false,"is_disabled":false,"rental_uris":{"android":"levelo://app?vid=d0f7480c-e5ca-49b8-910b-2a2a89a51c6d","ios":"levelo://app?vid=d0f7480c-e5ca-49b8-910b-2a2a89a51c6d"},"vehicle_type_id":"4","last_reported":1758608163,"current_range_meters":16800,"station_id":"ce4bhmp2rcd13ifvqgog","pricing_plan_id":"cebpf4jnsgd1na2vs0mg"},{"bike_id":"c3e6cc38-8443-41f0-8b93-3da119df4b84","system_id":"levelo_inurba_marseille","lat":43.25931,"lon":5.40908,"is_reserved":false,"is_disabled":false,"rental_uris":{"android":"levelo://app?vid=c3e6cc38-8443-41f0-8b93-3da119df4b84","ios":"levelo://app?vid=c3e6cc38-8443-41f0-8b93-3da119df4b84"},"vehicle_type_id":"4","last_reported":1758608163,"current_range_meters":16800,"station_id":"ce4bhm92rcd13ifvqglg","pricing_plan_id":"cebpf4jnsgd1na2vs0mg"},{"bike_id":"90dca5b1-f7f1-47bf-ae0d-8dea2cb8b7fb","system_id":"levelo_inurba_marseille","lat":43.28278,"lon":5.3507,"is_reserved":false,"is_disabled":false,"rental_uris":{"android":"levelo://app?vid=90dca5b1-f7f1-47bf-ae0d-8dea2cb8b7fb","ios":"levelo://app?vid=90dca5b1-f7f1-47bf-ae0d-8dea2cb8b7fb"},"vehicle_type_id":"4","last_reported":1758608163,"current_range_meters":16800,"station_id":"ce4bhbp2rcd13ifvqerg","pricing_plan_id":"cebpf4jnsgd1na2vs0mg"},{"bike_id":"501ac5d5-50e3-4b6e-ac49-550262ab4bee","system_id":"levelo_inurba_marseille","lat":43.33608,"lon":5.41032,"is_reserved":false,"is_disabled":false,"rental_uris":{"android":"levelo://app?vid=501ac5d5-50e3-4b6e-ac49-550262ab4bee","ios":"levelo://app?vid=501ac5d5-50e3-4b6e-ac49-550262ab4bee"},"vehicle_type_id":"4","last_reported":1758608163,"current_range_meters":16400,"station_id":"ce4bhqh2rcd13ifvqhmg","pricing_plan_id":"cebpf4jnsgd1na2vs0mg"},{"bike_id":"2a52b0bb-783a-489f-a7b9-793ba892f121","system_id":"levelo_inurba_marseille","lat":43.25333,"lon":5.42182,"is_reserved":false,"is_disabled":false,"rental_uris":{"android":"levelo://app?vid=2a52b0bb-783a-489f-a7b9-793ba892f121","ios":"levelo://app?vid=2a52b0bb-783a-489f-a7b9-793ba892f121"},"vehicle_type_id":"4","last_reported":1758608163,"current_range_meters":16800,"station_id":"st_d2m65c5bi1j21697t3ng","pricing_plan_id":"cebpf4jnsgd1na2vs0mg"},{"bike_id":"e2bd001f-dff6-473f-b80d-b78a55754f0a","system_id":"levelo_inurba_marseille","lat":43.27059,"lon":5.40265,"is_reserved":false,"is_disabled":false,"rental_uris":{"android":"levelo://app?vid=e2bd001f-dff6-473f-b80d-b78a55754f0a","ios":"levelo://app?vid=e2bd001f-dff6-473f-b80d-b78a55754f0a"},"vehicle_type_id":"4","last_reported":1758608163,"current_range_meters":17200,"station_id":"ce4bhk92rcd13ifvqgc0","pricing_plan_id":"cebpf4jnsgd1na2vs0mg"},{"bike_id":"cc290a18-f11d-4b21-a6cc-97ff33be46d2","system_id":"levelo_inurba_marseille","lat":43.30312,"lon":5.39212,"is_reserved":false,"is_disabled":false,"rental_uris":{"android":"levelo://app?vid=cc290a18-f11d-4b21-a6cc-97ff33be46d2","ios":"levelo://app?vid=cc290a18-f11d-4b21-a6cc-97ff33be46d2"},"vehicle_type_id":"4","last_reported":1758608163,"current_range_meters":17200,"station_id":"ce4bgkh2rcd13ifvqbk0","pricing_plan_id":"cebpf4jnsgd1na2vs0mg"},{"bike_id":"8b5048eb-188a-4758-896d-b555c5dbb909","system_id":"levelo_inurba_marseille","lat":43.29531,"lon":5.38546,"is_reserved":false,"is_disabled":false,"rental_uris":{"android":"levelo://app?vid=8b5048eb-188a-4758-896d-b555c5dbb909","ios":"levelo://app?vid=8b5048eb-188a-4758-896d-b555c5dbb909"},"vehicle_type_id":"4","last_reported":1758608163,"current_range_meters":17200,"station_id":"","pricing_plan_id":"cebpf4jnsgd1na2vs0mg"},{"bike_id":"dddca5ef-4a33-499b-936a-6d8e6136a417","system_id":"levelo_inurba_marseille","lat":43.229341,"lon":5.353795,"is_reserved":false,"is_disabled":false,"rental_uris":{"android":"levelo://app?vid=dddca5ef-4a33-499b-936a-6d8e6136a417","ios":"levelo://app?vid=dddca5ef-4a33-499b-936a-6d8e6136a417"},"vehicle_type_id":"4","last_reported":1758608163,"current_range_meters":17200,"station_id":"cpo3532slgdg3j2ikp40","pricing_plan_id":"cebpf4jnsgd1na2vs0mg"},{"bike_id":"8552fe36-10d8-46fd-997b-c97d2970480a","system_id":"levelo_inurba_marseille","lat":43.32375,"lon":5.3673,"is_reserved":false,"is_disabled":false,"rental_uris":{"android":"levelo://app?vid=8552fe36-10d8-46fd-997b-c97d2970480a","ios":"levelo://app?vid=8552fe36-10d8-46fd-997b-c97d2970480a"},"vehicle_type_id":"4","last_reported":1758608163,"current_range_meters":17200,"station_id":"ce4bhsh2rcd13ifvqi2g","pricing_plan_id":"cebpf4jnsgd1na2vs0mg"},{"bike_id":"35450425-2f77-4cc3-9bf2-34774855a5c4","system_id":"levelo_inurba_marseille","lat":43.257221,"lon":5.411082,"is_reserved":false,"is_disabled":true,"rental_uris":{"android":"levelo://app?vid=35450425-2f77-4cc3-9bf2-34774855a5c4","ios":"levelo://app?vid=35450425-2f77-4cc3-9bf2-34774855a5c4"},"vehicle_type_id":"4","last_reported":1758608163,"current_range_meters":17600,"station_id":"ce4bhkp2rcd13ifvqgd0","pricing_plan_id":"cebpf4jnsgd1na2vs0mg"},{"bike_id":"f24e3bca-cda9-4646-8018-bd8a969d6e46","system_id":"levelo_inurba_marseille","lat":43.274957,"lon":5.424497,"is_reserved":false,"is_disabled":false,"rental_uris":{"android":"levelo://app?vid=f24e3bca-cda9-4646-8018-bd8a969d6e46","ios":"levelo://app?vid=f24e3bca-cda9-4646-8018-bd8a969d6e46"},"vehicle_type_id":"4","last_reported":1758608163,"current_range_meters":17600,"station_id":"ce4bhn92rcd13ifvqgrg","pricing_plan_id":"cebpf4jnsgd1na2vs0mg"},{"bike_id":"2b5cf6d2-5cda-4640-9461-0ca51ece55aa","system_id":"levelo_inurba_marseille","lat":43.314861,"lon":5.373125,"is_reserved":false,"is_disabled":false,"rental_uris":{"android":"levelo://app?vid=2b5cf6d2-5cda-4640-9461-0ca51ece55aa","ios":"levelo://app?vid=2b5cf6d2-5cda-4640-9461-0ca51ece55aa"},"vehicle_type_id":"4","last_reported":1758608163,"current_range_meters":17600,"station_id":"ce4bgt12rcd13ifvqcd0","pricing_plan_id":"cebpf4jnsgd1na2vs0mg"},{"bike_id":"16985043-34a9-4d17-afed-dd9fb3fb200f","system_id":"levelo_inurba_marseille","lat":43.32484,"lon":5.36563,"is_reserved":false,"is_disabled":false,"rental_uris":{"android":"levelo://app?vid=16985043-34a9-4d17-afed-dd9fb3fb200f","ios":"levelo://app?vid=16985043-34a9-4d17-afed-dd9fb3fb200f"},"vehicle_type_id":"4","last_reported":1758608163,"current_range_meters":17600,"station_id":"ce4bhs12rcd13ifvqhvg","pricing_plan_id":"cebpf4jnsgd1na2vs0mg"},{"bike_id":"e6e104ca-9460-44a7-a557-a74dfb2f3aa1","system_id":"levelo_inurba_marseille","lat":43.3093,"lon":5.3722,"is_reserved":false,"is_disabled":false,"rental_uris":{"android":"levelo://app?vid=e6e104ca-9460-44a7-a557-a74dfb2f3aa1","ios":"levelo://app?vid=e6e104ca-9460-44a7-a557-a74dfb2f3aa1"},"vehicle_type_id":"4","last_reported":1758608163,"current_range_meters":17600,"station_id":"ce4bguh2rcd13ifvqckg","pricing_plan_id":"cebpf4jnsgd1na2vs0mg"},{"bike_id":"3c0fa725-f739-4599-965d-e73d3e7b2c8f","system_id":"levelo_inurba_marseille","lat":43.323473,"lon":5.367254,"is_reserved":false,"is_disabled":false,"rental_uris":{"android":"levelo://app?vid=3c0fa725-f739-4599-965d-e73d3e7b2c8f","ios":"levelo://app?vid=3c0fa725-f739-4599-965d-e73d3e7b2c8f"},"vehicle_type_id":"4","last_reported":1758608163,"current_range_meters":17600,"station_id":"ce4bhsh2rcd13ifvqi2g","pricing_plan_id":"cebpf4jnsgd1na2vs0mg"},{"bike_id":"127e50ca-c7de-415d-b9a8-d9fbb74e2bd2","system_id":"levelo_inurba_marseille","lat":43.26507,"lon":5.39541,"is_reserved":false,"is_disabled":false,"rental_uris":{"android":"levelo://app?vid=127e50ca-c7de-415d-b9a8-d9fbb74e2bd2","ios":"levelo://app?vid=127e50ca-c7de-415d-b9a8-d9fbb74e2bd2"},"vehicle_type_id":"4","last_reported":1758608163,"current_range_meters":18000,"station_id":"ce4bhi12rcd13ifvqfq0","pricing_plan_id":"cebpf4jnsgd1na2vs0mg"},{"bike_id":"efbe2224-30d8-4717-919d-2908d2ea6c08","system_id":"levelo_inurba_marseille","lat":43.217517,"lon":5.346025,"is_reserved":false,"is_disabled":false,"rental_uris":{"android":"levelo://app?vid=efbe2224-30d8-4717-919d-2908d2ea6c08","ios":"levelo://app?vid=efbe2224-30d8-4717-919d-2908d2ea6c08"},"vehicle_type_id":"4","last_reported":1758608163,"current_range_meters":18000,"station_id":"st_cvj6r9ubvosntc0bgbag","pricing_plan_id":"cebpf4jnsgd1na2vs0mg"},{"bike_id":"a60abba9-f9b8-477b-8786-175fc2b6218b","system_id":"levelo_inurba_marseille","lat":43.30916,"lon":5.36747,"is_reserved":false,"is_disabled":false,"rental_uris":{"android":"levelo://app?vid=a60abba9-f9b8-477b-8786-175fc2b6218b","ios":"levelo://app?vid=a60abba9-f9b8-477b-8786-175fc2b6218b"},"vehicle_type_id":"4","last_reported":1758608163,"current_range_meters":18000,"station_id":"","pricing_plan_id":"cebpf4jnsgd1na2vs0mg"},{"bike_id":"902a85b4-786a-4a10-b45c-52ec35967b94","system_id":"levelo_inurba_marseille","lat":43.24074,"lon":5.3776,"is_reserved":false,"is_disabled":false,"rental_uris":{"android":"levelo://app?vid=902a85b4-786a-4a10-b45c-52ec35967b94","ios":"levelo://app?vid=902a85b4-786a-4a10-b45c-52ec35967b94"},"vehicle_type_id":"4","last_reported":1758608163,"current_range_meters":18000,"station_id":"ce4bhnp2rcd13ifvqgvg","pricing_plan_id":"cebpf4jnsgd1na2vs0mg"},{"bike_id":"b939b722-1391-49f6-a815-c40f23ab789f","system_id":"levelo_inurba_marseille","lat":43.30141,"lon":5.37413,"is_reserved":false,"is_disabled":false,"rental_uris":{"android":"levelo://app?vid=b939b722-1391-49f6-a815-c40f23ab789f","ios":"levelo://app?vid=b939b722-1391-49f6-a815-c40f23ab789f"},"vehicle_type_id":"4","last_reported":1758608163,"current_range_meters":17600,"station_id":"ce4bgs92rcd13ifvqcc0","pricing_plan_id":"cebpf4jnsgd1na2vs0mg"},{"bike_id":"95092148-5f75-4663-be7d-7c8aa2863391","system_id":"levelo_inurba_marseille","lat":43.24167,"lon":5.36394,"is_reserved":false,"is_disabled":false,"rental_uris":{"android":"levelo://app?vid=95092148-5f75-4663-be7d-7c8aa2863391","ios":"levelo://app?vid=95092148-5f75-4663-be7d-7c8aa2863391"},"vehicle_type_id":"4","last_reported":1758608163,"current_range_meters":18000,"station_id":"cpo36qri1sfpv3e86is0","pricing_plan_id":"cebpf4jnsgd1na2vs0mg"},{"bike_id":"e8138add-301c-4d03-b8d6-c5d0821bbb0b","system_id":"levelo_inurba_marseille","lat":43.301839,"lon":5.380963,"is_reserved":false,"is_disabled":false,"rental_uris":{"android":"levelo://app?vid=e8138add-301c-4d03-b8d6-c5d0821bbb0b","ios":"levelo://app?vid=e8138add-301c-4d03-b8d6-c5d0821bbb0b"},"vehicle_type_id":"4","last_reported":1758608163,"current_range_meters":18000,"station_id":"ce4bgjp2rcd13ifvqbh0","pricing_plan_id":"cebpf4jnsgd1na2vs0mg"},{"bike_id":"7e369899-bc1f-4cc0-924e-33018945dd99","system_id":"levelo_inurba_marseille","lat":43.25723,"lon":5.41113,"is_reserved":false,"is_disabled":false,"rental_uris":{"android":"levelo://app?vid=7e369899-bc1f-4cc0-924e-33018945dd99","ios":"levelo://app?vid=7e369899-bc1f-4cc0-924e-33018945dd99"},"vehicle_type_id":"4","last_reported":1758608163,"current_range_meters":18000,"station_id":"ce4bhkp2rcd13ifvqgd0","pricing_plan_id":"cebpf4jnsgd1na2vs0mg"},{"bike_id":"9feb0e0f-24fa-4463-b0f3-30472830c043","system_id":"levelo_inurba_marseille","lat":43.31757,"lon":5.39002,"is_reserved":false,"is_disabled":false,"rental_uris":{"android":"levelo://app?vid=9feb0e0f-24fa-4463-b0f3-30472830c043","ios":"levelo://app?vid=9feb0e0f-24fa-4463-b0f3-30472830c043"},"vehicle_type_id":"4","last_reported":1758608163,"current_range_meters":18800,"station_id":"ce4bhqp2rcd13ifvqhng","pricing_plan_id":"cebpf4jnsgd1na2vs0mg"},{"bike_id":"aed48393-ace5-402a-b677-021838903366","system_id":"levelo_inurba_marseille","lat":43.25107,"lon":5.40315,"is_reserved":false,"is_disabled":false,"rental_uris":{"android":"levelo://app?vid=aed48393-ace5-402a-b677-021838903366","ios":"levelo://app?vid=aed48393-ace5-402a-b677-021838903366"},"vehicle_type_id":"4","last_reported":1758608163,"current_range_meters":18800,"station_id":"ce4bhlh2rcd13ifvqgig","pricing_plan_id":"cebpf4jnsgd1na2vs0mg"},{"bike_id":"96b52191-cdd8-4909-9fad-4de0aaa5f927","system_id":"levelo_inurba_marseille","lat":43.30949,"lon":5.39001,"is_reserved":false,"is_disabled":true,"rental_uris":{"android":"levelo://app?vid=96b52191-cdd8-4909-9fad-4de0aaa5f927","ios":"levelo://app?vid=96b52191-cdd8-4909-9fad-4de0aaa5f927"},"vehicle_type_id":"4","last_reported":1758608163,"current_range_meters":18800,"station_id":"ce4bgup2rcd13ifvqco0","pricing_plan_id":"cebpf4jnsgd1na2vs0mg"},{"bike_id":"be2bce19-ee96-4df2-8c51-454cced10294","system_id":"levelo_inurba_marseille","lat":43.29053,"lon":5.35951,"is_reserved":false,"is_disabled":false,"rental_uris":{"android":"levelo://app?vid=be2bce19-ee96-4df2-8c51-454cced10294","ios":"levelo://app?vid=be2bce19-ee96-4df2-8c51-454cced10294"},"vehicle_type_id":"4","last_reported":1758608163,"current_range_meters":18800,"station_id":"ce4bha92rcd13ifvqeg0","pricing_plan_id":"cebpf4jnsgd1na2vs0mg"},{"bike_id":"b39ffcde-8d4a-4e25-86c3-967d542890a2","system_id":"levelo_inurba_marseille","lat":43.26949,"lon":5.40284,"is_reserved":false,"is_disabled":true,"rental_uris":{"android":"levelo://app?vid=b39ffcde-8d4a-4e25-86c3-967d542890a2","ios":"levelo://app?vid=b39ffcde-8d4a-4e25-86c3-967d542890a2"},"vehicle_type_id":"4","last_reported":1758608163,"current_range_meters":18800,"station_id":"cjm6bp8fraef2m0cb0m0","pricing_plan_id":"cebpf4jnsgd1na2vs0mg"},{"bike_id":"6292aec5-f3da-4ec2-afc3-0fcaa5a068ce","system_id":"levelo_inurba_marseille","lat":43.30302,"lon":5.392,"is_reserved":false,"is_disabled":true,"rental_uris":{"android":"levelo://app?vid=6292aec5-f3da-4ec2-afc3-0fcaa5a068ce","ios":"levelo://app?vid=6292aec5-f3da-4ec2-afc3-0fcaa5a068ce"},"vehicle_type_id":"4","last_reported":1758608163,"current_range_meters":18800,"station_id":"ce4bgkh2rcd13ifvqbk0","pricing_plan_id":"cebpf4jnsgd1na2vs0mg"},{"bike_id":"e8e54451-7f39-4604-b845-71badaae1d34","system_id":"levelo_inurba_marseille","lat":43.31686,"lon":5.40475,"is_reserved":false,"is_disabled":false,"rental_uris":{"android":"levelo://app?vid=e8e54451-7f39-4604-b845-71badaae1d34","ios":"levelo://app?vid=e8e54451-7f39-4604-b845-71badaae1d34"},"vehicle_type_id":"4","last_reported":1758608163,"current_range_meters":18800,"station_id":"ce4bh012rcd13ifvqd00","pricing_plan_id":"cebpf4jnsgd1na2vs0mg"},{"bike_id":"908547ed-cdb7-4df7-a16c-2df86531d52d","system_id":"levelo_inurba_marseille","lat":43.26974,"lon":5.38656,"is_reserved":false,"is_disabled":false,"rental_uris":{"android":"levelo://app?vid=908547ed-cdb7-4df7-a16c-2df86531d52d","ios":"levelo://app?vid=908547ed-cdb7-4df7-a16c-2df86531d52d"},"vehicle_type_id":"4","last_reported":1758608163,"current_range_meters":18800,"station_id":"ce4bhh92rcd13ifvqfh0","pricing_plan_id":"cebpf4jnsgd1na2vs0mg"},{"bike_id":"e806625d-7895-4a48-87bb-f61abd88b5a1","system_id":"levelo_inurba_marseille","lat":43.30158,"lon":5.38086,"is_reserved":false,"is_disabled":false,"rental_uris":{"android":"levelo://app?vid=e806625d-7895-4a48-87bb-f61abd88b5a1","ios":"levelo://app?vid=e806625d-7895-4a48-87bb-f61abd88b5a1"},"vehicle_type_id":"4","last_reported":1758608163,"current_range_meters":18800,"station_id":"ce4bgjp2rcd13ifvqbh0","pricing_plan_id":"cebpf4jnsgd1na2vs0mg"},{"bike_id":"a0a33141-e985-4ec4-9fa8-d438484048e8","system_id":"levelo_inurba_marseille","lat":43.31358,"lon":5.36685,"is_reserved":false,"is_disabled":false,"rental_uris":{"android":"levelo://app?vid=a0a33141-e985-4ec4-9fa8-d438484048e8","ios":"levelo://app?vid=a0a33141-e985-4ec4-9fa8-d438484048e8"},"vehicle_type_id":"4","last_reported":1758608163,"current_range_meters":18800,"station_id":"ce4bgr92rcd13ifvqc6g","pricing_plan_id":"cebpf4jnsgd1na2vs0mg"},{"bike_id":"8f3d3d72-9af2-4f9b-9b62-e82fc3d41eda","system_id":"levelo_inurba_marseille","lat":43.25349,"lon":5.4218,"is_reserved":false,"is_disabled":false,"rental_uris":{"android":"levelo://app?vid=8f3d3d72-9af2-4f9b-9b62-e82fc3d41eda","ios":"levelo://app?vid=8f3d3d72-9af2-4f9b-9b62-e82fc3d41eda"},"vehicle_type_id":"4","last_reported":1758608163,"current_range_meters":19200,"station_id":"st_d2m65c5bi1j21697t3ng","pricing_plan_id":"cebpf4jnsgd1na2vs0mg"},{"bike_id":"310b06b2-6287-457c-b411-beee0d320ef9","system_id":"levelo_inurba_marseille","lat":43.30447,"lon":5.38883,"is_reserved":false,"is_disabled":true,"rental_uris":{"android":"levelo://app?vid=310b06b2-6287-457c-b411-beee0d320ef9","ios":"levelo://app?vid=310b06b2-6287-457c-b411-beee0d320ef9"},"vehicle_type_id":"4","last_reported":1758608163,"current_range_meters":19200,"station_id":"ce4bgk12rcd13ifvqbi0","pricing_plan_id":"cebpf4jnsgd1na2vs0mg"},{"bike_id":"c5bbf267-874b-4880-8545-f99117285e99","system_id":"levelo_inurba_marseille","lat":43.24982,"lon":5.38935,"is_reserved":false,"is_disabled":false,"rental_uris":{"android":"levelo://app?vid=c5bbf267-874b-4880-8545-f99117285e99","ios":"levelo://app?vid=c5bbf267-874b-4880-8545-f99117285e99"},"vehicle_type_id":"4","last_reported":1758608163,"current_range_meters":19200,"station_id":"ce4bhgp2rcd13ifvqfd0","pricing_plan_id":"cebpf4jnsgd1na2vs0mg"},{"bike_id":"a8e6bcda-8905-4b3d-a920-feecffca3486","system_id":"levelo_inurba_marseille","lat":43.28473,"lon":5.3842,"is_reserved":false,"is_disabled":false,"rental_uris":{"android":"levelo://app?vid=a8e6bcda-8905-4b3d-a920-feecffca3486","ios":"levelo://app?vid=a8e6bcda-8905-4b3d-a920-feecffca3486"},"vehicle_type_id":"4","last_reported":1758608163,"current_range_meters":18800,"station_id":"ce4bh512rcd13ifvqe3g","pricing_plan_id":"cebpf4jnsgd1na2vs0mg"},{"bike_id":"b3bcf3e3-c6e4-4b18-80d2-fdeaefb07de9","system_id":"levelo_inurba_marseille","lat":43.281296,"lon":5.432237,"is_reserved":false,"is_disabled":false,"rental_uris":{"android":"levelo://app?vid=b3bcf3e3-c6e4-4b18-80d2-fdeaefb07de9","ios":"levelo://app?vid=b3bcf3e3-c6e4-4b18-80d2-fdeaefb07de9"},"vehicle_type_id":"4","last_reported":1758608163,"current_range_meters":19200,"station_id":"","pricing_plan_id":"cebpf4jnsgd1na2vs0mg"},{"bike_id":"b5097eea-9912-4be2-9cf9-14c224c5fab6","system_id":"levelo_inurba_marseille","lat":43.23215,"lon":5.35555,"is_reserved":false,"is_disabled":false,"rental_uris":{"android":"levelo://app?vid=b5097eea-9912-4be2-9cf9-14c224c5fab6","ios":"levelo://app?vid=b5097eea-9912-4be2-9cf9-14c224c5fab6"},"vehicle_type_id":"4","last_reported":1758608163,"current_range_meters":19200,"station_id":"ce4bhu92rcd13ifvqi70","pricing_plan_id":"cebpf4jnsgd1na2vs0mg"},{"bike_id":"9d3fd4d4-1a31-4df1-9b2c-9301fb86cf6e","system_id":"levelo_inurba_marseille","lat":43.29642,"lon":5.40614,"is_reserved":false,"is_disabled":false,"rental_uris":{"android":"levelo://app?vid=9d3fd4d4-1a31-4df1-9b2c-9301fb86cf6e","ios":"levelo://app?vid=9d3fd4d4-1a31-4df1-9b2c-9301fb86cf6e"},"vehicle_type_id":"4","last_reported":1758608163,"current_range_meters":19200,"station_id":"ce4bh0h2rcd13ifvqd60","pricing_plan_id":"cebpf4jnsgd1na2vs0mg"},{"bike_id":"a19c4f9d-ad70-4e17-944d-a3e0170eaf0c","system_id":"levelo_inurba_marseille","lat":43.2408,"lon":5.3776,"is_reserved":false,"is_disabled":false,"rental_uris":{"android":"levelo://app?vid=a19c4f9d-ad70-4e17-944d-a3e0170eaf0c","ios":"levelo://app?vid=a19c4f9d-ad70-4e17-944d-a3e0170eaf0c"},"vehicle_type_id":"4","last_reported":1758608163,"current_range_meters":19200,"station_id":"ce4bhnp2rcd13ifvqgvg","pricing_plan_id":"cebpf4jnsgd1na2vs0mg"},{"bike_id":"d68b9cdd-055c-48e6-b5c7-c6c683b923e5","system_id":"levelo_inurba_marseille","lat":43.286197,"lon":5.350976,"is_reserved":false,"is_disabled":true,"rental_uris":{"android":"levelo://app?vid=d68b9cdd-055c-48e6-b5c7-c6c683b923e5","ios":"levelo://app?vid=d68b9cdd-055c-48e6-b5c7-c6c683b923e5"},"vehicle_type_id":"4","last_reported":1758608163,"current_range_meters":19200,"station_id":"ce4bhch2rcd13ifvqeug","pricing_plan_id":"cebpf4jnsgd1na2vs0mg"},{"bike_id":"a6e657c9-56fc-4598-a8c4-11ed6c39a920","system_id":"levelo_inurba_marseille","lat":43.31498,"lon":5.37289,"is_reserved":false,"is_disabled":false,"rental_uris":{"android":"levelo://app?vid=a6e657c9-56fc-4598-a8c4-11ed6c39a920","ios":"levelo://app?vid=a6e657c9-56fc-4598-a8c4-11ed6c39a920"},"vehicle_type_id":"4","last_reported":1758608163,"current_range_meters":19200,"station_id":"ce4bgt12rcd13ifvqcd0","pricing_plan_id":"cebpf4jnsgd1na2vs0mg"},{"bike_id":"6f45ff16-8684-41c3-bdbd-4b54f1c3e6ff","system_id":"levelo_inurba_marseille","lat":43.327282,"lon":5.410482,"is_reserved":false,"is_disabled":false,"rental_uris":{"android":"levelo://app?vid=6f45ff16-8684-41c3-bdbd-4b54f1c3e6ff","ios":"levelo://app?vid=6f45ff16-8684-41c3-bdbd-4b54f1c3e6ff"},"vehicle_type_id":"4","last_reported":1758608163,"current_range_meters":18800,"station_id":"ce4bhpp2rcd13ifvqhgg","pricing_plan_id":"cebpf4jnsgd1na2vs0mg"},{"bike_id":"edea3184-7237-4a07-97ce-0e49c54e3803","system_id":"levelo_inurba_marseille","lat":43.31092,"lon":5.4243,"is_reserved":false,"is_disabled":false,"rental_uris":{"android":"levelo://app?vid=edea3184-7237-4a07-97ce-0e49c54e3803","ios":"levelo://app?vid=edea3184-7237-4a07-97ce-0e49c54e3803"},"vehicle_type_id":"4","last_reported":1758608163,"current_range_meters":19200,"station_id":"ce4bhp92rcd13ifvqhag","pricing_plan_id":"cebpf4jnsgd1na2vs0mg"},{"bike_id":"b356a066-2ceb-46b4-8be7-3f499899d2b1","system_id":"levelo_inurba_marseille","lat":43.25939,"lon":5.40903,"is_reserved":false,"is_disabled":false,"rental_uris":{"android":"levelo://app?vid=b356a066-2ceb-46b4-8be7-3f499899d2b1","ios":"levelo://app?vid=b356a066-2ceb-46b4-8be7-3f499899d2b1"},"vehicle_type_id":"4","last_reported":1758608163,"current_range_meters":19600,"station_id":"ce4bhm92rcd13ifvqglg","pricing_plan_id":"cebpf4jnsgd1na2vs0mg"},{"bike_id":"dd94f940-0377-4d10-9695-bb9f6ba4c54b","system_id":"levelo_inurba_marseille","lat":43.29034,"lon":5.38656,"is_reserved":false,"is_disabled":true,"rental_uris":{"android":"levelo://app?vid=dd94f940-0377-4d10-9695-bb9f6ba4c54b","ios":"levelo://app?vid=dd94f940-0377-4d10-9695-bb9f6ba4c54b"},"vehicle_type_id":"4","last_reported":1758608163,"current_range_meters":19600,"station_id":"ce4bh4p2rcd13ifvqe0g","pricing_plan_id":"cebpf4jnsgd1na2vs0mg"},{"bike_id":"e34a534e-40a2-424f-9a9f-8dd078555d70","system_id":"levelo_inurba_marseille","lat":43.31354,"lon":5.36682,"is_reserved":false,"is_disabled":false,"rental_uris":{"android":"levelo://app?vid=e34a534e-40a2-424f-9a9f-8dd078555d70","ios":"levelo://app?vid=e34a534e-40a2-424f-9a9f-8dd078555d70"},"vehicle_type_id":"4","last_reported":1758608163,"current_range_meters":19600,"station_id":"ce4bgr92rcd13ifvqc6g","pricing_plan_id":"cebpf4jnsgd1na2vs0mg"},{"bike_id":"76d79070-defb-41bb-86d9-c3b7353b1cdb","system_id":"levelo_inurba_marseille","lat":43.30482,"lon":5.37911,"is_reserved":false,"is_disabled":true,"rental_uris":{"android":"levelo://app?vid=76d79070-defb-41bb-86d9-c3b7353b1cdb","ios":"levelo://app?vid=76d79070-defb-41bb-86d9-c3b7353b1cdb"},"vehicle_type_id":"4","last_reported":1758608163,"current_range_meters":19600,"station_id":"ce4bgup2rcd13ifvqcn0","pricing_plan_id":"cebpf4jnsgd1na2vs0mg"},{"bike_id":"d17ffa8a-59e4-472d-87e5-70256b0c2a58","system_id":"levelo_inurba_marseille","lat":43.27957,"lon":5.41038,"is_reserved":false,"is_disabled":false,"rental_uris":{"android":"levelo://app?vid=d17ffa8a-59e4-472d-87e5-70256b0c2a58","ios":"levelo://app?vid=d17ffa8a-59e4-472d-87e5-70256b0c2a58"},"vehicle_type_id":"4","last_reported":1758608163,"current_range_meters":19600,"station_id":"ce4bhnp2rcd13ifvqh0g","pricing_plan_id":"cebpf4jnsgd1na2vs0mg"},{"bike_id":"ae1bf9d7-836c-448f-affd-4613536fc480","system_id":"levelo_inurba_marseille","lat":43.292795,"lon":5.401171,"is_reserved":false,"is_disabled":false,"rental_uris":{"android":"levelo://app?vid=ae1bf9d7-836c-448f-affd-4613536fc480","ios":"levelo://app?vid=ae1bf9d7-836c-448f-affd-4613536fc480"},"vehicle_type_id":"4","last_reported":1758608163,"current_range_meters":19600,"station_id":"ce4bhqp2rcd13ifvqhog","pricing_plan_id":"cebpf4jnsgd1na2vs0mg"},{"bike_id":"7438c6e6-06d0-4a0a-83e7-d9b8d6cafa3b","system_id":"levelo_inurba_marseille","lat":43.303162,"lon":5.37878,"is_reserved":false,"is_disabled":false,"rental_uris":{"android":"levelo://app?vid=7438c6e6-06d0-4a0a-83e7-d9b8d6cafa3b","ios":"levelo://app?vid=7438c6e6-06d0-4a0a-83e7-d9b8d6cafa3b"},"vehicle_type_id":"4","last_reported":1758608163,"current_range_meters":19600,"station_id":"ce4bguh2rcd13ifvqcj0","pricing_plan_id":"cebpf4jnsgd1na2vs0mg"},{"bike_id":"8e0e00eb-5b15-4946-b3af-d73037a4f0a0","system_id":"levelo_inurba_marseille","lat":43.27075,"lon":5.42277,"is_reserved":false,"is_disabled":false,"rental_uris":{"android":"levelo://app?vid=8e0e00eb-5b15-4946-b3af-d73037a4f0a0","ios":"levelo://app?vid=8e0e00eb-5b15-4946-b3af-d73037a4f0a0"},"vehicle_type_id":"4","last_reported":1758608163,"current_range_meters":19600,"station_id":"ce4bhk92rcd13ifvqgb0","pricing_plan_id":"cebpf4jnsgd1na2vs0mg"},{"bike_id":"157b0c01-05e5-43dd-8f50-a6ded43d2ed7","system_id":"levelo_inurba_marseille","lat":43.28854,"lon":5.358667,"is_reserved":false,"is_disabled":false,"rental_uris":{"android":"levelo://app?vid=157b0c01-05e5-43dd-8f50-a6ded43d2ed7","ios":"levelo://app?vid=157b0c01-05e5-43dd-8f50-a6ded43d2ed7"},"vehicle_type_id":"4","last_reported":1758608163,"current_range_meters":19600,"station_id":"ce4bhb12rcd13ifvqem0","pricing_plan_id":"cebpf4jnsgd1na2vs0mg"},{"bike_id":"e2017298-7010-4fcc-9644-9ccfb0f46125","system_id":"levelo_inurba_marseille","lat":43.30102,"lon":5.41527,"is_reserved":false,"is_disabled":false,"rental_uris":{"android":"levelo://app?vid=e2017298-7010-4fcc-9644-9ccfb0f46125","ios":"levelo://app?vid=e2017298-7010-4fcc-9644-9ccfb0f46125"},"vehicle_type_id":"4","last_reported":1758608163,"current_range_meters":19600,"station_id":"","pricing_plan_id":"cebpf4jnsgd1na2vs0mg"},{"bike_id":"e4ba65d7-da42-4ea4-9000-eb089d8c6c6c","system_id":"levelo_inurba_marseille","lat":43.34156,"lon":5.40903,"is_reserved":false,"is_disabled":false,"rental_uris":{"android":"levelo://app?vid=e4ba65d7-da42-4ea4-9000-eb089d8c6c6c","ios":"levelo://app?vid=e4ba65d7-da42-4ea4-9000-eb089d8c6c6c"},"vehicle_type_id":"4","last_reported":1758608163,"current_range_meters":20000,"station_id":"ce4bhqh2rcd13ifvqhlg","pricing_plan_id":"cebpf4jnsgd1na2vs0mg"},{"bike_id":"361da165-42da-45cd-88b8-2997e47d0d5b","system_id":"levelo_inurba_marseille","lat":43.24086,"lon":5.37752,"is_reserved":false,"is_disabled":false,"rental_uris":{"android":"levelo://app?vid=361da165-42da-45cd-88b8-2997e47d0d5b","ios":"levelo://app?vid=361da165-42da-45cd-88b8-2997e47d0d5b"},"vehicle_type_id":"4","last_reported":1758608163,"current_range_meters":20000,"station_id":"ce4bhnp2rcd13ifvqgvg","pricing_plan_id":"cebpf4jnsgd1na2vs0mg"},{"bike_id":"9ffb92cd-482d-4601-a709-4fbe1e21dd44","system_id":"levelo_inurba_marseille","lat":43.23155,"lon":5.43717,"is_reserved":false,"is_disabled":false,"rental_uris":{"android":"levelo://app?vid=9ffb92cd-482d-4601-a709-4fbe1e21dd44","ios":"levelo://app?vid=9ffb92cd-482d-4601-a709-4fbe1e21dd44"},"vehicle_type_id":"4","last_reported":1758608163,"current_range_meters":20000,"station_id":"ce4bhmp2rcd13ifvqgog","pricing_plan_id":"cebpf4jnsgd1na2vs0mg"},{"bike_id":"c0dd5995-8c24-415e-8a32-70be516e588e","system_id":"levelo_inurba_marseille","lat":43.29602,"lon":5.38105,"is_reserved":false,"is_disabled":false,"rental_uris":{"android":"levelo://app?vid=c0dd5995-8c24-415e-8a32-70be516e588e","ios":"levelo://app?vid=c0dd5995-8c24-415e-8a32-70be516e588e"},"vehicle_type_id":"4","last_reported":1758608163,"current_range_meters":20000,"station_id":"ce4bgl12rcd13ifvqbo0","pricing_plan_id":"cebpf4jnsgd1na2vs0mg"},{"bike_id":"4a9a978a-712d-4a16-907b-c03240f6abbd","system_id":"levelo_inurba_marseille","lat":43.23073,"lon":5.35499,"is_reserved":false,"is_disabled":false,"rental_uris":{"android":"levelo://app?vid=4a9a978a-712d-4a16-907b-c03240f6abbd","ios":"levelo://app?vid=4a9a978a-712d-4a16-907b-c03240f6abbd"},"vehicle_type_id":"4","last_reported":1758608163,"current_range_meters":20000,"station_id":"cpo3342slgdg3j2ifvpg","pricing_plan_id":"cebpf4jnsgd1na2vs0mg"},{"bike_id":"6db010fe-a53c-401b-b729-cc67e48aff93","system_id":"levelo_inurba_marseille","lat":43.3017,"lon":5.3924,"is_reserved":false,"is_disabled":false,"rental_uris":{"android":"levelo://app?vid=6db010fe-a53c-401b-b729-cc67e48aff93","ios":"levelo://app?vid=6db010fe-a53c-401b-b729-cc67e48aff93"},"vehicle_type_id":"4","last_reported":1758608163,"current_range_meters":20000,"station_id":"","pricing_plan_id":"cebpf4jnsgd1na2vs0mg"},{"bike_id":"e1adfb52-9e21-4ca7-877a-f1ceea48ff48","system_id":"levelo_inurba_marseille","lat":43.29599,"lon":5.38104,"is_reserved":false,"is_disabled":false,"rental_uris":{"android":"levelo://app?vid=e1adfb52-9e21-4ca7-877a-f1ceea48ff48","ios":"levelo://app?vid=e1adfb52-9e21-4ca7-877a-f1ceea48ff48"},"vehicle_type_id":"4","last_reported":1758608163,"current_range_meters":20000,"station_id":"ce4bgl12rcd13ifvqbo0","pricing_plan_id":"cebpf4jnsgd1na2vs0mg"},{"bike_id":"1f51296f-b3d8-4396-b4d8-a7d344318e74","system_id":"levelo_inurba_marseille","lat":43.3016,"lon":5.38082,"is_reserved":false,"is_disabled":false,"rental_uris":{"android":"levelo://app?vid=1f51296f-b3d8-4396-b4d8-a7d344318e74","ios":"levelo://app?vid=1f51296f-b3d8-4396-b4d8-a7d344318e74"},"vehicle_type_id":"4","last_reported":1758608163,"current_range_meters":20000,"station_id":"ce4bgjp2rcd13ifvqbh0","pricing_plan_id":"cebpf4jnsgd1na2vs0mg"},{"bike_id":"d7fcbf4f-6cc1-4cc6-8269-7eb5481ca570","system_id":"levelo_inurba_marseille","lat":43.250655,"lon":5.388611,"is_reserved":false,"is_disabled":false,"rental_uris":{"android":"levelo://app?vid=d7fcbf4f-6cc1-4cc6-8269-7eb5481ca570","ios":"levelo://app?vid=d7fcbf4f-6cc1-4cc6-8269-7eb5481ca570"},"vehicle_type_id":"4","last_reported":1758608163,"current_range_meters":20400,"station_id":"ce4bhgp2rcd13ifvqfd0","pricing_plan_id":"cebpf4jnsgd1na2vs0mg"},{"bike_id":"3ff71db9-18d7-4990-868d-6fcc6ead646c","system_id":"levelo_inurba_marseille","lat":43.253477,"lon":5.421886,"is_reserved":false,"is_disabled":false,"rental_uris":{"android":"levelo://app?vid=3ff71db9-18d7-4990-868d-6fcc6ead646c","ios":"levelo://app?vid=3ff71db9-18d7-4990-868d-6fcc6ead646c"},"vehicle_type_id":"4","last_reported":1758608163,"current_range_meters":20400,"station_id":"st_d2m65c5bi1j21697t3ng","pricing_plan_id":"cebpf4jnsgd1na2vs0mg"},{"bike_id":"1b8e4c2d-e7e7-47de-bd66-d5d0e6c8f37e","system_id":"levelo_inurba_marseille","lat":43.265753,"lon":5.40313,"is_reserved":false,"is_disabled":false,"rental_uris":{"android":"levelo://app?vid=1b8e4c2d-e7e7-47de-bd66-d5d0e6c8f37e","ios":"levelo://app?vid=1b8e4c2d-e7e7-47de-bd66-d5d0e6c8f37e"},"vehicle_type_id":"4","last_reported":1758608163,"current_range_meters":20400,"station_id":"ce4bhmp2rcd13ifvqgng","pricing_plan_id":"cebpf4jnsgd1na2vs0mg"},{"bike_id":"c2ef04bd-5b92-4a72-80e5-2fe827673c76","system_id":"levelo_inurba_marseille","lat":43.31335,"lon":5.39695,"is_reserved":false,"is_disabled":true,"rental_uris":{"android":"levelo://app?vid=c2ef04bd-5b92-4a72-80e5-2fe827673c76","ios":"levelo://app?vid=c2ef04bd-5b92-4a72-80e5-2fe827673c76"},"vehicle_type_id":"4","last_reported":1758608163,"current_range_meters":20400,"station_id":"ce4bgvp2rcd13ifvqcu0","pricing_plan_id":"cebpf4jnsgd1na2vs0mg"},{"bike_id":"754974bb-5c6e-4a33-9f19-b53a83c64784","system_id":"levelo_inurba_marseille","lat":43.27667,"lon":5.38903,"is_reserved":false,"is_disabled":false,"rental_uris":{"android":"levelo://app?vid=754974bb-5c6e-4a33-9f19-b53a83c64784","ios":"levelo://app?vid=754974bb-5c6e-4a33-9f19-b53a83c64784"},"vehicle_type_id":"4","last_reported":1758608163,"current_range_meters":20400,"station_id":"ce4bhi12rcd13ifvqfo0","pricing_plan_id":"cebpf4jnsgd1na2vs0mg"},{"bike_id":"1863384f-15bd-4b60-957e-2c8b257bfef3","system_id":"levelo_inurba_marseille","lat":43.26955,"lon":5.3863,"is_reserved":false,"is_disabled":false,"rental_uris":{"android":"levelo://app?vid=1863384f-15bd-4b60-957e-2c8b257bfef3","ios":"levelo://app?vid=1863384f-15bd-4b60-957e-2c8b257bfef3"},"vehicle_type_id":"4","last_reported":1758608163,"current_range_meters":20800,"station_id":"ce4bhh92rcd13ifvqfh0","pricing_plan_id":"cebpf4jnsgd1na2vs0mg"},{"bike_id":"b13bfc12-70f3-4ab9-b931-21a876be1571","system_id":"levelo_inurba_marseille","lat":43.29747,"lon":5.377,"is_reserved":false,"is_disabled":true,"rental_uris":{"android":"levelo://app?vid=b13bfc12-70f3-4ab9-b931-21a876be1571","ios":"levelo://app?vid=b13bfc12-70f3-4ab9-b931-21a876be1571"},"vehicle_type_id":"4","last_reported":1758608163,"current_range_meters":20800,"station_id":"ce4bgkh2rcd13ifvqbl0","pricing_plan_id":"cebpf4jnsgd1na2vs0mg"},{"bike_id":"ad385ebd-a705-4275-9b1a-d7edbd9bbd49","system_id":"levelo_inurba_marseille","lat":43.34144,"lon":5.40913,"is_reserved":false,"is_disabled":false,"rental_uris":{"android":"levelo://app?vid=ad385ebd-a705-4275-9b1a-d7edbd9bbd49","ios":"levelo://app?vid=ad385ebd-a705-4275-9b1a-d7edbd9bbd49"},"vehicle_type_id":"4","last_reported":1758608163,"current_range_meters":20800,"station_id":"ce4bhqh2rcd13ifvqhlg","pricing_plan_id":"cebpf4jnsgd1na2vs0mg"},{"bike_id":"160b38ee-7cf0-4d8f-8df8-d376c267fc8c","system_id":"levelo_inurba_marseille","lat":43.27815,"lon":5.4071,"is_reserved":false,"is_disabled":false,"rental_uris":{"android":"levelo://app?vid=160b38ee-7cf0-4d8f-8df8-d376c267fc8c","ios":"levelo://app?vid=160b38ee-7cf0-4d8f-8df8-d376c267fc8c"},"vehicle_type_id":"4","last_reported":1758608163,"current_range_meters":20800,"station_id":"ce4bhnh2rcd13ifvqgtg","pricing_plan_id":"cebpf4jnsgd1na2vs0mg"},{"bike_id":"286d4de7-9d27-44a0-87ca-64acc4fc001c","system_id":"levelo_inurba_marseille","lat":43.2408,"lon":5.37757,"is_reserved":false,"is_disabled":false,"rental_uris":{"android":"levelo://app?vid=286d4de7-9d27-44a0-87ca-64acc4fc001c","ios":"levelo://app?vid=286d4de7-9d27-44a0-87ca-64acc4fc001c"},"vehicle_type_id":"4","last_reported":1758608163,"current_range_meters":20800,"station_id":"ce4bhnp2rcd13ifvqgvg","pricing_plan_id":"cebpf4jnsgd1na2vs0mg"},{"bike_id":"f5f446ea-231a-467f-a9b9-71273e179a24","system_id":"levelo_inurba_marseille","lat":43.30202,"lon":5.39457,"is_reserved":false,"is_disabled":true,"rental_uris":{"android":"levelo://app?vid=f5f446ea-231a-467f-a9b9-71273e179a24","ios":"levelo://app?vid=f5f446ea-231a-467f-a9b9-71273e179a24"},"vehicle_type_id":"4","last_reported":1758608163,"current_range_meters":20800,"station_id":"ce4bh0p2rcd13ifvqd70","pricing_plan_id":"cebpf4jnsgd1na2vs0mg"},{"bike_id":"1164f147-119b-4608-9265-bd37f85dbf61","system_id":"levelo_inurba_marseille","lat":43.29039,"lon":5.39967,"is_reserved":false,"is_disabled":false,"rental_uris":{"android":"levelo://app?vid=1164f147-119b-4608-9265-bd37f85dbf61","ios":"levelo://app?vid=1164f147-119b-4608-9265-bd37f85dbf61"},"vehicle_type_id":"4","last_reported":1758608163,"current_range_meters":20800,"station_id":"ce4bh392rcd13ifvqdm0","pricing_plan_id":"cebpf4jnsgd1na2vs0mg"},