{"last_updated":1729426626,"ttl":60,"version":"2.2","data":{"bikes":[{"bike_id":"4afac1f1-e478-49e2-8d9b-2131de1cea89","system_id":"levelo_inurba_marseille","lat":43.30535,"lon":5.36549,"is_reserved":false,"is_disabled":false,"rental_uris":{"android":"levelo://app?vid=4afac1f1-e478-49e2-8d9b-2131de1cea89","ios":"levelo://app?vid=4afac1f1-e478-49e2-8d9b-2131de1cea89"},"vehicle_type_id":"4","last_reported":1729426626,"current_range_meters":24800,"station_id":"ce4bgs12rcd13ifvqcag","pricing_plan_id":"cebpf4jnsgd1na2vs0mg"},{"bike_id":"699f43bc-fa06-4f4f-b302-24a9789a5d98","system_id":"levelo_inurba_marseille","lat":43.26206,"lon":5.37924,"is_reserved":false,"is_disabled":false,"rental_uris":{"android":"levelo://app?vid=699f43bc-fa06-4f4f-b302-24a9789a5d98","ios":"levelo://app?vid=699f43bc-fa06-4f4f-b302-24a9789a5d98"},"vehicle_type_id":"4","last_reported":1729426626,"current_range_meters":29600,"station_id":"ce4bhjp2rcd13ifvqg90","pricing_plan_id":"cebpf4jnsgd1na2vs0mg"},{"bike_id":"dcfec55e-556b-4081-b626-a7df3bfa15b8","system_id":"levelo_inurba_marseille","lat":43.3113,"lon":5.37752,"is_reserved":false,"is_disabled":false,"rental_uris":{"android":"levelo://app?vid=dcfec55e-556b-4081-b626-a7df3bfa15b8","ios":"levelo://app?vid=dcfec55e-556b-4081-b626-a7df3bfa15b8"},"vehicle_type_id":"4","last_reported":1729426626,"current_range_meters":22800,"station_id":"ce4bgt92rcd13ifvqcg0","pricing_plan_id":"cebpf4jnsgd1na2vs0mg"},{"bike_id":"a706c252-9f7b-4692-978f-545d685844a3","system_id":"levelo_inurba_marseille","lat":43.294192,"lon":5.386203,"is_reserved":false,"is_disabled":false,"rental_uris":{"android":"levelo://app?vid=a706c252-9f7b-4692-978f-545d685844a3","ios":"levelo://app?vid=a706c252-9f7b-4692-978f-545d685844a3"},"vehicle_type_id":"4","last_reported":1729426626,"current_range_meters":33200,"station_id":"ce4bh2h2rcd13ifvqdh0","pricing_plan_id":"cebpf4jnsgd1na2vs0mg"},{"bike_id":"fe93bfb2-7aeb-4c17-8248-6549ba71e9ff","system_id":"levelo_inurba_marseille","lat":43.2828,"lon":5.35071,"is_reserved":false,"is_disabled":false,"rental_uris":{"android":"levelo://app?vid=fe93bfb2-7aeb-4c17-8248-6549ba71e9ff","ios":"levelo://app?vid=fe93bfb2-7aeb-4c17-8248-6549ba71e9ff"},"vehicle_type_id":"4","last_reported":1729426626,"current_range_meters":38000,"station_id":"ce4bhbp2rcd13ifvqerg","pricing_plan_id":"cebpf4jnsgd1na2vs0mg"},{"bike_id":"079f0eb0-2f43-406f-bfbc-68285c577f87","system_id":"levelo_inurba_marseille","lat":43.2815,"lon":5.42639,"is_reserved":false,"is_disabled":false,"rental_uris":{"android":"levelo://app?vid=079f0eb0-2f43-406f-bfbc-68285c577f87","ios":"levelo://app?vid=079f0eb0-2f43-406f-bfbc-68285c577f87"},"vehicle_type_id":"4","last_reported":1729426626,"current_range_meters":6800,"station_id":"ce4bhnh2rcd13ifvqgug","pricing_plan_id":"cebpf4jnsgd1na2vs0mg"},{"bike_id":"7d6f153f-5752-4e11-a971-045a7871404a","system_id":"levelo_inurba_marseille","lat":43.24186,"lon":5.39726,"is_reserved":false,"is_disabled":false,"rental_uris":{"android":"levelo://app?vid=7d6f153f-5752-4e11-a971-045a7871404a","ios":"levelo://app?vid=7d6f153f-5752-4e11-a971-045a7871404a"},"vehicle_type_id":"4","last_reported":1729426626,"current_range_meters":3600,"station_id":"ce4bhn12rcd13ifvqgpg","pricing_plan_id":"cebpf4jnsgd1na2vs0mg"},{"bike_id":"814a8b4c-43f0-4f31-87f7-0f70c081bccd","system_id":"levelo_inurba_marseille","lat":43.24811,"lon":5.37459,"is_reserved":false,"is_disabled":false,"rental_uris":{"android":"levelo://app?vid=814a8b4c-43f0-4f31-87f7-0f70c081bccd","ios":"levelo://app?vid=814a8b4c-43f0-4f31-87f7-0f70c081bccd"},"vehicle_type_id":"4","last_reported":1729426626,"current_range_meters":37600,"station_id":"ce4bhgh2rcd13ifvqfb0","pricing_plan_id":"cebpf4jnsgd1na2vs0mg"},{"bike_id":"f56fb750-eb66-4082-8ca0-1119f172abaf","system_id":"levelo_inurba_marseille","lat":43.30414,"lon":5.41281,"is_reserved":false,"is_disabled":false,"rental_uris":{"android":"levelo://app?vid=f56fb750-eb66-4082-8ca0-1119f172abaf","ios":"levelo://app?vid=f56fb750-eb66-4082-8ca0-1119f172abaf"},"vehicle_type_id":"4","last_reported":1729426626,"current_range_meters":9600,"station_id":"ce4bhop2rcd13ifvqh8g","pricing_plan_id":"cebpf4jnsgd1na2vs0mg"},{"bike_id":"d38cc3f6-a7bf-4256-8001-f9f7f3e311fe","system_id":"levelo_inurba_marseille","lat":43.3211,"lon":5.36766,"is_reserved":false,"is_disabled":false,"rental_uris":{"android":"levelo://app?vid=d38cc3f6-a7bf-4256-8001-f9f7f3e311fe","ios":"levelo://app?vid=d38cc3f6-a7bf-4256-8001-f9f7f3e311fe"},"vehicle_type_id":"4","last_reported":1729426626,"current_range_meters":9600,"station_id":"ce4bhrh2rcd13ifvqhug","pricing_plan_id":"cebpf4jnsgd1na2vs0mg"},{"bike_id":"4b7b00fa-9766-4b0c-8df1-6365545898f4","system_id":"levelo_inurba_marseille","lat":43.24073,"lon":5.37762,"is_reserved":false,"is_disabled":false,"rental_uris":{"android":"levelo://app?vid=4b7b00fa-9766-4b0c-8df1-6365545898f4","ios":"levelo://app?vid=4b7b00fa-9766-4b0c-8df1-6365545898f4"},"vehicle_type_id":"4","last_reported":1729426626,"current_range_meters":24800,"station_id":"ce4bhnp2rcd13ifvqgvg","pricing_plan_id":"cebpf4jnsgd1na2vs0mg"},{"bike_id":"3c0396ed-cb8c-4884-b917-29dda17c7e73","system_id":"levelo_inurba_marseille","lat":43.2985,"lon":5.36287,"is_reserved":false,"is_disabled":false,"rental_uris":{"android":"levelo://app?vid=3c0396ed-cb8c-4884-b917-29dda17c7e73","ios":"levelo://app?vid=3c0396ed-cb8c-4884-b917-29dda17c7e73"},"vehicle_type_id":"4","last_reported":1729426626,"current_range_meters":33200,"station_id":"ce4bgpp2rcd13ifvqc3g","pricing_plan_id":"cebpf4jnsgd1na2vs0mg"},{"bike_id":"481d201b-0f9b-4ded-8406-5042d6b7a84b","system_id":"levelo_inurba_marseille","lat":43.23954,"lon":5.36634,"is_reserved":false,"is_disabled":false,"rental_uris":{"android":"levelo://app?vid=481d201b-0f9b-4ded-8406-5042d6b7a84b","ios":"levelo://app?vid=481d201b-0f9b-4ded-8406-5042d6b7a84b"},"vehicle_type_id":"4","last_reported":1729426626,"current_range_meters":28800,"station_id":"ce4bhi12rcd13ifvqfp0","pricing_plan_id":"cebpf4jnsgd1na2vs0mg"},{"bike_id":"3c542d24-c53e-4899-8c72-748e72210bc5","system_id":"levelo_inurba_marseille","lat":43.22926,"lon":5.35375,"is_reserved":false,"is_disabled":false,"rental_uris":{"android":"levelo://app?vid=3c542d24-c53e-4899-8c72-748e72210bc5","ios":"levelo://app?vid=3c542d24-c53e-4899-8c72-748e72210bc5"},"vehicle_type_id":"4","last_reported":1729426626,"current_range_meters":38000,"station_id":"cpo3532slgdg3j2ikp40","pricing_plan_id":"cebpf4jnsgd1na2vs0mg"},{"bike_id":"6967c4c2-f057-49d9-80b0-41170e417f9c","system_id":"levelo_inurba_marseille","lat":43.24072,"lon":5.37756,"is_reserved":false,"is_disabled":false,"rental_uris":{"android":"levelo://app?vid=6967c4c2-f057-49d9-80b0-41170e417f9c","ios":"levelo://app?vid=6967c4c2-f057-49d9-80b0-41170e417f9c"},"vehicle_type_id":"4","last_reported":1729426626,"current_range_meters":36800,"station_id":"ce4bhnp2rcd13ifvqgvg","pricing_plan_id":"cebpf4jnsgd1na2vs0mg"},{"bike_id":"8a73e7ba-a0f3-44c6-966e-e18fb2e0d01f","system_id":"levelo_inurba_marseille","lat":43.24169,"lon":5.36398,"is_reserved":false,"is_disabled":false,"rental_uris":{"android":"levelo://app?vid=8a73e7ba-a0f3-44c6-966e-e18fb2e0d01f","ios":"levelo://app?vid=8a73e7ba-a0f3-44c6-966e-e18fb2e0d01f"},"vehicle_type_id":"4","last_reported":1729426626,"current_range_meters":24000,"station_id":"cpo36qri1sfpv3e86is0","pricing_plan_id":"cebpf4jnsgd1na2vs0mg"},{"bike_id":"dfa34bab-96b7-4f7c-89c2-301229ba8900","system_id":"levelo_inurba_marseille","lat":43.28266,"lon":5.35062,"is_reserved":false,"is_disabled":false,"rental_uris":{"android":"levelo://app?vid=dfa34bab-96b7-4f7c-89c2-301229ba8900","ios":"levelo://app?vid=dfa34bab-96b7-4f7c-89c2-301229ba8900"},"vehicle_type_id":"4","last_reported":1729426626,"current_range_meters":28800,"station_id":"ce4bhbp2rcd13ifvqerg","pricing_plan_id":"cebpf4jnsgd1na2vs0mg"},{"bike_id":"a32ad750-119b-458f-86b0-67559cab6a5f","system_id":"levelo_inurba_marseille","lat":43.26205,"lon":5.37919,"is_reserved":false,"is_disabled":false,"rental_uris":{"android":"levelo://app?vid=a32ad750-119b-458f-86b0-67559cab6a5f","ios":"levelo://app?vid=a32ad750-119b-458f-86b0-67559cab6a5f"},"vehicle_type_id":"4","last_reported":1729426626,"current_range_meters":37600,"station_id":"ce4bhjp2rcd13ifvqg90","pricing_plan_id":"cebpf4jnsgd1na2vs0mg"},{"bike_id":"9bd08e32-d322-4dc7-95d1-9acfa9aefbf0","system_id":"levelo_inurba_marseille","lat":43.27617,"lon":5.36102,"is_reserved":false,"is_disabled":false,"rental_uris":{"android":"levelo://app?vid=9bd08e32-d322-4dc7-95d1-9acfa9aefbf0","ios":"levelo://app?vid=9bd08e32-d322-4dc7-95d1-9acfa9aefbf0"},"vehicle_type_id":"4","last_reported":1729426626,"current_range_meters":19600,"station_id":"ce4bgj92rcd13ifvqbe0","pricing_plan_id":"cebpf4jnsgd1na2vs0mg"},{"bike_id":"f8160609-ce6f-47e2-ac51-c820fcbc050e","system_id":"levelo_inurba_marseille","lat":43.27175,"lon":5.40992,"is_reserved":false,"is_disabled":false,"rental_uris":{"android":"levelo://app?vid=f8160609-ce6f-47e2-ac51-c820fcbc050e","ios":"levelo://app?vid=f8160609-ce6f-47e2-ac51-c820fcbc050e"},"vehicle_type_id":"4","last_reported":1729426626,"current_range_meters":14800,"station_id":"ce4bhl12rcd13ifvqgf0","pricing_plan_id":"cebpf4jnsgd1na2vs0mg"},{"bike_id":"474ccd54-d884-4c48-ac27-1f7190ae4438","system_id":"levelo_inurba_marseille","lat":43.33721,"lon":5.39191,"is_reserved":false,"is_disabled":false,"rental_uris":{"android":"levelo://app?vid=474ccd54-d884-4c48-ac27-1f7190ae4438","ios":"levelo://app?vid=474ccd54-d884-4c48-ac27-1f7190ae4438"},"vehicle_type_id":"4","last_reported":1729426626,"current_range_meters":7200,"station_id":"ce4bhr92rcd13ifvqhsg","pricing_plan_id":"cebpf4jnsgd1na2vs0mg"},{"bike_id":"ca3a98fb-1eae-48f5-aca4-b718a35664a0","system_id":"levelo_inurba_marseille","lat":43.32321,"lon":5.40597,"is_reserved":false,"is_disabled":false,"rental_uris":{"android":"levelo://app?vid=ca3a98fb-1eae-48f5-aca4-b718a35664a0","ios":"levelo://app?vid=ca3a98fb-1eae-48f5-aca4-b718a35664a0"},"vehicle_type_id":"4","last_reported":1729426626,"current_range_meters":38800,"station_id":"ce4bhq92rcd13ifvqhjg","pricing_plan_id":"cebpf4jnsgd1na2vs0mg"},{"bike_id":"f75bac43-de1c-46ee-b029-720a38aa18a4","system_id":"levelo_inurba_marseille","lat":43.28617,"lon":5.35101,"is_reserved":false,"is_disabled":false,"rental_uris":{"android":"levelo://app?vid=f75bac43-de1c-46ee-b029-720a38aa18a4","ios":"levelo://app?vid=f75bac43-de1c-46ee-b029-720a38aa18a4"},"vehicle_type_id":"4","last_reported":1729426626,"current_range_meters":37600,"station_id":"ce4bhch2rcd13ifvqeug","pricing_plan_id":"cebpf4jnsgd1na2vs0mg"},{"bike_id":"0d79f050-f8f3-4c8e-aa0c-040be63f2cac","system_id":"levelo_inurba_marseille","lat":43.30539,"lon":5.36551,"is_reserved":false,"is_disabled":false,"rental_uris":{"android":"levelo://app?vid=0d79f050-f8f3-4c8e-aa0c-040be63f2cac","ios":"levelo://app?vid=0d79f050-f8f3-4c8e-aa0c-040be63f2cac"},"vehicle_type_id":"4","last_reported":1729426626,"current_range_meters":24400,"station_id":"ce4bgs12rcd13ifvqcag","pricing_plan_id":"cebpf4jnsgd1na2vs0mg"},{"bike_id":"3e5e7d2c-d26e-4d28-8fc0-200041f7a54e","system_id":"levelo_inurba_marseille","lat":43.2558,"lon":5.38226,"is_reserved":false,"is_disabled":false,"rental_uris":{"android":"levelo://app?vid=3e5e7d2c-d26e-4d28-8fc0-200041f7a54e","ios":"levelo://app?vid=3e5e7d2c-d26e-4d28-8fc0-200041f7a54e"},"vehicle_type_id":"4","last_reported":1729426626,"current_range_meters":35200,"station_id":"ce4bhih2rcd13ifvqfs0","pricing_plan_id":"cebpf4jnsgd1na2vs0mg"},{"bike_id":"9d912eba-02a5-41c2-8d48-c02ba9a29689","system_id":"levelo_inurba_marseille","lat":43.27501,"lon":5.42452,"is_reserved":false,"is_disabled":false,"rental_uris":{"android":"levelo://app?vid=9d912eba-02a5-41c2-8d48-c02ba9a29689","ios":"levelo://app?vid=9d912eba-02a5-41c2-8d48-c02ba9a29689"},"vehicle_type_id":"4","last_reported":1729426626,"current_range_meters":36000,"station_id":"ce4bhn92rcd13ifvqgrg","pricing_plan_id":"cebpf4jnsgd1na2vs0mg"},{"bike_id":"d85aed35-4005-4c2e-863d-273016e09085","system_id":"levelo_inurba_marseille","lat":43.24394,"lon":5.37059,"is_reserved":false,"is_disabled":false,"rental_uris":{"android":"levelo://app?vid=d85aed35-4005-4c2e-863d-273016e09085","ios":"levelo://app?vid=d85aed35-4005-4c2e-863d-273016e09085"},"vehicle_type_id":"4","last_reported":1729426626,"current_range_meters":30400,"station_id":"ce4bhhh2rcd13ifvqfk0","pricing_plan_id":"cebpf4jnsgd1na2vs0mg"},{"bike_id":"5b47cbfd-3740-4a35-b9bd-478cf093a87d","system_id":"levelo_inurba_marseille","lat":43.239604,"lon":5.366136,"is_reserved":false,"is_disabled":false,"rental_uris":{"android":"levelo://app?vid=5b47cbfd-3740-4a35-b9bd-478cf093a87d","ios":"levelo://app?vid=5b47cbfd-3740-4a35-b9bd-478cf093a87d"},"vehicle_type_id":"4","last_reported":1729426626,"current_range_meters":24000,"station_id":"ce4bhi12rcd13ifvqfp0","pricing_plan_id":"cebpf4jnsgd1na2vs0mg"},{"bike_id":"fab27dbd-4479-400a-b7f1-4928caefa148","system_id":"levelo_inurba_marseille","lat":43.32591,"lon":5.37442,"is_reserved":false,"is_disabled":false,"rental_uris":{"android":"levelo://app?vid=fab27dbd-4479-400a-b7f1-4928caefa148","ios":"levelo://app?vid=fab27dbd-4479-400a-b7f1-4928caefa148"},"vehicle_type_id":"4","last_reported":1729426626,"current_range_meters":28800,"station_id":"","pricing_plan_id":"cebpf4jnsgd1na2vs0mg"},{"bike_id":"6c4fed87-6be3-4d97-9301-4412accaca73","system_id":"levelo_inurba_marseille","lat":43.23968,"lon":5.36637,"is_reserved":false,"is_disabled":false,"rental_uris":{"android":"levelo://app?vid=6c4fed87-6be3-4d97-9301-4412accaca73","ios":"levelo://app?vid=6c4fed87-6be3-4d97-9301-4412accaca73"},"vehicle_type_id":"4","last_reported":1729426626,"current_range_meters":38000,"station_id":"ce4bhi12rcd13ifvqfp0","pricing_plan_id":"cebpf4jnsgd1na2vs0mg"},{"bike_id":"32c65db3-a0c8-4aca-bd02-3287e5e668b1","system_id":"levelo_inurba_marseille","lat":43.262,"lon":5.37929,"is_reserved":false,"is_disabled":false,"rental_uris":{"android":"levelo://app?vid=32c65db3-a0c8-4aca-bd02-3287e5e668b1","ios":"levelo://app?vid=32c65db3-a0c8-4aca-bd02-3287e5e668b1"},"vehicle_type_id":"4","last_reported":1729426626,"current_range_meters":40000,"station_id":"ce4bhjp2rcd13ifvqg90","pricing_plan_id":"cebpf4jnsgd1na2vs0mg"},{"bike_id":"ab25e50e-031e-49b2-92c3-bc31c1e4e638","system_id":"levelo_inurba_marseille","lat":43.2797,"lon":5.41675,"is_reserved":false,"is_disabled":false,"rental_uris":{"android":"levelo://app?vid=ab25e50e-031e-49b2-92c3-bc31c1e4e638","ios":"levelo://app?vid=ab25e50e-031e-49b2-92c3-bc31c1e4e638"},"vehicle_type_id":"4","last_reported":1729426626,"current_range_meters":8800,"station_id":"ce4bho12rcd13ifvqh1g","pricing_plan_id":"cebpf4jnsgd1na2vs0mg"},{"bike_id":"62319591-138a-49cd-884f-06ae91460ffc","system_id":"levelo_inurba_marseille","lat":43.28254,"lon":5.35078,"is_reserved":false,"is_disabled":false,"rental_uris":{"android":"levelo://app?vid=62319591-138a-49cd-884f-06ae91460ffc","ios":"levelo://app?vid=62319591-138a-49cd-884f-06ae91460ffc"},"vehicle_type_id":"4","last_reported":1729426626,"current_range_meters":23200,"station_id":"ce4bhbp2rcd13ifvqerg","pricing_plan_id":"cebpf4jnsgd1na2vs0mg"},{"bike_id":"57dd0012-e7c2-43e3-90a1-087125ac63fa","system_id":"levelo_inurba_marseille","lat":43.33753,"lon":5.37454,"is_reserved":false,"is_disabled":false,"rental_uris":{"android":"levelo://app?vid=57dd0012-e7c2-43e3-90a1-087125ac63fa","ios":"levelo://app?vid=57dd0012-e7c2-43e3-90a1-087125ac63fa"},"vehicle_type_id":"4","last_reported":1729426626,"current_range_meters":35200,"station_id":"","pricing_plan_id":"cebpf4jnsgd1na2vs0mg"},{"bike_id":"2ce7e9c4-33eb-40f4-a578-5274a9c10cfd","system_id":"levelo_inurba_marseille","lat":43.30686,"lon":5.38266,"is_reserved":false,"is_disabled":false,"rental_uris":{"android":"levelo://app?vid=2ce7e9c4-33eb-40f4-a578-5274a9c10cfd","ios":"levelo://app?vid=2ce7e9c4-33eb-40f4-a578-5274a9c10cfd"},"vehicle_type_id":"4","last_reported":1729426626,"current_range_meters":13600,"station_id":"ce4bgt12rcd13ifvqce0","pricing_plan_id":"cebpf4jnsgd1na2vs0mg"},{"bike_id":"c338d18c-15a5-4b37-ac29-3edabf4c3b12","system_id":"levelo_inurba_marseille","lat":43.24813,"lon":5.37454,"is_reserved":false,"is_disabled":false,"rental_uris":{"android":"levelo://app?vid=c338d18c-15a5-4b37-ac29-3edabf4c3b12","ios":"levelo://app?vid=c338d18c-15a5-4b37-ac29-3edabf4c3b12"},"vehicle_type_id":"4","last_reported":1729426626,"current_range_meters":17200,"station_id":"ce4bhgh2rcd13ifvqfb0","pricing_plan_id":"cebpf4jnsgd1na2vs0mg"},{"bike_id":"308cc78b-7ede-41af-8473-9264aefaaa72","system_id":"levelo_inurba_marseille","lat":43.24806,"lon":5.37455,"is_reserved":false,"is_disabled":false,"rental_uris":{"android":"levelo://app?vid=308cc78b-7ede-41af-8473-9264aefaaa72","ios":"levelo://app?vid=308cc78b-7ede-41af-8473-9264aefaaa72"},"vehicle_type_id":"4","last_reported":1729426626,"current_range_meters":38800,"station_id":"ce4bhgh2rcd13ifvqfb0","pricing_plan_id":"cebpf4jnsgd1na2vs0mg"},{"bike_id":"dfa4fd45-7442-4e05-a44b-1a4daa42f429","system_id":"levelo_inurba_marseille","lat":43.30534,"lon":5.36536,"is_reserved":false,"is_disabled":false,"rental_uris":{"android":"levelo://app?vid=dfa4fd45-7442-4e05-a44b-1a4daa42f429","ios":"levelo://app?vid=dfa4fd45-7442-4e05-a44b-1a4daa42f429"},"vehicle_type_id":"4","last_reported":1729426626,"current_range_meters":25600,"station_id":"ce4bgs12rcd13ifvqcag","pricing_plan_id":"cebpf4jnsgd1na2vs0mg"},{"bike_id":"5694eb7f-ac74-444e-8124-7b93c24b932f","system_id":"levelo_inurba_marseille","lat":43.28615,"lon":5.35101,"is_reserved":false,"is_disabled":false,"rental_uris":{"android":"levelo://app?vid=5694eb7f-ac74-444e-8124-7b93c24b932f","ios":"levelo://app?vid=5694eb7f-ac74-444e-8124-7b93c24b932f"},"vehicle_type_id":"4","last_reported":1729426626,"current_range_meters":19200,"station_id":"ce4bhch2rcd13ifvqeug","pricing_plan_id":"cebpf4jnsgd1na2vs0mg"},{"bike_id":"970ce056-93b7-4b51-889b-8fcf2f52c05f","system_id":"levelo_inurba_marseille","lat":43.24546,"lon":5.39519,"is_reserved":false,"is_disabled":false,"rental_uris":{"android":"levelo://app?vid=970ce056-93b7-4b51-889b-8fcf2f52c05f","ios":"levelo://app?vid=970ce056-93b7-4b51-889b-8fcf2f52c05f"},"vehicle_type_id":"4","last_reported":1729426626,"current_range_meters":8000,"station_id":"ce4bhlp2rcd13ifvqgjg","pricing_plan_id":"cebpf4jnsgd1na2vs0mg"},{"bike_id":"cc07e855-7974-4dca-84bd-768666395044","system_id":"levelo_inurba_marseille","lat":43.28076,"lon":5.39662,"is_reserved":false,"is_disabled":false,"rental_uris":{"android":"levelo://app?vid=cc07e855-7974-4dca-84bd-768666395044","ios":"levelo://app?vid=cc07e855-7974-4dca-84bd-768666395044"},"vehicle_type_id":"4","last_reported":1729426626,"current_range_meters":38400,"station_id":"ce4bho12rcd13ifvqh2g","pricing_plan_id":"cebpf4jnsgd1na2vs0mg"},{"bike_id":"3f330c29-c7e3-4c1d-ac90-30d1aaec240b","system_id":"levelo_inurba_marseille","lat":43.24072,"lon":5.37755,"is_reserved":false,"is_disabled":false,"rental_uris":{"android":"levelo://app?vid=3f330c29-c7e3-4c1d-ac90-30d1aaec240b","ios":"levelo://app?vid=3f330c29-c7e3-4c1d-ac90-30d1aaec240b"},"vehicle_type_id":"4","last_reported":1729426626,"current_range_meters":38400,"station_id":"ce4bhnp2rcd13ifvqgvg","pricing_plan_id":"cebpf4jnsgd1na2vs0mg"},{"bike_id":"23af9b68-aa57-44f4-9090-20e008030c0f","system_id":"levelo_inurba_marseille","lat":43.28615,"lon":5.35108,"is_reserved":false,"is_disabled":false,"rental_uris":{"android":"levelo://app?vid=23af9b68-aa57-44f4-9090-20e008030c0f","ios":"levelo://app?vid=23af9b68-aa57-44f4-9090-20e008030c0f"},"vehicle_type_id":"4","last_reported":1729426626,"current_range_meters":28800,"station_id":"ce4bhch2rcd13ifvqeug","pricing_plan_id":"cebpf4jnsgd1na2vs0mg"},{"bike_id":"196626cd-238d-4d33-b02f-5b68db337528","system_id":"levelo_inurba_marseille","lat":43.22929,"lon":5.35372,"is_reserved":false,"is_disabled":false,"rental_uris":{"android":"levelo://app?vid=196626cd-238d-4d33-b02f-5b68db337528","ios":"levelo://app?vid=196626cd-238d-4d33-b02f-5b68db337528"},"vehicle_type_id":"4","last_reported":1729426626,"current_range_meters":14400,"station_id":"cpo3532slgdg3j2ikp40","pricing_plan_id":"cebpf4jnsgd1na2vs0mg"},{"bike_id":"05074699-0652-40f7-a835-672efae094ff","system_id":"levelo_inurba_marseille","lat":43.27617,"lon":5.36105,"is_reserved":false,"is_disabled":false,"rental_uris":{"android":"levelo://app?vid=05074699-0652-40f7-a835-672efae094ff","ios":"levelo://app?vid=05074699-0652-40f7-a835-672efae094ff"},"vehicle_type_id":"4","last_reported":1729426626,"current_range_meters":6400,"station_id":"ce4bgj92rcd13ifvqbe0","pricing_plan_id":"cebpf4jnsgd1na2vs0mg"},{"bike_id":"343aa4d1-f953-489c-ab86-dc9d91d2a18b","system_id":"levelo_inurba_marseille","lat":43.30395,"lon":5.37006,"is_reserved":false,"is_disabled":false,"rental_uris":{"android":"levelo://app?vid=343aa4d1-f953-489c-ab86-dc9d91d2a18b","ios":"levelo://app?vid=343aa4d1-f953-489c-ab86-dc9d91d2a18b"},"vehicle_type_id":"4","last_reported":1729426626,"current_range_meters":24400,"station_id":"ce4bgnh2rcd13ifvqc0g","pricing_plan_id":"cebpf4jnsgd1na2vs0mg"},{"bike_id":"3fc3344c-8b02-4a3d-b256-2e7a5003b4bf","system_id":"levelo_inurba_marseille","lat":43.23971,"lon":5.36629,"is_reserved":false,"is_disabled":false,"rental_uris":{"android":"levelo://app?vid=3fc3344c-8b02-4a3d-b256-2e7a5003b4bf","ios":"levelo://app?vid=3fc3344c-8b02-4a3d-b256-2e7a5003b4bf"},"vehicle_type_id":"4","last_reported":1729426626,"current_range_meters":12400,"station_id":"ce4bhi12rcd13ifvqfp0","pricing_plan_id":"cebpf4jnsgd1na2vs0mg"},{"bike_id":"292d6b97-abc7-412a-a4f0-bb8a74b2efa3","system_id":"levelo_inurba_marseille","lat":43.302797,"lon":5.377003,"is_reserved":false,"is_disabled":false,"rental_uris":{"android":"levelo://app?vid=292d6b97-abc7-412a-a4f0-bb8a74b2efa3","ios":"levelo://app?vid=292d6b97-abc7-412a-a4f0-bb8a74b2efa3"},"vehicle_type_id":"4","last_reported":1729426626,"current_range_meters":24000,"station_id":"ce4bguh2rcd13ifvqcj0","pricing_plan_id":"cebpf4jnsgd1na2vs0mg"},{"bike_id":"d80f7bf0-5791-4f19-9371-6f9d09508528","system_id":"levelo_inurba_marseille","lat":43.28038,"lon":5.3695,"is_reserved":false,"is_disabled":false,"rental_uris":{"android":"levelo://app?vid=d80f7bf0-5791-4f19-9371-6f9d09508528","ios":"levelo://app?vid=d80f7bf0-5791-4f19-9371-6f9d09508528"},"vehicle_type_id":"4","last_reported":1729426626,"current_range_meters":39200,"station_id":"ce4bha12rcd13ifvqef0","pricing_plan_id":"cebpf4jnsgd1na2vs0mg"},{"bike_id":"8717ecaa-a89f-4018-8468-7a27b2d405af","system_id":"levelo_inurba_marseille","lat":43.30886,"lon":5.37201,"is_reserved":false,"is_disabled":false,"rental_uris":{"android":"levelo://app?vid=8717ecaa-a89f-4018-8468-7a27b2d405af","ios":"levelo://app?vid=8717ecaa-a89f-4018-8468-7a27b2d405af"},"vehicle_type_id":"4","last_reported":1729426626,"current_range_meters":39200,"station_id":"ce4bguh2rcd13ifvqckg","pricing_plan_id":"cebpf4jnsgd1na2vs0mg"},{"bike_id":"afec2c70-793c-49f8-94ae-b04089e6fbc3","system_id":"levelo_inurba_marseille","lat":43.27052,"lon":5.40263,"is_reserved":false,"is_disabled":false,"rental_uris":{"android":"levelo://app?vid=afec2c70-793c-49f8-94ae-b04089e6fbc3","ios":"levelo://app?vid=afec2c70-793c-49f8-94ae-b04089e6fbc3"},"vehicle_type_id":"4","last_reported":1729426626,"current_range_meters":6800,"station_id":"ce4bhk92rcd13ifvqgc0","pricing_plan_id":"cebpf4jnsgd1na2vs0mg"},{"bike_id":"fca55886-769e-4104-8bc2-0030b8dbff79","system_id":"levelo_inurba_marseille","lat":43.240834,"lon":5.37735,"is_reserved":false,"is_disabled":false,"rental_uris":{"android":"levelo://app?vid=fca55886-769e-4104-8bc2-0030b8dbff79","ios":"levelo://app?vid=fca55886-769e-4104-8bc2-0030b8dbff79"},"vehicle_type_id":"4","last_reported":1729426626,"current_range_meters":37600,"station_id":"ce4bhnp2rcd13ifvqgvg","pricing_plan_id":"cebpf4jnsgd1na2vs0mg"},{"bike_id":"f5a1699f-e6f2-4603-95d7-9f8619b25a16","system_id":"levelo_inurba_marseille","lat":43.32416,"lon":5.38374,"is_reserved":false,"is_disabled":false,"rental_uris":{"android":"levelo://app?vid=f5a1699f-e6f2-4603-95d7-9f8619b25a16","ios":"levelo://app?vid=f5a1699f-e6f2-4603-95d7-9f8619b25a16"},"vehicle_type_id":"4","last_reported":1729426626,"current_range_meters":30800,"station_id":"ce4bhqp2rcd13ifvqhog","pricing_plan_id":"cebpf4jnsgd1na2vs0mg"},{"bike_id":"da509711-d065-46d5-bdf4-92d0ee8bba1d","system_id":"levelo_inurba_marseille","lat":43.28263,"lon":5.35057,"is_reserved":false,"is_disabled":false,"rental_uris":{"android":"levelo://app?vid=da509711-d065-46d5-bdf4-92d0ee8bba1d","ios":"levelo://app?vid=da509711-d065-46d5-bdf4-92d0ee8bba1d"},"vehicle_type_id":"4","last_reported":1729426626,"current_range_meters":22000,"station_id":"ce4bhbp2rcd13ifvqerg","pricing_plan_id":"cebpf4jnsgd1na2vs0mg"},{"bike_id":"9576563c-34d9-49a0-a815-6dec8f316950","system_id":"levelo_inurba_marseille","lat":43.25004,"lon":5.38921,"is_reserved":false,"is_disabled":false,"rental_uris":{"android":"levelo://app?vid=9576563c-34d9-49a0-a815-6dec8f316950","ios":"levelo://app?vid=9576563c-34d9-49a0-a815-6dec8f316950"},"vehicle_type_id":"4","last_reported":1729426626,"current_range_meters":17200,"station_id":"ce4bhgp2rcd13ifvqfd0","pricing_plan_id":"cebpf4jnsgd1na2vs0mg"},{"bike_id":"55b3a8f5-19d1-4d08-bf99-ccf2c312bc04","system_id":"levelo_inurba_marseille","lat":43.23189,"lon":5.35545,"is_reserved":false,"is_disabled":false,"rental_uris":{"android":"levelo://app?vid=55b3a8f5-19d1-4d08-bf99-ccf2c312bc04","ios":"levelo://app?vid=55b3a8f5-19d1-4d08-bf99-ccf2c312bc04"},"vehicle_type_id":"4","last_reported":1729426626,"current_range_meters":38000,"station_id":"ce4bhu92rcd13ifvqi70","pricing_plan_id":"cebpf4jnsgd1na2vs0mg"},{"bike_id":"bab89061-c289-4af1-b926-7294305734ac","system_id":"levelo_inurba_marseille","lat":43.32343,"lon":5.40624,"is_reserved":false,"is_disabled":false,"rental_uris":{"android":"levelo://app?vid=bab89061-c289-4af1-b926-7294305734ac","ios":"levelo://app?vid=bab89061-c289-4af1-b926-7294305734ac"},"vehicle_type_id":"4","last_reported":1729426626,"current_range_meters":24000,"station_id":"ce4bhq92rcd13ifvqhjg","pricing_plan_id":"cebpf4jnsgd1na2vs0mg"},{"bike_id":"43d24770-4ece-4a77-a029-fe46e9bde13b","system_id":"levelo_inurba_marseille","lat":43.31573,"lon":5.37414,"is_reserved":false,"is_disabled":false,"rental_uris":{"android":"levelo://app?vid=43d24770-4ece-4a77-a029-fe46e9bde13b","ios":"levelo://app?vid=43d24770-4ece-4a77-a029-fe46e9bde13b"},"vehicle_type_id":"4","last_reported":1729426626,"current_range_meters":36800,"station_id":"","pricing_plan_id":"cebpf4jnsgd1na2vs0mg"},{"bike_id":"36a22f0e-0404-4c45-82de-d845f80feea7","system_id":"levelo_inurba_marseille","lat":43.28263,"lon":5.35063,"is_reserved":false,"is_disabled":false,"rental_uris":{"android":"levelo://app?vid=36a22f0e-0404-4c45-82de-d845f80feea7","ios":"levelo://app?vid=36a22f0e-0404-4c45-82de-d845f80feea7"},"vehicle_type_id":"4","last_reported":1729426626,"current_range_meters":17200,"station_id":"ce4bhbp2rcd13ifvqerg","pricing_plan_id":"cebpf4jnsgd1na2vs0mg"},{"bike_id":"766da900-471d-42f5-8cfa-8db494f945d7","system_id":"levelo_inurba_marseille","lat":43.2893,"lon":5.46041,"is_reserved":false,"is_disabled":false,"rental_uris":{"android":"levelo://app?vid=766da900-471d-42f5-8cfa-8db494f945d7","ios":"levelo://app?vid=766da900-471d-42f5-8cfa-8db494f945d7"},"vehicle_type_id":"4","last_reported":1729426626,"current_range_meters":24800,"station_id":"","pricing_plan_id":"cebpf4jnsgd1na2vs0mg"},{"bike_id":"8e27a1bb-94f1-4044-8b2a-a44b88f9fae1","system_id":"levelo_inurba_marseille","lat":43.28419,"lon":5.34994,"is_reserved":false,"is_disabled":false,"rental_uris":{"android":"levelo://app?vid=8e27a1bb-94f1-4044-8b2a-a44b88f9fae1","ios":"levelo://app?vid=8e27a1bb-94f1-4044-8b2a-a44b88f9fae1"},"vehicle_type_id":"4","last_reported":1729426626,"current_range_meters":39200,"station_id":"ce4bhbh2rcd13ifvqepg","pricing_plan_id":"cebpf4jnsgd1na2vs0mg"},{"bike_id":"b7b171d0-20a2-42ff-9e03-dc0d5ef64b73","system_id":"levelo_inurba_marseille","lat":43.24814,"lon":5.37463,"is_reserved":false,"is_disabled":false,"rental_uris":{"android":"levelo://app?vid=b7b171d0-20a2-42ff-9e03-dc0d5ef64b73","ios":"levelo://app?vid=b7b171d0-20a2-42ff-9e03-dc0d5ef64b73"},"vehicle_type_id":"4","last_reported":1729426626,"current_range_meters":6400,"station_id":"ce4bhgh2rcd13ifvqfb0","pricing_plan_id":"cebpf4jnsgd1na2vs0mg"},{"bike_id":"6a36af8c-e897-4b67-8faa-aa137db09c68","system_id":"levelo_inurba_marseille","lat":43.27617,"lon":5.36103,"is_reserved":false,"is_disabled":false,"rental_uris":{"android":"levelo://app?vid=6a36af8c-e897-4b67-8faa-aa137db09c68","ios":"levelo://app?vid=6a36af8c-e897-4b67-8faa-aa137db09c68"},"vehicle_type_id":"4","last_reported":1729426626,"current_range_meters":20000,"station_id":"ce4bgj92rcd13ifvqbe0","pricing_plan_id":"cebpf4jnsgd1na2vs0mg"},{"bike_id":"c0a6d34d-4bf7-45bf-9b33-e3be8a4d182d","system_id":"levelo_inurba_marseille","lat":43.26206,"lon":5.37927,"is_reserved":false,"is_disabled":false,"rental_uris":{"android":"levelo://app?vid=c0a6d34d-4bf7-45bf-9b33-e3be8a4d182d","ios":"levelo://app?vid=c0a6d34d-4bf7-45bf-9b33-e3be8a4d182d"},"vehicle_type_id":"4","last_reported":1729426626,"current_range_meters":36800,"station_id":"ce4bhjp2rcd13ifvqg90","pricing_plan_id":"cebpf4jnsgd1na2vs0mg"},{"bike_id":"cc10d048-9360-4f1c-b075-bd6d08c1c67a","system_id":"levelo_inurba_marseille","lat":43.24172,"lon":5.36394,"is_reserved":false,"is_disabled":false,"rental_uris":{"android":"levelo://app?vid=cc10d048-9360-4f1c-b075-bd6d08c1c67a","ios":"levelo://app?vid=cc10d048-9360-4f1c-b075-bd6d08c1c67a"},"vehicle_type_id":"4","last_reported":1729426626,"current_range_meters":14400,"station_id":"cpo36qri1sfpv3e86is0","pricing_plan_id":"cebpf4jnsgd1na2vs0mg"},{"bike_id":"61aab6bf-f1b0-4966-a148-ea1e7445d90f","system_id":"levelo_inurba_marseille","lat":43.23962,"lon":5.36632,"is_reserved":false,"is_disabled":false,"rental_uris":{"android":"levelo://app?vid=61aab6bf-f1b0-4966-a148-ea1e7445d90f","ios":"levelo://app?vid=61aab6bf-f1b0-4966-a148-ea1e7445d90f"},"vehicle_type_id":"4","last_reported":1729426626,"current_range_meters":32000,"station_id":"ce4bhi12rcd13ifvqfp0","pricing_plan_id":"cebpf4jnsgd1na2vs0mg"},{"bike_id":"eaa02edc-03ae-47d9-a3e8-c6d20d99646b","system_id":"levelo_inurba_marseille","lat":43.26208,"lon":5.37929,"is_reserved":false,"is_disabled":false,"rental_uris":{"android":"levelo://app?vid=eaa02edc-03ae-47d9-a3e8-c6d20d99646b","ios":"levelo://app?vid=eaa02edc-03ae-47d9-a3e8-c6d20d99646b"},"vehicle_type_id":"4","last_reported":1729426626,"current_range_meters":8000,"station_id":"ce4bhjp2rcd13ifvqg90","pricing_plan_id":"cebpf4jnsgd1na2vs0mg"},{"bike_id":"711326e7-ca8a-4804-bc9c-7fa685b8b01b","system_id":"levelo_inurba_marseille","lat":43.28262,"lon":5.35063,"is_reserved":false,"is_disabled":false,"rental_uris":{"android":"levelo://app?vid=711326e7-ca8a-4804-bc9c-7fa685b8b01b","ios":"levelo://app?vid=711326e7-ca8a-4804-bc9c-7fa685b8b01b"},"vehicle_type_id":"4","last_reported":1729426626,"current_range_meters":11600,"station_id":"ce4bhbp2rcd13ifvqerg","pricing_plan_id":"cebpf4jnsgd1na2vs0mg"},{"bike_id":"6827e683-dc26-4492-aea8-b26fdf2a9add","system_id":"levelo_inurba_marseille","lat":43.32347,"lon":5.40624,"is_reserved":false,"is_disabled":false,"rental_uris":{"android":"levelo://app?vid=6827e683-dc26-4492-aea8-b26fdf2a9add","ios":"levelo://app?vid=6827e683-dc26-4492-aea8-b26fdf2a9add"},"vehicle_type_id":"4","last_reported":1729426626,"current_range_meters":6800,"station_id":"ce4bhq92rcd13ifvqhjg","pricing_plan_id":"cebpf4jnsgd1na2vs0mg"},{"bike_id":"86a11198-6982-43fc-90bd-f6b9523ebc43","system_id":"levelo_inurba_marseille","lat":43.24392,"lon":5.37057,"is_reserved":false,"is_disabled":false,"rental_uris":{"android":"levelo://app?vid=86a11198-6982-43fc-90bd-f6b9523ebc43","ios":"levelo://app?vid=86a11198-6982-43fc-90bd-f6b9523ebc43"},"vehicle_type_id":"4","last_reported":1729426626,"current_range_meters":25200,"station_id":"ce4bhhh2rcd13ifvqfk0","pricing_plan_id":"cebpf4jnsgd1na2vs0mg"},{"bike_id":"b1882188-8392-4751-bcce-6d7d75aef3f7","system_id":"levelo_inurba_marseille","lat":43.258636,"lon":5.398915,"is_reserved":false,"is_disabled":false,"rental_uris":{"android":"levelo://app?vid=b1882188-8392-4751-bcce-6d7d75aef3f7","ios":"levelo://app?vid=b1882188-8392-4751-bcce-6d7d75aef3f7"},"vehicle_type_id":"4","last_reported":1729426626,"current_range_meters":17200,"station_id":"ce4bhl92rcd13ifvqghg","pricing_plan_id":"cebpf4jnsgd1na2vs0mg"},{"bike_id":"7159de11-9a1c-44b6-871e-42a1c1bebd0d","system_id":"levelo_inurba_marseille","lat":43.27996,"lon":5.40011,"is_reserved":false,"is_disabled":false,"rental_uris":{"android":"levelo://app?vid=7159de11-9a1c-44b6-871e-42a1c1bebd0d","ios":"levelo://app?vid=7159de11-9a1c-44b6-871e-42a1c1bebd0d"},"vehicle_type_id":"4","last_reported":1729426626,"current_range_meters":36400,"station_id":"ce4bho92rcd13ifvqh4g","pricing_plan_id":"cebpf4jnsgd1na2vs0mg"},{"bike_id":"0a9187c4-f140-4044-942f-bbc8cc00d685","system_id":"levelo_inurba_marseille","lat":43.26214,"lon":5.37442,"is_reserved":false,"is_disabled":false,"rental_uris":{"android":"levelo://app?vid=0a9187c4-f140-4044-942f-bbc8cc00d685","ios":"levelo://app?vid=0a9187c4-f140-4044-942f-bbc8cc00d685"},"vehicle_type_id":"4","last_reported":1729426626,"current_range_meters":20000,"station_id":"ce4bhgp2rcd13ifvqfc0","pricing_plan_id":"cebpf4jnsgd1na2vs0mg"},{"bike_id":"522bb5dc-efc4-45ac-a026-aafe838b2839","system_id":"levelo_inurba_marseille","lat":43.29785,"lon":5.37096,"is_reserved":false,"is_disabled":false,"rental_uris":{"android":"levelo://app?vid=522bb5dc-efc4-45ac-a026-aafe838b2839","ios":"levelo://app?vid=522bb5dc-efc4-45ac-a026-aafe838b2839"},"vehicle_type_id":"4","last_reported":1729426626,"current_range_meters":36800,"station_id":"ce4bgop2rcd13ifvqc1g","pricing_plan_id":"cebpf4jnsgd1na2vs0mg"},{"bike_id":"556c727f-6769-40b4-8f94-345fbd71ff17","system_id":"levelo_inurba_marseille","lat":43.24384,"lon":5.37058,"is_reserved":false,"is_disabled":false,"rental_uris":{"android":"levelo://app?vid=556c727f-6769-40b4-8f94-345fbd71ff17","ios":"levelo://app?vid=556c727f-6769-40b4-8f94-345fbd71ff17"},"vehicle_type_id":"4","last_reported":1729426626,"current_range_meters":30800,"station_id":"ce4bhhh2rcd13ifvqfk0","pricing_plan_id":"cebpf4jnsgd1na2vs0mg"},{"bike_id":"dacfc94d-6140-480f-845a-f5ed00233451","system_id":"levelo_inurba_marseille","lat":43.23965,"lon":5.3663,"is_reserved":false,"is_disabled":false,"rental_uris":{"android":"levelo://app?vid=dacfc94d-6140-480f-845a-f5ed00233451","ios":"levelo://app?vid=dacfc94d-6140-480f-845a-f5ed00233451"},"vehicle_type_id":"4","last_reported":1729426626,"current_range_meters":12400,"station_id":"ce4bhi12rcd13ifvqfp0","pricing_plan_id":"cebpf4jnsgd1na2vs0mg"},{"bike_id":"ec9d3b43-aaa9-4aa1-9332-56a28ff981eb","system_id":"levelo_inurba_marseille","lat":43.33027,"lon":5.39038,"is_reserved":false,"is_disabled":false,"rental_uris":{"android":"levelo://app?vid=ec9d3b43-aaa9-4aa1-9332-56a28ff981eb","ios":"levelo://app?vid=ec9d3b43-aaa9-4aa1-9332-56a28ff981eb"},"vehicle_type_id":"4","last_reported":1729426626,"current_range_meters":39200,"station_id":"ce4bhr92rcd13ifvqhrg","pricing_plan_id":"cebpf4jnsgd1na2vs0mg"},{"bike_id":"7772d39f-5e28-445c-af91-069b0cf63793","system_id":"levelo_inurba_marseille","lat":43.33765,"lon":5.37438,"is_reserved":false,"is_disabled":false,"rental_uris":{"android":"levelo://app?vid=7772d39f-5e28-445c-af91-069b0cf63793","ios":"levelo://app?vid=7772d39f-5e28-445c-af91-069b0cf63793"},"vehicle_type_id":"4","last_reported":1729426626,"current_range_meters":4400,"station_id":"","pricing_plan_id":"cebpf4jnsgd1na2vs0mg"},{"bike_id":"3975a47f-67f5-4f07-9f01-4e393650932b","system_id":"levelo_inurba_marseille","lat":43.283726,"lon":5.386333,"is_reserved":false,"is_disabled":false,"rental_uris":{"android":"levelo://app?vid=3975a47f-67f5-4f07-9f01-4e393650932b","ios":"levelo://app?vid=3975a47f-67f5-4f07-9f01-4e393650932b"},"vehicle_type_id":"4","last_reported":1729426626,"current_range_meters":20000,"station_id":"ce4bh492rcd13ifvqdvg","pricing_plan_id":"cebpf4jnsgd1na2vs0mg"},{"bike_id":"733eb2c5-00ab-4d49-8038-dfb888b12557","system_id":"levelo_inurba_marseille","lat":43.319899,"lon":5.381479,"is_reserved":false,"is_disabled":false,"rental_uris":{"android":"levelo://app?vid=733eb2c5-00ab-4d49-8038-dfb888b12557","ios":"levelo://app?vid=733eb2c5-00ab-4d49-8038-dfb888b12557"},"vehicle_type_id":"4","last_reported":1729426626,"current_range_meters":32400,"station_id":"ce4bhr12rcd13ifvqhpg","pricing_plan_id":"cebpf4jnsgd1na2vs0mg"},{"bike_id":"3213665e-989c-4d22-9f5a-31c8522597dd","system_id":"levelo_inurba_marseille","lat":43.296,"lon":5.36142,"is_reserved":false,"is_disabled":false,"rental_uris":{"android":"levelo://app?vid=3213665e-989c-4d22-9f5a-31c8522597dd","ios":"levelo://app?vid=3213665e-989c-4d22-9f5a-31c8522597dd"},"vehicle_type_id":"4","last_reported":1729426626,"current_range_meters":14800,"station_id":"","pricing_plan_id":"cebpf4jnsgd1na2vs0mg"},{"bike_id":"23bad941-e7bc-4f53-853a-62bdf995de8f","system_id":"levelo_inurba_marseille","lat":43.33025,"lon":5.39042,"is_reserved":false,"is_disabled":false,"rental_uris":{"android":"levelo://app?vid=23bad941-e7bc-4f53-853a-62bdf995de8f","ios":"levelo://app?vid=23bad941-e7bc-4f53-853a-62bdf995de8f"},"vehicle_type_id":"4","last_reported":1729426626,"current_range_meters":33200,"station_id":"ce4bhr92rcd13ifvqhrg","pricing_plan_id":"cebpf4jnsgd1na2vs0mg"},{"bike_id":"3f3c663d-a6fd-4091-8533-6c09ca965902","system_id":"levelo_inurba_marseille","lat":43.31187,"lon":5.37699,"is_reserved":false,"is_disabled":false,"rental_uris":{"android":"levelo://app?vid=3f3c663d-a6fd-4091-8533-6c09ca965902","ios":"levelo://app?vid=3f3c663d-a6fd-4091-8533-6c09ca965902"},"vehicle_type_id":"4","last_reported":1729426626,"current_range_meters":14000,"station_id":"","pricing_plan_id":"cebpf4jnsgd1na2vs0mg"},{"bike_id":"275e8b97-c257-4f5b-9606-c19c9133569b","system_id":"levelo_inurba_marseille","lat":43.294776,"lon":5.363124,"is_reserved":false,"is_disabled":false,"rental_uris":{"android":"levelo://app?vid=275e8b97-c257-4f5b-9606-c19c9133569b","ios":"levelo://app?vid=275e8b97-c257-4f5b-9606-c19c9133569b"},"vehicle_type_id":"4","last_reported":1729426626,"current_range_meters":11200,"station_id":"","pricing_plan_id":"cebpf4jnsgd1na2vs0mg"},{"bike_id":"9a2117f0-c5b0-4dc2-891b-026a24af23f1","system_id":"levelo_inurba_marseille","lat":43.3105,"lon":5.40092,"is_reserved":false,"is_disabled":false,"rental_uris":{"android":"levelo://app?vid=9a2117f0-c5b0-4dc2-891b-026a24af23f1","ios":"levelo://app?vid=9a2117f0-c5b0-4dc2-891b-026a24af23f1"},"vehicle_type_id":"4","last_reported":1729426626,"current_range_meters":35600,"station_id":"","pricing_plan_id":"cebpf4jnsgd1na2vs0mg"},{"bike_id":"7d0bbfce-633d-47d1-974f-f3a665459ca7","system_id":"levelo_inurba_marseille","lat":43.24074,"lon":5.37756,"is_reserved":false,"is_disabled":false,"rental_uris":{"android":"levelo://app?vid=7d0bbfce-633d-47d1-974f-f3a665459ca7","ios":"levelo://app?vid=7d0bbfce-633d-47d1-974f-f3a665459ca7"},"vehicle_type_id":"4","last_reported":1729426626,"current_range_meters":3600,"station_id":"ce4bhnp2rcd13ifvqgvg","pricing_plan_id":"cebpf4jnsgd1na2vs0mg"},{"bike_id":"5dd719ab-a213-4094-b2e1-609f6924f39b","system_id":"levelo_inurba_marseille","lat":43.31995,"lon":5.38153,"is_reserved":false,"is_disabled":false,"rental_uris":{"android":"levelo://app?vid=5dd719ab-a213-4094-b2e1-609f6924f39b","ios":"levelo://app?vid=5dd719ab-a213-4094-b2e1-609f6924f39b"},"vehicle_type_id":"4","last_reported":1729426626,"current_range_meters":39200,"station_id":"ce4bhr12rcd13ifvqhpg","pricing_plan_id":"cebpf4jnsgd1na2vs0mg"},{"bike_id":"87f74975-7f68-45f4-8ae3-bc07ed89608e","system_id":"levelo_inurba_marseille","lat":43.29165,"lon":5.37162,"is_reserved":false,"is_disabled":false,"rental_uris":{"android":"levelo://app?vid=87f74975-7f68-45f4-8ae3-bc07ed89608e","ios":"levelo://app?vid=87f74975-7f68-45f4-8ae3-bc07ed89608e"},"vehicle_type_id":"4","last_reported":1729426626,"current_range_meters":17600,"station_id":"ce4bha92rcd13ifvqeh0","pricing_plan_id":"cebpf4jnsgd1na2vs0mg"},{"bike_id":"d6b5aa84-00bb-41eb-97e4-3549ad6b261b","system_id":"levelo_inurba_marseille","lat":43.31694,"lon":5.4048,"is_reserved":false,"is_disabled":false,"rental_uris":{"android":"levelo://app?vid=d6b5aa84-00bb-41eb-97e4-3549ad6b261b","ios":"levelo://app?vid=d6b5aa84-00bb-41eb-97e4-3549ad6b261b"},"vehicle_type_id":"4","last_reported":1729426626,"current_range_meters":38800,"station_id":"ce4bh012rcd13ifvqd00","pricing_plan_id":"cebpf4jnsgd1na2vs0mg"},{"bike_id":"c170cf43-1d96-469c-ae03-0b95c5121010","system_id":"levelo_inurba_marseille","lat":43.26561,"lon":5.37285,"is_reserved":false,"is_disabled":false,"rental_uris":{"android":"levelo://app?vid=c170cf43-1d96-469c-ae03-0b95c5121010","ios":"levelo://app?vid=c170cf43-1d96-469c-ae03-0b95c5121010"},"vehicle_type_id":"4","last_reported":1729426626,"current_range_meters":30400,"station_id":"ce4bhg12rcd13ifvqf70","pricing_plan_id":"cebpf4jnsgd1na2vs0mg"},{"bike_id":"2a429aa6-0197-4f73-9dbd-b2b190eba55b","system_id":"levelo_inurba_marseille","lat":43.24072,"lon":5.37763,"is_reserved":false,"is_disabled":false,"rental_uris":{"android":"levelo://app?vid=2a429aa6-0197-4f73-9dbd-b2b190eba55b","ios":"levelo://app?vid=2a429aa6-0197-4f73-9dbd-b2b190eba55b"},"vehicle_type_id":"4","last_reported":1729426626,"current_range_meters":30800,"station_id":"ce4bhnp2rcd13ifvqgvg","pricing_plan_id":"cebpf4jnsgd1na2vs0mg"},{"bike_id":"c9d4daa2-f73d-4393-9a40-de9c40088144","system_id":"levelo_inurba_marseille","lat":43.2408,"lon":5.37758,"is_reserved":false,"is_disabled":false,"rental_uris":{"android":"levelo://app?vid=c9d4daa2-f73d-4393-9a40-de9c40088144","ios":"levelo://app?vid=c9d4daa2-f73d-4393-9a40-de9c40088144"},"vehicle_type_id":"4","last_reported":1729426626,"current_range_meters":30400,"station_id":"ce4bhnp2rcd13ifvqgvg","pricing_plan_id":"cebpf4jnsgd1na2vs0mg"},{"bike_id":"fda1f7db-fef2-4498-bda1-5442490fdb47","system_id":"levelo_inurba_marseille","lat":43.32338,"lon":5.40621,"is_reserved":false,"is_disabled":false,"rental_uris":{"android":"levelo://app?vid=fda1f7db-fef2-4498-bda1-5442490fdb47","ios":"levelo://app?vid=fda1f7db-fef2-4498-bda1-5442490fdb47"},"vehicle_type_id":"4","last_reported":1729426626,"current_range_meters":32000,"station_id":"ce4bhq92rcd13ifvqhjg","pricing_plan_id":"cebpf4jnsgd1na2vs0mg"},{"bike_id":"f7b5f56c-96a1-445f-b511-773f0f01cf87","system_id":"levelo_inurba_marseille","lat":43.28156,"lon":5.42645,"is_reserved":false,"is_disabled":false,"rental_uris":{"android":"levelo://app?vid=f7b5f56c-96a1-445f-b511-773f0f01cf87","ios":"levelo://app?vid=f7b5f56c-96a1-445f-b511-773f0f01cf87"},"vehicle_type_id":"4","last_reported":1729426626,"current_range_meters":38400,"station_id":"ce4bhnh2rcd13ifvqgug","pricing_plan_id":"cebpf4jnsgd1na2vs0mg"},{"bike_id":"c6924acb-a4d9-4a80-be4b-a683a7c6687b","system_id":"levelo_inurba_marseille","lat":43.26943,"lon":5.40246,"is_reserved":false,"is_disabled":false,"rental_uris":{"android":"levelo://app?vid=c6924acb-a4d9-4a80-be4b-a683a7c6687b","ios":"levelo://app?vid=c6924acb-a4d9-4a80-be4b-a683a7c6687b"},"vehicle_type_id":"4","last_reported":1729426626,"current_range_meters":36000,"station_id":"cjm6bp8fraef2m0cb0m0","pricing_plan_id":"cebpf4jnsgd1na2vs0mg"},{"bike_id":"dc50ecbe-3136-44fc-b086-84b8eb6916cb","system_id":"levelo_inurba_marseille","lat":43.27495,"lon":5.42455,"is_reserved":false,"is_disabled":false,"rental_uris":{"android":"levelo://app?vid=dc50ecbe-3136-44fc-b086-84b8eb6916cb","ios":"levelo://app?vid=dc50ecbe-3136-44fc-b086-84b8eb6916cb"},"vehicle_type_id":"4","last_reported":1729426626,"current_range_meters":33200,"station_id":"ce4bhn92rcd13ifvqgrg","pricing_plan_id":"cebpf4jnsgd1na2vs0mg"},{"bike_id":"fac9a3a2-2dd0-4efd-afd6-73cc4f4edd9a","system_id":"levelo_inurba_marseille","lat":43.24813,"lon":5.37456,"is_reserved":false,"is_disabled":false,"rental_uris":{"android":"levelo://app?vid=fac9a3a2-2dd0-4efd-afd6-73cc4f4edd9a","ios":"levelo://app?vid=fac9a3a2-2dd0-4efd-afd6-73cc4f4edd9a"},"vehicle_type_id":"4","last_reported":1729426626,"current_range_meters":37600,"station_id":"ce4bhgh2rcd13ifvqfb0","pricing_plan_id":"cebpf4jnsgd1na2vs0mg"},{"bike_id":"c08f1cec-6ad6-432f-8977-a48574272c82","system_id":"levelo_inurba_marseille","lat":43.27976,"lon":5.38743,"is_reserved":false,"is_disabled":false,"rental_uris":{"android":"levelo://app?vid=c08f1cec-6ad6-432f-8977-a48574272c82","ios":"levelo://app?vid=c08f1cec-6ad6-432f-8977-a48574272c82"},"vehicle_type_id":"4","last_reported":1729426626,"current_range_meters":2000,"station_id":"ce4bhg12rcd13ifvqf80","pricing_plan_id":"cebpf4jnsgd1na2vs0mg"},{"bike_id":"cc79ceaa-3d85-4961-b4cc-cd14dbd28844","system_id":"levelo_inurba_marseille","lat":43.26935,"lon":5.38927,"is_reserved":false,"is_disabled":false,"rental_uris":{"android":"levelo://app?vid=cc79ceaa-3d85-4961-b4cc-cd14dbd28844","ios":"levelo://app?vid=cc79ceaa-3d85-4961-b4cc-cd14dbd28844"},"vehicle_type_id":"4","last_reported":1729426626,"current_range_meters":30800,"station_id":"ce4bhhh2rcd13ifvqfl0","pricing_plan_id":"cebpf4jnsgd1na2vs0mg"},{"bike_id":"4ed3b7b0-12d4-404a-ae57-ce540de7a951","system_id":"levelo_inurba_marseille","lat":43.30305,"lon":5.39217,"is_reserved":false,"is_disabled":false,"rental_uris":{"android":"levelo://app?vid=4ed3b7b0-12d4-404a-ae57-ce540de7a951","ios":"levelo://app?vid=4ed3b7b0-12d4-404a-ae57-ce540de7a951"},"vehicle_type_id":"4","last_reported":1729426626,"current_range_meters":8400,"station_id":"ce4bgkh2rcd13ifvqbk0","pricing_plan_id":"cebpf4jnsgd1na2vs0mg"},{"bike_id":"65bdf8a7-581b-4618-bccb-c8132147d71a","system_id":"levelo_inurba_marseille","lat":43.27556,"lon":5.3601,"is_reserved":false,"is_disabled":false,"rental_uris":{"android":"levelo://app?vid=65bdf8a7-581b-4618-bccb-c8132147d71a","ios":"levelo://app?vid=65bdf8a7-581b-4618-bccb-c8132147d71a"},"vehicle_type_id":"4","last_reported":1729426626,"current_range_meters":12400,"station_id":"","pricing_plan_id":"cebpf4jnsgd1na2vs0mg"},{"bike_id":"37bdb805-1258-4442-8bf3-e15aab27fc6a","system_id":"levelo_inurba_marseille","lat":43.261932,"lon":5.374489,"is_reserved":false,"is_disabled":false,"rental_uris":{"android":"levelo://app?vid=37bdb805-1258-4442-8bf3-e15aab27fc6a","ios":"levelo://app?vid=37bdb805-1258-4442-8bf3-e15aab27fc6a"},"vehicle_type_id":"4","last_reported":1729426626,"current_range_meters":37600,"station_id":"ce4bhgp2rcd13ifvqfc0","pricing_plan_id":"cebpf4jnsgd1na2vs0mg"},{"bike_id":"528fef3b-bb8b-42d1-985d-ca1adbc390f0","system_id":"levelo_inurba_marseille","lat":43.24394,"lon":5.37058,"is_reserved":false,"is_disabled":false,"rental_uris":{"android":"levelo://app?vid=528fef3b-bb8b-42d1-985d-ca1adbc390f0","ios":"levelo://app?vid=528fef3b-bb8b-42d1-985d-ca1adbc390f0"},"vehicle_type_id":"4","last_reported":1729426626,"current_range_meters":11200,"station_id":"ce4bhhh2rcd13ifvqfk0","pricing_plan_id":"cebpf4jnsgd1na2vs0mg"},{"bike_id":"1973dd8c-c837-4878-9709-565052d1ef70","system_id":"levelo_inurba_marseille","lat":43.27065,"lon":5.4026,"is_reserved":false,"is_disabled":false,"rental_uris":{"android":"levelo://app?vid=1973dd8c-c837-4878-9709-565052d1ef70","ios":"levelo://app?vid=1973dd8c-c837-4878-9709-565052d1ef70"},"vehicle_type_id":"4","last_reported":1729426626,"current_range_meters":2800,"station_id":"ce4bhk92rcd13ifvqgc0","pricing_plan_id":"cebpf4jnsgd1na2vs0mg"},{"bike_id":"e120d26e-05e1-4715-ac19-c809b2dd28da","system_id":"levelo_inurba_marseille","lat":43.33452,"lon":5.38949,"is_reserved":false,"is_disabled":false,"rental_uris":{"android":"levelo://app?vid=e120d26e-05e1-4715-ac19-c809b2dd28da","ios":"levelo://app?vid=e120d26e-05e1-4715-ac19-c809b2dd28da"},"vehicle_type_id":"4","last_reported":1729426626,"current_range_meters":35200,"station_id":"","pricing_plan_id":"cebpf4jnsgd1na2vs0mg"},{"bike_id":"810861b0-82fa-4233-b719-38b94d59a77d","system_id":"levelo_inurba_marseille","lat":43.28619,"lon":5.35104,"is_reserved":false,"is_disabled":false,"rental_uris":{"android":"levelo://app?vid=810861b0-82fa-4233-b719-38b94d59a77d","ios":"levelo://app?vid=810861b0-82fa-4233-b719-38b94d59a77d"},"vehicle_type_id":"4","last_reported":1729426626,"current_range_meters":24000,"station_id":"ce4bhch2rcd13ifvqeug","pricing_plan_id":"cebpf4jnsgd1na2vs0mg"},{"bike_id":"4cf3e5d8-4f9a-4007-b965-622ecd99339e","system_id":"levelo_inurba_marseille","lat":43.31074,"lon":5.40085,"is_reserved":false,"is_disabled":false,"rental_uris":{"android":"levelo://app?vid=4cf3e5d8-4f9a-4007-b965-622ecd99339e","ios":"levelo://app?vid=4cf3e5d8-4f9a-4007-b965-622ecd99339e"},"vehicle_type_id":"4","last_reported":1729426626,"current_range_meters":8800,"station_id":"","pricing_plan_id":"cebpf4jnsgd1na2vs0mg"},{"bike_id":"c34e2acb-3afe-4aa1-8cdb-c481d100b683","system_id":"levelo_inurba_marseille","lat":43.3249,"lon":5.36569,"is_reserved":false,"is_disabled":false,"rental_uris":{"android":"levelo://app?vid=c34e2acb-3afe-4aa1-8cdb-c481d100b683","ios":"levelo://app?vid=c34e2acb-3afe-4aa1-8cdb-c481d100b683"},"vehicle_type_id":"4","last_reported":1729426626,"current_range_meters":22000,"station_id":"ce4bhs12rcd13ifvqhvg","pricing_plan_id":"cebpf4jnsgd1na2vs0mg"},{"bike_id":"19e0c7ba-a3f7-43e2-aca8-366f22e4e87d","system_id":"levelo_inurba_marseille","lat":43.33722,"lon":5.39186,"is_reserved":false,"is_disabled":false,"rental_uris":{"android":"levelo://app?vid=19e0c7ba-a3f7-43e2-aca8-366f22e4e87d","ios":"levelo://app?vid=19e0c7ba-a3f7-43e2-aca8-366f22e4e87d"},"vehicle_type_id":"4","last_reported":1729426626,"current_range_meters":39200,"station_id":"ce4bhr92rcd13ifvqhsg","pricing_plan_id":"cebpf4jnsgd1na2vs0mg"},{"bike_id":"15c2a934-42b9-4e1e-8fbd-1265aeacd0a9","system_id":"levelo_inurba_marseille","lat":43.30546,"lon":5.367,"is_reserved":false,"is_disabled":false,"rental_uris":{"android":"levelo://app?vid=15c2a934-42b9-4e1e-8fbd-1265aeacd0a9","ios":"levelo://app?vid=15c2a934-42b9-4e1e-8fbd-1265aeacd0a9"},"vehicle_type_id":"4","last_reported":1729426626,"current_range_meters":37600,"station_id":"ce4bgrp2rcd13ifvqc9g","pricing_plan_id":"cebpf4jnsgd1na2vs0mg"},{"bike_id":"f9928a1b-5e01-4359-8549-3825d8c7f41a","system_id":"levelo_inurba_marseille","lat":43.22928,"lon":5.35377,"is_reserved":false,"is_disabled":false,"rental_uris":{"android":"levelo://app?vid=f9928a1b-5e01-4359-8549-3825d8c7f41a","ios":"levelo://app?vid=f9928a1b-5e01-4359-8549-3825d8c7f41a"},"vehicle_type_id":"4","last_reported":1729426626,"current_range_meters":38000,"station_id":"cpo3532slgdg3j2ikp40","pricing_plan_id":"cebpf4jnsgd1na2vs0mg"},{"bike_id":"b3da6c3a-2a10-4172-a1ac-14d12204275b","system_id":"levelo_inurba_marseille","lat":43.27494,"lon":5.4245,"is_reserved":false,"is_disabled":false,"rental_uris":{"android":"levelo://app?vid=b3da6c3a-2a10-4172-a1ac-14d12204275b","ios":"levelo://app?vid=b3da6c3a-2a10-4172-a1ac-14d12204275b"},"vehicle_type_id":"4","last_reported":1729426626,"current_range_meters":40000,"station_id":"ce4bhn92rcd13ifvqgrg","pricing_plan_id":"cebpf4jnsgd1na2vs0mg"},{"bike_id":"f080a266-8e3f-4da2-b052-28c914695c35","system_id":"levelo_inurba_marseille","lat":43.2294,"lon":5.35378,"is_reserved":false,"is_disabled":false,"rental_uris":{"android":"levelo://app?vid=f080a266-8e3f-4da2-b052-28c914695c35","ios":"levelo://app?vid=f080a266-8e3f-4da2-b052-28c914695c35"},"vehicle_type_id":"4","last_reported":1729426626,"current_range_meters":23200,"station_id":"cpo3532slgdg3j2ikp40","pricing_plan_id":"cebpf4jnsgd1na2vs0mg"},{"bike_id":"df79050e-4b09-405e-be7e-48cf6c248ce9","system_id":"levelo_inurba_marseille","lat":43.24809,"lon":5.3746,"is_reserved":false,"is_disabled":false,"rental_uris":{"android":"levelo://app?vid=df79050e-4b09-405e-be7e-48cf6c248ce9","ios":"levelo://app?vid=df79050e-4b09-405e-be7e-48cf6c248ce9"},"vehicle_type_id":"4","last_reported":1729426626,"current_range_meters":36000,"station_id":"ce4bhgh2rcd13ifvqfb0","pricing_plan_id":"cebpf4jnsgd1na2vs0mg"},{"bike_id":"39014377-ce59-428a-a55e-6ca64e7b3e01","system_id":"levelo_inurba_marseille","lat":43.330278,"lon":5.390339,"is_reserved":false,"is_disabled":false,"rental_uris":{"android":"levelo://app?vid=39014377-ce59-428a-a55e-6ca64e7b3e01","ios":"levelo://app?vid=39014377-ce59-428a-a55e-6ca64e7b3e01"},"vehicle_type_id":"4","last_reported":1729426626,"current_range_meters":17200,"station_id":"ce4bhr92rcd13ifvqhrg","pricing_plan_id":"cebpf4jnsgd1na2vs0mg"},{"bike_id":"c73b1daf-27f9-4501-937a-fb865abec6ac","system_id":"levelo_inurba_marseille","lat":43.24172,"lon":5.36389,"is_reserved":false,"is_disabled":false,"rental_uris":{"android":"levelo://app?vid=c73b1daf-27f9-4501-937a-fb865abec6ac","ios":"levelo://app?vid=c73b1daf-27f9-4501-937a-fb865abec6ac"},"vehicle_type_id":"4","last_reported":1729426626,"current_range_meters":20400,"station_id":"cpo36qri1sfpv3e86is0","pricing_plan_id":"cebpf4jnsgd1na2vs0mg"},{"bike_id":"ed1e5003-3313-48b5-8d05-de760221319d","system_id":"levelo_inurba_marseille","lat":43.23063,"lon":5.3549,"is_reserved":false,"is_disabled":false,"rental_uris":{"android":"levelo://app?vid=ed1e5003-3313-48b5-8d05-de760221319d","ios":"levelo://app?vid=ed1e5003-3313-48b5-8d05-de760221319d"},"vehicle_type_id":"4","last_reported":1729426626,"current_range_meters":29600,"station_id":"cpo3342slgdg3j2ifvpg","pricing_plan_id":"cebpf4jnsgd1na2vs0mg"},{"bike_id":"772078c8-c709-4f60-bd2d-f4d6e3aa1011","system_id":"levelo_inurba_marseille","lat":43.30535,"lon":5.36534,"is_reserved":false,"is_disabled":false,"rental_uris":{"android":"levelo://app?vid=772078c8-c709-4f60-bd2d-f4d6e3aa1011","ios":"levelo://app?vid=772078c8-c709-4f60-bd2d-f4d6e3aa1011"},"vehicle_type_id":"4","last_reported":1729426626,"current_range_meters":39200,"station_id":"ce4bgs12rcd13ifvqcag","pricing_plan_id":"cebpf4jnsgd1na2vs0mg"},{"bike_id":"289d734b-fd3d-433c-9cec-60039eadc376","system_id":"levelo_inurba_marseille","lat":43.24809,"lon":5.37455,"is_reserved":false,"is_disabled":false,"rental_uris":{"android":"levelo://app?vid=289d734b-fd3d-433c-9cec-60039eadc376","ios":"levelo://app?vid=289d734b-fd3d-433c-9cec-60039eadc376"},"vehicle_type_id":"4","last_reported":1729426626,"current_range_meters":27200,"station_id":"ce4bhgh2rcd13ifvqfb0","pricing_plan_id":"cebpf4jnsgd1na2vs0mg"},{"bike_id":"251c2ece-8912-4dfb-9847-d8f9ff013dd6","system_id":"levelo_inurba_marseille","lat":43.24672,"lon":5.38162,"is_reserved":false,"is_disabled":false,"rental_uris":{"android":"levelo://app?vid=251c2ece-8912-4dfb-9847-d8f9ff013dd6","ios":"levelo://app?vid=251c2ece-8912-4dfb-9847-d8f9ff013dd6"},"vehicle_type_id":"4","last_reported":1729426626,"current_range_meters":20400,"station_id":"ce4bhih2rcd13ifvqfr0","pricing_plan_id":"cebpf4jnsgd1na2vs0mg"},{"bike_id":"9a3a0a5d-83bb-4455-828c-fcd023da6592","system_id":"levelo_inurba_marseille","lat":43.28274,"lon":5.35071,"is_reserved":false,"is_disabled":false,"rental_uris":{"android":"levelo://app?vid=9a3a0a5d-83bb-4455-828c-fcd023da6592","ios":"levelo://app?vid=9a3a0a5d-83bb-4455-828c-fcd023da6592"},"vehicle_type_id":"4","last_reported":1729426626,"current_range_meters":29600,"station_id":"ce4bhbp2rcd13ifvqerg","pricing_plan_id":"cebpf4jnsgd1na2vs0mg"},{"bike_id":"37a9b937-dad9-426d-b19a-64b71fa803c5","system_id":"levelo_inurba_marseille","lat":43.26213,"lon":5.37925,"is_reserved":false,"is_disabled":false,"rental_uris":{"android":"levelo://app?vid=37a9b937-dad9-426d-b19a-64b71fa803c5","ios":"levelo://app?vid=37a9b937-dad9-426d-b19a-64b71fa803c5"},"vehicle_type_id":"4","last_reported":1729426626,"current_range_meters":7200,"station_id":"ce4bhjp2rcd13ifvqg90","pricing_plan_id":"cebpf4jnsgd1na2vs0mg"},{"bike_id":"595711b7-de3f-41c9-b47f-ff6c3f6c4612","system_id":"levelo_inurba_marseille","lat":43.2307,"lon":5.35491,"is_reserved":false,"is_disabled":false,"rental_uris":{"android":"levelo://app?vid=595711b7-de3f-41c9-b47f-ff6c3f6c4612","ios":"levelo://app?vid=595711b7-de3f-41c9-b47f-ff6c3f6c4612"},"vehicle_type_id":"4","last_reported":1729426626,"current_range_meters":29600,"station_id":"cpo3342slgdg3j2ifvpg","pricing_plan_id":"cebpf4jnsgd1na2vs0mg"},{"bike_id":"7fac4b69-6ffb-4acf-828a-ad9cc15d743b","system_id":"levelo_inurba_marseille","lat":43.292851,"lon":5.374489,"is_reserved":false,"is_disabled":false,"rental_uris":{"android":"levelo://app?vid=7fac4b69-6ffb-4acf-828a-ad9cc15d743b","ios":"levelo://app?vid=7fac4b69-6ffb-4acf-828a-ad9cc15d743b"},"vehicle_type_id":"4","last_reported":1729426626,"current_range_meters":38400,"station_id":"ce4bgi12rcd13ifvqb70","pricing_plan_id":"cebpf4jnsgd1na2vs0mg"},{"bike_id":"4d83fd59-a081-4e64-a4b3-e9047f86d967","system_id":"levelo_inurba_marseille","lat":43.26206,"lon":5.37919,"is_reserved":false,"is_disabled":false,"rental_uris":{"android":"levelo://app?vid=4d83fd59-a081-4e64-a4b3-e9047f86d967","ios":"levelo://app?vid=4d83fd59-a081-4e64-a4b3-e9047f86d967"},"vehicle_type_id":"4","last_reported":1729426626,"current_range_meters":33200,"station_id":"ce4bhjp2rcd13ifvqg90","pricing_plan_id":"cebpf4jnsgd1na2vs0mg"},{"bike_id":"260ddee5-933f-44a5-b275-e71228dc322f","system_id":"levelo_inurba_marseille","lat":43.28261,"lon":5.3507,"is_reserved":false,"is_disabled":false,"rental_uris":{"android":"levelo://app?vid=260ddee5-933f-44a5-b275-e71228dc322f","ios":"levelo://app?vid=260ddee5-933f-44a5-b275-e71228dc322f"},"vehicle_type_id":"4","last_reported":1729426626,"current_range_meters":12400,"station_id":"ce4bhbp2rcd13ifvqerg","pricing_plan_id":"cebpf4jnsgd1na2vs0mg"},{"bike_id":"f3b18d4c-688e-4e02-9104-7f1d559134af","system_id":"levelo_inurba_marseille","lat":43.32099,"lon":5.36774,"is_reserved":false,"is_disabled":false,"rental_uris":{"android":"levelo://app?vid=f3b18d4c-688e-4e02-9104-7f1d559134af","ios":"levelo://app?vid=f3b18d4c-688e-4e02-9104-7f1d559134af"},"vehicle_type_id":"4","last_reported":1729426626,"current_range_meters":36800,"station_id":"ce4bhrh2rcd13ifvqhug","pricing_plan_id":"cebpf4jnsgd1na2vs0mg"},{"bike_id":"99a36e8e-83dc-4174-97c1-e95b5764b998","system_id":"levelo_inurba_marseille","lat":43.23964,"lon":5.36644,"is_reserved":false,"is_disabled":false,"rental_uris":{"android":"levelo://app?vid=99a36e8e-83dc-4174-97c1-e95b5764b998","ios":"levelo://app?vid=99a36e8e-83dc-4174-97c1-e95b5764b998"},"vehicle_type_id":"4","last_reported":1729426626,"current_range_meters":9200,"station_id":"ce4bhi12rcd13ifvqfp0","pricing_plan_id":"cebpf4jnsgd1na2vs0mg"},{"bike_id":"5b189e44-0c94-4078-ad1f-09cce0d67f8f","system_id":"levelo_inurba_marseille","lat":43.25121,"lon":5.40316,"is_reserved":false,"is_disabled":false,"rental_uris":{"android":"levelo://app?vid=5b189e44-0c94-4078-ad1f-09cce0d67f8f","ios":"levelo://app?vid=5b189e44-0c94-4078-ad1f-09cce0d67f8f"},"vehicle_type_id":"4","last_reported":1729426626,"current_range_meters":36000,"station_id":"ce4bhlh2rcd13ifvqgig","pricing_plan_id":"cebpf4jnsgd1na2vs0mg"},{"bike_id":"7656cae0-1271-46ac-b437-516f08e5fbc1","system_id":"levelo_inurba_marseille","lat":43.29529,"lon":5.38542,"is_reserved":false,"is_disabled":false,"rental_uris":{"android":"levelo://app?vid=7656cae0-1271-46ac-b437-516f08e5fbc1","ios":"levelo://app?vid=7656cae0-1271-46ac-b437-516f08e5fbc1"},"vehicle_type_id":"4","last_reported":1729426626,"current_range_meters":26000,"station_id":"ce4bgih2rcd13ifvqba0","pricing_plan_id":"cebpf4jnsgd1na2vs0mg"},{"bike_id":"8a61b0d3-96ba-49fc-af75-dd8176297036","system_id":"levelo_inurba_marseille","lat":43.23959,"lon":5.36626,"is_reserved":false,"is_disabled":false,"rental_uris":{"android":"levelo://app?vid=8a61b0d3-96ba-49fc-af75-dd8176297036","ios":"levelo://app?vid=8a61b0d3-96ba-49fc-af75-dd8176297036"},"vehicle_type_id":"4","last_reported":1729426626,"current_range_meters":9200,"station_id":"ce4bhi12rcd13ifvqfp0","pricing_plan_id":"cebpf4jnsgd1na2vs0mg"},{"bike_id":"97feb68c-5d39-4177-90a2-4fc3e498899d","system_id":"levelo_inurba_marseille","lat":43.240805,"lon":5.377522,"is_reserved":false,"is_disabled":false,"rental_uris":{"android":"levelo://app?vid=97feb68c-5d39-4177-90a2-4fc3e498899d","ios":"levelo://app?vid=97feb68c-5d39-4177-90a2-4fc3e498899d"},"vehicle_type_id":"4","last_reported":1729426626,"current_range_meters":27600,"station_id":"ce4bhnp2rcd13ifvqgvg","pricing_plan_id":"cebpf4jnsgd1na2vs0mg"},{"bike_id":"2baa83a9-7bf2-4493-87d0-b317f699903a","system_id":"levelo_inurba_marseille","lat":43.26678,"lon":5.3827,"is_reserved":false,"is_disabled":false,"rental_uris":{"android":"levelo://app?vid=2baa83a9-7bf2-4493-87d0-b317f699903a","ios":"levelo://app?vid=2baa83a9-7bf2-4493-87d0-b317f699903a"},"vehicle_type_id":"4","last_reported":1729426626,"current_range_meters":34800,"station_id":"ce4bhg92rcd13ifvqf90","pricing_plan_id":"cebpf4jnsgd1na2vs0mg"},{"bike_id":"c7a04eab-e9cd-470c-a7a5-a56dc9407f59","system_id":"levelo_inurba_marseille","lat":43.33025,"lon":5.3904,"is_reserved":false,"is_disabled":false,"rental_uris":{"android":"levelo://app?vid=c7a04eab-e9cd-470c-a7a5-a56dc9407f59","ios":"levelo://app?vid=c7a04eab-e9cd-470c-a7a5-a56dc9407f59"},"vehicle_type_id":"4","last_reported":1729426626,"current_range_meters":39200,"station_id":"ce4bhr92rcd13ifvqhrg","pricing_plan_id":"cebpf4jnsgd1na2vs0mg"},{"bike_id":"f1b5044e-30c1-46cb-8bdb-150db3cbc79b","system_id":"levelo_inurba_marseille","lat":43.25504,"lon":5.37652,"is_reserved":false,"is_disabled":false,"rental_uris":{"android":"levelo://app?vid=f1b5044e-30c1-46cb-8bdb-150db3cbc79b","ios":"levelo://app?vid=f1b5044e-30c1-46cb-8bdb-150db3cbc79b"},"vehicle_type_id":"4","last_reported":1729426626,"current_range_meters":7200,"station_id":"ce4bhh12rcd13ifvqff0","pricing_plan_id":"cebpf4jnsgd1na2vs0mg"},{"bike_id":"5b32d859-0f03-4d2b-8c00-3b5e7fa789ed","system_id":"levelo_inurba_marseille","lat":43.27619,"lon":5.36105,"is_reserved":false,"is_disabled":false,"rental_uris":{"android":"levelo://app?vid=5b32d859-0f03-4d2b-8c00-3b5e7fa789ed","ios":"levelo://app?vid=5b32d859-0f03-4d2b-8c00-3b5e7fa789ed"},"vehicle_type_id":"4","last_reported":1729426626,"current_range_meters":28000,"station_id":"ce4bgj92rcd13ifvqbe0","pricing_plan_id":"cebpf4jnsgd1na2vs0mg"},{"bike_id":"2130d4d9-d511-47a7-bf74-550f0efb9572","system_id":"levelo_inurba_marseille","lat":43.23196,"lon":5.35545,"is_reserved":false,"is_disabled":false,"rental_uris":{"android":"levelo://app?vid=2130d4d9-d511-47a7-bf74-550f0efb9572","ios":"levelo://app?vid=2130d4d9-d511-47a7-bf74-550f0efb9572"},"vehicle_type_id":"4","last_reported":1729426626,"current_range_meters":6000,"station_id":"ce4bhu92rcd13ifvqi70","pricing_plan_id":"cebpf4jnsgd1na2vs0mg"},{"bike_id":"f687862c-56fb-4577-bc09-698df18139c1","system_id":"levelo_inurba_marseille","lat":43.28991,"lon":5.35611,"is_reserved":false,"is_disabled":false,"rental_uris":{"android":"levelo://app?vid=f687862c-56fb-4577-bc09-698df18139c1","ios":"levelo://app?vid=f687862c-56fb-4577-bc09-698df18139c1"},"vehicle_type_id":"4","last_reported":1729426626,"current_range_meters":38000,"station_id":"ce4bhb92rcd13ifvqen0","pricing_plan_id":"cebpf4jnsgd1na2vs0mg"},{"bike_id":"f3b8fde1-9d62-4c14-86e1-66f44c304ae4","system_id":"levelo_inurba_marseille","lat":43.25583,"lon":5.38231,"is_reserved":false,"is_disabled":false,"rental_uris":{"android":"levelo://app?vid=f3b8fde1-9d62-4c14-86e1-66f44c304ae4","ios":"levelo://app?vid=f3b8fde1-9d62-4c14-86e1-66f44c304ae4"},"vehicle_type_id":"4","last_reported":1729426626,"current_range_meters":37600,"station_id":"ce4bhih2rcd13ifvqfs0","pricing_plan_id":"cebpf4jnsgd1na2vs0mg"},{"bike_id":"4f357a8f-803f-4ef1-b82a-19fa9f305e74","system_id":"levelo_inurba_marseille","lat":43.23195,"lon":5.35556,"is_reserved":false,"is_disabled":false,"rental_uris":{"android":"levelo://app?vid=4f357a8f-803f-4ef1-b82a-19fa9f305e74","ios":"levelo://app?vid=4f357a8f-803f-4ef1-b82a-19fa9f305e74"},"vehicle_type_id":"4","last_reported":1729426626,"current_range_meters":37600,"station_id":"ce4bhu92rcd13ifvqi70","pricing_plan_id":"cebpf4jnsgd1na2vs0mg"},{"bike_id":"870a0567-683b-4d05-928b-954fe947f3ad","system_id":"levelo_inurba_marseille","lat":43.30797,"lon":5.38167,"is_reserved":false,"is_disabled":false,"rental_uris":{"android":"levelo://app?vid=870a0567-683b-4d05-928b-954fe947f3ad","ios":"levelo://app?vid=870a0567-683b-4d05-928b-954fe947f3ad"},"vehicle_type_id":"4","last_reported":1729426626,"current_range_meters":36800,"station_id":"","pricing_plan_id":"cebpf4jnsgd1na2vs0mg"},{"bike_id":"57d6c459-9f04-4869-8203-b0341cdb2874","system_id":"levelo_inurba_marseille","lat":43.290009,"lon":5.356181,"is_reserved":false,"is_disabled":false,"rental_uris":{"android":"levelo://app?vid=57d6c459-9f04-4869-8203-b0341cdb2874","ios":"levelo://app?vid=57d6c459-9f04-4869-8203-b0341cdb2874"},"vehicle_type_id":"4","last_reported":1729426626,"current_range_meters":20000,"station_id":"","pricing_plan_id":"cebpf4jnsgd1na2vs0mg"},{"bike_id":"00628067-a533-4c3d-ba92-5303b07ceaf2","system_id":"levelo_inurba_marseille","lat":43.24389,"lon":5.3706,"is_reserved":false,"is_disabled":false,"rental_uris":{"android":"levelo://app?vid=00628067-a533-4c3d-ba92-5303b07ceaf2","ios":"levelo://app?vid=00628067-a533-4c3d-ba92-5303b07ceaf2"},"vehicle_type_id":"4","last_reported":1729426626,"current_range_meters":31200,"station_id":"ce4bhhh2rcd13ifvqfk0","pricing_plan_id":"cebpf4jnsgd1na2vs0mg"},{"bike_id":"340daebb-6a66-448e-8400-393e2fb39548","system_id":"levelo_inurba_marseille","lat":43.30292,"lon":5.37699,"is_reserved":false,"is_disabled":false,"rental_uris":{"android":"levelo://app?vid=340daebb-6a66-448e-8400-393e2fb39548","ios":"levelo://app?vid=340daebb-6a66-448e-8400-393e2fb39548"},"vehicle_type_id":"4","last_reported":1729426626,"current_range_meters":24800,"station_id":"ce4bguh2rcd13ifvqcj0","pricing_plan_id":"cebpf4jnsgd1na2vs0mg"},{"bike_id":"e78e5b07-8aad-4233-8caa-3a2852780ccb","system_id":"levelo_inurba_marseille","lat":43.239642,"lon":5.366335,"is_reserved":false,"is_disabled":false,"rental_uris":{"android":"levelo://app?vid=e78e5b07-8aad-4233-8caa-3a2852780ccb","ios":"levelo://app?vid=e78e5b07-8aad-4233-8caa-3a2852780ccb"},"vehicle_type_id":"4","last_reported":1729426626,"current_range_meters":16800,"station_id":"ce4bhi12rcd13ifvqfp0","pricing_plan_id":"cebpf4jnsgd1na2vs0mg"},{"bike_id":"f84dc825-091c-4127-94bf-0680567bd94d","system_id":"levelo_inurba_marseille","lat":43.28267,"lon":5.35067,"is_reserved":false,"is_disabled":false,"rental_uris":{"android":"levelo://app?vid=f84dc825-091c-4127-94bf-0680567bd94d","ios":"levelo://app?vid=f84dc825-091c-4127-94bf-0680567bd94d"},"vehicle_type_id":"4","last_reported":1729426626,"current_range_meters":40000,"station_id":"ce4bhbp2rcd13ifvqerg","pricing_plan_id":"cebpf4jnsgd1na2vs0mg"},{"bike_id":"9362a3c1-a524-424a-8405-9c9a41216ff5","system_id":"levelo_inurba_marseille","lat":43.28274,"lon":5.35065,"is_reserved":false,"is_disabled":false,"rental_uris":{"android":"levelo://app?vid=9362a3c1-a524-424a-8405-9c9a41216ff5","ios":"levelo://app?vid=9362a3c1-a524-424a-8405-9c9a41216ff5"},"vehicle_type_id":"4","last_reported":1729426626,"current_range_meters":36800,"station_id":"ce4bhbp2rcd13ifvqerg","pricing_plan_id":"cebpf4jnsgd1na2vs0mg"},{"bike_id":"3c807220-758f-40c8-b4f1-96669d1b8d8b","system_id":"levelo_inurba_marseille","lat":43.2319,"lon":5.35557,"is_reserved":false,"is_disabled":false,"rental_uris":{"android":"levelo://app?vid=3c807220-758f-40c8-b4f1-96669d1b8d8b","ios":"levelo://app?vid=3c807220-758f-40c8-b4f1-96669d1b8d8b"},"vehicle_type_id":"4","last_reported":1729426626,"current_range_meters":33600,"station_id":"ce4bhu92rcd13ifvqi70","pricing_plan_id":"cebpf4jnsgd1na2vs0mg"},{"bike_id":"c11b0555-b997-4036-8536-79587f1a9f2e","system_id":"levelo_inurba_marseille","lat":43.27668,"lon":5.38915,"is_reserved":false,"is_disabled":false,"rental_uris":{"android":"levelo://app?vid=c11b0555-b997-4036-8536-79587f1a9f2e","ios":"levelo://app?vid=c11b0555-b997-4036-8536-79587f1a9f2e"},"vehicle_type_id":"4","last_reported":1729426626,"current_range_meters":32400,"station_id":"ce4bhi12rcd13ifvqfo0","pricing_plan_id":"cebpf4jnsgd1na2vs0mg"},{"bike_id":"a6a8cc42-349f-4c39-88e4-0d49c7b3c6f4","system_id":"levelo_inurba_marseille","lat":43.30552,"lon":5.36699,"is_reserved":false,"is_disabled":false,"rental_uris":{"android":"levelo://app?vid=a6a8cc42-349f-4c39-88e4-0d49c7b3c6f4","ios":"levelo://app?vid=a6a8cc42-349f-4c39-88e4-0d49c7b3c6f4"},"vehicle_type_id":"4","last_reported":1729426626,"current_range_meters":39200,"station_id":"ce4bgrp2rcd13ifvqc9g","pricing_plan_id":"cebpf4jnsgd1na2vs0mg"},{"bike_id":"03eb1a7a-6b4f-4ede-b7b4-76daf8714793","system_id":"levelo_inurba_marseille","lat":43.28613,"lon":5.35101,"is_reserved":false,"is_disabled":false,"rental_uris":{"android":"levelo://app?vid=03eb1a7a-6b4f-4ede-b7b4-76daf8714793","ios":"levelo://app?vid=03eb1a7a-6b4f-4ede-b7b4-76daf8714793"},"vehicle_type_id":"4","last_reported":1729426626,"current_range_meters":35200,"station_id":"ce4bhch2rcd13ifvqeug","pricing_plan_id":"cebpf4jnsgd1na2vs0mg"},{"bike_id":"f270f90d-6345-41ad-8276-9b3657e719b0","system_id":"levelo_inurba_marseille","lat":43.25716,"lon":5.41107,"is_reserved":false,"is_disabled":false,"rental_uris":{"android":"levelo://app?vid=f270f90d-6345-41ad-8276-9b3657e719b0","ios":"levelo://app?vid=f270f90d-6345-41ad-8276-9b3657e719b0"},"vehicle_type_id":"4","last_reported":1729426626,"current_range_meters":38000,"station_id":"ce4bhkp2rcd13ifvqgd0","pricing_plan_id":"cebpf4jnsgd1na2vs0mg"},{"bike_id":"97326c49-a318-4a2e-b868-aa5cf70093f1","system_id":"levelo_inurba_marseille","lat":43.313724,"lon":5.384938,"is_reserved":false,"is_disabled":false,"rental_uris":{"android":"levelo://app?vid=97326c49-a318-4a2e-b868-aa5cf70093f1","ios":"levelo://app?vid=97326c49-a318-4a2e-b868-aa5cf70093f1"},"vehicle_type_id":"4","last_reported":1729426626,"current_range_meters":10800,"station_id":"ce4bgt92rcd13ifvqcf0","pricing_plan_id":"cebpf4jnsgd1na2vs0mg"},{"bike_id":"f10582da-07c1-461e-a6b6-e26254547d55","system_id":"levelo_inurba_marseille","lat":43.30538,"lon":5.36546,"is_reserved":false,"is_disabled":false,"rental_uris":{"android":"levelo://app?vid=f10582da-07c1-461e-a6b6-e26254547d55","ios":"levelo://app?vid=f10582da-07c1-461e-a6b6-e26254547d55"},"vehicle_type_id":"4","last_reported":1729426626,"current_range_meters":29600,"station_id":"ce4bgs12rcd13ifvqcag","pricing_plan_id":"cebpf4jnsgd1na2vs0mg"},{"bike_id":"9ccaa89c-2c8e-493a-a971-59d37ec7e21a","system_id":"levelo_inurba_marseille","lat":43.3079,"lon":5.38159,"is_reserved":false,"is_disabled":false,"rental_uris":{"android":"levelo://app?vid=9ccaa89c-2c8e-493a-a971-59d37ec7e21a","ios":"levelo://app?vid=9ccaa89c-2c8e-493a-a971-59d37ec7e21a"},"vehicle_type_id":"4","last_reported":1729426626,"current_range_meters":19600,"station_id":"ce4bgt12rcd13ifvqce0","pricing_plan_id":"cebpf4jnsgd1na2vs0mg"},{"bike_id":"77291753-8c8c-4497-aa81-5ef2d0e5d1d8","system_id":"levelo_inurba_marseille","lat":43.28425,"lon":5.34989,"is_reserved":false,"is_disabled":false,"rental_uris":{"android":"levelo://app?vid=77291753-8c8c-4497-aa81-5ef2d0e5d1d8","ios":"levelo://app?vid=77291753-8c8c-4497-aa81-5ef2d0e5d1d8"},"vehicle_type_id":"4","last_reported":1729426626,"current_range_meters":36000,"station_id":"ce4bhbh2rcd13ifvqepg","pricing_plan_id":"cebpf4jnsgd1na2vs0mg"},{"bike_id":"e10fd716-03c2-448a-a691-b80b0d7cb6a0","system_id":"levelo_inurba_marseille","lat":43.25106,"lon":5.40326,"is_reserved":false,"is_disabled":false,"rental_uris":{"android":"levelo://app?vid=e10fd716-03c2-448a-a691-b80b0d7cb6a0","ios":"levelo://app?vid=e10fd716-03c2-448a-a691-b80b0d7cb6a0"},"vehicle_type_id":"4","last_reported":1729426626,"current_range_meters":8000,"station_id":"ce4bhlh2rcd13ifvqgig","pricing_plan_id":"cebpf4jnsgd1na2vs0mg"},{"bike_id":"d91b6003-a85f-4adb-9a97-e2faaaad2e27","system_id":"levelo_inurba_marseille","lat":43.29264,"lon":5.38447,"is_reserved":false,"is_disabled":false,"rental_uris":{"android":"levelo://app?vid=d91b6003-a85f-4adb-9a97-e2faaaad2e27","ios":"levelo://app?vid=d91b6003-a85f-4adb-9a97-e2faaaad2e27"},"vehicle_type_id":"4","last_reported":1729426626,"current_range_meters":38800,"station_id":"","pricing_plan_id":"cebpf4jnsgd1na2vs0mg"},{"bike_id":"2d4d859a-6a51-4e5c-a842-75354e6e4217","system_id":"levelo_inurba_marseille","lat":43.33017,"lon":5.39036,"is_reserved":false,"is_disabled":false,"rental_uris":{"android":"levelo://app?vid=2d4d859a-6a51-4e5c-a842-75354e6e4217","ios":"levelo://app?vid=2d4d859a-6a51-4e5c-a842-75354e6e4217"},"vehicle_type_id":"4","last_reported":1729426626,"current_range_meters":8000,"station_id":"ce4bhr92rcd13ifvqhrg","pricing_plan_id":"cebpf4jnsgd1na2vs0mg"},{"bike_id":"32e591fd-12db-41f6-b96c-9fe49449c26b","system_id":"levelo_inurba_marseille","lat":43.26557,"lon":5.37286,"is_reserved":false,"is_disabled":false,"rental_uris":{"android":"levelo://app?vid=32e591fd-12db-41f6-b96c-9fe49449c26b","ios":"levelo://app?vid=32e591fd-12db-41f6-b96c-9fe49449c26b"},"vehicle_type_id":"4","last_reported":1729426626,"current_range_meters":31200,"station_id":"ce4bhg12rcd13ifvqf70","pricing_plan_id":"cebpf4jnsgd1na2vs0mg"},{"bike_id":"2d9e3df1-0dca-43ea-b82c-f5159aab9faa","system_id":"levelo_inurba_marseille","lat":43.23967,"lon":5.3663,"is_reserved":false,"is_disabled":false,"rental_uris":{"android":"levelo://app?vid=2d9e3df1-0dca-43ea-b82c-f5159aab9faa","ios":"levelo://app?vid=2d9e3df1-0dca-43ea-b82c-f5159aab9faa"},"vehicle_type_id":"4","last_reported":1729426626,"current_range_meters":19200,"station_id":"ce4bhi12rcd13ifvqfp0","pricing_plan_id":"cebpf4jnsgd1na2vs0mg"},{"bike_id":"3ca15c5d-5e0c-45e2-aca2-9cc5385ce7e9","system_id":"levelo_inurba_marseille","lat":43.25588,"lon":5.38242,"is_reserved":false,"is_disabled":false,"rental_uris":{"android":"levelo://app?vid=3ca15c5d-5e0c-45e2-aca2-9cc5385ce7e9","ios":"levelo://app?vid=3ca15c5d-5e0c-45e2-aca2-9cc5385ce7e9"},"vehicle_type_id":"4","last_reported":1729426626,"current_range_meters":35600,"station_id":"ce4bhih2rcd13ifvqfs0","pricing_plan_id":"cebpf4jnsgd1na2vs0mg"},{"bike_id":"765477b4-7648-4c7a-8240-1916f126a509","system_id":"levelo_inurba_marseille","lat":43.28151,"lon":5.42641,"is_reserved":false,"is_disabled":false,"rental_uris":{"android":"levelo://app?vid=765477b4-7648-4c7a-8240-1916f126a509","ios":"levelo://app?vid=765477b4-7648-4c7a-8240-1916f126a509"},"vehicle_type_id":"4","last_reported":1729426626,"current_range_meters":38000,"station_id":"ce4bhnh2rcd13ifvqgug","pricing_plan_id":"cebpf4jnsgd1na2vs0mg"},{"bike_id":"5c28a995-646a-4a1d-888e-296e57e3c789","system_id":"levelo_inurba_marseille","lat":43.23964,"lon":5.36626,"is_reserved":false,"is_disabled":false,"rental_uris":{"android":"levelo://app?vid=5c28a995-646a-4a1d-888e-296e57e3c789","ios":"levelo://app?vid=5c28a995-646a-4a1d-888e-296e57e3c789"},"vehicle_type_id":"4","last_reported":1729426626,"current_range_meters":31200,"station_id":"ce4bhi12rcd13ifvqfp0","pricing_plan_id":"cebpf4jnsgd1na2vs0mg"},{"bike_id":"ce22d5e5-f59f-4b87-ac60-c00da0fe5a1e","system_id":"levelo_inurba_marseille","lat":43.30283,"lon":5.37708,"is_reserved":false,"is_disabled":false,"rental_uris":{"android":"levelo://app?vid=ce22d5e5-f59f-4b87-ac60-c00da0fe5a1e","ios":"levelo://app?vid=ce22d5e5-f59f-4b87-ac60-c00da0fe5a1e"},"vehicle_type_id":"4","last_reported":1729426626,"current_range_meters":28000,"station_id":"ce4bguh2rcd13ifvqcj0","pricing_plan_id":"cebpf4jnsgd1na2vs0mg"},{"bike_id":"758c6577-fd26-423c-9903-150e329b236b","system_id":"levelo_inurba_marseille","lat":43.283844,"lon":5.350151,"is_reserved":false,"is_disabled":false,"rental_uris":{"android":"levelo://app?vid=758c6577-fd26-423c-9903-150e329b236b","ios":"levelo://app?vid=758c6577-fd26-423c-9903-150e329b236b"},"vehicle_type_id":"4","last_reported":1729426626,"current_range_meters":24800,"station_id":"ce4bhbh2rcd13ifvqepg","pricing_plan_id":"cebpf4jnsgd1na2vs0mg"},{"bike_id":"8cc87ba7-e225-43c5-9ab4-d732a1dc3290","system_id":"levelo_inurba_marseille","lat":43.26558,"lon":5.37281,"is_reserved":false,"is_disabled":false,"rental_uris":{"android":"levelo://app?vid=8cc87ba7-e225-43c5-9ab4-d732a1dc3290","ios":"levelo://app?vid=8cc87ba7-e225-43c5-9ab4-d732a1dc3290"},"vehicle_type_id":"4","last_reported":1729426626,"current_range_meters":38800,"station_id":"ce4bhg12rcd13ifvqf70","pricing_plan_id":"cebpf4jnsgd1na2vs0mg"},{"bike_id":"e9d6bd79-d122-4ee4-91a9-ecfca56c86b9","system_id":"levelo_inurba_marseille","lat":43.24811,"lon":5.37455,"is_reserved":false,"is_disabled":false,"rental_uris":{"android":"levelo://app?vid=e9d6bd79-d122-4ee4-91a9-ecfca56c86b9","ios":"levelo://app?vid=e9d6bd79-d122-4ee4-91a9-ecfca56c86b9"},"vehicle_type_id":"4","last_reported":1729426626,"current_range_meters":34800,"station_id":"ce4bhgh2rcd13ifvqfb0","pricing_plan_id":"cebpf4jnsgd1na2vs0mg"},{"bike_id":"65bc6e41-2612-4747-a497-b726135f9fef","system_id":"levelo_inurba_marseille","lat":43.30284,"lon":5.37698,"is_reserved":false,"is_disabled":false,"rental_uris":{"android":"levelo://app?vid=65bc6e41-2612-4747-a497-b726135f9fef","ios":"levelo://app?vid=65bc6e41-2612-4747-a497-b726135f9fef"},"vehicle_type_id":"4","last_reported":1729426626,"current_range_meters":28000,"station_id":"ce4bguh2rcd13ifvqcj0","pricing_plan_id":"cebpf4jnsgd1na2vs0mg"},{"bike_id":"e92cf24c-f46f-494f-be7e-aebb8099f5b8","system_id":"levelo_inurba_marseille","lat":43.29259,"lon":5.38455,"is_reserved":false,"is_disabled":false,"rental_uris":{"android":"levelo://app?vid=e92cf24c-f46f-494f-be7e-aebb8099f5b8","ios":"levelo://app?vid=e92cf24c-f46f-494f-be7e-aebb8099f5b8"},"vehicle_type_id":"4","last_reported":1729426626,"current_range_meters":11600,"station_id":"","pricing_plan_id":"cebpf4jnsgd1na2vs0mg"},{"bike_id":"8607dfae-0230-4a05-8be2-80542b6f7da9","system_id":"levelo_inurba_marseille","lat":43.24079,"lon":5.37758,"is_reserved":false,"is_disabled":false,"rental_uris":{"android":"levelo://app?vid=8607dfae-0230-4a05-8be2-80542b6f7da9","ios":"levelo://app?vid=8607dfae-0230-4a05-8be2-80542b6f7da9"},"vehicle_type_id":"4","last_reported":1729426626,"current_range_meters":25200,"station_id":"ce4bhnp2rcd13ifvqgvg","pricing_plan_id":"cebpf4jnsgd1na2vs0mg"},{"bike_id":"6bb095cc-b6b0-43e5-99a2-c21b222dad8d","system_id":"levelo_inurba_marseille","lat":43.30193,"lon":5.36625,"is_reserved":false,"is_disabled":false,"rental_uris":{"android":"levelo://app?vid=6bb095cc-b6b0-43e5-99a2-c21b222dad8d","ios":"levelo://app?vid=6bb095cc-b6b0-43e5-99a2-c21b222dad8d"},"vehicle_type_id":"4","last_reported":1729426626,"current_range_meters":29600,"station_id":"ce4bgrh2rcd13ifvqc8g","pricing_plan_id":"cebpf4jnsgd1na2vs0mg"},{"bike_id":"b6df76d1-c624-4a1a-a918-b621c30563c6","system_id":"levelo_inurba_marseille","lat":43.292839,"lon":5.368502,"is_reserved":false,"is_disabled":false,"rental_uris":{"android":"levelo://app?vid=b6df76d1-c624-4a1a-a918-b621c30563c6","ios":"levelo://app?vid=b6df76d1-c624-4a1a-a918-b621c30563c6"},"vehicle_type_id":"4","last_reported":1729426626,"current_range_meters":24000,"station_id":"ce4bhbp2rcd13ifvqesg","pricing_plan_id":"cebpf4jnsgd1na2vs0mg"},{"bike_id":"e9a57a29-0060-4eaf-bd92-e42937846c8e","system_id":"levelo_inurba_marseille","lat":43.26204,"lon":5.37923,"is_reserved":false,"is_disabled":false,"rental_uris":{"android":"levelo://app?vid=e9a57a29-0060-4eaf-bd92-e42937846c8e","ios":"levelo://app?vid=e9a57a29-0060-4eaf-bd92-e42937846c8e"},"vehicle_type_id":"4","last_reported":1729426626,"current_range_meters":32000,"station_id":"ce4bhjp2rcd13ifvqg90","pricing_plan_id":"cebpf4jnsgd1na2vs0mg"},{"bike_id":"401d27b2-8f28-45bb-8c0a-e379ec341dd1","system_id":"levelo_inurba_marseille","lat":43.23963,"lon":5.36636,"is_reserved":false,"is_disabled":false,"rental_uris":{"android":"levelo://app?vid=401d27b2-8f28-45bb-8c0a-e379ec341dd1","ios":"levelo://app?vid=401d27b2-8f28-45bb-8c0a-e379ec341dd1"},"vehicle_type_id":"4","last_reported":1729426626,"current_range_meters":32800,"station_id":"ce4bhi12rcd13ifvqfp0","pricing_plan_id":"cebpf4jnsgd1na2vs0mg"},{"bike_id":"c60af85f-9592-4e88-a71c-3550e8cfd60b","system_id":"levelo_inurba_marseille","lat":43.29562,"lon":5.42296,"is_reserved":false,"is_disabled":false,"rental_uris":{"android":"levelo://app?vid=c60af85f-9592-4e88-a71c-3550e8cfd60b","ios":"levelo://app?vid=c60af85f-9592-4e88-a71c-3550e8cfd60b"},"vehicle_type_id":"4","last_reported":1729426626,"current_range_meters":36800,"station_id":"ce4bhph2rcd13ifvqhdg","pricing_plan_id":"cebpf4jnsgd1na2vs0mg"},{"bike_id":"b4b456c6-b14a-494f-85d5-2a67829603cc","system_id":"levelo_inurba_marseille","lat":43.250824,"lon":5.395236,"is_reserved":false,"is_disabled":false,"rental_uris":{"android":"levelo://app?vid=b4b456c6-b14a-494f-85d5-2a67829603cc","ios":"levelo://app?vid=b4b456c6-b14a-494f-85d5-2a67829603cc"},"vehicle_type_id":"4","last_reported":1729426626,"current_range_meters":39200,"station_id":"ce4bhm12rcd13ifvqgkg","pricing_plan_id":"cebpf4jnsgd1na2vs0mg"},{"bike_id":"723376f2-5652-49c7-93df-a5ff27229e6f","system_id":"levelo_inurba_marseille","lat":43.30551,"lon":5.36553,"is_reserved":false,"is_disabled":false,"rental_uris":{"android":"levelo://app?vid=723376f2-5652-49c7-93df-a5ff27229e6f","ios":"levelo://app?vid=723376f2-5652-49c7-93df-a5ff27229e6f"},"vehicle_type_id":"4","last_reported":1729426626,"current_range_meters":26800,"station_id":"ce4bgs12rcd13ifvqcag","pricing_plan_id":"cebpf4jnsgd1na2vs0mg"},{"bike_id":"f739c5a5-6cc1-4a10-9151-8d8447774477","system_id":"levelo_inurba_marseille","lat":43.28425,"lon":5.3498,"is_reserved":false,"is_disabled":false,"rental_uris":{"android":"levelo://app?vid=f739c5a5-6cc1-4a10-9151-8d8447774477","ios":"levelo://app?vid=f739c5a5-6cc1-4a10-9151-8d8447774477"},"vehicle_type_id":"4","last_reported":1729426626,"current_range_meters":39200,"station_id":"ce4bhbh2rcd13ifvqepg","pricing_plan_id":"cebpf4jnsgd1na2vs0mg"},{"bike_id":"4839a83f-e440-404c-b7e9-c62a7c5aee49","system_id":"levelo_inurba_marseille","lat":43.28264,"lon":5.35064,"is_reserved":false,"is_disabled":false,"rental_uris":{"android":"levelo://app?vid=4839a83f-e440-404c-b7e9-c62a7c5aee49","ios":"levelo://app?vid=4839a83f-e440-404c-b7e9-c62a7c5aee49"},"vehicle_type_id":"4","last_reported":1729426626,"current_range_meters":10800,"station_id":"ce4bhbp2rcd13ifvqerg","pricing_plan_id":"cebpf4jnsgd1na2vs0mg"},{"bike_id":"c61834e5-ab0c-4e12-b32f-eb9d3c1af5fe","system_id":"levelo_inurba_marseille","lat":43.23963,"lon":5.36631,"is_reserved":false,"is_disabled":false,"rental_uris":{"android":"levelo://app?vid=c61834e5-ab0c-4e12-b32f-eb9d3c1af5fe","ios":"levelo://app?vid=c61834e5-ab0c-4e12-b32f-eb9d3c1af5fe"},"vehicle_type_id":"4","last_reported":1729426626,"current_range_meters":16400,"station_id":"ce4bhi12rcd13ifvqfp0","pricing_plan_id":"cebpf4jnsgd1na2vs0mg"},{"bike_id":"5a4b9e84-4c29-4992-b58f-5ff21fd19104","system_id":"levelo_inurba_marseille","lat":43.28616,"lon":5.35102,"is_reserved":false,"is_disabled":false,"rental_uris":{"android":"levelo://app?vid=5a4b9e84-4c29-4992-b58f-5ff21fd19104","ios":"levelo://app?vid=5a4b9e84-4c29-4992-b58f-5ff21fd19104"},"vehicle_type_id":"4","last_reported":1729426626,"current_range_meters":32400,"station_id":"ce4bhch2rcd13ifvqeug","pricing_plan_id":"cebpf4jnsgd1na2vs0mg"},{"bike_id":"6cff2b33-2d4a-4ddb-8907-615c25ea9c3a","system_id":"levelo_inurba_marseille","lat":43.27993,"lon":5.40006,"is_reserved":false,"is_disabled":false,"rental_uris":{"android":"levelo://app?vid=6cff2b33-2d4a-4ddb-8907-615c25ea9c3a","ios":"levelo://app?vid=6cff2b33-2d4a-4ddb-8907-615c25ea9c3a"},"vehicle_type_id":"4","last_reported":1729426626,"current_range_meters":38800,"station_id":"ce4bho92rcd13ifvqh4g","pricing_plan_id":"cebpf4jnsgd1na2vs0mg"},{"bike_id":"6e27de4f-dac0-4416-b02c-81432325287c","system_id":"levelo_inurba_marseille","lat":43.26204,"lon":5.37929,"is_reserved":false,"is_disabled":false,"rental_uris":{"android":"levelo://app?vid=6e27de4f-dac0-4416-b02c-81432325287c","ios":"levelo://app?vid=6e27de4f-dac0-4416-b02c-81432325287c"},"vehicle_type_id":"4","last_reported":1729426626,"current_range_meters":34000,"station_id":"ce4bhjp2rcd13ifvqg90","pricing_plan_id":"cebpf4jnsgd1na2vs0mg"},{"bike_id":"540ce8d7-114b-45dd-b93f-49a6b1e2ace9","system_id":"levelo_inurba_marseille","lat":43.30464,"lon":5.37906,"is_reserved":false,"is_disabled":false,"rental_uris":{"android":"levelo://app?vid=540ce8d7-114b-45dd-b93f-49a6b1e2ace9","ios":"levelo://app?vid=540ce8d7-114b-45dd-b93f-49a6b1e2ace9"},"vehicle_type_id":"4","last_reported":1729426626,"current_range_meters":8800,"station_id":"ce4bgup2rcd13ifvqcn0","pricing_plan_id":"cebpf4jnsgd1na2vs0mg"},{"bike_id":"d264cdfc-eab2-48ad-9764-547090685177","system_id":"levelo_inurba_marseille","lat":43.305481,"lon":5.365688,"is_reserved":false,"is_disabled":false,"rental_uris":{"android":"levelo://app?vid=d264cdfc-eab2-48ad-9764-547090685177","ios":"levelo://app?vid=d264cdfc-eab2-48ad-9764-547090685177"},"vehicle_type_id":"4","last_reported":1729426626,"current_range_meters":15200,"station_id":"ce4bgs12rcd13ifvqcag","pricing_plan_id":"cebpf4jnsgd1na2vs0mg"},{"bike_id":"20a94bec-8087-4e92-b814-befa0cd17562","system_id":"levelo_inurba_marseille","lat":43.26943,"lon":5.40253,"is_reserved":false,"is_disabled":false,"rental_uris":{"android":"levelo://app?vid=20a94bec-8087-4e92-b814-befa0cd17562","ios":"levelo://app?vid=20a94bec-8087-4e92-b814-befa0cd17562"},"vehicle_type_id":"4","last_reported":1729426626,"current_range_meters":35200,"station_id":"cjm6bp8fraef2m0cb0m0","pricing_plan_id":"cebpf4jnsgd1na2vs0mg"},{"bike_id":"d4418a5f-a224-4573-8be4-789d8396df93","system_id":"levelo_inurba_marseille","lat":43.270675,"lon":5.422821,"is_reserved":false,"is_disabled":false,"rental_uris":{"android":"levelo://app?vid=d4418a5f-a224-4573-8be4-789d8396df93","ios":"levelo://app?vid=d4418a5f-a224-4573-8be4-789d8396df93"},"vehicle_type_id":"4","last_reported":1729426626,"current_range_meters":30000,"station_id":"ce4bhn92rcd13ifvqgrg","pricing_plan_id":"cebpf4jnsgd1na2vs0mg"},{"bike_id":"6cc418fa-a518-485b-aa9f-9b0034a1822e","system_id":"levelo_inurba_marseille","lat":43.26195,"lon":5.37927,"is_reserved":false,"is_disabled":false,"rental_uris":{"android":"levelo://app?vid=6cc418fa-a518-485b-aa9f-9b0034a1822e","ios":"levelo://app?vid=6cc418fa-a518-485b-aa9f-9b0034a1822e"},"vehicle_type_id":"4","last_reported":1729426626,"current_range_meters":39200,"station_id":"ce4bhjp2rcd13ifvqg90","pricing_plan_id":"cebpf4jnsgd1na2vs0mg"},{"bike_id":"4237405c-9e6b-4a04-b9b9-8793afd0eedb","system_id":"levelo_inurba_marseille","lat":43.3211,"lon":5.36775,"is_reserved":false,"is_disabled":false,"rental_uris":{"android":"levelo://app?vid=4237405c-9e6b-4a04-b9b9-8793afd0eedb","ios":"levelo://app?vid=4237405c-9e6b-4a04-b9b9-8793afd0eedb"},"vehicle_type_id":"4","last_reported":1729426626,"current_range_meters":26800,"station_id":"ce4bhrh2rcd13ifvqhug","pricing_plan_id":"cebpf4jnsgd1na2vs0mg"},{"bike_id":"f6647f52-fed5-4e91-8ca8-e122c06660cc","system_id":"levelo_inurba_marseille","lat":43.22936,"lon":5.35378,"is_reserved":false,"is_disabled":false,"rental_uris":{"android":"levelo://app?vid=f6647f52-fed5-4e91-8ca8-e122c06660cc","ios":"levelo://app?vid=f6647f52-fed5-4e91-8ca8-e122c06660cc"},"vehicle_type_id":"4","last_reported":1729426626,"current_range_meters":19600,"station_id":"cpo3532slgdg3j2ikp40","pricing_plan_id":"cebpf4jnsgd1na2vs0mg"},{"bike_id":"7e4aab87-88f2-4318-a981-5f11b7abe31a","system_id":"levelo_inurba_marseille","lat":43.33023,"lon":5.39043,"is_reserved":false,"is_disabled":false,"rental_uris":{"android":"levelo://app?vid=7e4aab87-88f2-4318-a981-5f11b7abe31a","ios":"levelo://app?vid=7e4aab87-88f2-4318-a981-5f11b7abe31a"},"vehicle_type_id":"4","last_reported":1729426626,"current_range_meters":20400,"station_id":"ce4bhr92rcd13ifvqhrg","pricing_plan_id":"cebpf4jnsgd1na2vs0mg"},{"bike_id":"4e3cd3aa-d264-47e2-bf7d-7984e0983bb8","system_id":"levelo_inurba_marseille","lat":43.28263,"lon":5.35063,"is_reserved":false,"is_disabled":false,"rental_uris":{"android":"levelo://app?vid=4e3cd3aa-d264-47e2-bf7d-7984e0983bb8","ios":"levelo://app?vid=4e3cd3aa-d264-47e2-bf7d-7984e0983bb8"},"vehicle_type_id":"4","last_reported":1729426626,"current_range_meters":28000,"station_id":"ce4bhbp2rcd13ifvqerg","pricing_plan_id":"cebpf4jnsgd1na2vs0mg"},{"bike_id":"373022c6-0c5e-4ab5-a096-0f5e1d5769b4","system_id":"levelo_inurba_marseille","lat":43.25204,"lon":5.373421,"is_reserved":false,"is_disabled":false,"rental_uris":{"android":"levelo://app?vid=373022c6-0c5e-4ab5-a096-0f5e1d5769b4","ios":"levelo://app?vid=373022c6-0c5e-4ab5-a096-0f5e1d5769b4"},"vehicle_type_id":"4","last_reported":1729426626,"current_range_meters":2800,"station_id":"","pricing_plan_id":"cebpf4jnsgd1na2vs0mg"},{"bike_id":"c3f0c283-b452-4e4f-a5af-890f36eb2134","system_id":"levelo_inurba_marseille","lat":43.2417,"lon":5.36402,"is_reserved":false,"is_disabled":false,"rental_uris":{"android":"levelo://app?vid=c3f0c283-b452-4e4f-a5af-890f36eb2134","ios":"levelo://app?vid=c3f0c283-b452-4e4f-a5af-890f36eb2134"},"vehicle_type_id":"4","last_reported":1729426626,"current_range_meters":26800,"station_id":"cpo36qri1sfpv3e86is0","pricing_plan_id":"cebpf4jnsgd1na2vs0mg"},{"bike_id":"526786c0-12c6-4dc3-a415-c5c3eccedd1c","system_id":"levelo_inurba_marseille","lat":43.28408,"lon":5.34985,"is_reserved":false,"is_disabled":false,"rental_uris":{"android":"levelo://app?vid=526786c0-12c6-4dc3-a415-c5c3eccedd1c","ios":"levelo://app?vid=526786c0-12c6-4dc3-a415-c5c3eccedd1c"},"vehicle_type_id":"4","last_reported":1729426626,"current_range_meters":37600,"station_id":"ce4bhbh2rcd13ifvqepg","pricing_plan_id":"cebpf4jnsgd1na2vs0mg"},{"bike_id":"9607628f-1765-4d4c-bf7f-ec7512d6ee9b","system_id":"levelo_inurba_marseille","lat":43.2815,"lon":5.42637,"is_reserved":false,"is_disabled":false,"rental_uris":{"android":"levelo://app?vid=9607628f-1765-4d4c-bf7f-ec7512d6ee9b","ios":"levelo://app?vid=9607628f-1765-4d4c-bf7f-ec7512d6ee9b"},"vehicle_type_id":"4","last_reported":1729426626,"current_range_meters":38400,"station_id":"ce4bhnh2rcd13ifvqgug","pricing_plan_id":"cebpf4jnsgd1na2vs0mg"},{"bike_id":"996b68ea-a3b8-48c9-9cf2-f66df1d63882","system_id":"levelo_inurba_marseille","lat":43.23194,"lon":5.35547,"is_reserved":false,"is_disabled":false,"rental_uris":{"android":"levelo://app?vid=996b68ea-a3b8-48c9-9cf2-f66df1d63882","ios":"levelo://app?vid=996b68ea-a3b8-48c9-9cf2-f66df1d63882"},"vehicle_type_id":"4","last_reported":1729426626,"current_range_meters":11600,"station_id":"ce4bhu92rcd13ifvqi70","pricing_plan_id":"cebpf4jnsgd1na2vs0mg"},{"bike_id":"eec98611-20a2-4d13-a256-fcb8c41f9648","system_id":"levelo_inurba_marseille","lat":43.28776,"lon":5.36251,"is_reserved":false,"is_disabled":false,"rental_uris":{"android":"levelo://app?vid=eec98611-20a2-4d13-a256-fcb8c41f9648","ios":"levelo://app?vid=eec98611-20a2-4d13-a256-fcb8c41f9648"},"vehicle_type_id":"4","last_reported":1729426626,"current_range_meters":4400,"station_id":"","pricing_plan_id":"cebpf4jnsgd1na2vs0mg"},{"bike_id":"54029cec-632b-4b52-9781-9fdf111eb2d5","system_id":"levelo_inurba_marseille","lat":43.27177,"lon":5.40997,"is_reserved":false,"is_disabled":false,"rental_uris":{"android":"levelo://app?vid=54029cec-632b-4b52-9781-9fdf111eb2d5","ios":"levelo://app?vid=54029cec-632b-4b52-9781-9fdf111eb2d5"},"vehicle_type_id":"4","last_reported":1729426626,"current_range_meters":36000,"station_id":"ce4bhl12rcd13ifvqgf0","pricing_plan_id":"cebpf4jnsgd1na2vs0mg"},{"bike_id":"fd56fad5-0d0a-497f-9fc8-517192667c56","system_id":"levelo_inurba_marseille","lat":43.25115,"lon":5.4032,"is_reserved":false,"is_disabled":false,"rental_uris":{"android":"levelo://app?vid=fd56fad5-0d0a-497f-9fc8-517192667c56","ios":"levelo://app?vid=fd56fad5-0d0a-497f-9fc8-517192667c56"},"vehicle_type_id":"4","last_reported":1729426626,"current_range_meters":18000,"station_id":"ce4bhlh2rcd13ifvqgig","pricing_plan_id":"cebpf4jnsgd1na2vs0mg"},{"bike_id":"4b3496a2-d393-48e7-b24c-bc5f8d6f4d51","system_id":"levelo_inurba_marseille","lat":43.239648,"lon":5.366228,"is_reserved":false,"is_disabled":false,"rental_uris":{"android":"levelo://app?vid=4b3496a2-d393-48e7-b24c-bc5f8d6f4d51","ios":"levelo://app?vid=4b3496a2-d393-48e7-b24c-bc5f8d6f4d51"},"vehicle_type_id":"4","last_reported":1729426626,"current_range_meters":30000,"station_id":"ce4bhi12rcd13ifvqfp0","pricing_plan_id":"cebpf4jnsgd1na2vs0mg"},{"bike_id":"e14d615c-73ea-431a-9ff6-0ed950a9fac7","system_id":"levelo_inurba_marseille","lat":43.24391,"lon":5.37061,"is_reserved":false,"is_disabled":false,"rental_uris":{"android":"levelo://app?vid=e14d615c-73ea-431a-9ff6-0ed950a9fac7","ios":"levelo://app?vid=e14d615c-73ea-431a-9ff6-0ed950a9fac7"},"vehicle_type_id":"4","last_reported":1729426626,"current_range_meters":33600,"station_id":"ce4bhhh2rcd13ifvqfk0","pricing_plan_id":"cebpf4jnsgd1na2vs0mg"},{"bike_id":"c1809a21-98aa-4f16-a704-c32693a2c618","system_id":"levelo_inurba_marseille","lat":43.28259,"lon":5.35068,"is_reserved":false,"is_disabled":false,"rental_uris":{"android":"levelo://app?vid=c1809a21-98aa-4f16-a704-c32693a2c618","ios":"levelo://app?vid=c1809a21-98aa-4f16-a704-c32693a2c618"},"vehicle_type_id":"4","last_reported":1729426626,"current_range_meters":11200,"station_id":"ce4bhbp2rcd13ifvqerg","pricing_plan_id":"cebpf4jnsgd1na2vs0mg"},{"bike_id":"5718e6ed-b2a3-4a85-8e09-3286ddf2bbc5","system_id":"levelo_inurba_marseille","lat":43.28271,"lon":5.35059,"is_reserved":false,"is_disabled":false,"rental_uris":{"android":"levelo://app?vid=5718e6ed-b2a3-4a85-8e09-3286ddf2bbc5","ios":"levelo://app?vid=5718e6ed-b2a3-4a85-8e09-3286ddf2bbc5"},"vehicle_type_id":"4","last_reported":1729426626,"current_range_meters":12800,"station_id":"ce4bhbp2rcd13ifvqerg","pricing_plan_id":"cebpf4jnsgd1na2vs0mg"},{"bike_id":"85d6ae4a-fd40-410f-922a-94853aa96e25","system_id":"levelo_inurba_marseille","lat":43.30949,"lon":5.390317,"is_reserved":false,"is_disabled":false,"rental_uris":{"android":"levelo://app?vid=85d6ae4a-fd40-410f-922a-94853aa96e25","ios":"levelo://app?vid=85d6ae4a-fd40-410f-922a-94853aa96e25"},"vehicle_type_id":"4","last_reported":1729426626,"current_range_meters":33200,"station_id":"ce4bgup2rcd13ifvqco0","pricing_plan_id":"cebpf4jnsgd1na2vs0mg"},{"bike_id":"3c63acc5-e1f7-42b2-9526-3daa93ac094f","system_id":"levelo_inurba_marseille","lat":43.24386,"lon":5.37058,"is_reserved":false,"is_disabled":false,"rental_uris":{"android":"levelo://app?vid=3c63acc5-e1f7-42b2-9526-3daa93ac094f","ios":"levelo://app?vid=3c63acc5-e1f7-42b2-9526-3daa93ac094f"},"vehicle_type_id":"4","last_reported":1729426626,"current_range_meters":40000,"station_id":"ce4bhhh2rcd13ifvqfk0","pricing_plan_id":"cebpf4jnsgd1na2vs0mg"},{"bike_id":"1df04ed7-b66f-4272-a385-5e547e447919","system_id":"levelo_inurba_marseille","lat":43.298019,"lon":5.381053,"is_reserved":false,"is_disabled":false,"rental_uris":{"android":"levelo://app?vid=1df04ed7-b66f-4272-a385-5e547e447919","ios":"levelo://app?vid=1df04ed7-b66f-4272-a385-5e547e447919"},"vehicle_type_id":"4","last_reported":1729426626,"current_range_meters":10000,"station_id":"ce4bgip2rcd13ifvqbb0","pricing_plan_id":"cebpf4jnsgd1na2vs0mg"},{"bike_id":"838e3ee8-b1c1-4b48-97d6-eb042ab736b7","system_id":"levelo_inurba_marseille","lat":43.23965,"lon":5.36627,"is_reserved":false,"is_disabled":false,"rental_uris":{"android":"levelo://app?vid=838e3ee8-b1c1-4b48-97d6-eb042ab736b7","ios":"levelo://app?vid=838e3ee8-b1c1-4b48-97d6-eb042ab736b7"},"vehicle_type_id":"4","last_reported":1729426626,"current_range_meters":28400,"station_id":"ce4bhi12rcd13ifvqfp0","pricing_plan_id":"cebpf4jnsgd1na2vs0mg"},{"bike_id":"e9a6d85d-70e2-402b-90eb-502b3aedbdb3","system_id":"levelo_inurba_marseille","lat":43.29146,"lon":5.37922,"is_reserved":false,"is_disabled":false,"rental_uris":{"android":"levelo://app?vid=e9a6d85d-70e2-402b-90eb-502b3aedbdb3","ios":"levelo://app?vid=e9a6d85d-70e2-402b-90eb-502b3aedbdb3"},"vehicle_type_id":"4","last_reported":1729426626,"current_range_meters":9200,"station_id":"","pricing_plan_id":"cebpf4jnsgd1na2vs0mg"},{"bike_id":"59c616fb-ad54-4f24-bbca-d26836e35d95","system_id":"levelo_inurba_marseille","lat":43.29901,"lon":5.43661,"is_reserved":false,"is_disabled":false,"rental_uris":{"android":"levelo://app?vid=59c616fb-ad54-4f24-bbca-d26836e35d95","ios":"levelo://app?vid=59c616fb-ad54-4f24-bbca-d26836e35d95"},"vehicle_type_id":"4","last_reported":1729426626,"current_range_meters":8800,"station_id":"ce4bhpp2rcd13ifvqhfg","pricing_plan_id":"cebpf4jnsgd1na2vs0mg"},{"bike_id":"b2d9d5f5-c022-4e21-91b7-4d5d66c65713","system_id":"levelo_inurba_marseille","lat":43.32102,"lon":5.36775,"is_reserved":false,"is_disabled":false,"rental_uris":{"android":"levelo://app?vid=b2d9d5f5-c022-4e21-91b7-4d5d66c65713","ios":"levelo://app?vid=b2d9d5f5-c022-4e21-91b7-4d5d66c65713"},"vehicle_type_id":"4","last_reported":1729426626,"current_range_meters":37600,"station_id":"","pricing_plan_id":"cebpf4jnsgd1na2vs0mg"},{"bike_id":"d6b6d9c6-c04c-44c6-9708-54056b46823b","system_id":"levelo_inurba_marseille","lat":43.24189,"lon":5.38803,"is_reserved":false,"is_disabled":false,"rental_uris":{"android":"levelo://app?vid=d6b6d9c6-c04c-44c6-9708-54056b46823b","ios":"levelo://app?vid=d6b6d9c6-c04c-44c6-9708-54056b46823b"},"vehicle_type_id":"4","last_reported":1729426626,"current_range_meters":13600,"station_id":"","pricing_plan_id":"cebpf4jnsgd1na2vs0mg"},{"bike_id":"f2bae505-4507-4158-b303-b9219321c982","system_id":"levelo_inurba_marseille","lat":43.28373,"lon":5.38632,"is_reserved":false,"is_disabled":false,"rental_uris":{"android":"levelo://app?vid=f2bae505-4507-4158-b303-b9219321c982","ios":"levelo://app?vid=f2bae505-4507-4158-b303-b9219321c982"},"vehicle_type_id":"4","last_reported":1729426626,"current_range_meters":20000,"station_id":"ce4bh492rcd13ifvqdvg","pricing_plan_id":"cebpf4jnsgd1na2vs0mg"},{"bike_id":"e1045569-7d68-44e6-aa46-fc0b8e85c314","system_id":"levelo_inurba_marseille","lat":43.24168,"lon":5.36398,"is_reserved":false,"is_disabled":false,"rental_uris":{"android":"levelo://app?vid=e1045569-7d68-44e6-aa46-fc0b8e85c314","ios":"levelo://app?vid=e1045569-7d68-44e6-aa46-fc0b8e85c314"},"vehicle_type_id":"4","last_reported":1729426626,"current_range_meters":12800,"station_id":"cpo36qri1sfpv3e86is0","pricing_plan_id":"cebpf4jnsgd1na2vs0mg"},{"bike_id":"f145e3c9-af85-44ed-bb9b-2f5b39d6d627","system_id":"levelo_inurba_marseille","lat":43.2655,"lon":5.37293,"is_reserved":false,"is_disabled":false,"rental_uris":{"android":"levelo://app?vid=f145e3c9-af85-44ed-bb9b-2f5b39d6d627","ios":"levelo://app?vid=f145e3c9-af85-44ed-bb9b-2f5b39d6d627"},"vehicle_type_id":"4","last_reported":1729426626,"current_range_meters":32000,"station_id":"ce4bhg12rcd13ifvqf70","pricing_plan_id":"cebpf4jnsgd1na2vs0mg"},{"bike_id":"efcb7477-35eb-4a96-9124-4adfd5b570fa","system_id":"levelo_inurba_marseille","lat":43.28936,"lon":5.36637,"is_reserved":false,"is_disabled":false,"rental_uris":{"android":"levelo://app?vid=efcb7477-35eb-4a96-9124-4adfd5b570fa","ios":"levelo://app?vid=efcb7477-35eb-4a96-9124-4adfd5b570fa"},"vehicle_type_id":"4","last_reported":1729426626,"current_range_meters":33600,"station_id":"ce4bhap2rcd13ifvqek0","pricing_plan_id":"cebpf4jnsgd1na2vs0mg"},{"bike_id":"88cb89b8-5871-4076-a45b-0a2ac0a037ed","system_id":"levelo_inurba_marseille","lat":43.27175,"lon":5.40986,"is_reserved":false,"is_disabled":false,"rental_uris":{"android":"levelo://app?vid=88cb89b8-5871-4076-a45b-0a2ac0a037ed","ios":"levelo://app?vid=88cb89b8-5871-4076-a45b-0a2ac0a037ed"},"vehicle_type_id":"4","last_reported":1729426626,"current_range_meters":29600,"station_id":"ce4bhl12rcd13ifvqgf0","pricing_plan_id":"cebpf4jnsgd1na2vs0mg"},{"bike_id":"02b97a0e-2092-4546-8a6d-d55c5d78e822","system_id":"levelo_inurba_marseille","lat":43.24808,"lon":5.37456,"is_reserved":false,"is_disabled":false,"rental_uris":{"android":"levelo://app?vid=02b97a0e-2092-4546-8a6d-d55c5d78e822","ios":"levelo://app?vid=02b97a0e-2092-4546-8a6d-d55c5d78e822"},"vehicle_type_id":"4","last_reported":1729426626,"current_range_meters":16800,"station_id":"ce4bhgh2rcd13ifvqfb0","pricing_plan_id":"cebpf4jnsgd1na2vs0mg"},