{"last_updated":1725955903,"ttl":30,"version":"2.2","data":{"bikes":[{"bike_id":"a47f7dd8-aade-4ce4-aef6-9830da654318","system_id":"levelo_inurba_marseille","lat":43.2657,"lon":5.38996,"is_reserved":false,"is_disabled":false,"rental_uris":{"android":"levelo://app?vid=a47f7dd8-aade-4ce4-aef6-9830da654318","ios":"levelo://app?vid=a47f7dd8-aade-4ce4-aef6-9830da654318"},"vehicle_type_id":"4","last_reported":1725955903,"current_range_meters":20000,"station_id":"ce4bhe12rcd13ifvqf30","pricing_plan_id":"cebpf4jnsgd1na2vs0mg"},{"bike_id":"604d8b6a-2ebc-45a2-a27c-f841a2044bb0","system_id":"levelo_inurba_marseille","lat":43.27499,"lon":5.42455,"is_reserved":false,"is_disabled":false,"rental_uris":{"android":"levelo://app?vid=604d8b6a-2ebc-45a2-a27c-f841a2044bb0","ios":"levelo://app?vid=604d8b6a-2ebc-45a2-a27c-f841a2044bb0"},"vehicle_type_id":"4","last_reported":1725955903,"current_range_meters":8000,"station_id":"","pricing_plan_id":"cebpf4jnsgd1na2vs0mg"},{"bike_id":"cc2bea76-45c1-4083-af29-bfe44deb5417","system_id":"levelo_inurba_marseille","lat":43.32282,"lon":5.38283,"is_reserved":false,"is_disabled":false,"rental_uris":{"android":"levelo://app?vid=cc2bea76-45c1-4083-af29-bfe44deb5417","ios":"levelo://app?vid=cc2bea76-45c1-4083-af29-bfe44deb5417"},"vehicle_type_id":"4","last_reported":1725955903,"current_range_meters":25600,"station_id":"ce4bhr12rcd13ifvqhqg","pricing_plan_id":"cebpf4jnsgd1na2vs0mg"},{"bike_id":"b3f9d420-09cf-4fcd-803c-c139238ac4a4","system_id":"levelo_inurba_marseille","lat":43.29301,"lon":5.37449,"is_reserved":false,"is_disabled":false,"rental_uris":{"android":"levelo://app?vid=b3f9d420-09cf-4fcd-803c-c139238ac4a4","ios":"levelo://app?vid=b3f9d420-09cf-4fcd-803c-c139238ac4a4"},"vehicle_type_id":"4","last_reported":1725955903,"current_range_meters":16400,"station_id":"ce4bgi12rcd13ifvqb70","pricing_plan_id":"cebpf4jnsgd1na2vs0mg"},{"bike_id":"893900fa-905b-44d9-b4f5-8131c552abed","system_id":"levelo_inurba_marseille","lat":43.30541,"lon":5.367,"is_reserved":false,"is_disabled":false,"rental_uris":{"android":"levelo://app?vid=893900fa-905b-44d9-b4f5-8131c552abed","ios":"levelo://app?vid=893900fa-905b-44d9-b4f5-8131c552abed"},"vehicle_type_id":"4","last_reported":1725955903,"current_range_meters":36000,"station_id":"ce4bgrp2rcd13ifvqc9g","pricing_plan_id":"cebpf4jnsgd1na2vs0mg"},{"bike_id":"317167fb-451a-48ab-aff6-0945e2c67bfb","system_id":"levelo_inurba_marseille","lat":43.23204,"lon":5.39968,"is_reserved":false,"is_disabled":false,"rental_uris":{"android":"levelo://app?vid=317167fb-451a-48ab-aff6-0945e2c67bfb","ios":"levelo://app?vid=317167fb-451a-48ab-aff6-0945e2c67bfb"},"vehicle_type_id":"4","last_reported":1725955903,"current_range_meters":20800,"station_id":"ce4bhn12rcd13ifvqgqg","pricing_plan_id":"cebpf4jnsgd1na2vs0mg"},{"bike_id":"bc30dbe3-2402-4b3a-b5da-8f5d9a126da2","system_id":"levelo_inurba_marseille","lat":43.25945,"lon":5.40881,"is_reserved":false,"is_disabled":false,"rental_uris":{"android":"levelo://app?vid=bc30dbe3-2402-4b3a-b5da-8f5d9a126da2","ios":"levelo://app?vid=bc30dbe3-2402-4b3a-b5da-8f5d9a126da2"},"vehicle_type_id":"4","last_reported":1725955903,"current_range_meters":26000,"station_id":"ce4bhm92rcd13ifvqglg","pricing_plan_id":"cebpf4jnsgd1na2vs0mg"},{"bike_id":"cf48420d-e24d-4152-9dde-cf2fe16c6ccf","system_id":"levelo_inurba_marseille","lat":43.30914,"lon":5.36837,"is_reserved":false,"is_disabled":false,"rental_uris":{"android":"levelo://app?vid=cf48420d-e24d-4152-9dde-cf2fe16c6ccf","ios":"levelo://app?vid=cf48420d-e24d-4152-9dde-cf2fe16c6ccf"},"vehicle_type_id":"4","last_reported":1725955903,"current_range_meters":14000,"station_id":"ce4bgn92rcd13ifvqbvg","pricing_plan_id":"cebpf4jnsgd1na2vs0mg"},{"bike_id":"9938e91c-265b-40a5-a9ee-a8a818767b92","system_id":"levelo_inurba_marseille","lat":43.24673,"lon":5.38161,"is_reserved":false,"is_disabled":false,"rental_uris":{"android":"levelo://app?vid=9938e91c-265b-40a5-a9ee-a8a818767b92","ios":"levelo://app?vid=9938e91c-265b-40a5-a9ee-a8a818767b92"},"vehicle_type_id":"4","last_reported":1725955903,"current_range_meters":15200,"station_id":"ce4bhih2rcd13ifvqfr0","pricing_plan_id":"cebpf4jnsgd1na2vs0mg"},{"bike_id":"5a760c2a-12c8-4f32-8ba6-ea2f14a5da90","system_id":"levelo_inurba_marseille","lat":43.31721,"lon":5.42399,"is_reserved":false,"is_disabled":false,"rental_uris":{"android":"levelo://app?vid=5a760c2a-12c8-4f32-8ba6-ea2f14a5da90","ios":"levelo://app?vid=5a760c2a-12c8-4f32-8ba6-ea2f14a5da90"},"vehicle_type_id":"4","last_reported":1725955903,"current_range_meters":38800,"station_id":"ce4bhp92rcd13ifvqhbg","pricing_plan_id":"cebpf4jnsgd1na2vs0mg"},{"bike_id":"b02222ec-0387-4ff5-8918-29e62bcf5a98","system_id":"levelo_inurba_marseille","lat":43.32476,"lon":5.36566,"is_reserved":false,"is_disabled":false,"rental_uris":{"android":"levelo://app?vid=b02222ec-0387-4ff5-8918-29e62bcf5a98","ios":"levelo://app?vid=b02222ec-0387-4ff5-8918-29e62bcf5a98"},"vehicle_type_id":"4","last_reported":1725955903,"current_range_meters":22400,"station_id":"ce4bhs12rcd13ifvqhvg","pricing_plan_id":"cebpf4jnsgd1na2vs0mg"},{"bike_id":"25a734f0-5a58-49fa-9e2e-761a6040d468","system_id":"levelo_inurba_marseille","lat":43.2315,"lon":5.43715,"is_reserved":false,"is_disabled":false,"rental_uris":{"android":"levelo://app?vid=25a734f0-5a58-49fa-9e2e-761a6040d468","ios":"levelo://app?vid=25a734f0-5a58-49fa-9e2e-761a6040d468"},"vehicle_type_id":"4","last_reported":1725955903,"current_range_meters":19200,"station_id":"ce4bhmp2rcd13ifvqgog","pricing_plan_id":"cebpf4jnsgd1na2vs0mg"},{"bike_id":"273bfe13-bc71-40ca-9955-e31d49cb88e0","system_id":"levelo_inurba_marseille","lat":43.23965,"lon":5.36621,"is_reserved":false,"is_disabled":false,"rental_uris":{"android":"levelo://app?vid=273bfe13-bc71-40ca-9955-e31d49cb88e0","ios":"levelo://app?vid=273bfe13-bc71-40ca-9955-e31d49cb88e0"},"vehicle_type_id":"4","last_reported":1725955903,"current_range_meters":37600,"station_id":"ce4bhi12rcd13ifvqfp0","pricing_plan_id":"cebpf4jnsgd1na2vs0mg"},{"bike_id":"1004d728-47f8-412d-8377-50e23da8c190","system_id":"levelo_inurba_marseille","lat":43.30475,"lon":5.37913,"is_reserved":false,"is_disabled":false,"rental_uris":{"android":"levelo://app?vid=1004d728-47f8-412d-8377-50e23da8c190","ios":"levelo://app?vid=1004d728-47f8-412d-8377-50e23da8c190"},"vehicle_type_id":"4","last_reported":1725955903,"current_range_meters":25200,"station_id":"ce4bgup2rcd13ifvqcn0","pricing_plan_id":"cebpf4jnsgd1na2vs0mg"},{"bike_id":"f5c9d5a3-bded-4bdf-a211-9658b468f702","system_id":"levelo_inurba_marseille","lat":43.32293,"lon":5.38275,"is_reserved":false,"is_disabled":false,"rental_uris":{"android":"levelo://app?vid=f5c9d5a3-bded-4bdf-a211-9658b468f702","ios":"levelo://app?vid=f5c9d5a3-bded-4bdf-a211-9658b468f702"},"vehicle_type_id":"4","last_reported":1725955903,"current_range_meters":37600,"station_id":"ce4bhr12rcd13ifvqhqg","pricing_plan_id":"cebpf4jnsgd1na2vs0mg"},{"bike_id":"3dafa4d3-f2d8-4189-b8b9-55b91d4775d7","system_id":"levelo_inurba_marseille","lat":43.27072,"lon":5.42275,"is_reserved":false,"is_disabled":false,"rental_uris":{"android":"levelo://app?vid=3dafa4d3-f2d8-4189-b8b9-55b91d4775d7","ios":"levelo://app?vid=3dafa4d3-f2d8-4189-b8b9-55b91d4775d7"},"vehicle_type_id":"4","last_reported":1725955903,"current_range_meters":36400,"station_id":"ce4bhk92rcd13ifvqgb0","pricing_plan_id":"cebpf4jnsgd1na2vs0mg"},{"bike_id":"73a1f507-b56c-43d3-a62b-4708c2b556d0","system_id":"levelo_inurba_marseille","lat":43.33772,"lon":5.3743,"is_reserved":false,"is_disabled":false,"rental_uris":{"android":"levelo://app?vid=73a1f507-b56c-43d3-a62b-4708c2b556d0","ios":"levelo://app?vid=73a1f507-b56c-43d3-a62b-4708c2b556d0"},"vehicle_type_id":"4","last_reported":1725955903,"current_range_meters":38400,"station_id":"","pricing_plan_id":"cebpf4jnsgd1na2vs0mg"},{"bike_id":"6801637f-4d89-4ddd-8617-2ac90e2e0f42","system_id":"levelo_inurba_marseille","lat":43.30944,"lon":5.39028,"is_reserved":false,"is_disabled":false,"rental_uris":{"android":"levelo://app?vid=6801637f-4d89-4ddd-8617-2ac90e2e0f42","ios":"levelo://app?vid=6801637f-4d89-4ddd-8617-2ac90e2e0f42"},"vehicle_type_id":"4","last_reported":1725955903,"current_range_meters":20400,"station_id":"ce4bgup2rcd13ifvqco0","pricing_plan_id":"cebpf4jnsgd1na2vs0mg"},{"bike_id":"b93d60ca-63fe-44aa-8d91-30c91d297138","system_id":"levelo_inurba_marseille","lat":43.28152,"lon":5.42642,"is_reserved":false,"is_disabled":false,"rental_uris":{"android":"levelo://app?vid=b93d60ca-63fe-44aa-8d91-30c91d297138","ios":"levelo://app?vid=b93d60ca-63fe-44aa-8d91-30c91d297138"},"vehicle_type_id":"4","last_reported":1725955903,"current_range_meters":22000,"station_id":"ce4bhn92rcd13ifvqgrg","pricing_plan_id":"cebpf4jnsgd1na2vs0mg"},{"bike_id":"2f3dd428-4c1e-4ccd-8d1e-4c978e1aa15d","system_id":"levelo_inurba_marseille","lat":43.30483,"lon":5.37935,"is_reserved":false,"is_disabled":false,"rental_uris":{"android":"levelo://app?vid=2f3dd428-4c1e-4ccd-8d1e-4c978e1aa15d","ios":"levelo://app?vid=2f3dd428-4c1e-4ccd-8d1e-4c978e1aa15d"},"vehicle_type_id":"4","last_reported":1725955903,"current_range_meters":38800,"station_id":"ce4bgup2rcd13ifvqcn0","pricing_plan_id":"cebpf4jnsgd1na2vs0mg"},{"bike_id":"ec204c8d-8247-4906-a8c2-d57ce2b0daac","system_id":"levelo_inurba_marseille","lat":43.288583,"lon":5.358505,"is_reserved":false,"is_disabled":false,"rental_uris":{"android":"levelo://app?vid=ec204c8d-8247-4906-a8c2-d57ce2b0daac","ios":"levelo://app?vid=ec204c8d-8247-4906-a8c2-d57ce2b0daac"},"vehicle_type_id":"4","last_reported":1725955903,"current_range_meters":32000,"station_id":"ce4bhb12rcd13ifvqem0","pricing_plan_id":"cebpf4jnsgd1na2vs0mg"},{"bike_id":"488cdd4b-b5b7-406b-afc8-e750963c9892","system_id":"levelo_inurba_marseille","lat":43.24817,"lon":5.37452,"is_reserved":false,"is_disabled":false,"rental_uris":{"android":"levelo://app?vid=488cdd4b-b5b7-406b-afc8-e750963c9892","ios":"levelo://app?vid=488cdd4b-b5b7-406b-afc8-e750963c9892"},"vehicle_type_id":"4","last_reported":1725955903,"current_range_meters":37600,"station_id":"ce4bhgh2rcd13ifvqfb0","pricing_plan_id":"cebpf4jnsgd1na2vs0mg"},{"bike_id":"173a22a6-c6b3-4156-ad2b-4962f41c7342","system_id":"levelo_inurba_marseille","lat":43.30544,"lon":5.36696,"is_reserved":false,"is_disabled":false,"rental_uris":{"android":"levelo://app?vid=173a22a6-c6b3-4156-ad2b-4962f41c7342","ios":"levelo://app?vid=173a22a6-c6b3-4156-ad2b-4962f41c7342"},"vehicle_type_id":"4","last_reported":1725955903,"current_range_meters":34800,"station_id":"ce4bgrp2rcd13ifvqc9g","pricing_plan_id":"cebpf4jnsgd1na2vs0mg"},{"bike_id":"ecd093b0-cb09-4215-84fd-f371c4afad1f","system_id":"levelo_inurba_marseille","lat":43.30901,"lon":5.36848,"is_reserved":false,"is_disabled":false,"rental_uris":{"android":"levelo://app?vid=ecd093b0-cb09-4215-84fd-f371c4afad1f","ios":"levelo://app?vid=ecd093b0-cb09-4215-84fd-f371c4afad1f"},"vehicle_type_id":"4","last_reported":1725955903,"current_range_meters":39200,"station_id":"ce4bgn92rcd13ifvqbvg","pricing_plan_id":"cebpf4jnsgd1na2vs0mg"},{"bike_id":"d47c8996-8ce0-4e7c-941c-803de33594ac","system_id":"levelo_inurba_marseille","lat":43.31499,"lon":5.37303,"is_reserved":false,"is_disabled":false,"rental_uris":{"android":"levelo://app?vid=d47c8996-8ce0-4e7c-941c-803de33594ac","ios":"levelo://app?vid=d47c8996-8ce0-4e7c-941c-803de33594ac"},"vehicle_type_id":"4","last_reported":1725955903,"current_range_meters":36400,"station_id":"ce4bgt12rcd13ifvqcd0","pricing_plan_id":"cebpf4jnsgd1na2vs0mg"},{"bike_id":"6587e7f2-971a-4dbe-a4c3-0fbcda6754d1","system_id":"levelo_inurba_marseille","lat":43.23152,"lon":5.4371,"is_reserved":false,"is_disabled":false,"rental_uris":{"android":"levelo://app?vid=6587e7f2-971a-4dbe-a4c3-0fbcda6754d1","ios":"levelo://app?vid=6587e7f2-971a-4dbe-a4c3-0fbcda6754d1"},"vehicle_type_id":"4","last_reported":1725955903,"current_range_meters":18000,"station_id":"ce4bhmp2rcd13ifvqgog","pricing_plan_id":"cebpf4jnsgd1na2vs0mg"},{"bike_id":"e2dbcbfc-fc2f-4194-855d-a61126008ef4","system_id":"levelo_inurba_marseille","lat":43.31345,"lon":5.36709,"is_reserved":false,"is_disabled":false,"rental_uris":{"android":"levelo://app?vid=e2dbcbfc-fc2f-4194-855d-a61126008ef4","ios":"levelo://app?vid=e2dbcbfc-fc2f-4194-855d-a61126008ef4"},"vehicle_type_id":"4","last_reported":1725955903,"current_range_meters":18800,"station_id":"ce4bgr92rcd13ifvqc6g","pricing_plan_id":"cebpf4jnsgd1na2vs0mg"},{"bike_id":"d950c646-5983-4791-9f62-2ca13d3636ab","system_id":"levelo_inurba_marseille","lat":43.31237,"lon":5.36846,"is_reserved":false,"is_disabled":false,"rental_uris":{"android":"levelo://app?vid=d950c646-5983-4791-9f62-2ca13d3636ab","ios":"levelo://app?vid=d950c646-5983-4791-9f62-2ca13d3636ab"},"vehicle_type_id":"4","last_reported":1725955903,"current_range_meters":38800,"station_id":"ce4bgl92rcd13ifvqbq0","pricing_plan_id":"cebpf4jnsgd1na2vs0mg"},{"bike_id":"875ea4f5-d8a6-4d32-9e99-ec60f0eb2a55","system_id":"levelo_inurba_marseille","lat":43.24076,"lon":5.37755,"is_reserved":false,"is_disabled":false,"rental_uris":{"android":"levelo://app?vid=875ea4f5-d8a6-4d32-9e99-ec60f0eb2a55","ios":"levelo://app?vid=875ea4f5-d8a6-4d32-9e99-ec60f0eb2a55"},"vehicle_type_id":"4","last_reported":1725955903,"current_range_meters":35600,"station_id":"ce4bhnp2rcd13ifvqgvg","pricing_plan_id":"cebpf4jnsgd1na2vs0mg"},{"bike_id":"12872647-4372-4cf2-9fc5-598f616cb55c","system_id":"levelo_inurba_marseille","lat":43.24078,"lon":5.37749,"is_reserved":false,"is_disabled":false,"rental_uris":{"android":"levelo://app?vid=12872647-4372-4cf2-9fc5-598f616cb55c","ios":"levelo://app?vid=12872647-4372-4cf2-9fc5-598f616cb55c"},"vehicle_type_id":"4","last_reported":1725955903,"current_range_meters":23200,"station_id":"ce4bhnp2rcd13ifvqgvg","pricing_plan_id":"cebpf4jnsgd1na2vs0mg"},{"bike_id":"a0b35146-6ac8-4008-bd79-907e8e5aa22b","system_id":"levelo_inurba_marseille","lat":43.298423,"lon":5.362606,"is_reserved":false,"is_disabled":false,"rental_uris":{"android":"levelo://app?vid=a0b35146-6ac8-4008-bd79-907e8e5aa22b","ios":"levelo://app?vid=a0b35146-6ac8-4008-bd79-907e8e5aa22b"},"vehicle_type_id":"4","last_reported":1725955903,"current_range_meters":11600,"station_id":"ce4bgup2rcd13ifvqco0","pricing_plan_id":"cebpf4jnsgd1na2vs0mg"},{"bike_id":"554ffcf8-37af-46dc-8cd5-b86128edbe5e","system_id":"levelo_inurba_marseille","lat":43.26952,"lon":5.38637,"is_reserved":false,"is_disabled":false,"rental_uris":{"android":"levelo://app?vid=554ffcf8-37af-46dc-8cd5-b86128edbe5e","ios":"levelo://app?vid=554ffcf8-37af-46dc-8cd5-b86128edbe5e"},"vehicle_type_id":"4","last_reported":1725955903,"current_range_meters":10800,"station_id":"ce4bhh92rcd13ifvqfh0","pricing_plan_id":"cebpf4jnsgd1na2vs0mg"},{"bike_id":"d0a22151-5873-4516-ad59-35801290152e","system_id":"levelo_inurba_marseille","lat":43.23193,"lon":5.35548,"is_reserved":false,"is_disabled":false,"rental_uris":{"android":"levelo://app?vid=d0a22151-5873-4516-ad59-35801290152e","ios":"levelo://app?vid=d0a22151-5873-4516-ad59-35801290152e"},"vehicle_type_id":"4","last_reported":1725955903,"current_range_meters":10800,"station_id":"ce4bhu92rcd13ifvqi70","pricing_plan_id":"cebpf4jnsgd1na2vs0mg"},{"bike_id":"68f8b6e1-4d03-45ce-841c-3f3408c75648","system_id":"levelo_inurba_marseille","lat":43.32532,"lon":5.41433,"is_reserved":false,"is_disabled":false,"rental_uris":{"android":"levelo://app?vid=68f8b6e1-4d03-45ce-841c-3f3408c75648","ios":"levelo://app?vid=68f8b6e1-4d03-45ce-841c-3f3408c75648"},"vehicle_type_id":"4","last_reported":1725955903,"current_range_meters":15200,"station_id":"ce4bhq12rcd13ifvqhhg","pricing_plan_id":"cebpf4jnsgd1na2vs0mg"},{"bike_id":"00b29d2b-8603-4598-bb82-f78900b5570b","system_id":"levelo_inurba_marseille","lat":43.32555,"lon":5.41441,"is_reserved":false,"is_disabled":false,"rental_uris":{"android":"levelo://app?vid=00b29d2b-8603-4598-bb82-f78900b5570b","ios":"levelo://app?vid=00b29d2b-8603-4598-bb82-f78900b5570b"},"vehicle_type_id":"4","last_reported":1725955903,"current_range_meters":34800,"station_id":"ce4bhq12rcd13ifvqhhg","pricing_plan_id":"cebpf4jnsgd1na2vs0mg"},{"bike_id":"a9ae44d3-d769-4d27-9517-20d3c3460639","system_id":"levelo_inurba_marseille","lat":43.29616,"lon":5.37152,"is_reserved":false,"is_disabled":false,"rental_uris":{"android":"levelo://app?vid=a9ae44d3-d769-4d27-9517-20d3c3460639","ios":"levelo://app?vid=a9ae44d3-d769-4d27-9517-20d3c3460639"},"vehicle_type_id":"4","last_reported":1725955903,"current_range_meters":11600,"station_id":"ce4bgnh2rcd13ifvqc0g","pricing_plan_id":"cebpf4jnsgd1na2vs0mg"},{"bike_id":"a6245f9e-596a-442f-a7f5-a1bf9efdc870","system_id":"levelo_inurba_marseille","lat":43.31498,"lon":5.37296,"is_reserved":false,"is_disabled":false,"rental_uris":{"android":"levelo://app?vid=a6245f9e-596a-442f-a7f5-a1bf9efdc870","ios":"levelo://app?vid=a6245f9e-596a-442f-a7f5-a1bf9efdc870"},"vehicle_type_id":"4","last_reported":1725955903,"current_range_meters":11600,"station_id":"ce4bgt12rcd13ifvqcd0","pricing_plan_id":"cebpf4jnsgd1na2vs0mg"},{"bike_id":"b0a64d47-7084-45f8-a834-1df240ba4719","system_id":"levelo_inurba_marseille","lat":43.28267,"lon":5.35071,"is_reserved":false,"is_disabled":false,"rental_uris":{"android":"levelo://app?vid=b0a64d47-7084-45f8-a834-1df240ba4719","ios":"levelo://app?vid=b0a64d47-7084-45f8-a834-1df240ba4719"},"vehicle_type_id":"4","last_reported":1725955903,"current_range_meters":15200,"station_id":"ce4bhbp2rcd13ifvqerg","pricing_plan_id":"cebpf4jnsgd1na2vs0mg"},{"bike_id":"c0e7bdd9-5691-4993-b39b-42947171e063","system_id":"levelo_inurba_marseille","lat":43.23152,"lon":5.43703,"is_reserved":false,"is_disabled":false,"rental_uris":{"android":"levelo://app?vid=c0e7bdd9-5691-4993-b39b-42947171e063","ios":"levelo://app?vid=c0e7bdd9-5691-4993-b39b-42947171e063"},"vehicle_type_id":"4","last_reported":1725955903,"current_range_meters":23200,"station_id":"ce4bhmp2rcd13ifvqgog","pricing_plan_id":"cebpf4jnsgd1na2vs0mg"},{"bike_id":"8923bf2e-415a-4e55-80a3-f34ea3ecf119","system_id":"levelo_inurba_marseille","lat":43.30202,"lon":5.36618,"is_reserved":false,"is_disabled":false,"rental_uris":{"android":"levelo://app?vid=8923bf2e-415a-4e55-80a3-f34ea3ecf119","ios":"levelo://app?vid=8923bf2e-415a-4e55-80a3-f34ea3ecf119"},"vehicle_type_id":"4","last_reported":1725955903,"current_range_meters":3200,"station_id":"ce4bgrh2rcd13ifvqc8g","pricing_plan_id":"cebpf4jnsgd1na2vs0mg"},{"bike_id":"d3e2035e-21c0-44e7-8539-94efcd5a94a6","system_id":"levelo_inurba_marseille","lat":43.30152,"lon":5.38085,"is_reserved":false,"is_disabled":false,"rental_uris":{"android":"levelo://app?vid=d3e2035e-21c0-44e7-8539-94efcd5a94a6","ios":"levelo://app?vid=d3e2035e-21c0-44e7-8539-94efcd5a94a6"},"vehicle_type_id":"4","last_reported":1725955903,"current_range_meters":38800,"station_id":"ce4bgjp2rcd13ifvqbh0","pricing_plan_id":"cebpf4jnsgd1na2vs0mg"},{"bike_id":"fcd0ef70-61af-449e-91a4-721e992f5485","system_id":"levelo_inurba_marseille","lat":43.23967,"lon":5.36631,"is_reserved":false,"is_disabled":false,"rental_uris":{"android":"levelo://app?vid=fcd0ef70-61af-449e-91a4-721e992f5485","ios":"levelo://app?vid=fcd0ef70-61af-449e-91a4-721e992f5485"},"vehicle_type_id":"4","last_reported":1725955903,"current_range_meters":28400,"station_id":"ce4bhi12rcd13ifvqfp0","pricing_plan_id":"cebpf4jnsgd1na2vs0mg"},{"bike_id":"e09ff19f-fcc5-4058-bfe8-52e28f73cad5","system_id":"levelo_inurba_marseille","lat":43.31351,"lon":5.36715,"is_reserved":false,"is_disabled":false,"rental_uris":{"android":"levelo://app?vid=e09ff19f-fcc5-4058-bfe8-52e28f73cad5","ios":"levelo://app?vid=e09ff19f-fcc5-4058-bfe8-52e28f73cad5"},"vehicle_type_id":"4","last_reported":1725955903,"current_range_meters":22000,"station_id":"ce4bgr92rcd13ifvqc6g","pricing_plan_id":"cebpf4jnsgd1na2vs0mg"},{"bike_id":"02a4a242-fef3-4237-9e99-c31adfbb9b6c","system_id":"levelo_inurba_marseille","lat":43.29424,"lon":5.386705,"is_reserved":false,"is_disabled":false,"rental_uris":{"android":"levelo://app?vid=02a4a242-fef3-4237-9e99-c31adfbb9b6c","ios":"levelo://app?vid=02a4a242-fef3-4237-9e99-c31adfbb9b6c"},"vehicle_type_id":"4","last_reported":1725955903,"current_range_meters":29600,"station_id":"ce4bh2h2rcd13ifvqdh0","pricing_plan_id":"cebpf4jnsgd1na2vs0mg"},{"bike_id":"a423ca6e-da9c-491e-8fbf-d755080919e9","system_id":"levelo_inurba_marseille","lat":43.29968,"lon":5.3849,"is_reserved":false,"is_disabled":false,"rental_uris":{"android":"levelo://app?vid=a423ca6e-da9c-491e-8fbf-d755080919e9","ios":"levelo://app?vid=a423ca6e-da9c-491e-8fbf-d755080919e9"},"vehicle_type_id":"4","last_reported":1725955903,"current_range_meters":38000,"station_id":"ce4bgj92rcd13ifvqbd0","pricing_plan_id":"cebpf4jnsgd1na2vs0mg"},{"bike_id":"c379a911-ce29-4e70-83a3-e7a9d2fe4120","system_id":"levelo_inurba_marseille","lat":43.26953,"lon":5.38624,"is_reserved":false,"is_disabled":false,"rental_uris":{"android":"levelo://app?vid=c379a911-ce29-4e70-83a3-e7a9d2fe4120","ios":"levelo://app?vid=c379a911-ce29-4e70-83a3-e7a9d2fe4120"},"vehicle_type_id":"4","last_reported":1725955903,"current_range_meters":39200,"station_id":"ce4bhh92rcd13ifvqfh0","pricing_plan_id":"cebpf4jnsgd1na2vs0mg"},{"bike_id":"a2ec860b-3cd0-4b74-b808-c9e72af2fa58","system_id":"levelo_inurba_marseille","lat":43.26955,"lon":5.38631,"is_reserved":false,"is_disabled":false,"rental_uris":{"android":"levelo://app?vid=a2ec860b-3cd0-4b74-b808-c9e72af2fa58","ios":"levelo://app?vid=a2ec860b-3cd0-4b74-b808-c9e72af2fa58"},"vehicle_type_id":"4","last_reported":1725955903,"current_range_meters":33600,"station_id":"ce4bhh92rcd13ifvqfh0","pricing_plan_id":"cebpf4jnsgd1na2vs0mg"},{"bike_id":"d0107236-82cf-4c5b-9115-8e3d984682df","system_id":"levelo_inurba_marseille","lat":43.25944,"lon":5.40897,"is_reserved":false,"is_disabled":false,"rental_uris":{"android":"levelo://app?vid=d0107236-82cf-4c5b-9115-8e3d984682df","ios":"levelo://app?vid=d0107236-82cf-4c5b-9115-8e3d984682df"},"vehicle_type_id":"4","last_reported":1725955903,"current_range_meters":22400,"station_id":"ce4bhm92rcd13ifvqglg","pricing_plan_id":"cebpf4jnsgd1na2vs0mg"},{"bike_id":"641a6f9a-c272-44cf-92d6-cbef97fa1631","system_id":"levelo_inurba_marseille","lat":43.26563,"lon":5.39004,"is_reserved":false,"is_disabled":false,"rental_uris":{"android":"levelo://app?vid=641a6f9a-c272-44cf-92d6-cbef97fa1631","ios":"levelo://app?vid=641a6f9a-c272-44cf-92d6-cbef97fa1631"},"vehicle_type_id":"4","last_reported":1725955903,"current_range_meters":20000,"station_id":"ce4bhe12rcd13ifvqf30","pricing_plan_id":"cebpf4jnsgd1na2vs0mg"},{"bike_id":"1e7439fc-44f2-4c2c-971f-a6624625e2be","system_id":"levelo_inurba_marseille","lat":43.29042,"lon":5.37794,"is_reserved":false,"is_disabled":false,"rental_uris":{"android":"levelo://app?vid=1e7439fc-44f2-4c2c-971f-a6624625e2be","ios":"levelo://app?vid=1e7439fc-44f2-4c2c-971f-a6624625e2be"},"vehicle_type_id":"4","last_reported":1725955903,"current_range_meters":25600,"station_id":"","pricing_plan_id":"cebpf4jnsgd1na2vs0mg"},{"bike_id":"a50ca0cf-c0bd-4752-90d3-9be155298325","system_id":"levelo_inurba_marseille","lat":43.24078,"lon":5.37756,"is_reserved":false,"is_disabled":false,"rental_uris":{"android":"levelo://app?vid=a50ca0cf-c0bd-4752-90d3-9be155298325","ios":"levelo://app?vid=a50ca0cf-c0bd-4752-90d3-9be155298325"},"vehicle_type_id":"4","last_reported":1725955903,"current_range_meters":24800,"station_id":"ce4bhnp2rcd13ifvqgvg","pricing_plan_id":"cebpf4jnsgd1na2vs0mg"},{"bike_id":"4aa43d06-082d-4d0a-a380-38d26da8e4ce","system_id":"levelo_inurba_marseille","lat":43.259116,"lon":5.409241,"is_reserved":false,"is_disabled":false,"rental_uris":{"android":"levelo://app?vid=4aa43d06-082d-4d0a-a380-38d26da8e4ce","ios":"levelo://app?vid=4aa43d06-082d-4d0a-a380-38d26da8e4ce"},"vehicle_type_id":"4","last_reported":1725955903,"current_range_meters":2800,"station_id":"ce4bhm92rcd13ifvqglg","pricing_plan_id":"cebpf4jnsgd1na2vs0mg"},{"bike_id":"1e0090e7-1b05-4da0-b368-a054f959fb92","system_id":"levelo_inurba_marseille","lat":43.295517,"lon":5.375493,"is_reserved":false,"is_disabled":false,"rental_uris":{"android":"levelo://app?vid=1e0090e7-1b05-4da0-b368-a054f959fb92","ios":"levelo://app?vid=1e0090e7-1b05-4da0-b368-a054f959fb92"},"vehicle_type_id":"4","last_reported":1725955903,"current_range_meters":32400,"station_id":"ce4bh412rcd13ifvqdr0","pricing_plan_id":"cebpf4jnsgd1na2vs0mg"},{"bike_id":"64bdb580-37ca-455a-b8e4-2d13bbfea9f1","system_id":"levelo_inurba_marseille","lat":43.29305,"lon":5.3746,"is_reserved":false,"is_disabled":false,"rental_uris":{"android":"levelo://app?vid=64bdb580-37ca-455a-b8e4-2d13bbfea9f1","ios":"levelo://app?vid=64bdb580-37ca-455a-b8e4-2d13bbfea9f1"},"vehicle_type_id":"4","last_reported":1725955903,"current_range_meters":6000,"station_id":"ce4bgi12rcd13ifvqb70","pricing_plan_id":"cebpf4jnsgd1na2vs0mg"},{"bike_id":"90c7fb9d-c48f-4d20-af50-573c6b0c1ef2","system_id":"levelo_inurba_marseille","lat":43.32548,"lon":5.41433,"is_reserved":false,"is_disabled":false,"rental_uris":{"android":"levelo://app?vid=90c7fb9d-c48f-4d20-af50-573c6b0c1ef2","ios":"levelo://app?vid=90c7fb9d-c48f-4d20-af50-573c6b0c1ef2"},"vehicle_type_id":"4","last_reported":1725955903,"current_range_meters":26000,"station_id":"ce4bhq12rcd13ifvqhhg","pricing_plan_id":"cebpf4jnsgd1na2vs0mg"},{"bike_id":"369f6a06-56d4-4875-958d-358bfb7efee6","system_id":"levelo_inurba_marseille","lat":43.25497,"lon":5.3764,"is_reserved":false,"is_disabled":false,"rental_uris":{"android":"levelo://app?vid=369f6a06-56d4-4875-958d-358bfb7efee6","ios":"levelo://app?vid=369f6a06-56d4-4875-958d-358bfb7efee6"},"vehicle_type_id":"4","last_reported":1725955903,"current_range_meters":28000,"station_id":"ce4bhh12rcd13ifvqff0","pricing_plan_id":"cebpf4jnsgd1na2vs0mg"},{"bike_id":"a1ec0e49-06ea-4410-a093-4791f9a82082","system_id":"levelo_inurba_marseille","lat":43.32484,"lon":5.36569,"is_reserved":false,"is_disabled":false,"rental_uris":{"android":"levelo://app?vid=a1ec0e49-06ea-4410-a093-4791f9a82082","ios":"levelo://app?vid=a1ec0e49-06ea-4410-a093-4791f9a82082"},"vehicle_type_id":"4","last_reported":1725955903,"current_range_meters":32400,"station_id":"ce4bhs12rcd13ifvqhvg","pricing_plan_id":"cebpf4jnsgd1na2vs0mg"},{"bike_id":"0d04b9ac-0f32-4541-b0f7-1c55af22b0e4","system_id":"levelo_inurba_marseille","lat":43.2594,"lon":5.40897,"is_reserved":false,"is_disabled":false,"rental_uris":{"android":"levelo://app?vid=0d04b9ac-0f32-4541-b0f7-1c55af22b0e4","ios":"levelo://app?vid=0d04b9ac-0f32-4541-b0f7-1c55af22b0e4"},"vehicle_type_id":"4","last_reported":1725955903,"current_range_meters":25200,"station_id":"ce4bhm92rcd13ifvqglg","pricing_plan_id":"cebpf4jnsgd1na2vs0mg"},{"bike_id":"d927a538-f208-40d7-af9c-a94b875396ee","system_id":"levelo_inurba_marseille","lat":43.28614,"lon":5.37061,"is_reserved":false,"is_disabled":false,"rental_uris":{"android":"levelo://app?vid=d927a538-f208-40d7-af9c-a94b875396ee","ios":"levelo://app?vid=d927a538-f208-40d7-af9c-a94b875396ee"},"vehicle_type_id":"4","last_reported":1725955903,"current_range_meters":25600,"station_id":"ce4bht12rcd13ifvqi60","pricing_plan_id":"cebpf4jnsgd1na2vs0mg"},{"bike_id":"64f25725-e05b-4f29-8181-60e04b4ee309","system_id":"levelo_inurba_marseille","lat":43.24388,"lon":5.37058,"is_reserved":false,"is_disabled":false,"rental_uris":{"android":"levelo://app?vid=64f25725-e05b-4f29-8181-60e04b4ee309","ios":"levelo://app?vid=64f25725-e05b-4f29-8181-60e04b4ee309"},"vehicle_type_id":"4","last_reported":1725955903,"current_range_meters":7200,"station_id":"ce4bhhh2rcd13ifvqfk0","pricing_plan_id":"cebpf4jnsgd1na2vs0mg"},{"bike_id":"03750b00-9c9d-4e79-ad45-589bcc218443","system_id":"levelo_inurba_marseille","lat":43.25002,"lon":5.38922,"is_reserved":false,"is_disabled":false,"rental_uris":{"android":"levelo://app?vid=03750b00-9c9d-4e79-ad45-589bcc218443","ios":"levelo://app?vid=03750b00-9c9d-4e79-ad45-589bcc218443"},"vehicle_type_id":"4","last_reported":1725955903,"current_range_meters":39200,"station_id":"ce4bhgp2rcd13ifvqfd0","pricing_plan_id":"cebpf4jnsgd1na2vs0mg"},{"bike_id":"e453de79-6f5c-448a-a60e-01e0ce154adc","system_id":"levelo_inurba_marseille","lat":43.28041,"lon":5.36934,"is_reserved":false,"is_disabled":false,"rental_uris":{"android":"levelo://app?vid=e453de79-6f5c-448a-a60e-01e0ce154adc","ios":"levelo://app?vid=e453de79-6f5c-448a-a60e-01e0ce154adc"},"vehicle_type_id":"4","last_reported":1725955903,"current_range_meters":36000,"station_id":"ce4bha12rcd13ifvqef0","pricing_plan_id":"cebpf4jnsgd1na2vs0mg"},{"bike_id":"ba71fde6-330c-4694-b58a-6b28fa15c9ce","system_id":"levelo_inurba_marseille","lat":43.30477,"lon":5.37888,"is_reserved":false,"is_disabled":false,"rental_uris":{"android":"levelo://app?vid=ba71fde6-330c-4694-b58a-6b28fa15c9ce","ios":"levelo://app?vid=ba71fde6-330c-4694-b58a-6b28fa15c9ce"},"vehicle_type_id":"4","last_reported":1725955903,"current_range_meters":38000,"station_id":"ce4bgup2rcd13ifvqcn0","pricing_plan_id":"cebpf4jnsgd1na2vs0mg"},{"bike_id":"e0731622-94a1-43e6-ab86-d933c45e9d15","system_id":"levelo_inurba_marseille","lat":43.24082,"lon":5.3775,"is_reserved":false,"is_disabled":false,"rental_uris":{"android":"levelo://app?vid=e0731622-94a1-43e6-ab86-d933c45e9d15","ios":"levelo://app?vid=e0731622-94a1-43e6-ab86-d933c45e9d15"},"vehicle_type_id":"4","last_reported":1725955903,"current_range_meters":5600,"station_id":"ce4bhnp2rcd13ifvqgvg","pricing_plan_id":"cebpf4jnsgd1na2vs0mg"},{"bike_id":"9395e962-76ca-4e02-9084-a21e990a1068","system_id":"levelo_inurba_marseille","lat":43.26565,"lon":5.38992,"is_reserved":false,"is_disabled":false,"rental_uris":{"android":"levelo://app?vid=9395e962-76ca-4e02-9084-a21e990a1068","ios":"levelo://app?vid=9395e962-76ca-4e02-9084-a21e990a1068"},"vehicle_type_id":"4","last_reported":1725955903,"current_range_meters":32000,"station_id":"ce4bhe12rcd13ifvqf30","pricing_plan_id":"cebpf4jnsgd1na2vs0mg"},{"bike_id":"81ab4438-3d14-4a8a-b461-5ea0086f0e51","system_id":"levelo_inurba_marseille","lat":43.29303,"lon":5.37453,"is_reserved":false,"is_disabled":false,"rental_uris":{"android":"levelo://app?vid=81ab4438-3d14-4a8a-b461-5ea0086f0e51","ios":"levelo://app?vid=81ab4438-3d14-4a8a-b461-5ea0086f0e51"},"vehicle_type_id":"4","last_reported":1725955903,"current_range_meters":7200,"station_id":"ce4bgi12rcd13ifvqb70","pricing_plan_id":"cebpf4jnsgd1na2vs0mg"},{"bike_id":"a2e8960d-0be4-498e-a78c-8356043e9ec4","system_id":"levelo_inurba_marseille","lat":43.30282,"lon":5.37691,"is_reserved":false,"is_disabled":false,"rental_uris":{"android":"levelo://app?vid=a2e8960d-0be4-498e-a78c-8356043e9ec4","ios":"levelo://app?vid=a2e8960d-0be4-498e-a78c-8356043e9ec4"},"vehicle_type_id":"4","last_reported":1725955903,"current_range_meters":37600,"station_id":"ce4bguh2rcd13ifvqcj0","pricing_plan_id":"cebpf4jnsgd1na2vs0mg"},{"bike_id":"3c6c0f4e-a3ab-4518-a08c-6f8d1166e07c","system_id":"levelo_inurba_marseille","lat":43.23154,"lon":5.43708,"is_reserved":false,"is_disabled":false,"rental_uris":{"android":"levelo://app?vid=3c6c0f4e-a3ab-4518-a08c-6f8d1166e07c","ios":"levelo://app?vid=3c6c0f4e-a3ab-4518-a08c-6f8d1166e07c"},"vehicle_type_id":"4","last_reported":1725955903,"current_range_meters":18800,"station_id":"ce4bhmp2rcd13ifvqgog","pricing_plan_id":"cebpf4jnsgd1na2vs0mg"},{"bike_id":"90437a4a-a8ed-419f-b482-00ce1f86e2f2","system_id":"levelo_inurba_marseille","lat":43.30472,"lon":5.379,"is_reserved":false,"is_disabled":false,"rental_uris":{"android":"levelo://app?vid=90437a4a-a8ed-419f-b482-00ce1f86e2f2","ios":"levelo://app?vid=90437a4a-a8ed-419f-b482-00ce1f86e2f2"},"vehicle_type_id":"4","last_reported":1725955903,"current_range_meters":21600,"station_id":"ce4bgup2rcd13ifvqcn0","pricing_plan_id":"cebpf4jnsgd1na2vs0mg"},{"bike_id":"392bfabb-6239-43cc-935d-dc80e84f23a6","system_id":"levelo_inurba_marseille","lat":43.25717,"lon":5.41106,"is_reserved":false,"is_disabled":false,"rental_uris":{"android":"levelo://app?vid=392bfabb-6239-43cc-935d-dc80e84f23a6","ios":"levelo://app?vid=392bfabb-6239-43cc-935d-dc80e84f23a6"},"vehicle_type_id":"4","last_reported":1725955903,"current_range_meters":22800,"station_id":"ce4bhkp2rcd13ifvqgd0","pricing_plan_id":"cebpf4jnsgd1na2vs0mg"},{"bike_id":"5ec11b04-2dd7-4e17-ad16-e7e8cc4f01be","system_id":"levelo_inurba_marseille","lat":43.27679,"lon":5.38893,"is_reserved":false,"is_disabled":false,"rental_uris":{"android":"levelo://app?vid=5ec11b04-2dd7-4e17-ad16-e7e8cc4f01be","ios":"levelo://app?vid=5ec11b04-2dd7-4e17-ad16-e7e8cc4f01be"},"vehicle_type_id":"4","last_reported":1725955903,"current_range_meters":18000,"station_id":"ce4bhi12rcd13ifvqfo0","pricing_plan_id":"cebpf4jnsgd1na2vs0mg"},{"bike_id":"7931cda6-a2f4-4ffc-bbcd-6d51b5729dec","system_id":"levelo_inurba_marseille","lat":43.33728,"lon":5.39179,"is_reserved":false,"is_disabled":false,"rental_uris":{"android":"levelo://app?vid=7931cda6-a2f4-4ffc-bbcd-6d51b5729dec","ios":"levelo://app?vid=7931cda6-a2f4-4ffc-bbcd-6d51b5729dec"},"vehicle_type_id":"4","last_reported":1725955903,"current_range_meters":35200,"station_id":"ce4bhr92rcd13ifvqhsg","pricing_plan_id":"cebpf4jnsgd1na2vs0mg"},{"bike_id":"99ff5113-63b8-4286-bc76-22496d34f647","system_id":"levelo_inurba_marseille","lat":43.23194,"lon":5.35559,"is_reserved":false,"is_disabled":false,"rental_uris":{"android":"levelo://app?vid=99ff5113-63b8-4286-bc76-22496d34f647","ios":"levelo://app?vid=99ff5113-63b8-4286-bc76-22496d34f647"},"vehicle_type_id":"4","last_reported":1725955903,"current_range_meters":6000,"station_id":"ce4bhu92rcd13ifvqi70","pricing_plan_id":"cebpf4jnsgd1na2vs0mg"},{"bike_id":"564d59a7-37f7-4749-9d7c-782d2d7ae974","system_id":"levelo_inurba_marseille","lat":43.32539,"lon":5.4144,"is_reserved":false,"is_disabled":false,"rental_uris":{"android":"levelo://app?vid=564d59a7-37f7-4749-9d7c-782d2d7ae974","ios":"levelo://app?vid=564d59a7-37f7-4749-9d7c-782d2d7ae974"},"vehicle_type_id":"4","last_reported":1725955903,"current_range_meters":6400,"station_id":"ce4bhq12rcd13ifvqhhg","pricing_plan_id":"cebpf4jnsgd1na2vs0mg"},{"bike_id":"e3a5f867-13ca-4df8-912e-274f5a734e3a","system_id":"levelo_inurba_marseille","lat":43.29687,"lon":5.36587,"is_reserved":false,"is_disabled":false,"rental_uris":{"android":"levelo://app?vid=e3a5f867-13ca-4df8-912e-274f5a734e3a","ios":"levelo://app?vid=e3a5f867-13ca-4df8-912e-274f5a734e3a"},"vehicle_type_id":"4","last_reported":1725955903,"current_range_meters":36000,"station_id":"ce4bgn12rcd13ifvqbt0","pricing_plan_id":"cebpf4jnsgd1na2vs0mg"},{"bike_id":"ab9b8990-e378-4cf6-9ff1-6f0f22223b29","system_id":"levelo_inurba_marseille","lat":43.23152,"lon":5.43701,"is_reserved":false,"is_disabled":false,"rental_uris":{"android":"levelo://app?vid=ab9b8990-e378-4cf6-9ff1-6f0f22223b29","ios":"levelo://app?vid=ab9b8990-e378-4cf6-9ff1-6f0f22223b29"},"vehicle_type_id":"4","last_reported":1725955903,"current_range_meters":16800,"station_id":"ce4bhmp2rcd13ifvqgog","pricing_plan_id":"cebpf4jnsgd1na2vs0mg"},{"bike_id":"56fe391e-723e-42df-8d0c-af51e6441891","system_id":"levelo_inurba_marseille","lat":43.2306,"lon":5.35481,"is_reserved":false,"is_disabled":false,"rental_uris":{"android":"levelo://app?vid=56fe391e-723e-42df-8d0c-af51e6441891","ios":"levelo://app?vid=56fe391e-723e-42df-8d0c-af51e6441891"},"vehicle_type_id":"4","last_reported":1725955903,"current_range_meters":4400,"station_id":"cpo3342slgdg3j2ifvpg","pricing_plan_id":"cebpf4jnsgd1na2vs0mg"},{"bike_id":"cb3500c1-3fd9-4803-bd61-e500ce42254b","system_id":"levelo_inurba_marseille","lat":43.30419,"lon":5.41276,"is_reserved":false,"is_disabled":false,"rental_uris":{"android":"levelo://app?vid=cb3500c1-3fd9-4803-bd61-e500ce42254b","ios":"levelo://app?vid=cb3500c1-3fd9-4803-bd61-e500ce42254b"},"vehicle_type_id":"4","last_reported":1725955903,"current_range_meters":36800,"station_id":"ce4bhop2rcd13ifvqh8g","pricing_plan_id":"cebpf4jnsgd1na2vs0mg"},{"bike_id":"c5b54f07-9e8a-4d5d-af65-a461c660ca45","system_id":"levelo_inurba_marseille","lat":43.32289,"lon":5.38252,"is_reserved":false,"is_disabled":false,"rental_uris":{"android":"levelo://app?vid=c5b54f07-9e8a-4d5d-af65-a461c660ca45","ios":"levelo://app?vid=c5b54f07-9e8a-4d5d-af65-a461c660ca45"},"vehicle_type_id":"4","last_reported":1725955903,"current_range_meters":10800,"station_id":"ce4bhr12rcd13ifvqhqg","pricing_plan_id":"cebpf4jnsgd1na2vs0mg"},{"bike_id":"d0952ab0-3044-44df-af2c-2dcfb366a544","system_id":"levelo_inurba_marseille","lat":43.23157,"lon":5.43702,"is_reserved":false,"is_disabled":false,"rental_uris":{"android":"levelo://app?vid=d0952ab0-3044-44df-af2c-2dcfb366a544","ios":"levelo://app?vid=d0952ab0-3044-44df-af2c-2dcfb366a544"},"vehicle_type_id":"4","last_reported":1725955903,"current_range_meters":17600,"station_id":"ce4bhmp2rcd13ifvqgog","pricing_plan_id":"cebpf4jnsgd1na2vs0mg"},{"bike_id":"b195d04f-1622-40d0-9a9f-cb23d3d1432b","system_id":"levelo_inurba_marseille","lat":43.30906,"lon":5.3685,"is_reserved":false,"is_disabled":false,"rental_uris":{"android":"levelo://app?vid=b195d04f-1622-40d0-9a9f-cb23d3d1432b","ios":"levelo://app?vid=b195d04f-1622-40d0-9a9f-cb23d3d1432b"},"vehicle_type_id":"4","last_reported":1725955903,"current_range_meters":22400,"station_id":"ce4bgn92rcd13ifvqbvg","pricing_plan_id":"cebpf4jnsgd1na2vs0mg"},{"bike_id":"b874cd39-3ae9-4272-8c2c-95985a6792ea","system_id":"levelo_inurba_marseille","lat":43.30541,"lon":5.36538,"is_reserved":false,"is_disabled":false,"rental_uris":{"android":"levelo://app?vid=b874cd39-3ae9-4272-8c2c-95985a6792ea","ios":"levelo://app?vid=b874cd39-3ae9-4272-8c2c-95985a6792ea"},"vehicle_type_id":"4","last_reported":1725955903,"current_range_meters":28800,"station_id":"ce4bgs12rcd13ifvqcag","pricing_plan_id":"cebpf4jnsgd1na2vs0mg"},{"bike_id":"0e6d8ac9-eb06-4686-b2a2-953fdab7dd5a","system_id":"levelo_inurba_marseille","lat":43.33608,"lon":5.4102,"is_reserved":false,"is_disabled":false,"rental_uris":{"android":"levelo://app?vid=0e6d8ac9-eb06-4686-b2a2-953fdab7dd5a","ios":"levelo://app?vid=0e6d8ac9-eb06-4686-b2a2-953fdab7dd5a"},"vehicle_type_id":"4","last_reported":1725955903,"current_range_meters":34000,"station_id":"ce4bhqh2rcd13ifvqhmg","pricing_plan_id":"cebpf4jnsgd1na2vs0mg"},{"bike_id":"94776667-da28-4633-adb9-87e58c79c629","system_id":"levelo_inurba_marseille","lat":43.26954,"lon":5.38622,"is_reserved":false,"is_disabled":false,"rental_uris":{"android":"levelo://app?vid=94776667-da28-4633-adb9-87e58c79c629","ios":"levelo://app?vid=94776667-da28-4633-adb9-87e58c79c629"},"vehicle_type_id":"4","last_reported":1725955903,"current_range_meters":9600,"station_id":"ce4bhh92rcd13ifvqfh0","pricing_plan_id":"cebpf4jnsgd1na2vs0mg"},{"bike_id":"f5ab10c4-6d47-48ee-9572-4519f61eb1b5","system_id":"levelo_inurba_marseille","lat":43.25937,"lon":5.40907,"is_reserved":false,"is_disabled":false,"rental_uris":{"android":"levelo://app?vid=f5ab10c4-6d47-48ee-9572-4519f61eb1b5","ios":"levelo://app?vid=f5ab10c4-6d47-48ee-9572-4519f61eb1b5"},"vehicle_type_id":"4","last_reported":1725955903,"current_range_meters":8000,"station_id":"ce4bhm92rcd13ifvqglg","pricing_plan_id":"cebpf4jnsgd1na2vs0mg"},{"bike_id":"9ec6a2be-c877-46d5-b492-7c70ec4b40f3","system_id":"levelo_inurba_marseille","lat":43.31351,"lon":5.36713,"is_reserved":false,"is_disabled":false,"rental_uris":{"android":"levelo://app?vid=9ec6a2be-c877-46d5-b492-7c70ec4b40f3","ios":"levelo://app?vid=9ec6a2be-c877-46d5-b492-7c70ec4b40f3"},"vehicle_type_id":"4","last_reported":1725955903,"current_range_meters":28800,"station_id":"ce4bgr92rcd13ifvqc6g","pricing_plan_id":"cebpf4jnsgd1na2vs0mg"},{"bike_id":"980afb58-a040-4b55-9505-8bab9b3cad7b","system_id":"levelo_inurba_marseille","lat":43.30945,"lon":5.39043,"is_reserved":false,"is_disabled":false,"rental_uris":{"android":"levelo://app?vid=980afb58-a040-4b55-9505-8bab9b3cad7b","ios":"levelo://app?vid=980afb58-a040-4b55-9505-8bab9b3cad7b"},"vehicle_type_id":"4","last_reported":1725955903,"current_range_meters":31200,"station_id":"ce4bgup2rcd13ifvqco0","pricing_plan_id":"cebpf4jnsgd1na2vs0mg"},{"bike_id":"e238eb9a-b5ce-4daa-a070-0709dee78a5d","system_id":"levelo_inurba_marseille","lat":43.23164,"lon":5.43698,"is_reserved":false,"is_disabled":false,"rental_uris":{"android":"levelo://app?vid=e238eb9a-b5ce-4daa-a070-0709dee78a5d","ios":"levelo://app?vid=e238eb9a-b5ce-4daa-a070-0709dee78a5d"},"vehicle_type_id":"4","last_reported":1725955903,"current_range_meters":20000,"station_id":"ce4bhmp2rcd13ifvqgog","pricing_plan_id":"cebpf4jnsgd1na2vs0mg"},{"bike_id":"9c1c2862-72f5-485b-8155-229a5d029ce6","system_id":"levelo_inurba_marseille","lat":43.26953,"lon":5.3862,"is_reserved":false,"is_disabled":false,"rental_uris":{"android":"levelo://app?vid=9c1c2862-72f5-485b-8155-229a5d029ce6","ios":"levelo://app?vid=9c1c2862-72f5-485b-8155-229a5d029ce6"},"vehicle_type_id":"4","last_reported":1725955903,"current_range_meters":30400,"station_id":"ce4bhh92rcd13ifvqfh0","pricing_plan_id":"cebpf4jnsgd1na2vs0mg"},{"bike_id":"ca932e2d-e371-4f17-b3f0-369b6de92a82","system_id":"levelo_inurba_marseille","lat":43.26559,"lon":5.37277,"is_reserved":false,"is_disabled":false,"rental_uris":{"android":"levelo://app?vid=ca932e2d-e371-4f17-b3f0-369b6de92a82","ios":"levelo://app?vid=ca932e2d-e371-4f17-b3f0-369b6de92a82"},"vehicle_type_id":"4","last_reported":1725955903,"current_range_meters":18000,"station_id":"ce4bhg12rcd13ifvqf70","pricing_plan_id":"cebpf4jnsgd1na2vs0mg"},{"bike_id":"0447f5eb-8ddc-47d7-8883-e0dd520dfd97","system_id":"levelo_inurba_marseille","lat":43.31757,"lon":5.39014,"is_reserved":false,"is_disabled":false,"rental_uris":{"android":"levelo://app?vid=0447f5eb-8ddc-47d7-8883-e0dd520dfd97","ios":"levelo://app?vid=0447f5eb-8ddc-47d7-8883-e0dd520dfd97"},"vehicle_type_id":"4","last_reported":1725955903,"current_range_meters":16800,"station_id":"ce4bhqp2rcd13ifvqhng","pricing_plan_id":"cebpf4jnsgd1na2vs0mg"},{"bike_id":"35a92e2d-d77b-400b-aeba-f522bf358e49","system_id":"levelo_inurba_marseille","lat":43.31876,"lon":5.37374,"is_reserved":false,"is_disabled":false,"rental_uris":{"android":"levelo://app?vid=35a92e2d-d77b-400b-aeba-f522bf358e49","ios":"levelo://app?vid=35a92e2d-d77b-400b-aeba-f522bf358e49"},"vehicle_type_id":"4","last_reported":1725955903,"current_range_meters":17200,"station_id":"ce4bgup2rcd13ifvqco0","pricing_plan_id":"cebpf4jnsgd1na2vs0mg"},{"bike_id":"080c7b59-af9b-4684-a1b3-a8785e08146e","system_id":"levelo_inurba_marseille","lat":43.3229,"lon":5.38257,"is_reserved":false,"is_disabled":false,"rental_uris":{"android":"levelo://app?vid=080c7b59-af9b-4684-a1b3-a8785e08146e","ios":"levelo://app?vid=080c7b59-af9b-4684-a1b3-a8785e08146e"},"vehicle_type_id":"4","last_reported":1725955903,"current_range_meters":37600,"station_id":"ce4bhr12rcd13ifvqhqg","pricing_plan_id":"cebpf4jnsgd1na2vs0mg"},{"bike_id":"78f636b3-60ce-4ff9-9a25-7430bb0a0a48","system_id":"levelo_inurba_marseille","lat":43.299612,"lon":5.384813,"is_reserved":false,"is_disabled":false,"rental_uris":{"android":"levelo://app?vid=78f636b3-60ce-4ff9-9a25-7430bb0a0a48","ios":"levelo://app?vid=78f636b3-60ce-4ff9-9a25-7430bb0a0a48"},"vehicle_type_id":"4","last_reported":1725955903,"current_range_meters":20800,"station_id":"ce4bgj92rcd13ifvqbd0","pricing_plan_id":"cebpf4jnsgd1na2vs0mg"},{"bike_id":"689af299-077a-4b96-aadf-024a1a87228a","system_id":"levelo_inurba_marseille","lat":43.27496,"lon":5.42448,"is_reserved":false,"is_disabled":false,"rental_uris":{"android":"levelo://app?vid=689af299-077a-4b96-aadf-024a1a87228a","ios":"levelo://app?vid=689af299-077a-4b96-aadf-024a1a87228a"},"vehicle_type_id":"4","last_reported":1725955903,"current_range_meters":24000,"station_id":"ce4bhn92rcd13ifvqgrg","pricing_plan_id":"cebpf4jnsgd1na2vs0mg"},{"bike_id":"cfc6650a-34d8-4613-835d-150880fbaae0","system_id":"levelo_inurba_marseille","lat":43.23153,"lon":5.43709,"is_reserved":false,"is_disabled":false,"rental_uris":{"android":"levelo://app?vid=cfc6650a-34d8-4613-835d-150880fbaae0","ios":"levelo://app?vid=cfc6650a-34d8-4613-835d-150880fbaae0"},"vehicle_type_id":"4","last_reported":1725955903,"current_range_meters":16000,"station_id":"ce4bhmp2rcd13ifvqgog","pricing_plan_id":"cebpf4jnsgd1na2vs0mg"},{"bike_id":"78778da8-03c2-4260-b5d2-a398d9400b64","system_id":"levelo_inurba_marseille","lat":43.23154,"lon":5.43723,"is_reserved":false,"is_disabled":false,"rental_uris":{"android":"levelo://app?vid=78778da8-03c2-4260-b5d2-a398d9400b64","ios":"levelo://app?vid=78778da8-03c2-4260-b5d2-a398d9400b64"},"vehicle_type_id":"4","last_reported":1725955903,"current_range_meters":35600,"station_id":"ce4bhmp2rcd13ifvqgog","pricing_plan_id":"cebpf4jnsgd1na2vs0mg"},{"bike_id":"5b6b64cf-0485-4d04-b562-50fc388be6b2","system_id":"levelo_inurba_marseille","lat":43.32591,"lon":5.40554,"is_reserved":false,"is_disabled":false,"rental_uris":{"android":"levelo://app?vid=5b6b64cf-0485-4d04-b562-50fc388be6b2","ios":"levelo://app?vid=5b6b64cf-0485-4d04-b562-50fc388be6b2"},"vehicle_type_id":"4","last_reported":1725955903,"current_range_meters":12800,"station_id":"ce4bhq92rcd13ifvqhjg","pricing_plan_id":"cebpf4jnsgd1na2vs0mg"},{"bike_id":"a0a274be-7ffb-4a38-8bc1-622e2c8e9675","system_id":"levelo_inurba_marseille","lat":43.320385,"lon":5.415675,"is_reserved":false,"is_disabled":false,"rental_uris":{"android":"levelo://app?vid=a0a274be-7ffb-4a38-8bc1-622e2c8e9675","ios":"levelo://app?vid=a0a274be-7ffb-4a38-8bc1-622e2c8e9675"},"vehicle_type_id":"4","last_reported":1725955903,"current_range_meters":2000,"station_id":"ce4bhq92rcd13ifvqhkg","pricing_plan_id":"cebpf4jnsgd1na2vs0mg"},{"bike_id":"5704885e-1618-4594-8cff-7f027c04c4a2","system_id":"levelo_inurba_marseille","lat":43.25944,"lon":5.40891,"is_reserved":false,"is_disabled":false,"rental_uris":{"android":"levelo://app?vid=5704885e-1618-4594-8cff-7f027c04c4a2","ios":"levelo://app?vid=5704885e-1618-4594-8cff-7f027c04c4a2"},"vehicle_type_id":"4","last_reported":1725955903,"current_range_meters":17600,"station_id":"ce4bhm92rcd13ifvqglg","pricing_plan_id":"cebpf4jnsgd1na2vs0mg"},{"bike_id":"02e9227e-4d15-45e3-b464-2b03b597a05f","system_id":"levelo_inurba_marseille","lat":43.3055,"lon":5.36693,"is_reserved":false,"is_disabled":false,"rental_uris":{"android":"levelo://app?vid=02e9227e-4d15-45e3-b464-2b03b597a05f","ios":"levelo://app?vid=02e9227e-4d15-45e3-b464-2b03b597a05f"},"vehicle_type_id":"4","last_reported":1725955903,"current_range_meters":38400,"station_id":"ce4bgrp2rcd13ifvqc9g","pricing_plan_id":"cebpf4jnsgd1na2vs0mg"},{"bike_id":"1d583431-4535-43ff-9cfe-97c3afe38e61","system_id":"levelo_inurba_marseille","lat":43.30963,"lon":5.4005,"is_reserved":false,"is_disabled":false,"rental_uris":{"android":"levelo://app?vid=1d583431-4535-43ff-9cfe-97c3afe38e61","ios":"levelo://app?vid=1d583431-4535-43ff-9cfe-97c3afe38e61"},"vehicle_type_id":"4","last_reported":1725955903,"current_range_meters":14000,"station_id":"ce4bhpp2rcd13ifvqhgg","pricing_plan_id":"cebpf4jnsgd1na2vs0mg"},{"bike_id":"5d411a94-71dc-41e3-ae74-13086227871e","system_id":"levelo_inurba_marseille","lat":43.27491,"lon":5.42447,"is_reserved":false,"is_disabled":false,"rental_uris":{"android":"levelo://app?vid=5d411a94-71dc-41e3-ae74-13086227871e","ios":"levelo://app?vid=5d411a94-71dc-41e3-ae74-13086227871e"},"vehicle_type_id":"4","last_reported":1725955903,"current_range_meters":34800,"station_id":"ce4bhn92rcd13ifvqgrg","pricing_plan_id":"cebpf4jnsgd1na2vs0mg"},{"bike_id":"fd35fa38-adf1-4f1a-b3da-4f1d38e91ee0","system_id":"levelo_inurba_marseille","lat":43.24186,"lon":5.39717,"is_reserved":false,"is_disabled":false,"rental_uris":{"android":"levelo://app?vid=fd35fa38-adf1-4f1a-b3da-4f1d38e91ee0","ios":"levelo://app?vid=fd35fa38-adf1-4f1a-b3da-4f1d38e91ee0"},"vehicle_type_id":"4","last_reported":1725955903,"current_range_meters":19200,"station_id":"ce4bhn12rcd13ifvqgpg","pricing_plan_id":"cebpf4jnsgd1na2vs0mg"},{"bike_id":"bf5555e9-efb7-4521-b052-9d5a2c8f2941","system_id":"levelo_inurba_marseille","lat":43.25937,"lon":5.40905,"is_reserved":false,"is_disabled":false,"rental_uris":{"android":"levelo://app?vid=bf5555e9-efb7-4521-b052-9d5a2c8f2941","ios":"levelo://app?vid=bf5555e9-efb7-4521-b052-9d5a2c8f2941"},"vehicle_type_id":"4","last_reported":1725955903,"current_range_meters":31200,"station_id":"ce4bhm92rcd13ifvqglg","pricing_plan_id":"cebpf4jnsgd1na2vs0mg"},{"bike_id":"07d70a6a-8074-40e1-ae01-8ee8594cd9e3","system_id":"levelo_inurba_marseille","lat":43.24078,"lon":5.37748,"is_reserved":false,"is_disabled":false,"rental_uris":{"android":"levelo://app?vid=07d70a6a-8074-40e1-ae01-8ee8594cd9e3","ios":"levelo://app?vid=07d70a6a-8074-40e1-ae01-8ee8594cd9e3"},"vehicle_type_id":"4","last_reported":1725955903,"current_range_meters":18000,"station_id":"ce4bhnp2rcd13ifvqgvg","pricing_plan_id":"cebpf4jnsgd1na2vs0mg"},{"bike_id":"0d318225-f77d-4b1b-8c7b-e5dce1e1083e","system_id":"levelo_inurba_marseille","lat":43.27983,"lon":5.4001,"is_reserved":false,"is_disabled":false,"rental_uris":{"android":"levelo://app?vid=0d318225-f77d-4b1b-8c7b-e5dce1e1083e","ios":"levelo://app?vid=0d318225-f77d-4b1b-8c7b-e5dce1e1083e"},"vehicle_type_id":"4","last_reported":1725955903,"current_range_meters":28400,"station_id":"ce4bho92rcd13ifvqh4g","pricing_plan_id":"cebpf4jnsgd1na2vs0mg"},{"bike_id":"e4067140-ef5f-4d5d-b312-3ad8fb897ba0","system_id":"levelo_inurba_marseille","lat":43.25575,"lon":5.38223,"is_reserved":false,"is_disabled":false,"rental_uris":{"android":"levelo://app?vid=e4067140-ef5f-4d5d-b312-3ad8fb897ba0","ios":"levelo://app?vid=e4067140-ef5f-4d5d-b312-3ad8fb897ba0"},"vehicle_type_id":"4","last_reported":1725955903,"current_range_meters":30000,"station_id":"ce4bhih2rcd13ifvqfs0","pricing_plan_id":"cebpf4jnsgd1na2vs0mg"},{"bike_id":"ec66178c-9377-4a8d-ba34-1a39bc42f1ac","system_id":"levelo_inurba_marseille","lat":43.32287,"lon":5.38277,"is_reserved":false,"is_disabled":false,"rental_uris":{"android":"levelo://app?vid=ec66178c-9377-4a8d-ba34-1a39bc42f1ac","ios":"levelo://app?vid=ec66178c-9377-4a8d-ba34-1a39bc42f1ac"},"vehicle_type_id":"4","last_reported":1725955903,"current_range_meters":38000,"station_id":"ce4bhr12rcd13ifvqhqg","pricing_plan_id":"cebpf4jnsgd1na2vs0mg"},{"bike_id":"ef85f407-e32a-4fc2-ad1d-f80b024714f7","system_id":"levelo_inurba_marseille","lat":43.33744,"lon":5.37438,"is_reserved":false,"is_disabled":false,"rental_uris":{"android":"levelo://app?vid=ef85f407-e32a-4fc2-ad1d-f80b024714f7","ios":"levelo://app?vid=ef85f407-e32a-4fc2-ad1d-f80b024714f7"},"vehicle_type_id":"4","last_reported":1725955903,"current_range_meters":32800,"station_id":"","pricing_plan_id":"cebpf4jnsgd1na2vs0mg"},{"bike_id":"c8566ff8-48bb-4153-8f25-6ecc62ca6edb","system_id":"levelo_inurba_marseille","lat":43.34149,"lon":5.40909,"is_reserved":false,"is_disabled":false,"rental_uris":{"android":"levelo://app?vid=c8566ff8-48bb-4153-8f25-6ecc62ca6edb","ios":"levelo://app?vid=c8566ff8-48bb-4153-8f25-6ecc62ca6edb"},"vehicle_type_id":"4","last_reported":1725955903,"current_range_meters":40000,"station_id":"ce4bhqh2rcd13ifvqhlg","pricing_plan_id":"cebpf4jnsgd1na2vs0mg"},{"bike_id":"bc745383-2511-4656-a4d1-e131400dfd60","system_id":"levelo_inurba_marseille","lat":43.23195,"lon":5.35549,"is_reserved":false,"is_disabled":false,"rental_uris":{"android":"levelo://app?vid=bc745383-2511-4656-a4d1-e131400dfd60","ios":"levelo://app?vid=bc745383-2511-4656-a4d1-e131400dfd60"},"vehicle_type_id":"4","last_reported":1725955903,"current_range_meters":18000,"station_id":"ce4bhu92rcd13ifvqi70","pricing_plan_id":"cebpf4jnsgd1na2vs0mg"},{"bike_id":"da79121b-839b-4688-8795-d88ebc670735","system_id":"levelo_inurba_marseille","lat":43.28041,"lon":5.36939,"is_reserved":false,"is_disabled":false,"rental_uris":{"android":"levelo://app?vid=da79121b-839b-4688-8795-d88ebc670735","ios":"levelo://app?vid=da79121b-839b-4688-8795-d88ebc670735"},"vehicle_type_id":"4","last_reported":1725955903,"current_range_meters":23200,"station_id":"ce4bha12rcd13ifvqef0","pricing_plan_id":"cebpf4jnsgd1na2vs0mg"},{"bike_id":"19baf255-7509-4722-9ee8-5ea98ac40953","system_id":"levelo_inurba_marseille","lat":43.24995,"lon":5.38928,"is_reserved":false,"is_disabled":false,"rental_uris":{"android":"levelo://app?vid=19baf255-7509-4722-9ee8-5ea98ac40953","ios":"levelo://app?vid=19baf255-7509-4722-9ee8-5ea98ac40953"},"vehicle_type_id":"4","last_reported":1725955903,"current_range_meters":4000,"station_id":"ce4bhgp2rcd13ifvqfd0","pricing_plan_id":"cebpf4jnsgd1na2vs0mg"},{"bike_id":"f5e325bc-55a6-4f71-aeea-fe930903b714","system_id":"levelo_inurba_marseille","lat":43.25931,"lon":5.40905,"is_reserved":false,"is_disabled":false,"rental_uris":{"android":"levelo://app?vid=f5e325bc-55a6-4f71-aeea-fe930903b714","ios":"levelo://app?vid=f5e325bc-55a6-4f71-aeea-fe930903b714"},"vehicle_type_id":"4","last_reported":1725955903,"current_range_meters":2800,"station_id":"ce4bhm92rcd13ifvqglg","pricing_plan_id":"cebpf4jnsgd1na2vs0mg"},{"bike_id":"d1e75f6b-0178-411c-8cc5-bddaafc87ad8","system_id":"levelo_inurba_marseille","lat":43.2901,"lon":5.381179,"is_reserved":false,"is_disabled":false,"rental_uris":{"android":"levelo://app?vid=d1e75f6b-0178-411c-8cc5-bddaafc87ad8","ios":"levelo://app?vid=d1e75f6b-0178-411c-8cc5-bddaafc87ad8"},"vehicle_type_id":"4","last_reported":1725955903,"current_range_meters":23200,"station_id":"ce4bgup2rcd13ifvqcn0","pricing_plan_id":"cebpf4jnsgd1na2vs0mg"},{"bike_id":"256ff1b4-3cda-4078-ac92-9b2b566638b7","system_id":"levelo_inurba_marseille","lat":43.25575,"lon":5.38232,"is_reserved":false,"is_disabled":false,"rental_uris":{"android":"levelo://app?vid=256ff1b4-3cda-4078-ac92-9b2b566638b7","ios":"levelo://app?vid=256ff1b4-3cda-4078-ac92-9b2b566638b7"},"vehicle_type_id":"4","last_reported":1725955903,"current_range_meters":32000,"station_id":"ce4bhih2rcd13ifvqfs0","pricing_plan_id":"cebpf4jnsgd1na2vs0mg"},{"bike_id":"45b7ed4c-9360-4103-8798-411ac78a4321","system_id":"levelo_inurba_marseille","lat":43.33614,"lon":5.4102,"is_reserved":false,"is_disabled":false,"rental_uris":{"android":"levelo://app?vid=45b7ed4c-9360-4103-8798-411ac78a4321","ios":"levelo://app?vid=45b7ed4c-9360-4103-8798-411ac78a4321"},"vehicle_type_id":"4","last_reported":1725955903,"current_range_meters":18000,"station_id":"ce4bhqh2rcd13ifvqhmg","pricing_plan_id":"cebpf4jnsgd1na2vs0mg"},{"bike_id":"7373bc1f-8a66-4ba3-ac30-0f23a7f5c562","system_id":"levelo_inurba_marseille","lat":43.31989,"lon":5.38172,"is_reserved":false,"is_disabled":false,"rental_uris":{"android":"levelo://app?vid=7373bc1f-8a66-4ba3-ac30-0f23a7f5c562","ios":"levelo://app?vid=7373bc1f-8a66-4ba3-ac30-0f23a7f5c562"},"vehicle_type_id":"4","last_reported":1725955903,"current_range_meters":10000,"station_id":"ce4bhr12rcd13ifvqhpg","pricing_plan_id":"cebpf4jnsgd1na2vs0mg"},{"bike_id":"ccbf5e43-be0f-4330-aa14-cfe13aff8a11","system_id":"levelo_inurba_marseille","lat":43.27295,"lon":5.41611,"is_reserved":false,"is_disabled":false,"rental_uris":{"android":"levelo://app?vid=ccbf5e43-be0f-4330-aa14-cfe13aff8a11","ios":"levelo://app?vid=ccbf5e43-be0f-4330-aa14-cfe13aff8a11"},"vehicle_type_id":"4","last_reported":1725955903,"current_range_meters":8000,"station_id":"","pricing_plan_id":"cebpf4jnsgd1na2vs0mg"},{"bike_id":"fb9a1f13-fb34-4946-a468-b4c030b63686","system_id":"levelo_inurba_marseille","lat":43.29556,"lon":5.42285,"is_reserved":false,"is_disabled":false,"rental_uris":{"android":"levelo://app?vid=fb9a1f13-fb34-4946-a468-b4c030b63686","ios":"levelo://app?vid=fb9a1f13-fb34-4946-a468-b4c030b63686"},"vehicle_type_id":"4","last_reported":1725955903,"current_range_meters":37600,"station_id":"ce4bhph2rcd13ifvqhdg","pricing_plan_id":"cebpf4jnsgd1na2vs0mg"},{"bike_id":"a5bdacf3-b99a-4be5-a424-483226f1ce0b","system_id":"levelo_inurba_marseille","lat":43.24073,"lon":5.37748,"is_reserved":false,"is_disabled":false,"rental_uris":{"android":"levelo://app?vid=a5bdacf3-b99a-4be5-a424-483226f1ce0b","ios":"levelo://app?vid=a5bdacf3-b99a-4be5-a424-483226f1ce0b"},"vehicle_type_id":"4","last_reported":1725955903,"current_range_meters":13600,"station_id":"ce4bhnp2rcd13ifvqgvg","pricing_plan_id":"cebpf4jnsgd1na2vs0mg"},{"bike_id":"3d2264ab-05ae-4dca-b782-680dc12c7edb","system_id":"levelo_inurba_marseille","lat":43.30911,"lon":5.36846,"is_reserved":false,"is_disabled":false,"rental_uris":{"android":"levelo://app?vid=3d2264ab-05ae-4dca-b782-680dc12c7edb","ios":"levelo://app?vid=3d2264ab-05ae-4dca-b782-680dc12c7edb"},"vehicle_type_id":"4","last_reported":1725955903,"current_range_meters":9200,"station_id":"ce4bgn92rcd13ifvqbvg","pricing_plan_id":"cebpf4jnsgd1na2vs0mg"},{"bike_id":"98dc66e2-5a71-4a68-b04f-72f920b4931b","system_id":"levelo_inurba_marseille","lat":43.26676,"lon":5.38257,"is_reserved":false,"is_disabled":false,"rental_uris":{"android":"levelo://app?vid=98dc66e2-5a71-4a68-b04f-72f920b4931b","ios":"levelo://app?vid=98dc66e2-5a71-4a68-b04f-72f920b4931b"},"vehicle_type_id":"4","last_reported":1725955903,"current_range_meters":8800,"station_id":"ce4bhg92rcd13ifvqf90","pricing_plan_id":"cebpf4jnsgd1na2vs0mg"},{"bike_id":"69e887f5-8a63-4dc2-8534-1bb6d6ddd4fa","system_id":"levelo_inurba_marseille","lat":43.23151,"lon":5.43712,"is_reserved":false,"is_disabled":false,"rental_uris":{"android":"levelo://app?vid=69e887f5-8a63-4dc2-8534-1bb6d6ddd4fa","ios":"levelo://app?vid=69e887f5-8a63-4dc2-8534-1bb6d6ddd4fa"},"vehicle_type_id":"4","last_reported":1725955903,"current_range_meters":35600,"station_id":"ce4bhmp2rcd13ifvqgog","pricing_plan_id":"cebpf4jnsgd1na2vs0mg"},{"bike_id":"fe6e65b7-f9fd-4038-8ff4-3966783ffd90","system_id":"levelo_inurba_marseille","lat":43.291809,"lon":5.358016,"is_reserved":false,"is_disabled":false,"rental_uris":{"android":"levelo://app?vid=fe6e65b7-f9fd-4038-8ff4-3966783ffd90","ios":"levelo://app?vid=fe6e65b7-f9fd-4038-8ff4-3966783ffd90"},"vehicle_type_id":"4","last_reported":1725955903,"current_range_meters":6400,"station_id":"ce4bhb12rcd13ifvqel0","pricing_plan_id":"cebpf4jnsgd1na2vs0mg"},{"bike_id":"06b1ad91-f7c5-4c45-bef2-6fd0d0916a03","system_id":"levelo_inurba_marseille","lat":43.2408,"lon":5.37742,"is_reserved":false,"is_disabled":false,"rental_uris":{"android":"levelo://app?vid=06b1ad91-f7c5-4c45-bef2-6fd0d0916a03","ios":"levelo://app?vid=06b1ad91-f7c5-4c45-bef2-6fd0d0916a03"},"vehicle_type_id":"4","last_reported":1725955903,"current_range_meters":29600,"station_id":"ce4bhnp2rcd13ifvqgvg","pricing_plan_id":"cebpf4jnsgd1na2vs0mg"},{"bike_id":"06715854-c7d2-4ad4-b1ff-c4c9680cabdf","system_id":"levelo_inurba_marseille","lat":43.24082,"lon":5.37757,"is_reserved":false,"is_disabled":false,"rental_uris":{"android":"levelo://app?vid=06715854-c7d2-4ad4-b1ff-c4c9680cabdf","ios":"levelo://app?vid=06715854-c7d2-4ad4-b1ff-c4c9680cabdf"},"vehicle_type_id":"4","last_reported":1725955903,"current_range_meters":33600,"station_id":"ce4bhnp2rcd13ifvqgvg","pricing_plan_id":"cebpf4jnsgd1na2vs0mg"},{"bike_id":"c13e1edb-f817-452d-bc46-6f34e97f4d9c","system_id":"levelo_inurba_marseille","lat":43.24082,"lon":5.3775,"is_reserved":false,"is_disabled":false,"rental_uris":{"android":"levelo://app?vid=c13e1edb-f817-452d-bc46-6f34e97f4d9c","ios":"levelo://app?vid=c13e1edb-f817-452d-bc46-6f34e97f4d9c"},"vehicle_type_id":"4","last_reported":1725955903,"current_range_meters":32800,"station_id":"ce4bhnp2rcd13ifvqgvg","pricing_plan_id":"cebpf4jnsgd1na2vs0mg"},{"bike_id":"d4ac2223-a57f-44d7-84aa-ee78468d1a93","system_id":"levelo_inurba_marseille","lat":43.24648,"lon":5.38894,"is_reserved":false,"is_disabled":false,"rental_uris":{"android":"levelo://app?vid=d4ac2223-a57f-44d7-84aa-ee78468d1a93","ios":"levelo://app?vid=d4ac2223-a57f-44d7-84aa-ee78468d1a93"},"vehicle_type_id":"4","last_reported":1725955903,"current_range_meters":24800,"station_id":"ce4bhg12rcd13ifvqf60","pricing_plan_id":"cebpf4jnsgd1na2vs0mg"},{"bike_id":"6b0dbfcc-4a2e-4496-a840-341e8adbca2f","system_id":"levelo_inurba_marseille","lat":43.24072,"lon":5.37762,"is_reserved":false,"is_disabled":false,"rental_uris":{"android":"levelo://app?vid=6b0dbfcc-4a2e-4496-a840-341e8adbca2f","ios":"levelo://app?vid=6b0dbfcc-4a2e-4496-a840-341e8adbca2f"},"vehicle_type_id":"4","last_reported":1725955903,"current_range_meters":16800,"station_id":"ce4bhnp2rcd13ifvqgvg","pricing_plan_id":"cebpf4jnsgd1na2vs0mg"},{"bike_id":"b431ae45-151f-44c8-8690-790461e8ccc2","system_id":"levelo_inurba_marseille","lat":43.27498,"lon":5.42445,"is_reserved":false,"is_disabled":false,"rental_uris":{"android":"levelo://app?vid=b431ae45-151f-44c8-8690-790461e8ccc2","ios":"levelo://app?vid=b431ae45-151f-44c8-8690-790461e8ccc2"},"vehicle_type_id":"4","last_reported":1725955903,"current_range_meters":23200,"station_id":"ce4bhn92rcd13ifvqgrg","pricing_plan_id":"cebpf4jnsgd1na2vs0mg"},{"bike_id":"5221c0b4-e605-4aaf-857f-11e406852fdf","system_id":"levelo_inurba_marseille","lat":43.24077,"lon":5.37748,"is_reserved":false,"is_disabled":false,"rental_uris":{"android":"levelo://app?vid=5221c0b4-e605-4aaf-857f-11e406852fdf","ios":"levelo://app?vid=5221c0b4-e605-4aaf-857f-11e406852fdf"},"vehicle_type_id":"4","last_reported":1725955903,"current_range_meters":16000,"station_id":"ce4bhnp2rcd13ifvqgvg","pricing_plan_id":"cebpf4jnsgd1na2vs0mg"},{"bike_id":"26505684-7909-4a05-a336-28c2a2ea143e","system_id":"levelo_inurba_marseille","lat":43.24088,"lon":5.37747,"is_reserved":false,"is_disabled":false,"rental_uris":{"android":"levelo://app?vid=26505684-7909-4a05-a336-28c2a2ea143e","ios":"levelo://app?vid=26505684-7909-4a05-a336-28c2a2ea143e"},"vehicle_type_id":"4","last_reported":1725955903,"current_range_meters":21600,"station_id":"ce4bhnp2rcd13ifvqgvg","pricing_plan_id":"cebpf4jnsgd1na2vs0mg"},{"bike_id":"058501bb-5a22-4398-ae6a-7b4d1f5de701","system_id":"levelo_inurba_marseille","lat":43.32289,"lon":5.38278,"is_reserved":false,"is_disabled":false,"rental_uris":{"android":"levelo://app?vid=058501bb-5a22-4398-ae6a-7b4d1f5de701","ios":"levelo://app?vid=058501bb-5a22-4398-ae6a-7b4d1f5de701"},"vehicle_type_id":"4","last_reported":1725955903,"current_range_meters":34800,"station_id":"ce4bhr12rcd13ifvqhqg","pricing_plan_id":"cebpf4jnsgd1na2vs0mg"},{"bike_id":"53bfff36-b94a-45fe-82e3-e585e0b70be0","system_id":"levelo_inurba_marseille","lat":43.2668,"lon":5.38264,"is_reserved":false,"is_disabled":false,"rental_uris":{"android":"levelo://app?vid=53bfff36-b94a-45fe-82e3-e585e0b70be0","ios":"levelo://app?vid=53bfff36-b94a-45fe-82e3-e585e0b70be0"},"vehicle_type_id":"4","last_reported":1725955903,"current_range_meters":28800,"station_id":"ce4bhg92rcd13ifvqf90","pricing_plan_id":"cebpf4jnsgd1na2vs0mg"},{"bike_id":"f1be54b5-059f-421d-b193-aa359673dfe0","system_id":"levelo_inurba_marseille","lat":43.27912,"lon":5.37988,"is_reserved":false,"is_disabled":false,"rental_uris":{"android":"levelo://app?vid=f1be54b5-059f-421d-b193-aa359673dfe0","ios":"levelo://app?vid=f1be54b5-059f-421d-b193-aa359673dfe0"},"vehicle_type_id":"4","last_reported":1725955903,"current_range_meters":6400,"station_id":"ce4bhf92rcd13ifvqf50","pricing_plan_id":"cebpf4jnsgd1na2vs0mg"},{"bike_id":"a095d557-e884-4866-b6c4-5dbebc1d04a9","system_id":"levelo_inurba_marseille","lat":43.29554,"lon":5.42277,"is_reserved":false,"is_disabled":false,"rental_uris":{"android":"levelo://app?vid=a095d557-e884-4866-b6c4-5dbebc1d04a9","ios":"levelo://app?vid=a095d557-e884-4866-b6c4-5dbebc1d04a9"},"vehicle_type_id":"4","last_reported":1725955903,"current_range_meters":20400,"station_id":"ce4bhph2rcd13ifvqhdg","pricing_plan_id":"cebpf4jnsgd1na2vs0mg"},{"bike_id":"3fe5d288-ea86-402f-bc21-4840df5f10fd","system_id":"levelo_inurba_marseille","lat":43.30461,"lon":5.37903,"is_reserved":false,"is_disabled":false,"rental_uris":{"android":"levelo://app?vid=3fe5d288-ea86-402f-bc21-4840df5f10fd","ios":"levelo://app?vid=3fe5d288-ea86-402f-bc21-4840df5f10fd"},"vehicle_type_id":"4","last_reported":1725955903,"current_range_meters":29600,"station_id":"ce4bgup2rcd13ifvqcn0","pricing_plan_id":"cebpf4jnsgd1na2vs0mg"},{"bike_id":"ccdbfbda-93aa-45a6-ba3a-1df13fd94b65","system_id":"levelo_inurba_marseille","lat":43.30465,"lon":5.37894,"is_reserved":false,"is_disabled":false,"rental_uris":{"android":"levelo://app?vid=ccdbfbda-93aa-45a6-ba3a-1df13fd94b65","ios":"levelo://app?vid=ccdbfbda-93aa-45a6-ba3a-1df13fd94b65"},"vehicle_type_id":"4","last_reported":1725955903,"current_range_meters":33200,"station_id":"ce4bgup2rcd13ifvqcn0","pricing_plan_id":"cebpf4jnsgd1na2vs0mg"},{"bike_id":"835ae718-d954-4895-8110-addc0146bee5","system_id":"levelo_inurba_marseille","lat":43.31356,"lon":5.3672,"is_reserved":false,"is_disabled":false,"rental_uris":{"android":"levelo://app?vid=835ae718-d954-4895-8110-addc0146bee5","ios":"levelo://app?vid=835ae718-d954-4895-8110-addc0146bee5"},"vehicle_type_id":"4","last_reported":1725955903,"current_range_meters":39200,"station_id":"ce4bgr92rcd13ifvqc6g","pricing_plan_id":"cebpf4jnsgd1na2vs0mg"},{"bike_id":"c83a4954-4eab-4d29-bb54-b0807e2cefdd","system_id":"levelo_inurba_marseille","lat":43.27977,"lon":5.38738,"is_reserved":false,"is_disabled":false,"rental_uris":{"android":"levelo://app?vid=c83a4954-4eab-4d29-bb54-b0807e2cefdd","ios":"levelo://app?vid=c83a4954-4eab-4d29-bb54-b0807e2cefdd"},"vehicle_type_id":"4","last_reported":1725955903,"current_range_meters":27200,"station_id":"ce4bhg12rcd13ifvqf80","pricing_plan_id":"cebpf4jnsgd1na2vs0mg"},{"bike_id":"17e67534-619c-41b8-9dba-c5b2e5b21396","system_id":"levelo_inurba_marseille","lat":43.30095,"lon":5.39076,"is_reserved":false,"is_disabled":false,"rental_uris":{"android":"levelo://app?vid=17e67534-619c-41b8-9dba-c5b2e5b21396","ios":"levelo://app?vid=17e67534-619c-41b8-9dba-c5b2e5b21396"},"vehicle_type_id":"4","last_reported":1725955903,"current_range_meters":13600,"station_id":"ce4bh192rcd13ifvqdb0","pricing_plan_id":"cebpf4jnsgd1na2vs0mg"},{"bike_id":"cf8f7022-0d98-41b6-a4ac-2434f86f3ea5","system_id":"levelo_inurba_marseille","lat":43.24994,"lon":5.38931,"is_reserved":false,"is_disabled":false,"rental_uris":{"android":"levelo://app?vid=cf8f7022-0d98-41b6-a4ac-2434f86f3ea5","ios":"levelo://app?vid=cf8f7022-0d98-41b6-a4ac-2434f86f3ea5"},"vehicle_type_id":"4","last_reported":1725955903,"current_range_meters":8000,"station_id":"ce4bhgp2rcd13ifvqfd0","pricing_plan_id":"cebpf4jnsgd1na2vs0mg"},{"bike_id":"e1a869db-a9c9-40ff-852a-8793cc94c5a8","system_id":"levelo_inurba_marseille","lat":43.27492,"lon":5.42451,"is_reserved":false,"is_disabled":false,"rental_uris":{"android":"levelo://app?vid=e1a869db-a9c9-40ff-852a-8793cc94c5a8","ios":"levelo://app?vid=e1a869db-a9c9-40ff-852a-8793cc94c5a8"},"vehicle_type_id":"4","last_reported":1725955903,"current_range_meters":33200,"station_id":"ce4bhn92rcd13ifvqgrg","pricing_plan_id":"cebpf4jnsgd1na2vs0mg"},{"bike_id":"e1afa912-2bf9-49f5-ab54-6e9af09aacb3","system_id":"levelo_inurba_marseille","lat":43.23196,"lon":5.39983,"is_reserved":false,"is_disabled":false,"rental_uris":{"android":"levelo://app?vid=e1afa912-2bf9-49f5-ab54-6e9af09aacb3","ios":"levelo://app?vid=e1afa912-2bf9-49f5-ab54-6e9af09aacb3"},"vehicle_type_id":"4","last_reported":1725955903,"current_range_meters":11600,"station_id":"ce4bhn12rcd13ifvqgqg","pricing_plan_id":"cebpf4jnsgd1na2vs0mg"},{"bike_id":"4a7331cf-aa4d-49ba-a0d7-05f45c3ea283","system_id":"levelo_inurba_marseille","lat":43.30145,"lon":5.37409,"is_reserved":false,"is_disabled":false,"rental_uris":{"android":"levelo://app?vid=4a7331cf-aa4d-49ba-a0d7-05f45c3ea283","ios":"levelo://app?vid=4a7331cf-aa4d-49ba-a0d7-05f45c3ea283"},"vehicle_type_id":"4","last_reported":1725955903,"current_range_meters":14000,"station_id":"ce4bgs92rcd13ifvqcc0","pricing_plan_id":"cebpf4jnsgd1na2vs0mg"},{"bike_id":"3f04d19c-3606-4d71-9791-16811c739214","system_id":"levelo_inurba_marseille","lat":43.24172,"lon":5.36397,"is_reserved":false,"is_disabled":false,"rental_uris":{"android":"levelo://app?vid=3f04d19c-3606-4d71-9791-16811c739214","ios":"levelo://app?vid=3f04d19c-3606-4d71-9791-16811c739214"},"vehicle_type_id":"4","last_reported":1725955903,"current_range_meters":36000,"station_id":"cpo36qri1sfpv3e86is0","pricing_plan_id":"cebpf4jnsgd1na2vs0mg"},{"bike_id":"2f824156-96da-43d7-90fd-bf156c3d9316","system_id":"levelo_inurba_marseille","lat":43.31485,"lon":5.37297,"is_reserved":false,"is_disabled":false,"rental_uris":{"android":"levelo://app?vid=2f824156-96da-43d7-90fd-bf156c3d9316","ios":"levelo://app?vid=2f824156-96da-43d7-90fd-bf156c3d9316"},"vehicle_type_id":"4","last_reported":1725955903,"current_range_meters":11600,"station_id":"ce4bgt12rcd13ifvqcd0","pricing_plan_id":"cebpf4jnsgd1na2vs0mg"},{"bike_id":"d7bee781-b902-4332-8374-b8948b296a63","system_id":"levelo_inurba_marseille","lat":43.25003,"lon":5.3891,"is_reserved":false,"is_disabled":false,"rental_uris":{"android":"levelo://app?vid=d7bee781-b902-4332-8374-b8948b296a63","ios":"levelo://app?vid=d7bee781-b902-4332-8374-b8948b296a63"},"vehicle_type_id":"4","last_reported":1725955903,"current_range_meters":19200,"station_id":"ce4bhgp2rcd13ifvqfd0","pricing_plan_id":"cebpf4jnsgd1na2vs0mg"},{"bike_id":"5da2003d-fb1c-434c-ae81-c10b92dc97e9","system_id":"levelo_inurba_marseille","lat":43.30468,"lon":5.37898,"is_reserved":false,"is_disabled":false,"rental_uris":{"android":"levelo://app?vid=5da2003d-fb1c-434c-ae81-c10b92dc97e9","ios":"levelo://app?vid=5da2003d-fb1c-434c-ae81-c10b92dc97e9"},"vehicle_type_id":"4","last_reported":1725955903,"current_range_meters":38800,"station_id":"ce4bgup2rcd13ifvqcn0","pricing_plan_id":"cebpf4jnsgd1na2vs0mg"},{"bike_id":"d7157b4c-ce34-4da6-9658-de5de99b3db5","system_id":"levelo_inurba_marseille","lat":43.30947,"lon":5.39022,"is_reserved":false,"is_disabled":false,"rental_uris":{"android":"levelo://app?vid=d7157b4c-ce34-4da6-9658-de5de99b3db5","ios":"levelo://app?vid=d7157b4c-ce34-4da6-9658-de5de99b3db5"},"vehicle_type_id":"4","last_reported":1725955903,"current_range_meters":24000,"station_id":"ce4bgup2rcd13ifvqco0","pricing_plan_id":"cebpf4jnsgd1na2vs0mg"},{"bike_id":"bd2a0dd3-5255-46c7-a153-39340e85b84b","system_id":"levelo_inurba_marseille","lat":43.28476,"lon":5.38419,"is_reserved":false,"is_disabled":false,"rental_uris":{"android":"levelo://app?vid=bd2a0dd3-5255-46c7-a153-39340e85b84b","ios":"levelo://app?vid=bd2a0dd3-5255-46c7-a153-39340e85b84b"},"vehicle_type_id":"4","last_reported":1725955903,"current_range_meters":33200,"station_id":"ce4bh512rcd13ifvqe3g","pricing_plan_id":"cebpf4jnsgd1na2vs0mg"},{"bike_id":"d6179407-3c9b-465a-9b21-90a22e331d5b","system_id":"levelo_inurba_marseille","lat":43.303103,"lon":5.368977,"is_reserved":false,"is_disabled":false,"rental_uris":{"android":"levelo://app?vid=d6179407-3c9b-465a-9b21-90a22e331d5b","ios":"levelo://app?vid=d6179407-3c9b-465a-9b21-90a22e331d5b"},"vehicle_type_id":"4","last_reported":1725955903,"current_range_meters":16400,"station_id":"ce4bgqh2rcd13ifvqc5g","pricing_plan_id":"cebpf4jnsgd1na2vs0mg"},{"bike_id":"37070a74-00b0-4f72-8eca-a9d173186f92","system_id":"levelo_inurba_marseille","lat":43.24073,"lon":5.3776,"is_reserved":false,"is_disabled":false,"rental_uris":{"android":"levelo://app?vid=37070a74-00b0-4f72-8eca-a9d173186f92","ios":"levelo://app?vid=37070a74-00b0-4f72-8eca-a9d173186f92"},"vehicle_type_id":"4","last_reported":1725955903,"current_range_meters":14800,"station_id":"ce4bhnp2rcd13ifvqgvg","pricing_plan_id":"cebpf4jnsgd1na2vs0mg"},{"bike_id":"a85c78bc-418c-4af0-8edd-59c76790768f","system_id":"levelo_inurba_marseille","lat":43.32487,"lon":5.36566,"is_reserved":false,"is_disabled":false,"rental_uris":{"android":"levelo://app?vid=a85c78bc-418c-4af0-8edd-59c76790768f","ios":"levelo://app?vid=a85c78bc-418c-4af0-8edd-59c76790768f"},"vehicle_type_id":"4","last_reported":1725955903,"current_range_meters":28800,"station_id":"ce4bhs12rcd13ifvqhvg","pricing_plan_id":"cebpf4jnsgd1na2vs0mg"},{"bike_id":"8bcc0cac-e194-457b-af48-a1976a5d5edd","system_id":"levelo_inurba_marseille","lat":43.2463,"lon":5.38751,"is_reserved":false,"is_disabled":false,"rental_uris":{"android":"levelo://app?vid=8bcc0cac-e194-457b-af48-a1976a5d5edd","ios":"levelo://app?vid=8bcc0cac-e194-457b-af48-a1976a5d5edd"},"vehicle_type_id":"4","last_reported":1725955903,"current_range_meters":35200,"station_id":"ce4bhg12rcd13ifvqf60","pricing_plan_id":"cebpf4jnsgd1na2vs0mg"},{"bike_id":"d9663d21-c90b-4b46-821c-b724101c7b12","system_id":"levelo_inurba_marseille","lat":43.29843,"lon":5.36267,"is_reserved":false,"is_disabled":false,"rental_uris":{"android":"levelo://app?vid=d9663d21-c90b-4b46-821c-b724101c7b12","ios":"levelo://app?vid=d9663d21-c90b-4b46-821c-b724101c7b12"},"vehicle_type_id":"4","last_reported":1725955903,"current_range_meters":21600,"station_id":"ce4bgpp2rcd13ifvqc3g","pricing_plan_id":"cebpf4jnsgd1na2vs0mg"},{"bike_id":"69d87a96-62d5-48ac-a203-3fc99ced94d7","system_id":"levelo_inurba_marseille","lat":43.26955,"lon":5.38632,"is_reserved":false,"is_disabled":false,"rental_uris":{"android":"levelo://app?vid=69d87a96-62d5-48ac-a203-3fc99ced94d7","ios":"levelo://app?vid=69d87a96-62d5-48ac-a203-3fc99ced94d7"},"vehicle_type_id":"4","last_reported":1725955903,"current_range_meters":38000,"station_id":"ce4bhh92rcd13ifvqfh0","pricing_plan_id":"cebpf4jnsgd1na2vs0mg"},{"bike_id":"d12b0250-5c7f-4add-96f7-d571b6142981","system_id":"levelo_inurba_marseille","lat":43.3415,"lon":5.40899,"is_reserved":false,"is_disabled":false,"rental_uris":{"android":"levelo://app?vid=d12b0250-5c7f-4add-96f7-d571b6142981","ios":"levelo://app?vid=d12b0250-5c7f-4add-96f7-d571b6142981"},"vehicle_type_id":"4","last_reported":1725955903,"current_range_meters":29600,"station_id":"ce4bhqh2rcd13ifvqhlg","pricing_plan_id":"cebpf4jnsgd1na2vs0mg"},{"bike_id":"9f0a1eb3-ed63-4bc1-a966-5af9292852d5","system_id":"levelo_inurba_marseille","lat":43.29847,"lon":5.36278,"is_reserved":false,"is_disabled":false,"rental_uris":{"android":"levelo://app?vid=9f0a1eb3-ed63-4bc1-a966-5af9292852d5","ios":"levelo://app?vid=9f0a1eb3-ed63-4bc1-a966-5af9292852d5"},"vehicle_type_id":"4","last_reported":1725955903,"current_range_meters":27600,"station_id":"ce4bgpp2rcd13ifvqc3g","pricing_plan_id":"cebpf4jnsgd1na2vs0mg"},{"bike_id":"9c97f9ec-7a9d-41fa-833c-34ce56ba5dfe","system_id":"levelo_inurba_marseille","lat":43.2293,"lon":5.35375,"is_reserved":false,"is_disabled":false,"rental_uris":{"android":"levelo://app?vid=9c97f9ec-7a9d-41fa-833c-34ce56ba5dfe","ios":"levelo://app?vid=9c97f9ec-7a9d-41fa-833c-34ce56ba5dfe"},"vehicle_type_id":"4","last_reported":1725955903,"current_range_meters":6800,"station_id":"cpo3532slgdg3j2ikp40","pricing_plan_id":"cebpf4jnsgd1na2vs0mg"},{"bike_id":"74deabc1-d687-4294-9852-300975c87d9e","system_id":"levelo_inurba_marseille","lat":43.24079,"lon":5.37753,"is_reserved":false,"is_disabled":false,"rental_uris":{"android":"levelo://app?vid=74deabc1-d687-4294-9852-300975c87d9e","ios":"levelo://app?vid=74deabc1-d687-4294-9852-300975c87d9e"},"vehicle_type_id":"4","last_reported":1725955903,"current_range_meters":18000,"station_id":"ce4bhnp2rcd13ifvqgvg","pricing_plan_id":"cebpf4jnsgd1na2vs0mg"},{"bike_id":"6bc78a58-cf39-436d-963c-76da93ea5d85","system_id":"levelo_inurba_marseille","lat":43.33764,"lon":5.37433,"is_reserved":false,"is_disabled":false,"rental_uris":{"android":"levelo://app?vid=6bc78a58-cf39-436d-963c-76da93ea5d85","ios":"levelo://app?vid=6bc78a58-cf39-436d-963c-76da93ea5d85"},"vehicle_type_id":"4","last_reported":1725955903,"current_range_meters":26800,"station_id":"","pricing_plan_id":"cebpf4jnsgd1na2vs0mg"},{"bike_id":"2a232d4c-0caf-4608-80d1-9bfef437d62b","system_id":"levelo_inurba_marseille","lat":43.2793,"lon":5.42296,"is_reserved":false,"is_disabled":false,"rental_uris":{"android":"levelo://app?vid=2a232d4c-0caf-4608-80d1-9bfef437d62b","ios":"levelo://app?vid=2a232d4c-0caf-4608-80d1-9bfef437d62b"},"vehicle_type_id":"4","last_reported":1725955903,"current_range_meters":35600,"station_id":"ce4bhnh2rcd13ifvqgug","pricing_plan_id":"cebpf4jnsgd1na2vs0mg"},{"bike_id":"8d65f939-f2ab-4d51-801b-8265c19a6813","system_id":"levelo_inurba_marseille","lat":43.31347,"lon":5.36733,"is_reserved":false,"is_disabled":false,"rental_uris":{"android":"levelo://app?vid=8d65f939-f2ab-4d51-801b-8265c19a6813","ios":"levelo://app?vid=8d65f939-f2ab-4d51-801b-8265c19a6813"},"vehicle_type_id":"4","last_reported":1725955903,"current_range_meters":38800,"station_id":"ce4bgr92rcd13ifvqc6g","pricing_plan_id":"cebpf4jnsgd1na2vs0mg"},{"bike_id":"4490c6dd-a0b6-4c6a-8bd3-d2268595024a","system_id":"levelo_inurba_marseille","lat":43.24078,"lon":5.37761,"is_reserved":false,"is_disabled":false,"rental_uris":{"android":"levelo://app?vid=4490c6dd-a0b6-4c6a-8bd3-d2268595024a","ios":"levelo://app?vid=4490c6dd-a0b6-4c6a-8bd3-d2268595024a"},"vehicle_type_id":"4","last_reported":1725955903,"current_range_meters":9200,"station_id":"ce4bhnp2rcd13ifvqgvg","pricing_plan_id":"cebpf4jnsgd1na2vs0mg"},{"bike_id":"1a9dfcb8-d4cc-46d1-bada-7d344f8f428d","system_id":"levelo_inurba_marseille","lat":43.30555,"lon":5.3653,"is_reserved":false,"is_disabled":false,"rental_uris":{"android":"levelo://app?vid=1a9dfcb8-d4cc-46d1-bada-7d344f8f428d","ios":"levelo://app?vid=1a9dfcb8-d4cc-46d1-bada-7d344f8f428d"},"vehicle_type_id":"4","last_reported":1725955903,"current_range_meters":40000,"station_id":"ce4bgs12rcd13ifvqcag","pricing_plan_id":"cebpf4jnsgd1na2vs0mg"},{"bike_id":"0f8d4871-40aa-4918-ae57-55191cfaadca","system_id":"levelo_inurba_marseille","lat":43.24087,"lon":5.37743,"is_reserved":false,"is_disabled":false,"rental_uris":{"android":"levelo://app?vid=0f8d4871-40aa-4918-ae57-55191cfaadca","ios":"levelo://app?vid=0f8d4871-40aa-4918-ae57-55191cfaadca"},"vehicle_type_id":"4","last_reported":1725955903,"current_range_meters":18800,"station_id":"ce4bhnp2rcd13ifvqgvg","pricing_plan_id":"cebpf4jnsgd1na2vs0mg"},{"bike_id":"957f5501-98e5-436f-b1b5-906f5ab68b8c","system_id":"levelo_inurba_marseille","lat":43.2695,"lon":5.38637,"is_reserved":false,"is_disabled":false,"rental_uris":{"android":"levelo://app?vid=957f5501-98e5-436f-b1b5-906f5ab68b8c","ios":"levelo://app?vid=957f5501-98e5-436f-b1b5-906f5ab68b8c"},"vehicle_type_id":"4","last_reported":1725955903,"current_range_meters":38800,"station_id":"ce4bhh92rcd13ifvqfh0","pricing_plan_id":"cebpf4jnsgd1na2vs0mg"},{"bike_id":"7bb5a6c7-6dd5-4a42-9215-dad1557690cc","system_id":"levelo_inurba_marseille","lat":43.32289,"lon":5.38265,"is_reserved":false,"is_disabled":false,"rental_uris":{"android":"levelo://app?vid=7bb5a6c7-6dd5-4a42-9215-dad1557690cc","ios":"levelo://app?vid=7bb5a6c7-6dd5-4a42-9215-dad1557690cc"},"vehicle_type_id":"4","last_reported":1725955903,"current_range_meters":37600,"station_id":"ce4bhr12rcd13ifvqhqg","pricing_plan_id":"cebpf4jnsgd1na2vs0mg"},{"bike_id":"ff7f1318-7ba5-4b6a-837f-e7781625fc1b","system_id":"levelo_inurba_marseille","lat":43.30911,"lon":5.36852,"is_reserved":false,"is_disabled":false,"rental_uris":{"android":"levelo://app?vid=ff7f1318-7ba5-4b6a-837f-e7781625fc1b","ios":"levelo://app?vid=ff7f1318-7ba5-4b6a-837f-e7781625fc1b"},"vehicle_type_id":"4","last_reported":1725955903,"current_range_meters":8800,"station_id":"ce4bgn92rcd13ifvqbvg","pricing_plan_id":"cebpf4jnsgd1na2vs0mg"},{"bike_id":"8e4e074d-a47a-4252-8b4c-e822e5520e38","system_id":"levelo_inurba_marseille","lat":43.312164,"lon":5.368594,"is_reserved":false,"is_disabled":false,"rental_uris":{"android":"levelo://app?vid=8e4e074d-a47a-4252-8b4c-e822e5520e38","ios":"levelo://app?vid=8e4e074d-a47a-4252-8b4c-e822e5520e38"},"vehicle_type_id":"4","last_reported":1725955903,"current_range_meters":10800,"station_id":"ce4bgl92rcd13ifvqbq0","pricing_plan_id":"cebpf4jnsgd1na2vs0mg"},{"bike_id":"a6192b31-571b-4cff-8c3d-249376a1967a","system_id":"levelo_inurba_marseille","lat":43.2936,"lon":5.37838,"is_reserved":false,"is_disabled":false,"rental_uris":{"android":"levelo://app?vid=a6192b31-571b-4cff-8c3d-249376a1967a","ios":"levelo://app?vid=a6192b31-571b-4cff-8c3d-249376a1967a"},"vehicle_type_id":"4","last_reported":1725955903,"current_range_meters":36400,"station_id":"ce4bgjh2rcd13ifvqbf0","pricing_plan_id":"cebpf4jnsgd1na2vs0mg"},{"bike_id":"a87fcb71-7306-45f2-a581-6f57e09c5869","system_id":"levelo_inurba_marseille","lat":43.28095,"lon":5.37833,"is_reserved":false,"is_disabled":false,"rental_uris":{"android":"levelo://app?vid=a87fcb71-7306-45f2-a581-6f57e09c5869","ios":"levelo://app?vid=a87fcb71-7306-45f2-a581-6f57e09c5869"},"vehicle_type_id":"4","last_reported":1725955903,"current_range_meters":36800,"station_id":"ce4bha12rcd13ifvqee0","pricing_plan_id":"cebpf4jnsgd1na2vs0mg"},{"bike_id":"8c317ca4-ae87-4e85-8597-c0aa99af97e9","system_id":"levelo_inurba_marseille","lat":43.25005,"lon":5.38919,"is_reserved":false,"is_disabled":false,"rental_uris":{"android":"levelo://app?vid=8c317ca4-ae87-4e85-8597-c0aa99af97e9","ios":"levelo://app?vid=8c317ca4-ae87-4e85-8597-c0aa99af97e9"},"vehicle_type_id":"4","last_reported":1725955903,"current_range_meters":13600,"station_id":"ce4bhgp2rcd13ifvqfd0","pricing_plan_id":"cebpf4jnsgd1na2vs0mg"},{"bike_id":"1e32e203-e04e-4dbe-982a-a6a668902547","system_id":"levelo_inurba_marseille","lat":43.30917,"lon":5.36841,"is_reserved":false,"is_disabled":false,"rental_uris":{"android":"levelo://app?vid=1e32e203-e04e-4dbe-982a-a6a668902547","ios":"levelo://app?vid=1e32e203-e04e-4dbe-982a-a6a668902547"},"vehicle_type_id":"4","last_reported":1725955903,"current_range_meters":32400,"station_id":"ce4bgn92rcd13ifvqbvg","pricing_plan_id":"cebpf4jnsgd1na2vs0mg"},{"bike_id":"b7ac925d-ef54-4377-b3f1-b92b4105a1a4","system_id":"levelo_inurba_marseille","lat":43.29626,"lon":5.40589,"is_reserved":false,"is_disabled":false,"rental_uris":{"android":"levelo://app?vid=b7ac925d-ef54-4377-b3f1-b92b4105a1a4","ios":"levelo://app?vid=b7ac925d-ef54-4377-b3f1-b92b4105a1a4"},"vehicle_type_id":"4","last_reported":1725955903,"current_range_meters":4000,"station_id":"ce4bh0h2rcd13ifvqd60","pricing_plan_id":"cebpf4jnsgd1na2vs0mg"},{"bike_id":"77e1ae10-00ab-416e-adda-18a4d3a41987","system_id":"levelo_inurba_marseille","lat":43.24072,"lon":5.37758,"is_reserved":false,"is_disabled":false,"rental_uris":{"android":"levelo://app?vid=77e1ae10-00ab-416e-adda-18a4d3a41987","ios":"levelo://app?vid=77e1ae10-00ab-416e-adda-18a4d3a41987"},"vehicle_type_id":"4","last_reported":1725955903,"current_range_meters":34800,"station_id":"ce4bhnp2rcd13ifvqgvg","pricing_plan_id":"cebpf4jnsgd1na2vs0mg"},{"bike_id":"f39b2119-4a11-4daa-9c63-03c8da229918","system_id":"levelo_inurba_marseille","lat":43.27494,"lon":5.4245,"is_reserved":false,"is_disabled":false,"rental_uris":{"android":"levelo://app?vid=f39b2119-4a11-4daa-9c63-03c8da229918","ios":"levelo://app?vid=f39b2119-4a11-4daa-9c63-03c8da229918"},"vehicle_type_id":"4","last_reported":1725955903,"current_range_meters":4800,"station_id":"ce4bhn92rcd13ifvqgrg","pricing_plan_id":"cebpf4jnsgd1na2vs0mg"},{"bike_id":"47cbb08f-2c06-4732-9d13-3d24efe47c79","system_id":"levelo_inurba_marseille","lat":43.3123,"lon":5.36852,"is_reserved":false,"is_disabled":false,"rental_uris":{"android":"levelo://app?vid=47cbb08f-2c06-4732-9d13-3d24efe47c79","ios":"levelo://app?vid=47cbb08f-2c06-4732-9d13-3d24efe47c79"},"vehicle_type_id":"4","last_reported":1725955903,"current_range_meters":33200,"station_id":"ce4bgl92rcd13ifvqbq0","pricing_plan_id":"cebpf4jnsgd1na2vs0mg"},{"bike_id":"e79dc6d1-d6a3-467f-a9dd-348e2da1839e","system_id":"levelo_inurba_marseille","lat":43.25571,"lon":5.38232,"is_reserved":false,"is_disabled":false,"rental_uris":{"android":"levelo://app?vid=e79dc6d1-d6a3-467f-a9dd-348e2da1839e","ios":"levelo://app?vid=e79dc6d1-d6a3-467f-a9dd-348e2da1839e"},"vehicle_type_id":"4","last_reported":1725955903,"current_range_meters":31200,"station_id":"ce4bhih2rcd13ifvqfs0","pricing_plan_id":"cebpf4jnsgd1na2vs0mg"},{"bike_id":"46918be4-89f5-4bc3-8e45-c03577c77f12","system_id":"levelo_inurba_marseille","lat":43.26556,"lon":5.37281,"is_reserved":false,"is_disabled":false,"rental_uris":{"android":"levelo://app?vid=46918be4-89f5-4bc3-8e45-c03577c77f12","ios":"levelo://app?vid=46918be4-89f5-4bc3-8e45-c03577c77f12"},"vehicle_type_id":"4","last_reported":1725955903,"current_range_meters":3200,"station_id":"ce4bhg12rcd13ifvqf70","pricing_plan_id":"cebpf4jnsgd1na2vs0mg"},{"bike_id":"e8b50de4-5628-47d0-91d2-d3e209adda1d","system_id":"levelo_inurba_marseille","lat":43.289609,"lon":5.384129,"is_reserved":false,"is_disabled":false,"rental_uris":{"android":"levelo://app?vid=e8b50de4-5628-47d0-91d2-d3e209adda1d","ios":"levelo://app?vid=e8b50de4-5628-47d0-91d2-d3e209adda1d"},"vehicle_type_id":"4","last_reported":1725955903,"current_range_meters":32000,"station_id":"ce4bh612rcd13ifvqe6g","pricing_plan_id":"cebpf4jnsgd1na2vs0mg"},{"bike_id":"70741a29-0553-4045-8001-e8b52992dc18","system_id":"levelo_inurba_marseille","lat":43.2985,"lon":5.36281,"is_reserved":false,"is_disabled":false,"rental_uris":{"android":"levelo://app?vid=70741a29-0553-4045-8001-e8b52992dc18","ios":"levelo://app?vid=70741a29-0553-4045-8001-e8b52992dc18"},"vehicle_type_id":"4","last_reported":1725955903,"current_range_meters":15200,"station_id":"ce4bgpp2rcd13ifvqc3g","pricing_plan_id":"cebpf4jnsgd1na2vs0mg"},{"bike_id":"9eca9a6a-33a9-48a1-b859-9d0a66f8ab8a","system_id":"levelo_inurba_marseille","lat":43.26562,"lon":5.38994,"is_reserved":false,"is_disabled":false,"rental_uris":{"android":"levelo://app?vid=9eca9a6a-33a9-48a1-b859-9d0a66f8ab8a","ios":"levelo://app?vid=9eca9a6a-33a9-48a1-b859-9d0a66f8ab8a"},"vehicle_type_id":"4","last_reported":1725955903,"current_range_meters":25200,"station_id":"ce4bhe12rcd13ifvqf30","pricing_plan_id":"cebpf4jnsgd1na2vs0mg"},{"bike_id":"7455bc20-60a5-48d2-9928-62fe204b368f","system_id":"levelo_inurba_marseille","lat":43.26574,"lon":5.38992,"is_reserved":false,"is_disabled":false,"rental_uris":{"android":"levelo://app?vid=7455bc20-60a5-48d2-9928-62fe204b368f","ios":"levelo://app?vid=7455bc20-60a5-48d2-9928-62fe204b368f"},"vehicle_type_id":"4","last_reported":1725955903,"current_range_meters":29600,"station_id":"ce4bhe12rcd13ifvqf30","pricing_plan_id":"cebpf4jnsgd1na2vs0mg"},{"bike_id":"95ede5a0-c34c-4ed1-bbb1-153f751f706d","system_id":"levelo_inurba_marseille","lat":43.290967,"lon":5.381353,"is_reserved":false,"is_disabled":false,"rental_uris":{"android":"levelo://app?vid=95ede5a0-c34c-4ed1-bbb1-153f751f706d","ios":"levelo://app?vid=95ede5a0-c34c-4ed1-bbb1-153f751f706d"},"vehicle_type_id":"4","last_reported":1725955903,"current_range_meters":25200,"station_id":"ce4bgop2rcd13ifvqc1g","pricing_plan_id":"cebpf4jnsgd1na2vs0mg"},{"bike_id":"b67357ee-48ea-4477-9752-bb18a5a0f543","system_id":"levelo_inurba_marseille","lat":43.31894,"lon":5.40738,"is_reserved":false,"is_disabled":false,"rental_uris":{"android":"levelo://app?vid=b67357ee-48ea-4477-9752-bb18a5a0f543","ios":"levelo://app?vid=b67357ee-48ea-4477-9752-bb18a5a0f543"},"vehicle_type_id":"4","last_reported":1725955903,"current_range_meters":9600,"station_id":"ce4bhq12rcd13ifvqhig","pricing_plan_id":"cebpf4jnsgd1na2vs0mg"},{"bike_id":"ddf3f922-7089-4557-b033-f3111942af0b","system_id":"levelo_inurba_marseille","lat":43.29174,"lon":5.37154,"is_reserved":false,"is_disabled":false,"rental_uris":{"android":"levelo://app?vid=ddf3f922-7089-4557-b033-f3111942af0b","ios":"levelo://app?vid=ddf3f922-7089-4557-b033-f3111942af0b"},"vehicle_type_id":"4","last_reported":1725955903,"current_range_meters":23200,"station_id":"ce4bha92rcd13ifvqeh0","pricing_plan_id":"cebpf4jnsgd1na2vs0mg"},{"bike_id":"67981f34-1c48-49e6-8879-fc080c89decd","system_id":"levelo_inurba_marseille","lat":43.27669,"lon":5.38877,"is_reserved":false,"is_disabled":false,"rental_uris":{"android":"levelo://app?vid=67981f34-1c48-49e6-8879-fc080c89decd","ios":"levelo://app?vid=67981f34-1c48-49e6-8879-fc080c89decd"},"vehicle_type_id":"4","last_reported":1725955903,"current_range_meters":28800,"station_id":"ce4bhi12rcd13ifvqfo0","pricing_plan_id":"cebpf4jnsgd1na2vs0mg"},{"bike_id":"bf3f6b11-b600-497a-84fe-1a0c1f2f273f","system_id":"levelo_inurba_marseille","lat":43.3237,"lon":5.38926,"is_reserved":false,"is_disabled":false,"rental_uris":{"android":"levelo://app?vid=bf3f6b11-b600-497a-84fe-1a0c1f2f273f","ios":"levelo://app?vid=bf3f6b11-b600-497a-84fe-1a0c1f2f273f"},"vehicle_type_id":"4","last_reported":1725955903,"current_range_meters":19200,"station_id":"","pricing_plan_id":"cebpf4jnsgd1na2vs0mg"},{"bike_id":"27610625-9e5c-478a-902d-703e97a787d0","system_id":"levelo_inurba_marseille","lat":43.25935,"lon":5.40903,"is_reserved":false,"is_disabled":false,"rental_uris":{"android":"levelo://app?vid=27610625-9e5c-478a-902d-703e97a787d0","ios":"levelo://app?vid=27610625-9e5c-478a-902d-703e97a787d0"},"vehicle_type_id":"4","last_reported":1725955903,"current_range_meters":9200,"station_id":"ce4bhm92rcd13ifvqglg","pricing_plan_id":"cebpf4jnsgd1na2vs0mg"},{"bike_id":"260c9c35-08f5-4048-b9e0-5ddbdb52b2a2","system_id":"levelo_inurba_marseille","lat":43.29366,"lon":5.37866,"is_reserved":false,"is_disabled":false,"rental_uris":{"android":"levelo://app?vid=260c9c35-08f5-4048-b9e0-5ddbdb52b2a2","ios":"levelo://app?vid=260c9c35-08f5-4048-b9e0-5ddbdb52b2a2"},"vehicle_type_id":"4","last_reported":1725955903,"current_range_meters":12400,"station_id":"ce4bgjh2rcd13ifvqbf0","pricing_plan_id":"cebpf4jnsgd1na2vs0mg"},{"bike_id":"6edf3869-ce40-4622-98ae-b491d4d63322","system_id":"levelo_inurba_marseille","lat":43.32287,"lon":5.38266,"is_reserved":false,"is_disabled":false,"rental_uris":{"android":"levelo://app?vid=6edf3869-ce40-4622-98ae-b491d4d63322","ios":"levelo://app?vid=6edf3869-ce40-4622-98ae-b491d4d63322"},"vehicle_type_id":"4","last_reported":1725955903,"current_range_meters":24400,"station_id":"ce4bhr12rcd13ifvqhqg","pricing_plan_id":"cebpf4jnsgd1na2vs0mg"},{"bike_id":"c751c2ca-b94f-4305-b133-7a17b4775307","system_id":"levelo_inurba_marseille","lat":43.24385,"lon":5.37054,"is_reserved":false,"is_disabled":false,"rental_uris":{"android":"levelo://app?vid=c751c2ca-b94f-4305-b133-7a17b4775307","ios":"levelo://app?vid=c751c2ca-b94f-4305-b133-7a17b4775307"},"vehicle_type_id":"4","last_reported":1725955903,"current_range_meters":35600,"station_id":"ce4bhhh2rcd13ifvqfk0","pricing_plan_id":"cebpf4jnsgd1na2vs0mg"},{"bike_id":"2fab2f64-f490-4758-921a-3009b4ba8bca","system_id":"levelo_inurba_marseille","lat":43.32285,"lon":5.38279,"is_reserved":false,"is_disabled":false,"rental_uris":{"android":"levelo://app?vid=2fab2f64-f490-4758-921a-3009b4ba8bca","ios":"levelo://app?vid=2fab2f64-f490-4758-921a-3009b4ba8bca"},"vehicle_type_id":"4","last_reported":1725955903,"current_range_meters":38400,"station_id":"ce4bhr12rcd13ifvqhqg","pricing_plan_id":"cebpf4jnsgd1na2vs0mg"},{"bike_id":"1931112e-94a6-4683-b2c1-6d7932df5b53","system_id":"levelo_inurba_marseille","lat":43.31353,"lon":5.36733,"is_reserved":false,"is_disabled":false,"rental_uris":{"android":"levelo://app?vid=1931112e-94a6-4683-b2c1-6d7932df5b53","ios":"levelo://app?vid=1931112e-94a6-4683-b2c1-6d7932df5b53"},"vehicle_type_id":"4","last_reported":1725955903,"current_range_meters":10800,"station_id":"ce4bgr92rcd13ifvqc6g","pricing_plan_id":"cebpf4jnsgd1na2vs0mg"},{"bike_id":"6e3cdfb9-fe5c-4830-adfd-7542b79c6d41","system_id":"levelo_inurba_marseille","lat":43.25001,"lon":5.38926,"is_reserved":false,"is_disabled":false,"rental_uris":{"android":"levelo://app?vid=6e3cdfb9-fe5c-4830-adfd-7542b79c6d41","ios":"levelo://app?vid=6e3cdfb9-fe5c-4830-adfd-7542b79c6d41"},"vehicle_type_id":"4","last_reported":1725955903,"current_range_meters":31200,"station_id":"ce4bhgp2rcd13ifvqfd0","pricing_plan_id":"cebpf4jnsgd1na2vs0mg"},{"bike_id":"d48e0dec-518d-4e84-94f6-11981c7616c0","system_id":"levelo_inurba_marseille","lat":43.24075,"lon":5.37758,"is_reserved":false,"is_disabled":false,"rental_uris":{"android":"levelo://app?vid=d48e0dec-518d-4e84-94f6-11981c7616c0","ios":"levelo://app?vid=d48e0dec-518d-4e84-94f6-11981c7616c0"},"vehicle_type_id":"4","last_reported":1725955903,"current_range_meters":28000,"station_id":"ce4bhnp2rcd13ifvqgvg","pricing_plan_id":"cebpf4jnsgd1na2vs0mg"},{"bike_id":"4db7f987-af9e-4246-8a6a-26a25368c527","system_id":"levelo_inurba_marseille","lat":43.299345,"lon":5.36562,"is_reserved":false,"is_disabled":false,"rental_uris":{"android":"levelo://app?vid=4db7f987-af9e-4246-8a6a-26a25368c527","ios":"levelo://app?vid=4db7f987-af9e-4246-8a6a-26a25368c527"},"vehicle_type_id":"4","last_reported":1725955903,"current_range_meters":28000,"station_id":"ce4bgm92rcd13ifvqbr0","pricing_plan_id":"cebpf4jnsgd1na2vs0mg"},{"bike_id":"109a1101-907d-480f-b4f1-6cd46320c406","system_id":"levelo_inurba_marseille","lat":43.30545,"lon":5.36537,"is_reserved":false,"is_disabled":false,"rental_uris":{"android":"levelo://app?vid=109a1101-907d-480f-b4f1-6cd46320c406","ios":"levelo://app?vid=109a1101-907d-480f-b4f1-6cd46320c406"},"vehicle_type_id":"4","last_reported":1725955903,"current_range_meters":22400,"station_id":"ce4bgs12rcd13ifvqcag","pricing_plan_id":"cebpf4jnsgd1na2vs0mg"},{"bike_id":"72f833ca-370e-469e-a6b2-a3b2bf6fb689","system_id":"levelo_inurba_marseille","lat":43.33762,"lon":5.37424,"is_reserved":false,"is_disabled":false,"rental_uris":{"android":"levelo://app?vid=72f833ca-370e-469e-a6b2-a3b2bf6fb689","ios":"levelo://app?vid=72f833ca-370e-469e-a6b2-a3b2bf6fb689"},"vehicle_type_id":"4","last_reported":1725955903,"current_range_meters":36800,"station_id":"","pricing_plan_id":"cebpf4jnsgd1na2vs0mg"},{"bike_id":"daf6a3ba-2164-4a27-beb4-c576906cea03","system_id":"levelo_inurba_marseille","lat":43.24998,"lon":5.38927,"is_reserved":false,"is_disabled":false,"rental_uris":{"android":"levelo://app?vid=daf6a3ba-2164-4a27-beb4-c576906cea03","ios":"levelo://app?vid=daf6a3ba-2164-4a27-beb4-c576906cea03"},"vehicle_type_id":"4","last_reported":1725955903,"current_range_meters":35200,"station_id":"ce4bhgp2rcd13ifvqfd0","pricing_plan_id":"cebpf4jnsgd1na2vs0mg"},{"bike_id":"97e6c8e4-f770-4de0-ba9b-deb2b2948e9c","system_id":"levelo_inurba_marseille","lat":43.25935,"lon":5.40904,"is_reserved":false,"is_disabled":false,"rental_uris":{"android":"levelo://app?vid=97e6c8e4-f770-4de0-ba9b-deb2b2948e9c","ios":"levelo://app?vid=97e6c8e4-f770-4de0-ba9b-deb2b2948e9c"},"vehicle_type_id":"4","last_reported":1725955903,"current_range_meters":17600,"station_id":"ce4bhm92rcd13ifvqglg","pricing_plan_id":"cebpf4jnsgd1na2vs0mg"},{"bike_id":"a56e0313-2f46-466c-b71e-0dddf2401d63","system_id":"levelo_inurba_marseille","lat":43.2306,"lon":5.35483,"is_reserved":false,"is_disabled":false,"rental_uris":{"android":"levelo://app?vid=a56e0313-2f46-466c-b71e-0dddf2401d63","ios":"levelo://app?vid=a56e0313-2f46-466c-b71e-0dddf2401d63"},"vehicle_type_id":"4","last_reported":1725955903,"current_range_meters":20800,"station_id":"cpo3342slgdg3j2ifvpg","pricing_plan_id":"cebpf4jnsgd1na2vs0mg"},{"bike_id":"b182df05-ebe1-4122-a462-3c5c0cc47e4a","system_id":"levelo_inurba_marseille","lat":43.28105,"lon":5.37837,"is_reserved":false,"is_disabled":false,"rental_uris":{"android":"levelo://app?vid=b182df05-ebe1-4122-a462-3c5c0cc47e4a","ios":"levelo://app?vid=b182df05-ebe1-4122-a462-3c5c0cc47e4a"},"vehicle_type_id":"4","last_reported":1725955903,"current_range_meters":14400,"station_id":"ce4bha12rcd13ifvqee0","pricing_plan_id":"cebpf4jnsgd1na2vs0mg"},{"bike_id":"2f66624b-8c0e-4d51-8d2d-6d9ca5e77fa9","system_id":"levelo_inurba_marseille","lat":43.304618,"lon":5.378975,"is_reserved":false,"is_disabled":false,"rental_uris":{"android":"levelo://app?vid=2f66624b-8c0e-4d51-8d2d-6d9ca5e77fa9","ios":"levelo://app?vid=2f66624b-8c0e-4d51-8d2d-6d9ca5e77fa9"},"vehicle_type_id":"4","last_reported":1725955903,"current_range_meters":26000,"station_id":"ce4bgup2rcd13ifvqcn0","pricing_plan_id":"cebpf4jnsgd1na2vs0mg"},{"bike_id":"5cf6102d-88c1-4a0b-91eb-19d9e66e2795","system_id":"levelo_inurba_marseille","lat":43.29271,"lon":5.36842,"is_reserved":false,"is_disabled":false,"rental_uris":{"android":"levelo://app?vid=5cf6102d-88c1-4a0b-91eb-19d9e66e2795","ios":"levelo://app?vid=5cf6102d-88c1-4a0b-91eb-19d9e66e2795"},"vehicle_type_id":"4","last_reported":1725955903,"current_range_meters":15200,"station_id":"ce4bgt12rcd13ifvqcd0","pricing_plan_id":"cebpf4jnsgd1na2vs0mg"},{"bike_id":"864c3259-f423-4533-afe8-cca04fca6aca","system_id":"levelo_inurba_marseille","lat":43.30912,"lon":5.36851,"is_reserved":false,"is_disabled":false,"rental_uris":{"android":"levelo://app?vid=864c3259-f423-4533-afe8-cca04fca6aca","ios":"levelo://app?vid=864c3259-f423-4533-afe8-cca04fca6aca"},"vehicle_type_id":"4","last_reported":1725955903,"current_range_meters":10000,"station_id":"ce4bgn92rcd13ifvqbvg","pricing_plan_id":"cebpf4jnsgd1na2vs0mg"},{"bike_id":"1d82499c-a78f-4123-82d2-ca52e3982e4c","system_id":"levelo_inurba_marseille","lat":43.33753,"lon":5.37427,"is_reserved":false,"is_disabled":false,"rental_uris":{"android":"levelo://app?vid=1d82499c-a78f-4123-82d2-ca52e3982e4c","ios":"levelo://app?vid=1d82499c-a78f-4123-82d2-ca52e3982e4c"},"vehicle_type_id":"4","last_reported":1725955903,"current_range_meters":35200,"station_id":"","pricing_plan_id":"cebpf4jnsgd1na2vs0mg"},{"bike_id":"dee02845-d109-476b-8347-e8422ee849a2","system_id":"levelo_inurba_marseille","lat":43.23961,"lon":5.36629,"is_reserved":false,"is_disabled":false,"rental_uris":{"android":"levelo://app?vid=dee02845-d109-476b-8347-e8422ee849a2","ios":"levelo://app?vid=dee02845-d109-476b-8347-e8422ee849a2"},"vehicle_type_id":"4","last_reported":1725955903,"current_range_meters":3200,"station_id":"ce4bhi12rcd13ifvqfp0","pricing_plan_id":"cebpf4jnsgd1na2vs0mg"},{"bike_id":"59d2893a-d1ce-4346-9856-cf825097e6cb","system_id":"levelo_inurba_marseille","lat":43.23197,"lon":5.35551,"is_reserved":false,"is_disabled":false,"rental_uris":{"android":"levelo://app?vid=59d2893a-d1ce-4346-9856-cf825097e6cb","ios":"levelo://app?vid=59d2893a-d1ce-4346-9856-cf825097e6cb"},"vehicle_type_id":"4","last_reported":1725955903,"current_range_meters":24000,"station_id":"ce4bhu92rcd13ifvqi70","pricing_plan_id":"cebpf4jnsgd1na2vs0mg"},{"bike_id":"340e4376-2578-41a7-8b22-74d628f1e3d4","system_id":"levelo_inurba_marseille","lat":43.26689,"lon":5.38269,"is_reserved":false,"is_disabled":false,"rental_uris":{"android":"levelo://app?vid=340e4376-2578-41a7-8b22-74d628f1e3d4","ios":"levelo://app?vid=340e4376-2578-41a7-8b22-74d628f1e3d4"},"vehicle_type_id":"4","last_reported":1725955903,"current_range_meters":38000,"station_id":"ce4bhg92rcd13ifvqf90","pricing_plan_id":"cebpf4jnsgd1na2vs0mg"},{"bike_id":"45a1624e-6516-4350-bfa4-5b695cffef6a","system_id":"levelo_inurba_marseille","lat":43.2293,"lon":5.35367,"is_reserved":false,"is_disabled":false,"rental_uris":{"android":"levelo://app?vid=45a1624e-6516-4350-bfa4-5b695cffef6a","ios":"levelo://app?vid=45a1624e-6516-4350-bfa4-5b695cffef6a"},"vehicle_type_id":"4","last_reported":1725955903,"current_range_meters":36400,"station_id":"cpo3532slgdg3j2ikp40","pricing_plan_id":"cebpf4jnsgd1na2vs0mg"},{"bike_id":"4a1cb237-1220-47d5-81e2-342a5bf16cbb","system_id":"levelo_inurba_marseille","lat":43.26681,"lon":5.38269,"is_reserved":false,"is_disabled":false,"rental_uris":{"android":"levelo://app?vid=4a1cb237-1220-47d5-81e2-342a5bf16cbb","ios":"levelo://app?vid=4a1cb237-1220-47d5-81e2-342a5bf16cbb"},"vehicle_type_id":"4","last_reported":1725955903,"current_range_meters":8000,"station_id":"ce4bhg92rcd13ifvqf90","pricing_plan_id":"cebpf4jnsgd1na2vs0mg"},{"bike_id":"62f78e9e-6289-4c92-8c5d-69696057778c","system_id":"levelo_inurba_marseille","lat":43.32542,"lon":5.4143,"is_reserved":false,"is_disabled":false,"rental_uris":{"android":"levelo://app?vid=62f78e9e-6289-4c92-8c5d-69696057778c","ios":"levelo://app?vid=62f78e9e-6289-4c92-8c5d-69696057778c"},"vehicle_type_id":"4","last_reported":1725955903,"current_range_meters":32800,"station_id":"ce4bhq12rcd13ifvqhhg","pricing_plan_id":"cebpf4jnsgd1na2vs0mg"},{"bike_id":"2d529c2b-e937-431f-91e5-04175a413180","system_id":"levelo_inurba_marseille","lat":43.31071,"lon":5.40065,"is_reserved":false,"is_disabled":false,"rental_uris":{"android":"levelo://app?vid=2d529c2b-e937-431f-91e5-04175a413180","ios":"levelo://app?vid=2d529c2b-e937-431f-91e5-04175a413180"},"vehicle_type_id":"4","last_reported":1725955903,"current_range_meters":14000,"station_id":"ce4bhq92rcd13ifvqhjg","pricing_plan_id":"cebpf4jnsgd1na2vs0mg"},{"bike_id":"35b4ccbe-337e-42f5-b64b-d3d4516b0316","system_id":"levelo_inurba_marseille","lat":43.27497,"lon":5.42448,"is_reserved":false,"is_disabled":false,"rental_uris":{"android":"levelo://app?vid=35b4ccbe-337e-42f5-b64b-d3d4516b0316","ios":"levelo://app?vid=35b4ccbe-337e-42f5-b64b-d3d4516b0316"},"vehicle_type_id":"4","last_reported":1725955903,"current_range_meters":30800,"station_id":"ce4bhn92rcd13ifvqgrg","pricing_plan_id":"cebpf4jnsgd1na2vs0mg"},