{"last_updated":1728389856,"ttl":60,"version":"2.2","data":{"bikes":[{"bike_id":"52fda321-8c34-4ec2-847d-b36cae8fb7ef","system_id":"levelo_inurba_marseille","lat":43.26063,"lon":5.39394,"is_reserved":false,"is_disabled":false,"rental_uris":{"android":"levelo://app?vid=52fda321-8c34-4ec2-847d-b36cae8fb7ef","ios":"levelo://app?vid=52fda321-8c34-4ec2-847d-b36cae8fb7ef"},"vehicle_type_id":"4","last_reported":1728389856,"current_range_meters":38800,"station_id":"ce4bhh92rcd13ifvqfj0","pricing_plan_id":"cebpf4jnsgd1na2vs0mg"},{"bike_id":"68cc9b2e-3bdd-4866-a986-7cead00d4cfc","system_id":"levelo_inurba_marseille","lat":43.33753,"lon":5.37449,"is_reserved":false,"is_disabled":false,"rental_uris":{"android":"levelo://app?vid=68cc9b2e-3bdd-4866-a986-7cead00d4cfc","ios":"levelo://app?vid=68cc9b2e-3bdd-4866-a986-7cead00d4cfc"},"vehicle_type_id":"4","last_reported":1728389856,"current_range_meters":35600,"station_id":"","pricing_plan_id":"cebpf4jnsgd1na2vs0mg"},{"bike_id":"48e1c66e-e73e-4060-ab41-869f48a6a4ab","system_id":"levelo_inurba_marseille","lat":43.24077,"lon":5.37752,"is_reserved":false,"is_disabled":false,"rental_uris":{"android":"levelo://app?vid=48e1c66e-e73e-4060-ab41-869f48a6a4ab","ios":"levelo://app?vid=48e1c66e-e73e-4060-ab41-869f48a6a4ab"},"vehicle_type_id":"4","last_reported":1728389856,"current_range_meters":28400,"station_id":"ce4bhnp2rcd13ifvqgvg","pricing_plan_id":"cebpf4jnsgd1na2vs0mg"},{"bike_id":"fe001608-31a2-4ebc-b309-46c6c69bcd54","system_id":"levelo_inurba_marseille","lat":43.28155,"lon":5.42639,"is_reserved":false,"is_disabled":false,"rental_uris":{"android":"levelo://app?vid=fe001608-31a2-4ebc-b309-46c6c69bcd54","ios":"levelo://app?vid=fe001608-31a2-4ebc-b309-46c6c69bcd54"},"vehicle_type_id":"4","last_reported":1728389856,"current_range_meters":38000,"station_id":"ce4bhnh2rcd13ifvqgug","pricing_plan_id":"cebpf4jnsgd1na2vs0mg"},{"bike_id":"ab5eba56-3a1b-4ac1-a3a3-6cda3bc6971e","system_id":"levelo_inurba_marseille","lat":43.24081,"lon":5.37748,"is_reserved":false,"is_disabled":false,"rental_uris":{"android":"levelo://app?vid=ab5eba56-3a1b-4ac1-a3a3-6cda3bc6971e","ios":"levelo://app?vid=ab5eba56-3a1b-4ac1-a3a3-6cda3bc6971e"},"vehicle_type_id":"4","last_reported":1728389856,"current_range_meters":16000,"station_id":"ce4bhnp2rcd13ifvqgvg","pricing_plan_id":"cebpf4jnsgd1na2vs0mg"},{"bike_id":"de27fdc6-d0b6-4b2c-a4a2-c373635333b3","system_id":"levelo_inurba_marseille","lat":43.29808,"lon":5.38088,"is_reserved":false,"is_disabled":false,"rental_uris":{"android":"levelo://app?vid=de27fdc6-d0b6-4b2c-a4a2-c373635333b3","ios":"levelo://app?vid=de27fdc6-d0b6-4b2c-a4a2-c373635333b3"},"vehicle_type_id":"4","last_reported":1728389856,"current_range_meters":38000,"station_id":"ce4bgip2rcd13ifvqbb0","pricing_plan_id":"cebpf4jnsgd1na2vs0mg"},{"bike_id":"3edccbad-c604-40df-acb2-6e9d91b67298","system_id":"levelo_inurba_marseille","lat":43.23053,"lon":5.35494,"is_reserved":false,"is_disabled":false,"rental_uris":{"android":"levelo://app?vid=3edccbad-c604-40df-acb2-6e9d91b67298","ios":"levelo://app?vid=3edccbad-c604-40df-acb2-6e9d91b67298"},"vehicle_type_id":"4","last_reported":1728389856,"current_range_meters":15200,"station_id":"cpo3342slgdg3j2ifvpg","pricing_plan_id":"cebpf4jnsgd1na2vs0mg"},{"bike_id":"261d5525-64ed-4988-bad1-cdd84d110abb","system_id":"levelo_inurba_marseille","lat":43.29793,"lon":5.38102,"is_reserved":false,"is_disabled":false,"rental_uris":{"android":"levelo://app?vid=261d5525-64ed-4988-bad1-cdd84d110abb","ios":"levelo://app?vid=261d5525-64ed-4988-bad1-cdd84d110abb"},"vehicle_type_id":"4","last_reported":1728389856,"current_range_meters":28000,"station_id":"ce4bgip2rcd13ifvqbb0","pricing_plan_id":"cebpf4jnsgd1na2vs0mg"},{"bike_id":"f620a96b-c051-47d3-ae4c-9769de8de849","system_id":"levelo_inurba_marseille","lat":43.30257,"lon":5.37721,"is_reserved":false,"is_disabled":false,"rental_uris":{"android":"levelo://app?vid=f620a96b-c051-47d3-ae4c-9769de8de849","ios":"levelo://app?vid=f620a96b-c051-47d3-ae4c-9769de8de849"},"vehicle_type_id":"4","last_reported":1728389856,"current_range_meters":8400,"station_id":"ce4bguh2rcd13ifvqcj0","pricing_plan_id":"cebpf4jnsgd1na2vs0mg"},{"bike_id":"043dde73-42b6-4cb6-a91d-a2ff98d5ee85","system_id":"levelo_inurba_marseille","lat":43.29257,"lon":5.38448,"is_reserved":false,"is_disabled":false,"rental_uris":{"android":"levelo://app?vid=043dde73-42b6-4cb6-a91d-a2ff98d5ee85","ios":"levelo://app?vid=043dde73-42b6-4cb6-a91d-a2ff98d5ee85"},"vehicle_type_id":"4","last_reported":1728389856,"current_range_meters":2000,"station_id":"ce4bh692rcd13ifvqea0","pricing_plan_id":"cebpf4jnsgd1na2vs0mg"},{"bike_id":"7ea51ea4-d745-4ea8-96ac-f72af999e745","system_id":"levelo_inurba_marseille","lat":43.24179,"lon":5.39719,"is_reserved":false,"is_disabled":false,"rental_uris":{"android":"levelo://app?vid=7ea51ea4-d745-4ea8-96ac-f72af999e745","ios":"levelo://app?vid=7ea51ea4-d745-4ea8-96ac-f72af999e745"},"vehicle_type_id":"4","last_reported":1728389856,"current_range_meters":2800,"station_id":"ce4bhn12rcd13ifvqgpg","pricing_plan_id":"cebpf4jnsgd1na2vs0mg"},{"bike_id":"fd0e181e-4700-4663-bea6-c692f6f2e3b3","system_id":"levelo_inurba_marseille","lat":43.294371,"lon":5.397466,"is_reserved":false,"is_disabled":false,"rental_uris":{"android":"levelo://app?vid=fd0e181e-4700-4663-bea6-c692f6f2e3b3","ios":"levelo://app?vid=fd0e181e-4700-4663-bea6-c692f6f2e3b3"},"vehicle_type_id":"4","last_reported":1728389856,"current_range_meters":17600,"station_id":"ce4bhop2rcd13ifvqh8g","pricing_plan_id":"cebpf4jnsgd1na2vs0mg"},{"bike_id":"0ba24d19-0020-4fe4-81e5-26e6bade86f8","system_id":"levelo_inurba_marseille","lat":43.308,"lon":5.43521,"is_reserved":false,"is_disabled":false,"rental_uris":{"android":"levelo://app?vid=0ba24d19-0020-4fe4-81e5-26e6bade86f8","ios":"levelo://app?vid=0ba24d19-0020-4fe4-81e5-26e6bade86f8"},"vehicle_type_id":"4","last_reported":1728389856,"current_range_meters":32400,"station_id":"ce4bhph2rcd13ifvqheg","pricing_plan_id":"cebpf4jnsgd1na2vs0mg"},{"bike_id":"89b52013-b770-49ae-8a8e-138f0b624956","system_id":"levelo_inurba_marseille","lat":43.24071,"lon":5.37764,"is_reserved":false,"is_disabled":false,"rental_uris":{"android":"levelo://app?vid=89b52013-b770-49ae-8a8e-138f0b624956","ios":"levelo://app?vid=89b52013-b770-49ae-8a8e-138f0b624956"},"vehicle_type_id":"4","last_reported":1728389856,"current_range_meters":36400,"station_id":"ce4bhnp2rcd13ifvqgvg","pricing_plan_id":"cebpf4jnsgd1na2vs0mg"},{"bike_id":"7f8896c9-e044-4169-ba02-75989da632b5","system_id":"levelo_inurba_marseille","lat":43.24812,"lon":5.37462,"is_reserved":false,"is_disabled":false,"rental_uris":{"android":"levelo://app?vid=7f8896c9-e044-4169-ba02-75989da632b5","ios":"levelo://app?vid=7f8896c9-e044-4169-ba02-75989da632b5"},"vehicle_type_id":"4","last_reported":1728389856,"current_range_meters":38000,"station_id":"ce4bhgh2rcd13ifvqfb0","pricing_plan_id":"cebpf4jnsgd1na2vs0mg"},{"bike_id":"8bc0c577-17ce-4c2f-9d54-5d6260eb9f22","system_id":"levelo_inurba_marseille","lat":43.31529,"lon":5.38031,"is_reserved":false,"is_disabled":false,"rental_uris":{"android":"levelo://app?vid=8bc0c577-17ce-4c2f-9d54-5d6260eb9f22","ios":"levelo://app?vid=8bc0c577-17ce-4c2f-9d54-5d6260eb9f22"},"vehicle_type_id":"4","last_reported":1728389856,"current_range_meters":4800,"station_id":"ce4bhsp2rcd13ifvqi50","pricing_plan_id":"cebpf4jnsgd1na2vs0mg"},{"bike_id":"a3cabec8-d812-47ad-86e1-e5e79f86d4c6","system_id":"levelo_inurba_marseille","lat":43.34145,"lon":5.40906,"is_reserved":false,"is_disabled":false,"rental_uris":{"android":"levelo://app?vid=a3cabec8-d812-47ad-86e1-e5e79f86d4c6","ios":"levelo://app?vid=a3cabec8-d812-47ad-86e1-e5e79f86d4c6"},"vehicle_type_id":"4","last_reported":1728389856,"current_range_meters":38000,"station_id":"ce4bhqh2rcd13ifvqhlg","pricing_plan_id":"cebpf4jnsgd1na2vs0mg"},{"bike_id":"15a2cef6-bf69-4286-a169-6d1d824185e5","system_id":"levelo_inurba_marseille","lat":43.28418,"lon":5.34978,"is_reserved":false,"is_disabled":false,"rental_uris":{"android":"levelo://app?vid=15a2cef6-bf69-4286-a169-6d1d824185e5","ios":"levelo://app?vid=15a2cef6-bf69-4286-a169-6d1d824185e5"},"vehicle_type_id":"4","last_reported":1728389856,"current_range_meters":32400,"station_id":"ce4bhbh2rcd13ifvqepg","pricing_plan_id":"cebpf4jnsgd1na2vs0mg"},{"bike_id":"2f6e66ca-f032-4e1b-aea5-c776ba795ccb","system_id":"levelo_inurba_marseille","lat":43.26681,"lon":5.38265,"is_reserved":false,"is_disabled":false,"rental_uris":{"android":"levelo://app?vid=2f6e66ca-f032-4e1b-aea5-c776ba795ccb","ios":"levelo://app?vid=2f6e66ca-f032-4e1b-aea5-c776ba795ccb"},"vehicle_type_id":"4","last_reported":1728389856,"current_range_meters":30400,"station_id":"ce4bhg92rcd13ifvqf90","pricing_plan_id":"cebpf4jnsgd1na2vs0mg"},{"bike_id":"8682febe-528c-4298-bd29-78479ffa4f95","system_id":"levelo_inurba_marseille","lat":43.29428,"lon":5.3861,"is_reserved":false,"is_disabled":false,"rental_uris":{"android":"levelo://app?vid=8682febe-528c-4298-bd29-78479ffa4f95","ios":"levelo://app?vid=8682febe-528c-4298-bd29-78479ffa4f95"},"vehicle_type_id":"4","last_reported":1728389856,"current_range_meters":24000,"station_id":"ce4bh2h2rcd13ifvqdh0","pricing_plan_id":"cebpf4jnsgd1na2vs0mg"},{"bike_id":"81b07a05-4c57-4e76-99d6-5f6e3acbb201","system_id":"levelo_inurba_marseille","lat":43.23064,"lon":5.35484,"is_reserved":false,"is_disabled":false,"rental_uris":{"android":"levelo://app?vid=81b07a05-4c57-4e76-99d6-5f6e3acbb201","ios":"levelo://app?vid=81b07a05-4c57-4e76-99d6-5f6e3acbb201"},"vehicle_type_id":"4","last_reported":1728389856,"current_range_meters":7200,"station_id":"cpo3342slgdg3j2ifvpg","pricing_plan_id":"cebpf4jnsgd1na2vs0mg"},{"bike_id":"57f05b7b-c15a-4a47-a422-74e26c303ccc","system_id":"levelo_inurba_marseille","lat":43.28965,"lon":5.37828,"is_reserved":false,"is_disabled":false,"rental_uris":{"android":"levelo://app?vid=57f05b7b-c15a-4a47-a422-74e26c303ccc","ios":"levelo://app?vid=57f05b7b-c15a-4a47-a422-74e26c303ccc"},"vehicle_type_id":"4","last_reported":1728389856,"current_range_meters":39200,"station_id":"ce4bh9p2rcd13ifvqed0","pricing_plan_id":"cebpf4jnsgd1na2vs0mg"},{"bike_id":"553df947-caf6-4536-a36f-f5b78240b269","system_id":"levelo_inurba_marseille","lat":43.33024,"lon":5.39041,"is_reserved":false,"is_disabled":false,"rental_uris":{"android":"levelo://app?vid=553df947-caf6-4536-a36f-f5b78240b269","ios":"levelo://app?vid=553df947-caf6-4536-a36f-f5b78240b269"},"vehicle_type_id":"4","last_reported":1728389856,"current_range_meters":30000,"station_id":"ce4bhr92rcd13ifvqhrg","pricing_plan_id":"cebpf4jnsgd1na2vs0mg"},{"bike_id":"3c3a8f4e-d456-4028-bf5f-626bb9c92c67","system_id":"levelo_inurba_marseille","lat":43.28495,"lon":5.38567,"is_reserved":false,"is_disabled":false,"rental_uris":{"android":"levelo://app?vid=3c3a8f4e-d456-4028-bf5f-626bb9c92c67","ios":"levelo://app?vid=3c3a8f4e-d456-4028-bf5f-626bb9c92c67"},"vehicle_type_id":"4","last_reported":1728389856,"current_range_meters":6800,"station_id":"ce4bh8p2rcd13ifvqeb0","pricing_plan_id":"cebpf4jnsgd1na2vs0mg"},{"bike_id":"5ee247ae-fbdb-4b53-aaae-5c994fd8f921","system_id":"levelo_inurba_marseille","lat":43.31228,"lon":5.3686,"is_reserved":false,"is_disabled":false,"rental_uris":{"android":"levelo://app?vid=5ee247ae-fbdb-4b53-aaae-5c994fd8f921","ios":"levelo://app?vid=5ee247ae-fbdb-4b53-aaae-5c994fd8f921"},"vehicle_type_id":"4","last_reported":1728389856,"current_range_meters":14000,"station_id":"ce4bgl92rcd13ifvqbq0","pricing_plan_id":"cebpf4jnsgd1na2vs0mg"},{"bike_id":"d27826d5-e13a-4991-84d6-4b1992953751","system_id":"levelo_inurba_marseille","lat":43.319893,"lon":5.380491,"is_reserved":false,"is_disabled":false,"rental_uris":{"android":"levelo://app?vid=d27826d5-e13a-4991-84d6-4b1992953751","ios":"levelo://app?vid=d27826d5-e13a-4991-84d6-4b1992953751"},"vehicle_type_id":"4","last_reported":1728389856,"current_range_meters":34000,"station_id":"ce4bhr12rcd13ifvqhqg","pricing_plan_id":"cebpf4jnsgd1na2vs0mg"},{"bike_id":"3181b1f4-3abe-4bfe-af02-01be27aaa699","system_id":"levelo_inurba_marseille","lat":43.326789,"lon":5.395513,"is_reserved":false,"is_disabled":false,"rental_uris":{"android":"levelo://app?vid=3181b1f4-3abe-4bfe-af02-01be27aaa699","ios":"levelo://app?vid=3181b1f4-3abe-4bfe-af02-01be27aaa699"},"vehicle_type_id":"4","last_reported":1728389856,"current_range_meters":11600,"station_id":"ce4bhqh2rcd13ifvqhmg","pricing_plan_id":"cebpf4jnsgd1na2vs0mg"},{"bike_id":"9f4b1d8a-a409-48fd-ba73-4bc3dfb4e229","system_id":"levelo_inurba_marseille","lat":43.24075,"lon":5.37751,"is_reserved":false,"is_disabled":false,"rental_uris":{"android":"levelo://app?vid=9f4b1d8a-a409-48fd-ba73-4bc3dfb4e229","ios":"levelo://app?vid=9f4b1d8a-a409-48fd-ba73-4bc3dfb4e229"},"vehicle_type_id":"4","last_reported":1728389856,"current_range_meters":19600,"station_id":"ce4bhnp2rcd13ifvqgvg","pricing_plan_id":"cebpf4jnsgd1na2vs0mg"},{"bike_id":"7f22cb8f-89d4-4b60-a0b9-407c6db75e9f","system_id":"levelo_inurba_marseille","lat":43.33756,"lon":5.37438,"is_reserved":false,"is_disabled":false,"rental_uris":{"android":"levelo://app?vid=7f22cb8f-89d4-4b60-a0b9-407c6db75e9f","ios":"levelo://app?vid=7f22cb8f-89d4-4b60-a0b9-407c6db75e9f"},"vehicle_type_id":"4","last_reported":1728389856,"current_range_meters":30400,"station_id":"ce4rr2p2rcd13i802rgg","pricing_plan_id":"cebpf4jnsgd1na2vs0mg"},{"bike_id":"ea032a00-6eb9-4586-8ae0-b049ad2907fa","system_id":"levelo_inurba_marseille","lat":43.28851,"lon":5.35859,"is_reserved":false,"is_disabled":false,"rental_uris":{"android":"levelo://app?vid=ea032a00-6eb9-4586-8ae0-b049ad2907fa","ios":"levelo://app?vid=ea032a00-6eb9-4586-8ae0-b049ad2907fa"},"vehicle_type_id":"4","last_reported":1728389856,"current_range_meters":27600,"station_id":"ce4bhb12rcd13ifvqem0","pricing_plan_id":"cebpf4jnsgd1na2vs0mg"},{"bike_id":"066ccb90-6b9a-4302-bde4-9c97dfce747d","system_id":"levelo_inurba_marseille","lat":43.33722,"lon":5.39188,"is_reserved":false,"is_disabled":false,"rental_uris":{"android":"levelo://app?vid=066ccb90-6b9a-4302-bde4-9c97dfce747d","ios":"levelo://app?vid=066ccb90-6b9a-4302-bde4-9c97dfce747d"},"vehicle_type_id":"4","last_reported":1728389856,"current_range_meters":36800,"station_id":"ce4bhr92rcd13ifvqhsg","pricing_plan_id":"cebpf4jnsgd1na2vs0mg"},{"bike_id":"f50162c6-b604-4fac-8f3c-6b59d21e8e0f","system_id":"levelo_inurba_marseille","lat":43.24183,"lon":5.39728,"is_reserved":false,"is_disabled":false,"rental_uris":{"android":"levelo://app?vid=f50162c6-b604-4fac-8f3c-6b59d21e8e0f","ios":"levelo://app?vid=f50162c6-b604-4fac-8f3c-6b59d21e8e0f"},"vehicle_type_id":"4","last_reported":1728389856,"current_range_meters":11200,"station_id":"ce4bhn12rcd13ifvqgpg","pricing_plan_id":"cebpf4jnsgd1na2vs0mg"},{"bike_id":"12974a0f-2544-4d26-91a5-435eae1a2365","system_id":"levelo_inurba_marseille","lat":43.3169,"lon":5.40473,"is_reserved":false,"is_disabled":false,"rental_uris":{"android":"levelo://app?vid=12974a0f-2544-4d26-91a5-435eae1a2365","ios":"levelo://app?vid=12974a0f-2544-4d26-91a5-435eae1a2365"},"vehicle_type_id":"4","last_reported":1728389856,"current_range_meters":36800,"station_id":"ce4bh012rcd13ifvqd00","pricing_plan_id":"cebpf4jnsgd1na2vs0mg"},{"bike_id":"b86fc600-2b91-4b84-961b-f338f765214a","system_id":"levelo_inurba_marseille","lat":43.29575,"lon":5.37498,"is_reserved":false,"is_disabled":false,"rental_uris":{"android":"levelo://app?vid=b86fc600-2b91-4b84-961b-f338f765214a","ios":"levelo://app?vid=b86fc600-2b91-4b84-961b-f338f765214a"},"vehicle_type_id":"4","last_reported":1728389856,"current_range_meters":37600,"station_id":"ce4bgh92rcd13ifvqb50","pricing_plan_id":"cebpf4jnsgd1na2vs0mg"},{"bike_id":"c839ffb1-2b96-4844-b9d7-42ea4440b387","system_id":"levelo_inurba_marseille","lat":43.31321,"lon":5.39686,"is_reserved":false,"is_disabled":false,"rental_uris":{"android":"levelo://app?vid=c839ffb1-2b96-4844-b9d7-42ea4440b387","ios":"levelo://app?vid=c839ffb1-2b96-4844-b9d7-42ea4440b387"},"vehicle_type_id":"4","last_reported":1728389856,"current_range_meters":3600,"station_id":"ce4bgvp2rcd13ifvqcu0","pricing_plan_id":"cebpf4jnsgd1na2vs0mg"},{"bike_id":"2d5bad90-372b-4959-bca8-db3a93327907","system_id":"levelo_inurba_marseille","lat":43.30137,"lon":5.37416,"is_reserved":false,"is_disabled":false,"rental_uris":{"android":"levelo://app?vid=2d5bad90-372b-4959-bca8-db3a93327907","ios":"levelo://app?vid=2d5bad90-372b-4959-bca8-db3a93327907"},"vehicle_type_id":"4","last_reported":1728389856,"current_range_meters":30400,"station_id":"ce4bgs92rcd13ifvqcc0","pricing_plan_id":"cebpf4jnsgd1na2vs0mg"},{"bike_id":"35db5aab-a536-4286-87d7-90ec43783f24","system_id":"levelo_inurba_marseille","lat":43.23193,"lon":5.35554,"is_reserved":false,"is_disabled":false,"rental_uris":{"android":"levelo://app?vid=35db5aab-a536-4286-87d7-90ec43783f24","ios":"levelo://app?vid=35db5aab-a536-4286-87d7-90ec43783f24"},"vehicle_type_id":"4","last_reported":1728389856,"current_range_meters":30000,"station_id":"ce4bhu92rcd13ifvqi70","pricing_plan_id":"cebpf4jnsgd1na2vs0mg"},{"bike_id":"1acf8b01-c1fd-4c36-8e97-b363f3e23fc7","system_id":"levelo_inurba_marseille","lat":43.29577,"lon":5.37516,"is_reserved":false,"is_disabled":false,"rental_uris":{"android":"levelo://app?vid=1acf8b01-c1fd-4c36-8e97-b363f3e23fc7","ios":"levelo://app?vid=1acf8b01-c1fd-4c36-8e97-b363f3e23fc7"},"vehicle_type_id":"4","last_reported":1728389856,"current_range_meters":5600,"station_id":"ce4bgh92rcd13ifvqb50","pricing_plan_id":"cebpf4jnsgd1na2vs0mg"},{"bike_id":"32e3a587-fd62-475b-951f-e3c7349587d7","system_id":"levelo_inurba_marseille","lat":43.29792,"lon":5.38093,"is_reserved":false,"is_disabled":false,"rental_uris":{"android":"levelo://app?vid=32e3a587-fd62-475b-951f-e3c7349587d7","ios":"levelo://app?vid=32e3a587-fd62-475b-951f-e3c7349587d7"},"vehicle_type_id":"4","last_reported":1728389856,"current_range_meters":31200,"station_id":"ce4bgip2rcd13ifvqbb0","pricing_plan_id":"cebpf4jnsgd1na2vs0mg"},{"bike_id":"24c4519e-310e-426d-93a1-ff44ec0f9d1d","system_id":"levelo_inurba_marseille","lat":43.23148,"lon":5.43723,"is_reserved":false,"is_disabled":false,"rental_uris":{"android":"levelo://app?vid=24c4519e-310e-426d-93a1-ff44ec0f9d1d","ios":"levelo://app?vid=24c4519e-310e-426d-93a1-ff44ec0f9d1d"},"vehicle_type_id":"4","last_reported":1728389856,"current_range_meters":31200,"station_id":"ce4bhmp2rcd13ifvqgog","pricing_plan_id":"cebpf4jnsgd1na2vs0mg"},{"bike_id":"62dfd99c-f976-4937-b2d0-5b50f5ae699f","system_id":"levelo_inurba_marseille","lat":43.24168,"lon":5.36398,"is_reserved":false,"is_disabled":false,"rental_uris":{"android":"levelo://app?vid=62dfd99c-f976-4937-b2d0-5b50f5ae699f","ios":"levelo://app?vid=62dfd99c-f976-4937-b2d0-5b50f5ae699f"},"vehicle_type_id":"4","last_reported":1728389856,"current_range_meters":6000,"station_id":"cpo36qri1sfpv3e86is0","pricing_plan_id":"cebpf4jnsgd1na2vs0mg"},{"bike_id":"d5b8bfb4-409c-4850-a69d-4732b5060224","system_id":"levelo_inurba_marseille","lat":43.31348,"lon":5.36712,"is_reserved":false,"is_disabled":false,"rental_uris":{"android":"levelo://app?vid=d5b8bfb4-409c-4850-a69d-4732b5060224","ios":"levelo://app?vid=d5b8bfb4-409c-4850-a69d-4732b5060224"},"vehicle_type_id":"4","last_reported":1728389856,"current_range_meters":36800,"station_id":"ce4bgr92rcd13ifvqc6g","pricing_plan_id":"cebpf4jnsgd1na2vs0mg"},{"bike_id":"064dab72-1866-4dfb-8899-8b655881bae9","system_id":"levelo_inurba_marseille","lat":43.30962,"lon":5.39028,"is_reserved":false,"is_disabled":false,"rental_uris":{"android":"levelo://app?vid=064dab72-1866-4dfb-8899-8b655881bae9","ios":"levelo://app?vid=064dab72-1866-4dfb-8899-8b655881bae9"},"vehicle_type_id":"4","last_reported":1728389856,"current_range_meters":19200,"station_id":"ce4bgup2rcd13ifvqco0","pricing_plan_id":"cebpf4jnsgd1na2vs0mg"},{"bike_id":"4c99c496-ac06-4ce0-b903-7f8fbaf8ad33","system_id":"levelo_inurba_marseille","lat":43.30187,"lon":5.36631,"is_reserved":false,"is_disabled":false,"rental_uris":{"android":"levelo://app?vid=4c99c496-ac06-4ce0-b903-7f8fbaf8ad33","ios":"levelo://app?vid=4c99c496-ac06-4ce0-b903-7f8fbaf8ad33"},"vehicle_type_id":"4","last_reported":1728389856,"current_range_meters":30000,"station_id":"ce4bgrh2rcd13ifvqc8g","pricing_plan_id":"cebpf4jnsgd1na2vs0mg"},{"bike_id":"51ea515d-944c-489c-8a74-b1f09acd3971","system_id":"levelo_inurba_marseille","lat":43.25574,"lon":5.38243,"is_reserved":false,"is_disabled":false,"rental_uris":{"android":"levelo://app?vid=51ea515d-944c-489c-8a74-b1f09acd3971","ios":"levelo://app?vid=51ea515d-944c-489c-8a74-b1f09acd3971"},"vehicle_type_id":"4","last_reported":1728389856,"current_range_meters":39200,"station_id":"ce4bhih2rcd13ifvqfs0","pricing_plan_id":"cebpf4jnsgd1na2vs0mg"},{"bike_id":"312be069-018c-4e2b-8659-24d0a47ffefb","system_id":"levelo_inurba_marseille","lat":43.29411,"lon":5.38617,"is_reserved":false,"is_disabled":false,"rental_uris":{"android":"levelo://app?vid=312be069-018c-4e2b-8659-24d0a47ffefb","ios":"levelo://app?vid=312be069-018c-4e2b-8659-24d0a47ffefb"},"vehicle_type_id":"4","last_reported":1728389856,"current_range_meters":14800,"station_id":"ce4bh2h2rcd13ifvqdh0","pricing_plan_id":"cebpf4jnsgd1na2vs0mg"},{"bike_id":"848a0fe8-7f6b-45bf-937d-289c95e0e2c0","system_id":"levelo_inurba_marseille","lat":43.31889,"lon":5.40733,"is_reserved":false,"is_disabled":false,"rental_uris":{"android":"levelo://app?vid=848a0fe8-7f6b-45bf-937d-289c95e0e2c0","ios":"levelo://app?vid=848a0fe8-7f6b-45bf-937d-289c95e0e2c0"},"vehicle_type_id":"4","last_reported":1728389856,"current_range_meters":16400,"station_id":"","pricing_plan_id":"cebpf4jnsgd1na2vs0mg"},{"bike_id":"1f3d9551-97fe-46f8-9b49-543e69824419","system_id":"levelo_inurba_marseille","lat":43.28713,"lon":5.37933,"is_reserved":false,"is_disabled":false,"rental_uris":{"android":"levelo://app?vid=1f3d9551-97fe-46f8-9b49-543e69824419","ios":"levelo://app?vid=1f3d9551-97fe-46f8-9b49-543e69824419"},"vehicle_type_id":"4","last_reported":1728389856,"current_range_meters":36800,"station_id":"ce4bh9p2rcd13ifvqec0","pricing_plan_id":"cebpf4jnsgd1na2vs0mg"},{"bike_id":"a4a2b2ef-f9e7-4ba5-88b9-5b6e8b9caed8","system_id":"levelo_inurba_marseille","lat":43.284609,"lon":5.375166,"is_reserved":false,"is_disabled":false,"rental_uris":{"android":"levelo://app?vid=a4a2b2ef-f9e7-4ba5-88b9-5b6e8b9caed8","ios":"levelo://app?vid=a4a2b2ef-f9e7-4ba5-88b9-5b6e8b9caed8"},"vehicle_type_id":"4","last_reported":1728389856,"current_range_meters":29600,"station_id":"ce4bh412rcd13ifvqds0","pricing_plan_id":"cebpf4jnsgd1na2vs0mg"},{"bike_id":"9d82ed0c-f581-460d-9df2-f211eba8fd79","system_id":"levelo_inurba_marseille","lat":43.28856,"lon":5.35852,"is_reserved":false,"is_disabled":false,"rental_uris":{"android":"levelo://app?vid=9d82ed0c-f581-460d-9df2-f211eba8fd79","ios":"levelo://app?vid=9d82ed0c-f581-460d-9df2-f211eba8fd79"},"vehicle_type_id":"4","last_reported":1728389856,"current_range_meters":38800,"station_id":"ce4bhb12rcd13ifvqem0","pricing_plan_id":"cebpf4jnsgd1na2vs0mg"},{"bike_id":"c2498971-ca1f-449c-a62c-70c9499feacc","system_id":"levelo_inurba_marseille","lat":43.27973,"lon":5.38745,"is_reserved":false,"is_disabled":false,"rental_uris":{"android":"levelo://app?vid=c2498971-ca1f-449c-a62c-70c9499feacc","ios":"levelo://app?vid=c2498971-ca1f-449c-a62c-70c9499feacc"},"vehicle_type_id":"4","last_reported":1728389856,"current_range_meters":18000,"station_id":"ce4bhg12rcd13ifvqf80","pricing_plan_id":"cebpf4jnsgd1na2vs0mg"},{"bike_id":"68b91817-e55e-4fa7-b3f0-48e4a02c17c7","system_id":"levelo_inurba_marseille","lat":43.27002,"lon":5.40179,"is_reserved":false,"is_disabled":false,"rental_uris":{"android":"levelo://app?vid=68b91817-e55e-4fa7-b3f0-48e4a02c17c7","ios":"levelo://app?vid=68b91817-e55e-4fa7-b3f0-48e4a02c17c7"},"vehicle_type_id":"4","last_reported":1728389856,"current_range_meters":25600,"station_id":"ce4bhk92rcd13ifvqgb0","pricing_plan_id":"cebpf4jnsgd1na2vs0mg"},{"bike_id":"72f390d6-8036-4225-a9fd-bbdc6e34eeea","system_id":"levelo_inurba_marseille","lat":43.231813,"lon":5.400003,"is_reserved":false,"is_disabled":false,"rental_uris":{"android":"levelo://app?vid=72f390d6-8036-4225-a9fd-bbdc6e34eeea","ios":"levelo://app?vid=72f390d6-8036-4225-a9fd-bbdc6e34eeea"},"vehicle_type_id":"4","last_reported":1728389856,"current_range_meters":37600,"station_id":"ce4bhn12rcd13ifvqgqg","pricing_plan_id":"cebpf4jnsgd1na2vs0mg"},{"bike_id":"68d38bad-8f55-465e-9900-5976c1de7c12","system_id":"levelo_inurba_marseille","lat":43.27497,"lon":5.42447,"is_reserved":false,"is_disabled":false,"rental_uris":{"android":"levelo://app?vid=68d38bad-8f55-465e-9900-5976c1de7c12","ios":"levelo://app?vid=68d38bad-8f55-465e-9900-5976c1de7c12"},"vehicle_type_id":"4","last_reported":1728389856,"current_range_meters":27200,"station_id":"ce4bhn92rcd13ifvqgrg","pricing_plan_id":"cebpf4jnsgd1na2vs0mg"},{"bike_id":"28599adc-cefe-4dc4-9e60-2a07522c60e4","system_id":"levelo_inurba_marseille","lat":43.24803,"lon":5.37449,"is_reserved":false,"is_disabled":false,"rental_uris":{"android":"levelo://app?vid=28599adc-cefe-4dc4-9e60-2a07522c60e4","ios":"levelo://app?vid=28599adc-cefe-4dc4-9e60-2a07522c60e4"},"vehicle_type_id":"4","last_reported":1728389856,"current_range_meters":38800,"station_id":"ce4bhgh2rcd13ifvqfb0","pricing_plan_id":"cebpf4jnsgd1na2vs0mg"},{"bike_id":"4af55307-045f-4c66-a045-a91d88bb4c16","system_id":"levelo_inurba_marseille","lat":43.22932,"lon":5.35381,"is_reserved":false,"is_disabled":false,"rental_uris":{"android":"levelo://app?vid=4af55307-045f-4c66-a045-a91d88bb4c16","ios":"levelo://app?vid=4af55307-045f-4c66-a045-a91d88bb4c16"},"vehicle_type_id":"4","last_reported":1728389856,"current_range_meters":21600,"station_id":"cpo3532slgdg3j2ikp40","pricing_plan_id":"cebpf4jnsgd1na2vs0mg"},{"bike_id":"1108f945-2562-4a37-b07f-6ae5d87c264e","system_id":"levelo_inurba_marseille","lat":43.337444,"lon":5.374475,"is_reserved":false,"is_disabled":false,"rental_uris":{"android":"levelo://app?vid=1108f945-2562-4a37-b07f-6ae5d87c264e","ios":"levelo://app?vid=1108f945-2562-4a37-b07f-6ae5d87c264e"},"vehicle_type_id":"4","last_reported":1728389856,"current_range_meters":38000,"station_id":"","pricing_plan_id":"cebpf4jnsgd1na2vs0mg"},{"bike_id":"47efe985-66e3-4fb1-a00d-60851f779f19","system_id":"levelo_inurba_marseille","lat":43.32543,"lon":5.4142,"is_reserved":false,"is_disabled":false,"rental_uris":{"android":"levelo://app?vid=47efe985-66e3-4fb1-a00d-60851f779f19","ios":"levelo://app?vid=47efe985-66e3-4fb1-a00d-60851f779f19"},"vehicle_type_id":"4","last_reported":1728389856,"current_range_meters":26000,"station_id":"ce4bhq12rcd13ifvqhhg","pricing_plan_id":"cebpf4jnsgd1na2vs0mg"},{"bike_id":"9f64c7ee-2c6a-4352-9274-25058447da97","system_id":"levelo_inurba_marseille","lat":43.30544,"lon":5.36552,"is_reserved":false,"is_disabled":false,"rental_uris":{"android":"levelo://app?vid=9f64c7ee-2c6a-4352-9274-25058447da97","ios":"levelo://app?vid=9f64c7ee-2c6a-4352-9274-25058447da97"},"vehicle_type_id":"4","last_reported":1728389856,"current_range_meters":30400,"station_id":"ce4bgs12rcd13ifvqcag","pricing_plan_id":"cebpf4jnsgd1na2vs0mg"},{"bike_id":"205fcdf6-1d70-4c31-9ba8-ed779c5afedc","system_id":"levelo_inurba_marseille","lat":43.23193,"lon":5.39981,"is_reserved":false,"is_disabled":false,"rental_uris":{"android":"levelo://app?vid=205fcdf6-1d70-4c31-9ba8-ed779c5afedc","ios":"levelo://app?vid=205fcdf6-1d70-4c31-9ba8-ed779c5afedc"},"vehicle_type_id":"4","last_reported":1728389856,"current_range_meters":24800,"station_id":"ce4bhn12rcd13ifvqgqg","pricing_plan_id":"cebpf4jnsgd1na2vs0mg"},{"bike_id":"905fb584-9b17-4eb7-b5aa-808592a74e6e","system_id":"levelo_inurba_marseille","lat":43.30534,"lon":5.36715,"is_reserved":false,"is_disabled":false,"rental_uris":{"android":"levelo://app?vid=905fb584-9b17-4eb7-b5aa-808592a74e6e","ios":"levelo://app?vid=905fb584-9b17-4eb7-b5aa-808592a74e6e"},"vehicle_type_id":"4","last_reported":1728389856,"current_range_meters":38000,"station_id":"ce4bgrp2rcd13ifvqc9g","pricing_plan_id":"cebpf4jnsgd1na2vs0mg"},{"bike_id":"c12c46a4-bd86-493d-803e-5d507cd7924b","system_id":"levelo_inurba_marseille","lat":43.23196,"lon":5.35543,"is_reserved":false,"is_disabled":false,"rental_uris":{"android":"levelo://app?vid=c12c46a4-bd86-493d-803e-5d507cd7924b","ios":"levelo://app?vid=c12c46a4-bd86-493d-803e-5d507cd7924b"},"vehicle_type_id":"4","last_reported":1728389856,"current_range_meters":18800,"station_id":"ce4bhu92rcd13ifvqi70","pricing_plan_id":"cebpf4jnsgd1na2vs0mg"},{"bike_id":"1e22ea5d-d406-4b63-92d6-06a783dc0af8","system_id":"levelo_inurba_marseille","lat":43.23185,"lon":5.39978,"is_reserved":false,"is_disabled":false,"rental_uris":{"android":"levelo://app?vid=1e22ea5d-d406-4b63-92d6-06a783dc0af8","ios":"levelo://app?vid=1e22ea5d-d406-4b63-92d6-06a783dc0af8"},"vehicle_type_id":"4","last_reported":1728389856,"current_range_meters":18800,"station_id":"ce4bhn12rcd13ifvqgqg","pricing_plan_id":"cebpf4jnsgd1na2vs0mg"},{"bike_id":"c19e637b-a9df-4896-bb6a-b56e60a34764","system_id":"levelo_inurba_marseille","lat":43.2509,"lon":5.39516,"is_reserved":false,"is_disabled":false,"rental_uris":{"android":"levelo://app?vid=c19e637b-a9df-4896-bb6a-b56e60a34764","ios":"levelo://app?vid=c19e637b-a9df-4896-bb6a-b56e60a34764"},"vehicle_type_id":"4","last_reported":1728389856,"current_range_meters":20400,"station_id":"ce4bhm12rcd13ifvqgkg","pricing_plan_id":"cebpf4jnsgd1na2vs0mg"},{"bike_id":"662f4970-f45a-4eb7-8b5b-5f2d14dbdf57","system_id":"levelo_inurba_marseille","lat":43.26682,"lon":5.38272,"is_reserved":false,"is_disabled":false,"rental_uris":{"android":"levelo://app?vid=662f4970-f45a-4eb7-8b5b-5f2d14dbdf57","ios":"levelo://app?vid=662f4970-f45a-4eb7-8b5b-5f2d14dbdf57"},"vehicle_type_id":"4","last_reported":1728389856,"current_range_meters":37600,"station_id":"ce4bhg92rcd13ifvqf90","pricing_plan_id":"cebpf4jnsgd1na2vs0mg"},{"bike_id":"2be7fbbf-447c-4585-ae3a-11cb189336d3","system_id":"levelo_inurba_marseille","lat":43.28672,"lon":5.38649,"is_reserved":false,"is_disabled":false,"rental_uris":{"android":"levelo://app?vid=2be7fbbf-447c-4585-ae3a-11cb189336d3","ios":"levelo://app?vid=2be7fbbf-447c-4585-ae3a-11cb189336d3"},"vehicle_type_id":"4","last_reported":1728389856,"current_range_meters":28800,"station_id":"ce4bh492rcd13ifvqdug","pricing_plan_id":"cebpf4jnsgd1na2vs0mg"},{"bike_id":"37a65884-691d-4edc-8008-de0d135b90fa","system_id":"levelo_inurba_marseille","lat":43.24175,"lon":5.39728,"is_reserved":false,"is_disabled":false,"rental_uris":{"android":"levelo://app?vid=37a65884-691d-4edc-8008-de0d135b90fa","ios":"levelo://app?vid=37a65884-691d-4edc-8008-de0d135b90fa"},"vehicle_type_id":"4","last_reported":1728389856,"current_range_meters":7200,"station_id":"ce4bhn12rcd13ifvqgpg","pricing_plan_id":"cebpf4jnsgd1na2vs0mg"},{"bike_id":"03773794-676c-47c2-bcdb-1ac3eb7a13e0","system_id":"levelo_inurba_marseille","lat":43.30461,"lon":5.37903,"is_reserved":false,"is_disabled":false,"rental_uris":{"android":"levelo://app?vid=03773794-676c-47c2-bcdb-1ac3eb7a13e0","ios":"levelo://app?vid=03773794-676c-47c2-bcdb-1ac3eb7a13e0"},"vehicle_type_id":"4","last_reported":1728389856,"current_range_meters":32000,"station_id":"ce4bgup2rcd13ifvqcn0","pricing_plan_id":"cebpf4jnsgd1na2vs0mg"},{"bike_id":"b6640f17-7ab3-4932-bbd1-5fe22e83845e","system_id":"levelo_inurba_marseille","lat":43.32291,"lon":5.38265,"is_reserved":false,"is_disabled":false,"rental_uris":{"android":"levelo://app?vid=b6640f17-7ab3-4932-bbd1-5fe22e83845e","ios":"levelo://app?vid=b6640f17-7ab3-4932-bbd1-5fe22e83845e"},"vehicle_type_id":"4","last_reported":1728389856,"current_range_meters":39200,"station_id":"ce4bhr12rcd13ifvqhqg","pricing_plan_id":"cebpf4jnsgd1na2vs0mg"},{"bike_id":"a5c459cc-1b4c-42d6-a411-afd06cacbfb5","system_id":"levelo_inurba_marseille","lat":43.321715,"lon":5.367774,"is_reserved":false,"is_disabled":false,"rental_uris":{"android":"levelo://app?vid=a5c459cc-1b4c-42d6-a411-afd06cacbfb5","ios":"levelo://app?vid=a5c459cc-1b4c-42d6-a411-afd06cacbfb5"},"vehicle_type_id":"4","last_reported":1728389856,"current_range_meters":26800,"station_id":"ce4bhrh2rcd13ifvqhug","pricing_plan_id":"cebpf4jnsgd1na2vs0mg"},{"bike_id":"18a067f5-0f01-447b-af96-355fba06c978","system_id":"levelo_inurba_marseille","lat":43.29715,"lon":5.37684,"is_reserved":false,"is_disabled":false,"rental_uris":{"android":"levelo://app?vid=18a067f5-0f01-447b-af96-355fba06c978","ios":"levelo://app?vid=18a067f5-0f01-447b-af96-355fba06c978"},"vehicle_type_id":"4","last_reported":1728389856,"current_range_meters":38800,"station_id":"ce4bgkh2rcd13ifvqbl0","pricing_plan_id":"cebpf4jnsgd1na2vs0mg"},{"bike_id":"f4f246a8-424f-43a3-b38e-40b1a91625c6","system_id":"levelo_inurba_marseille","lat":43.293,"lon":5.37166,"is_reserved":false,"is_disabled":false,"rental_uris":{"android":"levelo://app?vid=f4f246a8-424f-43a3-b38e-40b1a91625c6","ios":"levelo://app?vid=f4f246a8-424f-43a3-b38e-40b1a91625c6"},"vehicle_type_id":"4","last_reported":1728389856,"current_range_meters":20800,"station_id":"ce4bgh92rcd13ifvqb40","pricing_plan_id":"cebpf4jnsgd1na2vs0mg"},{"bike_id":"8614b994-ae2d-4ba6-9c50-9dc14a4d72af","system_id":"levelo_inurba_marseille","lat":43.255,"lon":5.37654,"is_reserved":false,"is_disabled":false,"rental_uris":{"android":"levelo://app?vid=8614b994-ae2d-4ba6-9c50-9dc14a4d72af","ios":"levelo://app?vid=8614b994-ae2d-4ba6-9c50-9dc14a4d72af"},"vehicle_type_id":"4","last_reported":1728389856,"current_range_meters":29600,"station_id":"ce4bhh12rcd13ifvqff0","pricing_plan_id":"cebpf4jnsgd1na2vs0mg"},{"bike_id":"89fcb1ea-f4c9-424e-9760-2c39f1d59be1","system_id":"levelo_inurba_marseille","lat":43.25585,"lon":5.38236,"is_reserved":false,"is_disabled":false,"rental_uris":{"android":"levelo://app?vid=89fcb1ea-f4c9-424e-9760-2c39f1d59be1","ios":"levelo://app?vid=89fcb1ea-f4c9-424e-9760-2c39f1d59be1"},"vehicle_type_id":"4","last_reported":1728389856,"current_range_meters":20400,"station_id":"ce4bhih2rcd13ifvqfs0","pricing_plan_id":"cebpf4jnsgd1na2vs0mg"},{"bike_id":"51518c00-b5c7-480d-8547-a82c8d12269e","system_id":"levelo_inurba_marseille","lat":43.23145,"lon":5.43723,"is_reserved":false,"is_disabled":false,"rental_uris":{"android":"levelo://app?vid=51518c00-b5c7-480d-8547-a82c8d12269e","ios":"levelo://app?vid=51518c00-b5c7-480d-8547-a82c8d12269e"},"vehicle_type_id":"4","last_reported":1728389856,"current_range_meters":16800,"station_id":"ce4bhmp2rcd13ifvqgog","pricing_plan_id":"cebpf4jnsgd1na2vs0mg"},{"bike_id":"a81ba7c1-2346-44ad-be54-bc7cff7d4ee0","system_id":"levelo_inurba_marseille","lat":43.30194,"lon":5.39567,"is_reserved":false,"is_disabled":false,"rental_uris":{"android":"levelo://app?vid=a81ba7c1-2346-44ad-be54-bc7cff7d4ee0","ios":"levelo://app?vid=a81ba7c1-2346-44ad-be54-bc7cff7d4ee0"},"vehicle_type_id":"4","last_reported":1728389856,"current_range_meters":34800,"station_id":"ce4bh0h2rcd13ifvqd50","pricing_plan_id":"cebpf4jnsgd1na2vs0mg"},{"bike_id":"d00a3477-782a-4de0-b711-15ed9dd434f4","system_id":"levelo_inurba_marseille","lat":43.23054,"lon":5.35488,"is_reserved":false,"is_disabled":false,"rental_uris":{"android":"levelo://app?vid=d00a3477-782a-4de0-b711-15ed9dd434f4","ios":"levelo://app?vid=d00a3477-782a-4de0-b711-15ed9dd434f4"},"vehicle_type_id":"4","last_reported":1728389856,"current_range_meters":4800,"station_id":"cpo3342slgdg3j2ifvpg","pricing_plan_id":"cebpf4jnsgd1na2vs0mg"},{"bike_id":"cec3c99e-ca48-4d80-8754-f9affa5d8948","system_id":"levelo_inurba_marseille","lat":43.23155,"lon":5.43706,"is_reserved":false,"is_disabled":false,"rental_uris":{"android":"levelo://app?vid=cec3c99e-ca48-4d80-8754-f9affa5d8948","ios":"levelo://app?vid=cec3c99e-ca48-4d80-8754-f9affa5d8948"},"vehicle_type_id":"4","last_reported":1728389856,"current_range_meters":21600,"station_id":"ce4bhmp2rcd13ifvqgog","pricing_plan_id":"cebpf4jnsgd1na2vs0mg"},{"bike_id":"d4b10374-6ad7-4dec-9dee-2bc790309599","system_id":"levelo_inurba_marseille","lat":43.29589,"lon":5.3751,"is_reserved":false,"is_disabled":false,"rental_uris":{"android":"levelo://app?vid=d4b10374-6ad7-4dec-9dee-2bc790309599","ios":"levelo://app?vid=d4b10374-6ad7-4dec-9dee-2bc790309599"},"vehicle_type_id":"4","last_reported":1728389856,"current_range_meters":36000,"station_id":"ce4bgh92rcd13ifvqb50","pricing_plan_id":"cebpf4jnsgd1na2vs0mg"},{"bike_id":"c53e5d60-62b1-45aa-a4f7-32ece814db73","system_id":"levelo_inurba_marseille","lat":43.28856,"lon":5.39314,"is_reserved":false,"is_disabled":false,"rental_uris":{"android":"levelo://app?vid=c53e5d60-62b1-45aa-a4f7-32ece814db73","ios":"levelo://app?vid=c53e5d60-62b1-45aa-a4f7-32ece814db73"},"vehicle_type_id":"4","last_reported":1728389856,"current_range_meters":38000,"station_id":"ce4bh2p2rcd13ifvqdi0","pricing_plan_id":"cebpf4jnsgd1na2vs0mg"},{"bike_id":"eb4323b6-3124-4257-9804-0af169a86eca","system_id":"levelo_inurba_marseille","lat":43.29037,"lon":5.39964,"is_reserved":false,"is_disabled":false,"rental_uris":{"android":"levelo://app?vid=eb4323b6-3124-4257-9804-0af169a86eca","ios":"levelo://app?vid=eb4323b6-3124-4257-9804-0af169a86eca"},"vehicle_type_id":"4","last_reported":1728389856,"current_range_meters":2800,"station_id":"ce4bh392rcd13ifvqdm0","pricing_plan_id":"cebpf4jnsgd1na2vs0mg"},{"bike_id":"e8f38f77-6572-42be-9296-0cbe6e7cb972","system_id":"levelo_inurba_marseille","lat":43.23054,"lon":5.35492,"is_reserved":false,"is_disabled":false,"rental_uris":{"android":"levelo://app?vid=e8f38f77-6572-42be-9296-0cbe6e7cb972","ios":"levelo://app?vid=e8f38f77-6572-42be-9296-0cbe6e7cb972"},"vehicle_type_id":"4","last_reported":1728389856,"current_range_meters":32000,"station_id":"cpo3342slgdg3j2ifvpg","pricing_plan_id":"cebpf4jnsgd1na2vs0mg"},{"bike_id":"32bbb130-86de-4fd8-9c24-ef5faee06cc9","system_id":"levelo_inurba_marseille","lat":43.2996,"lon":5.41322,"is_reserved":false,"is_disabled":false,"rental_uris":{"android":"levelo://app?vid=32bbb130-86de-4fd8-9c24-ef5faee06cc9","ios":"levelo://app?vid=32bbb130-86de-4fd8-9c24-ef5faee06cc9"},"vehicle_type_id":"4","last_reported":1728389856,"current_range_meters":36400,"station_id":"ce4bhp12rcd13ifvqh9g","pricing_plan_id":"cebpf4jnsgd1na2vs0mg"},{"bike_id":"73bbb411-e0a7-45fb-8ffc-28d0ef4f6d1d","system_id":"levelo_inurba_marseille","lat":43.28932,"lon":5.36637,"is_reserved":false,"is_disabled":false,"rental_uris":{"android":"levelo://app?vid=73bbb411-e0a7-45fb-8ffc-28d0ef4f6d1d","ios":"levelo://app?vid=73bbb411-e0a7-45fb-8ffc-28d0ef4f6d1d"},"vehicle_type_id":"4","last_reported":1728389856,"current_range_meters":34000,"station_id":"ce4bhap2rcd13ifvqek0","pricing_plan_id":"cebpf4jnsgd1na2vs0mg"},{"bike_id":"88afa618-2138-410a-b12c-bcf69410a717","system_id":"levelo_inurba_marseille","lat":43.30914,"lon":5.36837,"is_reserved":false,"is_disabled":false,"rental_uris":{"android":"levelo://app?vid=88afa618-2138-410a-b12c-bcf69410a717","ios":"levelo://app?vid=88afa618-2138-410a-b12c-bcf69410a717"},"vehicle_type_id":"4","last_reported":1728389856,"current_range_meters":28000,"station_id":"ce4bgn92rcd13ifvqbvg","pricing_plan_id":"cebpf4jnsgd1na2vs0mg"},{"bike_id":"9902e120-89d4-4c0d-b155-7740f76b266b","system_id":"levelo_inurba_marseille","lat":43.29622,"lon":5.37165,"is_reserved":false,"is_disabled":false,"rental_uris":{"android":"levelo://app?vid=9902e120-89d4-4c0d-b155-7740f76b266b","ios":"levelo://app?vid=9902e120-89d4-4c0d-b155-7740f76b266b"},"vehicle_type_id":"4","last_reported":1728389856,"current_range_meters":17600,"station_id":"ce4bgnh2rcd13ifvqc0g","pricing_plan_id":"cebpf4jnsgd1na2vs0mg"},{"bike_id":"485bc90e-76e5-4ef0-8a60-6695dcc5102a","system_id":"levelo_inurba_marseille","lat":43.32482,"lon":5.36573,"is_reserved":false,"is_disabled":false,"rental_uris":{"android":"levelo://app?vid=485bc90e-76e5-4ef0-8a60-6695dcc5102a","ios":"levelo://app?vid=485bc90e-76e5-4ef0-8a60-6695dcc5102a"},"vehicle_type_id":"4","last_reported":1728389856,"current_range_meters":12000,"station_id":"ce4bhs12rcd13ifvqhvg","pricing_plan_id":"cebpf4jnsgd1na2vs0mg"},{"bike_id":"77d131a6-db5f-44eb-adb1-7fc7032d111b","system_id":"levelo_inurba_marseille","lat":43.24652,"lon":5.38897,"is_reserved":false,"is_disabled":false,"rental_uris":{"android":"levelo://app?vid=77d131a6-db5f-44eb-adb1-7fc7032d111b","ios":"levelo://app?vid=77d131a6-db5f-44eb-adb1-7fc7032d111b"},"vehicle_type_id":"4","last_reported":1728389856,"current_range_meters":13600,"station_id":"ce4bhg12rcd13ifvqf60","pricing_plan_id":"cebpf4jnsgd1na2vs0mg"},{"bike_id":"b1219be6-4c28-45e1-9d47-f9025a531c3d","system_id":"levelo_inurba_marseille","lat":43.23188,"lon":5.39984,"is_reserved":false,"is_disabled":false,"rental_uris":{"android":"levelo://app?vid=b1219be6-4c28-45e1-9d47-f9025a531c3d","ios":"levelo://app?vid=b1219be6-4c28-45e1-9d47-f9025a531c3d"},"vehicle_type_id":"4","last_reported":1728389856,"current_range_meters":11200,"station_id":"ce4bhn12rcd13ifvqgqg","pricing_plan_id":"cebpf4jnsgd1na2vs0mg"},{"bike_id":"d639549e-ca9f-4313-8853-0f512171ab88","system_id":"levelo_inurba_marseille","lat":43.2979,"lon":5.38111,"is_reserved":false,"is_disabled":false,"rental_uris":{"android":"levelo://app?vid=d639549e-ca9f-4313-8853-0f512171ab88","ios":"levelo://app?vid=d639549e-ca9f-4313-8853-0f512171ab88"},"vehicle_type_id":"4","last_reported":1728389856,"current_range_meters":32400,"station_id":"ce4bgip2rcd13ifvqbb0","pricing_plan_id":"cebpf4jnsgd1na2vs0mg"},{"bike_id":"555902f6-ff0b-4960-b25a-90a5995d0a56","system_id":"levelo_inurba_marseille","lat":43.29872,"lon":5.38899,"is_reserved":false,"is_disabled":false,"rental_uris":{"android":"levelo://app?vid=555902f6-ff0b-4960-b25a-90a5995d0a56","ios":"levelo://app?vid=555902f6-ff0b-4960-b25a-90a5995d0a56"},"vehicle_type_id":"4","last_reported":1728389856,"current_range_meters":14400,"station_id":"ce4bh392rcd13ifvqdl0","pricing_plan_id":"cebpf4jnsgd1na2vs0mg"},{"bike_id":"544b717d-0c7b-42db-933e-04ba15f2d1eb","system_id":"levelo_inurba_marseille","lat":43.30604,"lon":5.39346,"is_reserved":false,"is_disabled":false,"rental_uris":{"android":"levelo://app?vid=544b717d-0c7b-42db-933e-04ba15f2d1eb","ios":"levelo://app?vid=544b717d-0c7b-42db-933e-04ba15f2d1eb"},"vehicle_type_id":"4","last_reported":1728389856,"current_range_meters":27200,"station_id":"ce4bh0p2rcd13ifvqd80","pricing_plan_id":"cebpf4jnsgd1na2vs0mg"},{"bike_id":"7451d0a2-ed81-40d0-b7c3-d689449457d4","system_id":"levelo_inurba_marseille","lat":43.3171,"lon":5.37742,"is_reserved":false,"is_disabled":false,"rental_uris":{"android":"levelo://app?vid=7451d0a2-ed81-40d0-b7c3-d689449457d4","ios":"levelo://app?vid=7451d0a2-ed81-40d0-b7c3-d689449457d4"},"vehicle_type_id":"4","last_reported":1728389856,"current_range_meters":34800,"station_id":"ce4bgth2rcd13ifvqch0","pricing_plan_id":"cebpf4jnsgd1na2vs0mg"},{"bike_id":"539eacbc-92e3-40a6-ae36-ff0b108b53ac","system_id":"levelo_inurba_marseille","lat":43.31332,"lon":5.39695,"is_reserved":false,"is_disabled":false,"rental_uris":{"android":"levelo://app?vid=539eacbc-92e3-40a6-ae36-ff0b108b53ac","ios":"levelo://app?vid=539eacbc-92e3-40a6-ae36-ff0b108b53ac"},"vehicle_type_id":"4","last_reported":1728389856,"current_range_meters":3600,"station_id":"ce4bgvp2rcd13ifvqcu0","pricing_plan_id":"cebpf4jnsgd1na2vs0mg"},{"bike_id":"89066a96-3687-4a6b-84b3-b2e441a88dfb","system_id":"levelo_inurba_marseille","lat":43.3029,"lon":5.37701,"is_reserved":false,"is_disabled":false,"rental_uris":{"android":"levelo://app?vid=89066a96-3687-4a6b-84b3-b2e441a88dfb","ios":"levelo://app?vid=89066a96-3687-4a6b-84b3-b2e441a88dfb"},"vehicle_type_id":"4","last_reported":1728389856,"current_range_meters":23200,"station_id":"ce4bguh2rcd13ifvqcj0","pricing_plan_id":"cebpf4jnsgd1na2vs0mg"},{"bike_id":"6450a085-1ea5-4b27-88be-6150b65d9743","system_id":"levelo_inurba_marseille","lat":43.27491,"lon":5.42455,"is_reserved":false,"is_disabled":false,"rental_uris":{"android":"levelo://app?vid=6450a085-1ea5-4b27-88be-6150b65d9743","ios":"levelo://app?vid=6450a085-1ea5-4b27-88be-6150b65d9743"},"vehicle_type_id":"4","last_reported":1728389856,"current_range_meters":14800,"station_id":"ce4bhn92rcd13ifvqgrg","pricing_plan_id":"cebpf4jnsgd1na2vs0mg"},{"bike_id":"b5142c12-3f3f-452c-853c-bcb33ce12fbf","system_id":"levelo_inurba_marseille","lat":43.23194,"lon":5.35551,"is_reserved":false,"is_disabled":false,"rental_uris":{"android":"levelo://app?vid=b5142c12-3f3f-452c-853c-bcb33ce12fbf","ios":"levelo://app?vid=b5142c12-3f3f-452c-853c-bcb33ce12fbf"},"vehicle_type_id":"4","last_reported":1728389856,"current_range_meters":37600,"station_id":"ce4bhu92rcd13ifvqi70","pricing_plan_id":"cebpf4jnsgd1na2vs0mg"},{"bike_id":"72bcc678-cbb6-4608-9f5c-d1b1bd96f0de","system_id":"levelo_inurba_marseille","lat":43.30176,"lon":5.36621,"is_reserved":false,"is_disabled":false,"rental_uris":{"android":"levelo://app?vid=72bcc678-cbb6-4608-9f5c-d1b1bd96f0de","ios":"levelo://app?vid=72bcc678-cbb6-4608-9f5c-d1b1bd96f0de"},"vehicle_type_id":"4","last_reported":1728389856,"current_range_meters":24400,"station_id":"ce4bgrh2rcd13ifvqc8g","pricing_plan_id":"cebpf4jnsgd1na2vs0mg"},{"bike_id":"3436779d-d9ac-4d24-8815-3d92c160626a","system_id":"levelo_inurba_marseille","lat":43.29931,"lon":5.36539,"is_reserved":false,"is_disabled":false,"rental_uris":{"android":"levelo://app?vid=3436779d-d9ac-4d24-8815-3d92c160626a","ios":"levelo://app?vid=3436779d-d9ac-4d24-8815-3d92c160626a"},"vehicle_type_id":"4","last_reported":1728389856,"current_range_meters":28800,"station_id":"ce4bgm92rcd13ifvqbr0","pricing_plan_id":"cebpf4jnsgd1na2vs0mg"},{"bike_id":"12386237-51c0-4e11-99a8-5c930ed06c3a","system_id":"levelo_inurba_marseille","lat":43.316811,"lon":5.404756,"is_reserved":false,"is_disabled":false,"rental_uris":{"android":"levelo://app?vid=12386237-51c0-4e11-99a8-5c930ed06c3a","ios":"levelo://app?vid=12386237-51c0-4e11-99a8-5c930ed06c3a"},"vehicle_type_id":"4","last_reported":1728389856,"current_range_meters":19600,"station_id":"ce4bh012rcd13ifvqd00","pricing_plan_id":"cebpf4jnsgd1na2vs0mg"},{"bike_id":"3b6a553f-198f-4f96-81b9-a3caac7903fe","system_id":"levelo_inurba_marseille","lat":43.29808,"lon":5.38097,"is_reserved":false,"is_disabled":false,"rental_uris":{"android":"levelo://app?vid=3b6a553f-198f-4f96-81b9-a3caac7903fe","ios":"levelo://app?vid=3b6a553f-198f-4f96-81b9-a3caac7903fe"},"vehicle_type_id":"4","last_reported":1728389856,"current_range_meters":30000,"station_id":"ce4bgip2rcd13ifvqbb0","pricing_plan_id":"cebpf4jnsgd1na2vs0mg"},{"bike_id":"513184d9-4a6b-49fd-81e0-1b13bcd19fd6","system_id":"levelo_inurba_marseille","lat":43.284173,"lon":5.400429,"is_reserved":false,"is_disabled":false,"rental_uris":{"android":"levelo://app?vid=513184d9-4a6b-49fd-81e0-1b13bcd19fd6","ios":"levelo://app?vid=513184d9-4a6b-49fd-81e0-1b13bcd19fd6"},"vehicle_type_id":"4","last_reported":1728389856,"current_range_meters":22400,"station_id":"","pricing_plan_id":"cebpf4jnsgd1na2vs0mg"},{"bike_id":"c4236907-ce27-48ac-abd9-c181a707f095","system_id":"levelo_inurba_marseille","lat":43.24082,"lon":5.37748,"is_reserved":false,"is_disabled":false,"rental_uris":{"android":"levelo://app?vid=c4236907-ce27-48ac-abd9-c181a707f095","ios":"levelo://app?vid=c4236907-ce27-48ac-abd9-c181a707f095"},"vehicle_type_id":"4","last_reported":1728389856,"current_range_meters":10000,"station_id":"ce4bhnp2rcd13ifvqgvg","pricing_plan_id":"cebpf4jnsgd1na2vs0mg"},{"bike_id":"2b180ed1-c5eb-4da3-b549-c1c629710ffa","system_id":"levelo_inurba_marseille","lat":43.29801,"lon":5.38091,"is_reserved":false,"is_disabled":false,"rental_uris":{"android":"levelo://app?vid=2b180ed1-c5eb-4da3-b549-c1c629710ffa","ios":"levelo://app?vid=2b180ed1-c5eb-4da3-b549-c1c629710ffa"},"vehicle_type_id":"4","last_reported":1728389856,"current_range_meters":22800,"station_id":"ce4bgip2rcd13ifvqbb0","pricing_plan_id":"cebpf4jnsgd1na2vs0mg"},{"bike_id":"14adecac-514f-4130-b138-7a715ac62095","system_id":"levelo_inurba_marseille","lat":43.27973,"lon":5.38734,"is_reserved":false,"is_disabled":false,"rental_uris":{"android":"levelo://app?vid=14adecac-514f-4130-b138-7a715ac62095","ios":"levelo://app?vid=14adecac-514f-4130-b138-7a715ac62095"},"vehicle_type_id":"4","last_reported":1728389856,"current_range_meters":25200,"station_id":"ce4bhg12rcd13ifvqf80","pricing_plan_id":"cebpf4jnsgd1na2vs0mg"},{"bike_id":"93d45870-2e1c-4ed1-9664-7b219a4ed443","system_id":"levelo_inurba_marseille","lat":43.22927,"lon":5.35381,"is_reserved":false,"is_disabled":false,"rental_uris":{"android":"levelo://app?vid=93d45870-2e1c-4ed1-9664-7b219a4ed443","ios":"levelo://app?vid=93d45870-2e1c-4ed1-9664-7b219a4ed443"},"vehicle_type_id":"4","last_reported":1728389856,"current_range_meters":31200,"station_id":"cpo3532slgdg3j2ikp40","pricing_plan_id":"cebpf4jnsgd1na2vs0mg"},{"bike_id":"c91607df-1515-4f0f-b780-277a79823777","system_id":"levelo_inurba_marseille","lat":43.30956,"lon":5.39033,"is_reserved":false,"is_disabled":false,"rental_uris":{"android":"levelo://app?vid=c91607df-1515-4f0f-b780-277a79823777","ios":"levelo://app?vid=c91607df-1515-4f0f-b780-277a79823777"},"vehicle_type_id":"4","last_reported":1728389856,"current_range_meters":12000,"station_id":"ce4bgup2rcd13ifvqco0","pricing_plan_id":"cebpf4jnsgd1na2vs0mg"},{"bike_id":"44234f78-6d80-4a6d-88ac-718d1c9da54a","system_id":"levelo_inurba_marseille","lat":43.29902,"lon":5.38146,"is_reserved":false,"is_disabled":false,"rental_uris":{"android":"levelo://app?vid=44234f78-6d80-4a6d-88ac-718d1c9da54a","ios":"levelo://app?vid=44234f78-6d80-4a6d-88ac-718d1c9da54a"},"vehicle_type_id":"4","last_reported":1728389856,"current_range_meters":27200,"station_id":"ce4bgj12rcd13ifvqbc0","pricing_plan_id":"cebpf4jnsgd1na2vs0mg"},{"bike_id":"0e3bfff6-2bee-4be5-8568-766c0160a493","system_id":"levelo_inurba_marseille","lat":43.31707,"lon":5.43697,"is_reserved":false,"is_disabled":false,"rental_uris":{"android":"levelo://app?vid=0e3bfff6-2bee-4be5-8568-766c0160a493","ios":"levelo://app?vid=0e3bfff6-2bee-4be5-8568-766c0160a493"},"vehicle_type_id":"4","last_reported":1728389856,"current_range_meters":8000,"station_id":"ce4bhp92rcd13ifvqhcg","pricing_plan_id":"cebpf4jnsgd1na2vs0mg"},{"bike_id":"ebd6264d-169e-4090-bc8a-63bd5be9279f","system_id":"levelo_inurba_marseille","lat":43.30289,"lon":5.39228,"is_reserved":false,"is_disabled":false,"rental_uris":{"android":"levelo://app?vid=ebd6264d-169e-4090-bc8a-63bd5be9279f","ios":"levelo://app?vid=ebd6264d-169e-4090-bc8a-63bd5be9279f"},"vehicle_type_id":"4","last_reported":1728389856,"current_range_meters":36000,"station_id":"ce4bgkh2rcd13ifvqbk0","pricing_plan_id":"cebpf4jnsgd1na2vs0mg"},{"bike_id":"68a15803-7161-4d8a-9c98-d979734f5b64","system_id":"levelo_inurba_marseille","lat":43.26033,"lon":5.37549,"is_reserved":false,"is_disabled":false,"rental_uris":{"android":"levelo://app?vid=68a15803-7161-4d8a-9c98-d979734f5b64","ios":"levelo://app?vid=68a15803-7161-4d8a-9c98-d979734f5b64"},"vehicle_type_id":"4","last_reported":1728389856,"current_range_meters":38800,"station_id":"ce4bhgh2rcd13ifvqfa0","pricing_plan_id":"cebpf4jnsgd1na2vs0mg"},{"bike_id":"26c4c8df-fe9a-4d70-868f-86a792167da2","system_id":"levelo_inurba_marseille","lat":43.28348,"lon":5.3811,"is_reserved":false,"is_disabled":false,"rental_uris":{"android":"levelo://app?vid=26c4c8df-fe9a-4d70-868f-86a792167da2","ios":"levelo://app?vid=26c4c8df-fe9a-4d70-868f-86a792167da2"},"vehicle_type_id":"4","last_reported":1728389856,"current_range_meters":27200,"station_id":"ce4bh412rcd13ifvqdr0","pricing_plan_id":"cebpf4jnsgd1na2vs0mg"},{"bike_id":"1f3b66e4-d20d-49df-baa6-aad5c31c7f69","system_id":"levelo_inurba_marseille","lat":43.29619,"lon":5.37153,"is_reserved":false,"is_disabled":false,"rental_uris":{"android":"levelo://app?vid=1f3b66e4-d20d-49df-baa6-aad5c31c7f69","ios":"levelo://app?vid=1f3b66e4-d20d-49df-baa6-aad5c31c7f69"},"vehicle_type_id":"4","last_reported":1728389856,"current_range_meters":28800,"station_id":"ce4bgnh2rcd13ifvqc0g","pricing_plan_id":"cebpf4jnsgd1na2vs0mg"},{"bike_id":"7c507558-89c3-4304-a26f-70b145cdfbab","system_id":"levelo_inurba_marseille","lat":43.28153,"lon":5.42646,"is_reserved":false,"is_disabled":false,"rental_uris":{"android":"levelo://app?vid=7c507558-89c3-4304-a26f-70b145cdfbab","ios":"levelo://app?vid=7c507558-89c3-4304-a26f-70b145cdfbab"},"vehicle_type_id":"4","last_reported":1728389856,"current_range_meters":38000,"station_id":"ce4bhnh2rcd13ifvqgug","pricing_plan_id":"cebpf4jnsgd1na2vs0mg"},{"bike_id":"83ca7793-fb7f-4f63-843d-a13c4fc0bddf","system_id":"levelo_inurba_marseille","lat":43.2594,"lon":5.40898,"is_reserved":false,"is_disabled":false,"rental_uris":{"android":"levelo://app?vid=83ca7793-fb7f-4f63-843d-a13c4fc0bddf","ios":"levelo://app?vid=83ca7793-fb7f-4f63-843d-a13c4fc0bddf"},"vehicle_type_id":"4","last_reported":1728389856,"current_range_meters":32000,"station_id":"ce4bhm92rcd13ifvqglg","pricing_plan_id":"cebpf4jnsgd1na2vs0mg"},{"bike_id":"825c93fd-888b-41ea-a71c-8529fbbf0131","system_id":"levelo_inurba_marseille","lat":43.24074,"lon":5.37762,"is_reserved":false,"is_disabled":false,"rental_uris":{"android":"levelo://app?vid=825c93fd-888b-41ea-a71c-8529fbbf0131","ios":"levelo://app?vid=825c93fd-888b-41ea-a71c-8529fbbf0131"},"vehicle_type_id":"4","last_reported":1728389856,"current_range_meters":16000,"station_id":"ce4bhnp2rcd13ifvqgvg","pricing_plan_id":"cebpf4jnsgd1na2vs0mg"},{"bike_id":"93a538e2-33d2-44e2-ac66-feb42e05dfad","system_id":"levelo_inurba_marseille","lat":43.24165,"lon":5.36392,"is_reserved":false,"is_disabled":false,"rental_uris":{"android":"levelo://app?vid=93a538e2-33d2-44e2-ac66-feb42e05dfad","ios":"levelo://app?vid=93a538e2-33d2-44e2-ac66-feb42e05dfad"},"vehicle_type_id":"4","last_reported":1728389856,"current_range_meters":24800,"station_id":"cpo36qri1sfpv3e86is0","pricing_plan_id":"cebpf4jnsgd1na2vs0mg"},{"bike_id":"513a314a-2e43-41c2-8068-cde83c973037","system_id":"levelo_inurba_marseille","lat":43.31269,"lon":5.4017,"is_reserved":false,"is_disabled":false,"rental_uris":{"android":"levelo://app?vid=513a314a-2e43-41c2-8068-cde83c973037","ios":"levelo://app?vid=513a314a-2e43-41c2-8068-cde83c973037"},"vehicle_type_id":"4","last_reported":1728389856,"current_range_meters":21600,"station_id":"ce4bh092rcd13ifvqd30","pricing_plan_id":"cebpf4jnsgd1na2vs0mg"},{"bike_id":"d52f37f4-ea3a-48e4-a1f4-449bf387606f","system_id":"levelo_inurba_marseille","lat":43.2849,"lon":5.38562,"is_reserved":false,"is_disabled":false,"rental_uris":{"android":"levelo://app?vid=d52f37f4-ea3a-48e4-a1f4-449bf387606f","ios":"levelo://app?vid=d52f37f4-ea3a-48e4-a1f4-449bf387606f"},"vehicle_type_id":"4","last_reported":1728389856,"current_range_meters":19200,"station_id":"ce4bh8p2rcd13ifvqeb0","pricing_plan_id":"cebpf4jnsgd1na2vs0mg"},{"bike_id":"c925e67f-75f2-4da9-adec-2104ff29eac4","system_id":"levelo_inurba_marseille","lat":43.28473,"lon":5.38406,"is_reserved":false,"is_disabled":false,"rental_uris":{"android":"levelo://app?vid=c925e67f-75f2-4da9-adec-2104ff29eac4","ios":"levelo://app?vid=c925e67f-75f2-4da9-adec-2104ff29eac4"},"vehicle_type_id":"4","last_reported":1728389856,"current_range_meters":4000,"station_id":"ce4bh512rcd13ifvqe3g","pricing_plan_id":"cebpf4jnsgd1na2vs0mg"},{"bike_id":"aab6b143-7a9b-4469-b1e0-f1742e2b3133","system_id":"levelo_inurba_marseille","lat":43.26939,"lon":5.38923,"is_reserved":false,"is_disabled":false,"rental_uris":{"android":"levelo://app?vid=aab6b143-7a9b-4469-b1e0-f1742e2b3133","ios":"levelo://app?vid=aab6b143-7a9b-4469-b1e0-f1742e2b3133"},"vehicle_type_id":"4","last_reported":1728389856,"current_range_meters":33200,"station_id":"ce4bhhh2rcd13ifvqfl0","pricing_plan_id":"cebpf4jnsgd1na2vs0mg"},{"bike_id":"79a2c664-63f6-4cfb-b8a8-0ec71d559050","system_id":"levelo_inurba_marseille","lat":43.29912,"lon":5.38145,"is_reserved":false,"is_disabled":false,"rental_uris":{"android":"levelo://app?vid=79a2c664-63f6-4cfb-b8a8-0ec71d559050","ios":"levelo://app?vid=79a2c664-63f6-4cfb-b8a8-0ec71d559050"},"vehicle_type_id":"4","last_reported":1728389856,"current_range_meters":37600,"station_id":"ce4bgj12rcd13ifvqbc0","pricing_plan_id":"cebpf4jnsgd1na2vs0mg"},{"bike_id":"98121d41-f024-4cf3-9fab-8b1ba4d7d1f1","system_id":"levelo_inurba_marseille","lat":43.29625,"lon":5.37165,"is_reserved":false,"is_disabled":false,"rental_uris":{"android":"levelo://app?vid=98121d41-f024-4cf3-9fab-8b1ba4d7d1f1","ios":"levelo://app?vid=98121d41-f024-4cf3-9fab-8b1ba4d7d1f1"},"vehicle_type_id":"4","last_reported":1728389856,"current_range_meters":37600,"station_id":"ce4bgnh2rcd13ifvqc0g","pricing_plan_id":"cebpf4jnsgd1na2vs0mg"},{"bike_id":"5d4d6669-73af-4284-8623-dae8a37c15eb","system_id":"levelo_inurba_marseille","lat":43.25113,"lon":5.40319,"is_reserved":false,"is_disabled":false,"rental_uris":{"android":"levelo://app?vid=5d4d6669-73af-4284-8623-dae8a37c15eb","ios":"levelo://app?vid=5d4d6669-73af-4284-8623-dae8a37c15eb"},"vehicle_type_id":"4","last_reported":1728389856,"current_range_meters":37600,"station_id":"ce4bhlh2rcd13ifvqgig","pricing_plan_id":"cebpf4jnsgd1na2vs0mg"},{"bike_id":"a92f6206-1720-4e29-9ed4-ca1db6a5dc4b","system_id":"levelo_inurba_marseille","lat":43.30226,"lon":5.36939,"is_reserved":false,"is_disabled":false,"rental_uris":{"android":"levelo://app?vid=a92f6206-1720-4e29-9ed4-ca1db6a5dc4b","ios":"levelo://app?vid=a92f6206-1720-4e29-9ed4-ca1db6a5dc4b"},"vehicle_type_id":"4","last_reported":1728389856,"current_range_meters":28800,"station_id":"","pricing_plan_id":"cebpf4jnsgd1na2vs0mg"},{"bike_id":"cd90e111-abcb-4476-aeb9-a8bcdc61c41b","system_id":"levelo_inurba_marseille","lat":43.295226,"lon":5.375096,"is_reserved":false,"is_disabled":false,"rental_uris":{"android":"levelo://app?vid=cd90e111-abcb-4476-aeb9-a8bcdc61c41b","ios":"levelo://app?vid=cd90e111-abcb-4476-aeb9-a8bcdc61c41b"},"vehicle_type_id":"4","last_reported":1728389856,"current_range_meters":38000,"station_id":"cki0cbj6b192h4jlfktg","pricing_plan_id":"cebpf4jnsgd1na2vs0mg"},{"bike_id":"e28b1c40-83e8-4696-b8e0-0e43166a013a","system_id":"levelo_inurba_marseille","lat":43.32334,"lon":5.40625,"is_reserved":false,"is_disabled":false,"rental_uris":{"android":"levelo://app?vid=e28b1c40-83e8-4696-b8e0-0e43166a013a","ios":"levelo://app?vid=e28b1c40-83e8-4696-b8e0-0e43166a013a"},"vehicle_type_id":"4","last_reported":1728389856,"current_range_meters":30400,"station_id":"ce4bhq92rcd13ifvqhjg","pricing_plan_id":"cebpf4jnsgd1na2vs0mg"},{"bike_id":"20da9570-1439-4de3-93bb-4a0015421ba9","system_id":"levelo_inurba_marseille","lat":43.24067,"lon":5.37758,"is_reserved":false,"is_disabled":false,"rental_uris":{"android":"levelo://app?vid=20da9570-1439-4de3-93bb-4a0015421ba9","ios":"levelo://app?vid=20da9570-1439-4de3-93bb-4a0015421ba9"},"vehicle_type_id":"4","last_reported":1728389856,"current_range_meters":30000,"station_id":"ce4bhnp2rcd13ifvqgvg","pricing_plan_id":"cebpf4jnsgd1na2vs0mg"},{"bike_id":"6090b859-1bd4-4a2b-af82-9eb6fc46b1b2","system_id":"levelo_inurba_marseille","lat":43.30468,"lon":5.37893,"is_reserved":false,"is_disabled":false,"rental_uris":{"android":"levelo://app?vid=6090b859-1bd4-4a2b-af82-9eb6fc46b1b2","ios":"levelo://app?vid=6090b859-1bd4-4a2b-af82-9eb6fc46b1b2"},"vehicle_type_id":"4","last_reported":1728389856,"current_range_meters":24800,"station_id":"ce4bgup2rcd13ifvqcn0","pricing_plan_id":"cebpf4jnsgd1na2vs0mg"},{"bike_id":"c56a5515-eeb2-4e7e-b071-ec4ac8e4779f","system_id":"levelo_inurba_marseille","lat":43.28936,"lon":5.39624,"is_reserved":false,"is_disabled":false,"rental_uris":{"android":"levelo://app?vid=c56a5515-eeb2-4e7e-b071-ec4ac8e4779f","ios":"levelo://app?vid=c56a5515-eeb2-4e7e-b071-ec4ac8e4779f"},"vehicle_type_id":"4","last_reported":1728389856,"current_range_meters":14800,"station_id":"ce4bh3h2rcd13ifvqdn0","pricing_plan_id":"cebpf4jnsgd1na2vs0mg"},{"bike_id":"7ad06205-868a-4802-a1e3-0dc7e4c673d2","system_id":"levelo_inurba_marseille","lat":43.32483,"lon":5.36566,"is_reserved":false,"is_disabled":false,"rental_uris":{"android":"levelo://app?vid=7ad06205-868a-4802-a1e3-0dc7e4c673d2","ios":"levelo://app?vid=7ad06205-868a-4802-a1e3-0dc7e4c673d2"},"vehicle_type_id":"4","last_reported":1728389856,"current_range_meters":30400,"station_id":"ce4bhs12rcd13ifvqhvg","pricing_plan_id":"cebpf4jnsgd1na2vs0mg"},{"bike_id":"6c80a266-5201-49fa-a634-06da8f620caa","system_id":"levelo_inurba_marseille","lat":43.27611,"lon":5.36109,"is_reserved":false,"is_disabled":false,"rental_uris":{"android":"levelo://app?vid=6c80a266-5201-49fa-a634-06da8f620caa","ios":"levelo://app?vid=6c80a266-5201-49fa-a634-06da8f620caa"},"vehicle_type_id":"4","last_reported":1728389856,"current_range_meters":38800,"station_id":"ce4bgj92rcd13ifvqbe0","pricing_plan_id":"cebpf4jnsgd1na2vs0mg"},{"bike_id":"6ba2c342-a7a1-4c75-b24b-4ba0a6ade0ad","system_id":"levelo_inurba_marseille","lat":43.28154,"lon":5.42648,"is_reserved":false,"is_disabled":false,"rental_uris":{"android":"levelo://app?vid=6ba2c342-a7a1-4c75-b24b-4ba0a6ade0ad","ios":"levelo://app?vid=6ba2c342-a7a1-4c75-b24b-4ba0a6ade0ad"},"vehicle_type_id":"4","last_reported":1728389856,"current_range_meters":14800,"station_id":"ce4bhnh2rcd13ifvqgug","pricing_plan_id":"cebpf4jnsgd1na2vs0mg"},{"bike_id":"c63c5f87-9544-486e-8e46-0d84e7f35806","system_id":"levelo_inurba_marseille","lat":43.30481,"lon":5.390538,"is_reserved":false,"is_disabled":false,"rental_uris":{"android":"levelo://app?vid=c63c5f87-9544-486e-8e46-0d84e7f35806","ios":"levelo://app?vid=c63c5f87-9544-486e-8e46-0d84e7f35806"},"vehicle_type_id":"4","last_reported":1728389856,"current_range_meters":16000,"station_id":"ce4bgk12rcd13ifvqbi0","pricing_plan_id":"cebpf4jnsgd1na2vs0mg"},{"bike_id":"ef44909a-c8e1-45a0-8fc9-3fe394682092","system_id":"levelo_inurba_marseille","lat":43.24384,"lon":5.37052,"is_reserved":false,"is_disabled":false,"rental_uris":{"android":"levelo://app?vid=ef44909a-c8e1-45a0-8fc9-3fe394682092","ios":"levelo://app?vid=ef44909a-c8e1-45a0-8fc9-3fe394682092"},"vehicle_type_id":"4","last_reported":1728389856,"current_range_meters":8000,"station_id":"ce4bhhh2rcd13ifvqfk0","pricing_plan_id":"cebpf4jnsgd1na2vs0mg"},{"bike_id":"00dee9f3-1d32-4038-95a9-ebaf9efd057b","system_id":"levelo_inurba_marseille","lat":43.289242,"lon":5.397017,"is_reserved":false,"is_disabled":false,"rental_uris":{"android":"levelo://app?vid=00dee9f3-1d32-4038-95a9-ebaf9efd057b","ios":"levelo://app?vid=00dee9f3-1d32-4038-95a9-ebaf9efd057b"},"vehicle_type_id":"4","last_reported":1728389856,"current_range_meters":24400,"station_id":"","pricing_plan_id":"cebpf4jnsgd1na2vs0mg"},{"bike_id":"985b06dc-01f6-460f-95d4-70ddc2895758","system_id":"levelo_inurba_marseille","lat":43.29933,"lon":5.36548,"is_reserved":false,"is_disabled":false,"rental_uris":{"android":"levelo://app?vid=985b06dc-01f6-460f-95d4-70ddc2895758","ios":"levelo://app?vid=985b06dc-01f6-460f-95d4-70ddc2895758"},"vehicle_type_id":"4","last_reported":1728389856,"current_range_meters":9600,"station_id":"ce4bgm92rcd13ifvqbr0","pricing_plan_id":"cebpf4jnsgd1na2vs0mg"},{"bike_id":"f7612392-4f4b-453b-a64c-499de3c2600f","system_id":"levelo_inurba_marseille","lat":43.24168,"lon":5.36389,"is_reserved":false,"is_disabled":false,"rental_uris":{"android":"levelo://app?vid=f7612392-4f4b-453b-a64c-499de3c2600f","ios":"levelo://app?vid=f7612392-4f4b-453b-a64c-499de3c2600f"},"vehicle_type_id":"4","last_reported":1728389856,"current_range_meters":31200,"station_id":"cpo36qri1sfpv3e86is0","pricing_plan_id":"cebpf4jnsgd1na2vs0mg"},{"bike_id":"8e044f90-9407-4e83-9450-7994c948c41c","system_id":"levelo_inurba_marseille","lat":43.27481,"lon":5.42454,"is_reserved":false,"is_disabled":false,"rental_uris":{"android":"levelo://app?vid=8e044f90-9407-4e83-9450-7994c948c41c","ios":"levelo://app?vid=8e044f90-9407-4e83-9450-7994c948c41c"},"vehicle_type_id":"4","last_reported":1728389856,"current_range_meters":39200,"station_id":"ce4bhn92rcd13ifvqgrg","pricing_plan_id":"cebpf4jnsgd1na2vs0mg"},{"bike_id":"a1f59fd1-d5f1-4f04-a023-aa05e3d12e71","system_id":"levelo_inurba_marseille","lat":43.28772,"lon":5.359766,"is_reserved":false,"is_disabled":false,"rental_uris":{"android":"levelo://app?vid=a1f59fd1-d5f1-4f04-a023-aa05e3d12e71","ios":"levelo://app?vid=a1f59fd1-d5f1-4f04-a023-aa05e3d12e71"},"vehicle_type_id":"4","last_reported":1728389856,"current_range_meters":27600,"station_id":"cki0cbj6b192h4jlfktg","pricing_plan_id":"cebpf4jnsgd1na2vs0mg"},{"bike_id":"7d8b5b98-f33c-47c3-a3f0-364fecb754a9","system_id":"levelo_inurba_marseille","lat":43.26953,"lon":5.3862,"is_reserved":false,"is_disabled":false,"rental_uris":{"android":"levelo://app?vid=7d8b5b98-f33c-47c3-a3f0-364fecb754a9","ios":"levelo://app?vid=7d8b5b98-f33c-47c3-a3f0-364fecb754a9"},"vehicle_type_id":"4","last_reported":1728389856,"current_range_meters":38400,"station_id":"ce4bhh92rcd13ifvqfh0","pricing_plan_id":"cebpf4jnsgd1na2vs0mg"},{"bike_id":"ce634542-e968-4431-9f91-21641beaad93","system_id":"levelo_inurba_marseille","lat":43.30253,"lon":5.40075,"is_reserved":false,"is_disabled":false,"rental_uris":{"android":"levelo://app?vid=ce634542-e968-4431-9f91-21641beaad93","ios":"levelo://app?vid=ce634542-e968-4431-9f91-21641beaad93"},"vehicle_type_id":"4","last_reported":1728389856,"current_range_meters":28000,"station_id":"ce4bgvh2rcd13ifvqcs0","pricing_plan_id":"cebpf4jnsgd1na2vs0mg"},{"bike_id":"9829e1ca-d980-4ff9-a72e-858fed7c7ac1","system_id":"levelo_inurba_marseille","lat":43.296298,"lon":5.377189,"is_reserved":false,"is_disabled":false,"rental_uris":{"android":"levelo://app?vid=9829e1ca-d980-4ff9-a72e-858fed7c7ac1","ios":"levelo://app?vid=9829e1ca-d980-4ff9-a72e-858fed7c7ac1"},"vehicle_type_id":"4","last_reported":1728389856,"current_range_meters":38000,"station_id":"ce4bgi92rcd13ifvqb90","pricing_plan_id":"cebpf4jnsgd1na2vs0mg"},{"bike_id":"ef13235d-8214-4395-ab09-7a42b5ade229","system_id":"levelo_inurba_marseille","lat":43.31346,"lon":5.36701,"is_reserved":false,"is_disabled":false,"rental_uris":{"android":"levelo://app?vid=ef13235d-8214-4395-ab09-7a42b5ade229","ios":"levelo://app?vid=ef13235d-8214-4395-ab09-7a42b5ade229"},"vehicle_type_id":"4","last_reported":1728389856,"current_range_meters":17200,"station_id":"ce4bgr92rcd13ifvqc6g","pricing_plan_id":"cebpf4jnsgd1na2vs0mg"},{"bike_id":"df3eb79c-2562-43cb-93d7-18cc0bacb55d","system_id":"levelo_inurba_marseille","lat":43.24807,"lon":5.37459,"is_reserved":false,"is_disabled":false,"rental_uris":{"android":"levelo://app?vid=df3eb79c-2562-43cb-93d7-18cc0bacb55d","ios":"levelo://app?vid=df3eb79c-2562-43cb-93d7-18cc0bacb55d"},"vehicle_type_id":"4","last_reported":1728389856,"current_range_meters":27600,"station_id":"ce4bhgh2rcd13ifvqfb0","pricing_plan_id":"cebpf4jnsgd1na2vs0mg"},{"bike_id":"90722908-87ef-4237-9297-a5182f1e6ad0","system_id":"levelo_inurba_marseille","lat":43.28943,"lon":5.36399,"is_reserved":false,"is_disabled":false,"rental_uris":{"android":"levelo://app?vid=90722908-87ef-4237-9297-a5182f1e6ad0","ios":"levelo://app?vid=90722908-87ef-4237-9297-a5182f1e6ad0"},"vehicle_type_id":"4","last_reported":1728389856,"current_range_meters":38800,"station_id":"ce4bhc92rcd13ifvqetg","pricing_plan_id":"cebpf4jnsgd1na2vs0mg"},{"bike_id":"97f7c6e4-8fd3-4eeb-8d51-61725c68c3f2","system_id":"levelo_inurba_marseille","lat":43.30334,"lon":5.40429,"is_reserved":false,"is_disabled":false,"rental_uris":{"android":"levelo://app?vid=97f7c6e4-8fd3-4eeb-8d51-61725c68c3f2","ios":"levelo://app?vid=97f7c6e4-8fd3-4eeb-8d51-61725c68c3f2"},"vehicle_type_id":"4","last_reported":1728389856,"current_range_meters":23200,"station_id":"ce4bh012rcd13ifvqd10","pricing_plan_id":"cebpf4jnsgd1na2vs0mg"},{"bike_id":"0a8ccba5-237d-43b9-a077-96384e616267","system_id":"levelo_inurba_marseille","lat":43.25929,"lon":5.4091,"is_reserved":false,"is_disabled":false,"rental_uris":{"android":"levelo://app?vid=0a8ccba5-237d-43b9-a077-96384e616267","ios":"levelo://app?vid=0a8ccba5-237d-43b9-a077-96384e616267"},"vehicle_type_id":"4","last_reported":1728389856,"current_range_meters":22400,"station_id":"ce4bhm92rcd13ifvqglg","pricing_plan_id":"cebpf4jnsgd1na2vs0mg"},{"bike_id":"3fb23340-08ce-4b55-9a3f-9aed5f4e5749","system_id":"levelo_inurba_marseille","lat":43.30457,"lon":5.37908,"is_reserved":false,"is_disabled":false,"rental_uris":{"android":"levelo://app?vid=3fb23340-08ce-4b55-9a3f-9aed5f4e5749","ios":"levelo://app?vid=3fb23340-08ce-4b55-9a3f-9aed5f4e5749"},"vehicle_type_id":"4","last_reported":1728389856,"current_range_meters":37600,"station_id":"ce4bgup2rcd13ifvqcn0","pricing_plan_id":"cebpf4jnsgd1na2vs0mg"},{"bike_id":"cf927195-cafe-4fe6-8a9b-b503bf9be2b0","system_id":"levelo_inurba_marseille","lat":43.23186,"lon":5.3998,"is_reserved":false,"is_disabled":false,"rental_uris":{"android":"levelo://app?vid=cf927195-cafe-4fe6-8a9b-b503bf9be2b0","ios":"levelo://app?vid=cf927195-cafe-4fe6-8a9b-b503bf9be2b0"},"vehicle_type_id":"4","last_reported":1728389856,"current_range_meters":38400,"station_id":"ce4bhn12rcd13ifvqgqg","pricing_plan_id":"cebpf4jnsgd1na2vs0mg"},{"bike_id":"8d5b053f-738b-46ca-8379-381e60ca5981","system_id":"levelo_inurba_marseille","lat":43.30318,"lon":5.40434,"is_reserved":false,"is_disabled":false,"rental_uris":{"android":"levelo://app?vid=8d5b053f-738b-46ca-8379-381e60ca5981","ios":"levelo://app?vid=8d5b053f-738b-46ca-8379-381e60ca5981"},"vehicle_type_id":"4","last_reported":1728389856,"current_range_meters":26000,"station_id":"ce4bh012rcd13ifvqd10","pricing_plan_id":"cebpf4jnsgd1na2vs0mg"},{"bike_id":"556fbc1a-4164-4149-8bdf-aabf62304ff5","system_id":"levelo_inurba_marseille","lat":43.30524,"lon":5.365448,"is_reserved":false,"is_disabled":false,"rental_uris":{"android":"levelo://app?vid=556fbc1a-4164-4149-8bdf-aabf62304ff5","ios":"levelo://app?vid=556fbc1a-4164-4149-8bdf-aabf62304ff5"},"vehicle_type_id":"4","last_reported":1728389856,"current_range_meters":40000,"station_id":"ce4bgj92rcd13ifvqbd0","pricing_plan_id":"cebpf4jnsgd1na2vs0mg"},{"bike_id":"47d5a9c0-2c62-4cce-a497-70cd8b4916cb","system_id":"levelo_inurba_marseille","lat":43.31344,"lon":5.36699,"is_reserved":false,"is_disabled":false,"rental_uris":{"android":"levelo://app?vid=47d5a9c0-2c62-4cce-a497-70cd8b4916cb","ios":"levelo://app?vid=47d5a9c0-2c62-4cce-a497-70cd8b4916cb"},"vehicle_type_id":"4","last_reported":1728389856,"current_range_meters":7200,"station_id":"ce4bgr92rcd13ifvqc6g","pricing_plan_id":"cebpf4jnsgd1na2vs0mg"},{"bike_id":"22942128-eccb-447c-a404-8ab36ea27ffe","system_id":"levelo_inurba_marseille","lat":43.2594,"lon":5.40903,"is_reserved":false,"is_disabled":false,"rental_uris":{"android":"levelo://app?vid=22942128-eccb-447c-a404-8ab36ea27ffe","ios":"levelo://app?vid=22942128-eccb-447c-a404-8ab36ea27ffe"},"vehicle_type_id":"4","last_reported":1728389856,"current_range_meters":38000,"station_id":"ce4bhm92rcd13ifvqglg","pricing_plan_id":"cebpf4jnsgd1na2vs0mg"},{"bike_id":"15b97e4d-3bd8-44ac-905a-406fec14c6d5","system_id":"levelo_inurba_marseille","lat":43.31341,"lon":5.36712,"is_reserved":false,"is_disabled":false,"rental_uris":{"android":"levelo://app?vid=15b97e4d-3bd8-44ac-905a-406fec14c6d5","ios":"levelo://app?vid=15b97e4d-3bd8-44ac-905a-406fec14c6d5"},"vehicle_type_id":"4","last_reported":1728389856,"current_range_meters":36400,"station_id":"ce4bgr92rcd13ifvqc6g","pricing_plan_id":"cebpf4jnsgd1na2vs0mg"},{"bike_id":"542404d0-7ad8-4d88-9837-14b7ea9cdc5a","system_id":"levelo_inurba_marseille","lat":43.31709,"lon":5.437,"is_reserved":false,"is_disabled":false,"rental_uris":{"android":"levelo://app?vid=542404d0-7ad8-4d88-9837-14b7ea9cdc5a","ios":"levelo://app?vid=542404d0-7ad8-4d88-9837-14b7ea9cdc5a"},"vehicle_type_id":"4","last_reported":1728389856,"current_range_meters":37600,"station_id":"ce4bhp92rcd13ifvqhcg","pricing_plan_id":"cebpf4jnsgd1na2vs0mg"},{"bike_id":"ab852bf8-c54c-4181-81ba-f84ee0bde5f3","system_id":"levelo_inurba_marseille","lat":43.32544,"lon":5.41431,"is_reserved":false,"is_disabled":false,"rental_uris":{"android":"levelo://app?vid=ab852bf8-c54c-4181-81ba-f84ee0bde5f3","ios":"levelo://app?vid=ab852bf8-c54c-4181-81ba-f84ee0bde5f3"},"vehicle_type_id":"4","last_reported":1728389856,"current_range_meters":25200,"station_id":"ce4bhq12rcd13ifvqhhg","pricing_plan_id":"cebpf4jnsgd1na2vs0mg"},{"bike_id":"6731d1b1-b391-47f7-84a2-e5222ded00d2","system_id":"levelo_inurba_marseille","lat":43.330236,"lon":5.390437,"is_reserved":false,"is_disabled":false,"rental_uris":{"android":"levelo://app?vid=6731d1b1-b391-47f7-84a2-e5222ded00d2","ios":"levelo://app?vid=6731d1b1-b391-47f7-84a2-e5222ded00d2"},"vehicle_type_id":"4","last_reported":1728389856,"current_range_meters":25600,"station_id":"ce4bhr92rcd13ifvqhrg","pricing_plan_id":"cebpf4jnsgd1na2vs0mg"},{"bike_id":"0b48fe96-5a73-4eb1-a1e0-ff84cc376fde","system_id":"levelo_inurba_marseille","lat":43.25495,"lon":5.3765,"is_reserved":false,"is_disabled":false,"rental_uris":{"android":"levelo://app?vid=0b48fe96-5a73-4eb1-a1e0-ff84cc376fde","ios":"levelo://app?vid=0b48fe96-5a73-4eb1-a1e0-ff84cc376fde"},"vehicle_type_id":"4","last_reported":1728389856,"current_range_meters":30800,"station_id":"ce4bhh12rcd13ifvqff0","pricing_plan_id":"cebpf4jnsgd1na2vs0mg"},{"bike_id":"39585e24-9284-4558-bd63-27a4a9dd3a64","system_id":"levelo_inurba_marseille","lat":43.25578,"lon":5.38236,"is_reserved":false,"is_disabled":false,"rental_uris":{"android":"levelo://app?vid=39585e24-9284-4558-bd63-27a4a9dd3a64","ios":"levelo://app?vid=39585e24-9284-4558-bd63-27a4a9dd3a64"},"vehicle_type_id":"4","last_reported":1728389856,"current_range_meters":15200,"station_id":"ce4bhih2rcd13ifvqfs0","pricing_plan_id":"cebpf4jnsgd1na2vs0mg"},{"bike_id":"0b176aa5-38c9-4a29-9309-342777105da4","system_id":"levelo_inurba_marseille","lat":43.29621,"lon":5.37165,"is_reserved":false,"is_disabled":false,"rental_uris":{"android":"levelo://app?vid=0b176aa5-38c9-4a29-9309-342777105da4","ios":"levelo://app?vid=0b176aa5-38c9-4a29-9309-342777105da4"},"vehicle_type_id":"4","last_reported":1728389856,"current_range_meters":34000,"station_id":"ce4bgnh2rcd13ifvqc0g","pricing_plan_id":"cebpf4jnsgd1na2vs0mg"},{"bike_id":"2daa0c02-4ad6-4aec-8adf-88d1beaca6a2","system_id":"levelo_inurba_marseille","lat":43.24064,"lon":5.37764,"is_reserved":false,"is_disabled":false,"rental_uris":{"android":"levelo://app?vid=2daa0c02-4ad6-4aec-8adf-88d1beaca6a2","ios":"levelo://app?vid=2daa0c02-4ad6-4aec-8adf-88d1beaca6a2"},"vehicle_type_id":"4","last_reported":1728389856,"current_range_meters":30000,"station_id":"ce4bhnp2rcd13ifvqgvg","pricing_plan_id":"cebpf4jnsgd1na2vs0mg"},{"bike_id":"13d71999-3d6b-4d92-ab80-9d9549599772","system_id":"levelo_inurba_marseille","lat":43.30932,"lon":5.40146,"is_reserved":false,"is_disabled":false,"rental_uris":{"android":"levelo://app?vid=13d71999-3d6b-4d92-ab80-9d9549599772","ios":"levelo://app?vid=13d71999-3d6b-4d92-ab80-9d9549599772"},"vehicle_type_id":"4","last_reported":1728389856,"current_range_meters":38800,"station_id":"ce4bgvp2rcd13ifvqct0","pricing_plan_id":"cebpf4jnsgd1na2vs0mg"},{"bike_id":"66dfb237-26d1-4a86-90c5-70160dcc09ca","system_id":"levelo_inurba_marseille","lat":43.2509,"lon":5.39515,"is_reserved":false,"is_disabled":false,"rental_uris":{"android":"levelo://app?vid=66dfb237-26d1-4a86-90c5-70160dcc09ca","ios":"levelo://app?vid=66dfb237-26d1-4a86-90c5-70160dcc09ca"},"vehicle_type_id":"4","last_reported":1728389856,"current_range_meters":38800,"station_id":"ce4bhm12rcd13ifvqgkg","pricing_plan_id":"cebpf4jnsgd1na2vs0mg"},{"bike_id":"eb1d7c47-971a-4a66-b7d5-8d007513b322","system_id":"levelo_inurba_marseille","lat":43.30202,"lon":5.39461,"is_reserved":false,"is_disabled":false,"rental_uris":{"android":"levelo://app?vid=eb1d7c47-971a-4a66-b7d5-8d007513b322","ios":"levelo://app?vid=eb1d7c47-971a-4a66-b7d5-8d007513b322"},"vehicle_type_id":"4","last_reported":1728389856,"current_range_meters":30000,"station_id":"ce4bh0p2rcd13ifvqd70","pricing_plan_id":"cebpf4jnsgd1na2vs0mg"},{"bike_id":"a2aba193-ee94-4629-b638-28e83ca28590","system_id":"levelo_inurba_marseille","lat":43.29881,"lon":5.39737,"is_reserved":false,"is_disabled":false,"rental_uris":{"android":"levelo://app?vid=a2aba193-ee94-4629-b638-28e83ca28590","ios":"levelo://app?vid=a2aba193-ee94-4629-b638-28e83ca28590"},"vehicle_type_id":"4","last_reported":1728389856,"current_range_meters":29600,"station_id":"ce4bh0h2rcd13ifvqd50","pricing_plan_id":"cebpf4jnsgd1na2vs0mg"},{"bike_id":"8c57ef0e-a429-4a21-8b4d-70eeecda1108","system_id":"levelo_inurba_marseille","lat":43.25937,"lon":5.40902,"is_reserved":false,"is_disabled":false,"rental_uris":{"android":"levelo://app?vid=8c57ef0e-a429-4a21-8b4d-70eeecda1108","ios":"levelo://app?vid=8c57ef0e-a429-4a21-8b4d-70eeecda1108"},"vehicle_type_id":"4","last_reported":1728389856,"current_range_meters":8800,"station_id":"ce4bhm92rcd13ifvqglg","pricing_plan_id":"cebpf4jnsgd1na2vs0mg"},{"bike_id":"c27de94a-2a57-4824-8f8f-12b5ae8c874e","system_id":"levelo_inurba_marseille","lat":43.27074,"lon":5.42277,"is_reserved":false,"is_disabled":false,"rental_uris":{"android":"levelo://app?vid=c27de94a-2a57-4824-8f8f-12b5ae8c874e","ios":"levelo://app?vid=c27de94a-2a57-4824-8f8f-12b5ae8c874e"},"vehicle_type_id":"4","last_reported":1728389856,"current_range_meters":36400,"station_id":"ce4bhk92rcd13ifvqgb0","pricing_plan_id":"cebpf4jnsgd1na2vs0mg"},{"bike_id":"c62bb082-d790-41ad-81b0-d43e997fc250","system_id":"levelo_inurba_marseille","lat":43.29258,"lon":5.36722,"is_reserved":false,"is_disabled":false,"rental_uris":{"android":"levelo://app?vid=c62bb082-d790-41ad-81b0-d43e997fc250","ios":"levelo://app?vid=c62bb082-d790-41ad-81b0-d43e997fc250"},"vehicle_type_id":"4","last_reported":1728389856,"current_range_meters":30000,"station_id":"ce4bhbp2rcd13ifvqesg","pricing_plan_id":"cebpf4jnsgd1na2vs0mg"},{"bike_id":"f9d644f2-8d7c-4d08-954d-547864f0a8a3","system_id":"levelo_inurba_marseille","lat":43.30543,"lon":5.36706,"is_reserved":false,"is_disabled":false,"rental_uris":{"android":"levelo://app?vid=f9d644f2-8d7c-4d08-954d-547864f0a8a3","ios":"levelo://app?vid=f9d644f2-8d7c-4d08-954d-547864f0a8a3"},"vehicle_type_id":"4","last_reported":1728389856,"current_range_meters":38400,"station_id":"ce4bgrp2rcd13ifvqc9g","pricing_plan_id":"cebpf4jnsgd1na2vs0mg"},{"bike_id":"f471f928-1baa-4a02-b649-d880c72bf033","system_id":"levelo_inurba_marseille","lat":43.29873,"lon":5.39736,"is_reserved":false,"is_disabled":false,"rental_uris":{"android":"levelo://app?vid=f471f928-1baa-4a02-b649-d880c72bf033","ios":"levelo://app?vid=f471f928-1baa-4a02-b649-d880c72bf033"},"vehicle_type_id":"4","last_reported":1728389856,"current_range_meters":16000,"station_id":"ce4bh0h2rcd13ifvqd50","pricing_plan_id":"cebpf4jnsgd1na2vs0mg"},{"bike_id":"f1510c6a-ec9a-4cb6-ba53-8ced3616703a","system_id":"levelo_inurba_marseille","lat":43.324845,"lon":5.36566,"is_reserved":false,"is_disabled":false,"rental_uris":{"android":"levelo://app?vid=f1510c6a-ec9a-4cb6-ba53-8ced3616703a","ios":"levelo://app?vid=f1510c6a-ec9a-4cb6-ba53-8ced3616703a"},"vehicle_type_id":"4","last_reported":1728389856,"current_range_meters":37600,"station_id":"ce4bhs12rcd13ifvqhvg","pricing_plan_id":"cebpf4jnsgd1na2vs0mg"},{"bike_id":"16470455-e817-471a-a917-80aae6cd36c5","system_id":"levelo_inurba_marseille","lat":43.30431,"lon":5.38907,"is_reserved":false,"is_disabled":false,"rental_uris":{"android":"levelo://app?vid=16470455-e817-471a-a917-80aae6cd36c5","ios":"levelo://app?vid=16470455-e817-471a-a917-80aae6cd36c5"},"vehicle_type_id":"4","last_reported":1728389856,"current_range_meters":14400,"station_id":"ce4bgk12rcd13ifvqbi0","pricing_plan_id":"cebpf4jnsgd1na2vs0mg"},{"bike_id":"ad55d042-b417-43fb-8f52-1d68f25bf7cd","system_id":"levelo_inurba_marseille","lat":43.30543,"lon":5.36533,"is_reserved":false,"is_disabled":false,"rental_uris":{"android":"levelo://app?vid=ad55d042-b417-43fb-8f52-1d68f25bf7cd","ios":"levelo://app?vid=ad55d042-b417-43fb-8f52-1d68f25bf7cd"},"vehicle_type_id":"4","last_reported":1728389856,"current_range_meters":38800,"station_id":"ce4bgs12rcd13ifvqcag","pricing_plan_id":"cebpf4jnsgd1na2vs0mg"},{"bike_id":"cda84d20-71e8-43cd-bb90-c228b9b1f69c","system_id":"levelo_inurba_marseille","lat":43.2979,"lon":5.38099,"is_reserved":false,"is_disabled":false,"rental_uris":{"android":"levelo://app?vid=cda84d20-71e8-43cd-bb90-c228b9b1f69c","ios":"levelo://app?vid=cda84d20-71e8-43cd-bb90-c228b9b1f69c"},"vehicle_type_id":"4","last_reported":1728389856,"current_range_meters":37600,"station_id":"ce4bgip2rcd13ifvqbb0","pricing_plan_id":"cebpf4jnsgd1na2vs0mg"},{"bike_id":"3e8cb52e-4f9c-46f2-b783-8ec64568336a","system_id":"levelo_inurba_marseille","lat":43.31331,"lon":5.36702,"is_reserved":false,"is_disabled":false,"rental_uris":{"android":"levelo://app?vid=3e8cb52e-4f9c-46f2-b783-8ec64568336a","ios":"levelo://app?vid=3e8cb52e-4f9c-46f2-b783-8ec64568336a"},"vehicle_type_id":"4","last_reported":1728389856,"current_range_meters":30000,"station_id":"ce4bgr92rcd13ifvqc6g","pricing_plan_id":"cebpf4jnsgd1na2vs0mg"},{"bike_id":"e6d86d2f-929e-412d-b639-89761e6c74e0","system_id":"levelo_inurba_marseille","lat":43.337444,"lon":5.374475,"is_reserved":false,"is_disabled":false,"rental_uris":{"android":"levelo://app?vid=e6d86d2f-929e-412d-b639-89761e6c74e0","ios":"levelo://app?vid=e6d86d2f-929e-412d-b639-89761e6c74e0"},"vehicle_type_id":"4","last_reported":1728389856,"current_range_meters":30400,"station_id":"","pricing_plan_id":"cebpf4jnsgd1na2vs0mg"},{"bike_id":"c796f2d4-3bc9-4750-897d-524f0497017c","system_id":"levelo_inurba_marseille","lat":43.23965,"lon":5.36624,"is_reserved":false,"is_disabled":false,"rental_uris":{"android":"levelo://app?vid=c796f2d4-3bc9-4750-897d-524f0497017c","ios":"levelo://app?vid=c796f2d4-3bc9-4750-897d-524f0497017c"},"vehicle_type_id":"4","last_reported":1728389856,"current_range_meters":4000,"station_id":"ce4bhi12rcd13ifvqfp0","pricing_plan_id":"cebpf4jnsgd1na2vs0mg"},{"bike_id":"de29de76-cb6e-4159-b496-a41415fb52db","system_id":"levelo_inurba_marseille","lat":43.2958,"lon":5.3674,"is_reserved":false,"is_disabled":false,"rental_uris":{"android":"levelo://app?vid=de29de76-cb6e-4159-b496-a41415fb52db","ios":"levelo://app?vid=de29de76-cb6e-4159-b496-a41415fb52db"},"vehicle_type_id":"4","last_reported":1728389856,"current_range_meters":36400,"station_id":"ce4bgph2rcd13ifvqc2g","pricing_plan_id":"cebpf4jnsgd1na2vs0mg"},{"bike_id":"2bc8224e-64f6-45f5-a13f-e383a4583002","system_id":"levelo_inurba_marseille","lat":43.32344,"lon":5.40614,"is_reserved":false,"is_disabled":false,"rental_uris":{"android":"levelo://app?vid=2bc8224e-64f6-45f5-a13f-e383a4583002","ios":"levelo://app?vid=2bc8224e-64f6-45f5-a13f-e383a4583002"},"vehicle_type_id":"4","last_reported":1728389856,"current_range_meters":29600,"station_id":"ce4bhq92rcd13ifvqhjg","pricing_plan_id":"cebpf4jnsgd1na2vs0mg"},{"bike_id":"9c52cfb3-2263-49d4-bea6-f4b0680fa1a4","system_id":"levelo_inurba_marseille","lat":43.28349,"lon":5.38103,"is_reserved":false,"is_disabled":false,"rental_uris":{"android":"levelo://app?vid=9c52cfb3-2263-49d4-bea6-f4b0680fa1a4","ios":"levelo://app?vid=9c52cfb3-2263-49d4-bea6-f4b0680fa1a4"},"vehicle_type_id":"4","last_reported":1728389856,"current_range_meters":23200,"station_id":"ce4bh412rcd13ifvqdr0","pricing_plan_id":"cebpf4jnsgd1na2vs0mg"},{"bike_id":"b1cd6d27-2b58-4b75-9bff-4e258a2c2a09","system_id":"levelo_inurba_marseille","lat":43.23159,"lon":5.43721,"is_reserved":false,"is_disabled":false,"rental_uris":{"android":"levelo://app?vid=b1cd6d27-2b58-4b75-9bff-4e258a2c2a09","ios":"levelo://app?vid=b1cd6d27-2b58-4b75-9bff-4e258a2c2a09"},"vehicle_type_id":"4","last_reported":1728389856,"current_range_meters":6400,"station_id":"ce4bhmp2rcd13ifvqgog","pricing_plan_id":"cebpf4jnsgd1na2vs0mg"},{"bike_id":"dc1ec459-8ca2-4ca4-931b-614c6997c547","system_id":"levelo_inurba_marseille","lat":43.30932,"lon":5.40143,"is_reserved":false,"is_disabled":false,"rental_uris":{"android":"levelo://app?vid=dc1ec459-8ca2-4ca4-931b-614c6997c547","ios":"levelo://app?vid=dc1ec459-8ca2-4ca4-931b-614c6997c547"},"vehicle_type_id":"4","last_reported":1728389856,"current_range_meters":25600,"station_id":"ce4bgvp2rcd13ifvqct0","pricing_plan_id":"cebpf4jnsgd1na2vs0mg"},{"bike_id":"9555443b-7987-4cca-8e0f-da256bb03704","system_id":"levelo_inurba_marseille","lat":43.30554,"lon":5.36542,"is_reserved":false,"is_disabled":false,"rental_uris":{"android":"levelo://app?vid=9555443b-7987-4cca-8e0f-da256bb03704","ios":"levelo://app?vid=9555443b-7987-4cca-8e0f-da256bb03704"},"vehicle_type_id":"4","last_reported":1728389856,"current_range_meters":16800,"station_id":"ce4bgs12rcd13ifvqcag","pricing_plan_id":"cebpf4jnsgd1na2vs0mg"},{"bike_id":"beb18f7a-c189-435a-b722-7a216f5e3950","system_id":"levelo_inurba_marseille","lat":43.24077,"lon":5.37757,"is_reserved":false,"is_disabled":false,"rental_uris":{"android":"levelo://app?vid=beb18f7a-c189-435a-b722-7a216f5e3950","ios":"levelo://app?vid=beb18f7a-c189-435a-b722-7a216f5e3950"},"vehicle_type_id":"4","last_reported":1728389856,"current_range_meters":38000,"station_id":"ce4bhnp2rcd13ifvqgvg","pricing_plan_id":"cebpf4jnsgd1na2vs0mg"},{"bike_id":"71be41e5-3ea9-405d-9b5c-c071f532b71d","system_id":"levelo_inurba_marseille","lat":43.30354,"lon":5.41872,"is_reserved":false,"is_disabled":false,"rental_uris":{"android":"levelo://app?vid=71be41e5-3ea9-405d-9b5c-c071f532b71d","ios":"levelo://app?vid=71be41e5-3ea9-405d-9b5c-c071f532b71d"},"vehicle_type_id":"4","last_reported":1728389856,"current_range_meters":36800,"station_id":"ce4bhop2rcd13ifvqh7g","pricing_plan_id":"cebpf4jnsgd1na2vs0mg"},{"bike_id":"7a284141-427f-4b3a-b279-a9138bc649ca","system_id":"levelo_inurba_marseille","lat":43.33024,"lon":5.39041,"is_reserved":false,"is_disabled":false,"rental_uris":{"android":"levelo://app?vid=7a284141-427f-4b3a-b279-a9138bc649ca","ios":"levelo://app?vid=7a284141-427f-4b3a-b279-a9138bc649ca"},"vehicle_type_id":"4","last_reported":1728389856,"current_range_meters":37600,"station_id":"ce4bhr92rcd13ifvqhrg","pricing_plan_id":"cebpf4jnsgd1na2vs0mg"},{"bike_id":"c190b4a1-ea1d-47e2-b2e8-eefa3099f9cc","system_id":"levelo_inurba_marseille","lat":43.23193,"lon":5.35551,"is_reserved":false,"is_disabled":false,"rental_uris":{"android":"levelo://app?vid=c190b4a1-ea1d-47e2-b2e8-eefa3099f9cc","ios":"levelo://app?vid=c190b4a1-ea1d-47e2-b2e8-eefa3099f9cc"},"vehicle_type_id":"4","last_reported":1728389856,"current_range_meters":36000,"station_id":"ce4bhu92rcd13ifvqi70","pricing_plan_id":"cebpf4jnsgd1na2vs0mg"},{"bike_id":"6f34ba66-dc7e-4580-ad03-13f9f6e9f96e","system_id":"levelo_inurba_marseille","lat":43.32477,"lon":5.36568,"is_reserved":false,"is_disabled":false,"rental_uris":{"android":"levelo://app?vid=6f34ba66-dc7e-4580-ad03-13f9f6e9f96e","ios":"levelo://app?vid=6f34ba66-dc7e-4580-ad03-13f9f6e9f96e"},"vehicle_type_id":"4","last_reported":1728389856,"current_range_meters":38800,"station_id":"ce4bhs12rcd13ifvqhvg","pricing_plan_id":"cebpf4jnsgd1na2vs0mg"},{"bike_id":"ff5ba5ff-b9bc-44eb-9be7-e35bd733d917","system_id":"levelo_inurba_marseille","lat":43.24169,"lon":5.36396,"is_reserved":false,"is_disabled":false,"rental_uris":{"android":"levelo://app?vid=ff5ba5ff-b9bc-44eb-9be7-e35bd733d917","ios":"levelo://app?vid=ff5ba5ff-b9bc-44eb-9be7-e35bd733d917"},"vehicle_type_id":"4","last_reported":1728389856,"current_range_meters":36800,"station_id":"cpo36qri1sfpv3e86is0","pricing_plan_id":"cebpf4jnsgd1na2vs0mg"},{"bike_id":"92858b3e-8932-4b62-8ab8-5c65b635e7d9","system_id":"levelo_inurba_marseille","lat":43.27488,"lon":5.42454,"is_reserved":false,"is_disabled":false,"rental_uris":{"android":"levelo://app?vid=92858b3e-8932-4b62-8ab8-5c65b635e7d9","ios":"levelo://app?vid=92858b3e-8932-4b62-8ab8-5c65b635e7d9"},"vehicle_type_id":"4","last_reported":1728389856,"current_range_meters":38800,"station_id":"ce4bhn92rcd13ifvqgrg","pricing_plan_id":"cebpf4jnsgd1na2vs0mg"},{"bike_id":"1d6fe866-e5a6-4cae-9c9a-6f55815c6cc1","system_id":"levelo_inurba_marseille","lat":43.31226,"lon":5.36861,"is_reserved":false,"is_disabled":false,"rental_uris":{"android":"levelo://app?vid=1d6fe866-e5a6-4cae-9c9a-6f55815c6cc1","ios":"levelo://app?vid=1d6fe866-e5a6-4cae-9c9a-6f55815c6cc1"},"vehicle_type_id":"4","last_reported":1728389856,"current_range_meters":30400,"station_id":"ce4bgl92rcd13ifvqbq0","pricing_plan_id":"cebpf4jnsgd1na2vs0mg"},{"bike_id":"2a75358c-c53d-4d85-b84f-ba43cbf3d3c3","system_id":"levelo_inurba_marseille","lat":43.337444,"lon":5.374475,"is_reserved":false,"is_disabled":false,"rental_uris":{"android":"levelo://app?vid=2a75358c-c53d-4d85-b84f-ba43cbf3d3c3","ios":"levelo://app?vid=2a75358c-c53d-4d85-b84f-ba43cbf3d3c3"},"vehicle_type_id":"4","last_reported":1728389856,"current_range_meters":37600,"station_id":"","pricing_plan_id":"cebpf4jnsgd1na2vs0mg"},{"bike_id":"27514479-21bd-481a-b4c1-6ab8a28200b9","system_id":"levelo_inurba_marseille","lat":43.28937,"lon":5.36643,"is_reserved":false,"is_disabled":false,"rental_uris":{"android":"levelo://app?vid=27514479-21bd-481a-b4c1-6ab8a28200b9","ios":"levelo://app?vid=27514479-21bd-481a-b4c1-6ab8a28200b9"},"vehicle_type_id":"4","last_reported":1728389856,"current_range_meters":37600,"station_id":"ce4bhap2rcd13ifvqek0","pricing_plan_id":"cebpf4jnsgd1na2vs0mg"},{"bike_id":"74352523-fc79-427a-86a6-ae3fd512dbc6","system_id":"levelo_inurba_marseille","lat":43.24078,"lon":5.37736,"is_reserved":false,"is_disabled":false,"rental_uris":{"android":"levelo://app?vid=74352523-fc79-427a-86a6-ae3fd512dbc6","ios":"levelo://app?vid=74352523-fc79-427a-86a6-ae3fd512dbc6"},"vehicle_type_id":"4","last_reported":1728389856,"current_range_meters":18000,"station_id":"ce4bhnp2rcd13ifvqgvg","pricing_plan_id":"cebpf4jnsgd1na2vs0mg"},{"bike_id":"7a7d78a8-97fa-414b-81c5-e1918211718b","system_id":"levelo_inurba_marseille","lat":43.309601,"lon":5.390536,"is_reserved":false,"is_disabled":false,"rental_uris":{"android":"levelo://app?vid=7a7d78a8-97fa-414b-81c5-e1918211718b","ios":"levelo://app?vid=7a7d78a8-97fa-414b-81c5-e1918211718b"},"vehicle_type_id":"4","last_reported":1728389856,"current_range_meters":6400,"station_id":"ce4bgup2rcd13ifvqco0","pricing_plan_id":"cebpf4jnsgd1na2vs0mg"},{"bike_id":"fa4c4cc3-cf3f-4f9a-a727-2ef93f50288a","system_id":"levelo_inurba_marseille","lat":43.23152,"lon":5.43714,"is_reserved":false,"is_disabled":false,"rental_uris":{"android":"levelo://app?vid=fa4c4cc3-cf3f-4f9a-a727-2ef93f50288a","ios":"levelo://app?vid=fa4c4cc3-cf3f-4f9a-a727-2ef93f50288a"},"vehicle_type_id":"4","last_reported":1728389856,"current_range_meters":38800,"station_id":"ce4bhmp2rcd13ifvqgog","pricing_plan_id":"cebpf4jnsgd1na2vs0mg"},{"bike_id":"5e9e083b-36a7-43c1-95d9-77ec4bf647c3","system_id":"levelo_inurba_marseille","lat":43.32535,"lon":5.41444,"is_reserved":false,"is_disabled":false,"rental_uris":{"android":"levelo://app?vid=5e9e083b-36a7-43c1-95d9-77ec4bf647c3","ios":"levelo://app?vid=5e9e083b-36a7-43c1-95d9-77ec4bf647c3"},"vehicle_type_id":"4","last_reported":1728389856,"current_range_meters":12800,"station_id":"ce4bhq12rcd13ifvqhhg","pricing_plan_id":"cebpf4jnsgd1na2vs0mg"},{"bike_id":"74d9a3c9-96b5-4dbf-b3c3-81ef3a14d238","system_id":"levelo_inurba_marseille","lat":43.23149,"lon":5.4372,"is_reserved":false,"is_disabled":false,"rental_uris":{"android":"levelo://app?vid=74d9a3c9-96b5-4dbf-b3c3-81ef3a14d238","ios":"levelo://app?vid=74d9a3c9-96b5-4dbf-b3c3-81ef3a14d238"},"vehicle_type_id":"4","last_reported":1728389856,"current_range_meters":7200,"station_id":"ce4bhmp2rcd13ifvqgog","pricing_plan_id":"cebpf4jnsgd1na2vs0mg"},{"bike_id":"d90f9c3a-d21a-449e-9354-4ec1e172a343","system_id":"levelo_inurba_marseille","lat":43.299177,"lon":5.380678,"is_reserved":false,"is_disabled":false,"rental_uris":{"android":"levelo://app?vid=d90f9c3a-d21a-449e-9354-4ec1e172a343","ios":"levelo://app?vid=d90f9c3a-d21a-449e-9354-4ec1e172a343"},"vehicle_type_id":"4","last_reported":1728389856,"current_range_meters":36400,"station_id":"ce4bh192rcd13ifvqdd0","pricing_plan_id":"cebpf4jnsgd1na2vs0mg"},{"bike_id":"57f74ef4-3a94-49df-b577-de6828385d4e","system_id":"levelo_inurba_marseille","lat":43.28443,"lon":5.39214,"is_reserved":false,"is_disabled":false,"rental_uris":{"android":"levelo://app?vid=57f74ef4-3a94-49df-b577-de6828385d4e","ios":"levelo://app?vid=57f74ef4-3a94-49df-b577-de6828385d4e"},"vehicle_type_id":"4","last_reported":1728389856,"current_range_meters":17600,"station_id":"ce4bhoh2rcd13ifvqh5g","pricing_plan_id":"cebpf4jnsgd1na2vs0mg"},{"bike_id":"5ac37687-3953-4e87-ab18-4615269211df","system_id":"levelo_inurba_marseille","lat":43.29622,"lon":5.37161,"is_reserved":false,"is_disabled":false,"rental_uris":{"android":"levelo://app?vid=5ac37687-3953-4e87-ab18-4615269211df","ios":"levelo://app?vid=5ac37687-3953-4e87-ab18-4615269211df"},"vehicle_type_id":"4","last_reported":1728389856,"current_range_meters":32800,"station_id":"ce4bgnh2rcd13ifvqc0g","pricing_plan_id":"cebpf4jnsgd1na2vs0mg"},{"bike_id":"dafbe001-ebbb-4e98-b3d7-c871b5fc47e0","system_id":"levelo_inurba_marseille","lat":43.31342,"lon":5.36719,"is_reserved":false,"is_disabled":false,"rental_uris":{"android":"levelo://app?vid=dafbe001-ebbb-4e98-b3d7-c871b5fc47e0","ios":"levelo://app?vid=dafbe001-ebbb-4e98-b3d7-c871b5fc47e0"},"vehicle_type_id":"4","last_reported":1728389856,"current_range_meters":30400,"station_id":"ce4bgr92rcd13ifvqc6g","pricing_plan_id":"cebpf4jnsgd1na2vs0mg"},{"bike_id":"8c071b9e-2db5-4e0d-a9f9-97dc98100095","system_id":"levelo_inurba_marseille","lat":43.23151,"lon":5.437,"is_reserved":false,"is_disabled":false,"rental_uris":{"android":"levelo://app?vid=8c071b9e-2db5-4e0d-a9f9-97dc98100095","ios":"levelo://app?vid=8c071b9e-2db5-4e0d-a9f9-97dc98100095"},"vehicle_type_id":"4","last_reported":1728389856,"current_range_meters":28800,"station_id":"ce4bhmp2rcd13ifvqgog","pricing_plan_id":"cebpf4jnsgd1na2vs0mg"},{"bike_id":"7007c8cf-1cb1-48e8-8f28-c25ecf47cb47","system_id":"levelo_inurba_marseille","lat":43.30935,"lon":5.4014,"is_reserved":false,"is_disabled":false,"rental_uris":{"android":"levelo://app?vid=7007c8cf-1cb1-48e8-8f28-c25ecf47cb47","ios":"levelo://app?vid=7007c8cf-1cb1-48e8-8f28-c25ecf47cb47"},"vehicle_type_id":"4","last_reported":1728389856,"current_range_meters":39200,"station_id":"ce4bgvp2rcd13ifvqct0","pricing_plan_id":"cebpf4jnsgd1na2vs0mg"},{"bike_id":"669fe7e6-124f-4e15-b926-4fdbc66bdd5c","system_id":"levelo_inurba_marseille","lat":43.29596,"lon":5.38096,"is_reserved":false,"is_disabled":false,"rental_uris":{"android":"levelo://app?vid=669fe7e6-124f-4e15-b926-4fdbc66bdd5c","ios":"levelo://app?vid=669fe7e6-124f-4e15-b926-4fdbc66bdd5c"},"vehicle_type_id":"4","last_reported":1728389856,"current_range_meters":16400,"station_id":"ce4bgl12rcd13ifvqbo0","pricing_plan_id":"cebpf4jnsgd1na2vs0mg"},{"bike_id":"5f420b98-658b-4719-a34f-61a9acf75513","system_id":"levelo_inurba_marseille","lat":43.23967,"lon":5.3663,"is_reserved":false,"is_disabled":false,"rental_uris":{"android":"levelo://app?vid=5f420b98-658b-4719-a34f-61a9acf75513","ios":"levelo://app?vid=5f420b98-658b-4719-a34f-61a9acf75513"},"vehicle_type_id":"4","last_reported":1728389856,"current_range_meters":12800,"station_id":"ce4bhi12rcd13ifvqfp0","pricing_plan_id":"cebpf4jnsgd1na2vs0mg"},{"bike_id":"7835ccc4-dc46-4842-84a8-a5c2e837c5e6","system_id":"levelo_inurba_marseille","lat":43.26026,"lon":5.37549,"is_reserved":false,"is_disabled":false,"rental_uris":{"android":"levelo://app?vid=7835ccc4-dc46-4842-84a8-a5c2e837c5e6","ios":"levelo://app?vid=7835ccc4-dc46-4842-84a8-a5c2e837c5e6"},"vehicle_type_id":"4","last_reported":1728389856,"current_range_meters":36400,"station_id":"ce4bhgh2rcd13ifvqfa0","pricing_plan_id":"cebpf4jnsgd1na2vs0mg"},{"bike_id":"fe683e3d-40d5-43af-9616-d68f120b4f62","system_id":"levelo_inurba_marseille","lat":43.30464,"lon":5.37902,"is_reserved":false,"is_disabled":false,"rental_uris":{"android":"levelo://app?vid=fe683e3d-40d5-43af-9616-d68f120b4f62","ios":"levelo://app?vid=fe683e3d-40d5-43af-9616-d68f120b4f62"},"vehicle_type_id":"4","last_reported":1728389856,"current_range_meters":32800,"station_id":"ce4bgup2rcd13ifvqcn0","pricing_plan_id":"cebpf4jnsgd1na2vs0mg"},{"bike_id":"f236458b-a68f-4be5-ae65-f5ccd4ea25a1","system_id":"levelo_inurba_marseille","lat":43.31996,"lon":5.3815,"is_reserved":false,"is_disabled":false,"rental_uris":{"android":"levelo://app?vid=f236458b-a68f-4be5-ae65-f5ccd4ea25a1","ios":"levelo://app?vid=f236458b-a68f-4be5-ae65-f5ccd4ea25a1"},"vehicle_type_id":"4","last_reported":1728389856,"current_range_meters":39200,"station_id":"ce4bhr12rcd13ifvqhpg","pricing_plan_id":"cebpf4jnsgd1na2vs0mg"},{"bike_id":"404b4697-2249-46d0-afb0-44351c2d122f","system_id":"levelo_inurba_marseille","lat":43.29555,"lon":5.42283,"is_reserved":false,"is_disabled":false,"rental_uris":{"android":"levelo://app?vid=404b4697-2249-46d0-afb0-44351c2d122f","ios":"levelo://app?vid=404b4697-2249-46d0-afb0-44351c2d122f"},"vehicle_type_id":"4","last_reported":1728389856,"current_range_meters":16800,"station_id":"ce4bhph2rcd13ifvqhdg","pricing_plan_id":"cebpf4jnsgd1na2vs0mg"},{"bike_id":"73e8f9b7-ddfa-4f6e-8764-6cb453c9248b","system_id":"levelo_inurba_marseille","lat":43.24545,"lon":5.39521,"is_reserved":false,"is_disabled":false,"rental_uris":{"android":"levelo://app?vid=73e8f9b7-ddfa-4f6e-8764-6cb453c9248b","ios":"levelo://app?vid=73e8f9b7-ddfa-4f6e-8764-6cb453c9248b"},"vehicle_type_id":"4","last_reported":1728389856,"current_range_meters":20000,"station_id":"ce4bhlp2rcd13ifvqgjg","pricing_plan_id":"cebpf4jnsgd1na2vs0mg"},{"bike_id":"7cb8678d-ef93-4527-a31c-c26cf51f39df","system_id":"levelo_inurba_marseille","lat":43.25829,"lon":5.39435,"is_reserved":false,"is_disabled":false,"rental_uris":{"android":"levelo://app?vid=7cb8678d-ef93-4527-a31c-c26cf51f39df","ios":"levelo://app?vid=7cb8678d-ef93-4527-a31c-c26cf51f39df"},"vehicle_type_id":"4","last_reported":1728389856,"current_range_meters":20000,"station_id":"ce4bhip2rcd13ifvqft0","pricing_plan_id":"cebpf4jnsgd1na2vs0mg"},{"bike_id":"6bb2512d-ab30-4e80-bc11-038bc6e8e818","system_id":"levelo_inurba_marseille","lat":43.2921,"lon":5.39322,"is_reserved":false,"is_disabled":false,"rental_uris":{"android":"levelo://app?vid=6bb2512d-ab30-4e80-bc11-038bc6e8e818","ios":"levelo://app?vid=6bb2512d-ab30-4e80-bc11-038bc6e8e818"},"vehicle_type_id":"4","last_reported":1728389856,"current_range_meters":24400,"station_id":"ce4bh192rcd13ifvqdd0","pricing_plan_id":"cebpf4jnsgd1na2vs0mg"},{"bike_id":"b625834a-54ef-4eab-8c9d-e8c85e149a97","system_id":"levelo_inurba_marseille","lat":43.31081,"lon":5.4243,"is_reserved":false,"is_disabled":false,"rental_uris":{"android":"levelo://app?vid=b625834a-54ef-4eab-8c9d-e8c85e149a97","ios":"levelo://app?vid=b625834a-54ef-4eab-8c9d-e8c85e149a97"},"vehicle_type_id":"4","last_reported":1728389856,"current_range_meters":37600,"station_id":"ce4bhp92rcd13ifvqhag","pricing_plan_id":"cebpf4jnsgd1na2vs0mg"},{"bike_id":"b1d8efc6-35b5-4f28-93a7-969d5ad39bae","system_id":"levelo_inurba_marseille","lat":43.30138,"lon":5.39844,"is_reserved":false,"is_disabled":false,"rental_uris":{"android":"levelo://app?vid=b1d8efc6-35b5-4f28-93a7-969d5ad39bae","ios":"levelo://app?vid=b1d8efc6-35b5-4f28-93a7-969d5ad39bae"},"vehicle_type_id":"4","last_reported":1728389856,"current_range_meters":37600,"station_id":"ce4bh0h2rcd13ifvqd40","pricing_plan_id":"cebpf4jnsgd1na2vs0mg"},{"bike_id":"5255b51b-7cbf-49be-9a65-78e8b330ab84","system_id":"levelo_inurba_marseille","lat":43.29799,"lon":5.40399,"is_reserved":false,"is_disabled":false,"rental_uris":{"android":"levelo://app?vid=5255b51b-7cbf-49be-9a65-78e8b330ab84","ios":"levelo://app?vid=5255b51b-7cbf-49be-9a65-78e8b330ab84"},"vehicle_type_id":"4","last_reported":1728389856,"current_range_meters":37600,"station_id":"ce4bh112rcd13ifvqd90","pricing_plan_id":"cebpf4jnsgd1na2vs0mg"},{"bike_id":"a1f83808-88c0-4694-b52b-fdded58a2829","system_id":"levelo_inurba_marseille","lat":43.30594,"lon":5.39363,"is_reserved":false,"is_disabled":false,"rental_uris":{"android":"levelo://app?vid=a1f83808-88c0-4694-b52b-fdded58a2829","ios":"levelo://app?vid=a1f83808-88c0-4694-b52b-fdded58a2829"},"vehicle_type_id":"4","last_reported":1728389856,"current_range_meters":38800,"station_id":"ce4bh0p2rcd13ifvqd80","pricing_plan_id":"cebpf4jnsgd1na2vs0mg"},{"bike_id":"d5c4ef42-f49e-4132-8030-e662853db584","system_id":"levelo_inurba_marseille","lat":43.25579,"lon":5.38239,"is_reserved":false,"is_disabled":false,"rental_uris":{"android":"levelo://app?vid=d5c4ef42-f49e-4132-8030-e662853db584","ios":"levelo://app?vid=d5c4ef42-f49e-4132-8030-e662853db584"},"vehicle_type_id":"4","last_reported":1728389856,"current_range_meters":36800,"station_id":"ce4bhih2rcd13ifvqfs0","pricing_plan_id":"cebpf4jnsgd1na2vs0mg"},