{"last_updated":1734167366,"ttl":60,"version":"2.2","data":{"bikes":[{"bike_id":"45c22bfb-3859-46ca-bbdd-b43970628095","system_id":"levelo_inurba_marseille","lat":43.23189,"lon":5.39985,"is_reserved":false,"is_disabled":false,"rental_uris":{"android":"levelo://app?vid=45c22bfb-3859-46ca-bbdd-b43970628095","ios":"levelo://app?vid=45c22bfb-3859-46ca-bbdd-b43970628095"},"vehicle_type_id":"4","last_reported":1734167366,"current_range_meters":23200,"station_id":"ce4bhn12rcd13ifvqgqg","pricing_plan_id":"cebpf4jnsgd1na2vs0mg"},{"bike_id":"3e5d99b9-1aaf-48b9-b5fb-fb7a0b5b1ba5","system_id":"levelo_inurba_marseille","lat":43.29039,"lon":5.39228,"is_reserved":false,"is_disabled":true,"rental_uris":{"android":"levelo://app?vid=3e5d99b9-1aaf-48b9-b5fb-fb7a0b5b1ba5","ios":"levelo://app?vid=3e5d99b9-1aaf-48b9-b5fb-fb7a0b5b1ba5"},"vehicle_type_id":"4","last_reported":1734167366,"current_range_meters":0,"station_id":"","pricing_plan_id":"cebpf4jnsgd1na2vs0mg"},{"bike_id":"e0a9efba-6485-436f-ae65-a273cf25e0ce","system_id":"levelo_inurba_marseille","lat":43.27362,"lon":5.36255,"is_reserved":false,"is_disabled":false,"rental_uris":{"android":"levelo://app?vid=e0a9efba-6485-436f-ae65-a273cf25e0ce","ios":"levelo://app?vid=e0a9efba-6485-436f-ae65-a273cf25e0ce"},"vehicle_type_id":"4","last_reported":1734167366,"current_range_meters":38800,"station_id":"ce4bhbh2rcd13ifvqeo0","pricing_plan_id":"cebpf4jnsgd1na2vs0mg"},{"bike_id":"55c52e02-0cdf-453d-a05b-f0f604647bf3","system_id":"levelo_inurba_marseille","lat":43.27945,"lon":5.4109,"is_reserved":false,"is_disabled":false,"rental_uris":{"android":"levelo://app?vid=55c52e02-0cdf-453d-a05b-f0f604647bf3","ios":"levelo://app?vid=55c52e02-0cdf-453d-a05b-f0f604647bf3"},"vehicle_type_id":"4","last_reported":1734167366,"current_range_meters":14800,"station_id":"ce4bhnp2rcd13ifvqh0g","pricing_plan_id":"cebpf4jnsgd1na2vs0mg"},{"bike_id":"c7de71a1-0ff8-4d5a-93fa-40f456754ca0","system_id":"levelo_inurba_marseille","lat":43.26551,"lon":5.37288,"is_reserved":false,"is_disabled":false,"rental_uris":{"android":"levelo://app?vid=c7de71a1-0ff8-4d5a-93fa-40f456754ca0","ios":"levelo://app?vid=c7de71a1-0ff8-4d5a-93fa-40f456754ca0"},"vehicle_type_id":"4","last_reported":1734167366,"current_range_meters":38800,"station_id":"ce4bhg12rcd13ifvqf70","pricing_plan_id":"cebpf4jnsgd1na2vs0mg"},{"bike_id":"19f9e8b0-a2e6-420a-a1af-f99d8fc40ad5","system_id":"levelo_inurba_marseille","lat":43.27572,"lon":5.38374,"is_reserved":false,"is_disabled":false,"rental_uris":{"android":"levelo://app?vid=19f9e8b0-a2e6-420a-a1af-f99d8fc40ad5","ios":"levelo://app?vid=19f9e8b0-a2e6-420a-a1af-f99d8fc40ad5"},"vehicle_type_id":"4","last_reported":1734167366,"current_range_meters":38800,"station_id":"","pricing_plan_id":"cebpf4jnsgd1na2vs0mg"},{"bike_id":"b3907039-7edb-4453-8336-a051603300d2","system_id":"levelo_inurba_marseille","lat":43.28611,"lon":5.37055,"is_reserved":false,"is_disabled":false,"rental_uris":{"android":"levelo://app?vid=b3907039-7edb-4453-8336-a051603300d2","ios":"levelo://app?vid=b3907039-7edb-4453-8336-a051603300d2"},"vehicle_type_id":"4","last_reported":1734167366,"current_range_meters":38800,"station_id":"ce4bht12rcd13ifvqi60","pricing_plan_id":"cebpf4jnsgd1na2vs0mg"},{"bike_id":"35642114-ba9f-4cd0-9d6f-a2edaa6e597b","system_id":"levelo_inurba_marseille","lat":43.30459,"lon":5.37896,"is_reserved":false,"is_disabled":false,"rental_uris":{"android":"levelo://app?vid=35642114-ba9f-4cd0-9d6f-a2edaa6e597b","ios":"levelo://app?vid=35642114-ba9f-4cd0-9d6f-a2edaa6e597b"},"vehicle_type_id":"4","last_reported":1734167366,"current_range_meters":19600,"station_id":"ce4bgup2rcd13ifvqcn0","pricing_plan_id":"cebpf4jnsgd1na2vs0mg"},{"bike_id":"dbe5bea0-cc7a-4044-80dc-6fd3209ffdb4","system_id":"levelo_inurba_marseille","lat":43.23194,"lon":5.39976,"is_reserved":false,"is_disabled":false,"rental_uris":{"android":"levelo://app?vid=dbe5bea0-cc7a-4044-80dc-6fd3209ffdb4","ios":"levelo://app?vid=dbe5bea0-cc7a-4044-80dc-6fd3209ffdb4"},"vehicle_type_id":"4","last_reported":1734167366,"current_range_meters":38800,"station_id":"ce4bhn12rcd13ifvqgqg","pricing_plan_id":"cebpf4jnsgd1na2vs0mg"},{"bike_id":"8cf3d022-457e-4c8c-9cfa-eb9aee460bd0","system_id":"levelo_inurba_marseille","lat":43.27568,"lon":5.38665,"is_reserved":false,"is_disabled":false,"rental_uris":{"android":"levelo://app?vid=8cf3d022-457e-4c8c-9cfa-eb9aee460bd0","ios":"levelo://app?vid=8cf3d022-457e-4c8c-9cfa-eb9aee460bd0"},"vehicle_type_id":"4","last_reported":1734167366,"current_range_meters":38000,"station_id":"","pricing_plan_id":"cebpf4jnsgd1na2vs0mg"},{"bike_id":"f53a51f1-6db0-4716-9c45-7ac4c7fcd208","system_id":"levelo_inurba_marseille","lat":43.32288,"lon":5.38274,"is_reserved":false,"is_disabled":false,"rental_uris":{"android":"levelo://app?vid=f53a51f1-6db0-4716-9c45-7ac4c7fcd208","ios":"levelo://app?vid=f53a51f1-6db0-4716-9c45-7ac4c7fcd208"},"vehicle_type_id":"4","last_reported":1734167366,"current_range_meters":28400,"station_id":"ce4bhr12rcd13ifvqhqg","pricing_plan_id":"cebpf4jnsgd1na2vs0mg"},{"bike_id":"e8ed717d-9f26-45a9-bc82-774d381028bc","system_id":"levelo_inurba_marseille","lat":43.29554,"lon":5.42285,"is_reserved":false,"is_disabled":false,"rental_uris":{"android":"levelo://app?vid=e8ed717d-9f26-45a9-bc82-774d381028bc","ios":"levelo://app?vid=e8ed717d-9f26-45a9-bc82-774d381028bc"},"vehicle_type_id":"4","last_reported":1734167366,"current_range_meters":20800,"station_id":"ce4bhph2rcd13ifvqhdg","pricing_plan_id":"cebpf4jnsgd1na2vs0mg"},{"bike_id":"dca33d06-a819-4145-8843-f780f29556d2","system_id":"levelo_inurba_marseille","lat":43.26941,"lon":5.40249,"is_reserved":false,"is_disabled":false,"rental_uris":{"android":"levelo://app?vid=dca33d06-a819-4145-8843-f780f29556d2","ios":"levelo://app?vid=dca33d06-a819-4145-8843-f780f29556d2"},"vehicle_type_id":"4","last_reported":1734167366,"current_range_meters":16400,"station_id":"cjm6bp8fraef2m0cb0m0","pricing_plan_id":"cebpf4jnsgd1na2vs0mg"},{"bike_id":"d64735b9-3201-48f9-b7d1-d8bd9269830f","system_id":"levelo_inurba_marseille","lat":43.3134,"lon":5.3969,"is_reserved":false,"is_disabled":false,"rental_uris":{"android":"levelo://app?vid=d64735b9-3201-48f9-b7d1-d8bd9269830f","ios":"levelo://app?vid=d64735b9-3201-48f9-b7d1-d8bd9269830f"},"vehicle_type_id":"4","last_reported":1734167366,"current_range_meters":32800,"station_id":"ce4bgvp2rcd13ifvqcu0","pricing_plan_id":"cebpf4jnsgd1na2vs0mg"},{"bike_id":"145ad407-7195-4785-a3ae-4255062efe34","system_id":"levelo_inurba_marseille","lat":43.26048,"lon":5.38418,"is_reserved":false,"is_disabled":false,"rental_uris":{"android":"levelo://app?vid=145ad407-7195-4785-a3ae-4255062efe34","ios":"levelo://app?vid=145ad407-7195-4785-a3ae-4255062efe34"},"vehicle_type_id":"4","last_reported":1734167366,"current_range_meters":34800,"station_id":"","pricing_plan_id":"cebpf4jnsgd1na2vs0mg"},{"bike_id":"c8ab594a-f0a5-4826-a75d-3df37512985d","system_id":"levelo_inurba_marseille","lat":43.31171,"lon":5.38724,"is_reserved":false,"is_disabled":false,"rental_uris":{"android":"levelo://app?vid=c8ab594a-f0a5-4826-a75d-3df37512985d","ios":"levelo://app?vid=c8ab594a-f0a5-4826-a75d-3df37512985d"},"vehicle_type_id":"4","last_reported":1734167366,"current_range_meters":19600,"station_id":"ce4bgv12rcd13ifvqcp0","pricing_plan_id":"cebpf4jnsgd1na2vs0mg"},{"bike_id":"80e5c1e3-8d27-43e3-9451-b00f65b301df","system_id":"levelo_inurba_marseille","lat":43.23192,"lon":5.3555,"is_reserved":false,"is_disabled":false,"rental_uris":{"android":"levelo://app?vid=80e5c1e3-8d27-43e3-9451-b00f65b301df","ios":"levelo://app?vid=80e5c1e3-8d27-43e3-9451-b00f65b301df"},"vehicle_type_id":"4","last_reported":1734167366,"current_range_meters":6800,"station_id":"ce4bhu92rcd13ifvqi70","pricing_plan_id":"cebpf4jnsgd1na2vs0mg"},{"bike_id":"fd876938-1ca5-4b35-8e44-93a087627a8f","system_id":"levelo_inurba_marseille","lat":43.30213,"lon":5.394649,"is_reserved":false,"is_disabled":false,"rental_uris":{"android":"levelo://app?vid=fd876938-1ca5-4b35-8e44-93a087627a8f","ios":"levelo://app?vid=fd876938-1ca5-4b35-8e44-93a087627a8f"},"vehicle_type_id":"4","last_reported":1734167366,"current_range_meters":29600,"station_id":"ce4bh0p2rcd13ifvqd70","pricing_plan_id":"cebpf4jnsgd1na2vs0mg"},{"bike_id":"496b9119-850a-49b3-bf98-295bb079ca7c","system_id":"levelo_inurba_marseille","lat":43.28195,"lon":5.44593,"is_reserved":false,"is_disabled":false,"rental_uris":{"android":"levelo://app?vid=496b9119-850a-49b3-bf98-295bb079ca7c","ios":"levelo://app?vid=496b9119-850a-49b3-bf98-295bb079ca7c"},"vehicle_type_id":"4","last_reported":1734167366,"current_range_meters":10800,"station_id":"","pricing_plan_id":"cebpf4jnsgd1na2vs0mg"},{"bike_id":"0d67fd70-e4b1-42fe-abbd-da05c25ce133","system_id":"levelo_inurba_marseille","lat":43.27991,"lon":5.41659,"is_reserved":false,"is_disabled":true,"rental_uris":{"android":"levelo://app?vid=0d67fd70-e4b1-42fe-abbd-da05c25ce133","ios":"levelo://app?vid=0d67fd70-e4b1-42fe-abbd-da05c25ce133"},"vehicle_type_id":"4","last_reported":1734167366,"current_range_meters":38400,"station_id":"ce4bho12rcd13ifvqh1g","pricing_plan_id":"cebpf4jnsgd1na2vs0mg"},{"bike_id":"6ccb1b55-c0a9-46eb-8f0b-906ec7a25595","system_id":"levelo_inurba_marseille","lat":43.28259,"lon":5.35069,"is_reserved":false,"is_disabled":false,"rental_uris":{"android":"levelo://app?vid=6ccb1b55-c0a9-46eb-8f0b-906ec7a25595","ios":"levelo://app?vid=6ccb1b55-c0a9-46eb-8f0b-906ec7a25595"},"vehicle_type_id":"4","last_reported":1734167366,"current_range_meters":20800,"station_id":"ce4bhbp2rcd13ifvqerg","pricing_plan_id":"cebpf4jnsgd1na2vs0mg"},{"bike_id":"88f2033b-7e30-4fec-967e-f2db67085ede","system_id":"levelo_inurba_marseille","lat":43.34152,"lon":5.40922,"is_reserved":false,"is_disabled":false,"rental_uris":{"android":"levelo://app?vid=88f2033b-7e30-4fec-967e-f2db67085ede","ios":"levelo://app?vid=88f2033b-7e30-4fec-967e-f2db67085ede"},"vehicle_type_id":"4","last_reported":1734167366,"current_range_meters":38800,"station_id":"ce4bhqh2rcd13ifvqhlg","pricing_plan_id":"cebpf4jnsgd1na2vs0mg"},{"bike_id":"1a341f13-1fed-4461-850d-e3c63634c2cf","system_id":"levelo_inurba_marseille","lat":43.28258,"lon":5.3503,"is_reserved":false,"is_disabled":false,"rental_uris":{"android":"levelo://app?vid=1a341f13-1fed-4461-850d-e3c63634c2cf","ios":"levelo://app?vid=1a341f13-1fed-4461-850d-e3c63634c2cf"},"vehicle_type_id":"4","last_reported":1734167366,"current_range_meters":38800,"station_id":"ce4bhbp2rcd13ifvqerg","pricing_plan_id":"cebpf4jnsgd1na2vs0mg"},{"bike_id":"5baef8d5-cbef-415d-a7c4-3212b2dae114","system_id":"levelo_inurba_marseille","lat":43.26209,"lon":5.37444,"is_reserved":false,"is_disabled":false,"rental_uris":{"android":"levelo://app?vid=5baef8d5-cbef-415d-a7c4-3212b2dae114","ios":"levelo://app?vid=5baef8d5-cbef-415d-a7c4-3212b2dae114"},"vehicle_type_id":"4","last_reported":1734167366,"current_range_meters":38800,"station_id":"ce4bhgp2rcd13ifvqfc0","pricing_plan_id":"cebpf4jnsgd1na2vs0mg"},{"bike_id":"fb32aea2-d437-4e9e-95b8-ad6ed33d022d","system_id":"levelo_inurba_marseille","lat":43.28713,"lon":5.37944,"is_reserved":false,"is_disabled":true,"rental_uris":{"android":"levelo://app?vid=fb32aea2-d437-4e9e-95b8-ad6ed33d022d","ios":"levelo://app?vid=fb32aea2-d437-4e9e-95b8-ad6ed33d022d"},"vehicle_type_id":"4","last_reported":1734167366,"current_range_meters":24800,"station_id":"ce4bh9p2rcd13ifvqec0","pricing_plan_id":"cebpf4jnsgd1na2vs0mg"},{"bike_id":"d5c89c1f-3bad-4af2-9449-e04c277a4696","system_id":"levelo_inurba_marseille","lat":43.29962,"lon":5.41312,"is_reserved":false,"is_disabled":true,"rental_uris":{"android":"levelo://app?vid=d5c89c1f-3bad-4af2-9449-e04c277a4696","ios":"levelo://app?vid=d5c89c1f-3bad-4af2-9449-e04c277a4696"},"vehicle_type_id":"4","last_reported":1734167366,"current_range_meters":38800,"station_id":"ce4bhp12rcd13ifvqh9g","pricing_plan_id":"cebpf4jnsgd1na2vs0mg"},{"bike_id":"f6ef6752-da2b-4738-a9a4-9c34b53a01f7","system_id":"levelo_inurba_marseille","lat":43.30602,"lon":5.37218,"is_reserved":false,"is_disabled":false,"rental_uris":{"android":"levelo://app?vid=f6ef6752-da2b-4738-a9a4-9c34b53a01f7","ios":"levelo://app?vid=f6ef6752-da2b-4738-a9a4-9c34b53a01f7"},"vehicle_type_id":"4","last_reported":1734167366,"current_range_meters":30400,"station_id":"ce4bgqh2rcd13ifvqc4g","pricing_plan_id":"cebpf4jnsgd1na2vs0mg"},{"bike_id":"5dcb142e-3766-4e2c-b1fe-c9ebbc5d3c50","system_id":"levelo_inurba_marseille","lat":43.31989,"lon":5.38151,"is_reserved":false,"is_disabled":false,"rental_uris":{"android":"levelo://app?vid=5dcb142e-3766-4e2c-b1fe-c9ebbc5d3c50","ios":"levelo://app?vid=5dcb142e-3766-4e2c-b1fe-c9ebbc5d3c50"},"vehicle_type_id":"4","last_reported":1734167366,"current_range_meters":38800,"station_id":"ce4bhr12rcd13ifvqhpg","pricing_plan_id":"cebpf4jnsgd1na2vs0mg"},{"bike_id":"8eeaf79c-4584-46fa-895b-e4130ccd2bcf","system_id":"levelo_inurba_marseille","lat":43.28266,"lon":5.35079,"is_reserved":false,"is_disabled":false,"rental_uris":{"android":"levelo://app?vid=8eeaf79c-4584-46fa-895b-e4130ccd2bcf","ios":"levelo://app?vid=8eeaf79c-4584-46fa-895b-e4130ccd2bcf"},"vehicle_type_id":"4","last_reported":1734167366,"current_range_meters":14000,"station_id":"ce4bhbp2rcd13ifvqerg","pricing_plan_id":"cebpf4jnsgd1na2vs0mg"},{"bike_id":"3a312272-900a-4c4b-bb5b-4ed6000e4b63","system_id":"levelo_inurba_marseille","lat":43.30157,"lon":5.381,"is_reserved":false,"is_disabled":true,"rental_uris":{"android":"levelo://app?vid=3a312272-900a-4c4b-bb5b-4ed6000e4b63","ios":"levelo://app?vid=3a312272-900a-4c4b-bb5b-4ed6000e4b63"},"vehicle_type_id":"4","last_reported":1734167366,"current_range_meters":38800,"station_id":"ce4bgjp2rcd13ifvqbh0","pricing_plan_id":"cebpf4jnsgd1na2vs0mg"},{"bike_id":"fda43175-d37f-496d-a09a-1de81a93d0ec","system_id":"levelo_inurba_marseille","lat":43.298828,"lon":5.389064,"is_reserved":false,"is_disabled":false,"rental_uris":{"android":"levelo://app?vid=fda43175-d37f-496d-a09a-1de81a93d0ec","ios":"levelo://app?vid=fda43175-d37f-496d-a09a-1de81a93d0ec"},"vehicle_type_id":"4","last_reported":1734167366,"current_range_meters":6800,"station_id":"ce4bh392rcd13ifvqdl0","pricing_plan_id":"cebpf4jnsgd1na2vs0mg"},{"bike_id":"1246e6b9-1bba-43b9-9075-2687b084a677","system_id":"levelo_inurba_marseille","lat":43.2589,"lon":5.39898,"is_reserved":false,"is_disabled":false,"rental_uris":{"android":"levelo://app?vid=1246e6b9-1bba-43b9-9075-2687b084a677","ios":"levelo://app?vid=1246e6b9-1bba-43b9-9075-2687b084a677"},"vehicle_type_id":"4","last_reported":1734167366,"current_range_meters":38000,"station_id":"ce4bhl92rcd13ifvqghg","pricing_plan_id":"cebpf4jnsgd1na2vs0mg"},{"bike_id":"b3a77dc0-a822-444f-91f4-872b6fc01306","system_id":"levelo_inurba_marseille","lat":43.30594,"lon":5.37213,"is_reserved":false,"is_disabled":false,"rental_uris":{"android":"levelo://app?vid=b3a77dc0-a822-444f-91f4-872b6fc01306","ios":"levelo://app?vid=b3a77dc0-a822-444f-91f4-872b6fc01306"},"vehicle_type_id":"4","last_reported":1734167366,"current_range_meters":30400,"station_id":"ce4bgqh2rcd13ifvqc4g","pricing_plan_id":"cebpf4jnsgd1na2vs0mg"},{"bike_id":"4a9c2b10-6e19-4fe1-90f0-509e165d7787","system_id":"levelo_inurba_marseille","lat":43.29901,"lon":5.38152,"is_reserved":false,"is_disabled":false,"rental_uris":{"android":"levelo://app?vid=4a9c2b10-6e19-4fe1-90f0-509e165d7787","ios":"levelo://app?vid=4a9c2b10-6e19-4fe1-90f0-509e165d7787"},"vehicle_type_id":"4","last_reported":1734167366,"current_range_meters":38800,"station_id":"ce4bh0p2rcd13ifvqd70","pricing_plan_id":"cebpf4jnsgd1na2vs0mg"},{"bike_id":"af20f021-04a6-4cd9-841e-4cafb2b90a02","system_id":"levelo_inurba_marseille","lat":43.287,"lon":5.39983,"is_reserved":false,"is_disabled":false,"rental_uris":{"android":"levelo://app?vid=af20f021-04a6-4cd9-841e-4cafb2b90a02","ios":"levelo://app?vid=af20f021-04a6-4cd9-841e-4cafb2b90a02"},"vehicle_type_id":"4","last_reported":1734167366,"current_range_meters":38800,"station_id":"ce4bho92rcd13ifvqh3g","pricing_plan_id":"cebpf4jnsgd1na2vs0mg"},{"bike_id":"ff4dd77c-9815-4ceb-84fd-29a29009fea2","system_id":"levelo_inurba_marseille","lat":43.2861,"lon":5.37065,"is_reserved":false,"is_disabled":false,"rental_uris":{"android":"levelo://app?vid=ff4dd77c-9815-4ceb-84fd-29a29009fea2","ios":"levelo://app?vid=ff4dd77c-9815-4ceb-84fd-29a29009fea2"},"vehicle_type_id":"4","last_reported":1734167366,"current_range_meters":36800,"station_id":"ce4bht12rcd13ifvqi60","pricing_plan_id":"cebpf4jnsgd1na2vs0mg"},{"bike_id":"2f747797-e559-43cf-b56c-5d5684c52fbf","system_id":"levelo_inurba_marseille","lat":43.31501,"lon":5.37288,"is_reserved":false,"is_disabled":true,"rental_uris":{"android":"levelo://app?vid=2f747797-e559-43cf-b56c-5d5684c52fbf","ios":"levelo://app?vid=2f747797-e559-43cf-b56c-5d5684c52fbf"},"vehicle_type_id":"4","last_reported":1734167366,"current_range_meters":0,"station_id":"ce4bgt12rcd13ifvqcd0","pricing_plan_id":"cebpf4jnsgd1na2vs0mg"},{"bike_id":"9bfcebe4-fee2-409c-a8ab-5608ab6f061f","system_id":"levelo_inurba_marseille","lat":43.28152,"lon":5.42734,"is_reserved":false,"is_disabled":false,"rental_uris":{"android":"levelo://app?vid=9bfcebe4-fee2-409c-a8ab-5608ab6f061f","ios":"levelo://app?vid=9bfcebe4-fee2-409c-a8ab-5608ab6f061f"},"vehicle_type_id":"4","last_reported":1734167366,"current_range_meters":35600,"station_id":"","pricing_plan_id":"cebpf4jnsgd1na2vs0mg"},{"bike_id":"0e8a89dc-4e73-48a3-8682-6696627877b1","system_id":"levelo_inurba_marseille","lat":43.31755,"lon":5.39027,"is_reserved":false,"is_disabled":false,"rental_uris":{"android":"levelo://app?vid=0e8a89dc-4e73-48a3-8682-6696627877b1","ios":"levelo://app?vid=0e8a89dc-4e73-48a3-8682-6696627877b1"},"vehicle_type_id":"4","last_reported":1734167366,"current_range_meters":37600,"station_id":"ce4bhqp2rcd13ifvqhng","pricing_plan_id":"cebpf4jnsgd1na2vs0mg"},{"bike_id":"edaea664-24e0-4d6c-aa7a-497f5c5f88f6","system_id":"levelo_inurba_marseille","lat":43.27005,"lon":5.39158,"is_reserved":false,"is_disabled":true,"rental_uris":{"android":"levelo://app?vid=edaea664-24e0-4d6c-aa7a-497f5c5f88f6","ios":"levelo://app?vid=edaea664-24e0-4d6c-aa7a-497f5c5f88f6"},"vehicle_type_id":"4","last_reported":1734167366,"current_range_meters":0,"station_id":"","pricing_plan_id":"cebpf4jnsgd1na2vs0mg"},{"bike_id":"72ad76d7-5a2d-4089-9d42-96862758d84f","system_id":"levelo_inurba_marseille","lat":43.29526,"lon":5.3902,"is_reserved":false,"is_disabled":true,"rental_uris":{"android":"levelo://app?vid=72ad76d7-5a2d-4089-9d42-96862758d84f","ios":"levelo://app?vid=72ad76d7-5a2d-4089-9d42-96862758d84f"},"vehicle_type_id":"4","last_reported":1734167366,"current_range_meters":32000,"station_id":"ce4bh3p2rcd13ifvqdp0","pricing_plan_id":"cebpf4jnsgd1na2vs0mg"},{"bike_id":"0c970c80-ee09-4d4c-a431-ff881cd87614","system_id":"levelo_inurba_marseille","lat":43.29783,"lon":5.38101,"is_reserved":false,"is_disabled":false,"rental_uris":{"android":"levelo://app?vid=0c970c80-ee09-4d4c-a431-ff881cd87614","ios":"levelo://app?vid=0c970c80-ee09-4d4c-a431-ff881cd87614"},"vehicle_type_id":"4","last_reported":1734167366,"current_range_meters":13600,"station_id":"ce4bgip2rcd13ifvqbb0","pricing_plan_id":"cebpf4jnsgd1na2vs0mg"},{"bike_id":"0fbaea75-3782-4c9f-aee5-9cab2c47d463","system_id":"levelo_inurba_marseille","lat":43.23953,"lon":5.36635,"is_reserved":false,"is_disabled":false,"rental_uris":{"android":"levelo://app?vid=0fbaea75-3782-4c9f-aee5-9cab2c47d463","ios":"levelo://app?vid=0fbaea75-3782-4c9f-aee5-9cab2c47d463"},"vehicle_type_id":"4","last_reported":1734167366,"current_range_meters":30400,"station_id":"ce4bhi12rcd13ifvqfp0","pricing_plan_id":"cebpf4jnsgd1na2vs0mg"},{"bike_id":"031809f5-fdc4-4687-967d-86d6a0becf47","system_id":"levelo_inurba_marseille","lat":43.25855,"lon":5.39926,"is_reserved":false,"is_disabled":false,"rental_uris":{"android":"levelo://app?vid=031809f5-fdc4-4687-967d-86d6a0becf47","ios":"levelo://app?vid=031809f5-fdc4-4687-967d-86d6a0becf47"},"vehicle_type_id":"4","last_reported":1734167366,"current_range_meters":38000,"station_id":"ce4bhl92rcd13ifvqghg","pricing_plan_id":"cebpf4jnsgd1na2vs0mg"},{"bike_id":"66331cc1-d263-487f-86ec-bf9d2260ae21","system_id":"levelo_inurba_marseille","lat":43.25862,"lon":5.39902,"is_reserved":false,"is_disabled":false,"rental_uris":{"android":"levelo://app?vid=66331cc1-d263-487f-86ec-bf9d2260ae21","ios":"levelo://app?vid=66331cc1-d263-487f-86ec-bf9d2260ae21"},"vehicle_type_id":"4","last_reported":1734167366,"current_range_meters":39200,"station_id":"ce4bhl92rcd13ifvqghg","pricing_plan_id":"cebpf4jnsgd1na2vs0mg"},{"bike_id":"5f57b631-6bd2-4c7f-8ca2-84262d59805e","system_id":"levelo_inurba_marseille","lat":43.24661,"lon":5.38158,"is_reserved":false,"is_disabled":false,"rental_uris":{"android":"levelo://app?vid=5f57b631-6bd2-4c7f-8ca2-84262d59805e","ios":"levelo://app?vid=5f57b631-6bd2-4c7f-8ca2-84262d59805e"},"vehicle_type_id":"4","last_reported":1734167366,"current_range_meters":19200,"station_id":"ce4bhih2rcd13ifvqfr0","pricing_plan_id":"cebpf4jnsgd1na2vs0mg"},{"bike_id":"9b8de88d-3aac-4c23-948d-9b3427dee27a","system_id":"levelo_inurba_marseille","lat":43.32648,"lon":5.40983,"is_reserved":false,"is_disabled":false,"rental_uris":{"android":"levelo://app?vid=9b8de88d-3aac-4c23-948d-9b3427dee27a","ios":"levelo://app?vid=9b8de88d-3aac-4c23-948d-9b3427dee27a"},"vehicle_type_id":"4","last_reported":1734167366,"current_range_meters":38800,"station_id":"ce4bhpp2rcd13ifvqhgg","pricing_plan_id":"cebpf4jnsgd1na2vs0mg"},{"bike_id":"75d005f1-a104-4287-b501-1002db049ee7","system_id":"levelo_inurba_marseille","lat":43.33724,"lon":5.39185,"is_reserved":false,"is_disabled":false,"rental_uris":{"android":"levelo://app?vid=75d005f1-a104-4287-b501-1002db049ee7","ios":"levelo://app?vid=75d005f1-a104-4287-b501-1002db049ee7"},"vehicle_type_id":"4","last_reported":1734167366,"current_range_meters":38800,"station_id":"ce4bhr92rcd13ifvqhsg","pricing_plan_id":"cebpf4jnsgd1na2vs0mg"},{"bike_id":"3e403962-7776-4eeb-97c8-316c32b645ee","system_id":"levelo_inurba_marseille","lat":43.31996,"lon":5.38162,"is_reserved":false,"is_disabled":false,"rental_uris":{"android":"levelo://app?vid=3e403962-7776-4eeb-97c8-316c32b645ee","ios":"levelo://app?vid=3e403962-7776-4eeb-97c8-316c32b645ee"},"vehicle_type_id":"4","last_reported":1734167366,"current_range_meters":32400,"station_id":"ce4bhr12rcd13ifvqhpg","pricing_plan_id":"cebpf4jnsgd1na2vs0mg"},{"bike_id":"30b7f7b0-cffb-44e8-9e23-86428fe1183d","system_id":"levelo_inurba_marseille","lat":43.23075,"lon":5.35488,"is_reserved":false,"is_disabled":false,"rental_uris":{"android":"levelo://app?vid=30b7f7b0-cffb-44e8-9e23-86428fe1183d","ios":"levelo://app?vid=30b7f7b0-cffb-44e8-9e23-86428fe1183d"},"vehicle_type_id":"4","last_reported":1734167366,"current_range_meters":35600,"station_id":"cpo3342slgdg3j2ifvpg","pricing_plan_id":"cebpf4jnsgd1na2vs0mg"},{"bike_id":"eaddc4d6-163a-482e-abbb-b79c1524cfdc","system_id":"levelo_inurba_marseille","lat":43.2811,"lon":5.37834,"is_reserved":false,"is_disabled":false,"rental_uris":{"android":"levelo://app?vid=eaddc4d6-163a-482e-abbb-b79c1524cfdc","ios":"levelo://app?vid=eaddc4d6-163a-482e-abbb-b79c1524cfdc"},"vehicle_type_id":"4","last_reported":1734167366,"current_range_meters":9200,"station_id":"ce4bha12rcd13ifvqee0","pricing_plan_id":"cebpf4jnsgd1na2vs0mg"},{"bike_id":"4bba0e78-98b0-46f9-97d8-a9c33f64c622","system_id":"levelo_inurba_marseille","lat":43.2835,"lon":5.38102,"is_reserved":false,"is_disabled":true,"rental_uris":{"android":"levelo://app?vid=4bba0e78-98b0-46f9-97d8-a9c33f64c622","ios":"levelo://app?vid=4bba0e78-98b0-46f9-97d8-a9c33f64c622"},"vehicle_type_id":"4","last_reported":1734167366,"current_range_meters":38800,"station_id":"ce4bh412rcd13ifvqdr0","pricing_plan_id":"cebpf4jnsgd1na2vs0mg"},{"bike_id":"c962957d-ec10-4997-96e1-a869343f922e","system_id":"levelo_inurba_marseille","lat":43.32667,"lon":5.36059,"is_reserved":false,"is_disabled":true,"rental_uris":{"android":"levelo://app?vid=c962957d-ec10-4997-96e1-a869343f922e","ios":"levelo://app?vid=c962957d-ec10-4997-96e1-a869343f922e"},"vehicle_type_id":"4","last_reported":1734167366,"current_range_meters":1600,"station_id":"","pricing_plan_id":"cebpf4jnsgd1na2vs0mg"},{"bike_id":"f78b6eab-52ba-47f5-946e-d43b6f24672f","system_id":"levelo_inurba_marseille","lat":43.30603,"lon":5.37232,"is_reserved":false,"is_disabled":false,"rental_uris":{"android":"levelo://app?vid=f78b6eab-52ba-47f5-946e-d43b6f24672f","ios":"levelo://app?vid=f78b6eab-52ba-47f5-946e-d43b6f24672f"},"vehicle_type_id":"4","last_reported":1734167366,"current_range_meters":38800,"station_id":"ce4bgqh2rcd13ifvqc4g","pricing_plan_id":"cebpf4jnsgd1na2vs0mg"},{"bike_id":"bb14f36d-3645-4531-9655-e845e98af035","system_id":"levelo_inurba_marseille","lat":43.32281,"lon":5.38265,"is_reserved":false,"is_disabled":false,"rental_uris":{"android":"levelo://app?vid=bb14f36d-3645-4531-9655-e845e98af035","ios":"levelo://app?vid=bb14f36d-3645-4531-9655-e845e98af035"},"vehicle_type_id":"4","last_reported":1734167366,"current_range_meters":38800,"station_id":"ce4bhr12rcd13ifvqhqg","pricing_plan_id":"cebpf4jnsgd1na2vs0mg"},{"bike_id":"37422dd8-310d-4104-a0c2-a7676b9edf30","system_id":"levelo_inurba_marseille","lat":43.30277,"lon":5.3773,"is_reserved":false,"is_disabled":false,"rental_uris":{"android":"levelo://app?vid=37422dd8-310d-4104-a0c2-a7676b9edf30","ios":"levelo://app?vid=37422dd8-310d-4104-a0c2-a7676b9edf30"},"vehicle_type_id":"4","last_reported":1734167366,"current_range_meters":34000,"station_id":"ce4bguh2rcd13ifvqcj0","pricing_plan_id":"cebpf4jnsgd1na2vs0mg"},{"bike_id":"b918d51f-fec8-479e-81b1-9de300d164c0","system_id":"levelo_inurba_marseille","lat":43.29255,"lon":5.40912,"is_reserved":false,"is_disabled":false,"rental_uris":{"android":"levelo://app?vid=b918d51f-fec8-479e-81b1-9de300d164c0","ios":"levelo://app?vid=b918d51f-fec8-479e-81b1-9de300d164c0"},"vehicle_type_id":"4","last_reported":1734167366,"current_range_meters":38800,"station_id":"ce4bh192rcd13ifvqdc0","pricing_plan_id":"cebpf4jnsgd1na2vs0mg"},{"bike_id":"fbca9847-eb66-4c9d-968c-e9f7f01e99c5","system_id":"levelo_inurba_marseille","lat":43.28616,"lon":5.37059,"is_reserved":false,"is_disabled":false,"rental_uris":{"android":"levelo://app?vid=fbca9847-eb66-4c9d-968c-e9f7f01e99c5","ios":"levelo://app?vid=fbca9847-eb66-4c9d-968c-e9f7f01e99c5"},"vehicle_type_id":"4","last_reported":1734167366,"current_range_meters":32000,"station_id":"ce4bht12rcd13ifvqi60","pricing_plan_id":"cebpf4jnsgd1na2vs0mg"},{"bike_id":"ca620766-cdf5-479d-94ca-d0735cd44994","system_id":"levelo_inurba_marseille","lat":43.31333,"lon":5.39693,"is_reserved":false,"is_disabled":false,"rental_uris":{"android":"levelo://app?vid=ca620766-cdf5-479d-94ca-d0735cd44994","ios":"levelo://app?vid=ca620766-cdf5-479d-94ca-d0735cd44994"},"vehicle_type_id":"4","last_reported":1734167366,"current_range_meters":28000,"station_id":"ce4bgvp2rcd13ifvqcu0","pricing_plan_id":"cebpf4jnsgd1na2vs0mg"},{"bike_id":"bc77552c-f2bc-4368-bc19-7004372d4910","system_id":"levelo_inurba_marseille","lat":43.31331,"lon":5.39693,"is_reserved":false,"is_disabled":false,"rental_uris":{"android":"levelo://app?vid=bc77552c-f2bc-4368-bc19-7004372d4910","ios":"levelo://app?vid=bc77552c-f2bc-4368-bc19-7004372d4910"},"vehicle_type_id":"4","last_reported":1734167366,"current_range_meters":38800,"station_id":"ce4bgvp2rcd13ifvqcu0","pricing_plan_id":"cebpf4jnsgd1na2vs0mg"},{"bike_id":"773210ee-d19a-4226-90f8-e420da4ce6bd","system_id":"levelo_inurba_marseille","lat":43.30221,"lon":5.40013,"is_reserved":false,"is_disabled":true,"rental_uris":{"android":"levelo://app?vid=773210ee-d19a-4226-90f8-e420da4ce6bd","ios":"levelo://app?vid=773210ee-d19a-4226-90f8-e420da4ce6bd"},"vehicle_type_id":"4","last_reported":1734167366,"current_range_meters":3200,"station_id":"ce4bgvh2rcd13ifvqcs0","pricing_plan_id":"cebpf4jnsgd1na2vs0mg"},{"bike_id":"da345435-a4ab-4142-96e2-d4c3515056c7","system_id":"levelo_inurba_marseille","lat":43.30127,"lon":5.3878,"is_reserved":false,"is_disabled":true,"rental_uris":{"android":"levelo://app?vid=da345435-a4ab-4142-96e2-d4c3515056c7","ios":"levelo://app?vid=da345435-a4ab-4142-96e2-d4c3515056c7"},"vehicle_type_id":"4","last_reported":1734167366,"current_range_meters":0,"station_id":"ce4bghh2rcd13ifvqb60","pricing_plan_id":"cebpf4jnsgd1na2vs0mg"},{"bike_id":"ba184731-b653-4ae1-b0b8-a6609bd6967a","system_id":"levelo_inurba_marseille","lat":43.31562,"lon":5.38386,"is_reserved":false,"is_disabled":false,"rental_uris":{"android":"levelo://app?vid=ba184731-b653-4ae1-b0b8-a6609bd6967a","ios":"levelo://app?vid=ba184731-b653-4ae1-b0b8-a6609bd6967a"},"vehicle_type_id":"4","last_reported":1734167366,"current_range_meters":30000,"station_id":"","pricing_plan_id":"cebpf4jnsgd1na2vs0mg"},{"bike_id":"b750ee56-4330-455b-856b-6377bd0fd668","system_id":"levelo_inurba_marseille","lat":43.28472,"lon":5.38414,"is_reserved":false,"is_disabled":false,"rental_uris":{"android":"levelo://app?vid=b750ee56-4330-455b-856b-6377bd0fd668","ios":"levelo://app?vid=b750ee56-4330-455b-856b-6377bd0fd668"},"vehicle_type_id":"4","last_reported":1734167366,"current_range_meters":36400,"station_id":"ce4bh512rcd13ifvqe3g","pricing_plan_id":"cebpf4jnsgd1na2vs0mg"},{"bike_id":"9ad311dd-c450-4f09-933a-ef53d4559dc3","system_id":"levelo_inurba_marseille","lat":43.26985,"lon":5.39872,"is_reserved":false,"is_disabled":false,"rental_uris":{"android":"levelo://app?vid=9ad311dd-c450-4f09-933a-ef53d4559dc3","ios":"levelo://app?vid=9ad311dd-c450-4f09-933a-ef53d4559dc3"},"vehicle_type_id":"4","last_reported":1734167366,"current_range_meters":27600,"station_id":"","pricing_plan_id":"cebpf4jnsgd1na2vs0mg"},{"bike_id":"b4091530-bbfb-4cba-bc21-d2391d46a284","system_id":"levelo_inurba_marseille","lat":43.28473,"lon":5.38416,"is_reserved":false,"is_disabled":false,"rental_uris":{"android":"levelo://app?vid=b4091530-bbfb-4cba-bc21-d2391d46a284","ios":"levelo://app?vid=b4091530-bbfb-4cba-bc21-d2391d46a284"},"vehicle_type_id":"4","last_reported":1734167366,"current_range_meters":38000,"station_id":"ce4bh512rcd13ifvqe3g","pricing_plan_id":"cebpf4jnsgd1na2vs0mg"},{"bike_id":"fd910433-2801-4559-9b54-94fea46239e5","system_id":"levelo_inurba_marseille","lat":43.24386,"lon":5.37057,"is_reserved":false,"is_disabled":false,"rental_uris":{"android":"levelo://app?vid=fd910433-2801-4559-9b54-94fea46239e5","ios":"levelo://app?vid=fd910433-2801-4559-9b54-94fea46239e5"},"vehicle_type_id":"4","last_reported":1734167366,"current_range_meters":27600,"station_id":"ce4bhhh2rcd13ifvqfk0","pricing_plan_id":"cebpf4jnsgd1na2vs0mg"},{"bike_id":"3787bba6-8a43-4277-afd7-a70b2fecfb32","system_id":"levelo_inurba_marseille","lat":43.27314,"lon":5.39079,"is_reserved":false,"is_disabled":false,"rental_uris":{"android":"levelo://app?vid=3787bba6-8a43-4277-afd7-a70b2fecfb32","ios":"levelo://app?vid=3787bba6-8a43-4277-afd7-a70b2fecfb32"},"vehicle_type_id":"4","last_reported":1734167366,"current_range_meters":39200,"station_id":"ce4bhgp2rcd13ifvqfe0","pricing_plan_id":"cebpf4jnsgd1na2vs0mg"},{"bike_id":"37c9ec90-6a13-47ef-9566-eed70c4d7582","system_id":"levelo_inurba_marseille","lat":43.23188,"lon":5.39991,"is_reserved":false,"is_disabled":false,"rental_uris":{"android":"levelo://app?vid=37c9ec90-6a13-47ef-9566-eed70c4d7582","ios":"levelo://app?vid=37c9ec90-6a13-47ef-9566-eed70c4d7582"},"vehicle_type_id":"4","last_reported":1734167366,"current_range_meters":28000,"station_id":"ce4bhn12rcd13ifvqgqg","pricing_plan_id":"cebpf4jnsgd1na2vs0mg"},{"bike_id":"af67ac53-ba21-4ff0-8334-95679e9ff2cc","system_id":"levelo_inurba_marseille","lat":43.278805,"lon":5.388003,"is_reserved":false,"is_disabled":true,"rental_uris":{"android":"levelo://app?vid=af67ac53-ba21-4ff0-8334-95679e9ff2cc","ios":"levelo://app?vid=af67ac53-ba21-4ff0-8334-95679e9ff2cc"},"vehicle_type_id":"4","last_reported":1734167366,"current_range_meters":2800,"station_id":"","pricing_plan_id":"cebpf4jnsgd1na2vs0mg"},{"bike_id":"c4e1b808-9323-4a68-9008-bebe360163dd","system_id":"levelo_inurba_marseille","lat":43.29279,"lon":5.36844,"is_reserved":false,"is_disabled":false,"rental_uris":{"android":"levelo://app?vid=c4e1b808-9323-4a68-9008-bebe360163dd","ios":"levelo://app?vid=c4e1b808-9323-4a68-9008-bebe360163dd"},"vehicle_type_id":"4","last_reported":1734167366,"current_range_meters":26800,"station_id":"ce4bhbp2rcd13ifvqesg","pricing_plan_id":"cebpf4jnsgd1na2vs0mg"},{"bike_id":"0232408d-292c-41d3-b181-663261afd040","system_id":"levelo_inurba_marseille","lat":43.27462,"lon":5.40949,"is_reserved":false,"is_disabled":false,"rental_uris":{"android":"levelo://app?vid=0232408d-292c-41d3-b181-663261afd040","ios":"levelo://app?vid=0232408d-292c-41d3-b181-663261afd040"},"vehicle_type_id":"4","last_reported":1734167366,"current_range_meters":35200,"station_id":"","pricing_plan_id":"cebpf4jnsgd1na2vs0mg"},{"bike_id":"cb98a1ab-2ec8-4652-aa78-493e8dde5f4a","system_id":"levelo_inurba_marseille","lat":43.28085,"lon":5.39645,"is_reserved":false,"is_disabled":false,"rental_uris":{"android":"levelo://app?vid=cb98a1ab-2ec8-4652-aa78-493e8dde5f4a","ios":"levelo://app?vid=cb98a1ab-2ec8-4652-aa78-493e8dde5f4a"},"vehicle_type_id":"4","last_reported":1734167366,"current_range_meters":6000,"station_id":"ce4bho12rcd13ifvqh2g","pricing_plan_id":"cebpf4jnsgd1na2vs0mg"},{"bike_id":"d8d7ffef-ae54-446a-a28c-8265164b47ce","system_id":"levelo_inurba_marseille","lat":43.29164,"lon":5.43903,"is_reserved":false,"is_disabled":true,"rental_uris":{"android":"levelo://app?vid=d8d7ffef-ae54-446a-a28c-8265164b47ce","ios":"levelo://app?vid=d8d7ffef-ae54-446a-a28c-8265164b47ce"},"vehicle_type_id":"4","last_reported":1734167366,"current_range_meters":26800,"station_id":"","pricing_plan_id":"cebpf4jnsgd1na2vs0mg"},{"bike_id":"9b4b0523-bd2e-4c02-8a7f-68d17a5c480c","system_id":"levelo_inurba_marseille","lat":43.32544,"lon":5.41466,"is_reserved":false,"is_disabled":false,"rental_uris":{"android":"levelo://app?vid=9b4b0523-bd2e-4c02-8a7f-68d17a5c480c","ios":"levelo://app?vid=9b4b0523-bd2e-4c02-8a7f-68d17a5c480c"},"vehicle_type_id":"4","last_reported":1734167366,"current_range_meters":38000,"station_id":"ce4bhq12rcd13ifvqhhg","pricing_plan_id":"cebpf4jnsgd1na2vs0mg"},{"bike_id":"824296fd-e85b-4c3f-9133-8a18c995efa8","system_id":"levelo_inurba_marseille","lat":43.30432,"lon":5.39739,"is_reserved":false,"is_disabled":false,"rental_uris":{"android":"levelo://app?vid=824296fd-e85b-4c3f-9133-8a18c995efa8","ios":"levelo://app?vid=824296fd-e85b-4c3f-9133-8a18c995efa8"},"vehicle_type_id":"4","last_reported":1734167366,"current_range_meters":31200,"station_id":"ce4bh092rcd13ifvqd20","pricing_plan_id":"cebpf4jnsgd1na2vs0mg"},{"bike_id":"d65fcea9-51ba-41f0-86fd-e798dfdd6f09","system_id":"levelo_inurba_marseille","lat":43.28685,"lon":5.38292,"is_reserved":false,"is_disabled":true,"rental_uris":{"android":"levelo://app?vid=d65fcea9-51ba-41f0-86fd-e798dfdd6f09","ios":"levelo://app?vid=d65fcea9-51ba-41f0-86fd-e798dfdd6f09"},"vehicle_type_id":"4","last_reported":1734167366,"current_range_meters":0,"station_id":"","pricing_plan_id":"cebpf4jnsgd1na2vs0mg"},{"bike_id":"49a6aa9c-3f26-4772-a530-877cf89128f2","system_id":"levelo_inurba_marseille","lat":43.29561,"lon":5.37518,"is_reserved":false,"is_disabled":false,"rental_uris":{"android":"levelo://app?vid=49a6aa9c-3f26-4772-a530-877cf89128f2","ios":"levelo://app?vid=49a6aa9c-3f26-4772-a530-877cf89128f2"},"vehicle_type_id":"4","last_reported":1734167366,"current_range_meters":17200,"station_id":"ce4bgh92rcd13ifvqb50","pricing_plan_id":"cebpf4jnsgd1na2vs0mg"},{"bike_id":"3cffa040-7e8b-4d9e-a1bd-b8a78d782447","system_id":"levelo_inurba_marseille","lat":43.314905,"lon":5.373088,"is_reserved":false,"is_disabled":true,"rental_uris":{"android":"levelo://app?vid=3cffa040-7e8b-4d9e-a1bd-b8a78d782447","ios":"levelo://app?vid=3cffa040-7e8b-4d9e-a1bd-b8a78d782447"},"vehicle_type_id":"4","last_reported":1734167366,"current_range_meters":0,"station_id":"","pricing_plan_id":"cebpf4jnsgd1na2vs0mg"},{"bike_id":"73f4bb3e-cb3f-4053-aec8-a4dd16a5364e","system_id":"levelo_inurba_marseille","lat":43.29516,"lon":5.39382,"is_reserved":false,"is_disabled":true,"rental_uris":{"android":"levelo://app?vid=73f4bb3e-cb3f-4053-aec8-a4dd16a5364e","ios":"levelo://app?vid=73f4bb3e-cb3f-4053-aec8-a4dd16a5364e"},"vehicle_type_id":"4","last_reported":1734167366,"current_range_meters":36800,"station_id":"ce4bh292rcd13ifvqdf0","pricing_plan_id":"cebpf4jnsgd1na2vs0mg"},{"bike_id":"a1a9807e-63a7-4da3-be47-68a61ee2e2bf","system_id":"levelo_inurba_marseille","lat":43.28159,"lon":5.42651,"is_reserved":false,"is_disabled":false,"rental_uris":{"android":"levelo://app?vid=a1a9807e-63a7-4da3-be47-68a61ee2e2bf","ios":"levelo://app?vid=a1a9807e-63a7-4da3-be47-68a61ee2e2bf"},"vehicle_type_id":"4","last_reported":1734167366,"current_range_meters":35200,"station_id":"ce4bhnh2rcd13ifvqgug","pricing_plan_id":"cebpf4jnsgd1na2vs0mg"},{"bike_id":"e5007d7d-30da-4cfd-a7f0-3df2adfbe187","system_id":"levelo_inurba_marseille","lat":43.29764,"lon":5.38973,"is_reserved":false,"is_disabled":false,"rental_uris":{"android":"levelo://app?vid=e5007d7d-30da-4cfd-a7f0-3df2adfbe187","ios":"levelo://app?vid=e5007d7d-30da-4cfd-a7f0-3df2adfbe187"},"vehicle_type_id":"4","last_reported":1734167366,"current_range_meters":17600,"station_id":"","pricing_plan_id":"cebpf4jnsgd1na2vs0mg"},{"bike_id":"64203de9-e72b-4d66-9a84-7a315c7ed37f","system_id":"levelo_inurba_marseille","lat":43.294463,"lon":5.374226,"is_reserved":false,"is_disabled":true,"rental_uris":{"android":"levelo://app?vid=64203de9-e72b-4d66-9a84-7a315c7ed37f","ios":"levelo://app?vid=64203de9-e72b-4d66-9a84-7a315c7ed37f"},"vehicle_type_id":"4","last_reported":1734167366,"current_range_meters":0,"station_id":"","pricing_plan_id":"cebpf4jnsgd1na2vs0mg"},{"bike_id":"bacc794f-c2c0-4fa4-966d-2278ee60ff05","system_id":"levelo_inurba_marseille","lat":43.30885,"lon":5.37192,"is_reserved":false,"is_disabled":false,"rental_uris":{"android":"levelo://app?vid=bacc794f-c2c0-4fa4-966d-2278ee60ff05","ios":"levelo://app?vid=bacc794f-c2c0-4fa4-966d-2278ee60ff05"},"vehicle_type_id":"4","last_reported":1734167366,"current_range_meters":32000,"station_id":"ce4bguh2rcd13ifvqckg","pricing_plan_id":"cebpf4jnsgd1na2vs0mg"},{"bike_id":"c6335399-6c9e-42a4-90cb-a0b5ecb13295","system_id":"levelo_inurba_marseille","lat":43.24802,"lon":5.37456,"is_reserved":false,"is_disabled":false,"rental_uris":{"android":"levelo://app?vid=c6335399-6c9e-42a4-90cb-a0b5ecb13295","ios":"levelo://app?vid=c6335399-6c9e-42a4-90cb-a0b5ecb13295"},"vehicle_type_id":"4","last_reported":1734167366,"current_range_meters":38800,"station_id":"ce4bhgh2rcd13ifvqfb0","pricing_plan_id":"cebpf4jnsgd1na2vs0mg"},{"bike_id":"4f004473-e5d0-4467-be65-160bf780b1d3","system_id":"levelo_inurba_marseille","lat":43.30941,"lon":5.39033,"is_reserved":false,"is_disabled":false,"rental_uris":{"android":"levelo://app?vid=4f004473-e5d0-4467-be65-160bf780b1d3","ios":"levelo://app?vid=4f004473-e5d0-4467-be65-160bf780b1d3"},"vehicle_type_id":"4","last_reported":1734167366,"current_range_meters":23200,"station_id":"ce4bgup2rcd13ifvqco0","pricing_plan_id":"cebpf4jnsgd1na2vs0mg"},{"bike_id":"f751d01e-b97c-4606-afb5-56be026ee7fc","system_id":"levelo_inurba_marseille","lat":43.29571,"lon":5.37522,"is_reserved":false,"is_disabled":false,"rental_uris":{"android":"levelo://app?vid=f751d01e-b97c-4606-afb5-56be026ee7fc","ios":"levelo://app?vid=f751d01e-b97c-4606-afb5-56be026ee7fc"},"vehicle_type_id":"4","last_reported":1734167366,"current_range_meters":4800,"station_id":"ce4bgh92rcd13ifvqb50","pricing_plan_id":"cebpf4jnsgd1na2vs0mg"},{"bike_id":"5c23befe-e7d4-4dee-ac43-14eb04f945cb","system_id":"levelo_inurba_marseille","lat":43.30862,"lon":5.37774,"is_reserved":false,"is_disabled":false,"rental_uris":{"android":"levelo://app?vid=5c23befe-e7d4-4dee-ac43-14eb04f945cb","ios":"levelo://app?vid=5c23befe-e7d4-4dee-ac43-14eb04f945cb"},"vehicle_type_id":"4","last_reported":1734167366,"current_range_meters":36800,"station_id":"","pricing_plan_id":"cebpf4jnsgd1na2vs0mg"},{"bike_id":"9e537004-7250-4650-9370-76464cbe54e8","system_id":"levelo_inurba_marseille","lat":43.24183,"lon":5.39725,"is_reserved":false,"is_disabled":false,"rental_uris":{"android":"levelo://app?vid=9e537004-7250-4650-9370-76464cbe54e8","ios":"levelo://app?vid=9e537004-7250-4650-9370-76464cbe54e8"},"vehicle_type_id":"4","last_reported":1734167366,"current_range_meters":37600,"station_id":"ce4bhn12rcd13ifvqgpg","pricing_plan_id":"cebpf4jnsgd1na2vs0mg"},{"bike_id":"5740ae4c-fd14-4007-b1d1-410c1440e7bc","system_id":"levelo_inurba_marseille","lat":43.27306,"lon":5.39075,"is_reserved":false,"is_disabled":true,"rental_uris":{"android":"levelo://app?vid=5740ae4c-fd14-4007-b1d1-410c1440e7bc","ios":"levelo://app?vid=5740ae4c-fd14-4007-b1d1-410c1440e7bc"},"vehicle_type_id":"4","last_reported":1734167366,"current_range_meters":0,"station_id":"ce4bhgp2rcd13ifvqfe0","pricing_plan_id":"cebpf4jnsgd1na2vs0mg"},{"bike_id":"5490374d-b1fe-4cfd-8a84-014e1576cd4c","system_id":"levelo_inurba_marseille","lat":43.31734,"lon":5.42444,"is_reserved":false,"is_disabled":false,"rental_uris":{"android":"levelo://app?vid=5490374d-b1fe-4cfd-8a84-014e1576cd4c","ios":"levelo://app?vid=5490374d-b1fe-4cfd-8a84-014e1576cd4c"},"vehicle_type_id":"4","last_reported":1734167366,"current_range_meters":38000,"station_id":"ce4bhp92rcd13ifvqhbg","pricing_plan_id":"cebpf4jnsgd1na2vs0mg"},{"bike_id":"b948092c-9ab4-45a3-af33-669f10a0ca1c","system_id":"levelo_inurba_marseille","lat":43.24816,"lon":5.37461,"is_reserved":false,"is_disabled":false,"rental_uris":{"android":"levelo://app?vid=b948092c-9ab4-45a3-af33-669f10a0ca1c","ios":"levelo://app?vid=b948092c-9ab4-45a3-af33-669f10a0ca1c"},"vehicle_type_id":"4","last_reported":1734167366,"current_range_meters":33600,"station_id":"ce4bhgh2rcd13ifvqfb0","pricing_plan_id":"cebpf4jnsgd1na2vs0mg"},{"bike_id":"bb6094dd-51eb-4016-a439-f2743865afe4","system_id":"levelo_inurba_marseille","lat":43.30918,"lon":5.37851,"is_reserved":false,"is_disabled":true,"rental_uris":{"android":"levelo://app?vid=bb6094dd-51eb-4016-a439-f2743865afe4","ios":"levelo://app?vid=bb6094dd-51eb-4016-a439-f2743865afe4"},"vehicle_type_id":"4","last_reported":1734167366,"current_range_meters":24000,"station_id":"","pricing_plan_id":"cebpf4jnsgd1na2vs0mg"},{"bike_id":"07154a6e-1aad-4b6f-8cd5-49a1da2b8e24","system_id":"levelo_inurba_marseille","lat":43.23153,"lon":5.43715,"is_reserved":false,"is_disabled":false,"rental_uris":{"android":"levelo://app?vid=07154a6e-1aad-4b6f-8cd5-49a1da2b8e24","ios":"levelo://app?vid=07154a6e-1aad-4b6f-8cd5-49a1da2b8e24"},"vehicle_type_id":"4","last_reported":1734167366,"current_range_meters":11600,"station_id":"ce4bhmp2rcd13ifvqgog","pricing_plan_id":"cebpf4jnsgd1na2vs0mg"},{"bike_id":"ba8f12c3-8b71-40c4-bcdf-43e6c4566d00","system_id":"levelo_inurba_marseille","lat":43.25508,"lon":5.37676,"is_reserved":false,"is_disabled":false,"rental_uris":{"android":"levelo://app?vid=ba8f12c3-8b71-40c4-bcdf-43e6c4566d00","ios":"levelo://app?vid=ba8f12c3-8b71-40c4-bcdf-43e6c4566d00"},"vehicle_type_id":"4","last_reported":1734167366,"current_range_meters":19200,"station_id":"ce4bhh12rcd13ifvqff0","pricing_plan_id":"cebpf4jnsgd1na2vs0mg"},{"bike_id":"e0a31c9a-be2e-435b-b95c-7118ac48c310","system_id":"levelo_inurba_marseille","lat":43.32289,"lon":5.38274,"is_reserved":false,"is_disabled":false,"rental_uris":{"android":"levelo://app?vid=e0a31c9a-be2e-435b-b95c-7118ac48c310","ios":"levelo://app?vid=e0a31c9a-be2e-435b-b95c-7118ac48c310"},"vehicle_type_id":"4","last_reported":1734167366,"current_range_meters":38800,"station_id":"ce4bhr12rcd13ifvqhqg","pricing_plan_id":"cebpf4jnsgd1na2vs0mg"},{"bike_id":"b169b590-37a0-4ccd-8191-68e20c453cd8","system_id":"levelo_inurba_marseille","lat":43.293,"lon":5.37166,"is_reserved":false,"is_disabled":false,"rental_uris":{"android":"levelo://app?vid=b169b590-37a0-4ccd-8191-68e20c453cd8","ios":"levelo://app?vid=b169b590-37a0-4ccd-8191-68e20c453cd8"},"vehicle_type_id":"4","last_reported":1734167366,"current_range_meters":36000,"station_id":"ce4bgh92rcd13ifvqb40","pricing_plan_id":"cebpf4jnsgd1na2vs0mg"},{"bike_id":"818ef841-d8c0-4c92-9c0c-4a12654cda95","system_id":"levelo_inurba_marseille","lat":43.30581,"lon":5.37222,"is_reserved":false,"is_disabled":false,"rental_uris":{"android":"levelo://app?vid=818ef841-d8c0-4c92-9c0c-4a12654cda95","ios":"levelo://app?vid=818ef841-d8c0-4c92-9c0c-4a12654cda95"},"vehicle_type_id":"4","last_reported":1734167366,"current_range_meters":26800,"station_id":"ce4bgqh2rcd13ifvqc4g","pricing_plan_id":"cebpf4jnsgd1na2vs0mg"},{"bike_id":"18795326-0342-4aca-98ba-9a03d5183efb","system_id":"levelo_inurba_marseille","lat":43.31681,"lon":5.37787,"is_reserved":false,"is_disabled":false,"rental_uris":{"android":"levelo://app?vid=18795326-0342-4aca-98ba-9a03d5183efb","ios":"levelo://app?vid=18795326-0342-4aca-98ba-9a03d5183efb"},"vehicle_type_id":"4","last_reported":1734167366,"current_range_meters":38800,"station_id":"ce4bgth2rcd13ifvqch0","pricing_plan_id":"cebpf4jnsgd1na2vs0mg"},{"bike_id":"3ed89ca5-2cfd-4327-8499-d1edbb77f57c","system_id":"levelo_inurba_marseille","lat":43.2408,"lon":5.37744,"is_reserved":false,"is_disabled":false,"rental_uris":{"android":"levelo://app?vid=3ed89ca5-2cfd-4327-8499-d1edbb77f57c","ios":"levelo://app?vid=3ed89ca5-2cfd-4327-8499-d1edbb77f57c"},"vehicle_type_id":"4","last_reported":1734167366,"current_range_meters":38800,"station_id":"","pricing_plan_id":"cebpf4jnsgd1na2vs0mg"},{"bike_id":"bcbb4019-1248-49bc-95c6-50491d8f3248","system_id":"levelo_inurba_marseille","lat":43.29864,"lon":5.39735,"is_reserved":false,"is_disabled":false,"rental_uris":{"android":"levelo://app?vid=bcbb4019-1248-49bc-95c6-50491d8f3248","ios":"levelo://app?vid=bcbb4019-1248-49bc-95c6-50491d8f3248"},"vehicle_type_id":"4","last_reported":1734167366,"current_range_meters":38000,"station_id":"ce4bh0h2rcd13ifvqd50","pricing_plan_id":"cebpf4jnsgd1na2vs0mg"},{"bike_id":"cb88792c-61e1-45a7-8354-2daa848fb721","system_id":"levelo_inurba_marseille","lat":43.29573,"lon":5.37512,"is_reserved":false,"is_disabled":false,"rental_uris":{"android":"levelo://app?vid=cb88792c-61e1-45a7-8354-2daa848fb721","ios":"levelo://app?vid=cb88792c-61e1-45a7-8354-2daa848fb721"},"vehicle_type_id":"4","last_reported":1734167366,"current_range_meters":9200,"station_id":"ce4bgh92rcd13ifvqb50","pricing_plan_id":"cebpf4jnsgd1na2vs0mg"},{"bike_id":"915b1324-cf09-4d52-a36f-58bb08e14eca","system_id":"levelo_inurba_marseille","lat":43.31069,"lon":5.38347,"is_reserved":false,"is_disabled":false,"rental_uris":{"android":"levelo://app?vid=915b1324-cf09-4d52-a36f-58bb08e14eca","ios":"levelo://app?vid=915b1324-cf09-4d52-a36f-58bb08e14eca"},"vehicle_type_id":"4","last_reported":1734167366,"current_range_meters":36800,"station_id":"ce4bgv92rcd13ifvqcr0","pricing_plan_id":"cebpf4jnsgd1na2vs0mg"},{"bike_id":"cf1dbfe9-2fcb-42e2-b23a-1f564b284913","system_id":"levelo_inurba_marseille","lat":43.30779,"lon":5.37402,"is_reserved":false,"is_disabled":false,"rental_uris":{"android":"levelo://app?vid=cf1dbfe9-2fcb-42e2-b23a-1f564b284913","ios":"levelo://app?vid=cf1dbfe9-2fcb-42e2-b23a-1f564b284913"},"vehicle_type_id":"4","last_reported":1734167366,"current_range_meters":34800,"station_id":"","pricing_plan_id":"cebpf4jnsgd1na2vs0mg"},{"bike_id":"1e267932-f6c6-4991-9c6b-8abf107c1a22","system_id":"levelo_inurba_marseille","lat":43.32281,"lon":5.38268,"is_reserved":false,"is_disabled":false,"rental_uris":{"android":"levelo://app?vid=1e267932-f6c6-4991-9c6b-8abf107c1a22","ios":"levelo://app?vid=1e267932-f6c6-4991-9c6b-8abf107c1a22"},"vehicle_type_id":"4","last_reported":1734167366,"current_range_meters":38400,"station_id":"ce4bhr12rcd13ifvqhqg","pricing_plan_id":"cebpf4jnsgd1na2vs0mg"},{"bike_id":"e78ef9e7-97fd-4421-8d9c-81c8a1f5858f","system_id":"levelo_inurba_marseille","lat":43.27323,"lon":5.39073,"is_reserved":false,"is_disabled":false,"rental_uris":{"android":"levelo://app?vid=e78ef9e7-97fd-4421-8d9c-81c8a1f5858f","ios":"levelo://app?vid=e78ef9e7-97fd-4421-8d9c-81c8a1f5858f"},"vehicle_type_id":"4","last_reported":1734167366,"current_range_meters":26800,"station_id":"ce4bhgp2rcd13ifvqfe0","pricing_plan_id":"cebpf4jnsgd1na2vs0mg"},{"bike_id":"b581ae17-510b-4f67-90c1-bf69fba53807","system_id":"levelo_inurba_marseille","lat":43.2707,"lon":5.42281,"is_reserved":false,"is_disabled":false,"rental_uris":{"android":"levelo://app?vid=b581ae17-510b-4f67-90c1-bf69fba53807","ios":"levelo://app?vid=b581ae17-510b-4f67-90c1-bf69fba53807"},"vehicle_type_id":"4","last_reported":1734167366,"current_range_meters":38800,"station_id":"ce4bhk92rcd13ifvqgb0","pricing_plan_id":"cebpf4jnsgd1na2vs0mg"},{"bike_id":"21b390a6-5849-4185-8e0b-7994a2957405","system_id":"levelo_inurba_marseille","lat":43.26033,"lon":5.37543,"is_reserved":false,"is_disabled":true,"rental_uris":{"android":"levelo://app?vid=21b390a6-5849-4185-8e0b-7994a2957405","ios":"levelo://app?vid=21b390a6-5849-4185-8e0b-7994a2957405"},"vehicle_type_id":"4","last_reported":1734167366,"current_range_meters":22000,"station_id":"","pricing_plan_id":"cebpf4jnsgd1na2vs0mg"},{"bike_id":"6bc7401a-ad66-4e4d-bfd6-a954bc5b40c0","system_id":"levelo_inurba_marseille","lat":43.33257,"lon":5.37579,"is_reserved":false,"is_disabled":false,"rental_uris":{"android":"levelo://app?vid=6bc7401a-ad66-4e4d-bfd6-a954bc5b40c0","ios":"levelo://app?vid=6bc7401a-ad66-4e4d-bfd6-a954bc5b40c0"},"vehicle_type_id":"4","last_reported":1734167366,"current_range_meters":38000,"station_id":"","pricing_plan_id":"cebpf4jnsgd1na2vs0mg"},{"bike_id":"ad80be8a-0d56-4d71-86a8-4e0070080b74","system_id":"levelo_inurba_marseille","lat":43.30278,"lon":5.37708,"is_reserved":false,"is_disabled":false,"rental_uris":{"android":"levelo://app?vid=ad80be8a-0d56-4d71-86a8-4e0070080b74","ios":"levelo://app?vid=ad80be8a-0d56-4d71-86a8-4e0070080b74"},"vehicle_type_id":"4","last_reported":1734167366,"current_range_meters":36800,"station_id":"ce4bguh2rcd13ifvqcj0","pricing_plan_id":"cebpf4jnsgd1na2vs0mg"},{"bike_id":"28fc90b9-3e7b-4c11-b6c2-40d95902dadd","system_id":"levelo_inurba_marseille","lat":43.22938,"lon":5.35382,"is_reserved":false,"is_disabled":false,"rental_uris":{"android":"levelo://app?vid=28fc90b9-3e7b-4c11-b6c2-40d95902dadd","ios":"levelo://app?vid=28fc90b9-3e7b-4c11-b6c2-40d95902dadd"},"vehicle_type_id":"4","last_reported":1734167366,"current_range_meters":39200,"station_id":"cpo3532slgdg3j2ikp40","pricing_plan_id":"cebpf4jnsgd1na2vs0mg"},{"bike_id":"8433f848-247d-4700-9f40-ca5bca59233f","system_id":"levelo_inurba_marseille","lat":43.31692,"lon":5.40491,"is_reserved":false,"is_disabled":false,"rental_uris":{"android":"levelo://app?vid=8433f848-247d-4700-9f40-ca5bca59233f","ios":"levelo://app?vid=8433f848-247d-4700-9f40-ca5bca59233f"},"vehicle_type_id":"4","last_reported":1734167366,"current_range_meters":25600,"station_id":"ce4bh012rcd13ifvqd00","pricing_plan_id":"cebpf4jnsgd1na2vs0mg"},{"bike_id":"4c7d9e81-6746-4154-bf7e-b7b01c8ce185","system_id":"levelo_inurba_marseille","lat":43.3053,"lon":5.36702,"is_reserved":false,"is_disabled":false,"rental_uris":{"android":"levelo://app?vid=4c7d9e81-6746-4154-bf7e-b7b01c8ce185","ios":"levelo://app?vid=4c7d9e81-6746-4154-bf7e-b7b01c8ce185"},"vehicle_type_id":"4","last_reported":1734167366,"current_range_meters":36400,"station_id":"ce4bgrp2rcd13ifvqc9g","pricing_plan_id":"cebpf4jnsgd1na2vs0mg"},{"bike_id":"328be319-f516-4a4a-a1c3-b94ff5850e24","system_id":"levelo_inurba_marseille","lat":43.27932,"lon":5.38737,"is_reserved":false,"is_disabled":false,"rental_uris":{"android":"levelo://app?vid=328be319-f516-4a4a-a1c3-b94ff5850e24","ios":"levelo://app?vid=328be319-f516-4a4a-a1c3-b94ff5850e24"},"vehicle_type_id":"4","last_reported":1734167366,"current_range_meters":38800,"station_id":"ce4bhg12rcd13ifvqf80","pricing_plan_id":"cebpf4jnsgd1na2vs0mg"},{"bike_id":"eb1496f4-67ed-47fd-8660-60023378367f","system_id":"levelo_inurba_marseille","lat":43.294212,"lon":5.374322,"is_reserved":false,"is_disabled":true,"rental_uris":{"android":"levelo://app?vid=eb1496f4-67ed-47fd-8660-60023378367f","ios":"levelo://app?vid=eb1496f4-67ed-47fd-8660-60023378367f"},"vehicle_type_id":"4","last_reported":1734167366,"current_range_meters":0,"station_id":"","pricing_plan_id":"cebpf4jnsgd1na2vs0mg"},{"bike_id":"edd07c02-9936-4457-bd98-063c892656f8","system_id":"levelo_inurba_marseille","lat":43.3103,"lon":5.37461,"is_reserved":false,"is_disabled":false,"rental_uris":{"android":"levelo://app?vid=edd07c02-9936-4457-bd98-063c892656f8","ios":"levelo://app?vid=edd07c02-9936-4457-bd98-063c892656f8"},"vehicle_type_id":"4","last_reported":1734167366,"current_range_meters":8800,"station_id":"","pricing_plan_id":"cebpf4jnsgd1na2vs0mg"},{"bike_id":"a2e3bf37-f1e5-4b35-adeb-0da3e0fe69d3","system_id":"levelo_inurba_marseille","lat":43.28625,"lon":5.38606,"is_reserved":false,"is_disabled":true,"rental_uris":{"android":"levelo://app?vid=a2e3bf37-f1e5-4b35-adeb-0da3e0fe69d3","ios":"levelo://app?vid=a2e3bf37-f1e5-4b35-adeb-0da3e0fe69d3"},"vehicle_type_id":"4","last_reported":1734167366,"current_range_meters":0,"station_id":"","pricing_plan_id":"cebpf4jnsgd1na2vs0mg"},{"bike_id":"e865a787-1a2d-439b-94ff-b4a607ec8874","system_id":"levelo_inurba_marseille","lat":43.30471,"lon":5.37907,"is_reserved":false,"is_disabled":false,"rental_uris":{"android":"levelo://app?vid=e865a787-1a2d-439b-94ff-b4a607ec8874","ios":"levelo://app?vid=e865a787-1a2d-439b-94ff-b4a607ec8874"},"vehicle_type_id":"4","last_reported":1734167366,"current_range_meters":28800,"station_id":"ce4bgup2rcd13ifvqcn0","pricing_plan_id":"cebpf4jnsgd1na2vs0mg"},{"bike_id":"65457678-d3fc-4f55-93a8-5c6c4dd8f581","system_id":"levelo_inurba_marseille","lat":43.26941,"lon":5.40261,"is_reserved":false,"is_disabled":false,"rental_uris":{"android":"levelo://app?vid=65457678-d3fc-4f55-93a8-5c6c4dd8f581","ios":"levelo://app?vid=65457678-d3fc-4f55-93a8-5c6c4dd8f581"},"vehicle_type_id":"4","last_reported":1734167366,"current_range_meters":38000,"station_id":"cjm6bp8fraef2m0cb0m0","pricing_plan_id":"cebpf4jnsgd1na2vs0mg"},{"bike_id":"bdbbe775-4e15-4ea8-acd5-8b142dd9da55","system_id":"levelo_inurba_marseille","lat":43.30501,"lon":5.37918,"is_reserved":false,"is_disabled":false,"rental_uris":{"android":"levelo://app?vid=bdbbe775-4e15-4ea8-acd5-8b142dd9da55","ios":"levelo://app?vid=bdbbe775-4e15-4ea8-acd5-8b142dd9da55"},"vehicle_type_id":"4","last_reported":1734167366,"current_range_meters":32800,"station_id":"ce4bgup2rcd13ifvqcn0","pricing_plan_id":"cebpf4jnsgd1na2vs0mg"},{"bike_id":"ec927667-9164-479a-b446-395f55c955bb","system_id":"levelo_inurba_marseille","lat":43.22914,"lon":5.35376,"is_reserved":false,"is_disabled":false,"rental_uris":{"android":"levelo://app?vid=ec927667-9164-479a-b446-395f55c955bb","ios":"levelo://app?vid=ec927667-9164-479a-b446-395f55c955bb"},"vehicle_type_id":"4","last_reported":1734167366,"current_range_meters":39200,"station_id":"cpo3532slgdg3j2ikp40","pricing_plan_id":"cebpf4jnsgd1na2vs0mg"},{"bike_id":"b54aec7b-a777-4a9a-b153-5c752d52ad37","system_id":"levelo_inurba_marseille","lat":43.34139,"lon":5.40897,"is_reserved":false,"is_disabled":false,"rental_uris":{"android":"levelo://app?vid=b54aec7b-a777-4a9a-b153-5c752d52ad37","ios":"levelo://app?vid=b54aec7b-a777-4a9a-b153-5c752d52ad37"},"vehicle_type_id":"4","last_reported":1734167366,"current_range_meters":37600,"station_id":"ce4bhqh2rcd13ifvqhlg","pricing_plan_id":"cebpf4jnsgd1na2vs0mg"},{"bike_id":"e171553a-d499-40c6-b158-4c1c9a0d09dc","system_id":"levelo_inurba_marseille","lat":43.27195,"lon":5.40993,"is_reserved":false,"is_disabled":false,"rental_uris":{"android":"levelo://app?vid=e171553a-d499-40c6-b158-4c1c9a0d09dc","ios":"levelo://app?vid=e171553a-d499-40c6-b158-4c1c9a0d09dc"},"vehicle_type_id":"4","last_reported":1734167366,"current_range_meters":38800,"station_id":"ce4bhl12rcd13ifvqgf0","pricing_plan_id":"cebpf4jnsgd1na2vs0mg"},{"bike_id":"0dc06d98-8255-4fa2-8fed-50e915967d5b","system_id":"levelo_inurba_marseille","lat":43.28001,"lon":5.40011,"is_reserved":false,"is_disabled":false,"rental_uris":{"android":"levelo://app?vid=0dc06d98-8255-4fa2-8fed-50e915967d5b","ios":"levelo://app?vid=0dc06d98-8255-4fa2-8fed-50e915967d5b"},"vehicle_type_id":"4","last_reported":1734167366,"current_range_meters":25200,"station_id":"ce4bho92rcd13ifvqh4g","pricing_plan_id":"cebpf4jnsgd1na2vs0mg"},{"bike_id":"a02bce7c-288c-46c0-a9fd-8aa8e0178c35","system_id":"levelo_inurba_marseille","lat":43.23197,"lon":5.35557,"is_reserved":false,"is_disabled":false,"rental_uris":{"android":"levelo://app?vid=a02bce7c-288c-46c0-a9fd-8aa8e0178c35","ios":"levelo://app?vid=a02bce7c-288c-46c0-a9fd-8aa8e0178c35"},"vehicle_type_id":"4","last_reported":1734167366,"current_range_meters":25200,"station_id":"ce4bhu92rcd13ifvqi70","pricing_plan_id":"cebpf4jnsgd1na2vs0mg"},{"bike_id":"4d13df5a-7564-4780-a61b-d047c072ffad","system_id":"levelo_inurba_marseille","lat":43.30198,"lon":5.39467,"is_reserved":false,"is_disabled":false,"rental_uris":{"android":"levelo://app?vid=4d13df5a-7564-4780-a61b-d047c072ffad","ios":"levelo://app?vid=4d13df5a-7564-4780-a61b-d047c072ffad"},"vehicle_type_id":"4","last_reported":1734167366,"current_range_meters":30400,"station_id":"ce4bh0p2rcd13ifvqd70","pricing_plan_id":"cebpf4jnsgd1na2vs0mg"},{"bike_id":"2c326f70-e094-461c-a8e6-0ad37c81576d","system_id":"levelo_inurba_marseille","lat":43.29872,"lon":5.38887,"is_reserved":false,"is_disabled":false,"rental_uris":{"android":"levelo://app?vid=2c326f70-e094-461c-a8e6-0ad37c81576d","ios":"levelo://app?vid=2c326f70-e094-461c-a8e6-0ad37c81576d"},"vehicle_type_id":"4","last_reported":1734167366,"current_range_meters":32400,"station_id":"ce4bh392rcd13ifvqdl0","pricing_plan_id":"cebpf4jnsgd1na2vs0mg"},{"bike_id":"016e1712-3ed0-4538-ac7a-0670ad343bff","system_id":"levelo_inurba_marseille","lat":43.31081,"lon":5.38354,"is_reserved":false,"is_disabled":false,"rental_uris":{"android":"levelo://app?vid=016e1712-3ed0-4538-ac7a-0670ad343bff","ios":"levelo://app?vid=016e1712-3ed0-4538-ac7a-0670ad343bff"},"vehicle_type_id":"4","last_reported":1734167366,"current_range_meters":37600,"station_id":"ce4bgv92rcd13ifvqcr0","pricing_plan_id":"cebpf4jnsgd1na2vs0mg"},{"bike_id":"754dabc8-ac8f-48ae-82f6-e1ceb3f825e1","system_id":"levelo_inurba_marseille","lat":43.31719,"lon":5.43715,"is_reserved":false,"is_disabled":false,"rental_uris":{"android":"levelo://app?vid=754dabc8-ac8f-48ae-82f6-e1ceb3f825e1","ios":"levelo://app?vid=754dabc8-ac8f-48ae-82f6-e1ceb3f825e1"},"vehicle_type_id":"4","last_reported":1734167366,"current_range_meters":38800,"station_id":"ce4bhp92rcd13ifvqhcg","pricing_plan_id":"cebpf4jnsgd1na2vs0mg"},{"bike_id":"5a3f8e23-bf68-4d5f-8ce8-b1c61fccac26","system_id":"levelo_inurba_marseille","lat":43.26559,"lon":5.37284,"is_reserved":false,"is_disabled":false,"rental_uris":{"android":"levelo://app?vid=5a3f8e23-bf68-4d5f-8ce8-b1c61fccac26","ios":"levelo://app?vid=5a3f8e23-bf68-4d5f-8ce8-b1c61fccac26"},"vehicle_type_id":"4","last_reported":1734167366,"current_range_meters":27600,"station_id":"ce4bhg12rcd13ifvqf70","pricing_plan_id":"cebpf4jnsgd1na2vs0mg"},{"bike_id":"fd12253f-5beb-47b8-ae4f-33f5f5761a8c","system_id":"levelo_inurba_marseille","lat":43.27223,"lon":5.392,"is_reserved":false,"is_disabled":false,"rental_uris":{"android":"levelo://app?vid=fd12253f-5beb-47b8-ae4f-33f5f5761a8c","ios":"levelo://app?vid=fd12253f-5beb-47b8-ae4f-33f5f5761a8c"},"vehicle_type_id":"4","last_reported":1734167366,"current_range_meters":21600,"station_id":"ce4bhhp2rcd13ifvqfm0","pricing_plan_id":"cebpf4jnsgd1na2vs0mg"},{"bike_id":"e3dc2a76-65cc-4342-93a7-42bc67d7e1e0","system_id":"levelo_inurba_marseille","lat":43.316888,"lon":5.404783,"is_reserved":false,"is_disabled":false,"rental_uris":{"android":"levelo://app?vid=e3dc2a76-65cc-4342-93a7-42bc67d7e1e0","ios":"levelo://app?vid=e3dc2a76-65cc-4342-93a7-42bc67d7e1e0"},"vehicle_type_id":"4","last_reported":1734167366,"current_range_meters":38800,"station_id":"ce4bh012rcd13ifvqd00","pricing_plan_id":"cebpf4jnsgd1na2vs0mg"},{"bike_id":"fa90612f-7cb7-4169-894f-6478ec30bfe6","system_id":"levelo_inurba_marseille","lat":43.295581,"lon":5.422805,"is_reserved":false,"is_disabled":false,"rental_uris":{"android":"levelo://app?vid=fa90612f-7cb7-4169-894f-6478ec30bfe6","ios":"levelo://app?vid=fa90612f-7cb7-4169-894f-6478ec30bfe6"},"vehicle_type_id":"4","last_reported":1734167366,"current_range_meters":38800,"station_id":"ce4bhph2rcd13ifvqhdg","pricing_plan_id":"cebpf4jnsgd1na2vs0mg"},{"bike_id":"4a2ae887-1d68-4b08-92ee-5eee001f16f7","system_id":"levelo_inurba_marseille","lat":43.29786,"lon":5.38114,"is_reserved":false,"is_disabled":false,"rental_uris":{"android":"levelo://app?vid=4a2ae887-1d68-4b08-92ee-5eee001f16f7","ios":"levelo://app?vid=4a2ae887-1d68-4b08-92ee-5eee001f16f7"},"vehicle_type_id":"4","last_reported":1734167366,"current_range_meters":32000,"station_id":"ce4bgip2rcd13ifvqbb0","pricing_plan_id":"cebpf4jnsgd1na2vs0mg"},{"bike_id":"05cdc6b8-3252-45de-9f37-2a4f692a2e4e","system_id":"levelo_inurba_marseille","lat":43.28611,"lon":5.37064,"is_reserved":false,"is_disabled":false,"rental_uris":{"android":"levelo://app?vid=05cdc6b8-3252-45de-9f37-2a4f692a2e4e","ios":"levelo://app?vid=05cdc6b8-3252-45de-9f37-2a4f692a2e4e"},"vehicle_type_id":"4","last_reported":1734167366,"current_range_meters":35200,"station_id":"ce4bht12rcd13ifvqi60","pricing_plan_id":"cebpf4jnsgd1na2vs0mg"},{"bike_id":"826e650e-34b9-4f76-acac-dc38867f5097","system_id":"levelo_inurba_marseille","lat":43.29364,"lon":5.37875,"is_reserved":false,"is_disabled":false,"rental_uris":{"android":"levelo://app?vid=826e650e-34b9-4f76-acac-dc38867f5097","ios":"levelo://app?vid=826e650e-34b9-4f76-acac-dc38867f5097"},"vehicle_type_id":"4","last_reported":1734167366,"current_range_meters":32000,"station_id":"ce4bgjh2rcd13ifvqbf0","pricing_plan_id":"cebpf4jnsgd1na2vs0mg"},{"bike_id":"2ded2c60-00dd-42f2-8c27-fa639f378fda","system_id":"levelo_inurba_marseille","lat":43.25505,"lon":5.37658,"is_reserved":false,"is_disabled":false,"rental_uris":{"android":"levelo://app?vid=2ded2c60-00dd-42f2-8c27-fa639f378fda","ios":"levelo://app?vid=2ded2c60-00dd-42f2-8c27-fa639f378fda"},"vehicle_type_id":"4","last_reported":1734167366,"current_range_meters":38800,"station_id":"ce4bhh12rcd13ifvqff0","pricing_plan_id":"cebpf4jnsgd1na2vs0mg"},{"bike_id":"abe250a1-3d26-47a1-bae8-73bf3354b17a","system_id":"levelo_inurba_marseille","lat":43.27199,"lon":5.4099,"is_reserved":false,"is_disabled":false,"rental_uris":{"android":"levelo://app?vid=abe250a1-3d26-47a1-bae8-73bf3354b17a","ios":"levelo://app?vid=abe250a1-3d26-47a1-bae8-73bf3354b17a"},"vehicle_type_id":"4","last_reported":1734167366,"current_range_meters":11600,"station_id":"ce4bhl12rcd13ifvqgf0","pricing_plan_id":"cebpf4jnsgd1na2vs0mg"},{"bike_id":"ddd45005-b743-4932-8bc1-8601586aefd3","system_id":"levelo_inurba_marseille","lat":43.262,"lon":5.37456,"is_reserved":false,"is_disabled":false,"rental_uris":{"android":"levelo://app?vid=ddd45005-b743-4932-8bc1-8601586aefd3","ios":"levelo://app?vid=ddd45005-b743-4932-8bc1-8601586aefd3"},"vehicle_type_id":"4","last_reported":1734167366,"current_range_meters":36800,"station_id":"","pricing_plan_id":"cebpf4jnsgd1na2vs0mg"},{"bike_id":"ce9f2ae6-d005-47e2-a1b4-8674b1b9254b","system_id":"levelo_inurba_marseille","lat":43.30153,"lon":5.38075,"is_reserved":false,"is_disabled":false,"rental_uris":{"android":"levelo://app?vid=ce9f2ae6-d005-47e2-a1b4-8674b1b9254b","ios":"levelo://app?vid=ce9f2ae6-d005-47e2-a1b4-8674b1b9254b"},"vehicle_type_id":"4","last_reported":1734167366,"current_range_meters":38800,"station_id":"ce4bgjp2rcd13ifvqbh0","pricing_plan_id":"cebpf4jnsgd1na2vs0mg"},{"bike_id":"bad09c18-7711-41ee-bbb5-b5fd34fb1d4d","system_id":"levelo_inurba_marseille","lat":43.27175,"lon":5.40988,"is_reserved":false,"is_disabled":false,"rental_uris":{"android":"levelo://app?vid=bad09c18-7711-41ee-bbb5-b5fd34fb1d4d","ios":"levelo://app?vid=bad09c18-7711-41ee-bbb5-b5fd34fb1d4d"},"vehicle_type_id":"4","last_reported":1734167366,"current_range_meters":38800,"station_id":"ce4bhl12rcd13ifvqgf0","pricing_plan_id":"cebpf4jnsgd1na2vs0mg"},{"bike_id":"d2a0b895-cddb-4c91-8025-52871ff8256e","system_id":"levelo_inurba_marseille","lat":43.32227,"lon":5.38958,"is_reserved":false,"is_disabled":true,"rental_uris":{"android":"levelo://app?vid=d2a0b895-cddb-4c91-8025-52871ff8256e","ios":"levelo://app?vid=d2a0b895-cddb-4c91-8025-52871ff8256e"},"vehicle_type_id":"4","last_reported":1734167366,"current_range_meters":38800,"station_id":"","pricing_plan_id":"cebpf4jnsgd1na2vs0mg"},{"bike_id":"cd89c30f-0e26-417f-8a33-4c56a2e036f7","system_id":"levelo_inurba_marseille","lat":43.28115,"lon":5.37856,"is_reserved":false,"is_disabled":false,"rental_uris":{"android":"levelo://app?vid=cd89c30f-0e26-417f-8a33-4c56a2e036f7","ios":"levelo://app?vid=cd89c30f-0e26-417f-8a33-4c56a2e036f7"},"vehicle_type_id":"4","last_reported":1734167366,"current_range_meters":33200,"station_id":"ce4bha12rcd13ifvqee0","pricing_plan_id":"cebpf4jnsgd1na2vs0mg"},{"bike_id":"75506391-a12b-4ce2-997a-eff08551addc","system_id":"levelo_inurba_marseille","lat":43.23103,"lon":5.35438,"is_reserved":false,"is_disabled":false,"rental_uris":{"android":"levelo://app?vid=75506391-a12b-4ce2-997a-eff08551addc","ios":"levelo://app?vid=75506391-a12b-4ce2-997a-eff08551addc"},"vehicle_type_id":"4","last_reported":1734167366,"current_range_meters":37600,"station_id":"cpo3342slgdg3j2ifvpg","pricing_plan_id":"cebpf4jnsgd1na2vs0mg"},{"bike_id":"c9386dd6-8f0b-425f-ba06-4c88cbc1f623","system_id":"levelo_inurba_marseille","lat":43.25504,"lon":5.37641,"is_reserved":false,"is_disabled":false,"rental_uris":{"android":"levelo://app?vid=c9386dd6-8f0b-425f-ba06-4c88cbc1f623","ios":"levelo://app?vid=c9386dd6-8f0b-425f-ba06-4c88cbc1f623"},"vehicle_type_id":"4","last_reported":1734167366,"current_range_meters":39200,"station_id":"ce4bhh12rcd13ifvqff0","pricing_plan_id":"cebpf4jnsgd1na2vs0mg"},{"bike_id":"6c830cae-1d39-4427-83df-0f399f07e05e","system_id":"levelo_inurba_marseille","lat":43.279729,"lon":5.410391,"is_reserved":false,"is_disabled":false,"rental_uris":{"android":"levelo://app?vid=6c830cae-1d39-4427-83df-0f399f07e05e","ios":"levelo://app?vid=6c830cae-1d39-4427-83df-0f399f07e05e"},"vehicle_type_id":"4","last_reported":1734167366,"current_range_meters":34000,"station_id":"ce4bhnp2rcd13ifvqh0g","pricing_plan_id":"cebpf4jnsgd1na2vs0mg"},{"bike_id":"0dc53ed0-703c-41c7-a7ba-e5fe121ea6cc","system_id":"levelo_inurba_marseille","lat":43.28939,"lon":5.37878,"is_reserved":false,"is_disabled":false,"rental_uris":{"android":"levelo://app?vid=0dc53ed0-703c-41c7-a7ba-e5fe121ea6cc","ios":"levelo://app?vid=0dc53ed0-703c-41c7-a7ba-e5fe121ea6cc"},"vehicle_type_id":"4","last_reported":1734167366,"current_range_meters":30000,"station_id":"","pricing_plan_id":"cebpf4jnsgd1na2vs0mg"},{"bike_id":"df2f3eeb-9fe8-413a-adf8-6ceecc0cf229","system_id":"levelo_inurba_marseille","lat":43.30206,"lon":5.39471,"is_reserved":false,"is_disabled":false,"rental_uris":{"android":"levelo://app?vid=df2f3eeb-9fe8-413a-adf8-6ceecc0cf229","ios":"levelo://app?vid=df2f3eeb-9fe8-413a-adf8-6ceecc0cf229"},"vehicle_type_id":"4","last_reported":1734167366,"current_range_meters":35600,"station_id":"ce4bh0p2rcd13ifvqd70","pricing_plan_id":"cebpf4jnsgd1na2vs0mg"},{"bike_id":"f0688521-339d-4b11-98b4-8b413dfcdc75","system_id":"levelo_inurba_marseille","lat":43.30238,"lon":5.40059,"is_reserved":false,"is_disabled":true,"rental_uris":{"android":"levelo://app?vid=f0688521-339d-4b11-98b4-8b413dfcdc75","ios":"levelo://app?vid=f0688521-339d-4b11-98b4-8b413dfcdc75"},"vehicle_type_id":"4","last_reported":1734167366,"current_range_meters":22000,"station_id":"ce4bgvh2rcd13ifvqcs0","pricing_plan_id":"cebpf4jnsgd1na2vs0mg"},{"bike_id":"c75bddd8-53e9-48da-b5b5-42395c8f7395","system_id":"levelo_inurba_marseille","lat":43.33729,"lon":5.39176,"is_reserved":false,"is_disabled":false,"rental_uris":{"android":"levelo://app?vid=c75bddd8-53e9-48da-b5b5-42395c8f7395","ios":"levelo://app?vid=c75bddd8-53e9-48da-b5b5-42395c8f7395"},"vehicle_type_id":"4","last_reported":1734167366,"current_range_meters":38400,"station_id":"ce4bhr92rcd13ifvqhsg","pricing_plan_id":"cebpf4jnsgd1na2vs0mg"},{"bike_id":"be3d60a6-6fb6-4cc8-81d6-6fe96ff5ee23","system_id":"levelo_inurba_marseille","lat":43.23064,"lon":5.35496,"is_reserved":false,"is_disabled":false,"rental_uris":{"android":"levelo://app?vid=be3d60a6-6fb6-4cc8-81d6-6fe96ff5ee23","ios":"levelo://app?vid=be3d60a6-6fb6-4cc8-81d6-6fe96ff5ee23"},"vehicle_type_id":"4","last_reported":1734167366,"current_range_meters":36400,"station_id":"cpo3342slgdg3j2ifvpg","pricing_plan_id":"cebpf4jnsgd1na2vs0mg"},{"bike_id":"d4729cb9-601b-4fe4-abb4-aa409455fcdd","system_id":"levelo_inurba_marseille","lat":43.26221,"lon":5.37507,"is_reserved":false,"is_disabled":false,"rental_uris":{"android":"levelo://app?vid=d4729cb9-601b-4fe4-abb4-aa409455fcdd","ios":"levelo://app?vid=d4729cb9-601b-4fe4-abb4-aa409455fcdd"},"vehicle_type_id":"4","last_reported":1734167366,"current_range_meters":33600,"station_id":"ce4bhgp2rcd13ifvqfc0","pricing_plan_id":"cebpf4jnsgd1na2vs0mg"},{"bike_id":"1fe4a372-4453-497e-b3ef-f69a4428e7d4","system_id":"levelo_inurba_marseille","lat":43.23186,"lon":5.39995,"is_reserved":false,"is_disabled":false,"rental_uris":{"android":"levelo://app?vid=1fe4a372-4453-497e-b3ef-f69a4428e7d4","ios":"levelo://app?vid=1fe4a372-4453-497e-b3ef-f69a4428e7d4"},"vehicle_type_id":"4","last_reported":1734167366,"current_range_meters":37600,"station_id":"ce4bhn12rcd13ifvqgqg","pricing_plan_id":"cebpf4jnsgd1na2vs0mg"},{"bike_id":"3493999c-7c96-4aa3-b4fc-a40fff7907aa","system_id":"levelo_inurba_marseille","lat":43.23183,"lon":5.39988,"is_reserved":false,"is_disabled":false,"rental_uris":{"android":"levelo://app?vid=3493999c-7c96-4aa3-b4fc-a40fff7907aa","ios":"levelo://app?vid=3493999c-7c96-4aa3-b4fc-a40fff7907aa"},"vehicle_type_id":"4","last_reported":1734167366,"current_range_meters":22400,"station_id":"ce4bhn12rcd13ifvqgqg","pricing_plan_id":"cebpf4jnsgd1na2vs0mg"},{"bike_id":"f2dbe875-44dc-45d4-8f6f-ea44ad8555bb","system_id":"levelo_inurba_marseille","lat":43.2319,"lon":5.39986,"is_reserved":false,"is_disabled":false,"rental_uris":{"android":"levelo://app?vid=f2dbe875-44dc-45d4-8f6f-ea44ad8555bb","ios":"levelo://app?vid=f2dbe875-44dc-45d4-8f6f-ea44ad8555bb"},"vehicle_type_id":"4","last_reported":1734167366,"current_range_meters":33600,"station_id":"ce4bhn12rcd13ifvqgqg","pricing_plan_id":"cebpf4jnsgd1na2vs0mg"},{"bike_id":"fd1d6366-cf9f-4720-bfed-437d147382a8","system_id":"levelo_inurba_marseille","lat":43.24996,"lon":5.38923,"is_reserved":false,"is_disabled":false,"rental_uris":{"android":"levelo://app?vid=fd1d6366-cf9f-4720-bfed-437d147382a8","ios":"levelo://app?vid=fd1d6366-cf9f-4720-bfed-437d147382a8"},"vehicle_type_id":"4","last_reported":1734167366,"current_range_meters":39200,"station_id":"ce4bhgp2rcd13ifvqfd0","pricing_plan_id":"cebpf4jnsgd1na2vs0mg"},{"bike_id":"b377a437-ba59-4356-810f-8a4d1c613335","system_id":"levelo_inurba_marseille","lat":43.27991,"lon":5.41653,"is_reserved":false,"is_disabled":false,"rental_uris":{"android":"levelo://app?vid=b377a437-ba59-4356-810f-8a4d1c613335","ios":"levelo://app?vid=b377a437-ba59-4356-810f-8a4d1c613335"},"vehicle_type_id":"4","last_reported":1734167366,"current_range_meters":38800,"station_id":"ce4bho12rcd13ifvqh1g","pricing_plan_id":"cebpf4jnsgd1na2vs0mg"},{"bike_id":"be9a95eb-ef82-4d28-b6da-b3b7fb8c3e41","system_id":"levelo_inurba_marseille","lat":43.31067,"lon":5.38343,"is_reserved":false,"is_disabled":true,"rental_uris":{"android":"levelo://app?vid=be9a95eb-ef82-4d28-b6da-b3b7fb8c3e41","ios":"levelo://app?vid=be9a95eb-ef82-4d28-b6da-b3b7fb8c3e41"},"vehicle_type_id":"4","last_reported":1734167366,"current_range_meters":9600,"station_id":"ce4bgv92rcd13ifvqcr0","pricing_plan_id":"cebpf4jnsgd1na2vs0mg"},{"bike_id":"9332f19c-96e3-47ac-8807-c5c2384614c0","system_id":"levelo_inurba_marseille","lat":43.23058,"lon":5.35546,"is_reserved":false,"is_disabled":false,"rental_uris":{"android":"levelo://app?vid=9332f19c-96e3-47ac-8807-c5c2384614c0","ios":"levelo://app?vid=9332f19c-96e3-47ac-8807-c5c2384614c0"},"vehicle_type_id":"4","last_reported":1734167366,"current_range_meters":37600,"station_id":"cpo3342slgdg3j2ifvpg","pricing_plan_id":"cebpf4jnsgd1na2vs0mg"},{"bike_id":"380c9a62-9355-46ea-aba6-5d39cd47ad4b","system_id":"levelo_inurba_marseille","lat":43.31382,"lon":5.40611,"is_reserved":false,"is_disabled":true,"rental_uris":{"android":"levelo://app?vid=380c9a62-9355-46ea-aba6-5d39cd47ad4b","ios":"levelo://app?vid=380c9a62-9355-46ea-aba6-5d39cd47ad4b"},"vehicle_type_id":"4","last_reported":1734167366,"current_range_meters":0,"station_id":"","pricing_plan_id":"cebpf4jnsgd1na2vs0mg"},{"bike_id":"d8b49eec-bdba-487b-a1a4-8df99f8a1bdc","system_id":"levelo_inurba_marseille","lat":43.27971,"lon":5.38734,"is_reserved":false,"is_disabled":false,"rental_uris":{"android":"levelo://app?vid=d8b49eec-bdba-487b-a1a4-8df99f8a1bdc","ios":"levelo://app?vid=d8b49eec-bdba-487b-a1a4-8df99f8a1bdc"},"vehicle_type_id":"4","last_reported":1734167366,"current_range_meters":38000,"station_id":"ce4bhg12rcd13ifvqf80","pricing_plan_id":"cebpf4jnsgd1na2vs0mg"},{"bike_id":"55860ea6-0a52-4c86-a17e-5414f5a2a062","system_id":"levelo_inurba_marseille","lat":43.31324,"lon":5.39694,"is_reserved":false,"is_disabled":false,"rental_uris":{"android":"levelo://app?vid=55860ea6-0a52-4c86-a17e-5414f5a2a062","ios":"levelo://app?vid=55860ea6-0a52-4c86-a17e-5414f5a2a062"},"vehicle_type_id":"4","last_reported":1734167366,"current_range_meters":32800,"station_id":"ce4bgvp2rcd13ifvqcu0","pricing_plan_id":"cebpf4jnsgd1na2vs0mg"},{"bike_id":"7f79df14-9dc4-4bf2-a830-e473657900df","system_id":"levelo_inurba_marseille","lat":43.29902,"lon":5.38136,"is_reserved":false,"is_disabled":true,"rental_uris":{"android":"levelo://app?vid=7f79df14-9dc4-4bf2-a830-e473657900df","ios":"levelo://app?vid=7f79df14-9dc4-4bf2-a830-e473657900df"},"vehicle_type_id":"4","last_reported":1734167366,"current_range_meters":38800,"station_id":"ce4bgj12rcd13ifvqbc0","pricing_plan_id":"cebpf4jnsgd1na2vs0mg"},{"bike_id":"a8942e43-f3d6-46fd-8576-2cc6b2787f3e","system_id":"levelo_inurba_marseille","lat":43.33035,"lon":5.3902,"is_reserved":false,"is_disabled":false,"rental_uris":{"android":"levelo://app?vid=a8942e43-f3d6-46fd-8576-2cc6b2787f3e","ios":"levelo://app?vid=a8942e43-f3d6-46fd-8576-2cc6b2787f3e"},"vehicle_type_id":"4","last_reported":1734167366,"current_range_meters":15200,"station_id":"ce4bhr92rcd13ifvqhrg","pricing_plan_id":"cebpf4jnsgd1na2vs0mg"},{"bike_id":"2e79fd04-87cf-41ff-8400-62b5fd09ffe6","system_id":"levelo_inurba_marseille","lat":43.27992,"lon":5.41659,"is_reserved":false,"is_disabled":true,"rental_uris":{"android":"levelo://app?vid=2e79fd04-87cf-41ff-8400-62b5fd09ffe6","ios":"levelo://app?vid=2e79fd04-87cf-41ff-8400-62b5fd09ffe6"},"vehicle_type_id":"4","last_reported":1734167366,"current_range_meters":14400,"station_id":"ce4bho12rcd13ifvqh1g","pricing_plan_id":"cebpf4jnsgd1na2vs0mg"},{"bike_id":"0fabf014-6933-422d-8474-c0bf7c4bf99b","system_id":"levelo_inurba_marseille","lat":43.27319,"lon":5.39084,"is_reserved":false,"is_disabled":false,"rental_uris":{"android":"levelo://app?vid=0fabf014-6933-422d-8474-c0bf7c4bf99b","ios":"levelo://app?vid=0fabf014-6933-422d-8474-c0bf7c4bf99b"},"vehicle_type_id":"4","last_reported":1734167366,"current_range_meters":30400,"station_id":"ce4bhgp2rcd13ifvqfe0","pricing_plan_id":"cebpf4jnsgd1na2vs0mg"},{"bike_id":"5b6beda0-f5eb-492e-aecf-bb4a52ea635a","system_id":"levelo_inurba_marseille","lat":43.25856,"lon":5.39888,"is_reserved":false,"is_disabled":false,"rental_uris":{"android":"levelo://app?vid=5b6beda0-f5eb-492e-aecf-bb4a52ea635a","ios":"levelo://app?vid=5b6beda0-f5eb-492e-aecf-bb4a52ea635a"},"vehicle_type_id":"4","last_reported":1734167366,"current_range_meters":33200,"station_id":"ce4bhl92rcd13ifvqghg","pricing_plan_id":"cebpf4jnsgd1na2vs0mg"},{"bike_id":"b36cdbb9-b969-4422-a5e7-6651690a15c4","system_id":"levelo_inurba_marseille","lat":43.26197,"lon":5.37443,"is_reserved":false,"is_disabled":false,"rental_uris":{"android":"levelo://app?vid=b36cdbb9-b969-4422-a5e7-6651690a15c4","ios":"levelo://app?vid=b36cdbb9-b969-4422-a5e7-6651690a15c4"},"vehicle_type_id":"4","last_reported":1734167366,"current_range_meters":36400,"station_id":"ce4bhgp2rcd13ifvqfc0","pricing_plan_id":"cebpf4jnsgd1na2vs0mg"},{"bike_id":"99500b29-d428-4fd4-a577-4f104590c1ca","system_id":"levelo_inurba_marseille","lat":43.29844,"lon":5.36275,"is_reserved":false,"is_disabled":false,"rental_uris":{"android":"levelo://app?vid=99500b29-d428-4fd4-a577-4f104590c1ca","ios":"levelo://app?vid=99500b29-d428-4fd4-a577-4f104590c1ca"},"vehicle_type_id":"4","last_reported":1734167366,"current_range_meters":29600,"station_id":"ce4bgpp2rcd13ifvqc3g","pricing_plan_id":"cebpf4jnsgd1na2vs0mg"},{"bike_id":"8b24efbf-8837-4698-87ac-d788e664161c","system_id":"levelo_inurba_marseille","lat":43.27998,"lon":5.40027,"is_reserved":false,"is_disabled":false,"rental_uris":{"android":"levelo://app?vid=8b24efbf-8837-4698-87ac-d788e664161c","ios":"levelo://app?vid=8b24efbf-8837-4698-87ac-d788e664161c"},"vehicle_type_id":"4","last_reported":1734167366,"current_range_meters":34000,"station_id":"ce4bho92rcd13ifvqh4g","pricing_plan_id":"cebpf4jnsgd1na2vs0mg"},{"bike_id":"047ae0e2-efdd-42fe-9ef9-2525b5d879ab","system_id":"levelo_inurba_marseille","lat":43.316995,"lon":5.377808,"is_reserved":false,"is_disabled":false,"rental_uris":{"android":"levelo://app?vid=047ae0e2-efdd-42fe-9ef9-2525b5d879ab","ios":"levelo://app?vid=047ae0e2-efdd-42fe-9ef9-2525b5d879ab"},"vehicle_type_id":"4","last_reported":1734167366,"current_range_meters":38800,"station_id":"ce4bgth2rcd13ifvqch0","pricing_plan_id":"cebpf4jnsgd1na2vs0mg"},{"bike_id":"73ce6c11-114b-4393-ae0a-bfc03ae59980","system_id":"levelo_inurba_marseille","lat":43.30328,"lon":5.40444,"is_reserved":false,"is_disabled":true,"rental_uris":{"android":"levelo://app?vid=73ce6c11-114b-4393-ae0a-bfc03ae59980","ios":"levelo://app?vid=73ce6c11-114b-4393-ae0a-bfc03ae59980"},"vehicle_type_id":"4","last_reported":1734167366,"current_range_meters":0,"station_id":"ce4bh012rcd13ifvqd10","pricing_plan_id":"cebpf4jnsgd1na2vs0mg"},{"bike_id":"b19238d0-c8ba-40b6-9394-8f44d88ea7a5","system_id":"levelo_inurba_marseille","lat":43.30602,"lon":5.37223,"is_reserved":false,"is_disabled":false,"rental_uris":{"android":"levelo://app?vid=b19238d0-c8ba-40b6-9394-8f44d88ea7a5","ios":"levelo://app?vid=b19238d0-c8ba-40b6-9394-8f44d88ea7a5"},"vehicle_type_id":"4","last_reported":1734167366,"current_range_meters":38400,"station_id":"ce4bgqh2rcd13ifvqc4g","pricing_plan_id":"cebpf4jnsgd1na2vs0mg"},{"bike_id":"fe6395e8-dd4d-419f-96c3-295d4de39938","system_id":"levelo_inurba_marseille","lat":43.29844,"lon":5.36266,"is_reserved":false,"is_disabled":false,"rental_uris":{"android":"levelo://app?vid=fe6395e8-dd4d-419f-96c3-295d4de39938","ios":"levelo://app?vid=fe6395e8-dd4d-419f-96c3-295d4de39938"},"vehicle_type_id":"4","last_reported":1734167366,"current_range_meters":38800,"station_id":"ce4bgpp2rcd13ifvqc3g","pricing_plan_id":"cebpf4jnsgd1na2vs0mg"},{"bike_id":"3551e862-a0e8-48a1-a469-269eb1213999","system_id":"levelo_inurba_marseille","lat":43.2927,"lon":5.3685,"is_reserved":false,"is_disabled":true,"rental_uris":{"android":"levelo://app?vid=3551e862-a0e8-48a1-a469-269eb1213999","ios":"levelo://app?vid=3551e862-a0e8-48a1-a469-269eb1213999"},"vehicle_type_id":"4","last_reported":1734167366,"current_range_meters":24400,"station_id":"ce4bhbp2rcd13ifvqesg","pricing_plan_id":"cebpf4jnsgd1na2vs0mg"},{"bike_id":"6b024c74-1fda-4b6d-8883-0e23ba41d86e","system_id":"levelo_inurba_marseille","lat":43.27965,"lon":5.38751,"is_reserved":false,"is_disabled":false,"rental_uris":{"android":"levelo://app?vid=6b024c74-1fda-4b6d-8883-0e23ba41d86e","ios":"levelo://app?vid=6b024c74-1fda-4b6d-8883-0e23ba41d86e"},"vehicle_type_id":"4","last_reported":1734167366,"current_range_meters":38800,"station_id":"ce4bhg12rcd13ifvqf80","pricing_plan_id":"cebpf4jnsgd1na2vs0mg"},{"bike_id":"c6234abb-f24f-4e51-8203-a434dd5a5cf7","system_id":"levelo_inurba_marseille","lat":43.271959,"lon":5.409956,"is_reserved":false,"is_disabled":false,"rental_uris":{"android":"levelo://app?vid=c6234abb-f24f-4e51-8203-a434dd5a5cf7","ios":"levelo://app?vid=c6234abb-f24f-4e51-8203-a434dd5a5cf7"},"vehicle_type_id":"4","last_reported":1734167366,"current_range_meters":38800,"station_id":"ce4bhl12rcd13ifvqgf0","pricing_plan_id":"cebpf4jnsgd1na2vs0mg"},{"bike_id":"6e6a004b-462d-4b03-aeaa-2611256f0d89","system_id":"levelo_inurba_marseille","lat":43.28112,"lon":5.38929,"is_reserved":false,"is_disabled":true,"rental_uris":{"android":"levelo://app?vid=6e6a004b-462d-4b03-aeaa-2611256f0d89","ios":"levelo://app?vid=6e6a004b-462d-4b03-aeaa-2611256f0d89"},"vehicle_type_id":"4","last_reported":1734167366,"current_range_meters":0,"station_id":"","pricing_plan_id":"cebpf4jnsgd1na2vs0mg"},{"bike_id":"e71f8591-0077-4b35-ae32-d799845e660f","system_id":"levelo_inurba_marseille","lat":43.29791,"lon":5.38095,"is_reserved":false,"is_disabled":false,"rental_uris":{"android":"levelo://app?vid=e71f8591-0077-4b35-ae32-d799845e660f","ios":"levelo://app?vid=e71f8591-0077-4b35-ae32-d799845e660f"},"vehicle_type_id":"4","last_reported":1734167366,"current_range_meters":30400,"station_id":"ce4bgip2rcd13ifvqbb0","pricing_plan_id":"cebpf4jnsgd1na2vs0mg"},{"bike_id":"6666abf9-47c2-42a4-9451-283e2fa4d06e","system_id":"levelo_inurba_marseille","lat":43.30354,"lon":5.41874,"is_reserved":false,"is_disabled":false,"rental_uris":{"android":"levelo://app?vid=6666abf9-47c2-42a4-9451-283e2fa4d06e","ios":"levelo://app?vid=6666abf9-47c2-42a4-9451-283e2fa4d06e"},"vehicle_type_id":"4","last_reported":1734167366,"current_range_meters":38800,"station_id":"ce4bhop2rcd13ifvqh7g","pricing_plan_id":"cebpf4jnsgd1na2vs0mg"},{"bike_id":"c3848dd6-dc25-44d4-8c07-ff3e79d88df9","system_id":"levelo_inurba_marseille","lat":43.30147,"lon":5.38097,"is_reserved":false,"is_disabled":false,"rental_uris":{"android":"levelo://app?vid=c3848dd6-dc25-44d4-8c07-ff3e79d88df9","ios":"levelo://app?vid=c3848dd6-dc25-44d4-8c07-ff3e79d88df9"},"vehicle_type_id":"4","last_reported":1734167366,"current_range_meters":38000,"station_id":"ce4bgjp2rcd13ifvqbh0","pricing_plan_id":"cebpf4jnsgd1na2vs0mg"},{"bike_id":"a9825185-3001-4d8d-9f3b-ed652af29296","system_id":"levelo_inurba_marseille","lat":43.28612,"lon":5.3706,"is_reserved":false,"is_disabled":false,"rental_uris":{"android":"levelo://app?vid=a9825185-3001-4d8d-9f3b-ed652af29296","ios":"levelo://app?vid=a9825185-3001-4d8d-9f3b-ed652af29296"},"vehicle_type_id":"4","last_reported":1734167366,"current_range_meters":38800,"station_id":"ce4bht12rcd13ifvqi60","pricing_plan_id":"cebpf4jnsgd1na2vs0mg"},{"bike_id":"024ce9aa-f82a-4269-8394-fd26692fffa7","system_id":"levelo_inurba_marseille","lat":43.28429,"lon":5.39187,"is_reserved":false,"is_disabled":false,"rental_uris":{"android":"levelo://app?vid=024ce9aa-f82a-4269-8394-fd26692fffa7","ios":"levelo://app?vid=024ce9aa-f82a-4269-8394-fd26692fffa7"},"vehicle_type_id":"4","last_reported":1734167366,"current_range_meters":38800,"station_id":"ce4bhoh2rcd13ifvqh5g","pricing_plan_id":"cebpf4jnsgd1na2vs0mg"},{"bike_id":"e3ed667f-ae67-4730-b300-d002dfb9bc90","system_id":"levelo_inurba_marseille","lat":43.29528,"lon":5.37493,"is_reserved":false,"is_disabled":false,"rental_uris":{"android":"levelo://app?vid=e3ed667f-ae67-4730-b300-d002dfb9bc90","ios":"levelo://app?vid=e3ed667f-ae67-4730-b300-d002dfb9bc90"},"vehicle_type_id":"4","last_reported":1734167366,"current_range_meters":39200,"station_id":"ce4bgkp2rcd13ifvqbmg","pricing_plan_id":"cebpf4jnsgd1na2vs0mg"},{"bike_id":"1536d859-8531-4d78-87ee-c9b02f5fc438","system_id":"levelo_inurba_marseille","lat":43.23065,"lon":5.35483,"is_reserved":false,"is_disabled":false,"rental_uris":{"android":"levelo://app?vid=1536d859-8531-4d78-87ee-c9b02f5fc438","ios":"levelo://app?vid=1536d859-8531-4d78-87ee-c9b02f5fc438"},"vehicle_type_id":"4","last_reported":1734167366,"current_range_meters":17600,"station_id":"cpo3342slgdg3j2ifvpg","pricing_plan_id":"cebpf4jnsgd1na2vs0mg"},{"bike_id":"702fe746-2950-4d83-96ad-da74f787e42f","system_id":"levelo_inurba_marseille","lat":43.25868,"lon":5.39905,"is_reserved":false,"is_disabled":false,"rental_uris":{"android":"levelo://app?vid=702fe746-2950-4d83-96ad-da74f787e42f","ios":"levelo://app?vid=702fe746-2950-4d83-96ad-da74f787e42f"},"vehicle_type_id":"4","last_reported":1734167366,"current_range_meters":36800,"station_id":"ce4bhl92rcd13ifvqghg","pricing_plan_id":"cebpf4jnsgd1na2vs0mg"},{"bike_id":"0e3e4bb5-7f69-40a6-86ff-e5c6b04b6c87","system_id":"levelo_inurba_marseille","lat":43.2794,"lon":5.41049,"is_reserved":false,"is_disabled":false,"rental_uris":{"android":"levelo://app?vid=0e3e4bb5-7f69-40a6-86ff-e5c6b04b6c87","ios":"levelo://app?vid=0e3e4bb5-7f69-40a6-86ff-e5c6b04b6c87"},"vehicle_type_id":"4","last_reported":1734167366,"current_range_meters":34800,"station_id":"ce4bhnp2rcd13ifvqh0g","pricing_plan_id":"cebpf4jnsgd1na2vs0mg"},{"bike_id":"7965bd8b-65b9-4460-9e65-36f253ebc53b","system_id":"levelo_inurba_marseille","lat":43.32054,"lon":5.41513,"is_reserved":false,"is_disabled":false,"rental_uris":{"android":"levelo://app?vid=7965bd8b-65b9-4460-9e65-36f253ebc53b","ios":"levelo://app?vid=7965bd8b-65b9-4460-9e65-36f253ebc53b"},"vehicle_type_id":"4","last_reported":1734167366,"current_range_meters":20000,"station_id":"ce4bhq92rcd13ifvqhkg","pricing_plan_id":"cebpf4jnsgd1na2vs0mg"},{"bike_id":"baf2a051-8c83-4545-8cb9-f2d0770a50f8","system_id":"levelo_inurba_marseille","lat":43.30991,"lon":5.38032,"is_reserved":false,"is_disabled":false,"rental_uris":{"android":"levelo://app?vid=baf2a051-8c83-4545-8cb9-f2d0770a50f8","ios":"levelo://app?vid=baf2a051-8c83-4545-8cb9-f2d0770a50f8"},"vehicle_type_id":"4","last_reported":1734167366,"current_range_meters":11200,"station_id":"","pricing_plan_id":"cebpf4jnsgd1na2vs0mg"},{"bike_id":"e5192aff-1008-4e7e-b82a-23b5df79d920","system_id":"levelo_inurba_marseille","lat":43.29559,"lon":5.42292,"is_reserved":false,"is_disabled":false,"rental_uris":{"android":"levelo://app?vid=e5192aff-1008-4e7e-b82a-23b5df79d920","ios":"levelo://app?vid=e5192aff-1008-4e7e-b82a-23b5df79d920"},"vehicle_type_id":"4","last_reported":1734167366,"current_range_meters":38400,"station_id":"ce4bhph2rcd13ifvqhdg","pricing_plan_id":"cebpf4jnsgd1na2vs0mg"},{"bike_id":"f4cc9e46-80b9-447f-b3b3-a558dbc304cd","system_id":"levelo_inurba_marseille","lat":43.28711,"lon":5.39985,"is_reserved":false,"is_disabled":false,"rental_uris":{"android":"levelo://app?vid=f4cc9e46-80b9-447f-b3b3-a558dbc304cd","ios":"levelo://app?vid=f4cc9e46-80b9-447f-b3b3-a558dbc304cd"},"vehicle_type_id":"4","last_reported":1734167366,"current_range_meters":34000,"station_id":"ce4bho92rcd13ifvqh3g","pricing_plan_id":"cebpf4jnsgd1na2vs0mg"},{"bike_id":"ef3461c4-bece-4465-9564-3504cf36ae37","system_id":"levelo_inurba_marseille","lat":43.28676,"lon":5.3869,"is_reserved":false,"is_disabled":false,"rental_uris":{"android":"levelo://app?vid=ef3461c4-bece-4465-9564-3504cf36ae37","ios":"levelo://app?vid=ef3461c4-bece-4465-9564-3504cf36ae37"},"vehicle_type_id":"4","last_reported":1734167366,"current_range_meters":36000,"station_id":"ce4bh492rcd13ifvqdug","pricing_plan_id":"cebpf4jnsgd1na2vs0mg"},{"bike_id":"44afe911-e063-4d86-814a-fdcad6723cd6","system_id":"levelo_inurba_marseille","lat":43.28431,"lon":5.39185,"is_reserved":false,"is_disabled":false,"rental_uris":{"android":"levelo://app?vid=44afe911-e063-4d86-814a-fdcad6723cd6","ios":"levelo://app?vid=44afe911-e063-4d86-814a-fdcad6723cd6"},"vehicle_type_id":"4","last_reported":1734167366,"current_range_meters":39200,"station_id":"ce4bhoh2rcd13ifvqh5g","pricing_plan_id":"cebpf4jnsgd1na2vs0mg"},{"bike_id":"a5589391-a7e4-412b-9a87-f917b2322580","system_id":"levelo_inurba_marseille","lat":43.23052,"lon":5.35489,"is_reserved":false,"is_disabled":false,"rental_uris":{"android":"levelo://app?vid=a5589391-a7e4-412b-9a87-f917b2322580","ios":"levelo://app?vid=a5589391-a7e4-412b-9a87-f917b2322580"},"vehicle_type_id":"4","last_reported":1734167366,"current_range_meters":36400,"station_id":"cpo3342slgdg3j2ifvpg","pricing_plan_id":"cebpf4jnsgd1na2vs0mg"},{"bike_id":"d84e5faf-e0d5-42d0-bd78-9dd2e96d358b","system_id":"levelo_inurba_marseille","lat":43.28103,"lon":5.37853,"is_reserved":false,"is_disabled":true,"rental_uris":{"android":"levelo://app?vid=d84e5faf-e0d5-42d0-bd78-9dd2e96d358b","ios":"levelo://app?vid=d84e5faf-e0d5-42d0-bd78-9dd2e96d358b"},"vehicle_type_id":"4","last_reported":1734167366,"current_range_meters":38400,"station_id":"ce4bha12rcd13ifvqee0","pricing_plan_id":"cebpf4jnsgd1na2vs0mg"},{"bike_id":"14afac6a-63b2-47cb-9bc3-0bc87d22bcde","system_id":"levelo_inurba_marseille","lat":43.32372,"lon":5.38879,"is_reserved":false,"is_disabled":false,"rental_uris":{"android":"levelo://app?vid=14afac6a-63b2-47cb-9bc3-0bc87d22bcde","ios":"levelo://app?vid=14afac6a-63b2-47cb-9bc3-0bc87d22bcde"},"vehicle_type_id":"4","last_reported":1734167366,"current_range_meters":38000,"station_id":"ce4bhqp2rcd13ifvqhog","pricing_plan_id":"cebpf4jnsgd1na2vs0mg"},{"bike_id":"cf114bb8-ce3e-43ba-8e23-69bcac3003fd","system_id":"levelo_inurba_marseille","lat":43.33749,"lon":5.37419,"is_reserved":false,"is_disabled":false,"rental_uris":{"android":"levelo://app?vid=cf114bb8-ce3e-43ba-8e23-69bcac3003fd","ios":"levelo://app?vid=cf114bb8-ce3e-43ba-8e23-69bcac3003fd"},"vehicle_type_id":"4","last_reported":1734167366,"current_range_meters":21600,"station_id":"","pricing_plan_id":"cebpf4jnsgd1na2vs0mg"},{"bike_id":"f72a7348-a98e-463a-8d26-f64d3092b70b","system_id":"levelo_inurba_marseille","lat":43.30534,"lon":5.38432,"is_reserved":false,"is_disabled":true,"rental_uris":{"android":"levelo://app?vid=f72a7348-a98e-463a-8d26-f64d3092b70b","ios":"levelo://app?vid=f72a7348-a98e-463a-8d26-f64d3092b70b"},"vehicle_type_id":"4","last_reported":1734167366,"current_range_meters":33200,"station_id":"ce4bgg92rcd13ifvqb30","pricing_plan_id":"cebpf4jnsgd1na2vs0mg"},{"bike_id":"afc65c7e-2df0-479e-8802-76edad43706a","system_id":"levelo_inurba_marseille","lat":43.26202,"lon":5.3793,"is_reserved":false,"is_disabled":false,"rental_uris":{"android":"levelo://app?vid=afc65c7e-2df0-479e-8802-76edad43706a","ios":"levelo://app?vid=afc65c7e-2df0-479e-8802-76edad43706a"},"vehicle_type_id":"4","last_reported":1734167366,"current_range_meters":26000,"station_id":"ce4bhjp2rcd13ifvqg90","pricing_plan_id":"cebpf4jnsgd1na2vs0mg"},{"bike_id":"33431c68-9fa8-411e-b90f-e58b568e15be","system_id":"levelo_inurba_marseille","lat":43.2707,"lon":5.42277,"is_reserved":false,"is_disabled":false,"rental_uris":{"android":"levelo://app?vid=33431c68-9fa8-411e-b90f-e58b568e15be","ios":"levelo://app?vid=33431c68-9fa8-411e-b90f-e58b568e15be"},"vehicle_type_id":"4","last_reported":1734167366,"current_range_meters":26000,"station_id":"ce4bhk92rcd13ifvqgb0","pricing_plan_id":"cebpf4jnsgd1na2vs0mg"},{"bike_id":"600a3dff-b459-4dfc-a7ac-2b01e30fccee","system_id":"levelo_inurba_marseille","lat":43.23204,"lon":5.35549,"is_reserved":false,"is_disabled":false,"rental_uris":{"android":"levelo://app?vid=600a3dff-b459-4dfc-a7ac-2b01e30fccee","ios":"levelo://app?vid=600a3dff-b459-4dfc-a7ac-2b01e30fccee"},"vehicle_type_id":"4","last_reported":1734167366,"current_range_meters":13600,"station_id":"ce4bhu92rcd13ifvqi70","pricing_plan_id":"cebpf4jnsgd1na2vs0mg"},{"bike_id":"84194686-613b-49c2-8cdd-380f6646564a","system_id":"levelo_inurba_marseille","lat":43.31071,"lon":5.38353,"is_reserved":false,"is_disabled":false,"rental_uris":{"android":"levelo://app?vid=84194686-613b-49c2-8cdd-380f6646564a","ios":"levelo://app?vid=84194686-613b-49c2-8cdd-380f6646564a"},"vehicle_type_id":"4","last_reported":1734167366,"current_range_meters":37600,"station_id":"ce4bgv92rcd13ifvqcr0","pricing_plan_id":"cebpf4jnsgd1na2vs0mg"},{"bike_id":"05bdbbe3-1129-44df-8bfc-5b3d1c8a4874","system_id":"levelo_inurba_marseille","lat":43.29365,"lon":5.37823,"is_reserved":false,"is_disabled":false,"rental_uris":{"android":"levelo://app?vid=05bdbbe3-1129-44df-8bfc-5b3d1c8a4874","ios":"levelo://app?vid=05bdbbe3-1129-44df-8bfc-5b3d1c8a4874"},"vehicle_type_id":"4","last_reported":1734167366,"current_range_meters":36400,"station_id":"ce4bgjh2rcd13ifvqbf0","pricing_plan_id":"cebpf4jnsgd1na2vs0mg"},{"bike_id":"ca3bf6a0-806c-4046-b219-bbea4c2ba646","system_id":"levelo_inurba_marseille","lat":43.23185,"lon":5.35546,"is_reserved":false,"is_disabled":false,"rental_uris":{"android":"levelo://app?vid=ca3bf6a0-806c-4046-b219-bbea4c2ba646","ios":"levelo://app?vid=ca3bf6a0-806c-4046-b219-bbea4c2ba646"},"vehicle_type_id":"4","last_reported":1734167366,"current_range_meters":38800,"station_id":"ce4bhu92rcd13ifvqi70","pricing_plan_id":"cebpf4jnsgd1na2vs0mg"},{"bike_id":"e92b53be-0a79-44c0-8c0f-b198c7a21d46","system_id":"levelo_inurba_marseille","lat":43.32364,"lon":5.3888,"is_reserved":false,"is_disabled":false,"rental_uris":{"android":"levelo://app?vid=e92b53be-0a79-44c0-8c0f-b198c7a21d46","ios":"levelo://app?vid=e92b53be-0a79-44c0-8c0f-b198c7a21d46"},"vehicle_type_id":"4","last_reported":1734167366,"current_range_meters":28800,"station_id":"ce4bhqp2rcd13ifvqhog","pricing_plan_id":"cebpf4jnsgd1na2vs0mg"},{"bike_id":"46b2fdec-0870-4ae2-84dc-b1f57512351e","system_id":"levelo_inurba_marseille","lat":43.337444,"lon":5.374475,"is_reserved":false,"is_disabled":true,"rental_uris":{"android":"levelo://app?vid=46b2fdec-0870-4ae2-84dc-b1f57512351e","ios":"levelo://app?vid=46b2fdec-0870-4ae2-84dc-b1f57512351e"},"vehicle_type_id":"4","last_reported":1734167366,"current_range_meters":0,"station_id":"","pricing_plan_id":"cebpf4jnsgd1na2vs0mg"},{"bike_id":"e07f8927-8121-4133-911c-f4fdbcb240cf","system_id":"levelo_inurba_marseille","lat":43.33862,"lon":5.37433,"is_reserved":false,"is_disabled":false,"rental_uris":{"android":"levelo://app?vid=e07f8927-8121-4133-911c-f4fdbcb240cf","ios":"levelo://app?vid=e07f8927-8121-4133-911c-f4fdbcb240cf"},"vehicle_type_id":"4","last_reported":1734167366,"current_range_meters":34000,"station_id":"","pricing_plan_id":"cebpf4jnsgd1na2vs0mg"},{"bike_id":"f9e6bb9b-5af9-41b4-94d6-1a9a9891f123","system_id":"levelo_inurba_marseille","lat":43.24648,"lon":5.38884,"is_reserved":false,"is_disabled":false,"rental_uris":{"android":"levelo://app?vid=f9e6bb9b-5af9-41b4-94d6-1a9a9891f123","ios":"levelo://app?vid=f9e6bb9b-5af9-41b4-94d6-1a9a9891f123"},"vehicle_type_id":"4","last_reported":1734167366,"current_range_meters":24800,"station_id":"ce4bhg12rcd13ifvqf60","pricing_plan_id":"cebpf4jnsgd1na2vs0mg"},{"bike_id":"28fa2707-f4ac-4c74-b8f5-04537ad85632","system_id":"levelo_inurba_marseille","lat":43.29005,"lon":5.35637,"is_reserved":false,"is_disabled":false,"rental_uris":{"android":"levelo://app?vid=28fa2707-f4ac-4c74-b8f5-04537ad85632","ios":"levelo://app?vid=28fa2707-f4ac-4c74-b8f5-04537ad85632"},"vehicle_type_id":"4","last_reported":1734167366,"current_range_meters":28800,"station_id":"ce4bhb92rcd13ifvqen0","pricing_plan_id":"cebpf4jnsgd1na2vs0mg"},{"bike_id":"c4d5fc99-fb62-4fb8-843a-5330b156d1b3","system_id":"levelo_inurba_marseille","lat":43.3015,"lon":5.38093,"is_reserved":false,"is_disabled":false,"rental_uris":{"android":"levelo://app?vid=c4d5fc99-fb62-4fb8-843a-5330b156d1b3","ios":"levelo://app?vid=c4d5fc99-fb62-4fb8-843a-5330b156d1b3"},"vehicle_type_id":"4","last_reported":1734167366,"current_range_meters":18000,"station_id":"ce4bgjp2rcd13ifvqbh0","pricing_plan_id":"cebpf4jnsgd1na2vs0mg"},{"bike_id":"5f11fdd9-45f0-4d70-8224-eef136d43616","system_id":"levelo_inurba_marseille","lat":43.27223,"lon":5.41011,"is_reserved":false,"is_disabled":false,"rental_uris":{"android":"levelo://app?vid=5f11fdd9-45f0-4d70-8224-eef136d43616","ios":"levelo://app?vid=5f11fdd9-45f0-4d70-8224-eef136d43616"},"vehicle_type_id":"4","last_reported":1734167366,"current_range_meters":34800,"station_id":"","pricing_plan_id":"cebpf4jnsgd1na2vs0mg"},{"bike_id":"c1ee8913-5e37-44a6-b50d-05b31c0109a6","system_id":"levelo_inurba_marseille","lat":43.30431,"lon":5.3888,"is_reserved":false,"is_disabled":true,"rental_uris":{"android":"levelo://app?vid=c1ee8913-5e37-44a6-b50d-05b31c0109a6","ios":"levelo://app?vid=c1ee8913-5e37-44a6-b50d-05b31c0109a6"},"vehicle_type_id":"4","last_reported":1734167366,"current_range_meters":400,"station_id":"ce4bgk12rcd13ifvqbi0","pricing_plan_id":"cebpf4jnsgd1na2vs0mg"},{"bike_id":"2448f112-093b-44a4-8c49-c482af2ba024","system_id":"levelo_inurba_marseille","lat":43.2306,"lon":5.35479,"is_reserved":false,"is_disabled":false,"rental_uris":{"android":"levelo://app?vid=2448f112-093b-44a4-8c49-c482af2ba024","ios":"levelo://app?vid=2448f112-093b-44a4-8c49-c482af2ba024"},"vehicle_type_id":"4","last_reported":1734167366,"current_range_meters":22400,"station_id":"cpo3342slgdg3j2ifvpg","pricing_plan_id":"cebpf4jnsgd1na2vs0mg"},{"bike_id":"169d6776-51ab-41b0-9567-a24adfb79d90","system_id":"levelo_inurba_marseille","lat":43.258667,"lon":5.399143,"is_reserved":false,"is_disabled":false,"rental_uris":{"android":"levelo://app?vid=169d6776-51ab-41b0-9567-a24adfb79d90","ios":"levelo://app?vid=169d6776-51ab-41b0-9567-a24adfb79d90"},"vehicle_type_id":"4","last_reported":1734167366,"current_range_meters":28000,"station_id":"ce4bhl92rcd13ifvqghg","pricing_plan_id":"cebpf4jnsgd1na2vs0mg"},{"bike_id":"eff6214a-e327-44ef-b149-b0c14110902c","system_id":"levelo_inurba_marseille","lat":43.30151,"lon":5.38088,"is_reserved":false,"is_disabled":false,"rental_uris":{"android":"levelo://app?vid=eff6214a-e327-44ef-b149-b0c14110902c","ios":"levelo://app?vid=eff6214a-e327-44ef-b149-b0c14110902c"},"vehicle_type_id":"4","last_reported":1734167366,"current_range_meters":39200,"station_id":"ce4bgjp2rcd13ifvqbh0","pricing_plan_id":"cebpf4jnsgd1na2vs0mg"},{"bike_id":"af804881-5df8-429f-885e-4c0a082914a7","system_id":"levelo_inurba_marseille","lat":43.28029,"lon":5.36953,"is_reserved":false,"is_disabled":false,"rental_uris":{"android":"levelo://app?vid=af804881-5df8-429f-885e-4c0a082914a7","ios":"levelo://app?vid=af804881-5df8-429f-885e-4c0a082914a7"},"vehicle_type_id":"4","last_reported":1734167366,"current_range_meters":38000,"station_id":"ce4bha12rcd13ifvqef0","pricing_plan_id":"cebpf4jnsgd1na2vs0mg"},{"bike_id":"269d647c-7f75-4ab5-ba3e-aade4c95309f","system_id":"levelo_inurba_marseille","lat":43.28691,"lon":5.373853,"is_reserved":false,"is_disabled":true,"rental_uris":{"android":"levelo://app?vid=269d647c-7f75-4ab5-ba3e-aade4c95309f","ios":"levelo://app?vid=269d647c-7f75-4ab5-ba3e-aade4c95309f"},"vehicle_type_id":"4","last_reported":1734167366,"current_range_meters":30000,"station_id":"ce4bh3p2rcd13ifvqdq0","pricing_plan_id":"cebpf4jnsgd1na2vs0mg"},{"bike_id":"d214c25f-242c-440b-993d-cd644c655be6","system_id":"levelo_inurba_marseille","lat":43.23067,"lon":5.35493,"is_reserved":false,"is_disabled":false,"rental_uris":{"android":"levelo://app?vid=d214c25f-242c-440b-993d-cd644c655be6","ios":"levelo://app?vid=d214c25f-242c-440b-993d-cd644c655be6"},"vehicle_type_id":"4","last_reported":1734167366,"current_range_meters":30800,"station_id":"cpo3342slgdg3j2ifvpg","pricing_plan_id":"cebpf4jnsgd1na2vs0mg"},{"bike_id":"36fe7f2d-6b60-46ad-a5d3-ec5715357c26","system_id":"levelo_inurba_marseille","lat":43.337604,"lon":5.374542,"is_reserved":false,"is_disabled":false,"rental_uris":{"android":"levelo://app?vid=36fe7f2d-6b60-46ad-a5d3-ec5715357c26","ios":"levelo://app?vid=36fe7f2d-6b60-46ad-a5d3-ec5715357c26"},"vehicle_type_id":"4","last_reported":1734167366,"current_range_meters":34800,"station_id":"","pricing_plan_id":"cebpf4jnsgd1na2vs0mg"},{"bike_id":"6d05f7ba-808a-4403-b1f3-f8483fec843c","system_id":"levelo_inurba_marseille","lat":43.23183,"lon":5.35577,"is_reserved":false,"is_disabled":false,"rental_uris":{"android":"levelo://app?vid=6d05f7ba-808a-4403-b1f3-f8483fec843c","ios":"levelo://app?vid=6d05f7ba-808a-4403-b1f3-f8483fec843c"},"vehicle_type_id":"4","last_reported":1734167366,"current_range_meters":23200,"station_id":"ce4bhu92rcd13ifvqi70","pricing_plan_id":"cebpf4jnsgd1na2vs0mg"},