{"last_updated":1745762860,"ttl":60,"version":"2.2","data":{"bikes":[{"bike_id":"422b5989-c8b6-43aa-b2b9-3bfeb2e1ddc0","system_id":"levelo_inurba_marseille","lat":43.24722,"lon":5.41171,"is_reserved":false,"is_disabled":false,"rental_uris":{"android":"levelo://app?vid=422b5989-c8b6-43aa-b2b9-3bfeb2e1ddc0","ios":"levelo://app?vid=422b5989-c8b6-43aa-b2b9-3bfeb2e1ddc0"},"vehicle_type_id":"4","last_reported":1745762860,"current_range_meters":2800,"station_id":"","pricing_plan_id":"cebpf4jnsgd1na2vs0mg"},{"bike_id":"6a48afbf-db22-47c9-acfc-cdc84e9807cb","system_id":"levelo_inurba_marseille","lat":43.30534,"lon":5.36566,"is_reserved":false,"is_disabled":false,"rental_uris":{"android":"levelo://app?vid=6a48afbf-db22-47c9-acfc-cdc84e9807cb","ios":"levelo://app?vid=6a48afbf-db22-47c9-acfc-cdc84e9807cb"},"vehicle_type_id":"4","last_reported":1745762860,"current_range_meters":2800,"station_id":"ce4bgs12rcd13ifvqcag","pricing_plan_id":"cebpf4jnsgd1na2vs0mg"},{"bike_id":"3e66886d-8abd-4403-8071-0ba087b37b63","system_id":"levelo_inurba_marseille","lat":43.30623,"lon":5.37215,"is_reserved":false,"is_disabled":false,"rental_uris":{"android":"levelo://app?vid=3e66886d-8abd-4403-8071-0ba087b37b63","ios":"levelo://app?vid=3e66886d-8abd-4403-8071-0ba087b37b63"},"vehicle_type_id":"4","last_reported":1745762860,"current_range_meters":2800,"station_id":"ce4bgqh2rcd13ifvqc4g","pricing_plan_id":"cebpf4jnsgd1na2vs0mg"},{"bike_id":"40dc1ab0-e2bd-4ac2-af88-42db8665fe64","system_id":"levelo_inurba_marseille","lat":43.27951,"lon":5.41037,"is_reserved":false,"is_disabled":true,"rental_uris":{"android":"levelo://app?vid=40dc1ab0-e2bd-4ac2-af88-42db8665fe64","ios":"levelo://app?vid=40dc1ab0-e2bd-4ac2-af88-42db8665fe64"},"vehicle_type_id":"4","last_reported":1745762860,"current_range_meters":2800,"station_id":"ce4bhnp2rcd13ifvqh0g","pricing_plan_id":"cebpf4jnsgd1na2vs0mg"},{"bike_id":"d1ff7e34-d25d-4063-9648-2bd4db47424f","system_id":"levelo_inurba_marseille","lat":43.32455,"lon":5.39145,"is_reserved":false,"is_disabled":true,"rental_uris":{"android":"levelo://app?vid=d1ff7e34-d25d-4063-9648-2bd4db47424f","ios":"levelo://app?vid=d1ff7e34-d25d-4063-9648-2bd4db47424f"},"vehicle_type_id":"4","last_reported":1745762860,"current_range_meters":2800,"station_id":"","pricing_plan_id":"cebpf4jnsgd1na2vs0mg"},{"bike_id":"8f454a75-ef92-496a-b218-baa377f18c34","system_id":"levelo_inurba_marseille","lat":43.32,"lon":5.3816,"is_reserved":false,"is_disabled":false,"rental_uris":{"android":"levelo://app?vid=8f454a75-ef92-496a-b218-baa377f18c34","ios":"levelo://app?vid=8f454a75-ef92-496a-b218-baa377f18c34"},"vehicle_type_id":"4","last_reported":1745762860,"current_range_meters":3200,"station_id":"ce4bhr12rcd13ifvqhpg","pricing_plan_id":"cebpf4jnsgd1na2vs0mg"},{"bike_id":"d133e0bc-7660-4edb-88b7-9cf5159e195e","system_id":"levelo_inurba_marseille","lat":43.299783,"lon":5.385324,"is_reserved":false,"is_disabled":false,"rental_uris":{"android":"levelo://app?vid=d133e0bc-7660-4edb-88b7-9cf5159e195e","ios":"levelo://app?vid=d133e0bc-7660-4edb-88b7-9cf5159e195e"},"vehicle_type_id":"4","last_reported":1745762860,"current_range_meters":4000,"station_id":"ce4bgj92rcd13ifvqbd0","pricing_plan_id":"cebpf4jnsgd1na2vs0mg"},{"bike_id":"ac30880a-a1a7-4b95-bf6c-63973cd00d71","system_id":"levelo_inurba_marseille","lat":43.29532,"lon":5.38532,"is_reserved":false,"is_disabled":false,"rental_uris":{"android":"levelo://app?vid=ac30880a-a1a7-4b95-bf6c-63973cd00d71","ios":"levelo://app?vid=ac30880a-a1a7-4b95-bf6c-63973cd00d71"},"vehicle_type_id":"4","last_reported":1745762860,"current_range_meters":3600,"station_id":"ce4bgih2rcd13ifvqba0","pricing_plan_id":"cebpf4jnsgd1na2vs0mg"},{"bike_id":"5a926f24-10d0-4da6-be95-211eb6d3cdf6","system_id":"levelo_inurba_marseille","lat":43.24175,"lon":5.36395,"is_reserved":false,"is_disabled":false,"rental_uris":{"android":"levelo://app?vid=5a926f24-10d0-4da6-be95-211eb6d3cdf6","ios":"levelo://app?vid=5a926f24-10d0-4da6-be95-211eb6d3cdf6"},"vehicle_type_id":"4","last_reported":1745762860,"current_range_meters":4000,"station_id":"cpo36qri1sfpv3e86is0","pricing_plan_id":"cebpf4jnsgd1na2vs0mg"},{"bike_id":"352bab82-e19c-4575-8c4f-b75f45f2b15f","system_id":"levelo_inurba_marseille","lat":43.23969,"lon":5.36642,"is_reserved":false,"is_disabled":false,"rental_uris":{"android":"levelo://app?vid=352bab82-e19c-4575-8c4f-b75f45f2b15f","ios":"levelo://app?vid=352bab82-e19c-4575-8c4f-b75f45f2b15f"},"vehicle_type_id":"4","last_reported":1745762860,"current_range_meters":4000,"station_id":"ce4bhi12rcd13ifvqfp0","pricing_plan_id":"cebpf4jnsgd1na2vs0mg"},{"bike_id":"28b4714b-e73d-485f-a044-26f51205bf47","system_id":"levelo_inurba_marseille","lat":43.3034,"lon":5.36519,"is_reserved":false,"is_disabled":false,"rental_uris":{"android":"levelo://app?vid=28b4714b-e73d-485f-a044-26f51205bf47","ios":"levelo://app?vid=28b4714b-e73d-485f-a044-26f51205bf47"},"vehicle_type_id":"4","last_reported":1745762860,"current_range_meters":4400,"station_id":"","pricing_plan_id":"cebpf4jnsgd1na2vs0mg"},{"bike_id":"d5324e76-9f8c-4b5f-b80f-d6a42c659bad","system_id":"levelo_inurba_marseille","lat":43.29845,"lon":5.36272,"is_reserved":false,"is_disabled":false,"rental_uris":{"android":"levelo://app?vid=d5324e76-9f8c-4b5f-b80f-d6a42c659bad","ios":"levelo://app?vid=d5324e76-9f8c-4b5f-b80f-d6a42c659bad"},"vehicle_type_id":"4","last_reported":1745762860,"current_range_meters":4400,"station_id":"ce4bgpp2rcd13ifvqc3g","pricing_plan_id":"cebpf4jnsgd1na2vs0mg"},{"bike_id":"e9895e69-996c-48e9-8710-84a976c8466f","system_id":"levelo_inurba_marseille","lat":43.29602,"lon":5.38089,"is_reserved":false,"is_disabled":false,"rental_uris":{"android":"levelo://app?vid=e9895e69-996c-48e9-8710-84a976c8466f","ios":"levelo://app?vid=e9895e69-996c-48e9-8710-84a976c8466f"},"vehicle_type_id":"4","last_reported":1745762860,"current_range_meters":4800,"station_id":"ce4bgl12rcd13ifvqbo0","pricing_plan_id":"cebpf4jnsgd1na2vs0mg"},{"bike_id":"b8148abc-2f00-483e-abf9-596acd810260","system_id":"levelo_inurba_marseille","lat":43.28617,"lon":5.35103,"is_reserved":false,"is_disabled":false,"rental_uris":{"android":"levelo://app?vid=b8148abc-2f00-483e-abf9-596acd810260","ios":"levelo://app?vid=b8148abc-2f00-483e-abf9-596acd810260"},"vehicle_type_id":"4","last_reported":1745762860,"current_range_meters":4800,"station_id":"ce4bhch2rcd13ifvqeug","pricing_plan_id":"cebpf4jnsgd1na2vs0mg"},{"bike_id":"2fac31c9-ecd4-4c07-9ea5-ab959ac9f813","system_id":"levelo_inurba_marseille","lat":43.2467,"lon":5.38166,"is_reserved":false,"is_disabled":true,"rental_uris":{"android":"levelo://app?vid=2fac31c9-ecd4-4c07-9ea5-ab959ac9f813","ios":"levelo://app?vid=2fac31c9-ecd4-4c07-9ea5-ab959ac9f813"},"vehicle_type_id":"4","last_reported":1745762860,"current_range_meters":4800,"station_id":"ce4bhih2rcd13ifvqfr0","pricing_plan_id":"cebpf4jnsgd1na2vs0mg"},{"bike_id":"0e61e71c-6fbe-4c8f-a276-2c23cf783597","system_id":"levelo_inurba_marseille","lat":43.29267,"lon":5.37613,"is_reserved":false,"is_disabled":false,"rental_uris":{"android":"levelo://app?vid=0e61e71c-6fbe-4c8f-a276-2c23cf783597","ios":"levelo://app?vid=0e61e71c-6fbe-4c8f-a276-2c23cf783597"},"vehicle_type_id":"4","last_reported":1745762860,"current_range_meters":4800,"station_id":"ce4bgi12rcd13ifvqb80","pricing_plan_id":"cebpf4jnsgd1na2vs0mg"},{"bike_id":"7c077549-6efb-4642-9e07-386824439cdb","system_id":"levelo_inurba_marseille","lat":43.2942,"lon":5.3861,"is_reserved":false,"is_disabled":false,"rental_uris":{"android":"levelo://app?vid=7c077549-6efb-4642-9e07-386824439cdb","ios":"levelo://app?vid=7c077549-6efb-4642-9e07-386824439cdb"},"vehicle_type_id":"4","last_reported":1745762860,"current_range_meters":4800,"station_id":"ce4bh2h2rcd13ifvqdh0","pricing_plan_id":"cebpf4jnsgd1na2vs0mg"},{"bike_id":"8efd18bb-ce08-4a90-baf3-e4e273a68540","system_id":"levelo_inurba_marseille","lat":43.3095,"lon":5.39032,"is_reserved":false,"is_disabled":false,"rental_uris":{"android":"levelo://app?vid=8efd18bb-ce08-4a90-baf3-e4e273a68540","ios":"levelo://app?vid=8efd18bb-ce08-4a90-baf3-e4e273a68540"},"vehicle_type_id":"4","last_reported":1745762860,"current_range_meters":4800,"station_id":"ce4bgup2rcd13ifvqco0","pricing_plan_id":"cebpf4jnsgd1na2vs0mg"},{"bike_id":"d48770ea-271d-480f-a83f-8620fe6a1833","system_id":"levelo_inurba_marseille","lat":43.28176,"lon":5.40462,"is_reserved":false,"is_disabled":true,"rental_uris":{"android":"levelo://app?vid=d48770ea-271d-480f-a83f-8620fe6a1833","ios":"levelo://app?vid=d48770ea-271d-480f-a83f-8620fe6a1833"},"vehicle_type_id":"4","last_reported":1745762860,"current_range_meters":5600,"station_id":"","pricing_plan_id":"cebpf4jnsgd1na2vs0mg"},{"bike_id":"e2d7b7bf-c4bb-41fa-9945-5fab88bea625","system_id":"levelo_inurba_marseille","lat":43.26181,"lon":5.3745,"is_reserved":false,"is_disabled":false,"rental_uris":{"android":"levelo://app?vid=e2d7b7bf-c4bb-41fa-9945-5fab88bea625","ios":"levelo://app?vid=e2d7b7bf-c4bb-41fa-9945-5fab88bea625"},"vehicle_type_id":"4","last_reported":1745762860,"current_range_meters":5600,"station_id":"ce4bhgp2rcd13ifvqfc0","pricing_plan_id":"cebpf4jnsgd1na2vs0mg"},{"bike_id":"3768625f-e836-42c8-b6d3-0a63b6423d5e","system_id":"levelo_inurba_marseille","lat":43.30551,"lon":5.36719,"is_reserved":false,"is_disabled":false,"rental_uris":{"android":"levelo://app?vid=3768625f-e836-42c8-b6d3-0a63b6423d5e","ios":"levelo://app?vid=3768625f-e836-42c8-b6d3-0a63b6423d5e"},"vehicle_type_id":"4","last_reported":1745762860,"current_range_meters":6000,"station_id":"ce4bgrp2rcd13ifvqc9g","pricing_plan_id":"cebpf4jnsgd1na2vs0mg"},{"bike_id":"b22b0a51-833b-4acd-a0c5-9cd85815db27","system_id":"levelo_inurba_marseille","lat":43.3019,"lon":5.36605,"is_reserved":false,"is_disabled":false,"rental_uris":{"android":"levelo://app?vid=b22b0a51-833b-4acd-a0c5-9cd85815db27","ios":"levelo://app?vid=b22b0a51-833b-4acd-a0c5-9cd85815db27"},"vehicle_type_id":"4","last_reported":1745762860,"current_range_meters":6000,"station_id":"ce4bgrh2rcd13ifvqc8g","pricing_plan_id":"cebpf4jnsgd1na2vs0mg"},{"bike_id":"738b6324-a115-4dd7-8c46-c9e3aa976de7","system_id":"levelo_inurba_marseille","lat":43.27205,"lon":5.39183,"is_reserved":false,"is_disabled":false,"rental_uris":{"android":"levelo://app?vid=738b6324-a115-4dd7-8c46-c9e3aa976de7","ios":"levelo://app?vid=738b6324-a115-4dd7-8c46-c9e3aa976de7"},"vehicle_type_id":"4","last_reported":1745762860,"current_range_meters":6000,"station_id":"ce4bhhp2rcd13ifvqfm0","pricing_plan_id":"cebpf4jnsgd1na2vs0mg"},{"bike_id":"d9c8fb27-2a58-4490-8dbf-cb00821fc82c","system_id":"levelo_inurba_marseille","lat":43.29189,"lon":5.39306,"is_reserved":false,"is_disabled":false,"rental_uris":{"android":"levelo://app?vid=d9c8fb27-2a58-4490-8dbf-cb00821fc82c","ios":"levelo://app?vid=d9c8fb27-2a58-4490-8dbf-cb00821fc82c"},"vehicle_type_id":"4","last_reported":1745762860,"current_range_meters":6400,"station_id":"ce4bh192rcd13ifvqdd0","pricing_plan_id":"cebpf4jnsgd1na2vs0mg"},{"bike_id":"1a218788-c815-4ad6-9544-de13a3fc056c","system_id":"levelo_inurba_marseille","lat":43.30547,"lon":5.36558,"is_reserved":false,"is_disabled":false,"rental_uris":{"android":"levelo://app?vid=1a218788-c815-4ad6-9544-de13a3fc056c","ios":"levelo://app?vid=1a218788-c815-4ad6-9544-de13a3fc056c"},"vehicle_type_id":"4","last_reported":1745762860,"current_range_meters":6400,"station_id":"ce4bgs12rcd13ifvqcag","pricing_plan_id":"cebpf4jnsgd1na2vs0mg"},{"bike_id":"dfc48e30-6678-4c1e-8e38-d5189551cb27","system_id":"levelo_inurba_marseille","lat":43.26573,"lon":5.39016,"is_reserved":false,"is_disabled":false,"rental_uris":{"android":"levelo://app?vid=dfc48e30-6678-4c1e-8e38-d5189551cb27","ios":"levelo://app?vid=dfc48e30-6678-4c1e-8e38-d5189551cb27"},"vehicle_type_id":"4","last_reported":1745762860,"current_range_meters":6400,"station_id":"ce4bhe12rcd13ifvqf30","pricing_plan_id":"cebpf4jnsgd1na2vs0mg"},{"bike_id":"2a56d006-e483-4b6b-ac98-33995f8ccead","system_id":"levelo_inurba_marseille","lat":43.28364,"lon":5.38641,"is_reserved":false,"is_disabled":false,"rental_uris":{"android":"levelo://app?vid=2a56d006-e483-4b6b-ac98-33995f8ccead","ios":"levelo://app?vid=2a56d006-e483-4b6b-ac98-33995f8ccead"},"vehicle_type_id":"4","last_reported":1745762860,"current_range_meters":6400,"station_id":"ce4bh492rcd13ifvqdvg","pricing_plan_id":"cebpf4jnsgd1na2vs0mg"},{"bike_id":"1fbd67e3-0d2e-4c6f-b0c0-ef9b0b4f6ece","system_id":"levelo_inurba_marseille","lat":43.290915,"lon":5.380972,"is_reserved":false,"is_disabled":false,"rental_uris":{"android":"levelo://app?vid=1fbd67e3-0d2e-4c6f-b0c0-ef9b0b4f6ece","ios":"levelo://app?vid=1fbd67e3-0d2e-4c6f-b0c0-ef9b0b4f6ece"},"vehicle_type_id":"4","last_reported":1745762860,"current_range_meters":6400,"station_id":"ce4bh512rcd13ifvqe3g","pricing_plan_id":"cebpf4jnsgd1na2vs0mg"},{"bike_id":"b9d9721d-c534-4190-b885-afd25bc0dc94","system_id":"levelo_inurba_marseille","lat":43.292724,"lon":5.376073,"is_reserved":false,"is_disabled":false,"rental_uris":{"android":"levelo://app?vid=b9d9721d-c534-4190-b885-afd25bc0dc94","ios":"levelo://app?vid=b9d9721d-c534-4190-b885-afd25bc0dc94"},"vehicle_type_id":"4","last_reported":1745762860,"current_range_meters":6400,"station_id":"ce4bgi12rcd13ifvqb80","pricing_plan_id":"cebpf4jnsgd1na2vs0mg"},{"bike_id":"23ff0ad8-5143-44b6-9bae-d07722d2784c","system_id":"levelo_inurba_marseille","lat":43.28697,"lon":5.3739,"is_reserved":false,"is_disabled":false,"rental_uris":{"android":"levelo://app?vid=23ff0ad8-5143-44b6-9bae-d07722d2784c","ios":"levelo://app?vid=23ff0ad8-5143-44b6-9bae-d07722d2784c"},"vehicle_type_id":"4","last_reported":1745762860,"current_range_meters":6400,"station_id":"ce4bh3p2rcd13ifvqdq0","pricing_plan_id":"cebpf4jnsgd1na2vs0mg"},{"bike_id":"8ca13c70-8e9a-4643-8dce-26a0dc984577","system_id":"levelo_inurba_marseille","lat":43.29004,"lon":5.35615,"is_reserved":false,"is_disabled":false,"rental_uris":{"android":"levelo://app?vid=8ca13c70-8e9a-4643-8dce-26a0dc984577","ios":"levelo://app?vid=8ca13c70-8e9a-4643-8dce-26a0dc984577"},"vehicle_type_id":"4","last_reported":1745762860,"current_range_meters":6800,"station_id":"ce4bhb92rcd13ifvqen0","pricing_plan_id":"cebpf4jnsgd1na2vs0mg"},{"bike_id":"29b70731-5e4e-4a84-a5cb-0f1ce7688231","system_id":"levelo_inurba_marseille","lat":43.31068,"lon":5.38355,"is_reserved":false,"is_disabled":false,"rental_uris":{"android":"levelo://app?vid=29b70731-5e4e-4a84-a5cb-0f1ce7688231","ios":"levelo://app?vid=29b70731-5e4e-4a84-a5cb-0f1ce7688231"},"vehicle_type_id":"4","last_reported":1745762860,"current_range_meters":6800,"station_id":"ce4bgv92rcd13ifvqcr0","pricing_plan_id":"cebpf4jnsgd1na2vs0mg"},{"bike_id":"afaa9e0d-b96d-4abe-80aa-9014492f0493","system_id":"levelo_inurba_marseille","lat":43.3126,"lon":5.36845,"is_reserved":false,"is_disabled":false,"rental_uris":{"android":"levelo://app?vid=afaa9e0d-b96d-4abe-80aa-9014492f0493","ios":"levelo://app?vid=afaa9e0d-b96d-4abe-80aa-9014492f0493"},"vehicle_type_id":"4","last_reported":1745762860,"current_range_meters":6800,"station_id":"ce4bgl92rcd13ifvqbq0","pricing_plan_id":"cebpf4jnsgd1na2vs0mg"},{"bike_id":"c886bc95-a9f4-4b08-af93-286cc6dbd1ea","system_id":"levelo_inurba_marseille","lat":43.24168,"lon":5.364,"is_reserved":false,"is_disabled":false,"rental_uris":{"android":"levelo://app?vid=c886bc95-a9f4-4b08-af93-286cc6dbd1ea","ios":"levelo://app?vid=c886bc95-a9f4-4b08-af93-286cc6dbd1ea"},"vehicle_type_id":"4","last_reported":1745762860,"current_range_meters":6800,"station_id":"cpo36qri1sfpv3e86is0","pricing_plan_id":"cebpf4jnsgd1na2vs0mg"},{"bike_id":"04d70716-1e19-4e8d-930b-643cd3956115","system_id":"levelo_inurba_marseille","lat":43.29846,"lon":5.36273,"is_reserved":false,"is_disabled":false,"rental_uris":{"android":"levelo://app?vid=04d70716-1e19-4e8d-930b-643cd3956115","ios":"levelo://app?vid=04d70716-1e19-4e8d-930b-643cd3956115"},"vehicle_type_id":"4","last_reported":1745762860,"current_range_meters":6800,"station_id":"ce4bgpp2rcd13ifvqc3g","pricing_plan_id":"cebpf4jnsgd1na2vs0mg"},{"bike_id":"f481d52d-ff99-4ff4-bdef-b3c96f72c25a","system_id":"levelo_inurba_marseille","lat":43.28711,"lon":5.39995,"is_reserved":false,"is_disabled":false,"rental_uris":{"android":"levelo://app?vid=f481d52d-ff99-4ff4-bdef-b3c96f72c25a","ios":"levelo://app?vid=f481d52d-ff99-4ff4-bdef-b3c96f72c25a"},"vehicle_type_id":"4","last_reported":1745762860,"current_range_meters":6800,"station_id":"ce4bho92rcd13ifvqh3g","pricing_plan_id":"cebpf4jnsgd1na2vs0mg"},{"bike_id":"571880c0-0712-439e-9fee-1111267484d9","system_id":"levelo_inurba_marseille","lat":43.28716,"lon":5.3795,"is_reserved":false,"is_disabled":true,"rental_uris":{"android":"levelo://app?vid=571880c0-0712-439e-9fee-1111267484d9","ios":"levelo://app?vid=571880c0-0712-439e-9fee-1111267484d9"},"vehicle_type_id":"4","last_reported":1745762860,"current_range_meters":7200,"station_id":"ce4bh9p2rcd13ifvqec0","pricing_plan_id":"cebpf4jnsgd1na2vs0mg"},{"bike_id":"e768aa58-f78c-4d48-862b-93a92cf87bd8","system_id":"levelo_inurba_marseille","lat":43.32107,"lon":5.36778,"is_reserved":false,"is_disabled":false,"rental_uris":{"android":"levelo://app?vid=e768aa58-f78c-4d48-862b-93a92cf87bd8","ios":"levelo://app?vid=e768aa58-f78c-4d48-862b-93a92cf87bd8"},"vehicle_type_id":"4","last_reported":1745762860,"current_range_meters":7200,"station_id":"ce4bhrh2rcd13ifvqhug","pricing_plan_id":"cebpf4jnsgd1na2vs0mg"},{"bike_id":"b4b0266c-631d-4bc0-b722-43b22c86c85f","system_id":"levelo_inurba_marseille","lat":43.31015,"lon":5.41746,"is_reserved":false,"is_disabled":false,"rental_uris":{"android":"levelo://app?vid=b4b0266c-631d-4bc0-b722-43b22c86c85f","ios":"levelo://app?vid=b4b0266c-631d-4bc0-b722-43b22c86c85f"},"vehicle_type_id":"4","last_reported":1745762860,"current_range_meters":7200,"station_id":"","pricing_plan_id":"cebpf4jnsgd1na2vs0mg"},{"bike_id":"d61d6516-a1fa-43c3-abdd-295e3932bcf9","system_id":"levelo_inurba_marseille","lat":43.276713,"lon":5.38892,"is_reserved":false,"is_disabled":false,"rental_uris":{"android":"levelo://app?vid=d61d6516-a1fa-43c3-abdd-295e3932bcf9","ios":"levelo://app?vid=d61d6516-a1fa-43c3-abdd-295e3932bcf9"},"vehicle_type_id":"4","last_reported":1745762860,"current_range_meters":7200,"station_id":"ce4bh412rcd13ifvqdr0","pricing_plan_id":"cebpf4jnsgd1na2vs0mg"},{"bike_id":"439d9c26-8eab-4f03-b11e-4df787d745a2","system_id":"levelo_inurba_marseille","lat":43.27205,"lon":5.39151,"is_reserved":false,"is_disabled":false,"rental_uris":{"android":"levelo://app?vid=439d9c26-8eab-4f03-b11e-4df787d745a2","ios":"levelo://app?vid=439d9c26-8eab-4f03-b11e-4df787d745a2"},"vehicle_type_id":"4","last_reported":1745762860,"current_range_meters":7200,"station_id":"ce4bhhp2rcd13ifvqfm0","pricing_plan_id":"cebpf4jnsgd1na2vs0mg"},{"bike_id":"1e9ac802-0e05-42e4-9d47-bab625c4738e","system_id":"levelo_inurba_marseille","lat":43.21749,"lon":5.3461,"is_reserved":false,"is_disabled":false,"rental_uris":{"android":"levelo://app?vid=1e9ac802-0e05-42e4-9d47-bab625c4738e","ios":"levelo://app?vid=1e9ac802-0e05-42e4-9d47-bab625c4738e"},"vehicle_type_id":"4","last_reported":1745762860,"current_range_meters":7200,"station_id":"st_cvj6r9ubvosntc0bgbag","pricing_plan_id":"cebpf4jnsgd1na2vs0mg"},{"bike_id":"a1fda7b9-5017-4843-bec2-cd69eb978fd4","system_id":"levelo_inurba_marseille","lat":43.23961,"lon":5.36621,"is_reserved":false,"is_disabled":false,"rental_uris":{"android":"levelo://app?vid=a1fda7b9-5017-4843-bec2-cd69eb978fd4","ios":"levelo://app?vid=a1fda7b9-5017-4843-bec2-cd69eb978fd4"},"vehicle_type_id":"4","last_reported":1745762860,"current_range_meters":7200,"station_id":"ce4bhi12rcd13ifvqfp0","pricing_plan_id":"cebpf4jnsgd1na2vs0mg"},{"bike_id":"4a5edcf1-6727-4c60-8f88-19c6d2a1f8fa","system_id":"levelo_inurba_marseille","lat":43.22928,"lon":5.35377,"is_reserved":false,"is_disabled":false,"rental_uris":{"android":"levelo://app?vid=4a5edcf1-6727-4c60-8f88-19c6d2a1f8fa","ios":"levelo://app?vid=4a5edcf1-6727-4c60-8f88-19c6d2a1f8fa"},"vehicle_type_id":"4","last_reported":1745762860,"current_range_meters":7200,"station_id":"cpo3532slgdg3j2ikp40","pricing_plan_id":"cebpf4jnsgd1na2vs0mg"},{"bike_id":"652ce9c9-f69d-4007-9f86-c7481a02fbe3","system_id":"levelo_inurba_marseille","lat":43.30605,"lon":5.37221,"is_reserved":false,"is_disabled":false,"rental_uris":{"android":"levelo://app?vid=652ce9c9-f69d-4007-9f86-c7481a02fbe3","ios":"levelo://app?vid=652ce9c9-f69d-4007-9f86-c7481a02fbe3"},"vehicle_type_id":"4","last_reported":1745762860,"current_range_meters":8000,"station_id":"ce4bgqh2rcd13ifvqc4g","pricing_plan_id":"cebpf4jnsgd1na2vs0mg"},{"bike_id":"308ce0d7-54d5-4aec-879f-da2149307f93","system_id":"levelo_inurba_marseille","lat":43.22527,"lon":5.34787,"is_reserved":false,"is_disabled":true,"rental_uris":{"android":"levelo://app?vid=308ce0d7-54d5-4aec-879f-da2149307f93","ios":"levelo://app?vid=308ce0d7-54d5-4aec-879f-da2149307f93"},"vehicle_type_id":"4","last_reported":1745762860,"current_range_meters":8000,"station_id":"st_cvj5dfep6f1abm77gieg","pricing_plan_id":"cebpf4jnsgd1na2vs0mg"},{"bike_id":"82016555-1022-467f-b7e9-084b6d838aac","system_id":"levelo_inurba_marseille","lat":43.25523,"lon":5.37609,"is_reserved":false,"is_disabled":false,"rental_uris":{"android":"levelo://app?vid=82016555-1022-467f-b7e9-084b6d838aac","ios":"levelo://app?vid=82016555-1022-467f-b7e9-084b6d838aac"},"vehicle_type_id":"4","last_reported":1745762860,"current_range_meters":8000,"station_id":"ce4bhh12rcd13ifvqff0","pricing_plan_id":"cebpf4jnsgd1na2vs0mg"},{"bike_id":"8c5768b9-9fa6-494e-a6be-d9f15dd1ac97","system_id":"levelo_inurba_marseille","lat":43.2931,"lon":5.37172,"is_reserved":false,"is_disabled":false,"rental_uris":{"android":"levelo://app?vid=8c5768b9-9fa6-494e-a6be-d9f15dd1ac97","ios":"levelo://app?vid=8c5768b9-9fa6-494e-a6be-d9f15dd1ac97"},"vehicle_type_id":"4","last_reported":1745762860,"current_range_meters":8000,"station_id":"ce4bgh92rcd13ifvqb40","pricing_plan_id":"cebpf4jnsgd1na2vs0mg"},{"bike_id":"042a36cf-a68c-4f02-8fbe-a3d4f36fa492","system_id":"levelo_inurba_marseille","lat":43.21203,"lon":5.35083,"is_reserved":false,"is_disabled":false,"rental_uris":{"android":"levelo://app?vid=042a36cf-a68c-4f02-8fbe-a3d4f36fa492","ios":"levelo://app?vid=042a36cf-a68c-4f02-8fbe-a3d4f36fa492"},"vehicle_type_id":"4","last_reported":1745762860,"current_range_meters":8000,"station_id":"st_cvj6sg6p6f1abm77japg","pricing_plan_id":"cebpf4jnsgd1na2vs0mg"},{"bike_id":"3e22b39a-22a0-49d4-b6f3-e6ae75b39b53","system_id":"levelo_inurba_marseille","lat":43.28442,"lon":5.39202,"is_reserved":false,"is_disabled":false,"rental_uris":{"android":"levelo://app?vid=3e22b39a-22a0-49d4-b6f3-e6ae75b39b53","ios":"levelo://app?vid=3e22b39a-22a0-49d4-b6f3-e6ae75b39b53"},"vehicle_type_id":"4","last_reported":1745762860,"current_range_meters":7200,"station_id":"ce4bhoh2rcd13ifvqh5g","pricing_plan_id":"cebpf4jnsgd1na2vs0mg"},{"bike_id":"aa7dd23a-c50c-4359-a4fa-3d29c4576751","system_id":"levelo_inurba_marseille","lat":43.24168,"lon":5.36434,"is_reserved":false,"is_disabled":false,"rental_uris":{"android":"levelo://app?vid=aa7dd23a-c50c-4359-a4fa-3d29c4576751","ios":"levelo://app?vid=aa7dd23a-c50c-4359-a4fa-3d29c4576751"},"vehicle_type_id":"4","last_reported":1745762860,"current_range_meters":8000,"station_id":"cpo36qri1sfpv3e86is0","pricing_plan_id":"cebpf4jnsgd1na2vs0mg"},{"bike_id":"b3dc7a90-c4ee-4c52-9e58-1068c3e1dcd6","system_id":"levelo_inurba_marseille","lat":43.28154,"lon":5.4264,"is_reserved":false,"is_disabled":false,"rental_uris":{"android":"levelo://app?vid=b3dc7a90-c4ee-4c52-9e58-1068c3e1dcd6","ios":"levelo://app?vid=b3dc7a90-c4ee-4c52-9e58-1068c3e1dcd6"},"vehicle_type_id":"4","last_reported":1745762860,"current_range_meters":7200,"station_id":"ce4bhnh2rcd13ifvqgug","pricing_plan_id":"cebpf4jnsgd1na2vs0mg"},{"bike_id":"49f5d3d2-49f4-4f67-8355-9847fa5a1bc5","system_id":"levelo_inurba_marseille","lat":43.26563,"lon":5.39,"is_reserved":false,"is_disabled":false,"rental_uris":{"android":"levelo://app?vid=49f5d3d2-49f4-4f67-8355-9847fa5a1bc5","ios":"levelo://app?vid=49f5d3d2-49f4-4f67-8355-9847fa5a1bc5"},"vehicle_type_id":"4","last_reported":1745762860,"current_range_meters":8000,"station_id":"ce4bhe12rcd13ifvqf30","pricing_plan_id":"cebpf4jnsgd1na2vs0mg"},{"bike_id":"c2ec8bb1-2485-4bad-8b9f-9dba0f966a79","system_id":"levelo_inurba_marseille","lat":43.29588,"lon":5.37716,"is_reserved":false,"is_disabled":false,"rental_uris":{"android":"levelo://app?vid=c2ec8bb1-2485-4bad-8b9f-9dba0f966a79","ios":"levelo://app?vid=c2ec8bb1-2485-4bad-8b9f-9dba0f966a79"},"vehicle_type_id":"4","last_reported":1745762860,"current_range_meters":8000,"station_id":"ce4bgi92rcd13ifvqb90","pricing_plan_id":"cebpf4jnsgd1na2vs0mg"},{"bike_id":"b203106f-15ad-4224-a9bb-aef6d708468c","system_id":"levelo_inurba_marseille","lat":43.27497,"lon":5.42446,"is_reserved":false,"is_disabled":false,"rental_uris":{"android":"levelo://app?vid=b203106f-15ad-4224-a9bb-aef6d708468c","ios":"levelo://app?vid=b203106f-15ad-4224-a9bb-aef6d708468c"},"vehicle_type_id":"4","last_reported":1745762860,"current_range_meters":8000,"station_id":"ce4bhn92rcd13ifvqgrg","pricing_plan_id":"cebpf4jnsgd1na2vs0mg"},{"bike_id":"235a0a8a-453b-443f-964e-4060125aa02c","system_id":"levelo_inurba_marseille","lat":43.29596,"lon":5.38106,"is_reserved":false,"is_disabled":false,"rental_uris":{"android":"levelo://app?vid=235a0a8a-453b-443f-964e-4060125aa02c","ios":"levelo://app?vid=235a0a8a-453b-443f-964e-4060125aa02c"},"vehicle_type_id":"4","last_reported":1745762860,"current_range_meters":8000,"station_id":"ce4bgl12rcd13ifvqbo0","pricing_plan_id":"cebpf4jnsgd1na2vs0mg"},{"bike_id":"c1b1b433-bcb9-4a7d-8963-3218bcdcba1e","system_id":"levelo_inurba_marseille","lat":43.23354,"lon":5.36056,"is_reserved":false,"is_disabled":false,"rental_uris":{"android":"levelo://app?vid=c1b1b433-bcb9-4a7d-8963-3218bcdcba1e","ios":"levelo://app?vid=c1b1b433-bcb9-4a7d-8963-3218bcdcba1e"},"vehicle_type_id":"4","last_reported":1745762860,"current_range_meters":8000,"station_id":"","pricing_plan_id":"cebpf4jnsgd1na2vs0mg"},{"bike_id":"44fc1d3a-5fe5-42ff-96cd-0ba89fbd3ad1","system_id":"levelo_inurba_marseille","lat":43.30649,"lon":5.40103,"is_reserved":false,"is_disabled":false,"rental_uris":{"android":"levelo://app?vid=44fc1d3a-5fe5-42ff-96cd-0ba89fbd3ad1","ios":"levelo://app?vid=44fc1d3a-5fe5-42ff-96cd-0ba89fbd3ad1"},"vehicle_type_id":"4","last_reported":1745762860,"current_range_meters":8000,"station_id":"ce4bh112rcd13ifvqda0","pricing_plan_id":"cebpf4jnsgd1na2vs0mg"},{"bike_id":"36a0968b-1d3c-4859-998a-b8f950edb680","system_id":"levelo_inurba_marseille","lat":43.24549,"lon":5.39524,"is_reserved":false,"is_disabled":false,"rental_uris":{"android":"levelo://app?vid=36a0968b-1d3c-4859-998a-b8f950edb680","ios":"levelo://app?vid=36a0968b-1d3c-4859-998a-b8f950edb680"},"vehicle_type_id":"4","last_reported":1745762860,"current_range_meters":8400,"station_id":"ce4bhlp2rcd13ifvqgjg","pricing_plan_id":"cebpf4jnsgd1na2vs0mg"},{"bike_id":"2d4820d4-569a-4ec0-b000-e82a960dd30b","system_id":"levelo_inurba_marseille","lat":43.23149,"lon":5.35502,"is_reserved":false,"is_disabled":false,"rental_uris":{"android":"levelo://app?vid=2d4820d4-569a-4ec0-b000-e82a960dd30b","ios":"levelo://app?vid=2d4820d4-569a-4ec0-b000-e82a960dd30b"},"vehicle_type_id":"4","last_reported":1745762860,"current_range_meters":8400,"station_id":"","pricing_plan_id":"cebpf4jnsgd1na2vs0mg"},{"bike_id":"55a0ff1b-e0c1-4cb9-983d-519c59fd6456","system_id":"levelo_inurba_marseille","lat":43.30538,"lon":5.36559,"is_reserved":false,"is_disabled":false,"rental_uris":{"android":"levelo://app?vid=55a0ff1b-e0c1-4cb9-983d-519c59fd6456","ios":"levelo://app?vid=55a0ff1b-e0c1-4cb9-983d-519c59fd6456"},"vehicle_type_id":"4","last_reported":1745762860,"current_range_meters":8400,"station_id":"ce4bgs12rcd13ifvqcag","pricing_plan_id":"cebpf4jnsgd1na2vs0mg"},{"bike_id":"81159e63-3b35-42d5-8e59-a6400c53568e","system_id":"levelo_inurba_marseille","lat":43.21754,"lon":5.34608,"is_reserved":false,"is_disabled":false,"rental_uris":{"android":"levelo://app?vid=81159e63-3b35-42d5-8e59-a6400c53568e","ios":"levelo://app?vid=81159e63-3b35-42d5-8e59-a6400c53568e"},"vehicle_type_id":"4","last_reported":1745762860,"current_range_meters":8400,"station_id":"st_cvj6r9ubvosntc0bgbag","pricing_plan_id":"cebpf4jnsgd1na2vs0mg"},{"bike_id":"3f8e74df-4b8a-4fe8-9f20-4fbe47605119","system_id":"levelo_inurba_marseille","lat":43.29032,"lon":5.37561,"is_reserved":false,"is_disabled":true,"rental_uris":{"android":"levelo://app?vid=3f8e74df-4b8a-4fe8-9f20-4fbe47605119","ios":"levelo://app?vid=3f8e74df-4b8a-4fe8-9f20-4fbe47605119"},"vehicle_type_id":"4","last_reported":1745762860,"current_range_meters":8400,"station_id":"ce4bh692rcd13ifvqe90","pricing_plan_id":"cebpf4jnsgd1na2vs0mg"},{"bike_id":"29e9ba7b-ef49-45a6-b0b0-2939f02f79f8","system_id":"levelo_inurba_marseille","lat":43.297089,"lon":5.368021,"is_reserved":false,"is_disabled":false,"rental_uris":{"android":"levelo://app?vid=29e9ba7b-ef49-45a6-b0b0-2939f02f79f8","ios":"levelo://app?vid=29e9ba7b-ef49-45a6-b0b0-2939f02f79f8"},"vehicle_type_id":"4","last_reported":1745762860,"current_range_meters":8400,"station_id":"ce4bgn12rcd13ifvqbt0","pricing_plan_id":"cebpf4jnsgd1na2vs0mg"},{"bike_id":"746f980d-63b4-4a7e-983c-44521333f166","system_id":"levelo_inurba_marseille","lat":43.28845,"lon":5.39297,"is_reserved":false,"is_disabled":false,"rental_uris":{"android":"levelo://app?vid=746f980d-63b4-4a7e-983c-44521333f166","ios":"levelo://app?vid=746f980d-63b4-4a7e-983c-44521333f166"},"vehicle_type_id":"4","last_reported":1745762860,"current_range_meters":8400,"station_id":"ce4bh2p2rcd13ifvqdi0","pricing_plan_id":"cebpf4jnsgd1na2vs0mg"},{"bike_id":"04830c10-cbf6-4742-bfe5-b214927efcda","system_id":"levelo_inurba_marseille","lat":43.30602,"lon":5.37213,"is_reserved":false,"is_disabled":false,"rental_uris":{"android":"levelo://app?vid=04830c10-cbf6-4742-bfe5-b214927efcda","ios":"levelo://app?vid=04830c10-cbf6-4742-bfe5-b214927efcda"},"vehicle_type_id":"4","last_reported":1745762860,"current_range_meters":8800,"station_id":"ce4bgqh2rcd13ifvqc4g","pricing_plan_id":"cebpf4jnsgd1na2vs0mg"},{"bike_id":"b54f94db-f295-4d17-8a10-c7512dcf208c","system_id":"levelo_inurba_marseille","lat":43.30533,"lon":5.36558,"is_reserved":false,"is_disabled":false,"rental_uris":{"android":"levelo://app?vid=b54f94db-f295-4d17-8a10-c7512dcf208c","ios":"levelo://app?vid=b54f94db-f295-4d17-8a10-c7512dcf208c"},"vehicle_type_id":"4","last_reported":1745762860,"current_range_meters":8800,"station_id":"ce4bgs12rcd13ifvqcag","pricing_plan_id":"cebpf4jnsgd1na2vs0mg"},{"bike_id":"c596ab54-4f89-4649-a442-12778ac8adc4","system_id":"levelo_inurba_marseille","lat":43.31721,"lon":5.43701,"is_reserved":false,"is_disabled":true,"rental_uris":{"android":"levelo://app?vid=c596ab54-4f89-4649-a442-12778ac8adc4","ios":"levelo://app?vid=c596ab54-4f89-4649-a442-12778ac8adc4"},"vehicle_type_id":"4","last_reported":1745762860,"current_range_meters":8800,"station_id":"ce4bhp92rcd13ifvqhcg","pricing_plan_id":"cebpf4jnsgd1na2vs0mg"},{"bike_id":"cc956023-16ef-4fba-9997-1d00814a6846","system_id":"levelo_inurba_marseille","lat":43.26185,"lon":5.37932,"is_reserved":false,"is_disabled":false,"rental_uris":{"android":"levelo://app?vid=cc956023-16ef-4fba-9997-1d00814a6846","ios":"levelo://app?vid=cc956023-16ef-4fba-9997-1d00814a6846"},"vehicle_type_id":"4","last_reported":1745762860,"current_range_meters":8800,"station_id":"ce4bhjp2rcd13ifvqg90","pricing_plan_id":"cebpf4jnsgd1na2vs0mg"},{"bike_id":"f9c4da92-e6ba-4082-b9ef-35fa2738e162","system_id":"levelo_inurba_marseille","lat":43.21751,"lon":5.346,"is_reserved":false,"is_disabled":false,"rental_uris":{"android":"levelo://app?vid=f9c4da92-e6ba-4082-b9ef-35fa2738e162","ios":"levelo://app?vid=f9c4da92-e6ba-4082-b9ef-35fa2738e162"},"vehicle_type_id":"4","last_reported":1745762860,"current_range_meters":8800,"station_id":"st_cvj6r9ubvosntc0bgbag","pricing_plan_id":"cebpf4jnsgd1na2vs0mg"},{"bike_id":"fa170925-8001-4180-8d8e-2cd85e08cdf7","system_id":"levelo_inurba_marseille","lat":43.30123,"lon":5.374488,"is_reserved":false,"is_disabled":false,"rental_uris":{"android":"levelo://app?vid=fa170925-8001-4180-8d8e-2cd85e08cdf7","ios":"levelo://app?vid=fa170925-8001-4180-8d8e-2cd85e08cdf7"},"vehicle_type_id":"4","last_reported":1745762860,"current_range_meters":8800,"station_id":"ce4bgup2rcd13ifvqco0","pricing_plan_id":"cebpf4jnsgd1na2vs0mg"},{"bike_id":"50567301-7660-45e4-9314-78fdd7ddbf96","system_id":"levelo_inurba_marseille","lat":43.30788,"lon":5.40943,"is_reserved":false,"is_disabled":false,"rental_uris":{"android":"levelo://app?vid=50567301-7660-45e4-9314-78fdd7ddbf96","ios":"levelo://app?vid=50567301-7660-45e4-9314-78fdd7ddbf96"},"vehicle_type_id":"4","last_reported":1745762860,"current_range_meters":8800,"station_id":"","pricing_plan_id":"cebpf4jnsgd1na2vs0mg"},{"bike_id":"4e09e2f3-6329-4563-9a1f-79c5001029cb","system_id":"levelo_inurba_marseille","lat":43.323765,"lon":5.388875,"is_reserved":false,"is_disabled":false,"rental_uris":{"android":"levelo://app?vid=4e09e2f3-6329-4563-9a1f-79c5001029cb","ios":"levelo://app?vid=4e09e2f3-6329-4563-9a1f-79c5001029cb"},"vehicle_type_id":"4","last_reported":1745762860,"current_range_meters":8800,"station_id":"ce4bhqp2rcd13ifvqhog","pricing_plan_id":"cebpf4jnsgd1na2vs0mg"},{"bike_id":"5ddba1f1-1747-4179-b91f-b8778028cd60","system_id":"levelo_inurba_marseille","lat":43.25634,"lon":5.41211,"is_reserved":false,"is_disabled":false,"rental_uris":{"android":"levelo://app?vid=5ddba1f1-1747-4179-b91f-b8778028cd60","ios":"levelo://app?vid=5ddba1f1-1747-4179-b91f-b8778028cd60"},"vehicle_type_id":"4","last_reported":1745762860,"current_range_meters":8800,"station_id":"","pricing_plan_id":"cebpf4jnsgd1na2vs0mg"},{"bike_id":"9a771597-82b6-43b5-808d-6739d63e5c42","system_id":"levelo_inurba_marseille","lat":43.30151,"lon":5.38076,"is_reserved":false,"is_disabled":false,"rental_uris":{"android":"levelo://app?vid=9a771597-82b6-43b5-808d-6739d63e5c42","ios":"levelo://app?vid=9a771597-82b6-43b5-808d-6739d63e5c42"},"vehicle_type_id":"4","last_reported":1745762860,"current_range_meters":9200,"station_id":"ce4bgjp2rcd13ifvqbh0","pricing_plan_id":"cebpf4jnsgd1na2vs0mg"},{"bike_id":"721ac694-ddc1-45a4-93fe-2aef08d4b564","system_id":"levelo_inurba_marseille","lat":43.24179,"lon":5.36406,"is_reserved":false,"is_disabled":false,"rental_uris":{"android":"levelo://app?vid=721ac694-ddc1-45a4-93fe-2aef08d4b564","ios":"levelo://app?vid=721ac694-ddc1-45a4-93fe-2aef08d4b564"},"vehicle_type_id":"4","last_reported":1745762860,"current_range_meters":9200,"station_id":"cpo36qri1sfpv3e86is0","pricing_plan_id":"cebpf4jnsgd1na2vs0mg"},{"bike_id":"2f2f0432-cb08-40c9-8844-9f1e4c5c30a3","system_id":"levelo_inurba_marseille","lat":43.28144,"lon":5.42626,"is_reserved":false,"is_disabled":false,"rental_uris":{"android":"levelo://app?vid=2f2f0432-cb08-40c9-8844-9f1e4c5c30a3","ios":"levelo://app?vid=2f2f0432-cb08-40c9-8844-9f1e4c5c30a3"},"vehicle_type_id":"4","last_reported":1745762860,"current_range_meters":9200,"station_id":"ce4bhnh2rcd13ifvqgug","pricing_plan_id":"cebpf4jnsgd1na2vs0mg"},{"bike_id":"d1db9f13-b3b3-4982-a762-4844e808134e","system_id":"levelo_inurba_marseille","lat":43.29258,"lon":5.40914,"is_reserved":false,"is_disabled":false,"rental_uris":{"android":"levelo://app?vid=d1db9f13-b3b3-4982-a762-4844e808134e","ios":"levelo://app?vid=d1db9f13-b3b3-4982-a762-4844e808134e"},"vehicle_type_id":"4","last_reported":1745762860,"current_range_meters":9200,"station_id":"ce4bh192rcd13ifvqdc0","pricing_plan_id":"cebpf4jnsgd1na2vs0mg"},{"bike_id":"736ee7d5-708e-48bd-8281-35bb85d0bc7d","system_id":"levelo_inurba_marseille","lat":43.29008,"lon":5.35616,"is_reserved":false,"is_disabled":true,"rental_uris":{"android":"levelo://app?vid=736ee7d5-708e-48bd-8281-35bb85d0bc7d","ios":"levelo://app?vid=736ee7d5-708e-48bd-8281-35bb85d0bc7d"},"vehicle_type_id":"4","last_reported":1745762860,"current_range_meters":9200,"station_id":"ce4bhb92rcd13ifvqen0","pricing_plan_id":"cebpf4jnsgd1na2vs0mg"},{"bike_id":"374695c7-05ae-441b-90bd-19811cb2defe","system_id":"levelo_inurba_marseille","lat":43.3073,"lon":5.42445,"is_reserved":false,"is_disabled":false,"rental_uris":{"android":"levelo://app?vid=374695c7-05ae-441b-90bd-19811cb2defe","ios":"levelo://app?vid=374695c7-05ae-441b-90bd-19811cb2defe"},"vehicle_type_id":"4","last_reported":1745762860,"current_range_meters":9200,"station_id":"st_cvj6ca6bvosntc0bfgr0","pricing_plan_id":"cebpf4jnsgd1na2vs0mg"},{"bike_id":"7d727c0a-6c28-48dc-bed3-bc7b1f3ba7ba","system_id":"levelo_inurba_marseille","lat":43.29237,"lon":5.36452,"is_reserved":false,"is_disabled":true,"rental_uris":{"android":"levelo://app?vid=7d727c0a-6c28-48dc-bed3-bc7b1f3ba7ba","ios":"levelo://app?vid=7d727c0a-6c28-48dc-bed3-bc7b1f3ba7ba"},"vehicle_type_id":"4","last_reported":1745762860,"current_range_meters":9600,"station_id":"","pricing_plan_id":"cebpf4jnsgd1na2vs0mg"},{"bike_id":"7a6d7198-31ed-41f1-a2d2-6e61e5b8bda2","system_id":"levelo_inurba_marseille","lat":43.26198,"lon":5.39696,"is_reserved":false,"is_disabled":false,"rental_uris":{"android":"levelo://app?vid=7a6d7198-31ed-41f1-a2d2-6e61e5b8bda2","ios":"levelo://app?vid=7a6d7198-31ed-41f1-a2d2-6e61e5b8bda2"},"vehicle_type_id":"4","last_reported":1745762860,"current_range_meters":9600,"station_id":"ce4bhmp2rcd13ifvqgog","pricing_plan_id":"cebpf4jnsgd1na2vs0mg"},{"bike_id":"d4db7f43-ee1b-4640-aa6b-7ad17ef31bae","system_id":"levelo_inurba_marseille","lat":43.29281,"lon":5.36839,"is_reserved":false,"is_disabled":false,"rental_uris":{"android":"levelo://app?vid=d4db7f43-ee1b-4640-aa6b-7ad17ef31bae","ios":"levelo://app?vid=d4db7f43-ee1b-4640-aa6b-7ad17ef31bae"},"vehicle_type_id":"4","last_reported":1745762860,"current_range_meters":9600,"station_id":"ce4bhbp2rcd13ifvqesg","pricing_plan_id":"cebpf4jnsgd1na2vs0mg"},{"bike_id":"cecf372e-f99d-4092-9fb9-aba0fb187411","system_id":"levelo_inurba_marseille","lat":43.3241,"lon":5.39105,"is_reserved":false,"is_disabled":false,"rental_uris":{"android":"levelo://app?vid=cecf372e-f99d-4092-9fb9-aba0fb187411","ios":"levelo://app?vid=cecf372e-f99d-4092-9fb9-aba0fb187411"},"vehicle_type_id":"4","last_reported":1745762860,"current_range_meters":9600,"station_id":"","pricing_plan_id":"cebpf4jnsgd1na2vs0mg"},{"bike_id":"bb777a9a-4e0f-4530-b592-038c38f8af72","system_id":"levelo_inurba_marseille","lat":43.28617,"lon":5.35098,"is_reserved":false,"is_disabled":false,"rental_uris":{"android":"levelo://app?vid=bb777a9a-4e0f-4530-b592-038c38f8af72","ios":"levelo://app?vid=bb777a9a-4e0f-4530-b592-038c38f8af72"},"vehicle_type_id":"4","last_reported":1745762860,"current_range_meters":9600,"station_id":"ce4bhch2rcd13ifvqeug","pricing_plan_id":"cebpf4jnsgd1na2vs0mg"},{"bike_id":"dea15188-c098-4794-90f6-0fc4b187f745","system_id":"levelo_inurba_marseille","lat":43.30803,"lon":5.43524,"is_reserved":false,"is_disabled":false,"rental_uris":{"android":"levelo://app?vid=dea15188-c098-4794-90f6-0fc4b187f745","ios":"levelo://app?vid=dea15188-c098-4794-90f6-0fc4b187f745"},"vehicle_type_id":"4","last_reported":1745762860,"current_range_meters":9600,"station_id":"ce4bhph2rcd13ifvqheg","pricing_plan_id":"cebpf4jnsgd1na2vs0mg"},{"bike_id":"74d75ce2-465b-46a9-a2aa-72f781491014","system_id":"levelo_inurba_marseille","lat":43.2549,"lon":5.37646,"is_reserved":false,"is_disabled":false,"rental_uris":{"android":"levelo://app?vid=74d75ce2-465b-46a9-a2aa-72f781491014","ios":"levelo://app?vid=74d75ce2-465b-46a9-a2aa-72f781491014"},"vehicle_type_id":"4","last_reported":1745762860,"current_range_meters":9600,"station_id":"ce4bhh12rcd13ifvqff0","pricing_plan_id":"cebpf4jnsgd1na2vs0mg"},{"bike_id":"00616192-2e7e-4143-89a7-22ed0fe84242","system_id":"levelo_inurba_marseille","lat":43.31503,"lon":5.37295,"is_reserved":false,"is_disabled":false,"rental_uris":{"android":"levelo://app?vid=00616192-2e7e-4143-89a7-22ed0fe84242","ios":"levelo://app?vid=00616192-2e7e-4143-89a7-22ed0fe84242"},"vehicle_type_id":"4","last_reported":1745762860,"current_range_meters":10000,"station_id":"ce4bgt12rcd13ifvqcd0","pricing_plan_id":"cebpf4jnsgd1na2vs0mg"},{"bike_id":"f8ed65b2-483a-4eb2-9ab5-87157bd89870","system_id":"levelo_inurba_marseille","lat":43.28366,"lon":5.38097,"is_reserved":false,"is_disabled":false,"rental_uris":{"android":"levelo://app?vid=f8ed65b2-483a-4eb2-9ab5-87157bd89870","ios":"levelo://app?vid=f8ed65b2-483a-4eb2-9ab5-87157bd89870"},"vehicle_type_id":"4","last_reported":1745762860,"current_range_meters":10000,"station_id":"ce4bh412rcd13ifvqdr0","pricing_plan_id":"cebpf4jnsgd1na2vs0mg"},{"bike_id":"574c21c3-5de9-4bfa-a3aa-ac4e3698f0a7","system_id":"levelo_inurba_marseille","lat":43.272,"lon":5.39188,"is_reserved":false,"is_disabled":true,"rental_uris":{"android":"levelo://app?vid=574c21c3-5de9-4bfa-a3aa-ac4e3698f0a7","ios":"levelo://app?vid=574c21c3-5de9-4bfa-a3aa-ac4e3698f0a7"},"vehicle_type_id":"4","last_reported":1745762860,"current_range_meters":10000,"station_id":"ce4bhhp2rcd13ifvqfm0","pricing_plan_id":"cebpf4jnsgd1na2vs0mg"},{"bike_id":"6ddef21b-cdc9-47aa-8cf5-d0a51a10b65c","system_id":"levelo_inurba_marseille","lat":43.26217,"lon":5.37445,"is_reserved":false,"is_disabled":false,"rental_uris":{"android":"levelo://app?vid=6ddef21b-cdc9-47aa-8cf5-d0a51a10b65c","ios":"levelo://app?vid=6ddef21b-cdc9-47aa-8cf5-d0a51a10b65c"},"vehicle_type_id":"4","last_reported":1745762860,"current_range_meters":10000,"station_id":"ce4bhgp2rcd13ifvqfc0","pricing_plan_id":"cebpf4jnsgd1na2vs0mg"},{"bike_id":"6f9efa22-6701-48b6-9dac-71701c013e89","system_id":"levelo_inurba_marseille","lat":43.28009,"lon":5.39996,"is_reserved":false,"is_disabled":false,"rental_uris":{"android":"levelo://app?vid=6f9efa22-6701-48b6-9dac-71701c013e89","ios":"levelo://app?vid=6f9efa22-6701-48b6-9dac-71701c013e89"},"vehicle_type_id":"4","last_reported":1745762860,"current_range_meters":10000,"station_id":"ce4bho92rcd13ifvqh4g","pricing_plan_id":"cebpf4jnsgd1na2vs0mg"},{"bike_id":"eb8c6995-9210-4c81-8dc9-0cf713d89300","system_id":"levelo_inurba_marseille","lat":43.21741,"lon":5.34598,"is_reserved":false,"is_disabled":false,"rental_uris":{"android":"levelo://app?vid=eb8c6995-9210-4c81-8dc9-0cf713d89300","ios":"levelo://app?vid=eb8c6995-9210-4c81-8dc9-0cf713d89300"},"vehicle_type_id":"4","last_reported":1745762860,"current_range_meters":10000,"station_id":"st_cvj6r9ubvosntc0bgbag","pricing_plan_id":"cebpf4jnsgd1na2vs0mg"},{"bike_id":"0d18ece5-576f-4fdc-a3a6-f908dca6d847","system_id":"levelo_inurba_marseille","lat":43.29852,"lon":5.36282,"is_reserved":false,"is_disabled":false,"rental_uris":{"android":"levelo://app?vid=0d18ece5-576f-4fdc-a3a6-f908dca6d847","ios":"levelo://app?vid=0d18ece5-576f-4fdc-a3a6-f908dca6d847"},"vehicle_type_id":"4","last_reported":1745762860,"current_range_meters":10000,"station_id":"ce4bgpp2rcd13ifvqc3g","pricing_plan_id":"cebpf4jnsgd1na2vs0mg"},{"bike_id":"0053b840-de47-4900-98aa-cc8575176b05","system_id":"levelo_inurba_marseille","lat":43.24171,"lon":5.36421,"is_reserved":false,"is_disabled":true,"rental_uris":{"android":"levelo://app?vid=0053b840-de47-4900-98aa-cc8575176b05","ios":"levelo://app?vid=0053b840-de47-4900-98aa-cc8575176b05"},"vehicle_type_id":"4","last_reported":1745762860,"current_range_meters":10800,"station_id":"cpo36qri1sfpv3e86is0","pricing_plan_id":"cebpf4jnsgd1na2vs0mg"},{"bike_id":"0bc3dc01-68d5-4dc4-9a99-913a48f3e5fc","system_id":"levelo_inurba_marseille","lat":43.28342,"lon":5.38111,"is_reserved":false,"is_disabled":false,"rental_uris":{"android":"levelo://app?vid=0bc3dc01-68d5-4dc4-9a99-913a48f3e5fc","ios":"levelo://app?vid=0bc3dc01-68d5-4dc4-9a99-913a48f3e5fc"},"vehicle_type_id":"4","last_reported":1745762860,"current_range_meters":10800,"station_id":"ce4bh412rcd13ifvqdr0","pricing_plan_id":"cebpf4jnsgd1na2vs0mg"},{"bike_id":"0b5d7e21-132b-4179-bc1f-9945861a285f","system_id":"levelo_inurba_marseille","lat":43.27206,"lon":5.39186,"is_reserved":false,"is_disabled":false,"rental_uris":{"android":"levelo://app?vid=0b5d7e21-132b-4179-bc1f-9945861a285f","ios":"levelo://app?vid=0b5d7e21-132b-4179-bc1f-9945861a285f"},"vehicle_type_id":"4","last_reported":1745762860,"current_range_meters":10800,"station_id":"ce4bhhp2rcd13ifvqfm0","pricing_plan_id":"cebpf4jnsgd1na2vs0mg"},{"bike_id":"7ee810bf-b498-4347-bbd8-d0ed25eca962","system_id":"levelo_inurba_marseille","lat":43.2678,"lon":5.39414,"is_reserved":false,"is_disabled":false,"rental_uris":{"android":"levelo://app?vid=7ee810bf-b498-4347-bbd8-d0ed25eca962","ios":"levelo://app?vid=7ee810bf-b498-4347-bbd8-d0ed25eca962"},"vehicle_type_id":"4","last_reported":1745762860,"current_range_meters":10800,"station_id":"ce4bhh12rcd13ifvqfg0","pricing_plan_id":"cebpf4jnsgd1na2vs0mg"},{"bike_id":"66c89bb7-3b13-49ff-b8c5-0823b0bd91cb","system_id":"levelo_inurba_marseille","lat":43.26196,"lon":5.37453,"is_reserved":false,"is_disabled":true,"rental_uris":{"android":"levelo://app?vid=66c89bb7-3b13-49ff-b8c5-0823b0bd91cb","ios":"levelo://app?vid=66c89bb7-3b13-49ff-b8c5-0823b0bd91cb"},"vehicle_type_id":"4","last_reported":1745762860,"current_range_meters":10800,"station_id":"ce4bhgp2rcd13ifvqfc0","pricing_plan_id":"cebpf4jnsgd1na2vs0mg"},{"bike_id":"1997d102-df05-4f63-9d3a-754162eaea31","system_id":"levelo_inurba_marseille","lat":43.29857,"lon":5.36259,"is_reserved":false,"is_disabled":false,"rental_uris":{"android":"levelo://app?vid=1997d102-df05-4f63-9d3a-754162eaea31","ios":"levelo://app?vid=1997d102-df05-4f63-9d3a-754162eaea31"},"vehicle_type_id":"4","last_reported":1745762860,"current_range_meters":10800,"station_id":"ce4bgpp2rcd13ifvqc3g","pricing_plan_id":"cebpf4jnsgd1na2vs0mg"},{"bike_id":"695e768a-22ac-46fc-ae74-8ec11389206c","system_id":"levelo_inurba_marseille","lat":43.29811,"lon":5.39349,"is_reserved":false,"is_disabled":false,"rental_uris":{"android":"levelo://app?vid=695e768a-22ac-46fc-ae74-8ec11389206c","ios":"levelo://app?vid=695e768a-22ac-46fc-ae74-8ec11389206c"},"vehicle_type_id":"4","last_reported":1745762860,"current_range_meters":10800,"station_id":"chh1huq6cuj3fo74tm60","pricing_plan_id":"cebpf4jnsgd1na2vs0mg"},{"bike_id":"26c611a3-921b-4d77-91b6-8c3a7573990a","system_id":"levelo_inurba_marseille","lat":43.30421,"lon":5.41289,"is_reserved":false,"is_disabled":false,"rental_uris":{"android":"levelo://app?vid=26c611a3-921b-4d77-91b6-8c3a7573990a","ios":"levelo://app?vid=26c611a3-921b-4d77-91b6-8c3a7573990a"},"vehicle_type_id":"4","last_reported":1745762860,"current_range_meters":11200,"station_id":"ce4bhop2rcd13ifvqh8g","pricing_plan_id":"cebpf4jnsgd1na2vs0mg"},{"bike_id":"27426b30-0a0c-4abc-9e26-a6951da519b5","system_id":"levelo_inurba_marseille","lat":43.23194,"lon":5.35556,"is_reserved":false,"is_disabled":false,"rental_uris":{"android":"levelo://app?vid=27426b30-0a0c-4abc-9e26-a6951da519b5","ios":"levelo://app?vid=27426b30-0a0c-4abc-9e26-a6951da519b5"},"vehicle_type_id":"4","last_reported":1745762860,"current_range_meters":11200,"station_id":"ce4bhu92rcd13ifvqi70","pricing_plan_id":"cebpf4jnsgd1na2vs0mg"},{"bike_id":"30288cb7-e849-4b02-8ab1-96deccfd974f","system_id":"levelo_inurba_marseille","lat":43.23966,"lon":5.36656,"is_reserved":false,"is_disabled":false,"rental_uris":{"android":"levelo://app?vid=30288cb7-e849-4b02-8ab1-96deccfd974f","ios":"levelo://app?vid=30288cb7-e849-4b02-8ab1-96deccfd974f"},"vehicle_type_id":"4","last_reported":1745762860,"current_range_meters":11200,"station_id":"ce4bhi12rcd13ifvqfp0","pricing_plan_id":"cebpf4jnsgd1na2vs0mg"},{"bike_id":"ae1d96a0-b0a2-41e1-be14-e78907f9338a","system_id":"levelo_inurba_marseille","lat":43.29526,"lon":5.39408,"is_reserved":false,"is_disabled":true,"rental_uris":{"android":"levelo://app?vid=ae1d96a0-b0a2-41e1-be14-e78907f9338a","ios":"levelo://app?vid=ae1d96a0-b0a2-41e1-be14-e78907f9338a"},"vehicle_type_id":"4","last_reported":1745762860,"current_range_meters":11200,"station_id":"ce4bh292rcd13ifvqdf0","pricing_plan_id":"cebpf4jnsgd1na2vs0mg"},{"bike_id":"af4a97e0-dded-4da0-9eba-7bcd01c44383","system_id":"levelo_inurba_marseille","lat":43.30303,"lon":5.392,"is_reserved":false,"is_disabled":true,"rental_uris":{"android":"levelo://app?vid=af4a97e0-dded-4da0-9eba-7bcd01c44383","ios":"levelo://app?vid=af4a97e0-dded-4da0-9eba-7bcd01c44383"},"vehicle_type_id":"4","last_reported":1745762860,"current_range_meters":11200,"station_id":"ce4bgkh2rcd13ifvqbk0","pricing_plan_id":"cebpf4jnsgd1na2vs0mg"},{"bike_id":"1974f289-e2ec-4d23-b2a8-3e8871696de3","system_id":"levelo_inurba_marseille","lat":43.26204,"lon":5.37927,"is_reserved":false,"is_disabled":false,"rental_uris":{"android":"levelo://app?vid=1974f289-e2ec-4d23-b2a8-3e8871696de3","ios":"levelo://app?vid=1974f289-e2ec-4d23-b2a8-3e8871696de3"},"vehicle_type_id":"4","last_reported":1745762860,"current_range_meters":11200,"station_id":"ce4bhjp2rcd13ifvqg90","pricing_plan_id":"cebpf4jnsgd1na2vs0mg"},{"bike_id":"21a5b78b-6652-49fa-a8ee-70531791ccf1","system_id":"levelo_inurba_marseille","lat":43.24877,"lon":5.42516,"is_reserved":false,"is_disabled":false,"rental_uris":{"android":"levelo://app?vid=21a5b78b-6652-49fa-a8ee-70531791ccf1","ios":"levelo://app?vid=21a5b78b-6652-49fa-a8ee-70531791ccf1"},"vehicle_type_id":"4","last_reported":1745762860,"current_range_meters":11200,"station_id":"","pricing_plan_id":"cebpf4jnsgd1na2vs0mg"},{"bike_id":"91474842-32bf-45c2-856a-80fd91d22aa5","system_id":"levelo_inurba_marseille","lat":43.21249,"lon":5.35093,"is_reserved":false,"is_disabled":false,"rental_uris":{"android":"levelo://app?vid=91474842-32bf-45c2-856a-80fd91d22aa5","ios":"levelo://app?vid=91474842-32bf-45c2-856a-80fd91d22aa5"},"vehicle_type_id":"4","last_reported":1745762860,"current_range_meters":11200,"station_id":"st_cvj6sg6p6f1abm77japg","pricing_plan_id":"cebpf4jnsgd1na2vs0mg"},{"bike_id":"8840b7d1-badd-45b4-91db-50feaeb6b7ed","system_id":"levelo_inurba_marseille","lat":43.31066,"lon":5.36713,"is_reserved":false,"is_disabled":false,"rental_uris":{"android":"levelo://app?vid=8840b7d1-badd-45b4-91db-50feaeb6b7ed","ios":"levelo://app?vid=8840b7d1-badd-45b4-91db-50feaeb6b7ed"},"vehicle_type_id":"4","last_reported":1745762860,"current_range_meters":11200,"station_id":"","pricing_plan_id":"cebpf4jnsgd1na2vs0mg"},{"bike_id":"44530a1d-b48a-47f5-a929-63b20a3c24dc","system_id":"levelo_inurba_marseille","lat":43.24158,"lon":5.36408,"is_reserved":false,"is_disabled":false,"rental_uris":{"android":"levelo://app?vid=44530a1d-b48a-47f5-a929-63b20a3c24dc","ios":"levelo://app?vid=44530a1d-b48a-47f5-a929-63b20a3c24dc"},"vehicle_type_id":"4","last_reported":1745762860,"current_range_meters":11600,"station_id":"cpo36qri1sfpv3e86is0","pricing_plan_id":"cebpf4jnsgd1na2vs0mg"},{"bike_id":"cf0ee361-6c47-4a99-81ad-2c1b96166467","system_id":"levelo_inurba_marseille","lat":43.21771,"lon":5.34605,"is_reserved":false,"is_disabled":false,"rental_uris":{"android":"levelo://app?vid=cf0ee361-6c47-4a99-81ad-2c1b96166467","ios":"levelo://app?vid=cf0ee361-6c47-4a99-81ad-2c1b96166467"},"vehicle_type_id":"4","last_reported":1745762860,"current_range_meters":11600,"station_id":"st_cvj6r9ubvosntc0bgbag","pricing_plan_id":"cebpf4jnsgd1na2vs0mg"},{"bike_id":"e82ee261-5477-483b-8de9-71869476a59d","system_id":"levelo_inurba_marseille","lat":43.27217,"lon":5.39185,"is_reserved":false,"is_disabled":false,"rental_uris":{"android":"levelo://app?vid=e82ee261-5477-483b-8de9-71869476a59d","ios":"levelo://app?vid=e82ee261-5477-483b-8de9-71869476a59d"},"vehicle_type_id":"4","last_reported":1745762860,"current_range_meters":11600,"station_id":"ce4bhhp2rcd13ifvqfm0","pricing_plan_id":"cebpf4jnsgd1na2vs0mg"},{"bike_id":"554c7222-d609-4841-a832-33adb157bebb","system_id":"levelo_inurba_marseille","lat":43.21185,"lon":5.35081,"is_reserved":false,"is_disabled":false,"rental_uris":{"android":"levelo://app?vid=554c7222-d609-4841-a832-33adb157bebb","ios":"levelo://app?vid=554c7222-d609-4841-a832-33adb157bebb"},"vehicle_type_id":"4","last_reported":1745762860,"current_range_meters":11600,"station_id":"st_cvj6sg6p6f1abm77japg","pricing_plan_id":"cebpf4jnsgd1na2vs0mg"},{"bike_id":"214a0b84-174a-49d9-9b79-d765caca318d","system_id":"levelo_inurba_marseille","lat":43.28176,"lon":5.4272,"is_reserved":false,"is_disabled":false,"rental_uris":{"android":"levelo://app?vid=214a0b84-174a-49d9-9b79-d765caca318d","ios":"levelo://app?vid=214a0b84-174a-49d9-9b79-d765caca318d"},"vehicle_type_id":"4","last_reported":1745762860,"current_range_meters":12000,"station_id":"ce4bhnh2rcd13ifvqgug","pricing_plan_id":"cebpf4jnsgd1na2vs0mg"},{"bike_id":"4c324465-b6e3-4cb6-8c51-460ca4348452","system_id":"levelo_inurba_marseille","lat":43.25496,"lon":5.37645,"is_reserved":false,"is_disabled":false,"rental_uris":{"android":"levelo://app?vid=4c324465-b6e3-4cb6-8c51-460ca4348452","ios":"levelo://app?vid=4c324465-b6e3-4cb6-8c51-460ca4348452"},"vehicle_type_id":"4","last_reported":1745762860,"current_range_meters":12000,"station_id":"ce4bhh12rcd13ifvqff0","pricing_plan_id":"cebpf4jnsgd1na2vs0mg"},{"bike_id":"a08e6535-7d97-4f82-b424-5e6daf2d2362","system_id":"levelo_inurba_marseille","lat":43.29507,"lon":5.39399,"is_reserved":false,"is_disabled":true,"rental_uris":{"android":"levelo://app?vid=a08e6535-7d97-4f82-b424-5e6daf2d2362","ios":"levelo://app?vid=a08e6535-7d97-4f82-b424-5e6daf2d2362"},"vehicle_type_id":"4","last_reported":1745762860,"current_range_meters":12000,"station_id":"ce4bh292rcd13ifvqdf0","pricing_plan_id":"cebpf4jnsgd1na2vs0mg"},{"bike_id":"7713b9ad-c558-4de5-8468-33ca0d5f6cff","system_id":"levelo_inurba_marseille","lat":43.31715,"lon":5.43706,"is_reserved":false,"is_disabled":false,"rental_uris":{"android":"levelo://app?vid=7713b9ad-c558-4de5-8468-33ca0d5f6cff","ios":"levelo://app?vid=7713b9ad-c558-4de5-8468-33ca0d5f6cff"},"vehicle_type_id":"4","last_reported":1745762860,"current_range_meters":12000,"station_id":"ce4bhp92rcd13ifvqhcg","pricing_plan_id":"cebpf4jnsgd1na2vs0mg"},{"bike_id":"470edaf9-a553-441b-a6e6-e7b3f6f03c02","system_id":"levelo_inurba_marseille","lat":43.26925,"lon":5.38671,"is_reserved":false,"is_disabled":false,"rental_uris":{"android":"levelo://app?vid=470edaf9-a553-441b-a6e6-e7b3f6f03c02","ios":"levelo://app?vid=470edaf9-a553-441b-a6e6-e7b3f6f03c02"},"vehicle_type_id":"4","last_reported":1745762860,"current_range_meters":12000,"station_id":"ce4bhhh2rcd13ifvqfl0","pricing_plan_id":"cebpf4jnsgd1na2vs0mg"},{"bike_id":"cf8e8805-1051-49c7-bd6b-6e754042f410","system_id":"levelo_inurba_marseille","lat":43.30943,"lon":5.39023,"is_reserved":false,"is_disabled":false,"rental_uris":{"android":"levelo://app?vid=cf8e8805-1051-49c7-bd6b-6e754042f410","ios":"levelo://app?vid=cf8e8805-1051-49c7-bd6b-6e754042f410"},"vehicle_type_id":"4","last_reported":1745762860,"current_range_meters":12400,"station_id":"ce4bgup2rcd13ifvqco0","pricing_plan_id":"cebpf4jnsgd1na2vs0mg"},{"bike_id":"a3470ca9-7e6a-455d-8c73-e2862f8d2cfb","system_id":"levelo_inurba_marseille","lat":43.29445,"lon":5.39755,"is_reserved":false,"is_disabled":false,"rental_uris":{"android":"levelo://app?vid=a3470ca9-7e6a-455d-8c73-e2862f8d2cfb","ios":"levelo://app?vid=a3470ca9-7e6a-455d-8c73-e2862f8d2cfb"},"vehicle_type_id":"4","last_reported":1745762860,"current_range_meters":12000,"station_id":"ce4bh3h2rcd13ifvqdo0","pricing_plan_id":"cebpf4jnsgd1na2vs0mg"},{"bike_id":"560f12bb-1614-4d7c-b78e-ccf5bdec9ea6","system_id":"levelo_inurba_marseille","lat":43.28492,"lon":5.35905,"is_reserved":false,"is_disabled":true,"rental_uris":{"android":"levelo://app?vid=560f12bb-1614-4d7c-b78e-ccf5bdec9ea6","ios":"levelo://app?vid=560f12bb-1614-4d7c-b78e-ccf5bdec9ea6"},"vehicle_type_id":"4","last_reported":1745762860,"current_range_meters":12400,"station_id":"ce4bhah2rcd13ifvqei0","pricing_plan_id":"cebpf4jnsgd1na2vs0mg"},{"bike_id":"7bc2518c-6f52-42ed-814e-6f5940160db8","system_id":"levelo_inurba_marseille","lat":43.23182,"lon":5.39986,"is_reserved":false,"is_disabled":false,"rental_uris":{"android":"levelo://app?vid=7bc2518c-6f52-42ed-814e-6f5940160db8","ios":"levelo://app?vid=7bc2518c-6f52-42ed-814e-6f5940160db8"},"vehicle_type_id":"4","last_reported":1745762860,"current_range_meters":12800,"station_id":"ce4bhn12rcd13ifvqgqg","pricing_plan_id":"cebpf4jnsgd1na2vs0mg"},{"bike_id":"717cabec-6d1e-4fbd-94f4-9e9366fab599","system_id":"levelo_inurba_marseille","lat":43.22516,"lon":5.34791,"is_reserved":false,"is_disabled":true,"rental_uris":{"android":"levelo://app?vid=717cabec-6d1e-4fbd-94f4-9e9366fab599","ios":"levelo://app?vid=717cabec-6d1e-4fbd-94f4-9e9366fab599"},"vehicle_type_id":"4","last_reported":1745762860,"current_range_meters":12800,"station_id":"st_cvj5dfep6f1abm77gieg","pricing_plan_id":"cebpf4jnsgd1na2vs0mg"},{"bike_id":"356b76a1-af1a-4bef-951e-98e5b057a721","system_id":"levelo_inurba_marseille","lat":43.29246,"lon":5.38446,"is_reserved":false,"is_disabled":true,"rental_uris":{"android":"levelo://app?vid=356b76a1-af1a-4bef-951e-98e5b057a721","ios":"levelo://app?vid=356b76a1-af1a-4bef-951e-98e5b057a721"},"vehicle_type_id":"4","last_reported":1745762860,"current_range_meters":12800,"station_id":"ce4bh692rcd13ifvqea0","pricing_plan_id":"cebpf4jnsgd1na2vs0mg"},{"bike_id":"8338af84-ea4b-4869-9b2f-d3a452093ce0","system_id":"levelo_inurba_marseille","lat":43.305517,"lon":5.36548,"is_reserved":false,"is_disabled":false,"rental_uris":{"android":"levelo://app?vid=8338af84-ea4b-4869-9b2f-d3a452093ce0","ios":"levelo://app?vid=8338af84-ea4b-4869-9b2f-d3a452093ce0"},"vehicle_type_id":"4","last_reported":1745762860,"current_range_meters":12800,"station_id":"ce4bgs12rcd13ifvqcag","pricing_plan_id":"cebpf4jnsgd1na2vs0mg"},{"bike_id":"9111363c-e358-4cc0-9632-937d6be3578a","system_id":"levelo_inurba_marseille","lat":43.28001,"lon":5.40006,"is_reserved":false,"is_disabled":false,"rental_uris":{"android":"levelo://app?vid=9111363c-e358-4cc0-9632-937d6be3578a","ios":"levelo://app?vid=9111363c-e358-4cc0-9632-937d6be3578a"},"vehicle_type_id":"4","last_reported":1745762860,"current_range_meters":12800,"station_id":"ce4bho92rcd13ifvqh4g","pricing_plan_id":"cebpf4jnsgd1na2vs0mg"},{"bike_id":"4abf07d4-910e-41ff-b786-7cebcea2d39e","system_id":"levelo_inurba_marseille","lat":43.30129,"lon":5.39842,"is_reserved":false,"is_disabled":false,"rental_uris":{"android":"levelo://app?vid=4abf07d4-910e-41ff-b786-7cebcea2d39e","ios":"levelo://app?vid=4abf07d4-910e-41ff-b786-7cebcea2d39e"},"vehicle_type_id":"4","last_reported":1745762860,"current_range_meters":12800,"station_id":"ce4bh0h2rcd13ifvqd40","pricing_plan_id":"cebpf4jnsgd1na2vs0mg"},{"bike_id":"04330282-4b26-4fac-8b80-fb290df513f5","system_id":"levelo_inurba_marseille","lat":43.25112,"lon":5.40327,"is_reserved":false,"is_disabled":false,"rental_uris":{"android":"levelo://app?vid=04330282-4b26-4fac-8b80-fb290df513f5","ios":"levelo://app?vid=04330282-4b26-4fac-8b80-fb290df513f5"},"vehicle_type_id":"4","last_reported":1745762860,"current_range_meters":12800,"station_id":"ce4bhlh2rcd13ifvqgig","pricing_plan_id":"cebpf4jnsgd1na2vs0mg"},{"bike_id":"03ff6bed-d5e5-4d78-b63e-bf59193078c6","system_id":"levelo_inurba_marseille","lat":43.28698,"lon":5.37397,"is_reserved":false,"is_disabled":false,"rental_uris":{"android":"levelo://app?vid=03ff6bed-d5e5-4d78-b63e-bf59193078c6","ios":"levelo://app?vid=03ff6bed-d5e5-4d78-b63e-bf59193078c6"},"vehicle_type_id":"4","last_reported":1745762860,"current_range_meters":13600,"station_id":"ce4bh3p2rcd13ifvqdq0","pricing_plan_id":"cebpf4jnsgd1na2vs0mg"},{"bike_id":"1ca538cc-7262-418c-ae5b-fc46e6b3282f","system_id":"levelo_inurba_marseille","lat":43.29951,"lon":5.36479,"is_reserved":false,"is_disabled":false,"rental_uris":{"android":"levelo://app?vid=1ca538cc-7262-418c-ae5b-fc46e6b3282f","ios":"levelo://app?vid=1ca538cc-7262-418c-ae5b-fc46e6b3282f"},"vehicle_type_id":"4","last_reported":1745762860,"current_range_meters":13600,"station_id":"ce4bgm92rcd13ifvqbr0","pricing_plan_id":"cebpf4jnsgd1na2vs0mg"},{"bike_id":"8f68bb74-1898-403b-b00d-72085ad123e1","system_id":"levelo_inurba_marseille","lat":43.31691,"lon":5.40473,"is_reserved":false,"is_disabled":false,"rental_uris":{"android":"levelo://app?vid=8f68bb74-1898-403b-b00d-72085ad123e1","ios":"levelo://app?vid=8f68bb74-1898-403b-b00d-72085ad123e1"},"vehicle_type_id":"4","last_reported":1745762860,"current_range_meters":13600,"station_id":"ce4bh012rcd13ifvqd00","pricing_plan_id":"cebpf4jnsgd1na2vs0mg"},{"bike_id":"e2ebe0b4-27e2-4f46-bdf4-e1916df46672","system_id":"levelo_inurba_marseille","lat":43.31785,"lon":5.40615,"is_reserved":false,"is_disabled":false,"rental_uris":{"android":"levelo://app?vid=e2ebe0b4-27e2-4f46-bdf4-e1916df46672","ios":"levelo://app?vid=e2ebe0b4-27e2-4f46-bdf4-e1916df46672"},"vehicle_type_id":"4","last_reported":1745762860,"current_range_meters":13600,"station_id":"","pricing_plan_id":"cebpf4jnsgd1na2vs0mg"},{"bike_id":"6b5a57c1-d9f1-420a-bb62-99066ae23eff","system_id":"levelo_inurba_marseille","lat":43.2962,"lon":5.37712,"is_reserved":false,"is_disabled":false,"rental_uris":{"android":"levelo://app?vid=6b5a57c1-d9f1-420a-bb62-99066ae23eff","ios":"levelo://app?vid=6b5a57c1-d9f1-420a-bb62-99066ae23eff"},"vehicle_type_id":"4","last_reported":1745762860,"current_range_meters":14000,"station_id":"ce4bgi92rcd13ifvqb90","pricing_plan_id":"cebpf4jnsgd1na2vs0mg"},{"bike_id":"1d0a2b8b-2e87-4ed9-8b6b-f12cc7e89350","system_id":"levelo_inurba_marseille","lat":43.25119,"lon":5.40331,"is_reserved":false,"is_disabled":false,"rental_uris":{"android":"levelo://app?vid=1d0a2b8b-2e87-4ed9-8b6b-f12cc7e89350","ios":"levelo://app?vid=1d0a2b8b-2e87-4ed9-8b6b-f12cc7e89350"},"vehicle_type_id":"4","last_reported":1745762860,"current_range_meters":14000,"station_id":"ce4bhlh2rcd13ifvqgig","pricing_plan_id":"cebpf4jnsgd1na2vs0mg"},{"bike_id":"57ebd52c-bbc8-4a4d-8d80-2da8f6250dbd","system_id":"levelo_inurba_marseille","lat":43.278198,"lon":5.407125,"is_reserved":false,"is_disabled":true,"rental_uris":{"android":"levelo://app?vid=57ebd52c-bbc8-4a4d-8d80-2da8f6250dbd","ios":"levelo://app?vid=57ebd52c-bbc8-4a4d-8d80-2da8f6250dbd"},"vehicle_type_id":"4","last_reported":1745762860,"current_range_meters":14000,"station_id":"ce4bhnh2rcd13ifvqgtg","pricing_plan_id":"cebpf4jnsgd1na2vs0mg"},{"bike_id":"a7198c19-fdc9-4a7a-95e0-a894ca54152c","system_id":"levelo_inurba_marseille","lat":43.31,"lon":5.41717,"is_reserved":false,"is_disabled":false,"rental_uris":{"android":"levelo://app?vid=a7198c19-fdc9-4a7a-95e0-a894ca54152c","ios":"levelo://app?vid=a7198c19-fdc9-4a7a-95e0-a894ca54152c"},"vehicle_type_id":"4","last_reported":1745762860,"current_range_meters":14400,"station_id":"","pricing_plan_id":"cebpf4jnsgd1na2vs0mg"},{"bike_id":"34a32b72-264a-4a61-8bc5-8d3dcc2569e7","system_id":"levelo_inurba_marseille","lat":43.26199,"lon":5.37927,"is_reserved":false,"is_disabled":false,"rental_uris":{"android":"levelo://app?vid=34a32b72-264a-4a61-8bc5-8d3dcc2569e7","ios":"levelo://app?vid=34a32b72-264a-4a61-8bc5-8d3dcc2569e7"},"vehicle_type_id":"4","last_reported":1745762860,"current_range_meters":14400,"station_id":"ce4bhjp2rcd13ifvqg90","pricing_plan_id":"cebpf4jnsgd1na2vs0mg"},{"bike_id":"28b3cee2-59f6-4d0c-b4e7-e2f654bcfe6e","system_id":"levelo_inurba_marseille","lat":43.26567,"lon":5.3902,"is_reserved":false,"is_disabled":false,"rental_uris":{"android":"levelo://app?vid=28b3cee2-59f6-4d0c-b4e7-e2f654bcfe6e","ios":"levelo://app?vid=28b3cee2-59f6-4d0c-b4e7-e2f654bcfe6e"},"vehicle_type_id":"4","last_reported":1745762860,"current_range_meters":14400,"station_id":"ce4bhe12rcd13ifvqf30","pricing_plan_id":"cebpf4jnsgd1na2vs0mg"},{"bike_id":"aa278546-df94-4201-8adb-5549864e88ba","system_id":"levelo_inurba_marseille","lat":43.30878,"lon":5.37189,"is_reserved":false,"is_disabled":false,"rental_uris":{"android":"levelo://app?vid=aa278546-df94-4201-8adb-5549864e88ba","ios":"levelo://app?vid=aa278546-df94-4201-8adb-5549864e88ba"},"vehicle_type_id":"4","last_reported":1745762860,"current_range_meters":14400,"station_id":"ce4bguh2rcd13ifvqckg","pricing_plan_id":"cebpf4jnsgd1na2vs0mg"},{"bike_id":"af83a28c-4d4c-42d9-b3f5-2f2fa4784f0e","system_id":"levelo_inurba_marseille","lat":43.30263,"lon":5.40048,"is_reserved":false,"is_disabled":false,"rental_uris":{"android":"levelo://app?vid=af83a28c-4d4c-42d9-b3f5-2f2fa4784f0e","ios":"levelo://app?vid=af83a28c-4d4c-42d9-b3f5-2f2fa4784f0e"},"vehicle_type_id":"4","last_reported":1745762860,"current_range_meters":14400,"station_id":"ce4bgvh2rcd13ifvqcs0","pricing_plan_id":"cebpf4jnsgd1na2vs0mg"},{"bike_id":"846529c7-490c-4984-a0e9-df8cf448057f","system_id":"levelo_inurba_marseille","lat":43.30537,"lon":5.36561,"is_reserved":false,"is_disabled":false,"rental_uris":{"android":"levelo://app?vid=846529c7-490c-4984-a0e9-df8cf448057f","ios":"levelo://app?vid=846529c7-490c-4984-a0e9-df8cf448057f"},"vehicle_type_id":"4","last_reported":1745762860,"current_range_meters":14400,"station_id":"ce4bgs12rcd13ifvqcag","pricing_plan_id":"cebpf4jnsgd1na2vs0mg"},{"bike_id":"a3f77ad5-1dbd-466c-99ff-63688d314f26","system_id":"levelo_inurba_marseille","lat":43.2903,"lon":5.38634,"is_reserved":false,"is_disabled":false,"rental_uris":{"android":"levelo://app?vid=a3f77ad5-1dbd-466c-99ff-63688d314f26","ios":"levelo://app?vid=a3f77ad5-1dbd-466c-99ff-63688d314f26"},"vehicle_type_id":"4","last_reported":1745762860,"current_range_meters":14400,"station_id":"ce4bh192rcd13ifvqdb0","pricing_plan_id":"cebpf4jnsgd1na2vs0mg"},{"bike_id":"bbebbef6-e7cd-4587-b081-e618bb8e23ad","system_id":"levelo_inurba_marseille","lat":43.30473,"lon":5.37905,"is_reserved":false,"is_disabled":false,"rental_uris":{"android":"levelo://app?vid=bbebbef6-e7cd-4587-b081-e618bb8e23ad","ios":"levelo://app?vid=bbebbef6-e7cd-4587-b081-e618bb8e23ad"},"vehicle_type_id":"4","last_reported":1745762860,"current_range_meters":14800,"station_id":"ce4bgup2rcd13ifvqcn0","pricing_plan_id":"cebpf4jnsgd1na2vs0mg"},{"bike_id":"b4d54d10-c9a2-43f6-81cb-25db6a1aa118","system_id":"levelo_inurba_marseille","lat":43.31487,"lon":5.37311,"is_reserved":false,"is_disabled":false,"rental_uris":{"android":"levelo://app?vid=b4d54d10-c9a2-43f6-81cb-25db6a1aa118","ios":"levelo://app?vid=b4d54d10-c9a2-43f6-81cb-25db6a1aa118"},"vehicle_type_id":"4","last_reported":1745762860,"current_range_meters":14800,"station_id":"ce4bgt12rcd13ifvqcd0","pricing_plan_id":"cebpf4jnsgd1na2vs0mg"},{"bike_id":"16b75a5c-0fa3-4253-85ed-5154531053c0","system_id":"levelo_inurba_marseille","lat":43.21193,"lon":5.35077,"is_reserved":false,"is_disabled":false,"rental_uris":{"android":"levelo://app?vid=16b75a5c-0fa3-4253-85ed-5154531053c0","ios":"levelo://app?vid=16b75a5c-0fa3-4253-85ed-5154531053c0"},"vehicle_type_id":"4","last_reported":1745762860,"current_range_meters":14800,"station_id":"ce4bhe12rcd13ifvqf30","pricing_plan_id":"cebpf4jnsgd1na2vs0mg"},{"bike_id":"e48138aa-04e0-41de-992b-f66dd9d4b15a","system_id":"levelo_inurba_marseille","lat":43.30948,"lon":5.3903,"is_reserved":false,"is_disabled":false,"rental_uris":{"android":"levelo://app?vid=e48138aa-04e0-41de-992b-f66dd9d4b15a","ios":"levelo://app?vid=e48138aa-04e0-41de-992b-f66dd9d4b15a"},"vehicle_type_id":"4","last_reported":1745762860,"current_range_meters":14800,"station_id":"ce4bgup2rcd13ifvqco0","pricing_plan_id":"cebpf4jnsgd1na2vs0mg"},{"bike_id":"b330c3b4-8203-49c9-a4bf-5485d09a1d2d","system_id":"levelo_inurba_marseille","lat":43.30214,"lon":5.39452,"is_reserved":false,"is_disabled":true,"rental_uris":{"android":"levelo://app?vid=b330c3b4-8203-49c9-a4bf-5485d09a1d2d","ios":"levelo://app?vid=b330c3b4-8203-49c9-a4bf-5485d09a1d2d"},"vehicle_type_id":"4","last_reported":1745762860,"current_range_meters":14800,"station_id":"ce4bh0p2rcd13ifvqd70","pricing_plan_id":"cebpf4jnsgd1na2vs0mg"},{"bike_id":"edb7787a-c68b-4c3c-a204-0dcc8d513b0d","system_id":"levelo_inurba_marseille","lat":43.24663,"lon":5.38162,"is_reserved":false,"is_disabled":false,"rental_uris":{"android":"levelo://app?vid=edb7787a-c68b-4c3c-a204-0dcc8d513b0d","ios":"levelo://app?vid=edb7787a-c68b-4c3c-a204-0dcc8d513b0d"},"vehicle_type_id":"4","last_reported":1745762860,"current_range_meters":15200,"station_id":"ce4bhih2rcd13ifvqfr0","pricing_plan_id":"cebpf4jnsgd1na2vs0mg"},{"bike_id":"148205fa-5235-44e6-b32e-83f50eadc804","system_id":"levelo_inurba_marseille","lat":43.30536,"lon":5.36552,"is_reserved":false,"is_disabled":false,"rental_uris":{"android":"levelo://app?vid=148205fa-5235-44e6-b32e-83f50eadc804","ios":"levelo://app?vid=148205fa-5235-44e6-b32e-83f50eadc804"},"vehicle_type_id":"4","last_reported":1745762860,"current_range_meters":15200,"station_id":"ce4bgs12rcd13ifvqcag","pricing_plan_id":"cebpf4jnsgd1na2vs0mg"},{"bike_id":"0d777af5-4166-475a-a6b9-6a0197032592","system_id":"levelo_inurba_marseille","lat":43.23256,"lon":5.3522,"is_reserved":false,"is_disabled":false,"rental_uris":{"android":"levelo://app?vid=0d777af5-4166-475a-a6b9-6a0197032592","ios":"levelo://app?vid=0d777af5-4166-475a-a6b9-6a0197032592"},"vehicle_type_id":"4","last_reported":1745762860,"current_range_meters":15200,"station_id":"","pricing_plan_id":"cebpf4jnsgd1na2vs0mg"},{"bike_id":"3d934169-6946-46cc-87a4-ce5d03b77075","system_id":"levelo_inurba_marseille","lat":43.21756,"lon":5.34606,"is_reserved":false,"is_disabled":false,"rental_uris":{"android":"levelo://app?vid=3d934169-6946-46cc-87a4-ce5d03b77075","ios":"levelo://app?vid=3d934169-6946-46cc-87a4-ce5d03b77075"},"vehicle_type_id":"4","last_reported":1745762860,"current_range_meters":15200,"station_id":"st_cvj6r9ubvosntc0bgbag","pricing_plan_id":"cebpf4jnsgd1na2vs0mg"},{"bike_id":"a6ef5e73-9c2a-4c3a-b853-48e28d6dc161","system_id":"levelo_inurba_marseille","lat":43.31724,"lon":5.43714,"is_reserved":false,"is_disabled":true,"rental_uris":{"android":"levelo://app?vid=a6ef5e73-9c2a-4c3a-b853-48e28d6dc161","ios":"levelo://app?vid=a6ef5e73-9c2a-4c3a-b853-48e28d6dc161"},"vehicle_type_id":"4","last_reported":1745762860,"current_range_meters":15200,"station_id":"ce4bhp92rcd13ifvqhcg","pricing_plan_id":"cebpf4jnsgd1na2vs0mg"},{"bike_id":"392b506d-b874-4f26-9226-84183da44c61","system_id":"levelo_inurba_marseille","lat":43.29283,"lon":5.40117,"is_reserved":false,"is_disabled":false,"rental_uris":{"android":"levelo://app?vid=392b506d-b874-4f26-9226-84183da44c61","ios":"levelo://app?vid=392b506d-b874-4f26-9226-84183da44c61"},"vehicle_type_id":"4","last_reported":1745762860,"current_range_meters":15200,"station_id":"ce4bh312rcd13ifvqdk0","pricing_plan_id":"cebpf4jnsgd1na2vs0mg"},{"bike_id":"1fe84233-d6e6-400c-ba7e-765c53207954","system_id":"levelo_inurba_marseille","lat":43.260598,"lon":5.393877,"is_reserved":false,"is_disabled":false,"rental_uris":{"android":"levelo://app?vid=1fe84233-d6e6-400c-ba7e-765c53207954","ios":"levelo://app?vid=1fe84233-d6e6-400c-ba7e-765c53207954"},"vehicle_type_id":"4","last_reported":1745762860,"current_range_meters":15200,"station_id":"ce4bhh92rcd13ifvqfj0","pricing_plan_id":"cebpf4jnsgd1na2vs0mg"},{"bike_id":"99be1414-58ff-4752-826b-d0dcc4401711","system_id":"levelo_inurba_marseille","lat":43.248203,"lon":5.374494,"is_reserved":false,"is_disabled":true,"rental_uris":{"android":"levelo://app?vid=99be1414-58ff-4752-826b-d0dcc4401711","ios":"levelo://app?vid=99be1414-58ff-4752-826b-d0dcc4401711"},"vehicle_type_id":"4","last_reported":1745762860,"current_range_meters":15200,"station_id":"ce4bhgh2rcd13ifvqfb0","pricing_plan_id":"cebpf4jnsgd1na2vs0mg"},{"bike_id":"58af188a-7f03-4b4d-9211-40bd147a87a9","system_id":"levelo_inurba_marseille","lat":43.25115,"lon":5.40319,"is_reserved":false,"is_disabled":false,"rental_uris":{"android":"levelo://app?vid=58af188a-7f03-4b4d-9211-40bd147a87a9","ios":"levelo://app?vid=58af188a-7f03-4b4d-9211-40bd147a87a9"},"vehicle_type_id":"4","last_reported":1745762860,"current_range_meters":16000,"station_id":"ce4bhlh2rcd13ifvqgig","pricing_plan_id":"cebpf4jnsgd1na2vs0mg"},{"bike_id":"89e7ab08-7fc9-416d-a96f-130de8b43266","system_id":"levelo_inurba_marseille","lat":43.33723,"lon":5.392,"is_reserved":false,"is_disabled":false,"rental_uris":{"android":"levelo://app?vid=89e7ab08-7fc9-416d-a96f-130de8b43266","ios":"levelo://app?vid=89e7ab08-7fc9-416d-a96f-130de8b43266"},"vehicle_type_id":"4","last_reported":1745762860,"current_range_meters":16000,"station_id":"ce4bhr92rcd13ifvqhsg","pricing_plan_id":"cebpf4jnsgd1na2vs0mg"},{"bike_id":"41c09c79-9dc6-41d2-a6de-d35a3b11f0e4","system_id":"levelo_inurba_marseille","lat":43.23964,"lon":5.3663,"is_reserved":false,"is_disabled":false,"rental_uris":{"android":"levelo://app?vid=41c09c79-9dc6-41d2-a6de-d35a3b11f0e4","ios":"levelo://app?vid=41c09c79-9dc6-41d2-a6de-d35a3b11f0e4"},"vehicle_type_id":"4","last_reported":1745762860,"current_range_meters":16000,"station_id":"ce4bhi12rcd13ifvqfp0","pricing_plan_id":"cebpf4jnsgd1na2vs0mg"},{"bike_id":"2854030f-4435-4f6c-a22c-3e1447f3bf2d","system_id":"levelo_inurba_marseille","lat":43.30557,"lon":5.36512,"is_reserved":false,"is_disabled":false,"rental_uris":{"android":"levelo://app?vid=2854030f-4435-4f6c-a22c-3e1447f3bf2d","ios":"levelo://app?vid=2854030f-4435-4f6c-a22c-3e1447f3bf2d"},"vehicle_type_id":"4","last_reported":1745762860,"current_range_meters":16000,"station_id":"ce4bgs12rcd13ifvqcag","pricing_plan_id":"cebpf4jnsgd1na2vs0mg"},{"bike_id":"9f5bee60-296f-43cc-95e6-f8c6356ac604","system_id":"levelo_inurba_marseille","lat":43.29274,"lon":5.36842,"is_reserved":false,"is_disabled":false,"rental_uris":{"android":"levelo://app?vid=9f5bee60-296f-43cc-95e6-f8c6356ac604","ios":"levelo://app?vid=9f5bee60-296f-43cc-95e6-f8c6356ac604"},"vehicle_type_id":"4","last_reported":1745762860,"current_range_meters":16000,"station_id":"ce4bhbp2rcd13ifvqesg","pricing_plan_id":"cebpf4jnsgd1na2vs0mg"},{"bike_id":"389fa13e-9fb8-4551-94cc-3437e858ed36","system_id":"levelo_inurba_marseille","lat":43.2417,"lon":5.364,"is_reserved":false,"is_disabled":false,"rental_uris":{"android":"levelo://app?vid=389fa13e-9fb8-4551-94cc-3437e858ed36","ios":"levelo://app?vid=389fa13e-9fb8-4551-94cc-3437e858ed36"},"vehicle_type_id":"4","last_reported":1745762860,"current_range_meters":16000,"station_id":"cpo36qri1sfpv3e86is0","pricing_plan_id":"cebpf4jnsgd1na2vs0mg"},{"bike_id":"3c98511c-3598-4d33-bb84-4f752018e583","system_id":"levelo_inurba_marseille","lat":43.2927,"lon":5.36852,"is_reserved":false,"is_disabled":false,"rental_uris":{"android":"levelo://app?vid=3c98511c-3598-4d33-bb84-4f752018e583","ios":"levelo://app?vid=3c98511c-3598-4d33-bb84-4f752018e583"},"vehicle_type_id":"4","last_reported":1745762860,"current_range_meters":16000,"station_id":"ce4bhbp2rcd13ifvqesg","pricing_plan_id":"cebpf4jnsgd1na2vs0mg"},{"bike_id":"158e5cc4-00b1-4f7b-bfb8-96667564d907","system_id":"levelo_inurba_marseille","lat":43.293243,"lon":5.376642,"is_reserved":false,"is_disabled":false,"rental_uris":{"android":"levelo://app?vid=158e5cc4-00b1-4f7b-bfb8-96667564d907","ios":"levelo://app?vid=158e5cc4-00b1-4f7b-bfb8-96667564d907"},"vehicle_type_id":"4","last_reported":1745762860,"current_range_meters":16000,"station_id":"ce4bh512rcd13ifvqe3g","pricing_plan_id":"cebpf4jnsgd1na2vs0mg"},{"bike_id":"647355cc-822f-41e4-b0fe-856d5a69a337","system_id":"levelo_inurba_marseille","lat":43.21183,"lon":5.35073,"is_reserved":false,"is_disabled":false,"rental_uris":{"android":"levelo://app?vid=647355cc-822f-41e4-b0fe-856d5a69a337","ios":"levelo://app?vid=647355cc-822f-41e4-b0fe-856d5a69a337"},"vehicle_type_id":"4","last_reported":1745762860,"current_range_meters":16400,"station_id":"st_cvj6sg6p6f1abm77japg","pricing_plan_id":"cebpf4jnsgd1na2vs0mg"},{"bike_id":"52373317-8138-4ba1-a71d-7079b6dec1c9","system_id":"levelo_inurba_marseille","lat":43.29844,"lon":5.36275,"is_reserved":false,"is_disabled":false,"rental_uris":{"android":"levelo://app?vid=52373317-8138-4ba1-a71d-7079b6dec1c9","ios":"levelo://app?vid=52373317-8138-4ba1-a71d-7079b6dec1c9"},"vehicle_type_id":"4","last_reported":1745762860,"current_range_meters":16400,"station_id":"ce4bgpp2rcd13ifvqc3g","pricing_plan_id":"cebpf4jnsgd1na2vs0mg"},{"bike_id":"8efd3606-6323-4bad-8f10-3a3a29d2ed8c","system_id":"levelo_inurba_marseille","lat":43.32104,"lon":5.36774,"is_reserved":false,"is_disabled":false,"rental_uris":{"android":"levelo://app?vid=8efd3606-6323-4bad-8f10-3a3a29d2ed8c","ios":"levelo://app?vid=8efd3606-6323-4bad-8f10-3a3a29d2ed8c"},"vehicle_type_id":"4","last_reported":1745762860,"current_range_meters":16800,"station_id":"ce4bhrh2rcd13ifvqhug","pricing_plan_id":"cebpf4jnsgd1na2vs0mg"},{"bike_id":"4046a82f-66e8-4b55-bd0a-356edea772d8","system_id":"levelo_inurba_marseille","lat":43.30608,"lon":5.38186,"is_reserved":false,"is_disabled":false,"rental_uris":{"android":"levelo://app?vid=4046a82f-66e8-4b55-bd0a-356edea772d8","ios":"levelo://app?vid=4046a82f-66e8-4b55-bd0a-356edea772d8"},"vehicle_type_id":"4","last_reported":1745762860,"current_range_meters":16800,"station_id":"","pricing_plan_id":"cebpf4jnsgd1na2vs0mg"},{"bike_id":"f360aaad-e350-49e9-8191-58ce4616eb13","system_id":"levelo_inurba_marseille","lat":43.2119,"lon":5.3509,"is_reserved":false,"is_disabled":true,"rental_uris":{"android":"levelo://app?vid=f360aaad-e350-49e9-8191-58ce4616eb13","ios":"levelo://app?vid=f360aaad-e350-49e9-8191-58ce4616eb13"},"vehicle_type_id":"4","last_reported":1745762860,"current_range_meters":16800,"station_id":"st_cvj6sg6p6f1abm77japg","pricing_plan_id":"cebpf4jnsgd1na2vs0mg"},{"bike_id":"94546224-cbe6-4adb-9994-e7f1f2b79213","system_id":"levelo_inurba_marseille","lat":43.28347,"lon":5.38102,"is_reserved":false,"is_disabled":false,"rental_uris":{"android":"levelo://app?vid=94546224-cbe6-4adb-9994-e7f1f2b79213","ios":"levelo://app?vid=94546224-cbe6-4adb-9994-e7f1f2b79213"},"vehicle_type_id":"4","last_reported":1745762860,"current_range_meters":16800,"station_id":"ce4bh412rcd13ifvqdr0","pricing_plan_id":"cebpf4jnsgd1na2vs0mg"},{"bike_id":"6d593226-0a2e-46d4-8de3-9c8bd9d3e674","system_id":"levelo_inurba_marseille","lat":43.29774,"lon":5.38116,"is_reserved":false,"is_disabled":true,"rental_uris":{"android":"levelo://app?vid=6d593226-0a2e-46d4-8de3-9c8bd9d3e674","ios":"levelo://app?vid=6d593226-0a2e-46d4-8de3-9c8bd9d3e674"},"vehicle_type_id":"4","last_reported":1745762860,"current_range_meters":16800,"station_id":"ce4bgip2rcd13ifvqbb0","pricing_plan_id":"cebpf4jnsgd1na2vs0mg"},{"bike_id":"c4a09941-60f5-4ee4-998c-7106f890a002","system_id":"levelo_inurba_marseille","lat":43.24809,"lon":5.37456,"is_reserved":false,"is_disabled":false,"rental_uris":{"android":"levelo://app?vid=c4a09941-60f5-4ee4-998c-7106f890a002","ios":"levelo://app?vid=c4a09941-60f5-4ee4-998c-7106f890a002"},"vehicle_type_id":"4","last_reported":1745762860,"current_range_meters":16800,"station_id":"ce4bhgh2rcd13ifvqfb0","pricing_plan_id":"cebpf4jnsgd1na2vs0mg"},{"bike_id":"10e1153c-b44a-4729-9761-4fd66d69e34b","system_id":"levelo_inurba_marseille","lat":43.31362,"lon":5.38497,"is_reserved":false,"is_disabled":false,"rental_uris":{"android":"levelo://app?vid=10e1153c-b44a-4729-9761-4fd66d69e34b","ios":"levelo://app?vid=10e1153c-b44a-4729-9761-4fd66d69e34b"},"vehicle_type_id":"4","last_reported":1745762860,"current_range_meters":16800,"station_id":"ce4bgt92rcd13ifvqcf0","pricing_plan_id":"cebpf4jnsgd1na2vs0mg"},{"bike_id":"97f36b89-3f79-4d54-80b9-0001fe6da6bb","system_id":"levelo_inurba_marseille","lat":43.32445,"lon":5.39134,"is_reserved":false,"is_disabled":true,"rental_uris":{"android":"levelo://app?vid=97f36b89-3f79-4d54-80b9-0001fe6da6bb","ios":"levelo://app?vid=97f36b89-3f79-4d54-80b9-0001fe6da6bb"},"vehicle_type_id":"4","last_reported":1745762860,"current_range_meters":16800,"station_id":"","pricing_plan_id":"cebpf4jnsgd1na2vs0mg"},{"bike_id":"a1300fa1-43f7-47bc-be68-1621591c429e","system_id":"levelo_inurba_marseille","lat":43.25015,"lon":5.38928,"is_reserved":false,"is_disabled":true,"rental_uris":{"android":"levelo://app?vid=a1300fa1-43f7-47bc-be68-1621591c429e","ios":"levelo://app?vid=a1300fa1-43f7-47bc-be68-1621591c429e"},"vehicle_type_id":"4","last_reported":1745762860,"current_range_meters":16800,"station_id":"ce4bhgp2rcd13ifvqfd0","pricing_plan_id":"cebpf4jnsgd1na2vs0mg"},{"bike_id":"3eb263e5-5900-4190-b71d-84a0e8e02d23","system_id":"levelo_inurba_marseille","lat":43.31226,"lon":5.36852,"is_reserved":false,"is_disabled":false,"rental_uris":{"android":"levelo://app?vid=3eb263e5-5900-4190-b71d-84a0e8e02d23","ios":"levelo://app?vid=3eb263e5-5900-4190-b71d-84a0e8e02d23"},"vehicle_type_id":"4","last_reported":1745762860,"current_range_meters":16800,"station_id":"ce4bgl92rcd13ifvqbq0","pricing_plan_id":"cebpf4jnsgd1na2vs0mg"},{"bike_id":"ecad0e21-70f5-44a1-8d53-38fb2174ce63","system_id":"levelo_inurba_marseille","lat":43.28363,"lon":5.38639,"is_reserved":false,"is_disabled":false,"rental_uris":{"android":"levelo://app?vid=ecad0e21-70f5-44a1-8d53-38fb2174ce63","ios":"levelo://app?vid=ecad0e21-70f5-44a1-8d53-38fb2174ce63"},"vehicle_type_id":"4","last_reported":1745762860,"current_range_meters":16800,"station_id":"ce4bh492rcd13ifvqdvg","pricing_plan_id":"cebpf4jnsgd1na2vs0mg"},{"bike_id":"d87d05c7-9cbd-4347-9ed3-a5edb671700f","system_id":"levelo_inurba_marseille","lat":43.25823,"lon":5.39436,"is_reserved":false,"is_disabled":false,"rental_uris":{"android":"levelo://app?vid=d87d05c7-9cbd-4347-9ed3-a5edb671700f","ios":"levelo://app?vid=d87d05c7-9cbd-4347-9ed3-a5edb671700f"},"vehicle_type_id":"4","last_reported":1745762860,"current_range_meters":17200,"station_id":"ce4bhip2rcd13ifvqft0","pricing_plan_id":"cebpf4jnsgd1na2vs0mg"},{"bike_id":"5bebb5ec-255c-43b7-b39f-526013f16f76","system_id":"levelo_inurba_marseille","lat":43.30542,"lon":5.36531,"is_reserved":false,"is_disabled":false,"rental_uris":{"android":"levelo://app?vid=5bebb5ec-255c-43b7-b39f-526013f16f76","ios":"levelo://app?vid=5bebb5ec-255c-43b7-b39f-526013f16f76"},"vehicle_type_id":"4","last_reported":1745762860,"current_range_meters":17200,"station_id":"ce4bgs12rcd13ifvqcag","pricing_plan_id":"cebpf4jnsgd1na2vs0mg"},{"bike_id":"f562e55a-3b95-41d4-bf6d-d1563a6a4e42","system_id":"levelo_inurba_marseille","lat":43.2984,"lon":5.36272,"is_reserved":false,"is_disabled":false,"rental_uris":{"android":"levelo://app?vid=f562e55a-3b95-41d4-bf6d-d1563a6a4e42","ios":"levelo://app?vid=f562e55a-3b95-41d4-bf6d-d1563a6a4e42"},"vehicle_type_id":"4","last_reported":1745762860,"current_range_meters":17200,"station_id":"ce4bgpp2rcd13ifvqc3g","pricing_plan_id":"cebpf4jnsgd1na2vs0mg"},{"bike_id":"97fd7a4c-36e8-401d-b12d-1b4015a01ebe","system_id":"levelo_inurba_marseille","lat":43.26566,"lon":5.421,"is_reserved":false,"is_disabled":false,"rental_uris":{"android":"levelo://app?vid=97fd7a4c-36e8-401d-b12d-1b4015a01ebe","ios":"levelo://app?vid=97fd7a4c-36e8-401d-b12d-1b4015a01ebe"},"vehicle_type_id":"4","last_reported":1745762860,"current_range_meters":17200,"station_id":"","pricing_plan_id":"cebpf4jnsgd1na2vs0mg"},{"bike_id":"d8e186e0-8d9f-4c16-bb12-3c50f63fd666","system_id":"levelo_inurba_marseille","lat":43.27502,"lon":5.42451,"is_reserved":false,"is_disabled":false,"rental_uris":{"android":"levelo://app?vid=d8e186e0-8d9f-4c16-bb12-3c50f63fd666","ios":"levelo://app?vid=d8e186e0-8d9f-4c16-bb12-3c50f63fd666"},"vehicle_type_id":"4","last_reported":1745762860,"current_range_meters":17200,"station_id":"ce4bhn92rcd13ifvqgrg","pricing_plan_id":"cebpf4jnsgd1na2vs0mg"},{"bike_id":"3f5f2c9a-9e49-4b78-9b1b-0708da9fec39","system_id":"levelo_inurba_marseille","lat":43.22501,"lon":5.34783,"is_reserved":false,"is_disabled":false,"rental_uris":{"android":"levelo://app?vid=3f5f2c9a-9e49-4b78-9b1b-0708da9fec39","ios":"levelo://app?vid=3f5f2c9a-9e49-4b78-9b1b-0708da9fec39"},"vehicle_type_id":"4","last_reported":1745762860,"current_range_meters":17600,"station_id":"st_cvj5dfep6f1abm77gieg","pricing_plan_id":"cebpf4jnsgd1na2vs0mg"},{"bike_id":"e492037e-60a9-4864-84d6-2fe9ea031f90","system_id":"levelo_inurba_marseille","lat":43.27974,"lon":5.38758,"is_reserved":false,"is_disabled":false,"rental_uris":{"android":"levelo://app?vid=e492037e-60a9-4864-84d6-2fe9ea031f90","ios":"levelo://app?vid=e492037e-60a9-4864-84d6-2fe9ea031f90"},"vehicle_type_id":"4","last_reported":1745762860,"current_range_meters":17600,"station_id":"ce4bhg12rcd13ifvqf80","pricing_plan_id":"cebpf4jnsgd1na2vs0mg"},{"bike_id":"0385cc69-075e-4f00-9891-417501d46ae0","system_id":"levelo_inurba_marseille","lat":43.299643,"lon":5.384998,"is_reserved":false,"is_disabled":false,"rental_uris":{"android":"levelo://app?vid=0385cc69-075e-4f00-9891-417501d46ae0","ios":"levelo://app?vid=0385cc69-075e-4f00-9891-417501d46ae0"},"vehicle_type_id":"4","last_reported":1745762860,"current_range_meters":17600,"station_id":"ce4bgv12rcd13ifvqcp0","pricing_plan_id":"cebpf4jnsgd1na2vs0mg"},{"bike_id":"137f8ec6-6c18-401c-9994-80b00ff40ef3","system_id":"levelo_inurba_marseille","lat":43.29844,"lon":5.36265,"is_reserved":false,"is_disabled":false,"rental_uris":{"android":"levelo://app?vid=137f8ec6-6c18-401c-9994-80b00ff40ef3","ios":"levelo://app?vid=137f8ec6-6c18-401c-9994-80b00ff40ef3"},"vehicle_type_id":"4","last_reported":1745762860,"current_range_meters":17600,"station_id":"ce4bgpp2rcd13ifvqc3g","pricing_plan_id":"cebpf4jnsgd1na2vs0mg"},{"bike_id":"b532cbc6-d603-4b6c-8eb1-6da63ec873ab","system_id":"levelo_inurba_marseille","lat":43.27069,"lon":5.40277,"is_reserved":false,"is_disabled":false,"rental_uris":{"android":"levelo://app?vid=b532cbc6-d603-4b6c-8eb1-6da63ec873ab","ios":"levelo://app?vid=b532cbc6-d603-4b6c-8eb1-6da63ec873ab"},"vehicle_type_id":"4","last_reported":1745762860,"current_range_meters":17600,"station_id":"ce4bhk92rcd13ifvqgc0","pricing_plan_id":"cebpf4jnsgd1na2vs0mg"},{"bike_id":"7cb17432-a062-465f-85a4-b60c350ddacd","system_id":"levelo_inurba_marseille","lat":43.29574,"lon":5.37498,"is_reserved":false,"is_disabled":true,"rental_uris":{"android":"levelo://app?vid=7cb17432-a062-465f-85a4-b60c350ddacd","ios":"levelo://app?vid=7cb17432-a062-465f-85a4-b60c350ddacd"},"vehicle_type_id":"4","last_reported":1745762860,"current_range_meters":17600,"station_id":"ce4bgh92rcd13ifvqb50","pricing_plan_id":"cebpf4jnsgd1na2vs0mg"},{"bike_id":"0fa0d35c-5f1d-4090-ac0b-83c1fb2bda03","system_id":"levelo_inurba_marseille","lat":43.29261,"lon":5.40914,"is_reserved":false,"is_disabled":false,"rental_uris":{"android":"levelo://app?vid=0fa0d35c-5f1d-4090-ac0b-83c1fb2bda03","ios":"levelo://app?vid=0fa0d35c-5f1d-4090-ac0b-83c1fb2bda03"},"vehicle_type_id":"4","last_reported":1745762860,"current_range_meters":18000,"station_id":"ce4bh192rcd13ifvqdc0","pricing_plan_id":"cebpf4jnsgd1na2vs0mg"},{"bike_id":"5f81df8c-115e-4425-b503-ea84b22b4a4d","system_id":"levelo_inurba_marseille","lat":43.25089,"lon":5.39522,"is_reserved":false,"is_disabled":false,"rental_uris":{"android":"levelo://app?vid=5f81df8c-115e-4425-b503-ea84b22b4a4d","ios":"levelo://app?vid=5f81df8c-115e-4425-b503-ea84b22b4a4d"},"vehicle_type_id":"4","last_reported":1745762860,"current_range_meters":18000,"station_id":"ce4bhm12rcd13ifvqgkg","pricing_plan_id":"cebpf4jnsgd1na2vs0mg"},{"bike_id":"1c549b55-b500-4808-ab76-bf95b833044d","system_id":"levelo_inurba_marseille","lat":43.31076,"lon":5.38343,"is_reserved":false,"is_disabled":false,"rental_uris":{"android":"levelo://app?vid=1c549b55-b500-4808-ab76-bf95b833044d","ios":"levelo://app?vid=1c549b55-b500-4808-ab76-bf95b833044d"},"vehicle_type_id":"4","last_reported":1745762860,"current_range_meters":18000,"station_id":"ce4bgv92rcd13ifvqcr0","pricing_plan_id":"cebpf4jnsgd1na2vs0mg"},{"bike_id":"0c39ce71-c4e6-42bb-a129-a5cd799f3cc5","system_id":"levelo_inurba_marseille","lat":43.29284,"lon":5.3684,"is_reserved":false,"is_disabled":false,"rental_uris":{"android":"levelo://app?vid=0c39ce71-c4e6-42bb-a129-a5cd799f3cc5","ios":"levelo://app?vid=0c39ce71-c4e6-42bb-a129-a5cd799f3cc5"},"vehicle_type_id":"4","last_reported":1745762860,"current_range_meters":18000,"station_id":"ce4bhbp2rcd13ifvqesg","pricing_plan_id":"cebpf4jnsgd1na2vs0mg"},{"bike_id":"9275afeb-620b-4a3c-83d1-31bc14709d93","system_id":"levelo_inurba_marseille","lat":43.28833,"lon":5.35847,"is_reserved":false,"is_disabled":true,"rental_uris":{"android":"levelo://app?vid=9275afeb-620b-4a3c-83d1-31bc14709d93","ios":"levelo://app?vid=9275afeb-620b-4a3c-83d1-31bc14709d93"},"vehicle_type_id":"4","last_reported":1745762860,"current_range_meters":18000,"station_id":"ce4bhb12rcd13ifvqem0","pricing_plan_id":"cebpf4jnsgd1na2vs0mg"},{"bike_id":"94c15021-409d-4859-9cbd-f2897516165d","system_id":"levelo_inurba_marseille","lat":43.23961,"lon":5.36647,"is_reserved":false,"is_disabled":false,"rental_uris":{"android":"levelo://app?vid=94c15021-409d-4859-9cbd-f2897516165d","ios":"levelo://app?vid=94c15021-409d-4859-9cbd-f2897516165d"},"vehicle_type_id":"4","last_reported":1745762860,"current_range_meters":18000,"station_id":"ce4bhi12rcd13ifvqfp0","pricing_plan_id":"cebpf4jnsgd1na2vs0mg"},{"bike_id":"4d4b5f61-e3dc-4b08-8550-5a853ebadb9d","system_id":"levelo_inurba_marseille","lat":43.26803,"lon":5.40269,"is_reserved":false,"is_disabled":false,"rental_uris":{"android":"levelo://app?vid=4d4b5f61-e3dc-4b08-8550-5a853ebadb9d","ios":"levelo://app?vid=4d4b5f61-e3dc-4b08-8550-5a853ebadb9d"},"vehicle_type_id":"4","last_reported":1745762860,"current_range_meters":18000,"station_id":"ce501612rcd8frsf0b60","pricing_plan_id":"cebpf4jnsgd1na2vs0mg"},{"bike_id":"683b45fe-d6d7-4560-ae22-95bdbf4d269a","system_id":"levelo_inurba_marseille","lat":43.21748,"lon":5.34601,"is_reserved":false,"is_disabled":false,"rental_uris":{"android":"levelo://app?vid=683b45fe-d6d7-4560-ae22-95bdbf4d269a","ios":"levelo://app?vid=683b45fe-d6d7-4560-ae22-95bdbf4d269a"},"vehicle_type_id":"4","last_reported":1745762860,"current_range_meters":18000,"station_id":"st_cvj6r9ubvosntc0bgbag","pricing_plan_id":"cebpf4jnsgd1na2vs0mg"},{"bike_id":"84d413cf-7679-49fb-89e3-56963ed03ff8","system_id":"levelo_inurba_marseille","lat":43.33106,"lon":5.38212,"is_reserved":false,"is_disabled":false,"rental_uris":{"android":"levelo://app?vid=84d413cf-7679-49fb-89e3-56963ed03ff8","ios":"levelo://app?vid=84d413cf-7679-49fb-89e3-56963ed03ff8"},"vehicle_type_id":"4","last_reported":1745762860,"current_range_meters":18000,"station_id":"","pricing_plan_id":"cebpf4jnsgd1na2vs0mg"},{"bike_id":"181ed326-b471-49b5-9f00-acd48cb5b299","system_id":"levelo_inurba_marseille","lat":43.28298,"lon":5.34927,"is_reserved":false,"is_disabled":true,"rental_uris":{"android":"levelo://app?vid=181ed326-b471-49b5-9f00-acd48cb5b299","ios":"levelo://app?vid=181ed326-b471-49b5-9f00-acd48cb5b299"},"vehicle_type_id":"4","last_reported":1745762860,"current_range_meters":18000,"station_id":"","pricing_plan_id":"cebpf4jnsgd1na2vs0mg"},{"bike_id":"f8b82dd5-2d85-4846-8b9d-5afc30043cf6","system_id":"levelo_inurba_marseille","lat":43.22505,"lon":5.34779,"is_reserved":false,"is_disabled":false,"rental_uris":{"android":"levelo://app?vid=f8b82dd5-2d85-4846-8b9d-5afc30043cf6","ios":"levelo://app?vid=f8b82dd5-2d85-4846-8b9d-5afc30043cf6"},"vehicle_type_id":"4","last_reported":1745762860,"current_range_meters":18000,"station_id":"st_cvj5dfep6f1abm77gieg","pricing_plan_id":"cebpf4jnsgd1na2vs0mg"},{"bike_id":"6a3ad0ca-897c-414f-a69a-aae8b2ea7b61","system_id":"levelo_inurba_marseille","lat":43.21837,"lon":5.34637,"is_reserved":false,"is_disabled":false,"rental_uris":{"android":"levelo://app?vid=6a3ad0ca-897c-414f-a69a-aae8b2ea7b61","ios":"levelo://app?vid=6a3ad0ca-897c-414f-a69a-aae8b2ea7b61"},"vehicle_type_id":"4","last_reported":1745762860,"current_range_meters":18000,"station_id":"","pricing_plan_id":"cebpf4jnsgd1na2vs0mg"},{"bike_id":"ec0fcf67-86fd-4166-92f0-7231e4d4101e","system_id":"levelo_inurba_marseille","lat":43.29247,"lon":5.38445,"is_reserved":false,"is_disabled":false,"rental_uris":{"android":"levelo://app?vid=ec0fcf67-86fd-4166-92f0-7231e4d4101e","ios":"levelo://app?vid=ec0fcf67-86fd-4166-92f0-7231e4d4101e"},"vehicle_type_id":"4","last_reported":1745762860,"current_range_meters":18000,"station_id":"ce4bh692rcd13ifvqea0","pricing_plan_id":"cebpf4jnsgd1na2vs0mg"},{"bike_id":"a18fa354-a6ac-4d62-a3c8-516355b7e2c7","system_id":"levelo_inurba_marseille","lat":43.29274,"lon":5.36842,"is_reserved":false,"is_disabled":false,"rental_uris":{"android":"levelo://app?vid=a18fa354-a6ac-4d62-a3c8-516355b7e2c7","ios":"levelo://app?vid=a18fa354-a6ac-4d62-a3c8-516355b7e2c7"},"vehicle_type_id":"4","last_reported":1745762860,"current_range_meters":18000,"station_id":"ce4bhbp2rcd13ifvqesg","pricing_plan_id":"cebpf4jnsgd1na2vs0mg"},{"bike_id":"2da094df-aed1-4d8e-9caa-83eaae8291d5","system_id":"levelo_inurba_marseille","lat":43.30956,"lon":5.39041,"is_reserved":false,"is_disabled":false,"rental_uris":{"android":"levelo://app?vid=2da094df-aed1-4d8e-9caa-83eaae8291d5","ios":"levelo://app?vid=2da094df-aed1-4d8e-9caa-83eaae8291d5"},"vehicle_type_id":"4","last_reported":1745762860,"current_range_meters":18800,"station_id":"ce4bgup2rcd13ifvqco0","pricing_plan_id":"cebpf4jnsgd1na2vs0mg"},{"bike_id":"33367ab9-9964-499c-babb-45e855059dbe","system_id":"levelo_inurba_marseille","lat":43.29568,"lon":5.39973,"is_reserved":false,"is_disabled":false,"rental_uris":{"android":"levelo://app?vid=33367ab9-9964-499c-babb-45e855059dbe","ios":"levelo://app?vid=33367ab9-9964-499c-babb-45e855059dbe"},"vehicle_type_id":"4","last_reported":1745762860,"current_range_meters":18800,"station_id":"ce4bh312rcd13ifvqdj0","pricing_plan_id":"cebpf4jnsgd1na2vs0mg"},{"bike_id":"24403cac-5e6c-475d-99cf-a6c99454a4f5","system_id":"levelo_inurba_marseille","lat":43.29839,"lon":5.36264,"is_reserved":false,"is_disabled":false,"rental_uris":{"android":"levelo://app?vid=24403cac-5e6c-475d-99cf-a6c99454a4f5","ios":"levelo://app?vid=24403cac-5e6c-475d-99cf-a6c99454a4f5"},"vehicle_type_id":"4","last_reported":1745762860,"current_range_meters":18800,"station_id":"ce4bgpp2rcd13ifvqc3g","pricing_plan_id":"cebpf4jnsgd1na2vs0mg"},{"bike_id":"5e29bb99-7a29-4bbf-a514-99195c8fa20f","system_id":"levelo_inurba_marseille","lat":43.29926,"lon":5.43695,"is_reserved":false,"is_disabled":false,"rental_uris":{"android":"levelo://app?vid=5e29bb99-7a29-4bbf-a514-99195c8fa20f","ios":"levelo://app?vid=5e29bb99-7a29-4bbf-a514-99195c8fa20f"},"vehicle_type_id":"4","last_reported":1745762860,"current_range_meters":18800,"station_id":"","pricing_plan_id":"cebpf4jnsgd1na2vs0mg"},{"bike_id":"988d3e51-0f81-4d05-9256-41d5bf2a54ae","system_id":"levelo_inurba_marseille","lat":43.29702,"lon":5.36631,"is_reserved":false,"is_disabled":true,"rental_uris":{"android":"levelo://app?vid=988d3e51-0f81-4d05-9256-41d5bf2a54ae","ios":"levelo://app?vid=988d3e51-0f81-4d05-9256-41d5bf2a54ae"},"vehicle_type_id":"4","last_reported":1745762860,"current_range_meters":18800,"station_id":"ce4bgn12rcd13ifvqbt0","pricing_plan_id":"cebpf4jnsgd1na2vs0mg"},{"bike_id":"929ede0a-bede-4f2c-98c5-5586d05b6a66","system_id":"levelo_inurba_marseille","lat":43.21754,"lon":5.3461,"is_reserved":false,"is_disabled":false,"rental_uris":{"android":"levelo://app?vid=929ede0a-bede-4f2c-98c5-5586d05b6a66","ios":"levelo://app?vid=929ede0a-bede-4f2c-98c5-5586d05b6a66"},"vehicle_type_id":"4","last_reported":1745762860,"current_range_meters":19200,"station_id":"st_cvj6r9ubvosntc0bgbag","pricing_plan_id":"cebpf4jnsgd1na2vs0mg"},{"bike_id":"15f53169-26b9-488f-8cca-260227a8c843","system_id":"levelo_inurba_marseille","lat":43.2762,"lon":5.36114,"is_reserved":false,"is_disabled":false,"rental_uris":{"android":"levelo://app?vid=15f53169-26b9-488f-8cca-260227a8c843","ios":"levelo://app?vid=15f53169-26b9-488f-8cca-260227a8c843"},"vehicle_type_id":"4","last_reported":1745762860,"current_range_meters":19200,"station_id":"ce4bgj92rcd13ifvqbe0","pricing_plan_id":"cebpf4jnsgd1na2vs0mg"},{"bike_id":"38730524-6b57-4b96-afc8-d032a325ab32","system_id":"levelo_inurba_marseille","lat":43.28414,"lon":5.37501,"is_reserved":false,"is_disabled":false,"rental_uris":{"android":"levelo://app?vid=38730524-6b57-4b96-afc8-d032a325ab32","ios":"levelo://app?vid=38730524-6b57-4b96-afc8-d032a325ab32"},"vehicle_type_id":"4","last_reported":1745762860,"current_range_meters":19200,"station_id":"ce4bh412rcd13ifvqds0","pricing_plan_id":"cebpf4jnsgd1na2vs0mg"},{"bike_id":"5d80cec4-cf0d-4b75-87cc-4649871dd5da","system_id":"levelo_inurba_marseille","lat":43.27495,"lon":5.42448,"is_reserved":false,"is_disabled":false,"rental_uris":{"android":"levelo://app?vid=5d80cec4-cf0d-4b75-87cc-4649871dd5da","ios":"levelo://app?vid=5d80cec4-cf0d-4b75-87cc-4649871dd5da"},"vehicle_type_id":"4","last_reported":1745762860,"current_range_meters":19200,"station_id":"ce4bhn92rcd13ifvqgrg","pricing_plan_id":"cebpf4jnsgd1na2vs0mg"},{"bike_id":"db9128d4-fa4b-4b3d-b5d8-0462404fa361","system_id":"levelo_inurba_marseille","lat":43.32101,"lon":5.36801,"is_reserved":false,"is_disabled":false,"rental_uris":{"android":"levelo://app?vid=db9128d4-fa4b-4b3d-b5d8-0462404fa361","ios":"levelo://app?vid=db9128d4-fa4b-4b3d-b5d8-0462404fa361"},"vehicle_type_id":"4","last_reported":1745762860,"current_range_meters":19200,"station_id":"ce4bhrh2rcd13ifvqhug","pricing_plan_id":"cebpf4jnsgd1na2vs0mg"},{"bike_id":"9b2aa63f-19c5-4bb2-b58d-ae476741cc93","system_id":"levelo_inurba_marseille","lat":43.29275,"lon":5.36846,"is_reserved":false,"is_disabled":false,"rental_uris":{"android":"levelo://app?vid=9b2aa63f-19c5-4bb2-b58d-ae476741cc93","ios":"levelo://app?vid=9b2aa63f-19c5-4bb2-b58d-ae476741cc93"},"vehicle_type_id":"4","last_reported":1745762860,"current_range_meters":19200,"station_id":"ce4bhbp2rcd13ifvqesg","pricing_plan_id":"cebpf4jnsgd1na2vs0mg"},{"bike_id":"63954f41-1bdf-4187-bac5-2709d6ab1c23","system_id":"levelo_inurba_marseille","lat":43.295105,"lon":5.387662,"is_reserved":false,"is_disabled":false,"rental_uris":{"android":"levelo://app?vid=63954f41-1bdf-4187-bac5-2709d6ab1c23","ios":"levelo://app?vid=63954f41-1bdf-4187-bac5-2709d6ab1c23"},"vehicle_type_id":"4","last_reported":1745762860,"current_range_meters":19200,"station_id":"ce4bh3p2rcd13ifvqdp0","pricing_plan_id":"cebpf4jnsgd1na2vs0mg"},{"bike_id":"3615857f-9ffa-4ebd-a9e0-cfcecf4bc0c3","system_id":"levelo_inurba_marseille","lat":43.310543,"lon":5.376122,"is_reserved":false,"is_disabled":false,"rental_uris":{"android":"levelo://app?vid=3615857f-9ffa-4ebd-a9e0-cfcecf4bc0c3","ios":"levelo://app?vid=3615857f-9ffa-4ebd-a9e0-cfcecf4bc0c3"},"vehicle_type_id":"4","last_reported":1745762860,"current_range_meters":19600,"station_id":"ce4bgqh2rcd13ifvqc4g","pricing_plan_id":"cebpf4jnsgd1na2vs0mg"},{"bike_id":"5f363fb2-65d6-4f54-a7e8-9f0969c18dcf","system_id":"levelo_inurba_marseille","lat":43.30587,"lon":5.36558,"is_reserved":false,"is_disabled":true,"rental_uris":{"android":"levelo://app?vid=5f363fb2-65d6-4f54-a7e8-9f0969c18dcf","ios":"levelo://app?vid=5f363fb2-65d6-4f54-a7e8-9f0969c18dcf"},"vehicle_type_id":"4","last_reported":1745762860,"current_range_meters":19600,"station_id":"ce4bgs12rcd13ifvqcag","pricing_plan_id":"cebpf4jnsgd1na2vs0mg"},{"bike_id":"85c7f18b-a8ae-48ce-868e-8f54e2862179","system_id":"levelo_inurba_marseille","lat":43.30947,"lon":5.39039,"is_reserved":false,"is_disabled":false,"rental_uris":{"android":"levelo://app?vid=85c7f18b-a8ae-48ce-868e-8f54e2862179","ios":"levelo://app?vid=85c7f18b-a8ae-48ce-868e-8f54e2862179"},"vehicle_type_id":"4","last_reported":1745762860,"current_range_meters":19600,"station_id":"ce4bgup2rcd13ifvqco0","pricing_plan_id":"cebpf4jnsgd1na2vs0mg"},{"bike_id":"b45721df-1911-4bd0-96bb-0c84adb69cfd","system_id":"levelo_inurba_marseille","lat":43.23961,"lon":5.36636,"is_reserved":false,"is_disabled":false,"rental_uris":{"android":"levelo://app?vid=b45721df-1911-4bd0-96bb-0c84adb69cfd","ios":"levelo://app?vid=b45721df-1911-4bd0-96bb-0c84adb69cfd"},"vehicle_type_id":"4","last_reported":1745762860,"current_range_meters":19600,"station_id":"ce4bhi12rcd13ifvqfp0","pricing_plan_id":"cebpf4jnsgd1na2vs0mg"},{"bike_id":"7f591cad-ea91-4bda-9c6c-6fe1566561a1","system_id":"levelo_inurba_marseille","lat":43.32068,"lon":5.41537,"is_reserved":false,"is_disabled":false,"rental_uris":{"android":"levelo://app?vid=7f591cad-ea91-4bda-9c6c-6fe1566561a1","ios":"levelo://app?vid=7f591cad-ea91-4bda-9c6c-6fe1566561a1"},"vehicle_type_id":"4","last_reported":1745762860,"current_range_meters":19600,"station_id":"ce4bhq92rcd13ifvqhkg","pricing_plan_id":"cebpf4jnsgd1na2vs0mg"},{"bike_id":"8709fa22-344c-4b73-83d2-b4d3397e8b24","system_id":"levelo_inurba_marseille","lat":43.30142,"lon":5.3807,"is_reserved":false,"is_disabled":false,"rental_uris":{"android":"levelo://app?vid=8709fa22-344c-4b73-83d2-b4d3397e8b24","ios":"levelo://app?vid=8709fa22-344c-4b73-83d2-b4d3397e8b24"},