{"last_updated":1762781068,"ttl":60,"version":"2.2","data":{"bikes":[{"bike_id":"9dda5635-a624-436d-9b12-22fb00320230","system_id":"levelo_inurba_marseille","lat":43.29322,"lon":5.37155,"is_reserved":false,"is_disabled":false,"rental_uris":{"android":"levelo://app?vid=9dda5635-a624-436d-9b12-22fb00320230","ios":"levelo://app?vid=9dda5635-a624-436d-9b12-22fb00320230"},"vehicle_type_id":"4","last_reported":1762781068,"current_range_meters":2800,"station_id":"","pricing_plan_id":"cebpf4jnsgd1na2vs0mg"},{"bike_id":"3b294fa9-3f9f-4381-a2a8-e3592d375a68","system_id":"levelo_inurba_marseille","lat":43.26698,"lon":5.39664,"is_reserved":false,"is_disabled":false,"rental_uris":{"android":"levelo://app?vid=3b294fa9-3f9f-4381-a2a8-e3592d375a68","ios":"levelo://app?vid=3b294fa9-3f9f-4381-a2a8-e3592d375a68"},"vehicle_type_id":"4","last_reported":1762781068,"current_range_meters":2800,"station_id":"","pricing_plan_id":"cebpf4jnsgd1na2vs0mg"},{"bike_id":"910cc3ae-7ba4-48e5-a244-931e2df10a06","system_id":"levelo_inurba_marseille","lat":43.271094,"lon":5.392781,"is_reserved":false,"is_disabled":false,"rental_uris":{"android":"levelo://app?vid=910cc3ae-7ba4-48e5-a244-931e2df10a06","ios":"levelo://app?vid=910cc3ae-7ba4-48e5-a244-931e2df10a06"},"vehicle_type_id":"4","last_reported":1762781068,"current_range_meters":2800,"station_id":"","pricing_plan_id":"cebpf4jnsgd1na2vs0mg"},{"bike_id":"ca886431-e313-46a1-a62f-ebe9fd82de3e","system_id":"levelo_inurba_marseille","lat":43.27369,"lon":5.36251,"is_reserved":false,"is_disabled":false,"rental_uris":{"android":"levelo://app?vid=ca886431-e313-46a1-a62f-ebe9fd82de3e","ios":"levelo://app?vid=ca886431-e313-46a1-a62f-ebe9fd82de3e"},"vehicle_type_id":"4","last_reported":1762781068,"current_range_meters":2800,"station_id":"ce4bhbh2rcd13ifvqeo0","pricing_plan_id":"cebpf4jnsgd1na2vs0mg"},{"bike_id":"30cdb724-c849-46a7-b40f-f251ae88c158","system_id":"levelo_inurba_marseille","lat":43.29304,"lon":5.37168,"is_reserved":false,"is_disabled":false,"rental_uris":{"android":"levelo://app?vid=30cdb724-c849-46a7-b40f-f251ae88c158","ios":"levelo://app?vid=30cdb724-c849-46a7-b40f-f251ae88c158"},"vehicle_type_id":"4","last_reported":1762781068,"current_range_meters":3200,"station_id":"ce4bgh92rcd13ifvqb40","pricing_plan_id":"cebpf4jnsgd1na2vs0mg"},{"bike_id":"321d43c2-a97c-419e-a110-a172b4ee23e9","system_id":"levelo_inurba_marseille","lat":43.2614,"lon":5.4178,"is_reserved":false,"is_disabled":false,"rental_uris":{"android":"levelo://app?vid=321d43c2-a97c-419e-a110-a172b4ee23e9","ios":"levelo://app?vid=321d43c2-a97c-419e-a110-a172b4ee23e9"},"vehicle_type_id":"4","last_reported":1762781068,"current_range_meters":3200,"station_id":"","pricing_plan_id":"cebpf4jnsgd1na2vs0mg"},{"bike_id":"6fa6a2da-0615-451b-994d-4a3f74e74e14","system_id":"levelo_inurba_marseille","lat":43.295191,"lon":5.374428,"is_reserved":false,"is_disabled":false,"rental_uris":{"android":"levelo://app?vid=6fa6a2da-0615-451b-994d-4a3f74e74e14","ios":"levelo://app?vid=6fa6a2da-0615-451b-994d-4a3f74e74e14"},"vehicle_type_id":"4","last_reported":1762781068,"current_range_meters":3600,"station_id":"ce4bgkp2rcd13ifvqbmg","pricing_plan_id":"cebpf4jnsgd1na2vs0mg"},{"bike_id":"063d8ea3-eac1-4d86-84b9-a0393ac5022f","system_id":"levelo_inurba_marseille","lat":43.28303,"lon":5.39015,"is_reserved":false,"is_disabled":true,"rental_uris":{"android":"levelo://app?vid=063d8ea3-eac1-4d86-84b9-a0393ac5022f","ios":"levelo://app?vid=063d8ea3-eac1-4d86-84b9-a0393ac5022f"},"vehicle_type_id":"4","last_reported":1762781068,"current_range_meters":3600,"station_id":"","pricing_plan_id":"cebpf4jnsgd1na2vs0mg"},{"bike_id":"26ee2f14-eed1-45e7-aea5-0c330057a6a5","system_id":"levelo_inurba_marseille","lat":43.24155,"lon":5.36416,"is_reserved":false,"is_disabled":false,"rental_uris":{"android":"levelo://app?vid=26ee2f14-eed1-45e7-aea5-0c330057a6a5","ios":"levelo://app?vid=26ee2f14-eed1-45e7-aea5-0c330057a6a5"},"vehicle_type_id":"4","last_reported":1762781068,"current_range_meters":3600,"station_id":"cpo36qri1sfpv3e86is0","pricing_plan_id":"cebpf4jnsgd1na2vs0mg"},{"bike_id":"5cdb8250-cc17-4091-bc99-828f2a284ec9","system_id":"levelo_inurba_marseille","lat":43.25879,"lon":5.39861,"is_reserved":false,"is_disabled":false,"rental_uris":{"android":"levelo://app?vid=5cdb8250-cc17-4091-bc99-828f2a284ec9","ios":"levelo://app?vid=5cdb8250-cc17-4091-bc99-828f2a284ec9"},"vehicle_type_id":"4","last_reported":1762781068,"current_range_meters":3600,"station_id":"ce4bhl92rcd13ifvqghg","pricing_plan_id":"cebpf4jnsgd1na2vs0mg"},{"bike_id":"d58162db-574a-44f0-b573-b59c9312a09d","system_id":"levelo_inurba_marseille","lat":43.28279,"lon":5.3508,"is_reserved":false,"is_disabled":true,"rental_uris":{"android":"levelo://app?vid=d58162db-574a-44f0-b573-b59c9312a09d","ios":"levelo://app?vid=d58162db-574a-44f0-b573-b59c9312a09d"},"vehicle_type_id":"4","last_reported":1762781068,"current_range_meters":4000,"station_id":"ce4bhbp2rcd13ifvqerg","pricing_plan_id":"cebpf4jnsgd1na2vs0mg"},{"bike_id":"b6401f16-1d5c-4da6-bb33-2173aafdb653","system_id":"levelo_inurba_marseille","lat":43.28849,"lon":5.3932,"is_reserved":false,"is_disabled":false,"rental_uris":{"android":"levelo://app?vid=b6401f16-1d5c-4da6-bb33-2173aafdb653","ios":"levelo://app?vid=b6401f16-1d5c-4da6-bb33-2173aafdb653"},"vehicle_type_id":"4","last_reported":1762781068,"current_range_meters":4400,"station_id":"ce4bh2p2rcd13ifvqdi0","pricing_plan_id":"cebpf4jnsgd1na2vs0mg"},{"bike_id":"6e93e015-2c50-438f-be86-1d7d3f53e576","system_id":"levelo_inurba_marseille","lat":43.29314,"lon":5.40101,"is_reserved":false,"is_disabled":false,"rental_uris":{"android":"levelo://app?vid=6e93e015-2c50-438f-be86-1d7d3f53e576","ios":"levelo://app?vid=6e93e015-2c50-438f-be86-1d7d3f53e576"},"vehicle_type_id":"4","last_reported":1762781068,"current_range_meters":4400,"station_id":"ce4bh312rcd13ifvqdk0","pricing_plan_id":"cebpf4jnsgd1na2vs0mg"},{"bike_id":"27b21cdd-62e5-481a-8973-d8ba474336f6","system_id":"levelo_inurba_marseille","lat":43.25082,"lon":5.39524,"is_reserved":false,"is_disabled":false,"rental_uris":{"android":"levelo://app?vid=27b21cdd-62e5-481a-8973-d8ba474336f6","ios":"levelo://app?vid=27b21cdd-62e5-481a-8973-d8ba474336f6"},"vehicle_type_id":"4","last_reported":1762781068,"current_range_meters":4400,"station_id":"ce4bhm12rcd13ifvqgkg","pricing_plan_id":"cebpf4jnsgd1na2vs0mg"},{"bike_id":"b05048b6-3636-4628-97b9-678771374061","system_id":"levelo_inurba_marseille","lat":43.30451,"lon":5.36744,"is_reserved":false,"is_disabled":false,"rental_uris":{"android":"levelo://app?vid=b05048b6-3636-4628-97b9-678771374061","ios":"levelo://app?vid=b05048b6-3636-4628-97b9-678771374061"},"vehicle_type_id":"4","last_reported":1762781068,"current_range_meters":4400,"station_id":"","pricing_plan_id":"cebpf4jnsgd1na2vs0mg"},{"bike_id":"8040d437-b793-4c7c-83dd-8a60b4a68d3a","system_id":"levelo_inurba_marseille","lat":43.25919,"lon":5.40912,"is_reserved":false,"is_disabled":true,"rental_uris":{"android":"levelo://app?vid=8040d437-b793-4c7c-83dd-8a60b4a68d3a","ios":"levelo://app?vid=8040d437-b793-4c7c-83dd-8a60b4a68d3a"},"vehicle_type_id":"4","last_reported":1762781068,"current_range_meters":4400,"station_id":"ce4bhm92rcd13ifvqglg","pricing_plan_id":"cebpf4jnsgd1na2vs0mg"},{"bike_id":"870a9ad1-db35-4ab0-bc9a-84476efc6571","system_id":"levelo_inurba_marseille","lat":43.32783,"lon":5.42663,"is_reserved":false,"is_disabled":false,"rental_uris":{"android":"levelo://app?vid=870a9ad1-db35-4ab0-bc9a-84476efc6571","ios":"levelo://app?vid=870a9ad1-db35-4ab0-bc9a-84476efc6571"},"vehicle_type_id":"4","last_reported":1762781068,"current_range_meters":4400,"station_id":"","pricing_plan_id":"cebpf4jnsgd1na2vs0mg"},{"bike_id":"4edc3b9f-f568-468e-ac82-e9685cdd47fe","system_id":"levelo_inurba_marseille","lat":43.28416,"lon":5.34979,"is_reserved":false,"is_disabled":false,"rental_uris":{"android":"levelo://app?vid=4edc3b9f-f568-468e-ac82-e9685cdd47fe","ios":"levelo://app?vid=4edc3b9f-f568-468e-ac82-e9685cdd47fe"},"vehicle_type_id":"4","last_reported":1762781068,"current_range_meters":4400,"station_id":"ce4bhbh2rcd13ifvqepg","pricing_plan_id":"cebpf4jnsgd1na2vs0mg"},{"bike_id":"8680a8bd-ac80-427d-abfd-6b78a47a0471","system_id":"levelo_inurba_marseille","lat":43.24637,"lon":5.43153,"is_reserved":false,"is_disabled":false,"rental_uris":{"android":"levelo://app?vid=8680a8bd-ac80-427d-abfd-6b78a47a0471","ios":"levelo://app?vid=8680a8bd-ac80-427d-abfd-6b78a47a0471"},"vehicle_type_id":"4","last_reported":1762781068,"current_range_meters":4800,"station_id":"st_d2m6c4gdas8pm72e190g","pricing_plan_id":"cebpf4jnsgd1na2vs0mg"},{"bike_id":"5639a4e1-54a1-4632-8b89-e7e1e843e009","system_id":"levelo_inurba_marseille","lat":43.29035,"lon":5.3756,"is_reserved":false,"is_disabled":false,"rental_uris":{"android":"levelo://app?vid=5639a4e1-54a1-4632-8b89-e7e1e843e009","ios":"levelo://app?vid=5639a4e1-54a1-4632-8b89-e7e1e843e009"},"vehicle_type_id":"4","last_reported":1762781068,"current_range_meters":4800,"station_id":"ce4bh692rcd13ifvqe90","pricing_plan_id":"cebpf4jnsgd1na2vs0mg"},{"bike_id":"8a70902f-69d6-4919-8959-461b868d6967","system_id":"levelo_inurba_marseille","lat":43.21745,"lon":5.34604,"is_reserved":false,"is_disabled":false,"rental_uris":{"android":"levelo://app?vid=8a70902f-69d6-4919-8959-461b868d6967","ios":"levelo://app?vid=8a70902f-69d6-4919-8959-461b868d6967"},"vehicle_type_id":"4","last_reported":1762781068,"current_range_meters":4800,"station_id":"st_cvj6r9ubvosntc0bgbag","pricing_plan_id":"cebpf4jnsgd1na2vs0mg"},{"bike_id":"50736b28-c799-48c1-bf4e-7ff67b650b47","system_id":"levelo_inurba_marseille","lat":43.24799,"lon":5.37454,"is_reserved":false,"is_disabled":false,"rental_uris":{"android":"levelo://app?vid=50736b28-c799-48c1-bf4e-7ff67b650b47","ios":"levelo://app?vid=50736b28-c799-48c1-bf4e-7ff67b650b47"},"vehicle_type_id":"4","last_reported":1762781068,"current_range_meters":5600,"station_id":"ce4bhgh2rcd13ifvqfb0","pricing_plan_id":"cebpf4jnsgd1na2vs0mg"},{"bike_id":"825a1957-d327-49da-97b3-2485c79c40e7","system_id":"levelo_inurba_marseille","lat":43.21727,"lon":5.34642,"is_reserved":false,"is_disabled":true,"rental_uris":{"android":"levelo://app?vid=825a1957-d327-49da-97b3-2485c79c40e7","ios":"levelo://app?vid=825a1957-d327-49da-97b3-2485c79c40e7"},"vehicle_type_id":"4","last_reported":1762781068,"current_range_meters":5600,"station_id":"st_cvj6r9ubvosntc0bgbag","pricing_plan_id":"cebpf4jnsgd1na2vs0mg"},{"bike_id":"293a6493-223f-473d-94fc-2acf31eeff52","system_id":"levelo_inurba_marseille","lat":43.23962,"lon":5.36627,"is_reserved":false,"is_disabled":false,"rental_uris":{"android":"levelo://app?vid=293a6493-223f-473d-94fc-2acf31eeff52","ios":"levelo://app?vid=293a6493-223f-473d-94fc-2acf31eeff52"},"vehicle_type_id":"4","last_reported":1762781068,"current_range_meters":5600,"station_id":"ce4bhi12rcd13ifvqfp0","pricing_plan_id":"cebpf4jnsgd1na2vs0mg"},{"bike_id":"6a5cb119-1a64-415c-a949-ec0bb54d8799","system_id":"levelo_inurba_marseille","lat":43.33174,"lon":5.37675,"is_reserved":false,"is_disabled":false,"rental_uris":{"android":"levelo://app?vid=6a5cb119-1a64-415c-a949-ec0bb54d8799","ios":"levelo://app?vid=6a5cb119-1a64-415c-a949-ec0bb54d8799"},"vehicle_type_id":"4","last_reported":1762781068,"current_range_meters":5600,"station_id":"st_d46cu089ee8s73dldbu0","pricing_plan_id":"cebpf4jnsgd1na2vs0mg"},{"bike_id":"0dcc6b97-1f7b-4b74-a55c-9029bdbbcf38","system_id":"levelo_inurba_marseille","lat":43.21736,"lon":5.34598,"is_reserved":false,"is_disabled":false,"rental_uris":{"android":"levelo://app?vid=0dcc6b97-1f7b-4b74-a55c-9029bdbbcf38","ios":"levelo://app?vid=0dcc6b97-1f7b-4b74-a55c-9029bdbbcf38"},"vehicle_type_id":"4","last_reported":1762781068,"current_range_meters":5600,"station_id":"st_cvj6r9ubvosntc0bgbag","pricing_plan_id":"cebpf4jnsgd1na2vs0mg"},{"bike_id":"7135152f-9ae8-4bee-8113-837a34d72090","system_id":"levelo_inurba_marseille","lat":43.292611,"lon":5.401161,"is_reserved":false,"is_disabled":false,"rental_uris":{"android":"levelo://app?vid=7135152f-9ae8-4bee-8113-837a34d72090","ios":"levelo://app?vid=7135152f-9ae8-4bee-8113-837a34d72090"},"vehicle_type_id":"4","last_reported":1762781068,"current_range_meters":5600,"station_id":"ce4bh312rcd13ifvqdk0","pricing_plan_id":"cebpf4jnsgd1na2vs0mg"},{"bike_id":"96470629-146a-42d2-b228-6208900e69c7","system_id":"levelo_inurba_marseille","lat":43.30538,"lon":5.36537,"is_reserved":false,"is_disabled":false,"rental_uris":{"android":"levelo://app?vid=96470629-146a-42d2-b228-6208900e69c7","ios":"levelo://app?vid=96470629-146a-42d2-b228-6208900e69c7"},"vehicle_type_id":"4","last_reported":1762781068,"current_range_meters":5600,"station_id":"ce4bgs12rcd13ifvqcag","pricing_plan_id":"cebpf4jnsgd1na2vs0mg"},{"bike_id":"589f0afc-0a77-4f5f-93a0-f53e39c7c164","system_id":"levelo_inurba_marseille","lat":43.2808,"lon":5.347735,"is_reserved":false,"is_disabled":false,"rental_uris":{"android":"levelo://app?vid=589f0afc-0a77-4f5f-93a0-f53e39c7c164","ios":"levelo://app?vid=589f0afc-0a77-4f5f-93a0-f53e39c7c164"},"vehicle_type_id":"4","last_reported":1762781068,"current_range_meters":5600,"station_id":"","pricing_plan_id":"cebpf4jnsgd1na2vs0mg"},{"bike_id":"49ecf419-6496-440f-94ba-0c2263f0f77a","system_id":"levelo_inurba_marseille","lat":43.28926,"lon":5.36648,"is_reserved":false,"is_disabled":false,"rental_uris":{"android":"levelo://app?vid=49ecf419-6496-440f-94ba-0c2263f0f77a","ios":"levelo://app?vid=49ecf419-6496-440f-94ba-0c2263f0f77a"},"vehicle_type_id":"4","last_reported":1762781068,"current_range_meters":5600,"station_id":"ce4bhap2rcd13ifvqek0","pricing_plan_id":"cebpf4jnsgd1na2vs0mg"},{"bike_id":"2e031e2c-c6f5-44c9-9b6c-671ac50832e7","system_id":"levelo_inurba_marseille","lat":43.31072,"lon":5.38366,"is_reserved":false,"is_disabled":false,"rental_uris":{"android":"levelo://app?vid=2e031e2c-c6f5-44c9-9b6c-671ac50832e7","ios":"levelo://app?vid=2e031e2c-c6f5-44c9-9b6c-671ac50832e7"},"vehicle_type_id":"4","last_reported":1762781068,"current_range_meters":5600,"station_id":"ce4bgv92rcd13ifvqcr0","pricing_plan_id":"cebpf4jnsgd1na2vs0mg"},{"bike_id":"166b8e76-9093-4653-9686-62f50d2b011d","system_id":"levelo_inurba_marseille","lat":43.2509,"lon":5.39521,"is_reserved":false,"is_disabled":false,"rental_uris":{"android":"levelo://app?vid=166b8e76-9093-4653-9686-62f50d2b011d","ios":"levelo://app?vid=166b8e76-9093-4653-9686-62f50d2b011d"},"vehicle_type_id":"4","last_reported":1762781068,"current_range_meters":6000,"station_id":"ce4bhm12rcd13ifvqgkg","pricing_plan_id":"cebpf4jnsgd1na2vs0mg"},{"bike_id":"5652e965-4461-4ba1-8cc3-6477a5b30bee","system_id":"levelo_inurba_marseille","lat":43.2904,"lon":5.35943,"is_reserved":false,"is_disabled":false,"rental_uris":{"android":"levelo://app?vid=5652e965-4461-4ba1-8cc3-6477a5b30bee","ios":"levelo://app?vid=5652e965-4461-4ba1-8cc3-6477a5b30bee"},"vehicle_type_id":"4","last_reported":1762781068,"current_range_meters":6000,"station_id":"ce4bha92rcd13ifvqeg0","pricing_plan_id":"cebpf4jnsgd1na2vs0mg"},{"bike_id":"d71da77c-d992-42fb-9ec4-477e39ec13c7","system_id":"levelo_inurba_marseille","lat":43.29913,"lon":5.37479,"is_reserved":false,"is_disabled":false,"rental_uris":{"android":"levelo://app?vid=d71da77c-d992-42fb-9ec4-477e39ec13c7","ios":"levelo://app?vid=d71da77c-d992-42fb-9ec4-477e39ec13c7"},"vehicle_type_id":"4","last_reported":1762781068,"current_range_meters":6000,"station_id":"ce4bgjh2rcd13ifvqbg0","pricing_plan_id":"cebpf4jnsgd1na2vs0mg"},{"bike_id":"76c0a210-154c-45c0-a653-32e716579d54","system_id":"levelo_inurba_marseille","lat":43.21737,"lon":5.34606,"is_reserved":false,"is_disabled":false,"rental_uris":{"android":"levelo://app?vid=76c0a210-154c-45c0-a653-32e716579d54","ios":"levelo://app?vid=76c0a210-154c-45c0-a653-32e716579d54"},"vehicle_type_id":"4","last_reported":1762781068,"current_range_meters":6000,"station_id":"st_cvj6r9ubvosntc0bgbag","pricing_plan_id":"cebpf4jnsgd1na2vs0mg"},{"bike_id":"c402c8b5-28ad-4ee4-976a-217edc532e04","system_id":"levelo_inurba_marseille","lat":43.27961,"lon":5.38753,"is_reserved":false,"is_disabled":false,"rental_uris":{"android":"levelo://app?vid=c402c8b5-28ad-4ee4-976a-217edc532e04","ios":"levelo://app?vid=c402c8b5-28ad-4ee4-976a-217edc532e04"},"vehicle_type_id":"4","last_reported":1762781068,"current_range_meters":6000,"station_id":"ce4bhg12rcd13ifvqf80","pricing_plan_id":"cebpf4jnsgd1na2vs0mg"},{"bike_id":"682120cb-f435-4ac8-97cc-a7e9a1aac5e8","system_id":"levelo_inurba_marseille","lat":43.27077,"lon":5.42272,"is_reserved":false,"is_disabled":false,"rental_uris":{"android":"levelo://app?vid=682120cb-f435-4ac8-97cc-a7e9a1aac5e8","ios":"levelo://app?vid=682120cb-f435-4ac8-97cc-a7e9a1aac5e8"},"vehicle_type_id":"4","last_reported":1762781068,"current_range_meters":6000,"station_id":"ce4bhk92rcd13ifvqgb0","pricing_plan_id":"cebpf4jnsgd1na2vs0mg"},{"bike_id":"b7e74731-bda8-4b02-bdda-fd2b21b80c6b","system_id":"levelo_inurba_marseille","lat":43.26951,"lon":5.38634,"is_reserved":false,"is_disabled":false,"rental_uris":{"android":"levelo://app?vid=b7e74731-bda8-4b02-bdda-fd2b21b80c6b","ios":"levelo://app?vid=b7e74731-bda8-4b02-bdda-fd2b21b80c6b"},"vehicle_type_id":"4","last_reported":1762781068,"current_range_meters":6000,"station_id":"ce4bhh92rcd13ifvqfh0","pricing_plan_id":"cebpf4jnsgd1na2vs0mg"},{"bike_id":"eebc9f8a-254a-4286-9970-d203c936264d","system_id":"levelo_inurba_marseille","lat":43.316306,"lon":5.374582,"is_reserved":false,"is_disabled":false,"rental_uris":{"android":"levelo://app?vid=eebc9f8a-254a-4286-9970-d203c936264d","ios":"levelo://app?vid=eebc9f8a-254a-4286-9970-d203c936264d"},"vehicle_type_id":"4","last_reported":1762781068,"current_range_meters":6000,"station_id":"","pricing_plan_id":"cebpf4jnsgd1na2vs0mg"},{"bike_id":"cae418ce-d615-4c87-91cd-e3667341a5fe","system_id":"levelo_inurba_marseille","lat":43.30302,"lon":5.39219,"is_reserved":false,"is_disabled":false,"rental_uris":{"android":"levelo://app?vid=cae418ce-d615-4c87-91cd-e3667341a5fe","ios":"levelo://app?vid=cae418ce-d615-4c87-91cd-e3667341a5fe"},"vehicle_type_id":"4","last_reported":1762781068,"current_range_meters":6400,"station_id":"ce4bgkh2rcd13ifvqbk0","pricing_plan_id":"cebpf4jnsgd1na2vs0mg"},{"bike_id":"15db09df-59b0-446a-87c5-e354a3319258","system_id":"levelo_inurba_marseille","lat":43.28474,"lon":5.48398,"is_reserved":false,"is_disabled":false,"rental_uris":{"android":"levelo://app?vid=15db09df-59b0-446a-87c5-e354a3319258","ios":"levelo://app?vid=15db09df-59b0-446a-87c5-e354a3319258"},"vehicle_type_id":"4","last_reported":1762781068,"current_range_meters":6400,"station_id":"","pricing_plan_id":"cebpf4jnsgd1na2vs0mg"},{"bike_id":"a468abfc-41a1-4cf8-84ac-466c31dd44ec","system_id":"levelo_inurba_marseille","lat":43.26798,"lon":5.39036,"is_reserved":false,"is_disabled":false,"rental_uris":{"android":"levelo://app?vid=a468abfc-41a1-4cf8-84ac-466c31dd44ec","ios":"levelo://app?vid=a468abfc-41a1-4cf8-84ac-466c31dd44ec"},"vehicle_type_id":"4","last_reported":1762781068,"current_range_meters":6400,"station_id":"","pricing_plan_id":"cebpf4jnsgd1na2vs0mg"},{"bike_id":"6f98b7a7-ae98-40be-aded-6fe2b547bfca","system_id":"levelo_inurba_marseille","lat":43.337444,"lon":5.374475,"is_reserved":false,"is_disabled":false,"rental_uris":{"android":"levelo://app?vid=6f98b7a7-ae98-40be-aded-6fe2b547bfca","ios":"levelo://app?vid=6f98b7a7-ae98-40be-aded-6fe2b547bfca"},"vehicle_type_id":"4","last_reported":1762781068,"current_range_meters":6400,"station_id":"","pricing_plan_id":"cebpf4jnsgd1na2vs0mg"},{"bike_id":"c1a8951c-0b8b-4e04-9556-ddc347871e56","system_id":"levelo_inurba_marseille","lat":43.336065,"lon":5.354404,"is_reserved":false,"is_disabled":false,"rental_uris":{"android":"levelo://app?vid=c1a8951c-0b8b-4e04-9556-ddc347871e56","ios":"levelo://app?vid=c1a8951c-0b8b-4e04-9556-ddc347871e56"},"vehicle_type_id":"4","last_reported":1762781068,"current_range_meters":6400,"station_id":"","pricing_plan_id":"cebpf4jnsgd1na2vs0mg"},{"bike_id":"68505bbd-c716-4c45-bb09-821b704e1d86","system_id":"levelo_inurba_marseille","lat":43.30135,"lon":5.37435,"is_reserved":false,"is_disabled":false,"rental_uris":{"android":"levelo://app?vid=68505bbd-c716-4c45-bb09-821b704e1d86","ios":"levelo://app?vid=68505bbd-c716-4c45-bb09-821b704e1d86"},"vehicle_type_id":"4","last_reported":1762781068,"current_range_meters":6800,"station_id":"ce4bgs92rcd13ifvqcc0","pricing_plan_id":"cebpf4jnsgd1na2vs0mg"},{"bike_id":"d7203625-966b-4e32-b966-34895486530f","system_id":"levelo_inurba_marseille","lat":43.27958,"lon":5.38758,"is_reserved":false,"is_disabled":false,"rental_uris":{"android":"levelo://app?vid=d7203625-966b-4e32-b966-34895486530f","ios":"levelo://app?vid=d7203625-966b-4e32-b966-34895486530f"},"vehicle_type_id":"4","last_reported":1762781068,"current_range_meters":6800,"station_id":"ce4bhg12rcd13ifvqf80","pricing_plan_id":"cebpf4jnsgd1na2vs0mg"},{"bike_id":"edca0f63-b35a-4d75-81e0-ef9ec4917a97","system_id":"levelo_inurba_marseille","lat":43.29264,"lon":5.40952,"is_reserved":false,"is_disabled":false,"rental_uris":{"android":"levelo://app?vid=edca0f63-b35a-4d75-81e0-ef9ec4917a97","ios":"levelo://app?vid=edca0f63-b35a-4d75-81e0-ef9ec4917a97"},"vehicle_type_id":"4","last_reported":1762781068,"current_range_meters":6800,"station_id":"ce4bh192rcd13ifvqdc0","pricing_plan_id":"cebpf4jnsgd1na2vs0mg"},{"bike_id":"d830103c-1331-419f-bc3f-febae1d52570","system_id":"levelo_inurba_marseille","lat":43.26058,"lon":5.39397,"is_reserved":false,"is_disabled":false,"rental_uris":{"android":"levelo://app?vid=d830103c-1331-419f-bc3f-febae1d52570","ios":"levelo://app?vid=d830103c-1331-419f-bc3f-febae1d52570"},"vehicle_type_id":"4","last_reported":1762781068,"current_range_meters":6800,"station_id":"ce4bhh92rcd13ifvqfj0","pricing_plan_id":"cebpf4jnsgd1na2vs0mg"},{"bike_id":"34d95597-675e-45c7-b3fc-ccda515dc638","system_id":"levelo_inurba_marseille","lat":43.30527,"lon":5.36705,"is_reserved":false,"is_disabled":false,"rental_uris":{"android":"levelo://app?vid=34d95597-675e-45c7-b3fc-ccda515dc638","ios":"levelo://app?vid=34d95597-675e-45c7-b3fc-ccda515dc638"},"vehicle_type_id":"4","last_reported":1762781068,"current_range_meters":7200,"station_id":"ce4bgrp2rcd13ifvqc9g","pricing_plan_id":"cebpf4jnsgd1na2vs0mg"},{"bike_id":"7d86dd2a-73ef-4dba-9413-e42efe6a8249","system_id":"levelo_inurba_marseille","lat":43.28687,"lon":5.39985,"is_reserved":false,"is_disabled":false,"rental_uris":{"android":"levelo://app?vid=7d86dd2a-73ef-4dba-9413-e42efe6a8249","ios":"levelo://app?vid=7d86dd2a-73ef-4dba-9413-e42efe6a8249"},"vehicle_type_id":"4","last_reported":1762781068,"current_range_meters":7200,"station_id":"ce4bho92rcd13ifvqh3g","pricing_plan_id":"cebpf4jnsgd1na2vs0mg"},{"bike_id":"e70960ae-4adf-4332-81d9-81ef88647152","system_id":"levelo_inurba_marseille","lat":43.27493,"lon":5.42476,"is_reserved":false,"is_disabled":false,"rental_uris":{"android":"levelo://app?vid=e70960ae-4adf-4332-81d9-81ef88647152","ios":"levelo://app?vid=e70960ae-4adf-4332-81d9-81ef88647152"},"vehicle_type_id":"4","last_reported":1762781068,"current_range_meters":7200,"station_id":"ce4bhn92rcd13ifvqgrg","pricing_plan_id":"cebpf4jnsgd1na2vs0mg"},{"bike_id":"bee22918-9c73-478f-a49e-30e90355d7a0","system_id":"levelo_inurba_marseille","lat":43.2123,"lon":5.35039,"is_reserved":false,"is_disabled":false,"rental_uris":{"android":"levelo://app?vid=bee22918-9c73-478f-a49e-30e90355d7a0","ios":"levelo://app?vid=bee22918-9c73-478f-a49e-30e90355d7a0"},"vehicle_type_id":"4","last_reported":1762781068,"current_range_meters":7200,"station_id":"","pricing_plan_id":"cebpf4jnsgd1na2vs0mg"},{"bike_id":"718ce4ab-d3a0-4ea2-b0b3-1e8fb8f5b58a","system_id":"levelo_inurba_marseille","lat":43.23151,"lon":5.43718,"is_reserved":false,"is_disabled":false,"rental_uris":{"android":"levelo://app?vid=718ce4ab-d3a0-4ea2-b0b3-1e8fb8f5b58a","ios":"levelo://app?vid=718ce4ab-d3a0-4ea2-b0b3-1e8fb8f5b58a"},"vehicle_type_id":"4","last_reported":1762781068,"current_range_meters":7200,"station_id":"ce4bhmp2rcd13ifvqgog","pricing_plan_id":"cebpf4jnsgd1na2vs0mg"},{"bike_id":"11fc4d3b-733f-446e-ae27-782a71ccb828","system_id":"levelo_inurba_marseille","lat":43.29934,"lon":5.36553,"is_reserved":false,"is_disabled":false,"rental_uris":{"android":"levelo://app?vid=11fc4d3b-733f-446e-ae27-782a71ccb828","ios":"levelo://app?vid=11fc4d3b-733f-446e-ae27-782a71ccb828"},"vehicle_type_id":"4","last_reported":1762781068,"current_range_meters":7200,"station_id":"ce4bgm92rcd13ifvqbr0","pricing_plan_id":"cebpf4jnsgd1na2vs0mg"},{"bike_id":"f67f33ef-23fe-4ff5-8a43-7b241a0de7da","system_id":"levelo_inurba_marseille","lat":43.32096,"lon":5.36809,"is_reserved":false,"is_disabled":false,"rental_uris":{"android":"levelo://app?vid=f67f33ef-23fe-4ff5-8a43-7b241a0de7da","ios":"levelo://app?vid=f67f33ef-23fe-4ff5-8a43-7b241a0de7da"},"vehicle_type_id":"4","last_reported":1762781068,"current_range_meters":8000,"station_id":"ce4bhrh2rcd13ifvqhug","pricing_plan_id":"cebpf4jnsgd1na2vs0mg"},{"bike_id":"4d1ecef6-36d1-4165-b6d4-755d36d62709","system_id":"levelo_inurba_marseille","lat":43.29973,"lon":5.37178,"is_reserved":false,"is_disabled":false,"rental_uris":{"android":"levelo://app?vid=4d1ecef6-36d1-4165-b6d4-755d36d62709","ios":"levelo://app?vid=4d1ecef6-36d1-4165-b6d4-755d36d62709"},"vehicle_type_id":"4","last_reported":1762781068,"current_range_meters":8000,"station_id":"ce4bgr92rcd13ifvqc7g","pricing_plan_id":"cebpf4jnsgd1na2vs0mg"},{"bike_id":"bcb7664a-39c2-46f8-930f-41cebd3d0b86","system_id":"levelo_inurba_marseille","lat":43.21188,"lon":5.35072,"is_reserved":false,"is_disabled":true,"rental_uris":{"android":"levelo://app?vid=bcb7664a-39c2-46f8-930f-41cebd3d0b86","ios":"levelo://app?vid=bcb7664a-39c2-46f8-930f-41cebd3d0b86"},"vehicle_type_id":"4","last_reported":1762781068,"current_range_meters":8000,"station_id":"st_cvj6sg6p6f1abm77japg","pricing_plan_id":"cebpf4jnsgd1na2vs0mg"},{"bike_id":"7d716906-2629-477b-a1c7-8480cabee110","system_id":"levelo_inurba_marseille","lat":43.28411,"lon":5.37505,"is_reserved":false,"is_disabled":false,"rental_uris":{"android":"levelo://app?vid=7d716906-2629-477b-a1c7-8480cabee110","ios":"levelo://app?vid=7d716906-2629-477b-a1c7-8480cabee110"},"vehicle_type_id":"4","last_reported":1762781068,"current_range_meters":8400,"station_id":"ce4bh412rcd13ifvqds0","pricing_plan_id":"cebpf4jnsgd1na2vs0mg"},{"bike_id":"44df4852-2bd9-4830-bd12-9d854e4286ef","system_id":"levelo_inurba_marseille","lat":43.293188,"lon":5.369298,"is_reserved":false,"is_disabled":false,"rental_uris":{"android":"levelo://app?vid=44df4852-2bd9-4830-bd12-9d854e4286ef","ios":"levelo://app?vid=44df4852-2bd9-4830-bd12-9d854e4286ef"},"vehicle_type_id":"4","last_reported":1762781068,"current_range_meters":8400,"station_id":"ce4bhbp2rcd13ifvqesg","pricing_plan_id":"cebpf4jnsgd1na2vs0mg"},{"bike_id":"5997c6b0-b0f4-4848-a8f1-63ca201df211","system_id":"levelo_inurba_marseille","lat":43.339368,"lon":5.415082,"is_reserved":false,"is_disabled":false,"rental_uris":{"android":"levelo://app?vid=5997c6b0-b0f4-4848-a8f1-63ca201df211","ios":"levelo://app?vid=5997c6b0-b0f4-4848-a8f1-63ca201df211"},"vehicle_type_id":"4","last_reported":1762781068,"current_range_meters":8400,"station_id":"","pricing_plan_id":"cebpf4jnsgd1na2vs0mg"},{"bike_id":"3d4dc78c-f9dd-4c1c-851e-2fdb77100035","system_id":"levelo_inurba_marseille","lat":43.24391,"lon":5.370683,"is_reserved":false,"is_disabled":false,"rental_uris":{"android":"levelo://app?vid=3d4dc78c-f9dd-4c1c-851e-2fdb77100035","ios":"levelo://app?vid=3d4dc78c-f9dd-4c1c-851e-2fdb77100035"},"vehicle_type_id":"4","last_reported":1762781068,"current_range_meters":8800,"station_id":"ce4bhhh2rcd13ifvqfk0","pricing_plan_id":"cebpf4jnsgd1na2vs0mg"},{"bike_id":"c644bd8f-0ae9-4430-b1ae-6ec98ecd6da9","system_id":"levelo_inurba_marseille","lat":43.2749,"lon":5.42452,"is_reserved":false,"is_disabled":false,"rental_uris":{"android":"levelo://app?vid=c644bd8f-0ae9-4430-b1ae-6ec98ecd6da9","ios":"levelo://app?vid=c644bd8f-0ae9-4430-b1ae-6ec98ecd6da9"},"vehicle_type_id":"4","last_reported":1762781068,"current_range_meters":8800,"station_id":"ce4bhn92rcd13ifvqgrg","pricing_plan_id":"cebpf4jnsgd1na2vs0mg"},{"bike_id":"ded5df94-2796-450f-9867-2e53d2099d52","system_id":"levelo_inurba_marseille","lat":43.24043,"lon":5.37752,"is_reserved":false,"is_disabled":false,"rental_uris":{"android":"levelo://app?vid=ded5df94-2796-450f-9867-2e53d2099d52","ios":"levelo://app?vid=ded5df94-2796-450f-9867-2e53d2099d52"},"vehicle_type_id":"4","last_reported":1762781068,"current_range_meters":8800,"station_id":"ce4bhnp2rcd13ifvqgvg","pricing_plan_id":"cebpf4jnsgd1na2vs0mg"},{"bike_id":"37622dcc-2944-453c-9c75-c0c9e11f32db","system_id":"levelo_inurba_marseille","lat":43.28271,"lon":5.35075,"is_reserved":false,"is_disabled":false,"rental_uris":{"android":"levelo://app?vid=37622dcc-2944-453c-9c75-c0c9e11f32db","ios":"levelo://app?vid=37622dcc-2944-453c-9c75-c0c9e11f32db"},"vehicle_type_id":"4","last_reported":1762781068,"current_range_meters":8800,"station_id":"ce4bhbp2rcd13ifvqerg","pricing_plan_id":"cebpf4jnsgd1na2vs0mg"},{"bike_id":"09a28e50-4519-4b0c-a4e2-ff442f53c6d2","system_id":"levelo_inurba_marseille","lat":43.28264,"lon":5.3508,"is_reserved":false,"is_disabled":false,"rental_uris":{"android":"levelo://app?vid=09a28e50-4519-4b0c-a4e2-ff442f53c6d2","ios":"levelo://app?vid=09a28e50-4519-4b0c-a4e2-ff442f53c6d2"},"vehicle_type_id":"4","last_reported":1762781068,"current_range_meters":9200,"station_id":"ce4bhbp2rcd13ifvqerg","pricing_plan_id":"cebpf4jnsgd1na2vs0mg"},{"bike_id":"798ceafd-5dac-41f1-8831-0ed03cbc3d43","system_id":"levelo_inurba_marseille","lat":43.299674,"lon":5.371728,"is_reserved":false,"is_disabled":false,"rental_uris":{"android":"levelo://app?vid=798ceafd-5dac-41f1-8831-0ed03cbc3d43","ios":"levelo://app?vid=798ceafd-5dac-41f1-8831-0ed03cbc3d43"},"vehicle_type_id":"4","last_reported":1762781068,"current_range_meters":9200,"station_id":"ce4bgr92rcd13ifvqc7g","pricing_plan_id":"cebpf4jnsgd1na2vs0mg"},{"bike_id":"57a0e79f-facd-4ab6-a76f-84233bc7be89","system_id":"levelo_inurba_marseille","lat":43.24395,"lon":5.37049,"is_reserved":false,"is_disabled":false,"rental_uris":{"android":"levelo://app?vid=57a0e79f-facd-4ab6-a76f-84233bc7be89","ios":"levelo://app?vid=57a0e79f-facd-4ab6-a76f-84233bc7be89"},"vehicle_type_id":"4","last_reported":1762781068,"current_range_meters":9200,"station_id":"ce4bhhh2rcd13ifvqfk0","pricing_plan_id":"cebpf4jnsgd1na2vs0mg"},{"bike_id":"50da1aee-7d19-41f6-8a84-c20fda02cba2","system_id":"levelo_inurba_marseille","lat":43.27331,"lon":5.39114,"is_reserved":false,"is_disabled":false,"rental_uris":{"android":"levelo://app?vid=50da1aee-7d19-41f6-8a84-c20fda02cba2","ios":"levelo://app?vid=50da1aee-7d19-41f6-8a84-c20fda02cba2"},"vehicle_type_id":"4","last_reported":1762781068,"current_range_meters":9200,"station_id":"ce4bhgp2rcd13ifvqfe0","pricing_plan_id":"cebpf4jnsgd1na2vs0mg"},{"bike_id":"6acb12e4-c817-4679-a782-eb2f827df8ea","system_id":"levelo_inurba_marseille","lat":43.262077,"lon":5.404568,"is_reserved":false,"is_disabled":false,"rental_uris":{"android":"levelo://app?vid=6acb12e4-c817-4679-a782-eb2f827df8ea","ios":"levelo://app?vid=6acb12e4-c817-4679-a782-eb2f827df8ea"},"vehicle_type_id":"4","last_reported":1762781068,"current_range_meters":9200,"station_id":"ce4bhmh2rcd13ifvqgmg","pricing_plan_id":"cebpf4jnsgd1na2vs0mg"},{"bike_id":"296b35f4-bf34-48bd-a614-0084f905815f","system_id":"levelo_inurba_marseille","lat":43.29919,"lon":5.36388,"is_reserved":false,"is_disabled":false,"rental_uris":{"android":"levelo://app?vid=296b35f4-bf34-48bd-a614-0084f905815f","ios":"levelo://app?vid=296b35f4-bf34-48bd-a614-0084f905815f"},"vehicle_type_id":"4","last_reported":1762781068,"current_range_meters":9200,"station_id":"","pricing_plan_id":"cebpf4jnsgd1na2vs0mg"},{"bike_id":"a71871fb-5c9d-4f09-9d89-3c8ba06ee97d","system_id":"levelo_inurba_marseille","lat":43.22562,"lon":5.41664,"is_reserved":false,"is_disabled":false,"rental_uris":{"android":"levelo://app?vid=a71871fb-5c9d-4f09-9d89-3c8ba06ee97d","ios":"levelo://app?vid=a71871fb-5c9d-4f09-9d89-3c8ba06ee97d"},"vehicle_type_id":"4","last_reported":1762781068,"current_range_meters":9600,"station_id":"st_d2o4gvlbi1j2169b742g","pricing_plan_id":"cebpf4jnsgd1na2vs0mg"},{"bike_id":"18dfac9a-373e-46f1-8871-5fa611863e3c","system_id":"levelo_inurba_marseille","lat":43.24658,"lon":5.38148,"is_reserved":false,"is_disabled":false,"rental_uris":{"android":"levelo://app?vid=18dfac9a-373e-46f1-8871-5fa611863e3c","ios":"levelo://app?vid=18dfac9a-373e-46f1-8871-5fa611863e3c"},"vehicle_type_id":"4","last_reported":1762781068,"current_range_meters":9600,"station_id":"ce4bhih2rcd13ifvqfr0","pricing_plan_id":"cebpf4jnsgd1na2vs0mg"},{"bike_id":"b20798d9-8157-42f2-8190-f90761bdd336","system_id":"levelo_inurba_marseille","lat":43.23149,"lon":5.43704,"is_reserved":false,"is_disabled":false,"rental_uris":{"android":"levelo://app?vid=b20798d9-8157-42f2-8190-f90761bdd336","ios":"levelo://app?vid=b20798d9-8157-42f2-8190-f90761bdd336"},"vehicle_type_id":"4","last_reported":1762781068,"current_range_meters":9600,"station_id":"ce4bhmp2rcd13ifvqgog","pricing_plan_id":"cebpf4jnsgd1na2vs0mg"},{"bike_id":"ebe38ca6-ea80-4693-a032-228b5e3c75e3","system_id":"levelo_inurba_marseille","lat":43.28928,"lon":5.38398,"is_reserved":false,"is_disabled":false,"rental_uris":{"android":"levelo://app?vid=ebe38ca6-ea80-4693-a032-228b5e3c75e3","ios":"levelo://app?vid=ebe38ca6-ea80-4693-a032-228b5e3c75e3"},"vehicle_type_id":"4","last_reported":1762781068,"current_range_meters":9600,"station_id":"ce4bh612rcd13ifvqe6g","pricing_plan_id":"cebpf4jnsgd1na2vs0mg"},{"bike_id":"d9d91017-19e5-4474-b0f8-c613656a4a3a","system_id":"levelo_inurba_marseille","lat":43.28423,"lon":5.37546,"is_reserved":false,"is_disabled":false,"rental_uris":{"android":"levelo://app?vid=d9d91017-19e5-4474-b0f8-c613656a4a3a","ios":"levelo://app?vid=d9d91017-19e5-4474-b0f8-c613656a4a3a"},"vehicle_type_id":"4","last_reported":1762781068,"current_range_meters":10000,"station_id":"ce4bh412rcd13ifvqds0","pricing_plan_id":"cebpf4jnsgd1na2vs0mg"},{"bike_id":"d32acf6f-21aa-4fbf-bed6-33d296ca0f9f","system_id":"levelo_inurba_marseille","lat":43.21747,"lon":5.34594,"is_reserved":false,"is_disabled":false,"rental_uris":{"android":"levelo://app?vid=d32acf6f-21aa-4fbf-bed6-33d296ca0f9f","ios":"levelo://app?vid=d32acf6f-21aa-4fbf-bed6-33d296ca0f9f"},"vehicle_type_id":"4","last_reported":1762781068,"current_range_meters":10000,"station_id":"st_cvj6r9ubvosntc0bgbag","pricing_plan_id":"cebpf4jnsgd1na2vs0mg"},{"bike_id":"1c68d6e6-cce0-44cb-a781-43a39a3ee70a","system_id":"levelo_inurba_marseille","lat":43.30269,"lon":5.39276,"is_reserved":false,"is_disabled":true,"rental_uris":{"android":"levelo://app?vid=1c68d6e6-cce0-44cb-a781-43a39a3ee70a","ios":"levelo://app?vid=1c68d6e6-cce0-44cb-a781-43a39a3ee70a"},"vehicle_type_id":"4","last_reported":1762781068,"current_range_meters":10000,"station_id":"","pricing_plan_id":"cebpf4jnsgd1na2vs0mg"},{"bike_id":"f08621f1-92b2-4985-8a3a-96dd283a7c2b","system_id":"levelo_inurba_marseille","lat":43.31354,"lon":5.37932,"is_reserved":false,"is_disabled":false,"rental_uris":{"android":"levelo://app?vid=f08621f1-92b2-4985-8a3a-96dd283a7c2b","ios":"levelo://app?vid=f08621f1-92b2-4985-8a3a-96dd283a7c2b"},"vehicle_type_id":"4","last_reported":1762781068,"current_range_meters":10000,"station_id":"","pricing_plan_id":"cebpf4jnsgd1na2vs0mg"},{"bike_id":"cd492fdb-177f-45e7-b843-791b858c8502","system_id":"levelo_inurba_marseille","lat":43.2987,"lon":5.39736,"is_reserved":false,"is_disabled":false,"rental_uris":{"android":"levelo://app?vid=cd492fdb-177f-45e7-b843-791b858c8502","ios":"levelo://app?vid=cd492fdb-177f-45e7-b843-791b858c8502"},"vehicle_type_id":"4","last_reported":1762781068,"current_range_meters":10000,"station_id":"ce4bh0h2rcd13ifvqd50","pricing_plan_id":"cebpf4jnsgd1na2vs0mg"},{"bike_id":"dbd0ee98-46db-4f12-88a2-b9ac27e6b6c6","system_id":"levelo_inurba_marseille","lat":43.309312,"lon":5.382187,"is_reserved":false,"is_disabled":false,"rental_uris":{"android":"levelo://app?vid=dbd0ee98-46db-4f12-88a2-b9ac27e6b6c6","ios":"levelo://app?vid=dbd0ee98-46db-4f12-88a2-b9ac27e6b6c6"},"vehicle_type_id":"4","last_reported":1762781068,"current_range_meters":10800,"station_id":"ce4bgup2rcd13ifvqcn0","pricing_plan_id":"cebpf4jnsgd1na2vs0mg"},{"bike_id":"82d394db-34ba-4222-aaaa-904b0d7db091","system_id":"levelo_inurba_marseille","lat":43.21744,"lon":5.34604,"is_reserved":false,"is_disabled":false,"rental_uris":{"android":"levelo://app?vid=82d394db-34ba-4222-aaaa-904b0d7db091","ios":"levelo://app?vid=82d394db-34ba-4222-aaaa-904b0d7db091"},"vehicle_type_id":"4","last_reported":1762781068,"current_range_meters":10800,"station_id":"st_cvj6r9ubvosntc0bgbag","pricing_plan_id":"cebpf4jnsgd1na2vs0mg"},{"bike_id":"0d60bf1d-5f77-468d-9bfe-05e357f34955","system_id":"levelo_inurba_marseille","lat":43.29282,"lon":5.37286,"is_reserved":false,"is_disabled":false,"rental_uris":{"android":"levelo://app?vid=0d60bf1d-5f77-468d-9bfe-05e357f34955","ios":"levelo://app?vid=0d60bf1d-5f77-468d-9bfe-05e357f34955"},"vehicle_type_id":"4","last_reported":1762781068,"current_range_meters":10800,"station_id":"ce4bgkh2rcd13ifvqbl0","pricing_plan_id":"cebpf4jnsgd1na2vs0mg"},{"bike_id":"b4cb9bc3-2674-422b-8c74-5594292dd02e","system_id":"levelo_inurba_marseille","lat":43.275323,"lon":5.375025,"is_reserved":false,"is_disabled":false,"rental_uris":{"android":"levelo://app?vid=b4cb9bc3-2674-422b-8c74-5594292dd02e","ios":"levelo://app?vid=b4cb9bc3-2674-422b-8c74-5594292dd02e"},"vehicle_type_id":"4","last_reported":1762781068,"current_range_meters":10800,"station_id":"","pricing_plan_id":"cebpf4jnsgd1na2vs0mg"},{"bike_id":"5e7218d5-a97b-42ba-913e-b10953be11e3","system_id":"levelo_inurba_marseille","lat":43.24169,"lon":5.36406,"is_reserved":false,"is_disabled":false,"rental_uris":{"android":"levelo://app?vid=5e7218d5-a97b-42ba-913e-b10953be11e3","ios":"levelo://app?vid=5e7218d5-a97b-42ba-913e-b10953be11e3"},"vehicle_type_id":"4","last_reported":1762781068,"current_range_meters":11200,"station_id":"cpo36qri1sfpv3e86is0","pricing_plan_id":"cebpf4jnsgd1na2vs0mg"},{"bike_id":"02fd6580-0682-47ce-b57f-3950c0adb38e","system_id":"levelo_inurba_marseille","lat":43.29095,"lon":5.38146,"is_reserved":false,"is_disabled":false,"rental_uris":{"android":"levelo://app?vid=02fd6580-0682-47ce-b57f-3950c0adb38e","ios":"levelo://app?vid=02fd6580-0682-47ce-b57f-3950c0adb38e"},"vehicle_type_id":"4","last_reported":1762781068,"current_range_meters":11200,"station_id":"ce4bh512rcd13ifvqe2g","pricing_plan_id":"cebpf4jnsgd1na2vs0mg"},{"bike_id":"be790c63-16cc-4826-93ea-0de7558ac2d2","system_id":"levelo_inurba_marseille","lat":43.29044,"lon":5.35918,"is_reserved":false,"is_disabled":false,"rental_uris":{"android":"levelo://app?vid=be790c63-16cc-4826-93ea-0de7558ac2d2","ios":"levelo://app?vid=be790c63-16cc-4826-93ea-0de7558ac2d2"},"vehicle_type_id":"4","last_reported":1762781068,"current_range_meters":11200,"station_id":"ce4bha92rcd13ifvqeg0","pricing_plan_id":"cebpf4jnsgd1na2vs0mg"},{"bike_id":"ab4ac132-5519-4aac-ac12-8b8c2929bb7e","system_id":"levelo_inurba_marseille","lat":43.32302,"lon":5.38493,"is_reserved":false,"is_disabled":false,"rental_uris":{"android":"levelo://app?vid=ab4ac132-5519-4aac-ac12-8b8c2929bb7e","ios":"levelo://app?vid=ab4ac132-5519-4aac-ac12-8b8c2929bb7e"},"vehicle_type_id":"4","last_reported":1762781068,"current_range_meters":11200,"station_id":"st_d45171o9ee8s73djdqug","pricing_plan_id":"cebpf4jnsgd1na2vs0mg"},{"bike_id":"a652226a-9d72-4fbd-badc-7063b09062fd","system_id":"levelo_inurba_marseille","lat":43.260574,"lon":5.394009,"is_reserved":false,"is_disabled":false,"rental_uris":{"android":"levelo://app?vid=a652226a-9d72-4fbd-badc-7063b09062fd","ios":"levelo://app?vid=a652226a-9d72-4fbd-badc-7063b09062fd"},"vehicle_type_id":"4","last_reported":1762781068,"current_range_meters":11200,"station_id":"ce4bhh92rcd13ifvqfj0","pricing_plan_id":"cebpf4jnsgd1na2vs0mg"},{"bike_id":"07618fb4-fdf4-452a-a76e-4b0defae3541","system_id":"levelo_inurba_marseille","lat":43.22535,"lon":5.3484,"is_reserved":false,"is_disabled":false,"rental_uris":{"android":"levelo://app?vid=07618fb4-fdf4-452a-a76e-4b0defae3541","ios":"levelo://app?vid=07618fb4-fdf4-452a-a76e-4b0defae3541"},"vehicle_type_id":"4","last_reported":1762781068,"current_range_meters":11200,"station_id":"","pricing_plan_id":"cebpf4jnsgd1na2vs0mg"},{"bike_id":"77dd386a-c491-4903-b512-c2486567c465","system_id":"levelo_inurba_marseille","lat":43.28927,"lon":5.36629,"is_reserved":false,"is_disabled":false,"rental_uris":{"android":"levelo://app?vid=77dd386a-c491-4903-b512-c2486567c465","ios":"levelo://app?vid=77dd386a-c491-4903-b512-c2486567c465"},"vehicle_type_id":"4","last_reported":1762781068,"current_range_meters":11200,"station_id":"ce4bhap2rcd13ifvqek0","pricing_plan_id":"cebpf4jnsgd1na2vs0mg"},{"bike_id":"f40b69f6-a559-405c-91bd-ba926a95d4f5","system_id":"levelo_inurba_marseille","lat":43.301483,"lon":5.380976,"is_reserved":false,"is_disabled":false,"rental_uris":{"android":"levelo://app?vid=f40b69f6-a559-405c-91bd-ba926a95d4f5","ios":"levelo://app?vid=f40b69f6-a559-405c-91bd-ba926a95d4f5"},"vehicle_type_id":"4","last_reported":1762781068,"current_range_meters":11600,"station_id":"ce4bgjp2rcd13ifvqbh0","pricing_plan_id":"cebpf4jnsgd1na2vs0mg"},{"bike_id":"062032e1-fdcc-4a2c-85d8-7ca14269cc2e","system_id":"levelo_inurba_marseille","lat":43.31094,"lon":5.42449,"is_reserved":false,"is_disabled":false,"rental_uris":{"android":"levelo://app?vid=062032e1-fdcc-4a2c-85d8-7ca14269cc2e","ios":"levelo://app?vid=062032e1-fdcc-4a2c-85d8-7ca14269cc2e"},"vehicle_type_id":"4","last_reported":1762781068,"current_range_meters":11600,"station_id":"ce4bhp92rcd13ifvqhag","pricing_plan_id":"cebpf4jnsgd1na2vs0mg"},{"bike_id":"f6b2fed1-0ca2-423d-8dec-4ae2abcb7d8f","system_id":"levelo_inurba_marseille","lat":43.30725,"lon":5.42463,"is_reserved":false,"is_disabled":false,"rental_uris":{"android":"levelo://app?vid=f6b2fed1-0ca2-423d-8dec-4ae2abcb7d8f","ios":"levelo://app?vid=f6b2fed1-0ca2-423d-8dec-4ae2abcb7d8f"},"vehicle_type_id":"4","last_reported":1762781068,"current_range_meters":11600,"station_id":"st_cvj6ca6bvosntc0bfgr0","pricing_plan_id":"cebpf4jnsgd1na2vs0mg"},{"bike_id":"9d9191b0-d53e-4117-b688-275a1987775b","system_id":"levelo_inurba_marseille","lat":43.30151,"lon":5.38089,"is_reserved":false,"is_disabled":false,"rental_uris":{"android":"levelo://app?vid=9d9191b0-d53e-4117-b688-275a1987775b","ios":"levelo://app?vid=9d9191b0-d53e-4117-b688-275a1987775b"},"vehicle_type_id":"4","last_reported":1762781068,"current_range_meters":11600,"station_id":"ce4bgjp2rcd13ifvqbh0","pricing_plan_id":"cebpf4jnsgd1na2vs0mg"},{"bike_id":"cf41bac8-b3bf-4d78-b58b-1504370da1f3","system_id":"levelo_inurba_marseille","lat":43.21748,"lon":5.34604,"is_reserved":false,"is_disabled":false,"rental_uris":{"android":"levelo://app?vid=cf41bac8-b3bf-4d78-b58b-1504370da1f3","ios":"levelo://app?vid=cf41bac8-b3bf-4d78-b58b-1504370da1f3"},"vehicle_type_id":"4","last_reported":1762781068,"current_range_meters":11600,"station_id":"st_cvj6r9ubvosntc0bgbag","pricing_plan_id":"cebpf4jnsgd1na2vs0mg"},{"bike_id":"46748178-17b8-4dc8-80b3-39159ff743e0","system_id":"levelo_inurba_marseille","lat":43.30035,"lon":5.38339,"is_reserved":false,"is_disabled":false,"rental_uris":{"android":"levelo://app?vid=46748178-17b8-4dc8-80b3-39159ff743e0","ios":"levelo://app?vid=46748178-17b8-4dc8-80b3-39159ff743e0"},"vehicle_type_id":"4","last_reported":1762781068,"current_range_meters":11600,"station_id":"","pricing_plan_id":"cebpf4jnsgd1na2vs0mg"},{"bike_id":"91adbe56-f082-46eb-a344-dffeacf869cd","system_id":"levelo_inurba_marseille","lat":43.31358,"lon":5.38487,"is_reserved":false,"is_disabled":false,"rental_uris":{"android":"levelo://app?vid=91adbe56-f082-46eb-a344-dffeacf869cd","ios":"levelo://app?vid=91adbe56-f082-46eb-a344-dffeacf869cd"},"vehicle_type_id":"4","last_reported":1762781068,"current_range_meters":11600,"station_id":"ce4bgt92rcd13ifvqcf0","pricing_plan_id":"cebpf4jnsgd1na2vs0mg"},{"bike_id":"9bb03971-d451-4bf5-aa8e-213181bb15c5","system_id":"levelo_inurba_marseille","lat":43.29909,"lon":5.37471,"is_reserved":false,"is_disabled":false,"rental_uris":{"android":"levelo://app?vid=9bb03971-d451-4bf5-aa8e-213181bb15c5","ios":"levelo://app?vid=9bb03971-d451-4bf5-aa8e-213181bb15c5"},"vehicle_type_id":"4","last_reported":1762781068,"current_range_meters":11600,"station_id":"ce4bgjh2rcd13ifvqbg0","pricing_plan_id":"cebpf4jnsgd1na2vs0mg"},{"bike_id":"39ff6a52-7c15-4e36-9056-950efe8be9ca","system_id":"levelo_inurba_marseille","lat":43.28474,"lon":5.484,"is_reserved":false,"is_disabled":false,"rental_uris":{"android":"levelo://app?vid=39ff6a52-7c15-4e36-9056-950efe8be9ca","ios":"levelo://app?vid=39ff6a52-7c15-4e36-9056-950efe8be9ca"},"vehicle_type_id":"4","last_reported":1762781068,"current_range_meters":11600,"station_id":"","pricing_plan_id":"cebpf4jnsgd1na2vs0mg"},{"bike_id":"c34db9cf-050a-4c4b-ac45-1ad5e312cdd4","system_id":"levelo_inurba_marseille","lat":43.26558,"lon":5.40351,"is_reserved":false,"is_disabled":false,"rental_uris":{"android":"levelo://app?vid=c34db9cf-050a-4c4b-ac45-1ad5e312cdd4","ios":"levelo://app?vid=c34db9cf-050a-4c4b-ac45-1ad5e312cdd4"},"vehicle_type_id":"4","last_reported":1762781068,"current_range_meters":12000,"station_id":"ce4bhmp2rcd13ifvqgng","pricing_plan_id":"cebpf4jnsgd1na2vs0mg"},{"bike_id":"2b646297-8654-4539-9404-edb5238f787c","system_id":"levelo_inurba_marseille","lat":43.24074,"lon":5.37753,"is_reserved":false,"is_disabled":false,"rental_uris":{"android":"levelo://app?vid=2b646297-8654-4539-9404-edb5238f787c","ios":"levelo://app?vid=2b646297-8654-4539-9404-edb5238f787c"},"vehicle_type_id":"4","last_reported":1762781068,"current_range_meters":12000,"station_id":"ce4bhnp2rcd13ifvqgvg","pricing_plan_id":"cebpf4jnsgd1na2vs0mg"},{"bike_id":"2aa32200-75e6-438e-bb0d-a9bc847da4a8","system_id":"levelo_inurba_marseille","lat":43.24942,"lon":5.40494,"is_reserved":false,"is_disabled":false,"rental_uris":{"android":"levelo://app?vid=2aa32200-75e6-438e-bb0d-a9bc847da4a8","ios":"levelo://app?vid=2aa32200-75e6-438e-bb0d-a9bc847da4a8"},"vehicle_type_id":"4","last_reported":1762781068,"current_range_meters":12000,"station_id":"st_d2ngiaodas8pm72gd1h0","pricing_plan_id":"cebpf4jnsgd1na2vs0mg"},{"bike_id":"e17839a3-96d6-489d-881e-36b6da5aeb29","system_id":"levelo_inurba_marseille","lat":43.28614,"lon":5.37071,"is_reserved":false,"is_disabled":false,"rental_uris":{"android":"levelo://app?vid=e17839a3-96d6-489d-881e-36b6da5aeb29","ios":"levelo://app?vid=e17839a3-96d6-489d-881e-36b6da5aeb29"},"vehicle_type_id":"4","last_reported":1762781068,"current_range_meters":12000,"station_id":"ce4bht12rcd13ifvqi60","pricing_plan_id":"cebpf4jnsgd1na2vs0mg"},{"bike_id":"09bbb36b-262c-4d24-b82a-53e92c648b95","system_id":"levelo_inurba_marseille","lat":43.289724,"lon":5.378482,"is_reserved":false,"is_disabled":false,"rental_uris":{"android":"levelo://app?vid=09bbb36b-262c-4d24-b82a-53e92c648b95","ios":"levelo://app?vid=09bbb36b-262c-4d24-b82a-53e92c648b95"},"vehicle_type_id":"4","last_reported":1762781068,"current_range_meters":12400,"station_id":"ce4bh9p2rcd13ifvqed0","pricing_plan_id":"cebpf4jnsgd1na2vs0mg"},{"bike_id":"96807a8e-1b45-4a36-b7ed-92091f4bcaf6","system_id":"levelo_inurba_marseille","lat":43.309306,"lon":5.401424,"is_reserved":false,"is_disabled":false,"rental_uris":{"android":"levelo://app?vid=96807a8e-1b45-4a36-b7ed-92091f4bcaf6","ios":"levelo://app?vid=96807a8e-1b45-4a36-b7ed-92091f4bcaf6"},"vehicle_type_id":"4","last_reported":1762781068,"current_range_meters":12400,"station_id":"","pricing_plan_id":"cebpf4jnsgd1na2vs0mg"},{"bike_id":"6ac4027e-e104-4653-aff1-b787c24c7ca1","system_id":"levelo_inurba_marseille","lat":43.28152,"lon":5.42637,"is_reserved":false,"is_disabled":false,"rental_uris":{"android":"levelo://app?vid=6ac4027e-e104-4653-aff1-b787c24c7ca1","ios":"levelo://app?vid=6ac4027e-e104-4653-aff1-b787c24c7ca1"},"vehicle_type_id":"4","last_reported":1762781068,"current_range_meters":12400,"station_id":"ce4bhnh2rcd13ifvqgug","pricing_plan_id":"cebpf4jnsgd1na2vs0mg"},{"bike_id":"0a2fadd2-0816-4f53-ad36-842e3d13cc2e","system_id":"levelo_inurba_marseille","lat":43.29231,"lon":5.38455,"is_reserved":false,"is_disabled":false,"rental_uris":{"android":"levelo://app?vid=0a2fadd2-0816-4f53-ad36-842e3d13cc2e","ios":"levelo://app?vid=0a2fadd2-0816-4f53-ad36-842e3d13cc2e"},"vehicle_type_id":"4","last_reported":1762781068,"current_range_meters":12400,"station_id":"ce4bh692rcd13ifvqea0","pricing_plan_id":"cebpf4jnsgd1na2vs0mg"},{"bike_id":"79e564b0-0340-4d11-85c2-4cef8d6d7207","system_id":"levelo_inurba_marseille","lat":43.268031,"lon":5.402693,"is_reserved":false,"is_disabled":false,"rental_uris":{"android":"levelo://app?vid=79e564b0-0340-4d11-85c2-4cef8d6d7207","ios":"levelo://app?vid=79e564b0-0340-4d11-85c2-4cef8d6d7207"},"vehicle_type_id":"4","last_reported":1762781068,"current_range_meters":12400,"station_id":"ce501612rcd8frsf0b60","pricing_plan_id":"cebpf4jnsgd1na2vs0mg"},{"bike_id":"5ca3ebae-ad32-4695-8268-3ada55e122f6","system_id":"levelo_inurba_marseille","lat":43.301515,"lon":5.380924,"is_reserved":false,"is_disabled":false,"rental_uris":{"android":"levelo://app?vid=5ca3ebae-ad32-4695-8268-3ada55e122f6","ios":"levelo://app?vid=5ca3ebae-ad32-4695-8268-3ada55e122f6"},"vehicle_type_id":"4","last_reported":1762781068,"current_range_meters":12400,"station_id":"ce4bhf92rcd13ifvqf50","pricing_plan_id":"cebpf4jnsgd1na2vs0mg"},{"bike_id":"24de70df-9b80-4721-8771-f61cb7be1ef9","system_id":"levelo_inurba_marseille","lat":43.3192,"lon":5.38126,"is_reserved":false,"is_disabled":false,"rental_uris":{"android":"levelo://app?vid=24de70df-9b80-4721-8771-f61cb7be1ef9","ios":"levelo://app?vid=24de70df-9b80-4721-8771-f61cb7be1ef9"},"vehicle_type_id":"4","last_reported":1762781068,"current_range_meters":12400,"station_id":"","pricing_plan_id":"cebpf4jnsgd1na2vs0mg"},{"bike_id":"0f4f6d58-47b7-4e12-865b-8802e8d41703","system_id":"levelo_inurba_marseille","lat":43.23142,"lon":5.43738,"is_reserved":false,"is_disabled":false,"rental_uris":{"android":"levelo://app?vid=0f4f6d58-47b7-4e12-865b-8802e8d41703","ios":"levelo://app?vid=0f4f6d58-47b7-4e12-865b-8802e8d41703"},"vehicle_type_id":"4","last_reported":1762781068,"current_range_meters":12400,"station_id":"ce4bhmp2rcd13ifvqgog","pricing_plan_id":"cebpf4jnsgd1na2vs0mg"},{"bike_id":"f14d005e-ec2a-40e8-a5b6-f9ba55648bdf","system_id":"levelo_inurba_marseille","lat":43.246315,"lon":5.431503,"is_reserved":false,"is_disabled":false,"rental_uris":{"android":"levelo://app?vid=f14d005e-ec2a-40e8-a5b6-f9ba55648bdf","ios":"levelo://app?vid=f14d005e-ec2a-40e8-a5b6-f9ba55648bdf"},"vehicle_type_id":"4","last_reported":1762781068,"current_range_meters":12400,"station_id":"st_d2m6c4gdas8pm72e190g","pricing_plan_id":"cebpf4jnsgd1na2vs0mg"},{"bike_id":"93b49ebf-d9fa-49cd-9da3-22e867a810f3","system_id":"levelo_inurba_marseille","lat":43.297513,"lon":5.411101,"is_reserved":false,"is_disabled":false,"rental_uris":{"android":"levelo://app?vid=93b49ebf-d9fa-49cd-9da3-22e867a810f3","ios":"levelo://app?vid=93b49ebf-d9fa-49cd-9da3-22e867a810f3"},"vehicle_type_id":"4","last_reported":1762781068,"current_range_meters":12400,"station_id":"","pricing_plan_id":"cebpf4jnsgd1na2vs0mg"},{"bike_id":"413856cf-522d-461d-a863-50732c1e855f","system_id":"levelo_inurba_marseille","lat":43.24075,"lon":5.37746,"is_reserved":false,"is_disabled":false,"rental_uris":{"android":"levelo://app?vid=413856cf-522d-461d-a863-50732c1e855f","ios":"levelo://app?vid=413856cf-522d-461d-a863-50732c1e855f"},"vehicle_type_id":"4","last_reported":1762781068,"current_range_meters":12800,"station_id":"ce4bhnp2rcd13ifvqgvg","pricing_plan_id":"cebpf4jnsgd1na2vs0mg"},{"bike_id":"ac8a8750-1d87-4cf8-9c77-e78b99da5512","system_id":"levelo_inurba_marseille","lat":43.23605,"lon":5.361713,"is_reserved":false,"is_disabled":false,"rental_uris":{"android":"levelo://app?vid=ac8a8750-1d87-4cf8-9c77-e78b99da5512","ios":"levelo://app?vid=ac8a8750-1d87-4cf8-9c77-e78b99da5512"},"vehicle_type_id":"4","last_reported":1762781068,"current_range_meters":12800,"station_id":"","pricing_plan_id":"cebpf4jnsgd1na2vs0mg"},{"bike_id":"896a0fc4-e98e-425f-b646-7db4d5ace172","system_id":"levelo_inurba_marseille","lat":43.3199,"lon":5.38155,"is_reserved":false,"is_disabled":false,"rental_uris":{"android":"levelo://app?vid=896a0fc4-e98e-425f-b646-7db4d5ace172","ios":"levelo://app?vid=896a0fc4-e98e-425f-b646-7db4d5ace172"},"vehicle_type_id":"4","last_reported":1762781068,"current_range_meters":12800,"station_id":"ce4bhr12rcd13ifvqhpg","pricing_plan_id":"cebpf4jnsgd1na2vs0mg"},{"bike_id":"3fe8dc5d-c387-4f1a-9c4c-484bc8924e3c","system_id":"levelo_inurba_marseille","lat":43.26209,"lon":5.40458,"is_reserved":false,"is_disabled":false,"rental_uris":{"android":"levelo://app?vid=3fe8dc5d-c387-4f1a-9c4c-484bc8924e3c","ios":"levelo://app?vid=3fe8dc5d-c387-4f1a-9c4c-484bc8924e3c"},"vehicle_type_id":"4","last_reported":1762781068,"current_range_meters":12800,"station_id":"ce4bhmh2rcd13ifvqgmg","pricing_plan_id":"cebpf4jnsgd1na2vs0mg"},{"bike_id":"d331b58f-0754-4181-93f7-d4d5e2f8b496","system_id":"levelo_inurba_marseille","lat":43.225347,"lon":5.348291,"is_reserved":false,"is_disabled":false,"rental_uris":{"android":"levelo://app?vid=d331b58f-0754-4181-93f7-d4d5e2f8b496","ios":"levelo://app?vid=d331b58f-0754-4181-93f7-d4d5e2f8b496"},"vehicle_type_id":"4","last_reported":1762781068,"current_range_meters":12800,"station_id":"","pricing_plan_id":"cebpf4jnsgd1na2vs0mg"},{"bike_id":"ee676784-715b-4226-9bd3-48c659f578c3","system_id":"levelo_inurba_marseille","lat":43.27511,"lon":5.42465,"is_reserved":false,"is_disabled":false,"rental_uris":{"android":"levelo://app?vid=ee676784-715b-4226-9bd3-48c659f578c3","ios":"levelo://app?vid=ee676784-715b-4226-9bd3-48c659f578c3"},"vehicle_type_id":"4","last_reported":1762781068,"current_range_meters":12800,"station_id":"ce4bhn92rcd13ifvqgrg","pricing_plan_id":"cebpf4jnsgd1na2vs0mg"},{"bike_id":"e28693a1-f3d3-4e4e-8275-2bbc8ab46293","system_id":"levelo_inurba_marseille","lat":43.30417,"lon":5.41275,"is_reserved":false,"is_disabled":false,"rental_uris":{"android":"levelo://app?vid=e28693a1-f3d3-4e4e-8275-2bbc8ab46293","ios":"levelo://app?vid=e28693a1-f3d3-4e4e-8275-2bbc8ab46293"},"vehicle_type_id":"4","last_reported":1762781068,"current_range_meters":12800,"station_id":"ce4bhop2rcd13ifvqh8g","pricing_plan_id":"cebpf4jnsgd1na2vs0mg"},{"bike_id":"31651fd4-a851-4e96-932e-d246fa023350","system_id":"levelo_inurba_marseille","lat":43.30782,"lon":5.37647,"is_reserved":false,"is_disabled":false,"rental_uris":{"android":"levelo://app?vid=31651fd4-a851-4e96-932e-d246fa023350","ios":"levelo://app?vid=31651fd4-a851-4e96-932e-d246fa023350"},"vehicle_type_id":"4","last_reported":1762781068,"current_range_meters":12800,"station_id":"ce4bgv92rcd13ifvqcq0","pricing_plan_id":"cebpf4jnsgd1na2vs0mg"},{"bike_id":"1b8b0a09-b5bb-4843-bc01-82aa41421079","system_id":"levelo_inurba_marseille","lat":43.26573,"lon":5.39013,"is_reserved":false,"is_disabled":false,"rental_uris":{"android":"levelo://app?vid=1b8b0a09-b5bb-4843-bc01-82aa41421079","ios":"levelo://app?vid=1b8b0a09-b5bb-4843-bc01-82aa41421079"},"vehicle_type_id":"4","last_reported":1762781068,"current_range_meters":12800,"station_id":"ce4bhe12rcd13ifvqf30","pricing_plan_id":"cebpf4jnsgd1na2vs0mg"},{"bike_id":"96e2ed66-efcf-4af6-ab99-c765bd1200a0","system_id":"levelo_inurba_marseille","lat":43.293769,"lon":5.378599,"is_reserved":false,"is_disabled":false,"rental_uris":{"android":"levelo://app?vid=96e2ed66-efcf-4af6-ab99-c765bd1200a0","ios":"levelo://app?vid=96e2ed66-efcf-4af6-ab99-c765bd1200a0"},"vehicle_type_id":"4","last_reported":1762781068,"current_range_meters":12800,"station_id":"ce4bgjh2rcd13ifvqbf0","pricing_plan_id":"cebpf4jnsgd1na2vs0mg"},{"bike_id":"2d003246-289e-4235-87e3-d86a55465f5e","system_id":"levelo_inurba_marseille","lat":43.29892,"lon":5.37537,"is_reserved":false,"is_disabled":false,"rental_uris":{"android":"levelo://app?vid=2d003246-289e-4235-87e3-d86a55465f5e","ios":"levelo://app?vid=2d003246-289e-4235-87e3-d86a55465f5e"},"vehicle_type_id":"4","last_reported":1762781068,"current_range_meters":13600,"station_id":"","pricing_plan_id":"cebpf4jnsgd1na2vs0mg"},{"bike_id":"29957527-d4ee-49a7-b561-7e1ae2c0cee5","system_id":"levelo_inurba_marseille","lat":43.29764,"lon":5.42783,"is_reserved":false,"is_disabled":false,"rental_uris":{"android":"levelo://app?vid=29957527-d4ee-49a7-b561-7e1ae2c0cee5","ios":"levelo://app?vid=29957527-d4ee-49a7-b561-7e1ae2c0cee5"},"vehicle_type_id":"4","last_reported":1762781068,"current_range_meters":13600,"station_id":"st_d3md5207bmas73dh9klg","pricing_plan_id":"cebpf4jnsgd1na2vs0mg"},{"bike_id":"d5a076e5-e4f5-4711-bc76-31cd87410d9a","system_id":"levelo_inurba_marseille","lat":43.28479,"lon":5.38427,"is_reserved":false,"is_disabled":false,"rental_uris":{"android":"levelo://app?vid=d5a076e5-e4f5-4711-bc76-31cd87410d9a","ios":"levelo://app?vid=d5a076e5-e4f5-4711-bc76-31cd87410d9a"},"vehicle_type_id":"4","last_reported":1762781068,"current_range_meters":13600,"station_id":"ce4bh512rcd13ifvqe3g","pricing_plan_id":"cebpf4jnsgd1na2vs0mg"},{"bike_id":"5e6bc625-50e1-4e62-a767-fc749456a9ff","system_id":"levelo_inurba_marseille","lat":43.301511,"lon":5.38106,"is_reserved":false,"is_disabled":false,"rental_uris":{"android":"levelo://app?vid=5e6bc625-50e1-4e62-a767-fc749456a9ff","ios":"levelo://app?vid=5e6bc625-50e1-4e62-a767-fc749456a9ff"},"vehicle_type_id":"4","last_reported":1762781068,"current_range_meters":13600,"station_id":"ce4bgjp2rcd13ifvqbh0","pricing_plan_id":"cebpf4jnsgd1na2vs0mg"},{"bike_id":"ae74c969-5367-45a8-bef7-d2869dfbce21","system_id":"levelo_inurba_marseille","lat":43.21749,"lon":5.34616,"is_reserved":false,"is_disabled":false,"rental_uris":{"android":"levelo://app?vid=ae74c969-5367-45a8-bef7-d2869dfbce21","ios":"levelo://app?vid=ae74c969-5367-45a8-bef7-d2869dfbce21"},"vehicle_type_id":"4","last_reported":1762781068,"current_range_meters":13600,"station_id":"st_cvj6r9ubvosntc0bgbag","pricing_plan_id":"cebpf4jnsgd1na2vs0mg"},{"bike_id":"f9bd6fd3-0e94-4bef-82f9-741c73d34c65","system_id":"levelo_inurba_marseille","lat":43.26932,"lon":5.38925,"is_reserved":false,"is_disabled":false,"rental_uris":{"android":"levelo://app?vid=f9bd6fd3-0e94-4bef-82f9-741c73d34c65","ios":"levelo://app?vid=f9bd6fd3-0e94-4bef-82f9-741c73d34c65"},"vehicle_type_id":"4","last_reported":1762781068,"current_range_meters":13600,"station_id":"ce4bhhh2rcd13ifvqfl0","pricing_plan_id":"cebpf4jnsgd1na2vs0mg"},{"bike_id":"e1fd1ca2-a060-4439-99ee-d9d5d84e9fa1","system_id":"levelo_inurba_marseille","lat":43.30816,"lon":5.3815,"is_reserved":false,"is_disabled":false,"rental_uris":{"android":"levelo://app?vid=e1fd1ca2-a060-4439-99ee-d9d5d84e9fa1","ios":"levelo://app?vid=e1fd1ca2-a060-4439-99ee-d9d5d84e9fa1"},"vehicle_type_id":"4","last_reported":1762781068,"current_range_meters":13600,"station_id":"ce4bgt12rcd13ifvqce0","pricing_plan_id":"cebpf4jnsgd1na2vs0mg"},{"bike_id":"9d17da99-70bb-4b67-8039-45f6b860f755","system_id":"levelo_inurba_marseille","lat":43.3014,"lon":5.37427,"is_reserved":false,"is_disabled":false,"rental_uris":{"android":"levelo://app?vid=9d17da99-70bb-4b67-8039-45f6b860f755","ios":"levelo://app?vid=9d17da99-70bb-4b67-8039-45f6b860f755"},"vehicle_type_id":"4","last_reported":1762781068,"current_range_meters":14000,"station_id":"ce4bgs92rcd13ifvqcc0","pricing_plan_id":"cebpf4jnsgd1na2vs0mg"},{"bike_id":"6cabc134-f7d8-4d2a-bbae-38c0c2e6cf14","system_id":"levelo_inurba_marseille","lat":43.30157,"lon":5.38091,"is_reserved":false,"is_disabled":false,"rental_uris":{"android":"levelo://app?vid=6cabc134-f7d8-4d2a-bbae-38c0c2e6cf14","ios":"levelo://app?vid=6cabc134-f7d8-4d2a-bbae-38c0c2e6cf14"},"vehicle_type_id":"4","last_reported":1762781068,"current_range_meters":14000,"station_id":"ce4bgjp2rcd13ifvqbh0","pricing_plan_id":"cebpf4jnsgd1na2vs0mg"},{"bike_id":"6bee480e-c68e-46c7-b3b8-7f110436cc8a","system_id":"levelo_inurba_marseille","lat":43.21749,"lon":5.346,"is_reserved":false,"is_disabled":false,"rental_uris":{"android":"levelo://app?vid=6bee480e-c68e-46c7-b3b8-7f110436cc8a","ios":"levelo://app?vid=6bee480e-c68e-46c7-b3b8-7f110436cc8a"},"vehicle_type_id":"4","last_reported":1762781068,"current_range_meters":14000,"station_id":"st_cvj6r9ubvosntc0bgbag","pricing_plan_id":"cebpf4jnsgd1na2vs0mg"},{"bike_id":"f7f8c5ec-3459-4e53-b264-869ca4568d1a","system_id":"levelo_inurba_marseille","lat":43.30893,"lon":5.36854,"is_reserved":false,"is_disabled":false,"rental_uris":{"android":"levelo://app?vid=f7f8c5ec-3459-4e53-b264-869ca4568d1a","ios":"levelo://app?vid=f7f8c5ec-3459-4e53-b264-869ca4568d1a"},"vehicle_type_id":"4","last_reported":1762781068,"current_range_meters":14000,"station_id":"ce4bgn92rcd13ifvqbvg","pricing_plan_id":"cebpf4jnsgd1na2vs0mg"},{"bike_id":"d6b75172-a54d-43ca-b697-6718fd745d98","system_id":"levelo_inurba_marseille","lat":43.211916,"lon":5.350794,"is_reserved":false,"is_disabled":false,"rental_uris":{"android":"levelo://app?vid=d6b75172-a54d-43ca-b697-6718fd745d98","ios":"levelo://app?vid=d6b75172-a54d-43ca-b697-6718fd745d98"},"vehicle_type_id":"4","last_reported":1762781068,"current_range_meters":14000,"station_id":"st_cvj6sg6p6f1abm77japg","pricing_plan_id":"cebpf4jnsgd1na2vs0mg"},{"bike_id":"9fc59d22-8e56-48e1-b7b6-6b21b0982bb9","system_id":"levelo_inurba_marseille","lat":43.23193,"lon":5.35549,"is_reserved":false,"is_disabled":false,"rental_uris":{"android":"levelo://app?vid=9fc59d22-8e56-48e1-b7b6-6b21b0982bb9","ios":"levelo://app?vid=9fc59d22-8e56-48e1-b7b6-6b21b0982bb9"},"vehicle_type_id":"4","last_reported":1762781068,"current_range_meters":14000,"station_id":"ce4bhu92rcd13ifvqi70","pricing_plan_id":"cebpf4jnsgd1na2vs0mg"},{"bike_id":"0b670810-616a-4887-a836-82c19c196d1d","system_id":"levelo_inurba_marseille","lat":43.30279,"lon":5.36879,"is_reserved":false,"is_disabled":false,"rental_uris":{"android":"levelo://app?vid=0b670810-616a-4887-a836-82c19c196d1d","ios":"levelo://app?vid=0b670810-616a-4887-a836-82c19c196d1d"},"vehicle_type_id":"4","last_reported":1762781068,"current_range_meters":14000,"station_id":"ce4bgn12rcd13ifvqbt0","pricing_plan_id":"cebpf4jnsgd1na2vs0mg"},{"bike_id":"3801f78c-6f24-4c0c-b231-07d479d348fc","system_id":"levelo_inurba_marseille","lat":43.24062,"lon":5.37785,"is_reserved":false,"is_disabled":false,"rental_uris":{"android":"levelo://app?vid=3801f78c-6f24-4c0c-b231-07d479d348fc","ios":"levelo://app?vid=3801f78c-6f24-4c0c-b231-07d479d348fc"},"vehicle_type_id":"4","last_reported":1762781068,"current_range_meters":14000,"station_id":"ce4bhnp2rcd13ifvqgvg","pricing_plan_id":"cebpf4jnsgd1na2vs0mg"},{"bike_id":"fdef6880-9eaf-4c6c-850b-cc066b04bb5e","system_id":"levelo_inurba_marseille","lat":43.295265,"lon":5.390403,"is_reserved":false,"is_disabled":false,"rental_uris":{"android":"levelo://app?vid=fdef6880-9eaf-4c6c-850b-cc066b04bb5e","ios":"levelo://app?vid=fdef6880-9eaf-4c6c-850b-cc066b04bb5e"},"vehicle_type_id":"4","last_reported":1762781068,"current_range_meters":14000,"station_id":"ce4bh3p2rcd13ifvqdp0","pricing_plan_id":"cebpf4jnsgd1na2vs0mg"},{"bike_id":"ba766368-7830-46a2-82a5-6d9444cb3184","system_id":"levelo_inurba_marseille","lat":43.295265,"lon":5.390393,"is_reserved":false,"is_disabled":false,"rental_uris":{"android":"levelo://app?vid=ba766368-7830-46a2-82a5-6d9444cb3184","ios":"levelo://app?vid=ba766368-7830-46a2-82a5-6d9444cb3184"},"vehicle_type_id":"4","last_reported":1762781068,"current_range_meters":14000,"station_id":"ce4bh3p2rcd13ifvqdp0","pricing_plan_id":"cebpf4jnsgd1na2vs0mg"},{"bike_id":"ffe050e8-e964-43f0-affe-fdb013a22c0b","system_id":"levelo_inurba_marseille","lat":43.337444,"lon":5.374475,"is_reserved":false,"is_disabled":false,"rental_uris":{"android":"levelo://app?vid=ffe050e8-e964-43f0-affe-fdb013a22c0b","ios":"levelo://app?vid=ffe050e8-e964-43f0-affe-fdb013a22c0b"},"vehicle_type_id":"4","last_reported":1762781068,"current_range_meters":14000,"station_id":"","pricing_plan_id":"cebpf4jnsgd1na2vs0mg"},{"bike_id":"81ae76cc-b801-4759-b58f-2b51d812735a","system_id":"levelo_inurba_marseille","lat":43.21738,"lon":5.34604,"is_reserved":false,"is_disabled":false,"rental_uris":{"android":"levelo://app?vid=81ae76cc-b801-4759-b58f-2b51d812735a","ios":"levelo://app?vid=81ae76cc-b801-4759-b58f-2b51d812735a"},"vehicle_type_id":"4","last_reported":1762781068,"current_range_meters":14400,"station_id":"st_cvj6r9ubvosntc0bgbag","pricing_plan_id":"cebpf4jnsgd1na2vs0mg"},{"bike_id":"a2261492-19dd-44fa-8c32-b4eeed495387","system_id":"levelo_inurba_marseille","lat":43.29856,"lon":5.36289,"is_reserved":false,"is_disabled":false,"rental_uris":{"android":"levelo://app?vid=a2261492-19dd-44fa-8c32-b4eeed495387","ios":"levelo://app?vid=a2261492-19dd-44fa-8c32-b4eeed495387"},"vehicle_type_id":"4","last_reported":1762781068,"current_range_meters":14400,"station_id":"ce4bgpp2rcd13ifvqc3g","pricing_plan_id":"cebpf4jnsgd1na2vs0mg"},{"bike_id":"5be39da4-d417-4b89-be21-f245ae46b8fa","system_id":"levelo_inurba_marseille","lat":43.29049,"lon":5.35907,"is_reserved":false,"is_disabled":false,"rental_uris":{"android":"levelo://app?vid=5be39da4-d417-4b89-be21-f245ae46b8fa","ios":"levelo://app?vid=5be39da4-d417-4b89-be21-f245ae46b8fa"},"vehicle_type_id":"4","last_reported":1762781068,"current_range_meters":14400,"station_id":"ce4bha92rcd13ifvqeg0","pricing_plan_id":"cebpf4jnsgd1na2vs0mg"},{"bike_id":"3a04f9c7-e08e-4429-8b60-3f57df5d4f6c","system_id":"levelo_inurba_marseille","lat":43.3316,"lon":5.37692,"is_reserved":false,"is_disabled":false,"rental_uris":{"android":"levelo://app?vid=3a04f9c7-e08e-4429-8b60-3f57df5d4f6c","ios":"levelo://app?vid=3a04f9c7-e08e-4429-8b60-3f57df5d4f6c"},"vehicle_type_id":"4","last_reported":1762781068,"current_range_meters":14400,"station_id":"st_d46cu089ee8s73dldbu0","pricing_plan_id":"cebpf4jnsgd1na2vs0mg"},{"bike_id":"23f7a5c4-e2fd-4025-83ab-4e6849641f33","system_id":"levelo_inurba_marseille","lat":43.29091,"lon":5.38144,"is_reserved":false,"is_disabled":false,"rental_uris":{"android":"levelo://app?vid=23f7a5c4-e2fd-4025-83ab-4e6849641f33","ios":"levelo://app?vid=23f7a5c4-e2fd-4025-83ab-4e6849641f33"},"vehicle_type_id":"4","last_reported":1762781068,"current_range_meters":14800,"station_id":"ce4bh512rcd13ifvqe2g","pricing_plan_id":"cebpf4jnsgd1na2vs0mg"},{"bike_id":"d728e211-4e19-4440-bc3a-90a7e4ae2514","system_id":"levelo_inurba_marseille","lat":43.29713,"lon":5.36636,"is_reserved":false,"is_disabled":false,"rental_uris":{"android":"levelo://app?vid=d728e211-4e19-4440-bc3a-90a7e4ae2514","ios":"levelo://app?vid=d728e211-4e19-4440-bc3a-90a7e4ae2514"},"vehicle_type_id":"4","last_reported":1762781068,"current_range_meters":14800,"station_id":"ce4bgn12rcd13ifvqbt0","pricing_plan_id":"cebpf4jnsgd1na2vs0mg"},{"bike_id":"e3ca31e7-8c60-464d-95fd-3aad12a4aaf3","system_id":"levelo_inurba_marseille","lat":43.30962,"lon":5.38294,"is_reserved":false,"is_disabled":false,"rental_uris":{"android":"levelo://app?vid=e3ca31e7-8c60-464d-95fd-3aad12a4aaf3","ios":"levelo://app?vid=e3ca31e7-8c60-464d-95fd-3aad12a4aaf3"},"vehicle_type_id":"4","last_reported":1762781068,"current_range_meters":14800,"station_id":"","pricing_plan_id":"cebpf4jnsgd1na2vs0mg"},{"bike_id":"9e0a01a6-a037-44c8-9e6a-9fe856216f86","system_id":"levelo_inurba_marseille","lat":43.217475,"lon":5.346025,"is_reserved":false,"is_disabled":false,"rental_uris":{"android":"levelo://app?vid=9e0a01a6-a037-44c8-9e6a-9fe856216f86","ios":"levelo://app?vid=9e0a01a6-a037-44c8-9e6a-9fe856216f86"},"vehicle_type_id":"4","last_reported":1762781068,"current_range_meters":14800,"station_id":"st_cvj6r9ubvosntc0bgbag","pricing_plan_id":"cebpf4jnsgd1na2vs0mg"},{"bike_id":"99891c1d-9d50-4787-b2eb-1c68be846d92","system_id":"levelo_inurba_marseille","lat":43.32102,"lon":5.36765,"is_reserved":false,"is_disabled":false,"rental_uris":{"android":"levelo://app?vid=99891c1d-9d50-4787-b2eb-1c68be846d92","ios":"levelo://app?vid=99891c1d-9d50-4787-b2eb-1c68be846d92"},"vehicle_type_id":"4","last_reported":1762781068,"current_range_meters":14800,"station_id":"ce4bhrh2rcd13ifvqhug","pricing_plan_id":"cebpf4jnsgd1na2vs0mg"},{"bike_id":"42f9b2fc-c1e6-4d45-ab2b-79ad7e1e3860","system_id":"levelo_inurba_marseille","lat":43.29936,"lon":5.36553,"is_reserved":false,"is_disabled":false,"rental_uris":{"android":"levelo://app?vid=42f9b2fc-c1e6-4d45-ab2b-79ad7e1e3860","ios":"levelo://app?vid=42f9b2fc-c1e6-4d45-ab2b-79ad7e1e3860"},"vehicle_type_id":"4","last_reported":1762781068,"current_range_meters":14800,"station_id":"ce4bgm92rcd13ifvqbr0","pricing_plan_id":"cebpf4jnsgd1na2vs0mg"},{"bike_id":"013db919-4d7c-4ac4-b0dd-dc2a41a69941","system_id":"levelo_inurba_marseille","lat":43.295649,"lon":5.399535,"is_reserved":false,"is_disabled":false,"rental_uris":{"android":"levelo://app?vid=013db919-4d7c-4ac4-b0dd-dc2a41a69941","ios":"levelo://app?vid=013db919-4d7c-4ac4-b0dd-dc2a41a69941"},"vehicle_type_id":"4","last_reported":1762781068,"current_range_meters":14800,"station_id":"ce4bh312rcd13ifvqdj0","pricing_plan_id":"cebpf4jnsgd1na2vs0mg"},{"bike_id":"a94c05b4-d038-422e-84b5-df4d48c9b320","system_id":"levelo_inurba_marseille","lat":43.283506,"lon":5.380979,"is_reserved":false,"is_disabled":false,"rental_uris":{"android":"levelo://app?vid=a94c05b4-d038-422e-84b5-df4d48c9b320","ios":"levelo://app?vid=a94c05b4-d038-422e-84b5-df4d48c9b320"},"vehicle_type_id":"4","last_reported":1762781068,"current_range_meters":15200,"station_id":"ce4bh412rcd13ifvqdr0","pricing_plan_id":"cebpf4jnsgd1na2vs0mg"},{"bike_id":"1086c95b-b74f-4e99-9e15-ae33be8101e5","system_id":"levelo_inurba_marseille","lat":43.30145,"lon":5.376281,"is_reserved":false,"is_disabled":false,"rental_uris":{"android":"levelo://app?vid=1086c95b-b74f-4e99-9e15-ae33be8101e5","ios":"levelo://app?vid=1086c95b-b74f-4e99-9e15-ae33be8101e5"},"vehicle_type_id":"4","last_reported":1762781068,"current_range_meters":15200,"station_id":"","pricing_plan_id":"cebpf4jnsgd1na2vs0mg"},{"bike_id":"a644ad79-ec2c-4e14-87ac-2aa7b24b24a7","system_id":"levelo_inurba_marseille","lat":43.21188,"lon":5.35073,"is_reserved":false,"is_disabled":false,"rental_uris":{"android":"levelo://app?vid=a644ad79-ec2c-4e14-87ac-2aa7b24b24a7","ios":"levelo://app?vid=a644ad79-ec2c-4e14-87ac-2aa7b24b24a7"},"vehicle_type_id":"4","last_reported":1762781068,"current_range_meters":15200,"station_id":"st_cvj6sg6p6f1abm77japg","pricing_plan_id":"cebpf4jnsgd1na2vs0mg"},{"bike_id":"fb0e6bea-d078-4452-905b-07db49a4858c","system_id":"levelo_inurba_marseille","lat":43.28477,"lon":5.48405,"is_reserved":false,"is_disabled":false,"rental_uris":{"android":"levelo://app?vid=fb0e6bea-d078-4452-905b-07db49a4858c","ios":"levelo://app?vid=fb0e6bea-d078-4452-905b-07db49a4858c"},"vehicle_type_id":"4","last_reported":1762781068,"current_range_meters":15200,"station_id":"","pricing_plan_id":"cebpf4jnsgd1na2vs0mg"},{"bike_id":"bab1d297-0aed-4c46-b021-bc1fc4ba390c","system_id":"levelo_inurba_marseille","lat":43.21753,"lon":5.34621,"is_reserved":false,"is_disabled":false,"rental_uris":{"android":"levelo://app?vid=bab1d297-0aed-4c46-b021-bc1fc4ba390c","ios":"levelo://app?vid=bab1d297-0aed-4c46-b021-bc1fc4ba390c"},"vehicle_type_id":"4","last_reported":1762781068,"current_range_meters":15200,"station_id":"st_cvj6r9ubvosntc0bgbag","pricing_plan_id":"cebpf4jnsgd1na2vs0mg"},{"bike_id":"4ef56f27-b618-4191-843e-9c861890082c","system_id":"levelo_inurba_marseille","lat":43.285581,"lon":5.39248,"is_reserved":false,"is_disabled":true,"rental_uris":{"android":"levelo://app?vid=4ef56f27-b618-4191-843e-9c861890082c","ios":"levelo://app?vid=4ef56f27-b618-4191-843e-9c861890082c"},"vehicle_type_id":"4","last_reported":1762781068,"current_range_meters":15200,"station_id":"","pricing_plan_id":"cebpf4jnsgd1na2vs0mg"},{"bike_id":"9910f78d-0d00-41eb-bf2f-05498043d9ab","system_id":"levelo_inurba_marseille","lat":43.29937,"lon":5.36552,"is_reserved":false,"is_disabled":false,"rental_uris":{"android":"levelo://app?vid=9910f78d-0d00-41eb-bf2f-05498043d9ab","ios":"levelo://app?vid=9910f78d-0d00-41eb-bf2f-05498043d9ab"},"vehicle_type_id":"4","last_reported":1762781068,"current_range_meters":15200,"station_id":"ce4bgm92rcd13ifvqbr0","pricing_plan_id":"cebpf4jnsgd1na2vs0mg"},{"bike_id":"9e31a918-e645-47aa-aea7-0a93a017617b","system_id":"levelo_inurba_marseille","lat":43.2118,"lon":5.3508,"is_reserved":false,"is_disabled":false,"rental_uris":{"android":"levelo://app?vid=9e31a918-e645-47aa-aea7-0a93a017617b","ios":"levelo://app?vid=9e31a918-e645-47aa-aea7-0a93a017617b"},"vehicle_type_id":"4","last_reported":1762781068,"current_range_meters":15200,"station_id":"st_cvj6sg6p6f1abm77japg","pricing_plan_id":"cebpf4jnsgd1na2vs0mg"},{"bike_id":"9be94b56-15ef-463f-ba7e-e63df6171cb1","system_id":"levelo_inurba_marseille","lat":43.2175,"lon":5.34606,"is_reserved":false,"is_disabled":false,"rental_uris":{"android":"levelo://app?vid=9be94b56-15ef-463f-ba7e-e63df6171cb1","ios":"levelo://app?vid=9be94b56-15ef-463f-ba7e-e63df6171cb1"},"vehicle_type_id":"4","last_reported":1762781068,"current_range_meters":15200,"station_id":"st_cvj6r9ubvosntc0bgbag","pricing_plan_id":"cebpf4jnsgd1na2vs0mg"},{"bike_id":"e4bb2b36-4273-487a-b022-73fd38e0029d","system_id":"levelo_inurba_marseille","lat":43.28151,"lon":5.42649,"is_reserved":false,"is_disabled":false,"rental_uris":{"android":"levelo://app?vid=e4bb2b36-4273-487a-b022-73fd38e0029d","ios":"levelo://app?vid=e4bb2b36-4273-487a-b022-73fd38e0029d"},"vehicle_type_id":"4","last_reported":1762781068,"current_range_meters":16000,"station_id":"ce4bhnh2rcd13ifvqgug","pricing_plan_id":"cebpf4jnsgd1na2vs0mg"},{"bike_id":"2b88f22c-ba04-47ee-98b4-0ff45a0db35b","system_id":"levelo_inurba_marseille","lat":43.32535,"lon":5.41441,"is_reserved":false,"is_disabled":false,"rental_uris":{"android":"levelo://app?vid=2b88f22c-ba04-47ee-98b4-0ff45a0db35b","ios":"levelo://app?vid=2b88f22c-ba04-47ee-98b4-0ff45a0db35b"},"vehicle_type_id":"4","last_reported":1762781068,"current_range_meters":16000,"station_id":"ce4bhq12rcd13ifvqhhg","pricing_plan_id":"cebpf4jnsgd1na2vs0mg"},{"bike_id":"33084756-8ef7-48df-8626-0860cb1babef","system_id":"levelo_inurba_marseille","lat":43.26536,"lon":5.37284,"is_reserved":false,"is_disabled":false,"rental_uris":{"android":"levelo://app?vid=33084756-8ef7-48df-8626-0860cb1babef","ios":"levelo://app?vid=33084756-8ef7-48df-8626-0860cb1babef"},"vehicle_type_id":"4","last_reported":1762781068,"current_range_meters":16000,"station_id":"ce4bhg12rcd13ifvqf70","pricing_plan_id":"cebpf4jnsgd1na2vs0mg"},{"bike_id":"b7589c36-c725-4ae0-a367-12f6a2c5f1ef","system_id":"levelo_inurba_marseille","lat":43.29815,"lon":5.44074,"is_reserved":false,"is_disabled":false,"rental_uris":{"android":"levelo://app?vid=b7589c36-c725-4ae0-a367-12f6a2c5f1ef","ios":"levelo://app?vid=b7589c36-c725-4ae0-a367-12f6a2c5f1ef"},"vehicle_type_id":"4","last_reported":1762781068,"current_range_meters":16000,"station_id":"st_d3jp68qikq2c7381ktn0","pricing_plan_id":"cebpf4jnsgd1na2vs0mg"},{"bike_id":"2d4da948-180c-4e40-afd8-a9efd3e8d334","system_id":"levelo_inurba_marseille","lat":43.23056,"lon":5.35493,"is_reserved":false,"is_disabled":false,"rental_uris":{"android":"levelo://app?vid=2d4da948-180c-4e40-afd8-a9efd3e8d334","ios":"levelo://app?vid=2d4da948-180c-4e40-afd8-a9efd3e8d334"},"vehicle_type_id":"4","last_reported":1762781068,"current_range_meters":16000,"station_id":"cpo3342slgdg3j2ifvpg","pricing_plan_id":"cebpf4jnsgd1na2vs0mg"},{"bike_id":"a6d01109-ecb1-4bed-be75-911dd8b48d8f","system_id":"levelo_inurba_marseille","lat":43.2707,"lon":5.42288,"is_reserved":false,"is_disabled":false,"rental_uris":{"android":"levelo://app?vid=a6d01109-ecb1-4bed-be75-911dd8b48d8f","ios":"levelo://app?vid=a6d01109-ecb1-4bed-be75-911dd8b48d8f"},"vehicle_type_id":"4","last_reported":1762781068,"current_range_meters":16000,"station_id":"ce4bhk92rcd13ifvqgb0","pricing_plan_id":"cebpf4jnsgd1na2vs0mg"},{"bike_id":"bf54919f-f37a-4851-a2b1-e89e015c2be9","system_id":"levelo_inurba_marseille","lat":43.30424,"lon":5.39742,"is_reserved":false,"is_disabled":false,"rental_uris":{"android":"levelo://app?vid=bf54919f-f37a-4851-a2b1-e89e015c2be9","ios":"levelo://app?vid=bf54919f-f37a-4851-a2b1-e89e015c2be9"},"vehicle_type_id":"4","last_reported":1762781068,"current_range_meters":16000,"station_id":"ce4bh092rcd13ifvqd20","pricing_plan_id":"cebpf4jnsgd1na2vs0mg"},{"bike_id":"b0f65dd5-7080-42f8-bb3b-b5fdbbaffdce","system_id":"levelo_inurba_marseille","lat":43.231418,"lon":5.437168,"is_reserved":false,"is_disabled":false,"rental_uris":{"android":"levelo://app?vid=b0f65dd5-7080-42f8-bb3b-b5fdbbaffdce","ios":"levelo://app?vid=b0f65dd5-7080-42f8-bb3b-b5fdbbaffdce"},"vehicle_type_id":"4","last_reported":1762781068,"current_range_meters":16000,"station_id":"ce4bhmp2rcd13ifvqgog","pricing_plan_id":"cebpf4jnsgd1na2vs0mg"},{"bike_id":"5173966d-3921-48b2-b7f1-a29c251a52d5","system_id":"levelo_inurba_marseille","lat":43.28482,"lon":5.38543,"is_reserved":false,"is_disabled":false,"rental_uris":{"android":"levelo://app?vid=5173966d-3921-48b2-b7f1-a29c251a52d5","ios":"levelo://app?vid=5173966d-3921-48b2-b7f1-a29c251a52d5"},"vehicle_type_id":"4","last_reported":1762781068,"current_range_meters":16000,"station_id":"ce4bh8p2rcd13ifvqeb0","pricing_plan_id":"cebpf4jnsgd1na2vs0mg"},{"bike_id":"2a6bf930-93f8-4fcb-a805-f30f695f94aa","system_id":"levelo_inurba_marseille","lat":43.32056,"lon":5.41553,"is_reserved":false,"is_disabled":false,"rental_uris":{"android":"levelo://app?vid=2a6bf930-93f8-4fcb-a805-f30f695f94aa","ios":"levelo://app?vid=2a6bf930-93f8-4fcb-a805-f30f695f94aa"},"vehicle_type_id":"4","last_reported":1762781068,"current_range_meters":16000,"station_id":"ce4bhq92rcd13ifvqhkg","pricing_plan_id":"cebpf4jnsgd1na2vs0mg"},{"bike_id":"c710b272-cead-4e15-9c5f-6d68cc1de381","system_id":"levelo_inurba_marseille","lat":43.30326,"lon":5.40434,"is_reserved":false,"is_disabled":false,"rental_uris":{"android":"levelo://app?vid=c710b272-cead-4e15-9c5f-6d68cc1de381","ios":"levelo://app?vid=c710b272-cead-4e15-9c5f-6d68cc1de381"},"vehicle_type_id":"4","last_reported":1762781068,"current_range_meters":16400,"station_id":"ce4bh012rcd13ifvqd10","pricing_plan_id":"cebpf4jnsgd1na2vs0mg"},{"bike_id":"50bd906f-f66c-4773-8e69-65d41802e55d","system_id":"levelo_inurba_marseille","lat":43.22533,"lon":5.34834,"is_reserved":false,"is_disabled":false,"rental_uris":{"android":"levelo://app?vid=50bd906f-f66c-4773-8e69-65d41802e55d","ios":"levelo://app?vid=50bd906f-f66c-4773-8e69-65d41802e55d"},"vehicle_type_id":"4","last_reported":1762781068,"current_range_meters":16400,"station_id":"","pricing_plan_id":"cebpf4jnsgd1na2vs0mg"},{"bike_id":"99d9d76d-d94f-48e3-abc3-f50dd41e3269","system_id":"levelo_inurba_marseille","lat":43.31135,"lon":5.38344,"is_reserved":false,"is_disabled":false,"rental_uris":{"android":"levelo://app?vid=99d9d76d-d94f-48e3-abc3-f50dd41e3269","ios":"levelo://app?vid=99d9d76d-d94f-48e3-abc3-f50dd41e3269"},"vehicle_type_id":"4","last_reported":1762781068,"current_range_meters":16400,"station_id":"","pricing_plan_id":"cebpf4jnsgd1na2vs0mg"},{"bike_id":"f46ad7eb-f85b-4432-be90-167e726c28e3","system_id":"levelo_inurba_marseille","lat":43.23137,"lon":5.43715,"is_reserved":false,"is_disabled":false,"rental_uris":{"android":"levelo://app?vid=f46ad7eb-f85b-4432-be90-167e726c28e3","ios":"levelo://app?vid=f46ad7eb-f85b-4432-be90-167e726c28e3"},"vehicle_type_id":"4","last_reported":1762781068,"current_range_meters":16400,"station_id":"ce4bhmp2rcd13ifvqgog","pricing_plan_id":"cebpf4jnsgd1na2vs0mg"},{"bike_id":"7f14d21d-9e16-4961-9d70-b10fd067921a","system_id":"levelo_inurba_marseille","lat":43.217475,"lon":5.346026,"is_reserved":false,"is_disabled":false,"rental_uris":{"android":"levelo://app?vid=7f14d21d-9e16-4961-9d70-b10fd067921a","ios":"levelo://app?vid=7f14d21d-9e16-4961-9d70-b10fd067921a"},"vehicle_type_id":"4","last_reported":1762781068,"current_range_meters":16400,"station_id":"st_cvj6r9ubvosntc0bgbag","pricing_plan_id":"cebpf4jnsgd1na2vs0mg"},{"bike_id":"180a70a9-8924-4885-9ca3-10c578c02589","system_id":"levelo_inurba_marseille","lat":43.22537,"lon":5.348321,"is_reserved":false,"is_disabled":false,"rental_uris":{"android":"levelo://app?vid=180a70a9-8924-4885-9ca3-10c578c02589","ios":"levelo://app?vid=180a70a9-8924-4885-9ca3-10c578c02589"},"vehicle_type_id":"4","last_reported":1762781068,"current_range_meters":16400,"station_id":"","pricing_plan_id":"cebpf4jnsgd1na2vs0mg"},{"bike_id":"0309b26d-0836-4b3e-8614-826febca0549","system_id":"levelo_inurba_marseille","lat":43.26213,"lon":5.37448,"is_reserved":false,"is_disabled":false,"rental_uris":{"android":"levelo://app?vid=0309b26d-0836-4b3e-8614-826febca0549","ios":"levelo://app?vid=0309b26d-0836-4b3e-8614-826febca0549"},"vehicle_type_id":"4","last_reported":1762781068,"current_range_meters":16400,"station_id":"ce4bhgp2rcd13ifvqfc0","pricing_plan_id":"cebpf4jnsgd1na2vs0mg"},{"bike_id":"4b68d13f-f5d9-4b23-871f-a9d0ced8871b","system_id":"levelo_inurba_marseille","lat":43.31283,"lon":5.37814,"is_reserved":false,"is_disabled":false,"rental_uris":{"android":"levelo://app?vid=4b68d13f-f5d9-4b23-871f-a9d0ced8871b","ios":"levelo://app?vid=4b68d13f-f5d9-4b23-871f-a9d0ced8871b"},"vehicle_type_id":"4","last_reported":1762781068,"current_range_meters":16800,"station_id":"","pricing_plan_id":"cebpf4jnsgd1na2vs0mg"},{"bike_id":"eb981f96-c1a6-4158-ab39-357b040342db","system_id":"levelo_inurba_marseille","lat":43.27502,"lon":5.42482,"is_reserved":false,"is_disabled":false,"rental_uris":{"android":"levelo://app?vid=eb981f96-c1a6-4158-ab39-357b040342db","ios":"levelo://app?vid=eb981f96-c1a6-4158-ab39-357b040342db"},"vehicle_type_id":"4","last_reported":1762781068,"current_range_meters":16800,"station_id":"ce4bhn92rcd13ifvqgrg","pricing_plan_id":"cebpf4jnsgd1na2vs0mg"},{"bike_id":"1016aac3-b163-4bd4-b914-896c361c935b","system_id":"levelo_inurba_marseille","lat":43.3213,"lon":5.38848,"is_reserved":false,"is_disabled":false,"rental_uris":{"android":"levelo://app?vid=1016aac3-b163-4bd4-b914-896c361c935b","ios":"levelo://app?vid=1016aac3-b163-4bd4-b914-896c361c935b"},"vehicle_type_id":"4","last_reported":1762781068,"current_range_meters":16800,"station_id":"","pricing_plan_id":"cebpf4jnsgd1na2vs0mg"},{"bike_id":"a33005c1-f643-4adb-8bee-fa011c7be68c","system_id":"levelo_inurba_marseille","lat":43.225311,"lon":5.348257,"is_reserved":false,"is_disabled":false,"rental_uris":{"android":"levelo://app?vid=a33005c1-f643-4adb-8bee-fa011c7be68c","ios":"levelo://app?vid=a33005c1-f643-4adb-8bee-fa011c7be68c"},"vehicle_type_id":"4","last_reported":1762781068,"current_range_meters":16800,"station_id":"","pricing_plan_id":"cebpf4jnsgd1na2vs0mg"},{"bike_id":"0001f610-ee0b-4dfa-a101-19ef82b4afb7","system_id":"levelo_inurba_marseille","lat":43.29813,"lon":5.44068,"is_reserved":false,"is_disabled":false,"rental_uris":{"android":"levelo://app?vid=0001f610-ee0b-4dfa-a101-19ef82b4afb7","ios":"levelo://app?vid=0001f610-ee0b-4dfa-a101-19ef82b4afb7"},"vehicle_type_id":"4","last_reported":1762781068,"current_range_meters":16800,"station_id":"st_d3jp68qikq2c7381ktn0","pricing_plan_id":"cebpf4jnsgd1na2vs0mg"},{"bike_id":"096cdd72-f6cf-4a1a-9fed-102492f9041f","system_id":"levelo_inurba_marseille","lat":43.23183,"lon":5.39975,"is_reserved":false,"is_disabled":false,"rental_uris":{"android":"levelo://app?vid=096cdd72-f6cf-4a1a-9fed-102492f9041f","ios":"levelo://app?vid=096cdd72-f6cf-4a1a-9fed-102492f9041f"},"vehicle_type_id":"4","last_reported":1762781068,"current_range_meters":16800,"station_id":"ce4bhn12rcd13ifvqgqg","pricing_plan_id":"cebpf4jnsgd1na2vs0mg"},{"bike_id":"490015c6-347a-4755-b60b-1407250b4682","system_id":"levelo_inurba_marseille","lat":43.29275,"lon":5.36851,"is_reserved":false,"is_disabled":false,"rental_uris":{"android":"levelo://app?vid=490015c6-347a-4755-b60b-1407250b4682","ios":"levelo://app?vid=490015c6-347a-4755-b60b-1407250b4682"},"vehicle_type_id":"4","last_reported":1762781068,"current_range_meters":16800,"station_id":"ce4bhbp2rcd13ifvqesg","pricing_plan_id":"cebpf4jnsgd1na2vs0mg"},{"bike_id":"c80766a6-aa9a-4c09-88b6-397546065fcc","system_id":"levelo_inurba_marseille","lat":43.231891,"lon":5.355654,"is_reserved":false,"is_disabled":false,"rental_uris":{"android":"levelo://app?vid=c80766a6-aa9a-4c09-88b6-397546065fcc","ios":"levelo://app?vid=c80766a6-aa9a-4c09-88b6-397546065fcc"},"vehicle_type_id":"4","last_reported":1762781068,"current_range_meters":17200,"station_id":"ce4bhu92rcd13ifvqi70","pricing_plan_id":"cebpf4jnsgd1na2vs0mg"},{"bike_id":"42bbdb4f-c9b7-4299-b4a6-0178a6a32bf3","system_id":"levelo_inurba_marseille","lat":43.31814,"lon":5.37439,"is_reserved":false,"is_disabled":false,"rental_uris":{"android":"levelo://app?vid=42bbdb4f-c9b7-4299-b4a6-0178a6a32bf3","ios":"levelo://app?vid=42bbdb4f-c9b7-4299-b4a6-0178a6a32bf3"},"vehicle_type_id":"4","last_reported":1762781068,"current_range_meters":17200,"station_id":"","pricing_plan_id":"cebpf4jnsgd1na2vs0mg"},{"bike_id":"a506955a-debf-4b40-a307-aa2bd90a16c0","system_id":"levelo_inurba_marseille","lat":43.28938,"lon":5.38381,"is_reserved":false,"is_disabled":false,"rental_uris":{"android":"levelo://app?vid=a506955a-debf-4b40-a307-aa2bd90a16c0","ios":"levelo://app?vid=a506955a-debf-4b40-a307-aa2bd90a16c0"},"vehicle_type_id":"4","last_reported":1762781068,"current_range_meters":17200,"station_id":"ce4bh612rcd13ifvqe6g","pricing_plan_id":"cebpf4jnsgd1na2vs0mg"},{"bike_id":"7560e695-60e0-431d-a83a-963ddf5e3590","system_id":"levelo_inurba_marseille","lat":43.30477,"lon":5.37906,"is_reserved":false,"is_disabled":false,"rental_uris":{"android":"levelo://app?vid=7560e695-60e0-431d-a83a-963ddf5e3590","ios":"levelo://app?vid=7560e695-60e0-431d-a83a-963ddf5e3590"},"vehicle_type_id":"4","last_reported":1762781068,"current_range_meters":17200,"station_id":"ce4bgup2rcd13ifvqcn0","pricing_plan_id":"cebpf4jnsgd1na2vs0mg"},{"bike_id":"c28654ef-e0a6-47cb-a0fc-615c6eef425f","system_id":"levelo_inurba_marseille","lat":43.29045,"lon":5.38122,"is_reserved":false,"is_disabled":false,"rental_uris":{"android":"levelo://app?vid=c28654ef-e0a6-47cb-a0fc-615c6eef425f","ios":"levelo://app?vid=c28654ef-e0a6-47cb-a0fc-615c6eef425f"},"vehicle_type_id":"4","last_reported":1762781068,"current_range_meters":17600,"station_id":"ce4bh4p2rcd13ifvqe1g","pricing_plan_id":"cebpf4jnsgd1na2vs0mg"},{"bike_id":"8db29058-1744-4cee-9b65-4519fa9c98ac","system_id":"levelo_inurba_marseille","lat":43.21741,"lon":5.34604,"is_reserved":false,"is_disabled":false,"rental_uris":{"android":"levelo://app?vid=8db29058-1744-4cee-9b65-4519fa9c98ac","ios":"levelo://app?vid=8db29058-1744-4cee-9b65-4519fa9c98ac"},"vehicle_type_id":"4","last_reported":1762781068,"current_range_meters":17600,"station_id":"st_cvj6r9ubvosntc0bgbag","pricing_plan_id":"cebpf4jnsgd1na2vs0mg"},{"bike_id":"8e2fdece-e853-4ec5-9b8f-10cb99b9c768","system_id":"levelo_inurba_marseille","lat":43.29893,"lon":5.43657,"is_reserved":false,"is_disabled":false,"rental_uris":{"android":"levelo://app?vid=8e2fdece-e853-4ec5-9b8f-10cb99b9c768","ios":"levelo://app?vid=8e2fdece-e853-4ec5-9b8f-10cb99b9c768"},"vehicle_type_id":"4","last_reported":1762781068,"current_range_meters":17600,"station_id":"ce4bhpp2rcd13ifvqhfg","pricing_plan_id":"cebpf4jnsgd1na2vs0mg"},{"bike_id":"4cae9d5c-a24c-41f1-9f54-aaa487e732a6","system_id":"levelo_inurba_marseille","lat":43.29965,"lon":5.38206,"is_reserved":false,"is_disabled":false,"rental_uris":{"android":"levelo://app?vid=4cae9d5c-a24c-41f1-9f54-aaa487e732a6","ios":"levelo://app?vid=4cae9d5c-a24c-41f1-9f54-aaa487e732a6"},"vehicle_type_id":"4","last_reported":1762781068,"current_range_meters":17600,"station_id":"","pricing_plan_id":"cebpf4jnsgd1na2vs0mg"},{"bike_id":"6ae87b41-3981-4b69-b43c-0b6bde62265a","system_id":"levelo_inurba_marseille","lat":43.33777,"lon":5.37436,"is_reserved":false,"is_disabled":false,"rental_uris":{"android":"levelo://app?vid=6ae87b41-3981-4b69-b43c-0b6bde62265a","ios":"levelo://app?vid=6ae87b41-3981-4b69-b43c-0b6bde62265a"},"vehicle_type_id":"4","last_reported":1762781068,"current_range_meters":17600,"station_id":"","pricing_plan_id":"cebpf4jnsgd1na2vs0mg"},{"bike_id":"59e7d3de-e414-47fd-9fb9-8ecf9d389a63","system_id":"levelo_inurba_marseille","lat":43.284603,"lon":5.358963,"is_reserved":false,"is_disabled":true,"rental_uris":{"android":"levelo://app?vid=59e7d3de-e414-47fd-9fb9-8ecf9d389a63","ios":"levelo://app?vid=59e7d3de-e414-47fd-9fb9-8ecf9d389a63"},"vehicle_type_id":"4","last_reported":1762781068,"current_range_meters":17600,"station_id":"ce4bhah2rcd13ifvqei0","pricing_plan_id":"cebpf4jnsgd1na2vs0mg"},{"bike_id":"a1841d02-b053-4f88-89ac-a2a3e0997d3f","system_id":"levelo_inurba_marseille","lat":43.217361,"lon":5.346151,"is_reserved":false,"is_disabled":false,"rental_uris":{"android":"levelo://app?vid=a1841d02-b053-4f88-89ac-a2a3e0997d3f","ios":"levelo://app?vid=a1841d02-b053-4f88-89ac-a2a3e0997d3f"},"vehicle_type_id":"4","last_reported":1762781068,"current_range_meters":17600,"station_id":"st_cvj6r9ubvosntc0bgbag","pricing_plan_id":"cebpf4jnsgd1na2vs0mg"},{"bike_id":"122bdab4-68f6-41de-a130-9cd3d01ccdfd","system_id":"levelo_inurba_marseille","lat":43.22533,"lon":5.34829,"is_reserved":false,"is_disabled":false,"rental_uris":{"android":"levelo://app?vid=122bdab4-68f6-41de-a130-9cd3d01ccdfd","ios":"levelo://app?vid=122bdab4-68f6-41de-a130-9cd3d01ccdfd"},"vehicle_type_id":"4","last_reported":1762781068,"current_range_meters":17600,"station_id":"","pricing_plan_id":"cebpf4jnsgd1na2vs0mg"},{"bike_id":"e1037487-0afc-45fd-95a2-71ac76bb0e38","system_id":"levelo_inurba_marseille","lat":43.29526,"lon":5.39036,"is_reserved":false,"is_disabled":false,"rental_uris":{"android":"levelo://app?vid=e1037487-0afc-45fd-95a2-71ac76bb0e38","ios":"levelo://app?vid=e1037487-0afc-45fd-95a2-71ac76bb0e38"},"vehicle_type_id":"4","last_reported":1762781068,"current_range_meters":17600,"station_id":"ce4bh3p2rcd13ifvqdp0","pricing_plan_id":"cebpf4jnsgd1na2vs0mg"},{"bike_id":"3e7bbb98-77d7-4b96-995c-d3e56f12c51d","system_id":"levelo_inurba_marseille","lat":43.21741,"lon":5.34616,"is_reserved":false,"is_disabled":false,"rental_uris":{"android":"levelo://app?vid=3e7bbb98-77d7-4b96-995c-d3e56f12c51d","ios":"levelo://app?vid=3e7bbb98-77d7-4b96-995c-d3e56f12c51d"},"vehicle_type_id":"4","last_reported":1762781068,"current_range_meters":17600,"station_id":"st_cvj6r9ubvosntc0bgbag","pricing_plan_id":"cebpf4jnsgd1na2vs0mg"},{"bike_id":"b15275c6-e462-4a0a-8caf-77a2cc56d365","system_id":"levelo_inurba_marseille","lat":43.21199,"lon":5.35085,"is_reserved":false,"is_disabled":false,"rental_uris":{"android":"levelo://app?vid=b15275c6-e462-4a0a-8caf-77a2cc56d365","ios":"levelo://app?vid=b15275c6-e462-4a0a-8caf-77a2cc56d365"},"vehicle_type_id":"4","last_reported":1762781068,"current_range_meters":17600,"station_id":"st_cvj6sg6p6f1abm77japg","pricing_plan_id":"cebpf4jnsgd1na2vs0mg"},{"bike_id":"339719f7-df72-4245-8395-f7ad2766da21","system_id":"levelo_inurba_marseille","lat":43.31267,"lon":5.40182,"is_reserved":false,"is_disabled":false,"rental_uris":{"android":"levelo://app?vid=339719f7-df72-4245-8395-f7ad2766da21","ios":"levelo://app?vid=339719f7-df72-4245-8395-f7ad2766da21"},"vehicle_type_id":"4","last_reported":1762781068,"current_range_meters":17600,"station_id":"ce4bh092rcd13ifvqd30","pricing_plan_id":"cebpf4jnsgd1na2vs0mg"},{"bike_id":"851e52a7-7701-41a2-9335-4b4a9404896b","system_id":"levelo_inurba_marseille","lat":43.29778,"lon":5.44076,"is_reserved":false,"is_disabled":false,"rental_uris":{"android":"levelo://app?vid=851e52a7-7701-41a2-9335-4b4a9404896b","ios":"levelo://app?vid=851e52a7-7701-41a2-9335-4b4a9404896b"},"vehicle_type_id":"4","last_reported":1762781068,"current_range_meters":17600,"station_id":"st_d3jp68qikq2c7381ktn0","pricing_plan_id":"cebpf4jnsgd1na2vs0mg"},{"bike_id":"d82ead64-1222-4548-a086-29594469c574","system_id":"levelo_inurba_marseille","lat":43.30205,"lon":5.3947,"is_reserved":false,"is_disabled":false,"rental_uris":{"android":"levelo://app?vid=d82ead64-1222-4548-a086-29594469c574","ios":"levelo://app?vid=d82ead64-1222-4548-a086-29594469c574"},"vehicle_type_id":"4","last_reported":1762781068,"current_range_meters":17600,"station_id":"ce4bh0p2rcd13ifvqd70","pricing_plan_id":"cebpf4jnsgd1na2vs0mg"},{"bike_id":"09880af0-899c-427e-bfec-ab0fdb229c89","system_id":"levelo_inurba_marseille","lat":43.30842,"lon":5.36707,"is_reserved":false,"is_disabled":false,"rental_uris":{"android":"levelo://app?vid=09880af0-899c-427e-bfec-ab0fdb229c89","ios":"levelo://app?vid=09880af0-899c-427e-bfec-ab0fdb229c89"},"vehicle_type_id":"4","last_reported":1762781068,"current_range_meters":18000,"station_id":"","pricing_plan_id":"cebpf4jnsgd1na2vs0mg"},{"bike_id":"d610cd16-c813-406e-bee7-295ec8ce6047","system_id":"levelo_inurba_marseille","lat":43.31437,"lon":5.37392,"is_reserved":false,"is_disabled":false,"rental_uris":{"android":"levelo://app?vid=d610cd16-c813-406e-bee7-295ec8ce6047","ios":"levelo://app?vid=d610cd16-c813-406e-bee7-295ec8ce6047"},"vehicle_type_id":"4","last_reported":1762781068,"current_range_meters":18000,"station_id":"","pricing_plan_id":"cebpf4jnsgd1na2vs0mg"},{"bike_id":"9122f5db-1c29-45cf-8c6f-693bf9c6818f","system_id":"levelo_inurba_marseille","lat":43.24066,"lon":5.37751,"is_reserved":false,"is_disabled":false,"rental_uris":{"android":"levelo://app?vid=9122f5db-1c29-45cf-8c6f-693bf9c6818f","ios":"levelo://app?vid=9122f5db-1c29-45cf-8c6f-693bf9c6818f"},"vehicle_type_id":"4","last_reported":1762781068,"current_range_meters":18000,"station_id":"ce4bhnp2rcd13ifvqgvg","pricing_plan_id":"cebpf4jnsgd1na2vs0mg"},{"bike_id":"5eb28dc9-1056-4fe2-a3f0-4c13efc57df0","system_id":"levelo_inurba_marseille","lat":43.25934,"lon":5.40918,"is_reserved":false,"is_disabled":true,"rental_uris":{"android":"levelo://app?vid=5eb28dc9-1056-4fe2-a3f0-4c13efc57df0","ios":"levelo://app?vid=5eb28dc9-1056-4fe2-a3f0-4c13efc57df0"},"vehicle_type_id":"4","last_reported":1762781068,"current_range_meters":18000,"station_id":"ce4bhm92rcd13ifvqglg","pricing_plan_id":"cebpf4jnsgd1na2vs0mg"},{"bike_id":"ecacd8b4-1265-4ed9-917d-c02590ee3cf8","system_id":"levelo_inurba_marseille","lat":43.23149,"lon":5.43721,"is_reserved":false,"is_disabled":false,"rental_uris":{"android":"levelo://app?vid=ecacd8b4-1265-4ed9-917d-c02590ee3cf8","ios":"levelo://app?vid=ecacd8b4-1265-4ed9-917d-c02590ee3cf8"},"vehicle_type_id":"4","last_reported":1762781068,"current_range_meters":18000,"station_id":"ce4bhmp2rcd13ifvqgog","pricing_plan_id":"cebpf4jnsgd1na2vs0mg"},{"bike_id":"08012f0a-dbd5-45c9-a893-e69ba158693d","system_id":"levelo_inurba_marseille","lat":43.28663,"lon":5.38662,"is_reserved":false,"is_disabled":false,"rental_uris":{"android":"levelo://app?vid=08012f0a-dbd5-45c9-a893-e69ba158693d","ios":"levelo://app?vid=08012f0a-dbd5-45c9-a893-e69ba158693d"},"vehicle_type_id":"4","last_reported":1762781068,"current_range_meters":18000,"station_id":"ce4bh492rcd13ifvqdug","pricing_plan_id":"cebpf4jnsgd1na2vs0mg"},{"bike_id":"747d9ab8-1bce-4c02-90e7-3fce2b3a2781","system_id":"levelo_inurba_marseille","lat":43.2681,"lon":5.40257,"is_reserved":false,"is_disabled":false,"rental_uris":{"android":"levelo://app?vid=747d9ab8-1bce-4c02-90e7-3fce2b3a2781","ios":"levelo://app?vid=747d9ab8-1bce-4c02-90e7-3fce2b3a2781"},"vehicle_type_id":"4","last_reported":1762781068,"current_range_meters":18800,"station_id":"ce501612rcd8frsf0b60","pricing_plan_id":"cebpf4jnsgd1na2vs0mg"},{"bike_id":"da231044-0be2-4fab-9a1a-9d14d8edfbee","system_id":"levelo_inurba_marseille","lat":43.27355,"lon":5.36245,"is_reserved":false,"is_disabled":false,"rental_uris":{"android":"levelo://app?vid=da231044-0be2-4fab-9a1a-9d14d8edfbee","ios":"levelo://app?vid=da231044-0be2-4fab-9a1a-9d14d8edfbee"},"vehicle_type_id":"4","last_reported":1762781068,"current_range_meters":18800,"station_id":"ce4bhbh2rcd13ifvqeo0","pricing_plan_id":"cebpf4jnsgd1na2vs0mg"},{"bike_id":"dae8334a-b572-4c26-a477-d4a2afbe0b98","system_id":"levelo_inurba_marseille","lat":43.28716,"lon":5.37937,"is_reserved":false,"is_disabled":false,"rental_uris":{"android":"levelo://app?vid=dae8334a-b572-4c26-a477-d4a2afbe0b98","ios":"levelo://app?vid=dae8334a-b572-4c26-a477-d4a2afbe0b98"},"vehicle_type_id":"4","last_reported":1762781068,"current_range_meters":18800,"station_id":"ce4bh9p2rcd13ifvqec0","pricing_plan_id":"cebpf4jnsgd1na2vs0mg"},{"bike_id":"43661bb1-a889-477c-9b1e-7f6c51978d5f","system_id":"levelo_inurba_marseille","lat":43.2558,"lon":5.38246,"is_reserved":false,"is_disabled":false,"rental_uris":{"android":"levelo://app?vid=43661bb1-a889-477c-9b1e-7f6c51978d5f","ios":"levelo://app?vid=43661bb1-a889-477c-9b1e-7f6c51978d5f"},"vehicle_type_id":"4","last_reported":1762781068,"current_range_meters":18800,"station_id":"ce4bhih2rcd13ifvqfs0","pricing_plan_id":"cebpf4jnsgd1na2vs0mg"},{"bike_id":"26c55e17-66f3-4c27-abd0-0bd09614a1d7","system_id":"levelo_inurba_marseille","lat":43.28461,"lon":5.35891,"is_reserved":false,"is_disabled":false,"rental_uris":{"android":"levelo://app?vid=26c55e17-66f3-4c27-abd0-0bd09614a1d7","ios":"levelo://app?vid=26c55e17-66f3-4c27-abd0-0bd09614a1d7"},"vehicle_type_id":"4","last_reported":1762781068,"current_range_meters":18800,"station_id":"ce4bhah2rcd13ifvqei0","pricing_plan_id":"cebpf4jnsgd1na2vs0mg"},{"bike_id":"d900c339-5489-4108-89e5-9b53f0f4d1db","system_id":"levelo_inurba_marseille","lat":43.225329,"lon":5.348353,"is_reserved":false,"is_disabled":false,"rental_uris":{"android":"levelo://app?vid=d900c339-5489-4108-89e5-9b53f0f4d1db","ios":"levelo://app?vid=d900c339-5489-4108-89e5-9b53f0f4d1db"},"vehicle_type_id":"4","last_reported":1762781068,"current_range_meters":18800,"station_id":"","pricing_plan_id":"cebpf4jnsgd1na2vs0mg"},{"bike_id":"86cadc4d-46d4-438b-97f5-10c20e8e0bcb","system_id":"levelo_inurba_marseille","lat":43.30596,"lon":5.393353,"is_reserved":false,"is_disabled":false,"rental_uris":{"android":"levelo://app?vid=86cadc4d-46d4-438b-97f5-10c20e8e0bcb","ios":"levelo://app?vid=86cadc4d-46d4-438b-97f5-10c20e8e0bcb"},"vehicle_type_id":"4","last_reported":1762781068,"current_range_meters":18800,"station_id":"ce4bh0p2rcd13ifvqd80","pricing_plan_id":"cebpf4jnsgd1na2vs0mg"},{"bike_id":"e2104b6a-7e12-4a20-ae1b-cf4b446d5e26","system_id":"levelo_inurba_marseille","lat":43.28479,"lon":5.48398,"is_reserved":false,"is_disabled":false,"rental_uris":{"android":"levelo://app?vid=e2104b6a-7e12-4a20-ae1b-cf4b446d5e26","ios":"levelo://app?vid=e2104b6a-7e12-4a20-ae1b-cf4b446d5e26"},"vehicle_type_id":"4","last_reported":1762781068,"current_range_meters":18800,"station_id":"st_d3svhcjqgbts73a3dn0g","pricing_plan_id":"cebpf4jnsgd1na2vs0mg"},{"bike_id":"1cedf961-91a0-49bb-b0bc-fb49c375052c","system_id":"levelo_inurba_marseille","lat":43.24161,"lon":5.36411,"is_reserved":false,"is_disabled":false,"rental_uris":{"android":"levelo://app?vid=1cedf961-91a0-49bb-b0bc-fb49c375052c","ios":"levelo://app?vid=1cedf961-91a0-49bb-b0bc-fb49c375052c"},"vehicle_type_id":"4","last_reported":1762781068,"current_range_meters":18800,"station_id":"cpo36qri1sfpv3e86is0","pricing_plan_id":"cebpf4jnsgd1na2vs0mg"},{"bike_id":"5dbd84dd-cc46-4566-b300-5ee5796603c8","system_id":"levelo_inurba_marseille","lat":43.29582,"lon":5.36743,"is_reserved":false,"is_disabled":false,"rental_uris":{"android":"levelo://app?vid=5dbd84dd-cc46-4566-b300-5ee5796603c8","ios":"levelo://app?vid=5dbd84dd-cc46-4566-b300-5ee5796603c8"},"vehicle_type_id":"4","last_reported":1762781068,"current_range_meters":18800,"station_id":"ce4bgph2rcd13ifvqc2g","pricing_plan_id":"cebpf4jnsgd1na2vs0mg"},{"bike_id":"661c414f-c650-43b4-b6fa-bca2f0ca9dc9","system_id":"levelo_inurba_marseille","lat":43.29189,"lon":5.39309,"is_reserved":false,"is_disabled":false,"rental_uris":{"android":"levelo://app?vid=661c414f-c650-43b4-b6fa-bca2f0ca9dc9","ios":"levelo://app?vid=661c414f-c650-43b4-b6fa-bca2f0ca9dc9"},"vehicle_type_id":"4","last_reported":1762781068,"current_range_meters":19200,"station_id":"ce4bh192rcd13ifvqdd0","pricing_plan_id":"cebpf4jnsgd1na2vs0mg"},