{"last_updated":1751361241,"ttl":60,"version":"2.2","data":{"bikes":[{"bike_id":"3da29fb8-fc97-44c6-b9ac-31dd456b2fd4","system_id":"levelo_inurba_marseille","lat":43.33771,"lon":5.37424,"is_reserved":false,"is_disabled":true,"rental_uris":{"android":"levelo://app?vid=3da29fb8-fc97-44c6-b9ac-31dd456b2fd4","ios":"levelo://app?vid=3da29fb8-fc97-44c6-b9ac-31dd456b2fd4"},"vehicle_type_id":"4","last_reported":1751361241,"current_range_meters":0,"station_id":"","pricing_plan_id":"cebpf4jnsgd1na2vs0mg"},{"bike_id":"01861ad8-a8d7-4be6-816e-651927c87584","system_id":"levelo_inurba_marseille","lat":43.33751,"lon":5.37456,"is_reserved":false,"is_disabled":true,"rental_uris":{"android":"levelo://app?vid=01861ad8-a8d7-4be6-816e-651927c87584","ios":"levelo://app?vid=01861ad8-a8d7-4be6-816e-651927c87584"},"vehicle_type_id":"4","last_reported":1751361241,"current_range_meters":0,"station_id":"","pricing_plan_id":"cebpf4jnsgd1na2vs0mg"},{"bike_id":"1d934d30-6a85-4b30-9a35-9bb4ad4cb2ca","system_id":"levelo_inurba_marseille","lat":43.32729,"lon":5.42339,"is_reserved":false,"is_disabled":true,"rental_uris":{"android":"levelo://app?vid=1d934d30-6a85-4b30-9a35-9bb4ad4cb2ca","ios":"levelo://app?vid=1d934d30-6a85-4b30-9a35-9bb4ad4cb2ca"},"vehicle_type_id":"4","last_reported":1751361241,"current_range_meters":0,"station_id":"","pricing_plan_id":"cebpf4jnsgd1na2vs0mg"},{"bike_id":"3378c13c-e4e0-45be-9bfe-f3a4bc2c600e","system_id":"levelo_inurba_marseille","lat":43.29762,"lon":5.46003,"is_reserved":false,"is_disabled":true,"rental_uris":{"android":"levelo://app?vid=3378c13c-e4e0-45be-9bfe-f3a4bc2c600e","ios":"levelo://app?vid=3378c13c-e4e0-45be-9bfe-f3a4bc2c600e"},"vehicle_type_id":"4","last_reported":1751361241,"current_range_meters":0,"station_id":"","pricing_plan_id":"cebpf4jnsgd1na2vs0mg"},{"bike_id":"2ccccc82-c8a9-4c3b-909d-52c0bf697aa3","system_id":"levelo_inurba_marseille","lat":43.27605,"lon":5.358658,"is_reserved":false,"is_disabled":true,"rental_uris":{"android":"levelo://app?vid=2ccccc82-c8a9-4c3b-909d-52c0bf697aa3","ios":"levelo://app?vid=2ccccc82-c8a9-4c3b-909d-52c0bf697aa3"},"vehicle_type_id":"4","last_reported":1751361241,"current_range_meters":0,"station_id":"","pricing_plan_id":"cebpf4jnsgd1na2vs0mg"},{"bike_id":"72b3c841-2bcc-49ae-991f-e310b5226b44","system_id":"levelo_inurba_marseille","lat":43.33758,"lon":5.37456,"is_reserved":false,"is_disabled":true,"rental_uris":{"android":"levelo://app?vid=72b3c841-2bcc-49ae-991f-e310b5226b44","ios":"levelo://app?vid=72b3c841-2bcc-49ae-991f-e310b5226b44"},"vehicle_type_id":"4","last_reported":1751361241,"current_range_meters":0,"station_id":"","pricing_plan_id":"cebpf4jnsgd1na2vs0mg"},{"bike_id":"c9700359-7f1e-4ea5-8eb5-d9c4ea1b8ef7","system_id":"levelo_inurba_marseille","lat":43.26322,"lon":5.37396,"is_reserved":false,"is_disabled":true,"rental_uris":{"android":"levelo://app?vid=c9700359-7f1e-4ea5-8eb5-d9c4ea1b8ef7","ios":"levelo://app?vid=c9700359-7f1e-4ea5-8eb5-d9c4ea1b8ef7"},"vehicle_type_id":"4","last_reported":1751361241,"current_range_meters":0,"station_id":"","pricing_plan_id":"cebpf4jnsgd1na2vs0mg"},{"bike_id":"43590756-9645-4590-b95a-d5b38df650bf","system_id":"levelo_inurba_marseille","lat":43.27611,"lon":5.36105,"is_reserved":false,"is_disabled":true,"rental_uris":{"android":"levelo://app?vid=43590756-9645-4590-b95a-d5b38df650bf","ios":"levelo://app?vid=43590756-9645-4590-b95a-d5b38df650bf"},"vehicle_type_id":"4","last_reported":1751361241,"current_range_meters":0,"station_id":"ce4bgj92rcd13ifvqbe0","pricing_plan_id":"cebpf4jnsgd1na2vs0mg"},{"bike_id":"58bbeff5-9e2c-48b9-b80e-1c460df567dc","system_id":"levelo_inurba_marseille","lat":43.29502,"lon":5.37555,"is_reserved":false,"is_disabled":true,"rental_uris":{"android":"levelo://app?vid=58bbeff5-9e2c-48b9-b80e-1c460df567dc","ios":"levelo://app?vid=58bbeff5-9e2c-48b9-b80e-1c460df567dc"},"vehicle_type_id":"4","last_reported":1751361241,"current_range_meters":0,"station_id":"ce4bgkp2rcd13ifvqbmg","pricing_plan_id":"cebpf4jnsgd1na2vs0mg"},{"bike_id":"b897820f-43fd-4b1b-9dc8-153a18c5cc08","system_id":"levelo_inurba_marseille","lat":43.30891,"lon":5.40137,"is_reserved":false,"is_disabled":true,"rental_uris":{"android":"levelo://app?vid=b897820f-43fd-4b1b-9dc8-153a18c5cc08","ios":"levelo://app?vid=b897820f-43fd-4b1b-9dc8-153a18c5cc08"},"vehicle_type_id":"4","last_reported":1751361241,"current_range_meters":0,"station_id":"ce4bgvp2rcd13ifvqct0","pricing_plan_id":"cebpf4jnsgd1na2vs0mg"},{"bike_id":"f68b26fd-0870-487c-b03e-14ebb77faaee","system_id":"levelo_inurba_marseille","lat":43.30652,"lon":5.40094,"is_reserved":false,"is_disabled":true,"rental_uris":{"android":"levelo://app?vid=f68b26fd-0870-487c-b03e-14ebb77faaee","ios":"levelo://app?vid=f68b26fd-0870-487c-b03e-14ebb77faaee"},"vehicle_type_id":"4","last_reported":1751361241,"current_range_meters":0,"station_id":"ce4bh112rcd13ifvqda0","pricing_plan_id":"cebpf4jnsgd1na2vs0mg"},{"bike_id":"ace29f33-c927-454d-a70b-cda3f040ffe1","system_id":"levelo_inurba_marseille","lat":43.29194,"lon":5.39308,"is_reserved":false,"is_disabled":true,"rental_uris":{"android":"levelo://app?vid=ace29f33-c927-454d-a70b-cda3f040ffe1","ios":"levelo://app?vid=ace29f33-c927-454d-a70b-cda3f040ffe1"},"vehicle_type_id":"4","last_reported":1751361241,"current_range_meters":0,"station_id":"ce4bh192rcd13ifvqdd0","pricing_plan_id":"cebpf4jnsgd1na2vs0mg"},{"bike_id":"cc7d2548-95d1-4c97-b51a-ec94bf578cd8","system_id":"levelo_inurba_marseille","lat":43.29197,"lon":5.393,"is_reserved":false,"is_disabled":true,"rental_uris":{"android":"levelo://app?vid=cc7d2548-95d1-4c97-b51a-ec94bf578cd8","ios":"levelo://app?vid=cc7d2548-95d1-4c97-b51a-ec94bf578cd8"},"vehicle_type_id":"4","last_reported":1751361241,"current_range_meters":0,"station_id":"ce4bh192rcd13ifvqdd0","pricing_plan_id":"cebpf4jnsgd1na2vs0mg"},{"bike_id":"cd29420b-0cc5-4803-8083-fb96f7dd7463","system_id":"levelo_inurba_marseille","lat":43.28483,"lon":5.38426,"is_reserved":false,"is_disabled":true,"rental_uris":{"android":"levelo://app?vid=cd29420b-0cc5-4803-8083-fb96f7dd7463","ios":"levelo://app?vid=cd29420b-0cc5-4803-8083-fb96f7dd7463"},"vehicle_type_id":"4","last_reported":1751361241,"current_range_meters":0,"station_id":"ce4bh512rcd13ifvqe3g","pricing_plan_id":"cebpf4jnsgd1na2vs0mg"},{"bike_id":"453d087c-a682-476a-ba85-3e6771fb57ff","system_id":"levelo_inurba_marseille","lat":43.27971,"lon":5.38715,"is_reserved":false,"is_disabled":true,"rental_uris":{"android":"levelo://app?vid=453d087c-a682-476a-ba85-3e6771fb57ff","ios":"levelo://app?vid=453d087c-a682-476a-ba85-3e6771fb57ff"},"vehicle_type_id":"4","last_reported":1751361241,"current_range_meters":0,"station_id":"ce4bhg12rcd13ifvqf80","pricing_plan_id":"cebpf4jnsgd1na2vs0mg"},{"bike_id":"b6c9fafc-3761-42e6-83b0-63d4248a2cdb","system_id":"levelo_inurba_marseille","lat":43.24386,"lon":5.37064,"is_reserved":false,"is_disabled":true,"rental_uris":{"android":"levelo://app?vid=b6c9fafc-3761-42e6-83b0-63d4248a2cdb","ios":"levelo://app?vid=b6c9fafc-3761-42e6-83b0-63d4248a2cdb"},"vehicle_type_id":"4","last_reported":1751361241,"current_range_meters":0,"station_id":"ce4bhhh2rcd13ifvqfk0","pricing_plan_id":"cebpf4jnsgd1na2vs0mg"},{"bike_id":"630f4358-9cf5-4067-a1ae-dcddeeb4a0f5","system_id":"levelo_inurba_marseille","lat":43.24054,"lon":5.37715,"is_reserved":false,"is_disabled":true,"rental_uris":{"android":"levelo://app?vid=630f4358-9cf5-4067-a1ae-dcddeeb4a0f5","ios":"levelo://app?vid=630f4358-9cf5-4067-a1ae-dcddeeb4a0f5"},"vehicle_type_id":"4","last_reported":1751361241,"current_range_meters":0,"station_id":"ce4bhnp2rcd13ifvqgvg","pricing_plan_id":"cebpf4jnsgd1na2vs0mg"},{"bike_id":"baf1f856-5066-4bcf-b81c-efb9daa4fcc6","system_id":"levelo_inurba_marseille","lat":43.28704,"lon":5.39989,"is_reserved":false,"is_disabled":true,"rental_uris":{"android":"levelo://app?vid=baf1f856-5066-4bcf-b81c-efb9daa4fcc6","ios":"levelo://app?vid=baf1f856-5066-4bcf-b81c-efb9daa4fcc6"},"vehicle_type_id":"4","last_reported":1751361241,"current_range_meters":0,"station_id":"ce4bho92rcd13ifvqh3g","pricing_plan_id":"cebpf4jnsgd1na2vs0mg"},{"bike_id":"9418efcb-9652-42bc-b8cb-428107bc9139","system_id":"levelo_inurba_marseille","lat":43.32345,"lon":5.40615,"is_reserved":false,"is_disabled":true,"rental_uris":{"android":"levelo://app?vid=9418efcb-9652-42bc-b8cb-428107bc9139","ios":"levelo://app?vid=9418efcb-9652-42bc-b8cb-428107bc9139"},"vehicle_type_id":"4","last_reported":1751361241,"current_range_meters":0,"station_id":"ce4bhq92rcd13ifvqhjg","pricing_plan_id":"cebpf4jnsgd1na2vs0mg"},{"bike_id":"e1eccc98-53d4-487b-bc31-6f08d4d54421","system_id":"levelo_inurba_marseille","lat":43.32006,"lon":5.38134,"is_reserved":false,"is_disabled":true,"rental_uris":{"android":"levelo://app?vid=e1eccc98-53d4-487b-bc31-6f08d4d54421","ios":"levelo://app?vid=e1eccc98-53d4-487b-bc31-6f08d4d54421"},"vehicle_type_id":"4","last_reported":1751361241,"current_range_meters":0,"station_id":"ce4bhr12rcd13ifvqhpg","pricing_plan_id":"cebpf4jnsgd1na2vs0mg"},{"bike_id":"7c617506-95d5-4b87-8210-9fb58a8633f5","system_id":"levelo_inurba_marseille","lat":43.23145,"lon":5.43727,"is_reserved":false,"is_disabled":true,"rental_uris":{"android":"levelo://app?vid=7c617506-95d5-4b87-8210-9fb58a8633f5","ios":"levelo://app?vid=7c617506-95d5-4b87-8210-9fb58a8633f5"},"vehicle_type_id":"4","last_reported":1751361241,"current_range_meters":400,"station_id":"ce4bhmp2rcd13ifvqgog","pricing_plan_id":"cebpf4jnsgd1na2vs0mg"},{"bike_id":"26d81b23-0446-49ed-99db-d45e5e59ae0d","system_id":"levelo_inurba_marseille","lat":43.24168,"lon":5.36395,"is_reserved":false,"is_disabled":true,"rental_uris":{"android":"levelo://app?vid=26d81b23-0446-49ed-99db-d45e5e59ae0d","ios":"levelo://app?vid=26d81b23-0446-49ed-99db-d45e5e59ae0d"},"vehicle_type_id":"4","last_reported":1751361241,"current_range_meters":400,"station_id":"cpo36qri1sfpv3e86is0","pricing_plan_id":"cebpf4jnsgd1na2vs0mg"},{"bike_id":"3035be0e-7c3d-4f7d-a1cb-7a1af59e497b","system_id":"levelo_inurba_marseille","lat":43.296824,"lon":5.360031,"is_reserved":false,"is_disabled":true,"rental_uris":{"android":"levelo://app?vid=3035be0e-7c3d-4f7d-a1cb-7a1af59e497b","ios":"levelo://app?vid=3035be0e-7c3d-4f7d-a1cb-7a1af59e497b"},"vehicle_type_id":"4","last_reported":1751361241,"current_range_meters":800,"station_id":"","pricing_plan_id":"cebpf4jnsgd1na2vs0mg"},{"bike_id":"ae330994-fb10-47c2-8371-1c1e115b4434","system_id":"levelo_inurba_marseille","lat":43.34138,"lon":5.40907,"is_reserved":false,"is_disabled":true,"rental_uris":{"android":"levelo://app?vid=ae330994-fb10-47c2-8371-1c1e115b4434","ios":"levelo://app?vid=ae330994-fb10-47c2-8371-1c1e115b4434"},"vehicle_type_id":"4","last_reported":1751361241,"current_range_meters":800,"station_id":"ce4bhqh2rcd13ifvqhlg","pricing_plan_id":"cebpf4jnsgd1na2vs0mg"},{"bike_id":"87985e62-2823-4157-8a35-599ee9a377ab","system_id":"levelo_inurba_marseille","lat":43.21197,"lon":5.35073,"is_reserved":false,"is_disabled":true,"rental_uris":{"android":"levelo://app?vid=87985e62-2823-4157-8a35-599ee9a377ab","ios":"levelo://app?vid=87985e62-2823-4157-8a35-599ee9a377ab"},"vehicle_type_id":"4","last_reported":1751361241,"current_range_meters":800,"station_id":"st_cvj6sg6p6f1abm77japg","pricing_plan_id":"cebpf4jnsgd1na2vs0mg"},{"bike_id":"c0233825-48c7-4308-99a0-0cbf10efd402","system_id":"levelo_inurba_marseille","lat":43.32272,"lon":5.37457,"is_reserved":false,"is_disabled":true,"rental_uris":{"android":"levelo://app?vid=c0233825-48c7-4308-99a0-0cbf10efd402","ios":"levelo://app?vid=c0233825-48c7-4308-99a0-0cbf10efd402"},"vehicle_type_id":"4","last_reported":1751361241,"current_range_meters":1200,"station_id":"","pricing_plan_id":"cebpf4jnsgd1na2vs0mg"},{"bike_id":"61c3e470-81ef-4179-8664-9bb3149386ba","system_id":"levelo_inurba_marseille","lat":43.30535,"lon":5.36711,"is_reserved":false,"is_disabled":true,"rental_uris":{"android":"levelo://app?vid=61c3e470-81ef-4179-8664-9bb3149386ba","ios":"levelo://app?vid=61c3e470-81ef-4179-8664-9bb3149386ba"},"vehicle_type_id":"4","last_reported":1751361241,"current_range_meters":1200,"station_id":"ce4bgrp2rcd13ifvqc9g","pricing_plan_id":"cebpf4jnsgd1na2vs0mg"},{"bike_id":"3f88c8af-c6dd-4078-a364-8bfd6d4bd891","system_id":"levelo_inurba_marseille","lat":43.29257,"lon":5.38447,"is_reserved":false,"is_disabled":true,"rental_uris":{"android":"levelo://app?vid=3f88c8af-c6dd-4078-a364-8bfd6d4bd891","ios":"levelo://app?vid=3f88c8af-c6dd-4078-a364-8bfd6d4bd891"},"vehicle_type_id":"4","last_reported":1751361241,"current_range_meters":1200,"station_id":"ce4bh692rcd13ifvqea0","pricing_plan_id":"cebpf4jnsgd1na2vs0mg"},{"bike_id":"709f06bc-031a-417b-a669-c5c92baf470e","system_id":"levelo_inurba_marseille","lat":43.25009,"lon":5.38913,"is_reserved":false,"is_disabled":true,"rental_uris":{"android":"levelo://app?vid=709f06bc-031a-417b-a669-c5c92baf470e","ios":"levelo://app?vid=709f06bc-031a-417b-a669-c5c92baf470e"},"vehicle_type_id":"4","last_reported":1751361241,"current_range_meters":1200,"station_id":"ce4bhgp2rcd13ifvqfd0","pricing_plan_id":"cebpf4jnsgd1na2vs0mg"},{"bike_id":"ec6c6a18-b09d-46ac-adac-921f89cce149","system_id":"levelo_inurba_marseille","lat":43.27312,"lon":5.39095,"is_reserved":false,"is_disabled":true,"rental_uris":{"android":"levelo://app?vid=ec6c6a18-b09d-46ac-adac-921f89cce149","ios":"levelo://app?vid=ec6c6a18-b09d-46ac-adac-921f89cce149"},"vehicle_type_id":"4","last_reported":1751361241,"current_range_meters":1200,"station_id":"ce4bhgp2rcd13ifvqfe0","pricing_plan_id":"cebpf4jnsgd1na2vs0mg"},{"bike_id":"f3bb54e5-5710-469b-95d1-519f2df26e28","system_id":"levelo_inurba_marseille","lat":43.30257,"lon":5.38195,"is_reserved":false,"is_disabled":true,"rental_uris":{"android":"levelo://app?vid=f3bb54e5-5710-469b-95d1-519f2df26e28","ios":"levelo://app?vid=f3bb54e5-5710-469b-95d1-519f2df26e28"},"vehicle_type_id":"4","last_reported":1751361241,"current_range_meters":1600,"station_id":"","pricing_plan_id":"cebpf4jnsgd1na2vs0mg"},{"bike_id":"4859adbf-dc81-45c0-a369-5cb5f7787513","system_id":"levelo_inurba_marseille","lat":43.29369,"lon":5.37834,"is_reserved":false,"is_disabled":true,"rental_uris":{"android":"levelo://app?vid=4859adbf-dc81-45c0-a369-5cb5f7787513","ios":"levelo://app?vid=4859adbf-dc81-45c0-a369-5cb5f7787513"},"vehicle_type_id":"4","last_reported":1751361241,"current_range_meters":1600,"station_id":"ce4bgjh2rcd13ifvqbf0","pricing_plan_id":"cebpf4jnsgd1na2vs0mg"},{"bike_id":"dde834da-a7e5-4741-9626-cab25bc43b63","system_id":"levelo_inurba_marseille","lat":43.28271,"lon":5.35072,"is_reserved":false,"is_disabled":true,"rental_uris":{"android":"levelo://app?vid=dde834da-a7e5-4741-9626-cab25bc43b63","ios":"levelo://app?vid=dde834da-a7e5-4741-9626-cab25bc43b63"},"vehicle_type_id":"4","last_reported":1751361241,"current_range_meters":1600,"station_id":"ce4bhbp2rcd13ifvqerg","pricing_plan_id":"cebpf4jnsgd1na2vs0mg"},{"bike_id":"c3b9e807-9f57-4733-ad64-ffb885ac8698","system_id":"levelo_inurba_marseille","lat":43.34142,"lon":5.40907,"is_reserved":false,"is_disabled":true,"rental_uris":{"android":"levelo://app?vid=c3b9e807-9f57-4733-ad64-ffb885ac8698","ios":"levelo://app?vid=c3b9e807-9f57-4733-ad64-ffb885ac8698"},"vehicle_type_id":"4","last_reported":1751361241,"current_range_meters":2000,"station_id":"ce4bhqh2rcd13ifvqhlg","pricing_plan_id":"cebpf4jnsgd1na2vs0mg"},{"bike_id":"acd67651-af2d-4a43-b42d-8227200d0952","system_id":"levelo_inurba_marseille","lat":43.24695,"lon":5.38152,"is_reserved":false,"is_disabled":false,"rental_uris":{"android":"levelo://app?vid=acd67651-af2d-4a43-b42d-8227200d0952","ios":"levelo://app?vid=acd67651-af2d-4a43-b42d-8227200d0952"},"vehicle_type_id":"4","last_reported":1751361241,"current_range_meters":3200,"station_id":"ce4bhih2rcd13ifvqfr0","pricing_plan_id":"cebpf4jnsgd1na2vs0mg"},{"bike_id":"6346854d-967c-470e-9bcf-0ee9cbb31745","system_id":"levelo_inurba_marseille","lat":43.26916,"lon":5.41987,"is_reserved":false,"is_disabled":false,"rental_uris":{"android":"levelo://app?vid=6346854d-967c-470e-9bcf-0ee9cbb31745","ios":"levelo://app?vid=6346854d-967c-470e-9bcf-0ee9cbb31745"},"vehicle_type_id":"4","last_reported":1751361241,"current_range_meters":3600,"station_id":"","pricing_plan_id":"cebpf4jnsgd1na2vs0mg"},{"bike_id":"5f19ce93-fa59-4335-b337-61a1baa55e1c","system_id":"levelo_inurba_marseille","lat":43.290253,"lon":5.386437,"is_reserved":false,"is_disabled":false,"rental_uris":{"android":"levelo://app?vid=5f19ce93-fa59-4335-b337-61a1baa55e1c","ios":"levelo://app?vid=5f19ce93-fa59-4335-b337-61a1baa55e1c"},"vehicle_type_id":"4","last_reported":1751361241,"current_range_meters":3600,"station_id":"ce4bh4p2rcd13ifvqe0g","pricing_plan_id":"cebpf4jnsgd1na2vs0mg"},{"bike_id":"90ae5379-e65b-4efa-82fe-fcef3bdc6dc4","system_id":"levelo_inurba_marseille","lat":43.28486,"lon":5.38576,"is_reserved":false,"is_disabled":false,"rental_uris":{"android":"levelo://app?vid=90ae5379-e65b-4efa-82fe-fcef3bdc6dc4","ios":"levelo://app?vid=90ae5379-e65b-4efa-82fe-fcef3bdc6dc4"},"vehicle_type_id":"4","last_reported":1751361241,"current_range_meters":3600,"station_id":"ce4bh8p2rcd13ifvqeb0","pricing_plan_id":"cebpf4jnsgd1na2vs0mg"},{"bike_id":"580ad96f-82f4-4d3a-890a-e45f7331cfbe","system_id":"levelo_inurba_marseille","lat":43.248023,"lon":5.374501,"is_reserved":false,"is_disabled":false,"rental_uris":{"android":"levelo://app?vid=580ad96f-82f4-4d3a-890a-e45f7331cfbe","ios":"levelo://app?vid=580ad96f-82f4-4d3a-890a-e45f7331cfbe"},"vehicle_type_id":"4","last_reported":1751361241,"current_range_meters":3600,"station_id":"ce4bhgh2rcd13ifvqfb0","pricing_plan_id":"cebpf4jnsgd1na2vs0mg"},{"bike_id":"9be6f56d-f068-487e-8a85-0008c22b479f","system_id":"levelo_inurba_marseille","lat":43.295444,"lon":5.385399,"is_reserved":false,"is_disabled":false,"rental_uris":{"android":"levelo://app?vid=9be6f56d-f068-487e-8a85-0008c22b479f","ios":"levelo://app?vid=9be6f56d-f068-487e-8a85-0008c22b479f"},"vehicle_type_id":"4","last_reported":1751361241,"current_range_meters":4000,"station_id":"ce4bgih2rcd13ifvqba0","pricing_plan_id":"cebpf4jnsgd1na2vs0mg"},{"bike_id":"e5a91c12-a9d1-463a-8abe-d0dd37cf3197","system_id":"levelo_inurba_marseille","lat":43.29804,"lon":5.37751,"is_reserved":false,"is_disabled":false,"rental_uris":{"android":"levelo://app?vid=e5a91c12-a9d1-463a-8abe-d0dd37cf3197","ios":"levelo://app?vid=e5a91c12-a9d1-463a-8abe-d0dd37cf3197"},"vehicle_type_id":"4","last_reported":1751361241,"current_range_meters":4400,"station_id":"","pricing_plan_id":"cebpf4jnsgd1na2vs0mg"},{"bike_id":"1cc22b55-ae71-4186-8ae2-2ac7a2688bc4","system_id":"levelo_inurba_marseille","lat":43.24168,"lon":5.39716,"is_reserved":false,"is_disabled":false,"rental_uris":{"android":"levelo://app?vid=1cc22b55-ae71-4186-8ae2-2ac7a2688bc4","ios":"levelo://app?vid=1cc22b55-ae71-4186-8ae2-2ac7a2688bc4"},"vehicle_type_id":"4","last_reported":1751361241,"current_range_meters":4400,"station_id":"ce4bhn12rcd13ifvqgpg","pricing_plan_id":"cebpf4jnsgd1na2vs0mg"},{"bike_id":"a0d7dcbf-b9ce-45a2-b7ad-e28c40c51d70","system_id":"levelo_inurba_marseille","lat":43.28374,"lon":5.38631,"is_reserved":false,"is_disabled":false,"rental_uris":{"android":"levelo://app?vid=a0d7dcbf-b9ce-45a2-b7ad-e28c40c51d70","ios":"levelo://app?vid=a0d7dcbf-b9ce-45a2-b7ad-e28c40c51d70"},"vehicle_type_id":"4","last_reported":1751361241,"current_range_meters":4800,"station_id":"ce4bh492rcd13ifvqdvg","pricing_plan_id":"cebpf4jnsgd1na2vs0mg"},{"bike_id":"be1608d6-c8b0-4f08-9461-48f11c1f160d","system_id":"levelo_inurba_marseille","lat":43.23176,"lon":5.39983,"is_reserved":false,"is_disabled":false,"rental_uris":{"android":"levelo://app?vid=be1608d6-c8b0-4f08-9461-48f11c1f160d","ios":"levelo://app?vid=be1608d6-c8b0-4f08-9461-48f11c1f160d"},"vehicle_type_id":"4","last_reported":1751361241,"current_range_meters":4800,"station_id":"ce4bhn12rcd13ifvqgqg","pricing_plan_id":"cebpf4jnsgd1na2vs0mg"},{"bike_id":"f32f1a60-342f-4807-837b-0b085cf233e4","system_id":"levelo_inurba_marseille","lat":43.276354,"lon":5.392133,"is_reserved":false,"is_disabled":false,"rental_uris":{"android":"levelo://app?vid=f32f1a60-342f-4807-837b-0b085cf233e4","ios":"levelo://app?vid=f32f1a60-342f-4807-837b-0b085cf233e4"},"vehicle_type_id":"4","last_reported":1751361241,"current_range_meters":5600,"station_id":"","pricing_plan_id":"cebpf4jnsgd1na2vs0mg"},{"bike_id":"6b3f8f44-e80b-48aa-9bb7-4cce210b8c6c","system_id":"levelo_inurba_marseille","lat":43.28416,"lon":5.3499,"is_reserved":false,"is_disabled":false,"rental_uris":{"android":"levelo://app?vid=6b3f8f44-e80b-48aa-9bb7-4cce210b8c6c","ios":"levelo://app?vid=6b3f8f44-e80b-48aa-9bb7-4cce210b8c6c"},"vehicle_type_id":"4","last_reported":1751361241,"current_range_meters":5600,"station_id":"ce4bhbh2rcd13ifvqepg","pricing_plan_id":"cebpf4jnsgd1na2vs0mg"},{"bike_id":"07c852d2-6163-4217-8859-ffb3f12d1b6a","system_id":"levelo_inurba_marseille","lat":43.27042,"lon":5.40256,"is_reserved":false,"is_disabled":false,"rental_uris":{"android":"levelo://app?vid=07c852d2-6163-4217-8859-ffb3f12d1b6a","ios":"levelo://app?vid=07c852d2-6163-4217-8859-ffb3f12d1b6a"},"vehicle_type_id":"4","last_reported":1751361241,"current_range_meters":5600,"station_id":"ce4bhk92rcd13ifvqgc0","pricing_plan_id":"cebpf4jnsgd1na2vs0mg"},{"bike_id":"59a074fc-769e-4d5d-a6d4-002d8e573dd6","system_id":"levelo_inurba_marseille","lat":43.21201,"lon":5.35072,"is_reserved":false,"is_disabled":false,"rental_uris":{"android":"levelo://app?vid=59a074fc-769e-4d5d-a6d4-002d8e573dd6","ios":"levelo://app?vid=59a074fc-769e-4d5d-a6d4-002d8e573dd6"},"vehicle_type_id":"4","last_reported":1751361241,"current_range_meters":5600,"station_id":"st_cvj6sg6p6f1abm77japg","pricing_plan_id":"cebpf4jnsgd1na2vs0mg"},{"bike_id":"0ab1a8f4-8f21-4ac4-a7e6-16e700dba3d2","system_id":"levelo_inurba_marseille","lat":43.28421,"lon":5.34984,"is_reserved":false,"is_disabled":false,"rental_uris":{"android":"levelo://app?vid=0ab1a8f4-8f21-4ac4-a7e6-16e700dba3d2","ios":"levelo://app?vid=0ab1a8f4-8f21-4ac4-a7e6-16e700dba3d2"},"vehicle_type_id":"4","last_reported":1751361241,"current_range_meters":6000,"station_id":"ce4bhbh2rcd13ifvqepg","pricing_plan_id":"cebpf4jnsgd1na2vs0mg"},{"bike_id":"67bc5e07-d028-42fe-a505-bf4e05d8d948","system_id":"levelo_inurba_marseille","lat":43.24168,"lon":5.36394,"is_reserved":false,"is_disabled":false,"rental_uris":{"android":"levelo://app?vid=67bc5e07-d028-42fe-a505-bf4e05d8d948","ios":"levelo://app?vid=67bc5e07-d028-42fe-a505-bf4e05d8d948"},"vehicle_type_id":"4","last_reported":1751361241,"current_range_meters":6000,"station_id":"cpo36qri1sfpv3e86is0","pricing_plan_id":"cebpf4jnsgd1na2vs0mg"},{"bike_id":"7028c8ca-b652-47b0-89e0-1aa56361d228","system_id":"levelo_inurba_marseille","lat":43.21188,"lon":5.3508,"is_reserved":false,"is_disabled":false,"rental_uris":{"android":"levelo://app?vid=7028c8ca-b652-47b0-89e0-1aa56361d228","ios":"levelo://app?vid=7028c8ca-b652-47b0-89e0-1aa56361d228"},"vehicle_type_id":"4","last_reported":1751361241,"current_range_meters":6000,"station_id":"st_cvj6sg6p6f1abm77japg","pricing_plan_id":"cebpf4jnsgd1na2vs0mg"},{"bike_id":"7bd5f985-40f2-4f91-8fb6-cc826767130a","system_id":"levelo_inurba_marseille","lat":43.26792,"lon":5.39412,"is_reserved":false,"is_disabled":false,"rental_uris":{"android":"levelo://app?vid=7bd5f985-40f2-4f91-8fb6-cc826767130a","ios":"levelo://app?vid=7bd5f985-40f2-4f91-8fb6-cc826767130a"},"vehicle_type_id":"4","last_reported":1751361241,"current_range_meters":6400,"station_id":"ce4bhh12rcd13ifvqfg0","pricing_plan_id":"cebpf4jnsgd1na2vs0mg"},{"bike_id":"e64bbb1e-5cd8-459c-b41b-cb4456faa566","system_id":"levelo_inurba_marseille","lat":43.24172,"lon":5.397267,"is_reserved":false,"is_disabled":false,"rental_uris":{"android":"levelo://app?vid=e64bbb1e-5cd8-459c-b41b-cb4456faa566","ios":"levelo://app?vid=e64bbb1e-5cd8-459c-b41b-cb4456faa566"},"vehicle_type_id":"4","last_reported":1751361241,"current_range_meters":6400,"station_id":"ce4bhn12rcd13ifvqgpg","pricing_plan_id":"cebpf4jnsgd1na2vs0mg"},{"bike_id":"162af4e6-d224-4240-aeac-6cb0ae06de53","system_id":"levelo_inurba_marseille","lat":43.29924,"lon":5.37844,"is_reserved":false,"is_disabled":false,"rental_uris":{"android":"levelo://app?vid=162af4e6-d224-4240-aeac-6cb0ae06de53","ios":"levelo://app?vid=162af4e6-d224-4240-aeac-6cb0ae06de53"},"vehicle_type_id":"4","last_reported":1751361241,"current_range_meters":6800,"station_id":"","pricing_plan_id":"cebpf4jnsgd1na2vs0mg"},{"bike_id":"baf3ecf1-d461-4c3f-a3cf-8c3e80e5a3bf","system_id":"levelo_inurba_marseille","lat":43.3053,"lon":5.36526,"is_reserved":false,"is_disabled":false,"rental_uris":{"android":"levelo://app?vid=baf3ecf1-d461-4c3f-a3cf-8c3e80e5a3bf","ios":"levelo://app?vid=baf3ecf1-d461-4c3f-a3cf-8c3e80e5a3bf"},"vehicle_type_id":"4","last_reported":1751361241,"current_range_meters":6800,"station_id":"ce4bgs12rcd13ifvqcag","pricing_plan_id":"cebpf4jnsgd1na2vs0mg"},{"bike_id":"fcf1fd91-618c-4a5f-a6f5-64ece337cb06","system_id":"levelo_inurba_marseille","lat":43.24175,"lon":5.39729,"is_reserved":false,"is_disabled":false,"rental_uris":{"android":"levelo://app?vid=fcf1fd91-618c-4a5f-a6f5-64ece337cb06","ios":"levelo://app?vid=fcf1fd91-618c-4a5f-a6f5-64ece337cb06"},"vehicle_type_id":"4","last_reported":1751361241,"current_range_meters":6800,"station_id":"ce4bhn12rcd13ifvqgpg","pricing_plan_id":"cebpf4jnsgd1na2vs0mg"},{"bike_id":"8aa8d3ec-3a93-426a-a4eb-65bfb8875fbc","system_id":"levelo_inurba_marseille","lat":43.2679,"lon":5.39414,"is_reserved":false,"is_disabled":false,"rental_uris":{"android":"levelo://app?vid=8aa8d3ec-3a93-426a-a4eb-65bfb8875fbc","ios":"levelo://app?vid=8aa8d3ec-3a93-426a-a4eb-65bfb8875fbc"},"vehicle_type_id":"4","last_reported":1751361241,"current_range_meters":7200,"station_id":"ce4bhh12rcd13ifvqfg0","pricing_plan_id":"cebpf4jnsgd1na2vs0mg"},{"bike_id":"26079494-4db3-41d3-8e2d-33f9cfd4da3f","system_id":"levelo_inurba_marseille","lat":43.24174,"lon":5.364,"is_reserved":false,"is_disabled":false,"rental_uris":{"android":"levelo://app?vid=26079494-4db3-41d3-8e2d-33f9cfd4da3f","ios":"levelo://app?vid=26079494-4db3-41d3-8e2d-33f9cfd4da3f"},"vehicle_type_id":"4","last_reported":1751361241,"current_range_meters":7200,"station_id":"cpo36qri1sfpv3e86is0","pricing_plan_id":"cebpf4jnsgd1na2vs0mg"},{"bike_id":"7d2ebbac-d26c-416a-b58e-5e3abed80858","system_id":"levelo_inurba_marseille","lat":43.21198,"lon":5.35055,"is_reserved":false,"is_disabled":false,"rental_uris":{"android":"levelo://app?vid=7d2ebbac-d26c-416a-b58e-5e3abed80858","ios":"levelo://app?vid=7d2ebbac-d26c-416a-b58e-5e3abed80858"},"vehicle_type_id":"4","last_reported":1751361241,"current_range_meters":7200,"station_id":"st_cvj6sg6p6f1abm77japg","pricing_plan_id":"cebpf4jnsgd1na2vs0mg"},{"bike_id":"9c5a69b7-2d96-49bc-933a-ef8b9ac4eb5b","system_id":"levelo_inurba_marseille","lat":43.24165,"lon":5.363912,"is_reserved":false,"is_disabled":false,"rental_uris":{"android":"levelo://app?vid=9c5a69b7-2d96-49bc-933a-ef8b9ac4eb5b","ios":"levelo://app?vid=9c5a69b7-2d96-49bc-933a-ef8b9ac4eb5b"},"vehicle_type_id":"4","last_reported":1751361241,"current_range_meters":8000,"station_id":"cpo36qri1sfpv3e86is0","pricing_plan_id":"cebpf4jnsgd1na2vs0mg"},{"bike_id":"43fcb430-53f7-4349-b49c-62f8e6ea8db4","system_id":"levelo_inurba_marseille","lat":43.284764,"lon":5.437121,"is_reserved":false,"is_disabled":false,"rental_uris":{"android":"levelo://app?vid=43fcb430-53f7-4349-b49c-62f8e6ea8db4","ios":"levelo://app?vid=43fcb430-53f7-4349-b49c-62f8e6ea8db4"},"vehicle_type_id":"4","last_reported":1751361241,"current_range_meters":8400,"station_id":"","pricing_plan_id":"cebpf4jnsgd1na2vs0mg"},{"bike_id":"b05ac08d-847b-4f20-ac36-038a0d69d167","system_id":"levelo_inurba_marseille","lat":43.28135,"lon":5.35844,"is_reserved":false,"is_disabled":false,"rental_uris":{"android":"levelo://app?vid=b05ac08d-847b-4f20-ac36-038a0d69d167","ios":"levelo://app?vid=b05ac08d-847b-4f20-ac36-038a0d69d167"},"vehicle_type_id":"4","last_reported":1751361241,"current_range_meters":8400,"station_id":"","pricing_plan_id":"cebpf4jnsgd1na2vs0mg"},{"bike_id":"f5c16f07-bc6f-4121-91a7-5ad90eec4f34","system_id":"levelo_inurba_marseille","lat":43.3119,"lon":5.37342,"is_reserved":false,"is_disabled":false,"rental_uris":{"android":"levelo://app?vid=f5c16f07-bc6f-4121-91a7-5ad90eec4f34","ios":"levelo://app?vid=f5c16f07-bc6f-4121-91a7-5ad90eec4f34"},"vehicle_type_id":"4","last_reported":1751361241,"current_range_meters":8400,"station_id":"","pricing_plan_id":"cebpf4jnsgd1na2vs0mg"},{"bike_id":"7f626dcb-d15c-4062-90ea-e96e5a2d31ac","system_id":"levelo_inurba_marseille","lat":43.2593,"lon":5.40892,"is_reserved":false,"is_disabled":false,"rental_uris":{"android":"levelo://app?vid=7f626dcb-d15c-4062-90ea-e96e5a2d31ac","ios":"levelo://app?vid=7f626dcb-d15c-4062-90ea-e96e5a2d31ac"},"vehicle_type_id":"4","last_reported":1751361241,"current_range_meters":8400,"station_id":"ce4bhm92rcd13ifvqglg","pricing_plan_id":"cebpf4jnsgd1na2vs0mg"},{"bike_id":"632ed6b7-4bcf-48d0-8039-2543c2e7bbdc","system_id":"levelo_inurba_marseille","lat":43.24143,"lon":5.39755,"is_reserved":false,"is_disabled":false,"rental_uris":{"android":"levelo://app?vid=632ed6b7-4bcf-48d0-8039-2543c2e7bbdc","ios":"levelo://app?vid=632ed6b7-4bcf-48d0-8039-2543c2e7bbdc"},"vehicle_type_id":"4","last_reported":1751361241,"current_range_meters":8400,"station_id":"ce4bhn12rcd13ifvqgpg","pricing_plan_id":"cebpf4jnsgd1na2vs0mg"},{"bike_id":"b100d3a7-bd01-47f3-8813-e7fbdebaccbe","system_id":"levelo_inurba_marseille","lat":43.241835,"lon":5.397185,"is_reserved":false,"is_disabled":false,"rental_uris":{"android":"levelo://app?vid=b100d3a7-bd01-47f3-8813-e7fbdebaccbe","ios":"levelo://app?vid=b100d3a7-bd01-47f3-8813-e7fbdebaccbe"},"vehicle_type_id":"4","last_reported":1751361241,"current_range_meters":8400,"station_id":"ce4bhn12rcd13ifvqgpg","pricing_plan_id":"cebpf4jnsgd1na2vs0mg"},{"bike_id":"6602f4ed-af8a-41d9-b5cb-5ab946a18408","system_id":"levelo_inurba_marseille","lat":43.26766,"lon":5.39399,"is_reserved":false,"is_disabled":false,"rental_uris":{"android":"levelo://app?vid=6602f4ed-af8a-41d9-b5cb-5ab946a18408","ios":"levelo://app?vid=6602f4ed-af8a-41d9-b5cb-5ab946a18408"},"vehicle_type_id":"4","last_reported":1751361241,"current_range_meters":8800,"station_id":"ce4bhh12rcd13ifvqfg0","pricing_plan_id":"cebpf4jnsgd1na2vs0mg"},{"bike_id":"295f9591-b6c5-46f0-9b69-80ae277a747d","system_id":"levelo_inurba_marseille","lat":43.23193,"lon":5.35555,"is_reserved":false,"is_disabled":false,"rental_uris":{"android":"levelo://app?vid=295f9591-b6c5-46f0-9b69-80ae277a747d","ios":"levelo://app?vid=295f9591-b6c5-46f0-9b69-80ae277a747d"},"vehicle_type_id":"4","last_reported":1751361241,"current_range_meters":8800,"station_id":"ce4bhu92rcd13ifvqi70","pricing_plan_id":"cebpf4jnsgd1na2vs0mg"},{"bike_id":"ad3a4bcf-30b6-4fcc-ae75-88228107a10f","system_id":"levelo_inurba_marseille","lat":43.26937,"lon":5.40258,"is_reserved":false,"is_disabled":false,"rental_uris":{"android":"levelo://app?vid=ad3a4bcf-30b6-4fcc-ae75-88228107a10f","ios":"levelo://app?vid=ad3a4bcf-30b6-4fcc-ae75-88228107a10f"},"vehicle_type_id":"4","last_reported":1751361241,"current_range_meters":8800,"station_id":"cjm6bp8fraef2m0cb0m0","pricing_plan_id":"cebpf4jnsgd1na2vs0mg"},{"bike_id":"10eea809-7477-4bdc-97f3-cac368652f0e","system_id":"levelo_inurba_marseille","lat":43.23053,"lon":5.35486,"is_reserved":false,"is_disabled":false,"rental_uris":{"android":"levelo://app?vid=10eea809-7477-4bdc-97f3-cac368652f0e","ios":"levelo://app?vid=10eea809-7477-4bdc-97f3-cac368652f0e"},"vehicle_type_id":"4","last_reported":1751361241,"current_range_meters":8800,"station_id":"cpo3342slgdg3j2ifvpg","pricing_plan_id":"cebpf4jnsgd1na2vs0mg"},{"bike_id":"8bdc0874-4bc8-4d36-8b67-8b959f43ec92","system_id":"levelo_inurba_marseille","lat":43.28419,"lon":5.3497,"is_reserved":false,"is_disabled":false,"rental_uris":{"android":"levelo://app?vid=8bdc0874-4bc8-4d36-8b67-8b959f43ec92","ios":"levelo://app?vid=8bdc0874-4bc8-4d36-8b67-8b959f43ec92"},"vehicle_type_id":"4","last_reported":1751361241,"current_range_meters":9200,"station_id":"ce4bhbh2rcd13ifvqepg","pricing_plan_id":"cebpf4jnsgd1na2vs0mg"},{"bike_id":"93c66058-dd54-4970-9cf9-5bfc52325a63","system_id":"levelo_inurba_marseille","lat":43.25911,"lon":5.40889,"is_reserved":false,"is_disabled":false,"rental_uris":{"android":"levelo://app?vid=93c66058-dd54-4970-9cf9-5bfc52325a63","ios":"levelo://app?vid=93c66058-dd54-4970-9cf9-5bfc52325a63"},"vehicle_type_id":"4","last_reported":1751361241,"current_range_meters":9200,"station_id":"ce4bhm92rcd13ifvqglg","pricing_plan_id":"cebpf4jnsgd1na2vs0mg"},{"bike_id":"5a3b44c0-a9b6-468b-8a8f-80349d232ce5","system_id":"levelo_inurba_marseille","lat":43.242303,"lon":5.368061,"is_reserved":false,"is_disabled":false,"rental_uris":{"android":"levelo://app?vid=5a3b44c0-a9b6-468b-8a8f-80349d232ce5","ios":"levelo://app?vid=5a3b44c0-a9b6-468b-8a8f-80349d232ce5"},"vehicle_type_id":"4","last_reported":1751361241,"current_range_meters":9200,"station_id":"cpo36qri1sfpv3e86is0","pricing_plan_id":"cebpf4jnsgd1na2vs0mg"},{"bike_id":"860ecc02-a6d5-4fbe-ada6-b9197deada15","system_id":"levelo_inurba_marseille","lat":43.32555,"lon":5.38927,"is_reserved":false,"is_disabled":false,"rental_uris":{"android":"levelo://app?vid=860ecc02-a6d5-4fbe-ada6-b9197deada15","ios":"levelo://app?vid=860ecc02-a6d5-4fbe-ada6-b9197deada15"},"vehicle_type_id":"4","last_reported":1751361241,"current_range_meters":9600,"station_id":"","pricing_plan_id":"cebpf4jnsgd1na2vs0mg"},{"bike_id":"7a4d265a-0e47-43b4-9784-569fd3a80a85","system_id":"levelo_inurba_marseille","lat":43.30795,"lon":5.37645,"is_reserved":false,"is_disabled":false,"rental_uris":{"android":"levelo://app?vid=7a4d265a-0e47-43b4-9784-569fd3a80a85","ios":"levelo://app?vid=7a4d265a-0e47-43b4-9784-569fd3a80a85"},"vehicle_type_id":"4","last_reported":1751361241,"current_range_meters":9600,"station_id":"ce4bgv92rcd13ifvqcq0","pricing_plan_id":"cebpf4jnsgd1na2vs0mg"},{"bike_id":"018289da-68ab-4773-8c7d-e8eb900d305b","system_id":"levelo_inurba_marseille","lat":43.26788,"lon":5.39412,"is_reserved":false,"is_disabled":false,"rental_uris":{"android":"levelo://app?vid=018289da-68ab-4773-8c7d-e8eb900d305b","ios":"levelo://app?vid=018289da-68ab-4773-8c7d-e8eb900d305b"},"vehicle_type_id":"4","last_reported":1751361241,"current_range_meters":9600,"station_id":"ce4bhh12rcd13ifvqfg0","pricing_plan_id":"cebpf4jnsgd1na2vs0mg"},{"bike_id":"8252b44a-d048-4379-9209-2efa2e627825","system_id":"levelo_inurba_marseille","lat":43.29231,"lon":5.40565,"is_reserved":false,"is_disabled":false,"rental_uris":{"android":"levelo://app?vid=8252b44a-d048-4379-9209-2efa2e627825","ios":"levelo://app?vid=8252b44a-d048-4379-9209-2efa2e627825"},"vehicle_type_id":"4","last_reported":1751361241,"current_range_meters":10000,"station_id":"","pricing_plan_id":"cebpf4jnsgd1na2vs0mg"},{"bike_id":"c13c93ac-6b62-443c-9e36-caf61b27325a","system_id":"levelo_inurba_marseille","lat":43.21205,"lon":5.35034,"is_reserved":false,"is_disabled":false,"rental_uris":{"android":"levelo://app?vid=c13c93ac-6b62-443c-9e36-caf61b27325a","ios":"levelo://app?vid=c13c93ac-6b62-443c-9e36-caf61b27325a"},"vehicle_type_id":"4","last_reported":1751361241,"current_range_meters":10000,"station_id":"","pricing_plan_id":"cebpf4jnsgd1na2vs0mg"},{"bike_id":"aaa86ae1-c78c-464a-bdfd-dbc6011e50c4","system_id":"levelo_inurba_marseille","lat":43.31357,"lon":5.36725,"is_reserved":false,"is_disabled":false,"rental_uris":{"android":"levelo://app?vid=aaa86ae1-c78c-464a-bdfd-dbc6011e50c4","ios":"levelo://app?vid=aaa86ae1-c78c-464a-bdfd-dbc6011e50c4"},"vehicle_type_id":"4","last_reported":1751361241,"current_range_meters":10000,"station_id":"ce4bgr92rcd13ifvqc6g","pricing_plan_id":"cebpf4jnsgd1na2vs0mg"},{"bike_id":"2316b7bd-bd87-4362-8072-36754b233aab","system_id":"levelo_inurba_marseille","lat":43.30533,"lon":5.36553,"is_reserved":false,"is_disabled":false,"rental_uris":{"android":"levelo://app?vid=2316b7bd-bd87-4362-8072-36754b233aab","ios":"levelo://app?vid=2316b7bd-bd87-4362-8072-36754b233aab"},"vehicle_type_id":"4","last_reported":1751361241,"current_range_meters":10000,"station_id":"ce4bgs12rcd13ifvqcag","pricing_plan_id":"cebpf4jnsgd1na2vs0mg"},{"bike_id":"6b04a8db-f012-4ea9-88f5-d59ff3f24fd9","system_id":"levelo_inurba_marseille","lat":43.29899,"lon":5.4366,"is_reserved":false,"is_disabled":false,"rental_uris":{"android":"levelo://app?vid=6b04a8db-f012-4ea9-88f5-d59ff3f24fd9","ios":"levelo://app?vid=6b04a8db-f012-4ea9-88f5-d59ff3f24fd9"},"vehicle_type_id":"4","last_reported":1751361241,"current_range_meters":10000,"station_id":"ce4bhpp2rcd13ifvqhfg","pricing_plan_id":"cebpf4jnsgd1na2vs0mg"},{"bike_id":"ac4cf6bf-ae0d-49a1-afc8-485ee29ed51b","system_id":"levelo_inurba_marseille","lat":43.27304,"lon":5.41133,"is_reserved":false,"is_disabled":false,"rental_uris":{"android":"levelo://app?vid=ac4cf6bf-ae0d-49a1-afc8-485ee29ed51b","ios":"levelo://app?vid=ac4cf6bf-ae0d-49a1-afc8-485ee29ed51b"},"vehicle_type_id":"4","last_reported":1751361241,"current_range_meters":10800,"station_id":"","pricing_plan_id":"cebpf4jnsgd1na2vs0mg"},{"bike_id":"2d4fc0b6-2bb7-4afe-a433-4aac412b2c99","system_id":"levelo_inurba_marseille","lat":43.29916,"lon":5.37474,"is_reserved":false,"is_disabled":false,"rental_uris":{"android":"levelo://app?vid=2d4fc0b6-2bb7-4afe-a433-4aac412b2c99","ios":"levelo://app?vid=2d4fc0b6-2bb7-4afe-a433-4aac412b2c99"},"vehicle_type_id":"4","last_reported":1751361241,"current_range_meters":10800,"station_id":"ce4bgjh2rcd13ifvqbg0","pricing_plan_id":"cebpf4jnsgd1na2vs0mg"},{"bike_id":"7367ace4-729e-4b72-afc9-5df0f07d64f6","system_id":"levelo_inurba_marseille","lat":43.29506,"lon":5.37512,"is_reserved":false,"is_disabled":false,"rental_uris":{"android":"levelo://app?vid=7367ace4-729e-4b72-afc9-5df0f07d64f6","ios":"levelo://app?vid=7367ace4-729e-4b72-afc9-5df0f07d64f6"},"vehicle_type_id":"4","last_reported":1751361241,"current_range_meters":10800,"station_id":"ce4bgkp2rcd13ifvqbmg","pricing_plan_id":"cebpf4jnsgd1na2vs0mg"},{"bike_id":"85444a7f-dc93-4f0d-b528-46644bd3f9ba","system_id":"levelo_inurba_marseille","lat":43.24176,"lon":5.3972,"is_reserved":false,"is_disabled":false,"rental_uris":{"android":"levelo://app?vid=85444a7f-dc93-4f0d-b528-46644bd3f9ba","ios":"levelo://app?vid=85444a7f-dc93-4f0d-b528-46644bd3f9ba"},"vehicle_type_id":"4","last_reported":1751361241,"current_range_meters":10800,"station_id":"ce4bhn12rcd13ifvqgpg","pricing_plan_id":"cebpf4jnsgd1na2vs0mg"},{"bike_id":"aad466d4-9058-4038-a189-895fae6f1c28","system_id":"levelo_inurba_marseille","lat":43.21199,"lon":5.35079,"is_reserved":false,"is_disabled":false,"rental_uris":{"android":"levelo://app?vid=aad466d4-9058-4038-a189-895fae6f1c28","ios":"levelo://app?vid=aad466d4-9058-4038-a189-895fae6f1c28"},"vehicle_type_id":"4","last_reported":1751361241,"current_range_meters":10800,"station_id":"st_cvj6sg6p6f1abm77japg","pricing_plan_id":"cebpf4jnsgd1na2vs0mg"},{"bike_id":"3888c07c-d69e-4dbc-acef-38cc472db583","system_id":"levelo_inurba_marseille","lat":43.29531,"lon":5.38541,"is_reserved":false,"is_disabled":false,"rental_uris":{"android":"levelo://app?vid=3888c07c-d69e-4dbc-acef-38cc472db583","ios":"levelo://app?vid=3888c07c-d69e-4dbc-acef-38cc472db583"},"vehicle_type_id":"4","last_reported":1751361241,"current_range_meters":11200,"station_id":"ce4bgih2rcd13ifvqba0","pricing_plan_id":"cebpf4jnsgd1na2vs0mg"},{"bike_id":"d8facb10-b967-4a32-9b5c-8cfed4bbd05b","system_id":"levelo_inurba_marseille","lat":43.32111,"lon":5.36777,"is_reserved":false,"is_disabled":false,"rental_uris":{"android":"levelo://app?vid=d8facb10-b967-4a32-9b5c-8cfed4bbd05b","ios":"levelo://app?vid=d8facb10-b967-4a32-9b5c-8cfed4bbd05b"},"vehicle_type_id":"4","last_reported":1751361241,"current_range_meters":11200,"station_id":"ce4bhrh2rcd13ifvqhug","pricing_plan_id":"cebpf4jnsgd1na2vs0mg"},{"bike_id":"e56e31a2-29d3-4a56-9ddf-3ef6c73ecda8","system_id":"levelo_inurba_marseille","lat":43.24167,"lon":5.36397,"is_reserved":false,"is_disabled":false,"rental_uris":{"android":"levelo://app?vid=e56e31a2-29d3-4a56-9ddf-3ef6c73ecda8","ios":"levelo://app?vid=e56e31a2-29d3-4a56-9ddf-3ef6c73ecda8"},"vehicle_type_id":"4","last_reported":1751361241,"current_range_meters":11200,"station_id":"cpo36qri1sfpv3e86is0","pricing_plan_id":"cebpf4jnsgd1na2vs0mg"},{"bike_id":"b2ec7371-4e1a-4f7b-ae6c-60c5a54c237b","system_id":"levelo_inurba_marseille","lat":43.21196,"lon":5.35067,"is_reserved":false,"is_disabled":false,"rental_uris":{"android":"levelo://app?vid=b2ec7371-4e1a-4f7b-ae6c-60c5a54c237b","ios":"levelo://app?vid=b2ec7371-4e1a-4f7b-ae6c-60c5a54c237b"},"vehicle_type_id":"4","last_reported":1751361241,"current_range_meters":11200,"station_id":"st_cvj6sg6p6f1abm77japg","pricing_plan_id":"cebpf4jnsgd1na2vs0mg"},{"bike_id":"a28c59f5-fce1-481a-bcff-87b69ba3d8a2","system_id":"levelo_inurba_marseille","lat":43.30306,"lon":5.3689,"is_reserved":false,"is_disabled":false,"rental_uris":{"android":"levelo://app?vid=a28c59f5-fce1-481a-bcff-87b69ba3d8a2","ios":"levelo://app?vid=a28c59f5-fce1-481a-bcff-87b69ba3d8a2"},"vehicle_type_id":"4","last_reported":1751361241,"current_range_meters":11600,"station_id":"ce4bgqh2rcd13ifvqc5g","pricing_plan_id":"cebpf4jnsgd1na2vs0mg"},{"bike_id":"0bdd5ea0-3154-424e-ba3b-1cd29c25dddd","system_id":"levelo_inurba_marseille","lat":43.30546,"lon":5.367,"is_reserved":false,"is_disabled":false,"rental_uris":{"android":"levelo://app?vid=0bdd5ea0-3154-424e-ba3b-1cd29c25dddd","ios":"levelo://app?vid=0bdd5ea0-3154-424e-ba3b-1cd29c25dddd"},"vehicle_type_id":"4","last_reported":1751361241,"current_range_meters":11600,"station_id":"ce4bgrp2rcd13ifvqc9g","pricing_plan_id":"cebpf4jnsgd1na2vs0mg"},{"bike_id":"dfe6cd0b-36c4-44fb-9038-a0cfc3f8c45d","system_id":"levelo_inurba_marseille","lat":43.24068,"lon":5.37758,"is_reserved":false,"is_disabled":false,"rental_uris":{"android":"levelo://app?vid=dfe6cd0b-36c4-44fb-9038-a0cfc3f8c45d","ios":"levelo://app?vid=dfe6cd0b-36c4-44fb-9038-a0cfc3f8c45d"},"vehicle_type_id":"4","last_reported":1751361241,"current_range_meters":11600,"station_id":"ce4bhnp2rcd13ifvqgvg","pricing_plan_id":"cebpf4jnsgd1na2vs0mg"},{"bike_id":"8ceb2860-ca09-420a-8aab-fcf0c529a0d3","system_id":"levelo_inurba_marseille","lat":43.21183,"lon":5.35061,"is_reserved":false,"is_disabled":false,"rental_uris":{"android":"levelo://app?vid=8ceb2860-ca09-420a-8aab-fcf0c529a0d3","ios":"levelo://app?vid=8ceb2860-ca09-420a-8aab-fcf0c529a0d3"},"vehicle_type_id":"4","last_reported":1751361241,"current_range_meters":11600,"station_id":"st_cvj6sg6p6f1abm77japg","pricing_plan_id":"cebpf4jnsgd1na2vs0mg"},{"bike_id":"76c6dc01-eb99-4758-85fe-cbd95cfff645","system_id":"levelo_inurba_marseille","lat":43.21192,"lon":5.35083,"is_reserved":false,"is_disabled":false,"rental_uris":{"android":"levelo://app?vid=76c6dc01-eb99-4758-85fe-cbd95cfff645","ios":"levelo://app?vid=76c6dc01-eb99-4758-85fe-cbd95cfff645"},"vehicle_type_id":"4","last_reported":1751361241,"current_range_meters":11600,"station_id":"st_cvj6sg6p6f1abm77japg","pricing_plan_id":"cebpf4jnsgd1na2vs0mg"},{"bike_id":"fc796a03-0a68-4095-a208-1e20ae4c8aa4","system_id":"levelo_inurba_marseille","lat":43.301401,"lon":5.374128,"is_reserved":false,"is_disabled":false,"rental_uris":{"android":"levelo://app?vid=fc796a03-0a68-4095-a208-1e20ae4c8aa4","ios":"levelo://app?vid=fc796a03-0a68-4095-a208-1e20ae4c8aa4"},"vehicle_type_id":"4","last_reported":1751361241,"current_range_meters":12000,"station_id":"ce4bgs92rcd13ifvqcc0","pricing_plan_id":"cebpf4jnsgd1na2vs0mg"},{"bike_id":"dbf2ae53-ae09-4e50-b0ba-4e47f7d056d3","system_id":"levelo_inurba_marseille","lat":43.2842,"lon":5.34978,"is_reserved":false,"is_disabled":false,"rental_uris":{"android":"levelo://app?vid=dbf2ae53-ae09-4e50-b0ba-4e47f7d056d3","ios":"levelo://app?vid=dbf2ae53-ae09-4e50-b0ba-4e47f7d056d3"},"vehicle_type_id":"4","last_reported":1751361241,"current_range_meters":12000,"station_id":"ce4bhbh2rcd13ifvqepg","pricing_plan_id":"cebpf4jnsgd1na2vs0mg"},{"bike_id":"43eb0a95-a42b-4fb1-afa6-904af12c6e74","system_id":"levelo_inurba_marseille","lat":43.25724,"lon":5.41105,"is_reserved":false,"is_disabled":false,"rental_uris":{"android":"levelo://app?vid=43eb0a95-a42b-4fb1-afa6-904af12c6e74","ios":"levelo://app?vid=43eb0a95-a42b-4fb1-afa6-904af12c6e74"},"vehicle_type_id":"4","last_reported":1751361241,"current_range_meters":12000,"station_id":"ce4bhkp2rcd13ifvqgd0","pricing_plan_id":"cebpf4jnsgd1na2vs0mg"},{"bike_id":"4f97e136-2006-43b5-84b8-8ce28f4647e9","system_id":"levelo_inurba_marseille","lat":43.212087,"lon":5.350524,"is_reserved":false,"is_disabled":false,"rental_uris":{"android":"levelo://app?vid=4f97e136-2006-43b5-84b8-8ce28f4647e9","ios":"levelo://app?vid=4f97e136-2006-43b5-84b8-8ce28f4647e9"},"vehicle_type_id":"4","last_reported":1751361241,"current_range_meters":12000,"station_id":"st_cvj6sg6p6f1abm77japg","pricing_plan_id":"cebpf4jnsgd1na2vs0mg"},{"bike_id":"0cda5be3-90a7-4d47-ad47-205c86f82cc2","system_id":"levelo_inurba_marseille","lat":43.289772,"lon":5.356509,"is_reserved":false,"is_disabled":false,"rental_uris":{"android":"levelo://app?vid=0cda5be3-90a7-4d47-ad47-205c86f82cc2","ios":"levelo://app?vid=0cda5be3-90a7-4d47-ad47-205c86f82cc2"},"vehicle_type_id":"4","last_reported":1751361241,"current_range_meters":12400,"station_id":"ce4bhb92rcd13ifvqen0","pricing_plan_id":"cebpf4jnsgd1na2vs0mg"},{"bike_id":"1710a783-be35-497a-a3f6-09812f1380a7","system_id":"levelo_inurba_marseille","lat":43.23958,"lon":5.36637,"is_reserved":false,"is_disabled":false,"rental_uris":{"android":"levelo://app?vid=1710a783-be35-497a-a3f6-09812f1380a7","ios":"levelo://app?vid=1710a783-be35-497a-a3f6-09812f1380a7"},"vehicle_type_id":"4","last_reported":1751361241,"current_range_meters":12400,"station_id":"ce4bhi12rcd13ifvqfp0","pricing_plan_id":"cebpf4jnsgd1na2vs0mg"},{"bike_id":"ed2afbc9-b02d-4f11-8c34-83924d993220","system_id":"levelo_inurba_marseille","lat":43.27812,"lon":5.40708,"is_reserved":false,"is_disabled":false,"rental_uris":{"android":"levelo://app?vid=ed2afbc9-b02d-4f11-8c34-83924d993220","ios":"levelo://app?vid=ed2afbc9-b02d-4f11-8c34-83924d993220"},"vehicle_type_id":"4","last_reported":1751361241,"current_range_meters":12400,"station_id":"ce4bhnh2rcd13ifvqgtg","pricing_plan_id":"cebpf4jnsgd1na2vs0mg"},{"bike_id":"d5da5bd9-7c2a-48e5-92aa-fa21076cad13","system_id":"levelo_inurba_marseille","lat":43.21193,"lon":5.35078,"is_reserved":false,"is_disabled":false,"rental_uris":{"android":"levelo://app?vid=d5da5bd9-7c2a-48e5-92aa-fa21076cad13","ios":"levelo://app?vid=d5da5bd9-7c2a-48e5-92aa-fa21076cad13"},"vehicle_type_id":"4","last_reported":1751361241,"current_range_meters":12400,"station_id":"st_cvj6sg6p6f1abm77japg","pricing_plan_id":"cebpf4jnsgd1na2vs0mg"},{"bike_id":"750f5cfa-157e-4240-9a5f-3afe50c900ac","system_id":"levelo_inurba_marseille","lat":43.25694,"lon":5.41864,"is_reserved":false,"is_disabled":false,"rental_uris":{"android":"levelo://app?vid=750f5cfa-157e-4240-9a5f-3afe50c900ac","ios":"levelo://app?vid=750f5cfa-157e-4240-9a5f-3afe50c900ac"},"vehicle_type_id":"4","last_reported":1751361241,"current_range_meters":12800,"station_id":"","pricing_plan_id":"cebpf4jnsgd1na2vs0mg"},{"bike_id":"8140f50c-9c53-4bc4-a26e-5fe77cd24bfb","system_id":"levelo_inurba_marseille","lat":43.29373,"lon":5.3783,"is_reserved":false,"is_disabled":false,"rental_uris":{"android":"levelo://app?vid=8140f50c-9c53-4bc4-a26e-5fe77cd24bfb","ios":"levelo://app?vid=8140f50c-9c53-4bc4-a26e-5fe77cd24bfb"},"vehicle_type_id":"4","last_reported":1751361241,"current_range_meters":12800,"station_id":"ce4bgjh2rcd13ifvqbf0","pricing_plan_id":"cebpf4jnsgd1na2vs0mg"},{"bike_id":"3cec9174-8f3e-47f1-ac82-52eb0de2708a","system_id":"levelo_inurba_marseille","lat":43.28488,"lon":5.38411,"is_reserved":false,"is_disabled":false,"rental_uris":{"android":"levelo://app?vid=3cec9174-8f3e-47f1-ac82-52eb0de2708a","ios":"levelo://app?vid=3cec9174-8f3e-47f1-ac82-52eb0de2708a"},"vehicle_type_id":"4","last_reported":1751361241,"current_range_meters":12800,"station_id":"ce4bh512rcd13ifvqe3g","pricing_plan_id":"cebpf4jnsgd1na2vs0mg"},{"bike_id":"15358e6a-9d14-4451-9f1a-fa4058ced19a","system_id":"levelo_inurba_marseille","lat":43.286621,"lon":5.363502,"is_reserved":false,"is_disabled":false,"rental_uris":{"android":"levelo://app?vid=15358e6a-9d14-4451-9f1a-fa4058ced19a","ios":"levelo://app?vid=15358e6a-9d14-4451-9f1a-fa4058ced19a"},"vehicle_type_id":"4","last_reported":1751361241,"current_range_meters":12800,"station_id":"ce4bhah2rcd13ifvqej0","pricing_plan_id":"cebpf4jnsgd1na2vs0mg"},{"bike_id":"340e7f4e-c2fd-4718-8b68-4478e04c794f","system_id":"levelo_inurba_marseille","lat":43.23959,"lon":5.3663,"is_reserved":false,"is_disabled":false,"rental_uris":{"android":"levelo://app?vid=340e7f4e-c2fd-4718-8b68-4478e04c794f","ios":"levelo://app?vid=340e7f4e-c2fd-4718-8b68-4478e04c794f"},"vehicle_type_id":"4","last_reported":1751361241,"current_range_meters":12800,"station_id":"ce4bhi12rcd13ifvqfp0","pricing_plan_id":"cebpf4jnsgd1na2vs0mg"},{"bike_id":"81f992a9-cae1-4d6e-9c4c-cba00bcbe721","system_id":"levelo_inurba_marseille","lat":43.25734,"lon":5.41085,"is_reserved":false,"is_disabled":false,"rental_uris":{"android":"levelo://app?vid=81f992a9-cae1-4d6e-9c4c-cba00bcbe721","ios":"levelo://app?vid=81f992a9-cae1-4d6e-9c4c-cba00bcbe721"},"vehicle_type_id":"4","last_reported":1751361241,"current_range_meters":12800,"station_id":"ce4bhkp2rcd13ifvqgd0","pricing_plan_id":"cebpf4jnsgd1na2vs0mg"},{"bike_id":"2d829a58-57d8-4d78-9090-5c6399e13c17","system_id":"levelo_inurba_marseille","lat":43.32038,"lon":5.41561,"is_reserved":false,"is_disabled":false,"rental_uris":{"android":"levelo://app?vid=2d829a58-57d8-4d78-9090-5c6399e13c17","ios":"levelo://app?vid=2d829a58-57d8-4d78-9090-5c6399e13c17"},"vehicle_type_id":"4","last_reported":1751361241,"current_range_meters":12800,"station_id":"ce4bhq92rcd13ifvqhkg","pricing_plan_id":"cebpf4jnsgd1na2vs0mg"},{"bike_id":"5d49b593-d273-4ffb-b599-67f493fa3afc","system_id":"levelo_inurba_marseille","lat":43.30887,"lon":5.39653,"is_reserved":false,"is_disabled":false,"rental_uris":{"android":"levelo://app?vid=5d49b593-d273-4ffb-b599-67f493fa3afc","ios":"levelo://app?vid=5d49b593-d273-4ffb-b599-67f493fa3afc"},"vehicle_type_id":"4","last_reported":1751361241,"current_range_meters":13600,"station_id":"ce4bh012rcd13ifvqcv0","pricing_plan_id":"cebpf4jnsgd1na2vs0mg"},{"bike_id":"06bfa2b4-088b-4575-946c-65e7f36a7cc4","system_id":"levelo_inurba_marseille","lat":43.32657,"lon":5.40994,"is_reserved":false,"is_disabled":false,"rental_uris":{"android":"levelo://app?vid=06bfa2b4-088b-4575-946c-65e7f36a7cc4","ios":"levelo://app?vid=06bfa2b4-088b-4575-946c-65e7f36a7cc4"},"vehicle_type_id":"4","last_reported":1751361241,"current_range_meters":13600,"station_id":"ce4bhpp2rcd13ifvqhgg","pricing_plan_id":"cebpf4jnsgd1na2vs0mg"},{"bike_id":"b28aa0a0-791c-4a08-9a16-c7bf6ea0ed5a","system_id":"levelo_inurba_marseille","lat":43.22504,"lon":5.3478,"is_reserved":false,"is_disabled":false,"rental_uris":{"android":"levelo://app?vid=b28aa0a0-791c-4a08-9a16-c7bf6ea0ed5a","ios":"levelo://app?vid=b28aa0a0-791c-4a08-9a16-c7bf6ea0ed5a"},"vehicle_type_id":"4","last_reported":1751361241,"current_range_meters":13600,"station_id":"st_cvj5dfep6f1abm77gieg","pricing_plan_id":"cebpf4jnsgd1na2vs0mg"},{"bike_id":"e552832c-7ca2-4106-b0f9-92bbabda27d1","system_id":"levelo_inurba_marseille","lat":43.21185,"lon":5.35053,"is_reserved":false,"is_disabled":false,"rental_uris":{"android":"levelo://app?vid=e552832c-7ca2-4106-b0f9-92bbabda27d1","ios":"levelo://app?vid=e552832c-7ca2-4106-b0f9-92bbabda27d1"},"vehicle_type_id":"4","last_reported":1751361241,"current_range_meters":13600,"station_id":"st_cvj6sg6p6f1abm77japg","pricing_plan_id":"cebpf4jnsgd1na2vs0mg"},{"bike_id":"b13877a6-4825-4d82-b46b-67fa8ad66c5d","system_id":"levelo_inurba_marseille","lat":43.211934,"lon":5.350657,"is_reserved":false,"is_disabled":false,"rental_uris":{"android":"levelo://app?vid=b13877a6-4825-4d82-b46b-67fa8ad66c5d","ios":"levelo://app?vid=b13877a6-4825-4d82-b46b-67fa8ad66c5d"},"vehicle_type_id":"4","last_reported":1751361241,"current_range_meters":13600,"station_id":"st_cvj6sg6p6f1abm77japg","pricing_plan_id":"cebpf4jnsgd1na2vs0mg"},{"bike_id":"33461de0-d592-40a0-bd9c-2f0a070b145d","system_id":"levelo_inurba_marseille","lat":43.29527,"lon":5.37511,"is_reserved":false,"is_disabled":false,"rental_uris":{"android":"levelo://app?vid=33461de0-d592-40a0-bd9c-2f0a070b145d","ios":"levelo://app?vid=33461de0-d592-40a0-bd9c-2f0a070b145d"},"vehicle_type_id":"4","last_reported":1751361241,"current_range_meters":14000,"station_id":"ce4bgkp2rcd13ifvqbmg","pricing_plan_id":"cebpf4jnsgd1na2vs0mg"},{"bike_id":"08c7183b-0123-4184-8959-114f95c21588","system_id":"levelo_inurba_marseille","lat":43.30192,"lon":5.36627,"is_reserved":false,"is_disabled":false,"rental_uris":{"android":"levelo://app?vid=08c7183b-0123-4184-8959-114f95c21588","ios":"levelo://app?vid=08c7183b-0123-4184-8959-114f95c21588"},"vehicle_type_id":"4","last_reported":1751361241,"current_range_meters":14000,"station_id":"ce4bgrh2rcd13ifvqc8g","pricing_plan_id":"cebpf4jnsgd1na2vs0mg"},{"bike_id":"c2b72fe0-bae6-4c7b-ad48-9e771b203dc8","system_id":"levelo_inurba_marseille","lat":43.313537,"lon":5.384633,"is_reserved":false,"is_disabled":false,"rental_uris":{"android":"levelo://app?vid=c2b72fe0-bae6-4c7b-ad48-9e771b203dc8","ios":"levelo://app?vid=c2b72fe0-bae6-4c7b-ad48-9e771b203dc8"},"vehicle_type_id":"4","last_reported":1751361241,"current_range_meters":14000,"station_id":"ce4bgt92rcd13ifvqcf0","pricing_plan_id":"cebpf4jnsgd1na2vs0mg"},{"bike_id":"701b1a5c-0557-4f70-b631-a9f928cbfc00","system_id":"levelo_inurba_marseille","lat":43.30434,"lon":5.39748,"is_reserved":false,"is_disabled":false,"rental_uris":{"android":"levelo://app?vid=701b1a5c-0557-4f70-b631-a9f928cbfc00","ios":"levelo://app?vid=701b1a5c-0557-4f70-b631-a9f928cbfc00"},"vehicle_type_id":"4","last_reported":1751361241,"current_range_meters":14000,"station_id":"ce4bh092rcd13ifvqd20","pricing_plan_id":"cebpf4jnsgd1na2vs0mg"},{"bike_id":"9f877e88-74ba-4318-9426-df364b50cd55","system_id":"levelo_inurba_marseille","lat":43.28661,"lon":5.3634,"is_reserved":false,"is_disabled":false,"rental_uris":{"android":"levelo://app?vid=9f877e88-74ba-4318-9426-df364b50cd55","ios":"levelo://app?vid=9f877e88-74ba-4318-9426-df364b50cd55"},"vehicle_type_id":"4","last_reported":1751361241,"current_range_meters":14000,"station_id":"ce4bhah2rcd13ifvqej0","pricing_plan_id":"cebpf4jnsgd1na2vs0mg"},{"bike_id":"7f42552d-0467-429b-b79b-b7861587ad11","system_id":"levelo_inurba_marseille","lat":43.27327,"lon":5.39116,"is_reserved":false,"is_disabled":false,"rental_uris":{"android":"levelo://app?vid=7f42552d-0467-429b-b79b-b7861587ad11","ios":"levelo://app?vid=7f42552d-0467-429b-b79b-b7861587ad11"},"vehicle_type_id":"4","last_reported":1751361241,"current_range_meters":14000,"station_id":"ce4bhgp2rcd13ifvqfe0","pricing_plan_id":"cebpf4jnsgd1na2vs0mg"},{"bike_id":"efee7f8c-95a9-489d-aa0e-fc8f747e287a","system_id":"levelo_inurba_marseille","lat":43.25713,"lon":5.41087,"is_reserved":false,"is_disabled":false,"rental_uris":{"android":"levelo://app?vid=efee7f8c-95a9-489d-aa0e-fc8f747e287a","ios":"levelo://app?vid=efee7f8c-95a9-489d-aa0e-fc8f747e287a"},"vehicle_type_id":"4","last_reported":1751361241,"current_range_meters":14000,"station_id":"ce4bhkp2rcd13ifvqgd0","pricing_plan_id":"cebpf4jnsgd1na2vs0mg"},{"bike_id":"3c9dbbf3-6bd6-44f0-b0d4-bef99072566a","system_id":"levelo_inurba_marseille","lat":43.26211,"lon":5.40438,"is_reserved":false,"is_disabled":false,"rental_uris":{"android":"levelo://app?vid=3c9dbbf3-6bd6-44f0-b0d4-bef99072566a","ios":"levelo://app?vid=3c9dbbf3-6bd6-44f0-b0d4-bef99072566a"},"vehicle_type_id":"4","last_reported":1751361241,"current_range_meters":14000,"station_id":"ce4bhmh2rcd13ifvqgmg","pricing_plan_id":"cebpf4jnsgd1na2vs0mg"},{"bike_id":"f4c9e005-e232-4b3d-8825-bc763a0ec065","system_id":"levelo_inurba_marseille","lat":43.24178,"lon":5.397331,"is_reserved":false,"is_disabled":false,"rental_uris":{"android":"levelo://app?vid=f4c9e005-e232-4b3d-8825-bc763a0ec065","ios":"levelo://app?vid=f4c9e005-e232-4b3d-8825-bc763a0ec065"},"vehicle_type_id":"4","last_reported":1751361241,"current_range_meters":14000,"station_id":"ce4bhn12rcd13ifvqgpg","pricing_plan_id":"cebpf4jnsgd1na2vs0mg"},{"bike_id":"5631c7ea-fb56-4ee9-8df0-6e0aa2f0ff30","system_id":"levelo_inurba_marseille","lat":43.24174,"lon":5.3639,"is_reserved":false,"is_disabled":false,"rental_uris":{"android":"levelo://app?vid=5631c7ea-fb56-4ee9-8df0-6e0aa2f0ff30","ios":"levelo://app?vid=5631c7ea-fb56-4ee9-8df0-6e0aa2f0ff30"},"vehicle_type_id":"4","last_reported":1751361241,"current_range_meters":14000,"station_id":"cpo36qri1sfpv3e86is0","pricing_plan_id":"cebpf4jnsgd1na2vs0mg"},{"bike_id":"859b6cf6-411c-4a6e-b2f1-d5866da46ff7","system_id":"levelo_inurba_marseille","lat":43.24166,"lon":5.36398,"is_reserved":false,"is_disabled":false,"rental_uris":{"android":"levelo://app?vid=859b6cf6-411c-4a6e-b2f1-d5866da46ff7","ios":"levelo://app?vid=859b6cf6-411c-4a6e-b2f1-d5866da46ff7"},"vehicle_type_id":"4","last_reported":1751361241,"current_range_meters":14000,"station_id":"cpo36qri1sfpv3e86is0","pricing_plan_id":"cebpf4jnsgd1na2vs0mg"},{"bike_id":"e1b3ade4-4952-4644-a7de-ea587df0ba4a","system_id":"levelo_inurba_marseille","lat":43.24166,"lon":5.36391,"is_reserved":false,"is_disabled":false,"rental_uris":{"android":"levelo://app?vid=e1b3ade4-4952-4644-a7de-ea587df0ba4a","ios":"levelo://app?vid=e1b3ade4-4952-4644-a7de-ea587df0ba4a"},"vehicle_type_id":"4","last_reported":1751361241,"current_range_meters":14000,"station_id":"cpo36qri1sfpv3e86is0","pricing_plan_id":"cebpf4jnsgd1na2vs0mg"},{"bike_id":"85828be4-d4e0-4db4-ad15-f253475fa361","system_id":"levelo_inurba_marseille","lat":43.337444,"lon":5.374475,"is_reserved":false,"is_disabled":false,"rental_uris":{"android":"levelo://app?vid=85828be4-d4e0-4db4-ad15-f253475fa361","ios":"levelo://app?vid=85828be4-d4e0-4db4-ad15-f253475fa361"},"vehicle_type_id":"4","last_reported":1751361241,"current_range_meters":14400,"station_id":"","pricing_plan_id":"cebpf4jnsgd1na2vs0mg"},{"bike_id":"4291ce9d-99c2-4210-aab6-0efa43ef3377","system_id":"levelo_inurba_marseille","lat":43.29349,"lon":5.37835,"is_reserved":false,"is_disabled":false,"rental_uris":{"android":"levelo://app?vid=4291ce9d-99c2-4210-aab6-0efa43ef3377","ios":"levelo://app?vid=4291ce9d-99c2-4210-aab6-0efa43ef3377"},"vehicle_type_id":"4","last_reported":1751361241,"current_range_meters":14400,"station_id":"ce4bgjh2rcd13ifvqbf0","pricing_plan_id":"cebpf4jnsgd1na2vs0mg"},{"bike_id":"73338e7b-b362-4b83-acce-c07888d4ff20","system_id":"levelo_inurba_marseille","lat":43.30537,"lon":5.36541,"is_reserved":false,"is_disabled":false,"rental_uris":{"android":"levelo://app?vid=73338e7b-b362-4b83-acce-c07888d4ff20","ios":"levelo://app?vid=73338e7b-b362-4b83-acce-c07888d4ff20"},"vehicle_type_id":"4","last_reported":1751361241,"current_range_meters":14400,"station_id":"ce4bgs12rcd13ifvqcag","pricing_plan_id":"cebpf4jnsgd1na2vs0mg"},{"bike_id":"b29badb6-5868-485d-b6dd-943af0d6a88b","system_id":"levelo_inurba_marseille","lat":43.290375,"lon":5.37568,"is_reserved":false,"is_disabled":false,"rental_uris":{"android":"levelo://app?vid=b29badb6-5868-485d-b6dd-943af0d6a88b","ios":"levelo://app?vid=b29badb6-5868-485d-b6dd-943af0d6a88b"},"vehicle_type_id":"4","last_reported":1751361241,"current_range_meters":14400,"station_id":"ce4bh692rcd13ifvqe90","pricing_plan_id":"cebpf4jnsgd1na2vs0mg"},{"bike_id":"842e0f00-84b8-4d74-95bf-9b27418bee68","system_id":"levelo_inurba_marseille","lat":43.29553,"lon":5.42287,"is_reserved":false,"is_disabled":false,"rental_uris":{"android":"levelo://app?vid=842e0f00-84b8-4d74-95bf-9b27418bee68","ios":"levelo://app?vid=842e0f00-84b8-4d74-95bf-9b27418bee68"},"vehicle_type_id":"4","last_reported":1751361241,"current_range_meters":14400,"station_id":"ce4bhph2rcd13ifvqhdg","pricing_plan_id":"cebpf4jnsgd1na2vs0mg"},{"bike_id":"27c77a81-e237-479a-84d3-496b6e8c0dc7","system_id":"levelo_inurba_marseille","lat":43.21196,"lon":5.35066,"is_reserved":false,"is_disabled":false,"rental_uris":{"android":"levelo://app?vid=27c77a81-e237-479a-84d3-496b6e8c0dc7","ios":"levelo://app?vid=27c77a81-e237-479a-84d3-496b6e8c0dc7"},"vehicle_type_id":"4","last_reported":1751361241,"current_range_meters":14400,"station_id":"st_cvj6sg6p6f1abm77japg","pricing_plan_id":"cebpf4jnsgd1na2vs0mg"},{"bike_id":"f603f3aa-5bf7-4a19-a8a1-b47909f854c7","system_id":"levelo_inurba_marseille","lat":43.21169,"lon":5.35091,"is_reserved":false,"is_disabled":false,"rental_uris":{"android":"levelo://app?vid=f603f3aa-5bf7-4a19-a8a1-b47909f854c7","ios":"levelo://app?vid=f603f3aa-5bf7-4a19-a8a1-b47909f854c7"},"vehicle_type_id":"4","last_reported":1751361241,"current_range_meters":14400,"station_id":"st_cvj6sg6p6f1abm77japg","pricing_plan_id":"cebpf4jnsgd1na2vs0mg"},{"bike_id":"8a49c684-fbd2-4746-a27a-972e09907610","system_id":"levelo_inurba_marseille","lat":43.29975,"lon":5.38492,"is_reserved":false,"is_disabled":false,"rental_uris":{"android":"levelo://app?vid=8a49c684-fbd2-4746-a27a-972e09907610","ios":"levelo://app?vid=8a49c684-fbd2-4746-a27a-972e09907610"},"vehicle_type_id":"4","last_reported":1751361241,"current_range_meters":14800,"station_id":"ce4bgj92rcd13ifvqbd0","pricing_plan_id":"cebpf4jnsgd1na2vs0mg"},{"bike_id":"53cf1b8c-d56f-41f7-98a6-e7b4a07c29bb","system_id":"levelo_inurba_marseille","lat":43.23159,"lon":5.43717,"is_reserved":false,"is_disabled":false,"rental_uris":{"android":"levelo://app?vid=53cf1b8c-d56f-41f7-98a6-e7b4a07c29bb","ios":"levelo://app?vid=53cf1b8c-d56f-41f7-98a6-e7b4a07c29bb"},"vehicle_type_id":"4","last_reported":1751361241,"current_range_meters":14800,"station_id":"ce4bhmp2rcd13ifvqgog","pricing_plan_id":"cebpf4jnsgd1na2vs0mg"},{"bike_id":"f7a6e636-cea0-4a5a-8210-c9baa8f6f21d","system_id":"levelo_inurba_marseille","lat":43.24191,"lon":5.39729,"is_reserved":false,"is_disabled":false,"rental_uris":{"android":"levelo://app?vid=f7a6e636-cea0-4a5a-8210-c9baa8f6f21d","ios":"levelo://app?vid=f7a6e636-cea0-4a5a-8210-c9baa8f6f21d"},"vehicle_type_id":"4","last_reported":1751361241,"current_range_meters":14800,"station_id":"ce4bhn12rcd13ifvqgpg","pricing_plan_id":"cebpf4jnsgd1na2vs0mg"},{"bike_id":"14709f60-cd85-4492-a61c-53ba1af5b349","system_id":"levelo_inurba_marseille","lat":43.28443,"lon":5.39202,"is_reserved":false,"is_disabled":false,"rental_uris":{"android":"levelo://app?vid=14709f60-cd85-4492-a61c-53ba1af5b349","ios":"levelo://app?vid=14709f60-cd85-4492-a61c-53ba1af5b349"},"vehicle_type_id":"4","last_reported":1751361241,"current_range_meters":14800,"station_id":"ce4bhoh2rcd13ifvqh5g","pricing_plan_id":"cebpf4jnsgd1na2vs0mg"},{"bike_id":"28225780-6c00-4435-8cde-b501bd568f8b","system_id":"levelo_inurba_marseille","lat":43.217507,"lon":5.345972,"is_reserved":false,"is_disabled":false,"rental_uris":{"android":"levelo://app?vid=28225780-6c00-4435-8cde-b501bd568f8b","ios":"levelo://app?vid=28225780-6c00-4435-8cde-b501bd568f8b"},"vehicle_type_id":"4","last_reported":1751361241,"current_range_meters":14800,"station_id":"st_cvj6r9ubvosntc0bgbag","pricing_plan_id":"cebpf4jnsgd1na2vs0mg"},{"bike_id":"3f50d751-6bdc-4e25-aea7-b356d8579196","system_id":"levelo_inurba_marseille","lat":43.3053,"lon":5.36523,"is_reserved":false,"is_disabled":false,"rental_uris":{"android":"levelo://app?vid=3f50d751-6bdc-4e25-aea7-b356d8579196","ios":"levelo://app?vid=3f50d751-6bdc-4e25-aea7-b356d8579196"},"vehicle_type_id":"4","last_reported":1751361241,"current_range_meters":15200,"station_id":"ce4bgs12rcd13ifvqcag","pricing_plan_id":"cebpf4jnsgd1na2vs0mg"},{"bike_id":"fd2e4073-ea6d-48c9-b30f-fd2911500fd8","system_id":"levelo_inurba_marseille","lat":43.249939,"lon":5.3894,"is_reserved":false,"is_disabled":false,"rental_uris":{"android":"levelo://app?vid=fd2e4073-ea6d-48c9-b30f-fd2911500fd8","ios":"levelo://app?vid=fd2e4073-ea6d-48c9-b30f-fd2911500fd8"},"vehicle_type_id":"4","last_reported":1751361241,"current_range_meters":15200,"station_id":"ce4bhgp2rcd13ifvqfd0","pricing_plan_id":"cebpf4jnsgd1na2vs0mg"},{"bike_id":"0a5a6df3-791d-4e1e-9f7c-cb1cf013a1c7","system_id":"levelo_inurba_marseille","lat":43.257209,"lon":5.411126,"is_reserved":false,"is_disabled":false,"rental_uris":{"android":"levelo://app?vid=0a5a6df3-791d-4e1e-9f7c-cb1cf013a1c7","ios":"levelo://app?vid=0a5a6df3-791d-4e1e-9f7c-cb1cf013a1c7"},"vehicle_type_id":"4","last_reported":1751361241,"current_range_meters":15200,"station_id":"ce4bhkp2rcd13ifvqgd0","pricing_plan_id":"cebpf4jnsgd1na2vs0mg"},{"bike_id":"f69e556c-b060-49cc-89b9-c899b2f4835c","system_id":"levelo_inurba_marseille","lat":43.3372,"lon":5.39184,"is_reserved":false,"is_disabled":false,"rental_uris":{"android":"levelo://app?vid=f69e556c-b060-49cc-89b9-c899b2f4835c","ios":"levelo://app?vid=f69e556c-b060-49cc-89b9-c899b2f4835c"},"vehicle_type_id":"4","last_reported":1751361241,"current_range_meters":15200,"station_id":"ce4bhr92rcd13ifvqhsg","pricing_plan_id":"cebpf4jnsgd1na2vs0mg"},{"bike_id":"82b0e5f2-5f76-48ef-8286-b14d6da9dee9","system_id":"levelo_inurba_marseille","lat":43.22926,"lon":5.35376,"is_reserved":false,"is_disabled":false,"rental_uris":{"android":"levelo://app?vid=82b0e5f2-5f76-48ef-8286-b14d6da9dee9","ios":"levelo://app?vid=82b0e5f2-5f76-48ef-8286-b14d6da9dee9"},"vehicle_type_id":"4","last_reported":1751361241,"current_range_meters":15200,"station_id":"cpo3532slgdg3j2ikp40","pricing_plan_id":"cebpf4jnsgd1na2vs0mg"},{"bike_id":"c0228700-5312-4a39-89af-ec53a5d729c5","system_id":"levelo_inurba_marseille","lat":43.283,"lon":5.43235,"is_reserved":false,"is_disabled":false,"rental_uris":{"android":"levelo://app?vid=c0228700-5312-4a39-89af-ec53a5d729c5","ios":"levelo://app?vid=c0228700-5312-4a39-89af-ec53a5d729c5"},"vehicle_type_id":"4","last_reported":1751361241,"current_range_meters":16000,"station_id":"","pricing_plan_id":"cebpf4jnsgd1na2vs0mg"},{"bike_id":"c61036a9-1a66-4480-8bd4-cd2fb585b287","system_id":"levelo_inurba_marseille","lat":43.27001,"lon":5.40522,"is_reserved":false,"is_disabled":false,"rental_uris":{"android":"levelo://app?vid=c61036a9-1a66-4480-8bd4-cd2fb585b287","ios":"levelo://app?vid=c61036a9-1a66-4480-8bd4-cd2fb585b287"},"vehicle_type_id":"4","last_reported":1751361241,"current_range_meters":16000,"station_id":"","pricing_plan_id":"cebpf4jnsgd1na2vs0mg"},{"bike_id":"02d96211-ba6b-464c-9e1d-de58a8e99c4f","system_id":"levelo_inurba_marseille","lat":43.29564,"lon":5.37524,"is_reserved":false,"is_disabled":false,"rental_uris":{"android":"levelo://app?vid=02d96211-ba6b-464c-9e1d-de58a8e99c4f","ios":"levelo://app?vid=02d96211-ba6b-464c-9e1d-de58a8e99c4f"},"vehicle_type_id":"4","last_reported":1751361241,"current_range_meters":16000,"station_id":"ce4bgh92rcd13ifvqb50","pricing_plan_id":"cebpf4jnsgd1na2vs0mg"},{"bike_id":"855ca964-5abf-4311-8086-44fe54406fea","system_id":"levelo_inurba_marseille","lat":43.30913,"lon":5.368616,"is_reserved":false,"is_disabled":false,"rental_uris":{"android":"levelo://app?vid=855ca964-5abf-4311-8086-44fe54406fea","ios":"levelo://app?vid=855ca964-5abf-4311-8086-44fe54406fea"},"vehicle_type_id":"4","last_reported":1751361241,"current_range_meters":16000,"station_id":"ce4bgn92rcd13ifvqbvg","pricing_plan_id":"cebpf4jnsgd1na2vs0mg"},{"bike_id":"a200c52d-52ca-4407-8763-32e86835ad11","system_id":"levelo_inurba_marseille","lat":43.29614,"lon":5.37154,"is_reserved":false,"is_disabled":false,"rental_uris":{"android":"levelo://app?vid=a200c52d-52ca-4407-8763-32e86835ad11","ios":"levelo://app?vid=a200c52d-52ca-4407-8763-32e86835ad11"},"vehicle_type_id":"4","last_reported":1751361241,"current_range_meters":16000,"station_id":"ce4bgnh2rcd13ifvqc0g","pricing_plan_id":"cebpf4jnsgd1na2vs0mg"},{"bike_id":"59eb614f-e2e3-4139-88fa-56741636669c","system_id":"levelo_inurba_marseille","lat":43.30193,"lon":5.36612,"is_reserved":false,"is_disabled":false,"rental_uris":{"android":"levelo://app?vid=59eb614f-e2e3-4139-88fa-56741636669c","ios":"levelo://app?vid=59eb614f-e2e3-4139-88fa-56741636669c"},"vehicle_type_id":"4","last_reported":1751361241,"current_range_meters":16000,"station_id":"ce4bgrh2rcd13ifvqc8g","pricing_plan_id":"cebpf4jnsgd1na2vs0mg"},{"bike_id":"64c35025-af08-442f-b59a-e22a65c55d07","system_id":"levelo_inurba_marseille","lat":43.30538,"lon":5.36513,"is_reserved":false,"is_disabled":false,"rental_uris":{"android":"levelo://app?vid=64c35025-af08-442f-b59a-e22a65c55d07","ios":"levelo://app?vid=64c35025-af08-442f-b59a-e22a65c55d07"},"vehicle_type_id":"4","last_reported":1751361241,"current_range_meters":16000,"station_id":"ce4bgs12rcd13ifvqcag","pricing_plan_id":"cebpf4jnsgd1na2vs0mg"},{"bike_id":"d67ecffe-4463-4724-8c61-0e1fce7455b0","system_id":"levelo_inurba_marseille","lat":43.32384,"lon":5.38879,"is_reserved":false,"is_disabled":false,"rental_uris":{"android":"levelo://app?vid=d67ecffe-4463-4724-8c61-0e1fce7455b0","ios":"levelo://app?vid=d67ecffe-4463-4724-8c61-0e1fce7455b0"},"vehicle_type_id":"4","last_reported":1751361241,"current_range_meters":16000,"station_id":"ce4bhqp2rcd13ifvqhog","pricing_plan_id":"cebpf4jnsgd1na2vs0mg"},{"bike_id":"5767b9e4-81ec-40bf-bccc-db289ba35b4e","system_id":"levelo_inurba_marseille","lat":43.273879,"lon":5.412288,"is_reserved":false,"is_disabled":false,"rental_uris":{"android":"levelo://app?vid=5767b9e4-81ec-40bf-bccc-db289ba35b4e","ios":"levelo://app?vid=5767b9e4-81ec-40bf-bccc-db289ba35b4e"},"vehicle_type_id":"4","last_reported":1751361241,"current_range_meters":16400,"station_id":"","pricing_plan_id":"cebpf4jnsgd1na2vs0mg"},{"bike_id":"1a9b6667-5827-4b76-8a53-e74f759cf260","system_id":"levelo_inurba_marseille","lat":43.29546,"lon":5.37498,"is_reserved":false,"is_disabled":false,"rental_uris":{"android":"levelo://app?vid=1a9b6667-5827-4b76-8a53-e74f759cf260","ios":"levelo://app?vid=1a9b6667-5827-4b76-8a53-e74f759cf260"},"vehicle_type_id":"4","last_reported":1751361241,"current_range_meters":16400,"station_id":"ce4bgkp2rcd13ifvqbmg","pricing_plan_id":"cebpf4jnsgd1na2vs0mg"},{"bike_id":"5a46c106-c1db-430d-9568-5f4bdc0c0dc4","system_id":"levelo_inurba_marseille","lat":43.29843,"lon":5.36281,"is_reserved":false,"is_disabled":false,"rental_uris":{"android":"levelo://app?vid=5a46c106-c1db-430d-9568-5f4bdc0c0dc4","ios":"levelo://app?vid=5a46c106-c1db-430d-9568-5f4bdc0c0dc4"},"vehicle_type_id":"4","last_reported":1751361241,"current_range_meters":16400,"station_id":"ce4bgpp2rcd13ifvqc3g","pricing_plan_id":"cebpf4jnsgd1na2vs0mg"},{"bike_id":"d5e29662-d2e9-4832-a213-0ec6117585b2","system_id":"levelo_inurba_marseille","lat":43.29023,"lon":5.356,"is_reserved":false,"is_disabled":false,"rental_uris":{"android":"levelo://app?vid=d5e29662-d2e9-4832-a213-0ec6117585b2","ios":"levelo://app?vid=d5e29662-d2e9-4832-a213-0ec6117585b2"},"vehicle_type_id":"4","last_reported":1751361241,"current_range_meters":16400,"station_id":"ce4bhb92rcd13ifvqen0","pricing_plan_id":"cebpf4jnsgd1na2vs0mg"},{"bike_id":"1caca1fc-4911-4e37-9aeb-383803780faf","system_id":"levelo_inurba_marseille","lat":43.321129,"lon":5.367751,"is_reserved":false,"is_disabled":false,"rental_uris":{"android":"levelo://app?vid=1caca1fc-4911-4e37-9aeb-383803780faf","ios":"levelo://app?vid=1caca1fc-4911-4e37-9aeb-383803780faf"},"vehicle_type_id":"4","last_reported":1751361241,"current_range_meters":16400,"station_id":"ce4bhrh2rcd13ifvqhug","pricing_plan_id":"cebpf4jnsgd1na2vs0mg"},{"bike_id":"947c0abc-8a28-4463-9d63-6c7d61393962","system_id":"levelo_inurba_marseille","lat":43.24171,"lon":5.36386,"is_reserved":false,"is_disabled":false,"rental_uris":{"android":"levelo://app?vid=947c0abc-8a28-4463-9d63-6c7d61393962","ios":"levelo://app?vid=947c0abc-8a28-4463-9d63-6c7d61393962"},"vehicle_type_id":"4","last_reported":1751361241,"current_range_meters":16400,"station_id":"cpo36qri1sfpv3e86is0","pricing_plan_id":"cebpf4jnsgd1na2vs0mg"},{"bike_id":"86fa6ce7-8cbe-47ff-b5d3-c2b4938fd05c","system_id":"levelo_inurba_marseille","lat":43.211957,"lon":5.350656,"is_reserved":false,"is_disabled":false,"rental_uris":{"android":"levelo://app?vid=86fa6ce7-8cbe-47ff-b5d3-c2b4938fd05c","ios":"levelo://app?vid=86fa6ce7-8cbe-47ff-b5d3-c2b4938fd05c"},"vehicle_type_id":"4","last_reported":1751361241,"current_range_meters":16800,"station_id":"","pricing_plan_id":"cebpf4jnsgd1na2vs0mg"},{"bike_id":"d1e3dd75-3f07-457e-9774-7169f669ae53","system_id":"levelo_inurba_marseille","lat":43.29568,"lon":5.37504,"is_reserved":false,"is_disabled":false,"rental_uris":{"android":"levelo://app?vid=d1e3dd75-3f07-457e-9774-7169f669ae53","ios":"levelo://app?vid=d1e3dd75-3f07-457e-9774-7169f669ae53"},"vehicle_type_id":"4","last_reported":1751361241,"current_range_meters":16800,"station_id":"ce4bgh92rcd13ifvqb50","pricing_plan_id":"cebpf4jnsgd1na2vs0mg"},{"bike_id":"2363c5d1-a60c-42bd-bc96-621664263701","system_id":"levelo_inurba_marseille","lat":43.29772,"lon":5.37102,"is_reserved":false,"is_disabled":false,"rental_uris":{"android":"levelo://app?vid=2363c5d1-a60c-42bd-bc96-621664263701","ios":"levelo://app?vid=2363c5d1-a60c-42bd-bc96-621664263701"},"vehicle_type_id":"4","last_reported":1751361241,"current_range_meters":16800,"station_id":"ce4bgop2rcd13ifvqc1g","pricing_plan_id":"cebpf4jnsgd1na2vs0mg"},{"bike_id":"32c14760-28ef-4181-97d0-6af7a7c1d581","system_id":"levelo_inurba_marseille","lat":43.29608,"lon":5.36704,"is_reserved":false,"is_disabled":false,"rental_uris":{"android":"levelo://app?vid=32c14760-28ef-4181-97d0-6af7a7c1d581","ios":"levelo://app?vid=32c14760-28ef-4181-97d0-6af7a7c1d581"},"vehicle_type_id":"4","last_reported":1751361241,"current_range_meters":16800,"station_id":"ce4bgph2rcd13ifvqc2g","pricing_plan_id":"cebpf4jnsgd1na2vs0mg"},{"bike_id":"f4436878-e863-4428-9768-6690f2ff4709","system_id":"levelo_inurba_marseille","lat":43.29033,"lon":5.38631,"is_reserved":false,"is_disabled":false,"rental_uris":{"android":"levelo://app?vid=f4436878-e863-4428-9768-6690f2ff4709","ios":"levelo://app?vid=f4436878-e863-4428-9768-6690f2ff4709"},"vehicle_type_id":"4","last_reported":1751361241,"current_range_meters":16800,"station_id":"ce4bh4p2rcd13ifvqe0g","pricing_plan_id":"cebpf4jnsgd1na2vs0mg"},{"bike_id":"c0d50b65-823b-479d-8c02-2bfab2a49008","system_id":"levelo_inurba_marseille","lat":43.25496,"lon":5.37648,"is_reserved":false,"is_disabled":false,"rental_uris":{"android":"levelo://app?vid=c0d50b65-823b-479d-8c02-2bfab2a49008","ios":"levelo://app?vid=c0d50b65-823b-479d-8c02-2bfab2a49008"},"vehicle_type_id":"4","last_reported":1751361241,"current_range_meters":16800,"station_id":"ce4bhh12rcd13ifvqff0","pricing_plan_id":"cebpf4jnsgd1na2vs0mg"},{"bike_id":"d511c51f-8937-4216-bba4-5a0c28873330","system_id":"levelo_inurba_marseille","lat":43.24173,"lon":5.397026,"is_reserved":false,"is_disabled":false,"rental_uris":{"android":"levelo://app?vid=d511c51f-8937-4216-bba4-5a0c28873330","ios":"levelo://app?vid=d511c51f-8937-4216-bba4-5a0c28873330"},"vehicle_type_id":"4","last_reported":1751361241,"current_range_meters":16800,"station_id":"ce4bhn12rcd13ifvqgpg","pricing_plan_id":"cebpf4jnsgd1na2vs0mg"},{"bike_id":"6b2ddcec-816f-42cf-b55b-a185c165d31c","system_id":"levelo_inurba_marseille","lat":43.24164,"lon":5.36389,"is_reserved":false,"is_disabled":false,"rental_uris":{"android":"levelo://app?vid=6b2ddcec-816f-42cf-b55b-a185c165d31c","ios":"levelo://app?vid=6b2ddcec-816f-42cf-b55b-a185c165d31c"},"vehicle_type_id":"4","last_reported":1751361241,"current_range_meters":16800,"station_id":"cpo36qri1sfpv3e86is0","pricing_plan_id":"cebpf4jnsgd1na2vs0mg"},{"bike_id":"3a33ebd2-49a2-4e39-92d7-f09d7dd08672","system_id":"levelo_inurba_marseille","lat":43.211923,"lon":5.350774,"is_reserved":false,"is_disabled":false,"rental_uris":{"android":"levelo://app?vid=3a33ebd2-49a2-4e39-92d7-f09d7dd08672","ios":"levelo://app?vid=3a33ebd2-49a2-4e39-92d7-f09d7dd08672"},"vehicle_type_id":"4","last_reported":1751361241,"current_range_meters":16800,"station_id":"st_cvj6sg6p6f1abm77japg","pricing_plan_id":"cebpf4jnsgd1na2vs0mg"},{"bike_id":"60aed5b4-04a7-4930-a9c4-5540cdbcfb8b","system_id":"levelo_inurba_marseille","lat":43.33741,"lon":5.37419,"is_reserved":false,"is_disabled":false,"rental_uris":{"android":"levelo://app?vid=60aed5b4-04a7-4930-a9c4-5540cdbcfb8b","ios":"levelo://app?vid=60aed5b4-04a7-4930-a9c4-5540cdbcfb8b"},"vehicle_type_id":"4","last_reported":1751361241,"current_range_meters":17200,"station_id":"","pricing_plan_id":"cebpf4jnsgd1na2vs0mg"},{"bike_id":"28f82bb1-42fa-42fe-b413-9a2b9de2728a","system_id":"levelo_inurba_marseille","lat":43.29255,"lon":5.376206,"is_reserved":false,"is_disabled":false,"rental_uris":{"android":"levelo://app?vid=28f82bb1-42fa-42fe-b413-9a2b9de2728a","ios":"levelo://app?vid=28f82bb1-42fa-42fe-b413-9a2b9de2728a"},"vehicle_type_id":"4","last_reported":1751361241,"current_range_meters":17200,"station_id":"ce4bgi12rcd13ifvqb80","pricing_plan_id":"cebpf4jnsgd1na2vs0mg"},{"bike_id":"8011242b-b22a-4212-8e12-0778dd8c22ce","system_id":"levelo_inurba_marseille","lat":43.27939,"lon":5.41051,"is_reserved":false,"is_disabled":false,"rental_uris":{"android":"levelo://app?vid=8011242b-b22a-4212-8e12-0778dd8c22ce","ios":"levelo://app?vid=8011242b-b22a-4212-8e12-0778dd8c22ce"},"vehicle_type_id":"4","last_reported":1751361241,"current_range_meters":17200,"station_id":"ce4bhnp2rcd13ifvqh0g","pricing_plan_id":"cebpf4jnsgd1na2vs0mg"},{"bike_id":"36d83600-3670-4035-a5e5-3c9d57af76a0","system_id":"levelo_inurba_marseille","lat":43.24166,"lon":5.3639,"is_reserved":false,"is_disabled":false,"rental_uris":{"android":"levelo://app?vid=36d83600-3670-4035-a5e5-3c9d57af76a0","ios":"levelo://app?vid=36d83600-3670-4035-a5e5-3c9d57af76a0"},"vehicle_type_id":"4","last_reported":1751361241,"current_range_meters":17200,"station_id":"cpo36qri1sfpv3e86is0","pricing_plan_id":"cebpf4jnsgd1na2vs0mg"},{"bike_id":"2bc25ca4-c28c-4335-a0aa-b132b20800b4","system_id":"levelo_inurba_marseille","lat":43.29416,"lon":5.37411,"is_reserved":false,"is_disabled":false,"rental_uris":{"android":"levelo://app?vid=2bc25ca4-c28c-4335-a0aa-b132b20800b4","ios":"levelo://app?vid=2bc25ca4-c28c-4335-a0aa-b132b20800b4"},"vehicle_type_id":"4","last_reported":1751361241,"current_range_meters":17600,"station_id":"","pricing_plan_id":"cebpf4jnsgd1na2vs0mg"},{"bike_id":"bf298058-65b6-4b91-8920-c460456682b3","system_id":"levelo_inurba_marseille","lat":43.30513,"lon":5.36501,"is_reserved":false,"is_disabled":false,"rental_uris":{"android":"levelo://app?vid=bf298058-65b6-4b91-8920-c460456682b3","ios":"levelo://app?vid=bf298058-65b6-4b91-8920-c460456682b3"},"vehicle_type_id":"4","last_reported":1751361241,"current_range_meters":17600,"station_id":"","pricing_plan_id":"cebpf4jnsgd1na2vs0mg"},{"bike_id":"539ed013-9e80-448a-999f-a7819f54786a","system_id":"levelo_inurba_marseille","lat":43.290309,"lon":5.375668,"is_reserved":false,"is_disabled":false,"rental_uris":{"android":"levelo://app?vid=539ed013-9e80-448a-999f-a7819f54786a","ios":"levelo://app?vid=539ed013-9e80-448a-999f-a7819f54786a"},"vehicle_type_id":"4","last_reported":1751361241,"current_range_meters":17600,"station_id":"","pricing_plan_id":"cebpf4jnsgd1na2vs0mg"},{"bike_id":"a0cef316-ad95-4855-8f78-a31341a2b90e","system_id":"levelo_inurba_marseille","lat":43.31292,"lon":5.37748,"is_reserved":false,"is_disabled":false,"rental_uris":{"android":"levelo://app?vid=a0cef316-ad95-4855-8f78-a31341a2b90e","ios":"levelo://app?vid=a0cef316-ad95-4855-8f78-a31341a2b90e"},"vehicle_type_id":"4","last_reported":1751361241,"current_range_meters":17600,"station_id":"","pricing_plan_id":"cebpf4jnsgd1na2vs0mg"},{"bike_id":"fc7e8355-f532-43ec-9e4c-45a0bcaf9efb","system_id":"levelo_inurba_marseille","lat":43.23152,"lon":5.4371,"is_reserved":false,"is_disabled":false,"rental_uris":{"android":"levelo://app?vid=fc7e8355-f532-43ec-9e4c-45a0bcaf9efb","ios":"levelo://app?vid=fc7e8355-f532-43ec-9e4c-45a0bcaf9efb"},"vehicle_type_id":"4","last_reported":1751361241,"current_range_meters":17600,"station_id":"ce4bhmp2rcd13ifvqgog","pricing_plan_id":"cebpf4jnsgd1na2vs0mg"},{"bike_id":"6237f4e8-2651-457b-a795-5f0b58a1dcbb","system_id":"levelo_inurba_marseille","lat":43.32372,"lon":5.3886,"is_reserved":false,"is_disabled":false,"rental_uris":{"android":"levelo://app?vid=6237f4e8-2651-457b-a795-5f0b58a1dcbb","ios":"levelo://app?vid=6237f4e8-2651-457b-a795-5f0b58a1dcbb"},"vehicle_type_id":"4","last_reported":1751361241,"current_range_meters":17600,"station_id":"ce4bhqp2rcd13ifvqhog","pricing_plan_id":"cebpf4jnsgd1na2vs0mg"},{"bike_id":"d2fe2280-9dda-4f08-822f-aa45767453bf","system_id":"levelo_inurba_marseille","lat":43.31384,"lon":5.36735,"is_reserved":false,"is_disabled":false,"rental_uris":{"android":"levelo://app?vid=d2fe2280-9dda-4f08-822f-aa45767453bf","ios":"levelo://app?vid=d2fe2280-9dda-4f08-822f-aa45767453bf"},"vehicle_type_id":"4","last_reported":1751361241,"current_range_meters":18000,"station_id":"ce4bgr92rcd13ifvqc6g","pricing_plan_id":"cebpf4jnsgd1na2vs0mg"},{"bike_id":"1f59bdbb-a40b-41ac-8504-fd51b368eb70","system_id":"levelo_inurba_marseille","lat":43.30535,"lon":5.36691,"is_reserved":false,"is_disabled":false,"rental_uris":{"android":"levelo://app?vid=1f59bdbb-a40b-41ac-8504-fd51b368eb70","ios":"levelo://app?vid=1f59bdbb-a40b-41ac-8504-fd51b368eb70"},"vehicle_type_id":"4","last_reported":1751361241,"current_range_meters":18000,"station_id":"ce4bgrp2rcd13ifvqc9g","pricing_plan_id":"cebpf4jnsgd1na2vs0mg"},{"bike_id":"1b1d2a55-7937-4e4f-8e1d-0772a66cddb7","system_id":"levelo_inurba_marseille","lat":43.28618,"lon":5.35096,"is_reserved":false,"is_disabled":false,"rental_uris":{"android":"levelo://app?vid=1b1d2a55-7937-4e4f-8e1d-0772a66cddb7","ios":"levelo://app?vid=1b1d2a55-7937-4e4f-8e1d-0772a66cddb7"},"vehicle_type_id":"4","last_reported":1751361241,"current_range_meters":18000,"station_id":"ce4bhch2rcd13ifvqeug","pricing_plan_id":"cebpf4jnsgd1na2vs0mg"},{"bike_id":"46e17245-bde5-4c06-867d-535eeab35e9d","system_id":"levelo_inurba_marseille","lat":43.24999,"lon":5.38923,"is_reserved":false,"is_disabled":false,"rental_uris":{"android":"levelo://app?vid=46e17245-bde5-4c06-867d-535eeab35e9d","ios":"levelo://app?vid=46e17245-bde5-4c06-867d-535eeab35e9d"},"vehicle_type_id":"4","last_reported":1751361241,"current_range_meters":18000,"station_id":"ce4bhgp2rcd13ifvqfd0","pricing_plan_id":"cebpf4jnsgd1na2vs0mg"},{"bike_id":"5bb1234a-d156-492b-914a-af62429009de","system_id":"levelo_inurba_marseille","lat":43.23174,"lon":5.39989,"is_reserved":false,"is_disabled":false,"rental_uris":{"android":"levelo://app?vid=5bb1234a-d156-492b-914a-af62429009de","ios":"levelo://app?vid=5bb1234a-d156-492b-914a-af62429009de"},"vehicle_type_id":"4","last_reported":1751361241,"current_range_meters":18000,"station_id":"ce4bhn12rcd13ifvqgqg","pricing_plan_id":"cebpf4jnsgd1na2vs0mg"},{"bike_id":"8233db61-1d36-41a5-a985-c98b6a5f0fb4","system_id":"levelo_inurba_marseille","lat":43.21759,"lon":5.34598,"is_reserved":false,"is_disabled":false,"rental_uris":{"android":"levelo://app?vid=8233db61-1d36-41a5-a985-c98b6a5f0fb4","ios":"levelo://app?vid=8233db61-1d36-41a5-a985-c98b6a5f0fb4"},"vehicle_type_id":"4","last_reported":1751361241,"current_range_meters":18000,"station_id":"st_cvj6r9ubvosntc0bgbag","pricing_plan_id":"cebpf4jnsgd1na2vs0mg"},{"bike_id":"0c1b4f74-5294-4b59-932d-b742ce647d9e","system_id":"levelo_inurba_marseille","lat":43.21179,"lon":5.35071,"is_reserved":false,"is_disabled":false,"rental_uris":{"android":"levelo://app?vid=0c1b4f74-5294-4b59-932d-b742ce647d9e","ios":"levelo://app?vid=0c1b4f74-5294-4b59-932d-b742ce647d9e"},"vehicle_type_id":"4","last_reported":1751361241,"current_range_meters":18000,"station_id":"st_cvj6sg6p6f1abm77japg","pricing_plan_id":"cebpf4jnsgd1na2vs0mg"},{"bike_id":"8a74f5cd-9efa-4362-bea7-a32db4dcc85c","system_id":"levelo_inurba_marseille","lat":43.21187,"lon":5.35063,"is_reserved":false,"is_disabled":false,"rental_uris":{"android":"levelo://app?vid=8a74f5cd-9efa-4362-bea7-a32db4dcc85c","ios":"levelo://app?vid=8a74f5cd-9efa-4362-bea7-a32db4dcc85c"},"vehicle_type_id":"4","last_reported":1751361241,"current_range_meters":18000,"station_id":"st_cvj6sg6p6f1abm77japg","pricing_plan_id":"cebpf4jnsgd1na2vs0mg"},{"bike_id":"49d6cdd2-de1a-4037-8e83-22ca7bcfc325","system_id":"levelo_inurba_marseille","lat":43.25499,"lon":5.37492,"is_reserved":false,"is_disabled":false,"rental_uris":{"android":"levelo://app?vid=49d6cdd2-de1a-4037-8e83-22ca7bcfc325","ios":"levelo://app?vid=49d6cdd2-de1a-4037-8e83-22ca7bcfc325"},"vehicle_type_id":"4","last_reported":1751361241,"current_range_meters":18800,"station_id":"","pricing_plan_id":"cebpf4jnsgd1na2vs0mg"},{"bike_id":"73564509-e45c-444c-ad26-374e8e93b499","system_id":"levelo_inurba_marseille","lat":43.30587,"lon":5.37227,"is_reserved":false,"is_disabled":false,"rental_uris":{"android":"levelo://app?vid=73564509-e45c-444c-ad26-374e8e93b499","ios":"levelo://app?vid=73564509-e45c-444c-ad26-374e8e93b499"},"vehicle_type_id":"4","last_reported":1751361241,"current_range_meters":18800,"station_id":"ce4bgqh2rcd13ifvqc4g","pricing_plan_id":"cebpf4jnsgd1na2vs0mg"},{"bike_id":"839c9730-1223-4497-817b-b57fef86bd7f","system_id":"levelo_inurba_marseille","lat":43.28615,"lon":5.35104,"is_reserved":false,"is_disabled":false,"rental_uris":{"android":"levelo://app?vid=839c9730-1223-4497-817b-b57fef86bd7f","ios":"levelo://app?vid=839c9730-1223-4497-817b-b57fef86bd7f"},"vehicle_type_id":"4","last_reported":1751361241,"current_range_meters":18800,"station_id":"ce4bhch2rcd13ifvqeug","pricing_plan_id":"cebpf4jnsgd1na2vs0mg"},{"bike_id":"c2cc3873-3136-4ba7-984d-6514f2a6bcc2","system_id":"levelo_inurba_marseille","lat":43.26692,"lon":5.3827,"is_reserved":false,"is_disabled":false,"rental_uris":{"android":"levelo://app?vid=c2cc3873-3136-4ba7-984d-6514f2a6bcc2","ios":"levelo://app?vid=c2cc3873-3136-4ba7-984d-6514f2a6bcc2"},"vehicle_type_id":"4","last_reported":1751361241,"current_range_meters":18800,"station_id":"ce4bhg92rcd13ifvqf90","pricing_plan_id":"cebpf4jnsgd1na2vs0mg"},{"bike_id":"9129c1cb-171c-44e3-a25d-267650254388","system_id":"levelo_inurba_marseille","lat":43.24166,"lon":5.39723,"is_reserved":false,"is_disabled":false,"rental_uris":{"android":"levelo://app?vid=9129c1cb-171c-44e3-a25d-267650254388","ios":"levelo://app?vid=9129c1cb-171c-44e3-a25d-267650254388"},"vehicle_type_id":"4","last_reported":1751361241,"current_range_meters":18800,"station_id":"ce4bhn12rcd13ifvqgpg","pricing_plan_id":"cebpf4jnsgd1na2vs0mg"},{"bike_id":"ee59a3bc-1922-4fad-a57d-24ffc09128e2","system_id":"levelo_inurba_marseille","lat":43.32068,"lon":5.41533,"is_reserved":false,"is_disabled":false,"rental_uris":{"android":"levelo://app?vid=ee59a3bc-1922-4fad-a57d-24ffc09128e2","ios":"levelo://app?vid=ee59a3bc-1922-4fad-a57d-24ffc09128e2"},"vehicle_type_id":"4","last_reported":1751361241,"current_range_meters":18800,"station_id":"ce4bhq92rcd13ifvqhkg","pricing_plan_id":"cebpf4jnsgd1na2vs0mg"},{"bike_id":"fdcc33b3-b27b-4fd9-90cb-c9421efe9db6","system_id":"levelo_inurba_marseille","lat":43.27811,"lon":5.41447,"is_reserved":false,"is_disabled":false,"rental_uris":{"android":"levelo://app?vid=fdcc33b3-b27b-4fd9-90cb-c9421efe9db6","ios":"levelo://app?vid=fdcc33b3-b27b-4fd9-90cb-c9421efe9db6"},"vehicle_type_id":"4","last_reported":1751361241,"current_range_meters":19200,"station_id":"","pricing_plan_id":"cebpf4jnsgd1na2vs0mg"},{"bike_id":"afb78327-cc2c-423c-9e7b-9e6a58647879","system_id":"levelo_inurba_marseille","lat":43.33682,"lon":5.392266,"is_reserved":false,"is_disabled":false,"rental_uris":{"android":"levelo://app?vid=afb78327-cc2c-423c-9e7b-9e6a58647879","ios":"levelo://app?vid=afb78327-cc2c-423c-9e7b-9e6a58647879"},"vehicle_type_id":"4","last_reported":1751361241,"current_range_meters":19200,"station_id":"","pricing_plan_id":"cebpf4jnsgd1na2vs0mg"},{"bike_id":"f00e3044-9bd1-48b5-b342-151af21b34fa","system_id":"levelo_inurba_marseille","lat":43.29991,"lon":5.37413,"is_reserved":false,"is_disabled":false,"rental_uris":{"android":"levelo://app?vid=f00e3044-9bd1-48b5-b342-151af21b34fa","ios":"levelo://app?vid=f00e3044-9bd1-48b5-b342-151af21b34fa"},"vehicle_type_id":"4","last_reported":1751361241,"current_range_meters":19200,"station_id":"","pricing_plan_id":"cebpf4jnsgd1na2vs0mg"},{"bike_id":"6da4182c-8c0c-4568-89a5-7da87f8cdf62","system_id":"levelo_inurba_marseille","lat":43.31252,"lon":5.36827,"is_reserved":false,"is_disabled":false,"rental_uris":{"android":"levelo://app?vid=6da4182c-8c0c-4568-89a5-7da87f8cdf62","ios":"levelo://app?vid=6da4182c-8c0c-4568-89a5-7da87f8cdf62"},"vehicle_type_id":"4","last_reported":1751361241,"current_range_meters":19200,"station_id":"ce4bgl92rcd13ifvqbq0","pricing_plan_id":"cebpf4jnsgd1na2vs0mg"},{"bike_id":"d70c368a-4bcc-43c7-b42a-26fcf98bda09","system_id":"levelo_inurba_marseille","lat":43.29921,"lon":5.3654,"is_reserved":false,"is_disabled":false,"rental_uris":{"android":"levelo://app?vid=d70c368a-4bcc-43c7-b42a-26fcf98bda09","ios":"levelo://app?vid=d70c368a-4bcc-43c7-b42a-26fcf98bda09"},"vehicle_type_id":"4","last_reported":1751361241,"current_range_meters":19200,"station_id":"ce4bgm92rcd13ifvqbr0","pricing_plan_id":"cebpf4jnsgd1na2vs0mg"},{"bike_id":"8b90ef18-13e8-4441-b1c5-b55de6a43ef3","system_id":"levelo_inurba_marseille","lat":43.25002,"lon":5.3892,"is_reserved":false,"is_disabled":false,"rental_uris":{"android":"levelo://app?vid=8b90ef18-13e8-4441-b1c5-b55de6a43ef3","ios":"levelo://app?vid=8b90ef18-13e8-4441-b1c5-b55de6a43ef3"},"vehicle_type_id":"4","last_reported":1751361241,"current_range_meters":19200,"station_id":"ce4bhgp2rcd13ifvqfd0","pricing_plan_id":"cebpf4jnsgd1na2vs0mg"},{"bike_id":"3d74e5f4-31d5-4cf6-8f8b-7919ddea00d0","system_id":"levelo_inurba_marseille","lat":43.24374,"lon":5.37062,"is_reserved":false,"is_disabled":false,"rental_uris":{"android":"levelo://app?vid=3d74e5f4-31d5-4cf6-8f8b-7919ddea00d0","ios":"levelo://app?vid=3d74e5f4-31d5-4cf6-8f8b-7919ddea00d0"},"vehicle_type_id":"4","last_reported":1751361241,"current_range_meters":19200,"station_id":"ce4bhhh2rcd13ifvqfk0","pricing_plan_id":"cebpf4jnsgd1na2vs0mg"},{"bike_id":"af3f315d-83be-47f7-88c2-e7026b9fe418","system_id":"levelo_inurba_marseille","lat":43.317195,"lon":5.390042,"is_reserved":false,"is_disabled":false,"rental_uris":{"android":"levelo://app?vid=af3f315d-83be-47f7-88c2-e7026b9fe418","ios":"levelo://app?vid=af3f315d-83be-47f7-88c2-e7026b9fe418"},"vehicle_type_id":"4","last_reported":1751361241,"current_range_meters":19200,"station_id":"ce4bhqp2rcd13ifvqhng","pricing_plan_id":"cebpf4jnsgd1na2vs0mg"},{"bike_id":"34c1f271-445e-4382-9172-52190bc6a97c","system_id":"levelo_inurba_marseille","lat":43.32107,"lon":5.36764,"is_reserved":false,"is_disabled":false,"rental_uris":{"android":"levelo://app?vid=34c1f271-445e-4382-9172-52190bc6a97c","ios":"levelo://app?vid=34c1f271-445e-4382-9172-52190bc6a97c"},"vehicle_type_id":"4","last_reported":1751361241,"current_range_meters":19200,"station_id":"ce4bhrh2rcd13ifvqhug","pricing_plan_id":"cebpf4jnsgd1na2vs0mg"},{"bike_id":"d0f90c24-dd03-411b-9731-55305f76b7c8","system_id":"levelo_inurba_marseille","lat":43.211958,"lon":5.350712,"is_reserved":false,"is_disabled":false,"rental_uris":{"android":"levelo://app?vid=d0f90c24-dd03-411b-9731-55305f76b7c8","ios":"levelo://app?vid=d0f90c24-dd03-411b-9731-55305f76b7c8"},"vehicle_type_id":"4","last_reported":1751361241,"current_range_meters":19200,"station_id":"st_cvj6sg6p6f1abm77japg","pricing_plan_id":"cebpf4jnsgd1na2vs0mg"},{"bike_id":"1e819c9f-b15e-4fb3-9d36-42728b7c5953","system_id":"levelo_inurba_marseille","lat":43.295202,"lon":5.37497,"is_reserved":false,"is_disabled":false,"rental_uris":{"android":"levelo://app?vid=1e819c9f-b15e-4fb3-9d36-42728b7c5953","ios":"levelo://app?vid=1e819c9f-b15e-4fb3-9d36-42728b7c5953"},"vehicle_type_id":"4","last_reported":1751361241,"current_range_meters":19600,"station_id":"","pricing_plan_id":"cebpf4jnsgd1na2vs0mg"},{"bike_id":"20e15240-cfce-4a5a-8127-e63995db2958","system_id":"levelo_inurba_marseille","lat":43.289426,"lon":5.396082,"is_reserved":false,"is_disabled":false,"rental_uris":{"android":"levelo://app?vid=20e15240-cfce-4a5a-8127-e63995db2958","ios":"levelo://app?vid=20e15240-cfce-4a5a-8127-e63995db2958"},"vehicle_type_id":"4","last_reported":1751361241,"current_range_meters":19600,"station_id":"ce4bh3h2rcd13ifvqdn0","pricing_plan_id":"cebpf4jnsgd1na2vs0mg"},{"bike_id":"bfff55ec-c042-41ae-9609-61acc7995c24","system_id":"levelo_inurba_marseille","lat":43.25708,"lon":5.41069,"is_reserved":false,"is_disabled":false,"rental_uris":{"android":"levelo://app?vid=bfff55ec-c042-41ae-9609-61acc7995c24","ios":"levelo://app?vid=bfff55ec-c042-41ae-9609-61acc7995c24"},"vehicle_type_id":"4","last_reported":1751361241,"current_range_meters":19600,"station_id":"ce4bhkp2rcd13ifvqgd0","pricing_plan_id":"cebpf4jnsgd1na2vs0mg"},{"bike_id":"b217d3b3-907c-42b8-90b0-b0bb12a41695","system_id":"levelo_inurba_marseille","lat":43.2418,"lon":5.39706,"is_reserved":false,"is_disabled":false,"rental_uris":{"android":"levelo://app?vid=b217d3b3-907c-42b8-90b0-b0bb12a41695","ios":"levelo://app?vid=b217d3b3-907c-42b8-90b0-b0bb12a41695"},"vehicle_type_id":"4","last_reported":1751361241,"current_range_meters":19600,"station_id":"ce4bhn12rcd13ifvqgpg","pricing_plan_id":"cebpf4jnsgd1na2vs0mg"},{"bike_id":"b372bd48-2230-42a8-8972-1a7632d19aeb","system_id":"levelo_inurba_marseille","lat":43.30911,"lon":5.36839,"is_reserved":false,"is_disabled":false,"rental_uris":{"android":"levelo://app?vid=b372bd48-2230-42a8-8972-1a7632d19aeb","ios":"levelo://app?vid=b372bd48-2230-42a8-8972-1a7632d19aeb"},"vehicle_type_id":"4","last_reported":1751361241,"current_range_meters":20000,"station_id":"","pricing_plan_id":"cebpf4jnsgd1na2vs0mg"},{"bike_id":"b614bf65-872a-4537-9df1-a5d255ae75bb","system_id":"levelo_inurba_marseille","lat":43.30536,"lon":5.36553,"is_reserved":false,"is_disabled":false,"rental_uris":{"android":"levelo://app?vid=b614bf65-872a-4537-9df1-a5d255ae75bb","ios":"levelo://app?vid=b614bf65-872a-4537-9df1-a5d255ae75bb"},"vehicle_type_id":"4","last_reported":1751361241,"current_range_meters":20000,"station_id":"ce4bgs12rcd13ifvqcag","pricing_plan_id":"cebpf4jnsgd1na2vs0mg"},{"bike_id":"7623756d-56c1-4314-aba0-a9debff75eb0","system_id":"levelo_inurba_marseille","lat":43.297924,"lon":5.40402,"is_reserved":false,"is_disabled":false,"rental_uris":{"android":"levelo://app?vid=7623756d-56c1-4314-aba0-a9debff75eb0","ios":"levelo://app?vid=7623756d-56c1-4314-aba0-a9debff75eb0"},"vehicle_type_id":"4","last_reported":1751361241,"current_range_meters":20000,"station_id":"ce4bh112rcd13ifvqd90","pricing_plan_id":"cebpf4jnsgd1na2vs0mg"},{"bike_id":"e4b4641a-1ddd-4245-a016-dd789ec7b5e7","system_id":"levelo_inurba_marseille","lat":43.241785,"lon":5.397241,"is_reserved":false,"is_disabled":false,"rental_uris":{"android":"levelo://app?vid=e4b4641a-1ddd-4245-a016-dd789ec7b5e7","ios":"levelo://app?vid=e4b4641a-1ddd-4245-a016-dd789ec7b5e7"},"vehicle_type_id":"4","last_reported":1751361241,"current_range_meters":20000,"station_id":"ce4bh312rcd13ifvqdk0","pricing_plan_id":"cebpf4jnsgd1na2vs0mg"},{"bike_id":"2c0d7fd3-f14e-4ca1-ae8f-cc19d8db9702","system_id":"levelo_inurba_marseille","lat":43.290253,"lon":5.386415,"is_reserved":false,"is_disabled":false,"rental_uris":{"android":"levelo://app?vid=2c0d7fd3-f14e-4ca1-ae8f-cc19d8db9702","ios":"levelo://app?vid=2c0d7fd3-f14e-4ca1-ae8f-cc19d8db9702"},"vehicle_type_id":"4","last_reported":1751361241,"current_range_meters":20000,"station_id":"ce4bh4p2rcd13ifvqe0g","pricing_plan_id":"cebpf4jnsgd1na2vs0mg"},{"bike_id":"81b9753f-aa28-4513-89a4-3ee72628d38d","system_id":"levelo_inurba_marseille","lat":43.321081,"lon":5.367728,"is_reserved":false,"is_disabled":false,"rental_uris":{"android":"levelo://app?vid=81b9753f-aa28-4513-89a4-3ee72628d38d","ios":"levelo://app?vid=81b9753f-aa28-4513-89a4-3ee72628d38d"},"vehicle_type_id":"4","last_reported":1751361241,"current_range_meters":20000,"station_id":"ce4bhrh2rcd13ifvqhug","pricing_plan_id":"cebpf4jnsgd1na2vs0mg"},{"bike_id":"6a117f79-3945-42c1-aaa9-f01191528115","system_id":"levelo_inurba_marseille","lat":43.324782,"lon":5.365639,"is_reserved":false,"is_disabled":false,"rental_uris":{"android":"levelo://app?vid=6a117f79-3945-42c1-aaa9-f01191528115","ios":"levelo://app?vid=6a117f79-3945-42c1-aaa9-f01191528115"},"vehicle_type_id":"4","last_reported":1751361241,"current_range_meters":20000,"station_id":"ce4bhs12rcd13ifvqhvg","pricing_plan_id":"cebpf4jnsgd1na2vs0mg"},{"bike_id":"dbe6a7d8-6edc-4015-8658-f68eeb46a661","system_id":"levelo_inurba_marseille","lat":43.33574,"lon":5.39865,"is_reserved":false,"is_disabled":false,"rental_uris":{"android":"levelo://app?vid=dbe6a7d8-6edc-4015-8658-f68eeb46a661","ios":"levelo://app?vid=dbe6a7d8-6edc-4015-8658-f68eeb46a661"},"vehicle_type_id":"4","last_reported":1751361241,"current_range_meters":20400,"station_id":"","pricing_plan_id":"cebpf4jnsgd1na2vs0mg"},{"bike_id":"054e39f3-b9be-4efe-9881-92831e7da6f1","system_id":"levelo_inurba_marseille","lat":43.2926,"lon":5.37629,"is_reserved":false,"is_disabled":false,"rental_uris":{"android":"levelo://app?vid=054e39f3-b9be-4efe-9881-92831e7da6f1","ios":"levelo://app?vid=054e39f3-b9be-4efe-9881-92831e7da6f1"},"vehicle_type_id":"4","last_reported":1751361241,"current_range_meters":20400,"station_id":"ce4bgi12rcd13ifvqb80","pricing_plan_id":"cebpf4jnsgd1na2vs0mg"},{"bike_id":"26c76689-dcfc-45c3-b35d-06dc6d113099","system_id":"levelo_inurba_marseille","lat":43.295342,"lon":5.385609,"is_reserved":false,"is_disabled":false,"rental_uris":{"android":"levelo://app?vid=26c76689-dcfc-45c3-b35d-06dc6d113099","ios":"levelo://app?vid=26c76689-dcfc-45c3-b35d-06dc6d113099"},"vehicle_type_id":"4","last_reported":1751361241,"current_range_meters":20400,"station_id":"ce4bgih2rcd13ifvqba0","pricing_plan_id":"cebpf4jnsgd1na2vs0mg"},{"bike_id":"188b3486-fdc2-49c8-96dd-cefcf554fcc5","system_id":"levelo_inurba_marseille","lat":43.29913,"lon":5.37464,"is_reserved":false,"is_disabled":false,"rental_uris":{"android":"levelo://app?vid=188b3486-fdc2-49c8-96dd-cefcf554fcc5","ios":"levelo://app?vid=188b3486-fdc2-49c8-96dd-cefcf554fcc5"},"vehicle_type_id":"4","last_reported":1751361241,"current_range_meters":20400,"station_id":"ce4bgjh2rcd13ifvqbg0","pricing_plan_id":"cebpf4jnsgd1na2vs0mg"},{"bike_id":"033a8065-f405-4810-b238-b2d69b1aa956","system_id":"levelo_inurba_marseille","lat":43.31384,"lon":5.36663,"is_reserved":false,"is_disabled":false,"rental_uris":{"android":"levelo://app?vid=033a8065-f405-4810-b238-b2d69b1aa956","ios":"levelo://app?vid=033a8065-f405-4810-b238-b2d69b1aa956"},"vehicle_type_id":"4","last_reported":1751361241,"current_range_meters":20400,"station_id":"ce4bgr92rcd13ifvqc6g","pricing_plan_id":"cebpf4jnsgd1na2vs0mg"},{"bike_id":"9fbba696-cf47-499d-9f0b-4cae025d20e7","system_id":"levelo_inurba_marseille","lat":43.29976,"lon":5.37168,"is_reserved":false,"is_disabled":false,"rental_uris":{"android":"levelo://app?vid=9fbba696-cf47-499d-9f0b-4cae025d20e7","ios":"levelo://app?vid=9fbba696-cf47-499d-9f0b-4cae025d20e7"},"vehicle_type_id":"4","last_reported":1751361241,"current_range_meters":20400,"station_id":"ce4bgr92rcd13ifvqc7g","pricing_plan_id":"cebpf4jnsgd1na2vs0mg"},{"bike_id":"bb8185af-b7ba-4ab1-8624-a4f4d736bfb7","system_id":"levelo_inurba_marseille","lat":43.30538,"lon":5.36697,"is_reserved":false,"is_disabled":false,"rental_uris":{"android":"levelo://app?vid=bb8185af-b7ba-4ab1-8624-a4f4d736bfb7","ios":"levelo://app?vid=bb8185af-b7ba-4ab1-8624-a4f4d736bfb7"},"vehicle_type_id":"4","last_reported":1751361241,"current_range_meters":20400,"station_id":"ce4bgrp2rcd13ifvqc9g","pricing_plan_id":"cebpf4jnsgd1na2vs0mg"},{"bike_id":"4ab4ef41-0136-4387-8340-6ca6efc57796","system_id":"levelo_inurba_marseille","lat":43.25942,"lon":5.40885,"is_reserved":false,"is_disabled":false,"rental_uris":{"android":"levelo://app?vid=4ab4ef41-0136-4387-8340-6ca6efc57796","ios":"levelo://app?vid=4ab4ef41-0136-4387-8340-6ca6efc57796"},"vehicle_type_id":"4","last_reported":1751361241,"current_range_meters":20400,"station_id":"ce4bhm92rcd13ifvqglg","pricing_plan_id":"cebpf4jnsgd1na2vs0mg"},