{"last_updated":1716048486,"ttl":30,"version":"2.2","data":{"bikes":[{"bike_id":"076a5d6e-5d7b-4657-ab2a-2222df61b975","system_id":"levelo_inurba_marseille","lat":43.312239,"lon":5.368562,"is_reserved":false,"is_disabled":false,"rental_uris":{"android":"levelo://app?vid=076a5d6e-5d7b-4657-ab2a-2222df61b975","ios":"levelo://app?vid=076a5d6e-5d7b-4657-ab2a-2222df61b975"},"vehicle_type_id":"4","last_reported":1716048486,"current_range_meters":800,"station_id":"ce4bgl92rcd13ifvqbq0","pricing_plan_id":"cebpf4jnsgd1na2vs0mg"},{"bike_id":"d996bc77-67cc-4040-a68a-c1364a69bf44","system_id":"levelo_inurba_marseille","lat":43.309076,"lon":5.368465,"is_reserved":false,"is_disabled":false,"rental_uris":{"android":"levelo://app?vid=d996bc77-67cc-4040-a68a-c1364a69bf44","ios":"levelo://app?vid=d996bc77-67cc-4040-a68a-c1364a69bf44"},"vehicle_type_id":"4","last_reported":1716048486,"current_range_meters":14800,"station_id":"ce4bgn92rcd13ifvqbvg","pricing_plan_id":"cebpf4jnsgd1na2vs0mg"},{"bike_id":"afa76748-3f86-4c61-9953-1500464c8d79","system_id":"levelo_inurba_marseille","lat":43.314811,"lon":5.373103,"is_reserved":false,"is_disabled":false,"rental_uris":{"android":"levelo://app?vid=afa76748-3f86-4c61-9953-1500464c8d79","ios":"levelo://app?vid=afa76748-3f86-4c61-9953-1500464c8d79"},"vehicle_type_id":"4","last_reported":1716048486,"current_range_meters":0,"station_id":"ce4bgt12rcd13ifvqcd0","pricing_plan_id":"cebpf4jnsgd1na2vs0mg"},{"bike_id":"33da7ae9-9170-4012-b75c-a85dcb137f63","system_id":"levelo_inurba_marseille","lat":43.31492,"lon":5.37305,"is_reserved":false,"is_disabled":false,"rental_uris":{"android":"levelo://app?vid=33da7ae9-9170-4012-b75c-a85dcb137f63","ios":"levelo://app?vid=33da7ae9-9170-4012-b75c-a85dcb137f63"},"vehicle_type_id":"4","last_reported":1716048486,"current_range_meters":0,"station_id":"ce4bgt12rcd13ifvqcd0","pricing_plan_id":"cebpf4jnsgd1na2vs0mg"},{"bike_id":"3cb01354-3dc6-47e6-9bb0-f132ce646945","system_id":"levelo_inurba_marseille","lat":43.30891,"lon":5.37197,"is_reserved":false,"is_disabled":false,"rental_uris":{"android":"levelo://app?vid=3cb01354-3dc6-47e6-9bb0-f132ce646945","ios":"levelo://app?vid=3cb01354-3dc6-47e6-9bb0-f132ce646945"},"vehicle_type_id":"4","last_reported":1716048486,"current_range_meters":0,"station_id":"ce4bguh2rcd13ifvqckg","pricing_plan_id":"cebpf4jnsgd1na2vs0mg"},{"bike_id":"3ab1b37f-570d-451b-bcd6-dfbf33dc25e3","system_id":"levelo_inurba_marseille","lat":43.30891,"lon":5.37202,"is_reserved":false,"is_disabled":false,"rental_uris":{"android":"levelo://app?vid=3ab1b37f-570d-451b-bcd6-dfbf33dc25e3","ios":"levelo://app?vid=3ab1b37f-570d-451b-bcd6-dfbf33dc25e3"},"vehicle_type_id":"4","last_reported":1716048486,"current_range_meters":0,"station_id":"ce4bguh2rcd13ifvqckg","pricing_plan_id":"cebpf4jnsgd1na2vs0mg"},{"bike_id":"a277fe65-7ca8-46b0-927f-8ef2dae50fa5","system_id":"levelo_inurba_marseille","lat":43.309034,"lon":5.371783,"is_reserved":false,"is_disabled":false,"rental_uris":{"android":"levelo://app?vid=a277fe65-7ca8-46b0-927f-8ef2dae50fa5","ios":"levelo://app?vid=a277fe65-7ca8-46b0-927f-8ef2dae50fa5"},"vehicle_type_id":"4","last_reported":1716048486,"current_range_meters":2400,"station_id":"ce4bguh2rcd13ifvqckg","pricing_plan_id":"cebpf4jnsgd1na2vs0mg"},{"bike_id":"e2ed69ba-1200-4004-9045-de3bd194e2b0","system_id":"levelo_inurba_marseille","lat":43.305712,"lon":5.365641,"is_reserved":false,"is_disabled":false,"rental_uris":{"android":"levelo://app?vid=e2ed69ba-1200-4004-9045-de3bd194e2b0","ios":"levelo://app?vid=e2ed69ba-1200-4004-9045-de3bd194e2b0"},"vehicle_type_id":"4","last_reported":1716048486,"current_range_meters":0,"station_id":"ce4bgs12rcd13ifvqcag","pricing_plan_id":"cebpf4jnsgd1na2vs0mg"},{"bike_id":"76beaf03-b7d3-4c74-bf4b-8b73085b50a2","system_id":"levelo_inurba_marseille","lat":43.305714,"lon":5.365633,"is_reserved":false,"is_disabled":false,"rental_uris":{"android":"levelo://app?vid=76beaf03-b7d3-4c74-bf4b-8b73085b50a2","ios":"levelo://app?vid=76beaf03-b7d3-4c74-bf4b-8b73085b50a2"},"vehicle_type_id":"4","last_reported":1716048486,"current_range_meters":18000,"station_id":"ce4bgs12rcd13ifvqcag","pricing_plan_id":"cebpf4jnsgd1na2vs0mg"},{"bike_id":"af72d185-fa29-47e7-b7a1-9f57cb27f6a3","system_id":"levelo_inurba_marseille","lat":43.305714,"lon":5.365633,"is_reserved":false,"is_disabled":false,"rental_uris":{"android":"levelo://app?vid=af72d185-fa29-47e7-b7a1-9f57cb27f6a3","ios":"levelo://app?vid=af72d185-fa29-47e7-b7a1-9f57cb27f6a3"},"vehicle_type_id":"4","last_reported":1716048486,"current_range_meters":9600,"station_id":"ce4bgs12rcd13ifvqcag","pricing_plan_id":"cebpf4jnsgd1na2vs0mg"},{"bike_id":"63444de0-a1bb-4e8e-ae96-7acb218fc4db","system_id":"levelo_inurba_marseille","lat":43.305335,"lon":5.367165,"is_reserved":false,"is_disabled":false,"rental_uris":{"android":"levelo://app?vid=63444de0-a1bb-4e8e-ae96-7acb218fc4db","ios":"levelo://app?vid=63444de0-a1bb-4e8e-ae96-7acb218fc4db"},"vehicle_type_id":"4","last_reported":1716048486,"current_range_meters":0,"station_id":"ce4bgrp2rcd13ifvqc9g","pricing_plan_id":"cebpf4jnsgd1na2vs0mg"},{"bike_id":"5eac3840-55b7-48be-9773-12c96a4a462f","system_id":"levelo_inurba_marseille","lat":43.305989,"lon":5.37225,"is_reserved":false,"is_disabled":false,"rental_uris":{"android":"levelo://app?vid=5eac3840-55b7-48be-9773-12c96a4a462f","ios":"levelo://app?vid=5eac3840-55b7-48be-9773-12c96a4a462f"},"vehicle_type_id":"4","last_reported":1716048486,"current_range_meters":28800,"station_id":"ce4bgqh2rcd13ifvqc4g","pricing_plan_id":"cebpf4jnsgd1na2vs0mg"},{"bike_id":"276cc8b7-0d46-4638-b7ae-504adcafca1c","system_id":"levelo_inurba_marseille","lat":43.311125,"lon":5.377624,"is_reserved":false,"is_disabled":false,"rental_uris":{"android":"levelo://app?vid=276cc8b7-0d46-4638-b7ae-504adcafca1c","ios":"levelo://app?vid=276cc8b7-0d46-4638-b7ae-504adcafca1c"},"vehicle_type_id":"4","last_reported":1716048486,"current_range_meters":0,"station_id":"ce4bgt92rcd13ifvqcg0","pricing_plan_id":"cebpf4jnsgd1na2vs0mg"},{"bike_id":"56e391df-ad74-4df5-9b10-e54249918504","system_id":"levelo_inurba_marseille","lat":43.311154,"lon":5.377594,"is_reserved":false,"is_disabled":false,"rental_uris":{"android":"levelo://app?vid=56e391df-ad74-4df5-9b10-e54249918504","ios":"levelo://app?vid=56e391df-ad74-4df5-9b10-e54249918504"},"vehicle_type_id":"4","last_reported":1716048486,"current_range_meters":18800,"station_id":"ce4bgt92rcd13ifvqcg0","pricing_plan_id":"cebpf4jnsgd1na2vs0mg"},{"bike_id":"dc06ba75-2508-460c-9e18-a4b4c6e727ad","system_id":"levelo_inurba_marseille","lat":43.311125,"lon":5.377624,"is_reserved":false,"is_disabled":false,"rental_uris":{"android":"levelo://app?vid=dc06ba75-2508-460c-9e18-a4b4c6e727ad","ios":"levelo://app?vid=dc06ba75-2508-460c-9e18-a4b4c6e727ad"},"vehicle_type_id":"4","last_reported":1716048486,"current_range_meters":0,"station_id":"ce4bgt92rcd13ifvqcg0","pricing_plan_id":"cebpf4jnsgd1na2vs0mg"},{"bike_id":"1d9aab7d-d014-4d93-aa9d-7b027a8af6fb","system_id":"levelo_inurba_marseille","lat":43.311178,"lon":5.377652,"is_reserved":false,"is_disabled":false,"rental_uris":{"android":"levelo://app?vid=1d9aab7d-d014-4d93-aa9d-7b027a8af6fb","ios":"levelo://app?vid=1d9aab7d-d014-4d93-aa9d-7b027a8af6fb"},"vehicle_type_id":"4","last_reported":1716048486,"current_range_meters":16000,"station_id":"ce4bgt92rcd13ifvqcg0","pricing_plan_id":"cebpf4jnsgd1na2vs0mg"},{"bike_id":"0ed313c3-aed9-46da-a9c1-9d34e3e91d99","system_id":"levelo_inurba_marseille","lat":43.311131,"lon":5.377651,"is_reserved":false,"is_disabled":false,"rental_uris":{"android":"levelo://app?vid=0ed313c3-aed9-46da-a9c1-9d34e3e91d99","ios":"levelo://app?vid=0ed313c3-aed9-46da-a9c1-9d34e3e91d99"},"vehicle_type_id":"4","last_reported":1716048486,"current_range_meters":16000,"station_id":"ce4bgt92rcd13ifvqcg0","pricing_plan_id":"cebpf4jnsgd1na2vs0mg"},{"bike_id":"7aea12f8-e6c0-4971-bcf2-2f28dbd76f39","system_id":"levelo_inurba_marseille","lat":43.311125,"lon":5.377624,"is_reserved":false,"is_disabled":false,"rental_uris":{"android":"levelo://app?vid=7aea12f8-e6c0-4971-bcf2-2f28dbd76f39","ios":"levelo://app?vid=7aea12f8-e6c0-4971-bcf2-2f28dbd76f39"},"vehicle_type_id":"4","last_reported":1716048486,"current_range_meters":0,"station_id":"ce4bgt92rcd13ifvqcg0","pricing_plan_id":"cebpf4jnsgd1na2vs0mg"},{"bike_id":"a8b5465d-0c81-495f-babd-624d35be5264","system_id":"levelo_inurba_marseille","lat":43.31119,"lon":5.37774,"is_reserved":false,"is_disabled":false,"rental_uris":{"android":"levelo://app?vid=a8b5465d-0c81-495f-babd-624d35be5264","ios":"levelo://app?vid=a8b5465d-0c81-495f-babd-624d35be5264"},"vehicle_type_id":"4","last_reported":1716048486,"current_range_meters":6400,"station_id":"ce4bgt92rcd13ifvqcg0","pricing_plan_id":"cebpf4jnsgd1na2vs0mg"},{"bike_id":"6fd9d230-d00a-418f-bf98-6dfec38949fe","system_id":"levelo_inurba_marseille","lat":43.311125,"lon":5.377624,"is_reserved":false,"is_disabled":false,"rental_uris":{"android":"levelo://app?vid=6fd9d230-d00a-418f-bf98-6dfec38949fe","ios":"levelo://app?vid=6fd9d230-d00a-418f-bf98-6dfec38949fe"},"vehicle_type_id":"4","last_reported":1716048486,"current_range_meters":0,"station_id":"ce4bgt92rcd13ifvqcg0","pricing_plan_id":"cebpf4jnsgd1na2vs0mg"},{"bike_id":"3ed6e431-b701-4c5e-85d1-96bb022d06df","system_id":"levelo_inurba_marseille","lat":43.311125,"lon":5.377624,"is_reserved":false,"is_disabled":false,"rental_uris":{"android":"levelo://app?vid=3ed6e431-b701-4c5e-85d1-96bb022d06df","ios":"levelo://app?vid=3ed6e431-b701-4c5e-85d1-96bb022d06df"},"vehicle_type_id":"4","last_reported":1716048486,"current_range_meters":16400,"station_id":"ce4bgt92rcd13ifvqcg0","pricing_plan_id":"cebpf4jnsgd1na2vs0mg"},{"bike_id":"bdc2ea8f-01c0-476c-a0d9-8e809b7c787a","system_id":"levelo_inurba_marseille","lat":43.307945,"lon":5.376487,"is_reserved":false,"is_disabled":false,"rental_uris":{"android":"levelo://app?vid=bdc2ea8f-01c0-476c-a0d9-8e809b7c787a","ios":"levelo://app?vid=bdc2ea8f-01c0-476c-a0d9-8e809b7c787a"},"vehicle_type_id":"4","last_reported":1716048486,"current_range_meters":0,"station_id":"ce4bgv92rcd13ifvqcq0","pricing_plan_id":"cebpf4jnsgd1na2vs0mg"},{"bike_id":"620b2f30-3508-4a2c-89b9-45384c664f66","system_id":"levelo_inurba_marseille","lat":43.307945,"lon":5.376487,"is_reserved":false,"is_disabled":false,"rental_uris":{"android":"levelo://app?vid=620b2f30-3508-4a2c-89b9-45384c664f66","ios":"levelo://app?vid=620b2f30-3508-4a2c-89b9-45384c664f66"},"vehicle_type_id":"4","last_reported":1716048486,"current_range_meters":0,"station_id":"ce4bgv92rcd13ifvqcq0","pricing_plan_id":"cebpf4jnsgd1na2vs0mg"},{"bike_id":"a97284e7-1e3e-4e11-8b58-ec5adfc008f7","system_id":"levelo_inurba_marseille","lat":43.307945,"lon":5.376487,"is_reserved":false,"is_disabled":false,"rental_uris":{"android":"levelo://app?vid=a97284e7-1e3e-4e11-8b58-ec5adfc008f7","ios":"levelo://app?vid=a97284e7-1e3e-4e11-8b58-ec5adfc008f7"},"vehicle_type_id":"4","last_reported":1716048486,"current_range_meters":0,"station_id":"ce4bgv92rcd13ifvqcq0","pricing_plan_id":"cebpf4jnsgd1na2vs0mg"},{"bike_id":"ea9b279a-24d7-4d7f-8ed2-51112ff7ce72","system_id":"levelo_inurba_marseille","lat":43.303046,"lon":5.368981,"is_reserved":false,"is_disabled":false,"rental_uris":{"android":"levelo://app?vid=ea9b279a-24d7-4d7f-8ed2-51112ff7ce72","ios":"levelo://app?vid=ea9b279a-24d7-4d7f-8ed2-51112ff7ce72"},"vehicle_type_id":"4","last_reported":1716048486,"current_range_meters":16000,"station_id":"ce4bgqh2rcd13ifvqc5g","pricing_plan_id":"cebpf4jnsgd1na2vs0mg"},{"bike_id":"f6f31423-742b-466c-9dd8-f8b6eca21fe4","system_id":"levelo_inurba_marseille","lat":43.303046,"lon":5.368981,"is_reserved":false,"is_disabled":false,"rental_uris":{"android":"levelo://app?vid=f6f31423-742b-466c-9dd8-f8b6eca21fe4","ios":"levelo://app?vid=f6f31423-742b-466c-9dd8-f8b6eca21fe4"},"vehicle_type_id":"4","last_reported":1716048486,"current_range_meters":1200,"station_id":"ce4bgqh2rcd13ifvqc5g","pricing_plan_id":"cebpf4jnsgd1na2vs0mg"},{"bike_id":"6c861621-e823-439b-b9cf-b2293d9c9f85","system_id":"levelo_inurba_marseille","lat":43.303046,"lon":5.368981,"is_reserved":false,"is_disabled":false,"rental_uris":{"android":"levelo://app?vid=6c861621-e823-439b-b9cf-b2293d9c9f85","ios":"levelo://app?vid=6c861621-e823-439b-b9cf-b2293d9c9f85"},"vehicle_type_id":"4","last_reported":1716048486,"current_range_meters":12800,"station_id":"ce4bgqh2rcd13ifvqc5g","pricing_plan_id":"cebpf4jnsgd1na2vs0mg"},{"bike_id":"efea153b-a2aa-4051-aff3-e18bda1d0839","system_id":"levelo_inurba_marseille","lat":43.315289,"lon":5.380349,"is_reserved":false,"is_disabled":false,"rental_uris":{"android":"levelo://app?vid=efea153b-a2aa-4051-aff3-e18bda1d0839","ios":"levelo://app?vid=efea153b-a2aa-4051-aff3-e18bda1d0839"},"vehicle_type_id":"4","last_reported":1716048486,"current_range_meters":18800,"station_id":"ce4bhsp2rcd13ifvqi50","pricing_plan_id":"cebpf4jnsgd1na2vs0mg"},{"bike_id":"c27e48ab-8fcb-41da-a115-76ff63fb8aec","system_id":"levelo_inurba_marseille","lat":43.301939,"lon":5.366286,"is_reserved":false,"is_disabled":false,"rental_uris":{"android":"levelo://app?vid=c27e48ab-8fcb-41da-a115-76ff63fb8aec","ios":"levelo://app?vid=c27e48ab-8fcb-41da-a115-76ff63fb8aec"},"vehicle_type_id":"4","last_reported":1716048486,"current_range_meters":0,"station_id":"ce4bgrh2rcd13ifvqc8g","pricing_plan_id":"cebpf4jnsgd1na2vs0mg"},{"bike_id":"2e2a2aaf-bf7e-45c7-8216-d837912beb74","system_id":"levelo_inurba_marseille","lat":43.301939,"lon":5.366286,"is_reserved":false,"is_disabled":false,"rental_uris":{"android":"levelo://app?vid=2e2a2aaf-bf7e-45c7-8216-d837912beb74","ios":"levelo://app?vid=2e2a2aaf-bf7e-45c7-8216-d837912beb74"},"vehicle_type_id":"4","last_reported":1716048486,"current_range_meters":22800,"station_id":"ce4bgrh2rcd13ifvqc8g","pricing_plan_id":"cebpf4jnsgd1na2vs0mg"},{"bike_id":"00b9a893-c425-4ed9-ab7b-d7f4551822a8","system_id":"levelo_inurba_marseille","lat":43.308012,"lon":5.381511,"is_reserved":false,"is_disabled":false,"rental_uris":{"android":"levelo://app?vid=00b9a893-c425-4ed9-ab7b-d7f4551822a8","ios":"levelo://app?vid=00b9a893-c425-4ed9-ab7b-d7f4551822a8"},"vehicle_type_id":"4","last_reported":1716048486,"current_range_meters":0,"station_id":"ce4bgt12rcd13ifvqce0","pricing_plan_id":"cebpf4jnsgd1na2vs0mg"},{"bike_id":"5209b1c1-c57f-4778-9988-584a1fb13298","system_id":"levelo_inurba_marseille","lat":43.308012,"lon":5.381511,"is_reserved":false,"is_disabled":false,"rental_uris":{"android":"levelo://app?vid=5209b1c1-c57f-4778-9988-584a1fb13298","ios":"levelo://app?vid=5209b1c1-c57f-4778-9988-584a1fb13298"},"vehicle_type_id":"4","last_reported":1716048486,"current_range_meters":4400,"station_id":"ce4bgt12rcd13ifvqce0","pricing_plan_id":"cebpf4jnsgd1na2vs0mg"},{"bike_id":"76d6907c-03cc-478b-9b72-3530ccf051f0","system_id":"levelo_inurba_marseille","lat":43.308012,"lon":5.381511,"is_reserved":false,"is_disabled":false,"rental_uris":{"android":"levelo://app?vid=76d6907c-03cc-478b-9b72-3530ccf051f0","ios":"levelo://app?vid=76d6907c-03cc-478b-9b72-3530ccf051f0"},"vehicle_type_id":"4","last_reported":1716048486,"current_range_meters":10000,"station_id":"ce4bgt12rcd13ifvqce0","pricing_plan_id":"cebpf4jnsgd1na2vs0mg"},{"bike_id":"bca9df87-749a-439a-8afc-05383b391b88","system_id":"levelo_inurba_marseille","lat":43.308012,"lon":5.381511,"is_reserved":false,"is_disabled":false,"rental_uris":{"android":"levelo://app?vid=bca9df87-749a-439a-8afc-05383b391b88","ios":"levelo://app?vid=bca9df87-749a-439a-8afc-05383b391b88"},"vehicle_type_id":"4","last_reported":1716048486,"current_range_meters":0,"station_id":"ce4bgt12rcd13ifvqce0","pricing_plan_id":"cebpf4jnsgd1na2vs0mg"},{"bike_id":"21ac7b67-1e7c-49ef-bb40-ed637f2fff0b","system_id":"levelo_inurba_marseille","lat":43.308012,"lon":5.381511,"is_reserved":false,"is_disabled":false,"rental_uris":{"android":"levelo://app?vid=21ac7b67-1e7c-49ef-bb40-ed637f2fff0b","ios":"levelo://app?vid=21ac7b67-1e7c-49ef-bb40-ed637f2fff0b"},"vehicle_type_id":"4","last_reported":1716048486,"current_range_meters":0,"station_id":"ce4bgt12rcd13ifvqce0","pricing_plan_id":"cebpf4jnsgd1na2vs0mg"},{"bike_id":"873751fc-6572-4655-a334-56aeedcadbb0","system_id":"levelo_inurba_marseille","lat":43.308012,"lon":5.381511,"is_reserved":false,"is_disabled":false,"rental_uris":{"android":"levelo://app?vid=873751fc-6572-4655-a334-56aeedcadbb0","ios":"levelo://app?vid=873751fc-6572-4655-a334-56aeedcadbb0"},"vehicle_type_id":"4","last_reported":1716048486,"current_range_meters":21600,"station_id":"ce4bgt12rcd13ifvqce0","pricing_plan_id":"cebpf4jnsgd1na2vs0mg"},{"bike_id":"4ee85a9a-079b-4b6d-a5ba-f65f6fa1fe7c","system_id":"levelo_inurba_marseille","lat":43.324771,"lon":5.36557,"is_reserved":false,"is_disabled":false,"rental_uris":{"android":"levelo://app?vid=4ee85a9a-079b-4b6d-a5ba-f65f6fa1fe7c","ios":"levelo://app?vid=4ee85a9a-079b-4b6d-a5ba-f65f6fa1fe7c"},"vehicle_type_id":"4","last_reported":1716048486,"current_range_meters":4000,"station_id":"ce4bhs12rcd13ifvqhvg","pricing_plan_id":"cebpf4jnsgd1na2vs0mg"},{"bike_id":"a088e7c9-30ef-44bf-9d0d-b391b1f9296a","system_id":"levelo_inurba_marseille","lat":43.324771,"lon":5.36557,"is_reserved":false,"is_disabled":false,"rental_uris":{"android":"levelo://app?vid=a088e7c9-30ef-44bf-9d0d-b391b1f9296a","ios":"levelo://app?vid=a088e7c9-30ef-44bf-9d0d-b391b1f9296a"},"vehicle_type_id":"4","last_reported":1716048486,"current_range_meters":8400,"station_id":"ce4bhs12rcd13ifvqhvg","pricing_plan_id":"cebpf4jnsgd1na2vs0mg"},{"bike_id":"34cabfc5-9eef-4fe8-a57a-267bbca1a0a2","system_id":"levelo_inurba_marseille","lat":43.324771,"lon":5.36557,"is_reserved":false,"is_disabled":false,"rental_uris":{"android":"levelo://app?vid=34cabfc5-9eef-4fe8-a57a-267bbca1a0a2","ios":"levelo://app?vid=34cabfc5-9eef-4fe8-a57a-267bbca1a0a2"},"vehicle_type_id":"4","last_reported":1716048486,"current_range_meters":25600,"station_id":"ce4bhs12rcd13ifvqhvg","pricing_plan_id":"cebpf4jnsgd1na2vs0mg"},{"bike_id":"c7eba9e1-e49c-48b4-8708-4c4fbe0f4fcb","system_id":"levelo_inurba_marseille","lat":43.310804,"lon":5.38359,"is_reserved":false,"is_disabled":false,"rental_uris":{"android":"levelo://app?vid=c7eba9e1-e49c-48b4-8708-4c4fbe0f4fcb","ios":"levelo://app?vid=c7eba9e1-e49c-48b4-8708-4c4fbe0f4fcb"},"vehicle_type_id":"4","last_reported":1716048486,"current_range_meters":22800,"station_id":"ce4bgv92rcd13ifvqcr0","pricing_plan_id":"cebpf4jnsgd1na2vs0mg"},{"bike_id":"72d53596-13e9-4e52-815d-1314a9d5e531","system_id":"levelo_inurba_marseille","lat":43.307521,"lon":5.382073,"is_reserved":false,"is_disabled":false,"rental_uris":{"android":"levelo://app?vid=72d53596-13e9-4e52-815d-1314a9d5e531","ios":"levelo://app?vid=72d53596-13e9-4e52-815d-1314a9d5e531"},"vehicle_type_id":"4","last_reported":1716048486,"current_range_meters":0,"station_id":"ce4bgt12rcd13ifvqce0","pricing_plan_id":"cebpf4jnsgd1na2vs0mg"},{"bike_id":"c453fe0c-55a2-4dcb-9927-3329f22ef365","system_id":"levelo_inurba_marseille","lat":43.310804,"lon":5.38359,"is_reserved":false,"is_disabled":false,"rental_uris":{"android":"levelo://app?vid=c453fe0c-55a2-4dcb-9927-3329f22ef365","ios":"levelo://app?vid=c453fe0c-55a2-4dcb-9927-3329f22ef365"},"vehicle_type_id":"4","last_reported":1716048486,"current_range_meters":21200,"station_id":"ce4bgv92rcd13ifvqcr0","pricing_plan_id":"cebpf4jnsgd1na2vs0mg"},{"bike_id":"aaa562df-101c-495e-9188-63f51fe17479","system_id":"levelo_inurba_marseille","lat":43.30143,"lon":5.37413,"is_reserved":false,"is_disabled":false,"rental_uris":{"android":"levelo://app?vid=aaa562df-101c-495e-9188-63f51fe17479","ios":"levelo://app?vid=aaa562df-101c-495e-9188-63f51fe17479"},"vehicle_type_id":"4","last_reported":1716048486,"current_range_meters":3200,"station_id":"ce4bgs92rcd13ifvqcc0","pricing_plan_id":"cebpf4jnsgd1na2vs0mg"},{"bike_id":"90bee476-048a-4e20-9a5a-e2ff38415c5e","system_id":"levelo_inurba_marseille","lat":43.313571,"lon":5.384829,"is_reserved":false,"is_disabled":false,"rental_uris":{"android":"levelo://app?vid=90bee476-048a-4e20-9a5a-e2ff38415c5e","ios":"levelo://app?vid=90bee476-048a-4e20-9a5a-e2ff38415c5e"},"vehicle_type_id":"4","last_reported":1716048486,"current_range_meters":400,"station_id":"ce4bgt92rcd13ifvqcf0","pricing_plan_id":"cebpf4jnsgd1na2vs0mg"},{"bike_id":"52d81d39-9468-4681-9f34-93fda3d01d5e","system_id":"levelo_inurba_marseille","lat":43.313571,"lon":5.384829,"is_reserved":false,"is_disabled":false,"rental_uris":{"android":"levelo://app?vid=52d81d39-9468-4681-9f34-93fda3d01d5e","ios":"levelo://app?vid=52d81d39-9468-4681-9f34-93fda3d01d5e"},"vehicle_type_id":"4","last_reported":1716048486,"current_range_meters":11200,"station_id":"ce4bgt92rcd13ifvqcf0","pricing_plan_id":"cebpf4jnsgd1na2vs0mg"},{"bike_id":"683f059b-879f-4356-b04a-0f62af15c4bb","system_id":"levelo_inurba_marseille","lat":43.313707,"lon":5.384916,"is_reserved":false,"is_disabled":false,"rental_uris":{"android":"levelo://app?vid=683f059b-879f-4356-b04a-0f62af15c4bb","ios":"levelo://app?vid=683f059b-879f-4356-b04a-0f62af15c4bb"},"vehicle_type_id":"4","last_reported":1716048486,"current_range_meters":0,"station_id":"ce4bgt92rcd13ifvqcf0","pricing_plan_id":"cebpf4jnsgd1na2vs0mg"},{"bike_id":"dd90b2a2-9b3d-42c1-84c7-e3884988752f","system_id":"levelo_inurba_marseille","lat":43.299222,"lon":5.365554,"is_reserved":false,"is_disabled":false,"rental_uris":{"android":"levelo://app?vid=dd90b2a2-9b3d-42c1-84c7-e3884988752f","ios":"levelo://app?vid=dd90b2a2-9b3d-42c1-84c7-e3884988752f"},"vehicle_type_id":"4","last_reported":1716048486,"current_range_meters":18400,"station_id":"ce4bgm92rcd13ifvqbr0","pricing_plan_id":"cebpf4jnsgd1na2vs0mg"},{"bike_id":"67fcd1e6-c1fa-4a8d-9a94-6417433ad319","system_id":"levelo_inurba_marseille","lat":43.299222,"lon":5.365554,"is_reserved":false,"is_disabled":false,"rental_uris":{"android":"levelo://app?vid=67fcd1e6-c1fa-4a8d-9a94-6417433ad319","ios":"levelo://app?vid=67fcd1e6-c1fa-4a8d-9a94-6417433ad319"},"vehicle_type_id":"4","last_reported":1716048486,"current_range_meters":0,"station_id":"ce4bgm92rcd13ifvqbr0","pricing_plan_id":"cebpf4jnsgd1na2vs0mg"},{"bike_id":"52391c96-99b3-4e8f-8422-e2bda74c7dbd","system_id":"levelo_inurba_marseille","lat":43.299724,"lon":5.371829,"is_reserved":false,"is_disabled":false,"rental_uris":{"android":"levelo://app?vid=52391c96-99b3-4e8f-8422-e2bda74c7dbd","ios":"levelo://app?vid=52391c96-99b3-4e8f-8422-e2bda74c7dbd"},"vehicle_type_id":"4","last_reported":1716048486,"current_range_meters":20000,"station_id":"ce4bgr92rcd13ifvqc7g","pricing_plan_id":"cebpf4jnsgd1na2vs0mg"},{"bike_id":"b9f988b5-2737-4dec-b818-4a8820e9ceee","system_id":"levelo_inurba_marseille","lat":43.298726,"lon":5.364761,"is_reserved":false,"is_disabled":false,"rental_uris":{"android":"levelo://app?vid=b9f988b5-2737-4dec-b818-4a8820e9ceee","ios":"levelo://app?vid=b9f988b5-2737-4dec-b818-4a8820e9ceee"},"vehicle_type_id":"4","last_reported":1716048486,"current_range_meters":10400,"station_id":"","pricing_plan_id":"cebpf4jnsgd1na2vs0mg"},{"bike_id":"7e966b91-5f3f-4f7e-91ea-8354f471fa86","system_id":"levelo_inurba_marseille","lat":43.311784,"lon":5.386834,"is_reserved":false,"is_disabled":false,"rental_uris":{"android":"levelo://app?vid=7e966b91-5f3f-4f7e-91ea-8354f471fa86","ios":"levelo://app?vid=7e966b91-5f3f-4f7e-91ea-8354f471fa86"},"vehicle_type_id":"4","last_reported":1716048486,"current_range_meters":0,"station_id":"ce4bgv12rcd13ifvqcp0","pricing_plan_id":"cebpf4jnsgd1na2vs0mg"},{"bike_id":"eddde780-c424-4d18-b738-74073c4c68bc","system_id":"levelo_inurba_marseille","lat":43.299218,"lon":5.374518,"is_reserved":false,"is_disabled":false,"rental_uris":{"android":"levelo://app?vid=eddde780-c424-4d18-b738-74073c4c68bc","ios":"levelo://app?vid=eddde780-c424-4d18-b738-74073c4c68bc"},"vehicle_type_id":"4","last_reported":1716048486,"current_range_meters":6800,"station_id":"ce4bgjh2rcd13ifvqbg0","pricing_plan_id":"cebpf4jnsgd1na2vs0mg"},{"bike_id":"828a0a33-da72-44f9-9ab0-d0b4c4692df6","system_id":"levelo_inurba_marseille","lat":43.298433,"lon":5.362774,"is_reserved":false,"is_disabled":false,"rental_uris":{"android":"levelo://app?vid=828a0a33-da72-44f9-9ab0-d0b4c4692df6","ios":"levelo://app?vid=828a0a33-da72-44f9-9ab0-d0b4c4692df6"},"vehicle_type_id":"4","last_reported":1716048486,"current_range_meters":400,"station_id":"ce4bgpp2rcd13ifvqc3g","pricing_plan_id":"cebpf4jnsgd1na2vs0mg"},{"bike_id":"3c991244-b719-4bdc-94c8-3c85454f22e9","system_id":"levelo_inurba_marseille","lat":43.298433,"lon":5.362774,"is_reserved":false,"is_disabled":false,"rental_uris":{"android":"levelo://app?vid=3c991244-b719-4bdc-94c8-3c85454f22e9","ios":"levelo://app?vid=3c991244-b719-4bdc-94c8-3c85454f22e9"},"vehicle_type_id":"4","last_reported":1716048486,"current_range_meters":20800,"station_id":"ce4bgpp2rcd13ifvqc3g","pricing_plan_id":"cebpf4jnsgd1na2vs0mg"},{"bike_id":"606f8b43-6510-48b6-88b9-5dbbe1c44b2c","system_id":"levelo_inurba_marseille","lat":43.3022,"lon":5.38161,"is_reserved":false,"is_disabled":false,"rental_uris":{"android":"levelo://app?vid=606f8b43-6510-48b6-88b9-5dbbe1c44b2c","ios":"levelo://app?vid=606f8b43-6510-48b6-88b9-5dbbe1c44b2c"},"vehicle_type_id":"4","last_reported":1716048486,"current_range_meters":21200,"station_id":"","pricing_plan_id":"cebpf4jnsgd1na2vs0mg"},{"bike_id":"a78c0371-18a7-4609-8a16-1a99a180568a","system_id":"levelo_inurba_marseille","lat":43.297794,"lon":5.370888,"is_reserved":false,"is_disabled":false,"rental_uris":{"android":"levelo://app?vid=a78c0371-18a7-4609-8a16-1a99a180568a","ios":"levelo://app?vid=a78c0371-18a7-4609-8a16-1a99a180568a"},"vehicle_type_id":"4","last_reported":1716048486,"current_range_meters":30000,"station_id":"ce4bgop2rcd13ifvqc1g","pricing_plan_id":"cebpf4jnsgd1na2vs0mg"},{"bike_id":"b22379ec-8777-4dcd-8c0e-9642bdad8cfd","system_id":"levelo_inurba_marseille","lat":43.2978,"lon":5.370923,"is_reserved":false,"is_disabled":false,"rental_uris":{"android":"levelo://app?vid=b22379ec-8777-4dcd-8c0e-9642bdad8cfd","ios":"levelo://app?vid=b22379ec-8777-4dcd-8c0e-9642bdad8cfd"},"vehicle_type_id":"4","last_reported":1716048486,"current_range_meters":30800,"station_id":"ce4bgop2rcd13ifvqc1g","pricing_plan_id":"cebpf4jnsgd1na2vs0mg"},{"bike_id":"20a219a4-15d8-4496-9559-cd12f79d5c85","system_id":"levelo_inurba_marseille","lat":43.322872,"lon":5.382756,"is_reserved":false,"is_disabled":false,"rental_uris":{"android":"levelo://app?vid=20a219a4-15d8-4496-9559-cd12f79d5c85","ios":"levelo://app?vid=20a219a4-15d8-4496-9559-cd12f79d5c85"},"vehicle_type_id":"4","last_reported":1716048486,"current_range_meters":30000,"station_id":"ce4bhr12rcd13ifvqhqg","pricing_plan_id":"cebpf4jnsgd1na2vs0mg"},{"bike_id":"3f15e4df-5f20-4acc-b12e-386799f4368e","system_id":"levelo_inurba_marseille","lat":43.297651,"lon":5.370952,"is_reserved":false,"is_disabled":false,"rental_uris":{"android":"levelo://app?vid=3f15e4df-5f20-4acc-b12e-386799f4368e","ios":"levelo://app?vid=3f15e4df-5f20-4acc-b12e-386799f4368e"},"vehicle_type_id":"4","last_reported":1716048486,"current_range_meters":0,"station_id":"","pricing_plan_id":"cebpf4jnsgd1na2vs0mg"},{"bike_id":"8d1f1b98-ef01-4b09-8366-c3f9d0d068c5","system_id":"levelo_inurba_marseille","lat":43.297163,"lon":5.365866,"is_reserved":false,"is_disabled":false,"rental_uris":{"android":"levelo://app?vid=8d1f1b98-ef01-4b09-8366-c3f9d0d068c5","ios":"levelo://app?vid=8d1f1b98-ef01-4b09-8366-c3f9d0d068c5"},"vehicle_type_id":"4","last_reported":1716048486,"current_range_meters":400,"station_id":"ce4bgn12rcd13ifvqbt0","pricing_plan_id":"cebpf4jnsgd1na2vs0mg"},{"bike_id":"e8b74b53-1f66-4822-bc9f-59e0cd63ffdc","system_id":"levelo_inurba_marseille","lat":43.297029,"lon":5.368924,"is_reserved":false,"is_disabled":false,"rental_uris":{"android":"levelo://app?vid=e8b74b53-1f66-4822-bc9f-59e0cd63ffdc","ios":"levelo://app?vid=e8b74b53-1f66-4822-bc9f-59e0cd63ffdc"},"vehicle_type_id":"4","last_reported":1716048486,"current_range_meters":800,"station_id":"","pricing_plan_id":"cebpf4jnsgd1na2vs0mg"},{"bike_id":"910840cd-6fde-46e3-8789-553eb2376c47","system_id":"levelo_inurba_marseille","lat":43.296822,"lon":5.372774,"is_reserved":false,"is_disabled":false,"rental_uris":{"android":"levelo://app?vid=910840cd-6fde-46e3-8789-553eb2376c47","ios":"levelo://app?vid=910840cd-6fde-46e3-8789-553eb2376c47"},"vehicle_type_id":"4","last_reported":1716048486,"current_range_meters":30000,"station_id":"ce4bgk12rcd13ifvqbj0","pricing_plan_id":"cebpf4jnsgd1na2vs0mg"},{"bike_id":"ba014888-f03f-424d-9ba1-ca85deaff9d6","system_id":"levelo_inurba_marseille","lat":43.2968,"lon":5.37291,"is_reserved":false,"is_disabled":false,"rental_uris":{"android":"levelo://app?vid=ba014888-f03f-424d-9ba1-ca85deaff9d6","ios":"levelo://app?vid=ba014888-f03f-424d-9ba1-ca85deaff9d6"},"vehicle_type_id":"4","last_reported":1716048486,"current_range_meters":6800,"station_id":"ce4bgk12rcd13ifvqbj0","pricing_plan_id":"cebpf4jnsgd1na2vs0mg"},{"bike_id":"afab2cc5-130e-4bbc-976b-ed8f91749591","system_id":"levelo_inurba_marseille","lat":43.296886,"lon":5.373345,"is_reserved":false,"is_disabled":false,"rental_uris":{"android":"levelo://app?vid=afab2cc5-130e-4bbc-976b-ed8f91749591","ios":"levelo://app?vid=afab2cc5-130e-4bbc-976b-ed8f91749591"},"vehicle_type_id":"4","last_reported":1716048486,"current_range_meters":23200,"station_id":"","pricing_plan_id":"cebpf4jnsgd1na2vs0mg"},{"bike_id":"89a23965-904f-4ba9-b2b2-faf576238c8a","system_id":"levelo_inurba_marseille","lat":43.30324,"lon":5.38584,"is_reserved":false,"is_disabled":false,"rental_uris":{"android":"levelo://app?vid=89a23965-904f-4ba9-b2b2-faf576238c8a","ios":"levelo://app?vid=89a23965-904f-4ba9-b2b2-faf576238c8a"},"vehicle_type_id":"4","last_reported":1716048486,"current_range_meters":9600,"station_id":"","pricing_plan_id":"cebpf4jnsgd1na2vs0mg"},{"bike_id":"c0b498e0-13a8-4048-9ad1-239a98ef44f9","system_id":"levelo_inurba_marseille","lat":43.29875,"lon":5.380027,"is_reserved":false,"is_disabled":false,"rental_uris":{"android":"levelo://app?vid=c0b498e0-13a8-4048-9ad1-239a98ef44f9","ios":"levelo://app?vid=c0b498e0-13a8-4048-9ad1-239a98ef44f9"},"vehicle_type_id":"4","last_reported":1716048486,"current_range_meters":19200,"station_id":"","pricing_plan_id":"cebpf4jnsgd1na2vs0mg"},{"bike_id":"31260904-8f93-49fa-b024-acc06fd12e67","system_id":"levelo_inurba_marseille","lat":43.299028,"lon":5.381509,"is_reserved":false,"is_disabled":false,"rental_uris":{"android":"levelo://app?vid=31260904-8f93-49fa-b024-acc06fd12e67","ios":"levelo://app?vid=31260904-8f93-49fa-b024-acc06fd12e67"},"vehicle_type_id":"4","last_reported":1716048486,"current_range_meters":20400,"station_id":"ce4bgj12rcd13ifvqbc0","pricing_plan_id":"cebpf4jnsgd1na2vs0mg"},{"bike_id":"f9998aa9-f83f-4b4b-b6b1-5b70024f7f1b","system_id":"levelo_inurba_marseille","lat":43.309589,"lon":5.390258,"is_reserved":false,"is_disabled":false,"rental_uris":{"android":"levelo://app?vid=f9998aa9-f83f-4b4b-b6b1-5b70024f7f1b","ios":"levelo://app?vid=f9998aa9-f83f-4b4b-b6b1-5b70024f7f1b"},"vehicle_type_id":"4","last_reported":1716048486,"current_range_meters":6000,"station_id":"ce4bgup2rcd13ifvqco0","pricing_plan_id":"cebpf4jnsgd1na2vs0mg"},{"bike_id":"9b873378-fb1c-4cb9-9182-01a182b7be5b","system_id":"levelo_inurba_marseille","lat":43.296935,"lon":5.376544,"is_reserved":false,"is_disabled":false,"rental_uris":{"android":"levelo://app?vid=9b873378-fb1c-4cb9-9182-01a182b7be5b","ios":"levelo://app?vid=9b873378-fb1c-4cb9-9182-01a182b7be5b"},"vehicle_type_id":"4","last_reported":1716048486,"current_range_meters":24400,"station_id":"ce4bgkh2rcd13ifvqbl0","pricing_plan_id":"cebpf4jnsgd1na2vs0mg"},{"bike_id":"547e23b2-e08f-41b7-a7c3-8d48345f0268","system_id":"levelo_inurba_marseille","lat":43.309517,"lon":5.390254,"is_reserved":false,"is_disabled":false,"rental_uris":{"android":"levelo://app?vid=547e23b2-e08f-41b7-a7c3-8d48345f0268","ios":"levelo://app?vid=547e23b2-e08f-41b7-a7c3-8d48345f0268"},"vehicle_type_id":"4","last_reported":1716048486,"current_range_meters":15200,"station_id":"ce4bgup2rcd13ifvqco0","pricing_plan_id":"cebpf4jnsgd1na2vs0mg"},{"bike_id":"cee6e171-d413-43a6-a74a-587875f34a9f","system_id":"levelo_inurba_marseille","lat":43.30949,"lon":5.39027,"is_reserved":false,"is_disabled":false,"rental_uris":{"android":"levelo://app?vid=cee6e171-d413-43a6-a74a-587875f34a9f","ios":"levelo://app?vid=cee6e171-d413-43a6-a74a-587875f34a9f"},"vehicle_type_id":"4","last_reported":1716048486,"current_range_meters":0,"station_id":"ce4bgup2rcd13ifvqco0","pricing_plan_id":"cebpf4jnsgd1na2vs0mg"},{"bike_id":"d8c3c4c1-860b-4bd8-b340-d1702ddd69a7","system_id":"levelo_inurba_marseille","lat":43.309589,"lon":5.390258,"is_reserved":false,"is_disabled":false,"rental_uris":{"android":"levelo://app?vid=d8c3c4c1-860b-4bd8-b340-d1702ddd69a7","ios":"levelo://app?vid=d8c3c4c1-860b-4bd8-b340-d1702ddd69a7"},"vehicle_type_id":"4","last_reported":1716048486,"current_range_meters":9200,"station_id":"ce4bgup2rcd13ifvqco0","pricing_plan_id":"cebpf4jnsgd1na2vs0mg"},{"bike_id":"e06d23a6-385d-49bc-9e44-3d709d9b449d","system_id":"levelo_inurba_marseille","lat":43.30954,"lon":5.39038,"is_reserved":false,"is_disabled":false,"rental_uris":{"android":"levelo://app?vid=e06d23a6-385d-49bc-9e44-3d709d9b449d","ios":"levelo://app?vid=e06d23a6-385d-49bc-9e44-3d709d9b449d"},"vehicle_type_id":"4","last_reported":1716048486,"current_range_meters":0,"station_id":"ce4bgup2rcd13ifvqco0","pricing_plan_id":"cebpf4jnsgd1na2vs0mg"},{"bike_id":"3f4205c1-aff8-4c22-8a63-476551be5f6f","system_id":"levelo_inurba_marseille","lat":43.30948,"lon":5.390407,"is_reserved":false,"is_disabled":false,"rental_uris":{"android":"levelo://app?vid=3f4205c1-aff8-4c22-8a63-476551be5f6f","ios":"levelo://app?vid=3f4205c1-aff8-4c22-8a63-476551be5f6f"},"vehicle_type_id":"4","last_reported":1716048486,"current_range_meters":15600,"station_id":"ce4bgup2rcd13ifvqco0","pricing_plan_id":"cebpf4jnsgd1na2vs0mg"},{"bike_id":"5b016400-3e56-45de-bc6a-229a95106682","system_id":"levelo_inurba_marseille","lat":43.30962,"lon":5.39046,"is_reserved":false,"is_disabled":false,"rental_uris":{"android":"levelo://app?vid=5b016400-3e56-45de-bc6a-229a95106682","ios":"levelo://app?vid=5b016400-3e56-45de-bc6a-229a95106682"},"vehicle_type_id":"4","last_reported":1716048486,"current_range_meters":22000,"station_id":"ce4bgup2rcd13ifvqco0","pricing_plan_id":"cebpf4jnsgd1na2vs0mg"},{"bike_id":"6deba848-ba80-4344-81bd-f1240ed44eb3","system_id":"levelo_inurba_marseille","lat":43.295748,"lon":5.37522,"is_reserved":false,"is_disabled":false,"rental_uris":{"android":"levelo://app?vid=6deba848-ba80-4344-81bd-f1240ed44eb3","ios":"levelo://app?vid=6deba848-ba80-4344-81bd-f1240ed44eb3"},"vehicle_type_id":"4","last_reported":1716048486,"current_range_meters":3600,"station_id":"ce4bgh92rcd13ifvqb50","pricing_plan_id":"cebpf4jnsgd1na2vs0mg"},{"bike_id":"736eb10e-16ac-436f-af11-b13abaa94712","system_id":"levelo_inurba_marseille","lat":43.295748,"lon":5.37522,"is_reserved":false,"is_disabled":false,"rental_uris":{"android":"levelo://app?vid=736eb10e-16ac-436f-af11-b13abaa94712","ios":"levelo://app?vid=736eb10e-16ac-436f-af11-b13abaa94712"},"vehicle_type_id":"4","last_reported":1716048486,"current_range_meters":23600,"station_id":"ce4bgh92rcd13ifvqb50","pricing_plan_id":"cebpf4jnsgd1na2vs0mg"},{"bike_id":"eb537c0f-f8ab-4dd0-b4af-0b90f760713d","system_id":"levelo_inurba_marseille","lat":43.295773,"lon":5.375023,"is_reserved":false,"is_disabled":false,"rental_uris":{"android":"levelo://app?vid=eb537c0f-f8ab-4dd0-b4af-0b90f760713d","ios":"levelo://app?vid=eb537c0f-f8ab-4dd0-b4af-0b90f760713d"},"vehicle_type_id":"4","last_reported":1716048486,"current_range_meters":0,"station_id":"ce4bgh92rcd13ifvqb50","pricing_plan_id":"cebpf4jnsgd1na2vs0mg"},{"bike_id":"4531909b-e130-42c9-bf93-fbfff0c592cd","system_id":"levelo_inurba_marseille","lat":43.309589,"lon":5.390258,"is_reserved":false,"is_disabled":false,"rental_uris":{"android":"levelo://app?vid=4531909b-e130-42c9-bf93-fbfff0c592cd","ios":"levelo://app?vid=4531909b-e130-42c9-bf93-fbfff0c592cd"},"vehicle_type_id":"4","last_reported":1716048486,"current_range_meters":22800,"station_id":"ce4bgup2rcd13ifvqco0","pricing_plan_id":"cebpf4jnsgd1na2vs0mg"},{"bike_id":"d5a5a01c-44d2-41a9-8bf4-53ce53cd23a0","system_id":"levelo_inurba_marseille","lat":43.298037,"lon":5.381066,"is_reserved":false,"is_disabled":false,"rental_uris":{"android":"levelo://app?vid=d5a5a01c-44d2-41a9-8bf4-53ce53cd23a0","ios":"levelo://app?vid=d5a5a01c-44d2-41a9-8bf4-53ce53cd23a0"},"vehicle_type_id":"4","last_reported":1716048486,"current_range_meters":24000,"station_id":"ce4bgip2rcd13ifvqbb0","pricing_plan_id":"cebpf4jnsgd1na2vs0mg"},{"bike_id":"2796646f-a1d6-42e0-b1a7-5548a743537e","system_id":"levelo_inurba_marseille","lat":43.298037,"lon":5.381066,"is_reserved":false,"is_disabled":false,"rental_uris":{"android":"levelo://app?vid=2796646f-a1d6-42e0-b1a7-5548a743537e","ios":"levelo://app?vid=2796646f-a1d6-42e0-b1a7-5548a743537e"},"vehicle_type_id":"4","last_reported":1716048486,"current_range_meters":0,"station_id":"ce4bgip2rcd13ifvqbb0","pricing_plan_id":"cebpf4jnsgd1na2vs0mg"},{"bike_id":"6de7c51f-f6f9-46f9-9ef7-af3a1d716b16","system_id":"levelo_inurba_marseille","lat":43.295748,"lon":5.37522,"is_reserved":false,"is_disabled":false,"rental_uris":{"android":"levelo://app?vid=6de7c51f-f6f9-46f9-9ef7-af3a1d716b16","ios":"levelo://app?vid=6de7c51f-f6f9-46f9-9ef7-af3a1d716b16"},"vehicle_type_id":"4","last_reported":1716048486,"current_range_meters":19600,"station_id":"ce4bgh92rcd13ifvqb50","pricing_plan_id":"cebpf4jnsgd1na2vs0mg"},{"bike_id":"31c8ebba-8e13-4ae1-b38a-26eeb8e4713c","system_id":"levelo_inurba_marseille","lat":43.297245,"lon":5.379602,"is_reserved":false,"is_disabled":false,"rental_uris":{"android":"levelo://app?vid=31c8ebba-8e13-4ae1-b38a-26eeb8e4713c","ios":"levelo://app?vid=31c8ebba-8e13-4ae1-b38a-26eeb8e4713c"},"vehicle_type_id":"4","last_reported":1716048486,"current_range_meters":26400,"station_id":"","pricing_plan_id":"cebpf4jnsgd1na2vs0mg"},{"bike_id":"b615f38b-1035-43fb-b2c4-933c8f7356bf","system_id":"levelo_inurba_marseille","lat":43.295748,"lon":5.37522,"is_reserved":false,"is_disabled":false,"rental_uris":{"android":"levelo://app?vid=b615f38b-1035-43fb-b2c4-933c8f7356bf","ios":"levelo://app?vid=b615f38b-1035-43fb-b2c4-933c8f7356bf"},"vehicle_type_id":"4","last_reported":1716048486,"current_range_meters":21200,"station_id":"ce4bgh92rcd13ifvqb50","pricing_plan_id":"cebpf4jnsgd1na2vs0mg"},{"bike_id":"a97380cb-c2e5-4cfb-abc9-c95ab87e9ec2","system_id":"levelo_inurba_marseille","lat":43.296263,"lon":5.377094,"is_reserved":false,"is_disabled":false,"rental_uris":{"android":"levelo://app?vid=a97380cb-c2e5-4cfb-abc9-c95ab87e9ec2","ios":"levelo://app?vid=a97380cb-c2e5-4cfb-abc9-c95ab87e9ec2"},"vehicle_type_id":"4","last_reported":1716048486,"current_range_meters":0,"station_id":"ce4bgi92rcd13ifvqb90","pricing_plan_id":"cebpf4jnsgd1na2vs0mg"},{"bike_id":"c30bdbd8-3027-458b-8df1-d06619e51f65","system_id":"levelo_inurba_marseille","lat":43.295748,"lon":5.37522,"is_reserved":false,"is_disabled":false,"rental_uris":{"android":"levelo://app?vid=c30bdbd8-3027-458b-8df1-d06619e51f65","ios":"levelo://app?vid=c30bdbd8-3027-458b-8df1-d06619e51f65"},"vehicle_type_id":"4","last_reported":1716048486,"current_range_meters":24000,"station_id":"ce4bgh92rcd13ifvqb50","pricing_plan_id":"cebpf4jnsgd1na2vs0mg"},{"bike_id":"1fc42a62-2cff-4b07-bfa5-b7967a1c63d3","system_id":"levelo_inurba_marseille","lat":43.30411,"lon":5.38896,"is_reserved":false,"is_disabled":false,"rental_uris":{"android":"levelo://app?vid=1fc42a62-2cff-4b07-bfa5-b7967a1c63d3","ios":"levelo://app?vid=1fc42a62-2cff-4b07-bfa5-b7967a1c63d3"},"vehicle_type_id":"4","last_reported":1716048486,"current_range_meters":26400,"station_id":"","pricing_plan_id":"cebpf4jnsgd1na2vs0mg"},{"bike_id":"185c1a1e-311d-483f-9e28-2ef3ef6bae37","system_id":"levelo_inurba_marseille","lat":43.296277,"lon":5.377108,"is_reserved":false,"is_disabled":false,"rental_uris":{"android":"levelo://app?vid=185c1a1e-311d-483f-9e28-2ef3ef6bae37","ios":"levelo://app?vid=185c1a1e-311d-483f-9e28-2ef3ef6bae37"},"vehicle_type_id":"4","last_reported":1716048486,"current_range_meters":0,"station_id":"ce4bgi92rcd13ifvqb90","pricing_plan_id":"cebpf4jnsgd1na2vs0mg"},{"bike_id":"bcaf06ea-d67c-41a9-ba86-d8eb515f81e3","system_id":"levelo_inurba_marseille","lat":43.299707,"lon":5.384859,"is_reserved":false,"is_disabled":false,"rental_uris":{"android":"levelo://app?vid=bcaf06ea-d67c-41a9-ba86-d8eb515f81e3","ios":"levelo://app?vid=bcaf06ea-d67c-41a9-ba86-d8eb515f81e3"},"vehicle_type_id":"4","last_reported":1716048486,"current_range_meters":15200,"station_id":"ce4bgj92rcd13ifvqbd0","pricing_plan_id":"cebpf4jnsgd1na2vs0mg"},{"bike_id":"f4e4606b-6111-4fe8-8a17-a64aaf4b8235","system_id":"levelo_inurba_marseille","lat":43.295279,"lon":5.375048,"is_reserved":false,"is_disabled":false,"rental_uris":{"android":"levelo://app?vid=f4e4606b-6111-4fe8-8a17-a64aaf4b8235","ios":"levelo://app?vid=f4e4606b-6111-4fe8-8a17-a64aaf4b8235"},"vehicle_type_id":"4","last_reported":1716048486,"current_range_meters":4800,"station_id":"ce4bgkp2rcd13ifvqbmg","pricing_plan_id":"cebpf4jnsgd1na2vs0mg"},{"bike_id":"0c9d6e53-4925-4aeb-8b56-4f53e98e1dd3","system_id":"levelo_inurba_marseille","lat":43.299724,"lon":5.384848,"is_reserved":false,"is_disabled":false,"rental_uris":{"android":"levelo://app?vid=0c9d6e53-4925-4aeb-8b56-4f53e98e1dd3","ios":"levelo://app?vid=0c9d6e53-4925-4aeb-8b56-4f53e98e1dd3"},"vehicle_type_id":"4","last_reported":1716048486,"current_range_meters":0,"station_id":"ce4bgj92rcd13ifvqbd0","pricing_plan_id":"cebpf4jnsgd1na2vs0mg"},{"bike_id":"946e01ce-d6e9-4640-85b3-dd13b811be4e","system_id":"levelo_inurba_marseille","lat":43.295279,"lon":5.375048,"is_reserved":false,"is_disabled":false,"rental_uris":{"android":"levelo://app?vid=946e01ce-d6e9-4640-85b3-dd13b811be4e","ios":"levelo://app?vid=946e01ce-d6e9-4640-85b3-dd13b811be4e"},"vehicle_type_id":"4","last_reported":1716048486,"current_range_meters":13600,"station_id":"ce4bgkp2rcd13ifvqbmg","pricing_plan_id":"cebpf4jnsgd1na2vs0mg"},{"bike_id":"e5319b06-b677-4488-b1fc-0d2b3207fbb4","system_id":"levelo_inurba_marseille","lat":43.293009,"lon":5.374584,"is_reserved":false,"is_disabled":false,"rental_uris":{"android":"levelo://app?vid=e5319b06-b677-4488-b1fc-0d2b3207fbb4","ios":"levelo://app?vid=e5319b06-b677-4488-b1fc-0d2b3207fbb4"},"vehicle_type_id":"4","last_reported":1716048486,"current_range_meters":0,"station_id":"ce4bgi12rcd13ifvqb70","pricing_plan_id":"cebpf4jnsgd1na2vs0mg"},{"bike_id":"48b7dc82-0fb6-4c7e-aa94-9c4959306f05","system_id":"levelo_inurba_marseille","lat":43.32367,"lon":5.388836,"is_reserved":false,"is_disabled":false,"rental_uris":{"android":"levelo://app?vid=48b7dc82-0fb6-4c7e-aa94-9c4959306f05","ios":"levelo://app?vid=48b7dc82-0fb6-4c7e-aa94-9c4959306f05"},"vehicle_type_id":"4","last_reported":1716048486,"current_range_meters":12000,"station_id":"ce4bhqp2rcd13ifvqhog","pricing_plan_id":"cebpf4jnsgd1na2vs0mg"},{"bike_id":"7529d578-b694-4868-85b9-2ba4ea49ec97","system_id":"levelo_inurba_marseille","lat":43.32367,"lon":5.388836,"is_reserved":false,"is_disabled":false,"rental_uris":{"android":"levelo://app?vid=7529d578-b694-4868-85b9-2ba4ea49ec97","ios":"levelo://app?vid=7529d578-b694-4868-85b9-2ba4ea49ec97"},"vehicle_type_id":"4","last_reported":1716048486,"current_range_meters":24800,"station_id":"ce4bhqp2rcd13ifvqhog","pricing_plan_id":"cebpf4jnsgd1na2vs0mg"},{"bike_id":"8a9d69ef-a7d1-4f4c-8a5a-171f02630ab8","system_id":"levelo_inurba_marseille","lat":43.32367,"lon":5.388836,"is_reserved":false,"is_disabled":false,"rental_uris":{"android":"levelo://app?vid=8a9d69ef-a7d1-4f4c-8a5a-171f02630ab8","ios":"levelo://app?vid=8a9d69ef-a7d1-4f4c-8a5a-171f02630ab8"},"vehicle_type_id":"4","last_reported":1716048486,"current_range_meters":1600,"station_id":"ce4bhqp2rcd13ifvqhog","pricing_plan_id":"cebpf4jnsgd1na2vs0mg"},{"bike_id":"cd78b216-09d8-4e81-bb43-e8c57ed2274b","system_id":"levelo_inurba_marseille","lat":43.29602,"lon":5.381084,"is_reserved":false,"is_disabled":false,"rental_uris":{"android":"levelo://app?vid=cd78b216-09d8-4e81-bb43-e8c57ed2274b","ios":"levelo://app?vid=cd78b216-09d8-4e81-bb43-e8c57ed2274b"},"vehicle_type_id":"4","last_reported":1716048486,"current_range_meters":8800,"station_id":"ce4bgl12rcd13ifvqbo0","pricing_plan_id":"cebpf4jnsgd1na2vs0mg"},{"bike_id":"a2873f68-c044-4771-bbe6-467222f33d81","system_id":"levelo_inurba_marseille","lat":43.29601,"lon":5.381084,"is_reserved":false,"is_disabled":false,"rental_uris":{"android":"levelo://app?vid=a2873f68-c044-4771-bbe6-467222f33d81","ios":"levelo://app?vid=a2873f68-c044-4771-bbe6-467222f33d81"},"vehicle_type_id":"4","last_reported":1716048486,"current_range_meters":14800,"station_id":"ce4bgl12rcd13ifvqbo0","pricing_plan_id":"cebpf4jnsgd1na2vs0mg"},{"bike_id":"8c944c12-d06f-4b94-80a3-34451e86fb9c","system_id":"levelo_inurba_marseille","lat":43.298631,"lon":5.385814,"is_reserved":false,"is_disabled":false,"rental_uris":{"android":"levelo://app?vid=8c944c12-d06f-4b94-80a3-34451e86fb9c","ios":"levelo://app?vid=8c944c12-d06f-4b94-80a3-34451e86fb9c"},"vehicle_type_id":"4","last_reported":1716048486,"current_range_meters":18400,"station_id":"","pricing_plan_id":"cebpf4jnsgd1na2vs0mg"},{"bike_id":"42a31e13-a520-4ab6-9754-126c431fc490","system_id":"levelo_inurba_marseille","lat":43.298037,"lon":5.381066,"is_reserved":false,"is_disabled":false,"rental_uris":{"android":"levelo://app?vid=42a31e13-a520-4ab6-9754-126c431fc490","ios":"levelo://app?vid=42a31e13-a520-4ab6-9754-126c431fc490"},"vehicle_type_id":"4","last_reported":1716048486,"current_range_meters":3200,"station_id":"ce4bgip2rcd13ifvqbb0","pricing_plan_id":"cebpf4jnsgd1na2vs0mg"},{"bike_id":"68ccffff-92bc-4bc5-bda9-0abbcdaaaed8","system_id":"levelo_inurba_marseille","lat":43.29278,"lon":5.36831,"is_reserved":false,"is_disabled":false,"rental_uris":{"android":"levelo://app?vid=68ccffff-92bc-4bc5-bda9-0abbcdaaaed8","ios":"levelo://app?vid=68ccffff-92bc-4bc5-bda9-0abbcdaaaed8"},"vehicle_type_id":"4","last_reported":1716048486,"current_range_meters":21200,"station_id":"","pricing_plan_id":"cebpf4jnsgd1na2vs0mg"},{"bike_id":"154738ba-bf22-43f2-94f5-9ae6a3fcfdf1","system_id":"levelo_inurba_marseille","lat":43.293009,"lon":5.374584,"is_reserved":false,"is_disabled":false,"rental_uris":{"android":"levelo://app?vid=154738ba-bf22-43f2-94f5-9ae6a3fcfdf1","ios":"levelo://app?vid=154738ba-bf22-43f2-94f5-9ae6a3fcfdf1"},"vehicle_type_id":"4","last_reported":1716048486,"current_range_meters":5200,"station_id":"ce4bgi12rcd13ifvqb70","pricing_plan_id":"cebpf4jnsgd1na2vs0mg"},{"bike_id":"0c8b1166-4e14-475a-bb59-f2ccdcc0b177","system_id":"levelo_inurba_marseille","lat":43.30299,"lon":5.392111,"is_reserved":false,"is_disabled":false,"rental_uris":{"android":"levelo://app?vid=0c8b1166-4e14-475a-bb59-f2ccdcc0b177","ios":"levelo://app?vid=0c8b1166-4e14-475a-bb59-f2ccdcc0b177"},"vehicle_type_id":"4","last_reported":1716048486,"current_range_meters":0,"station_id":"ce4bgkh2rcd13ifvqbk0","pricing_plan_id":"cebpf4jnsgd1na2vs0mg"},{"bike_id":"2e6db391-225d-4ea8-aeb1-5a12f22243bf","system_id":"levelo_inurba_marseille","lat":43.30298,"lon":5.39211,"is_reserved":false,"is_disabled":false,"rental_uris":{"android":"levelo://app?vid=2e6db391-225d-4ea8-aeb1-5a12f22243bf","ios":"levelo://app?vid=2e6db391-225d-4ea8-aeb1-5a12f22243bf"},"vehicle_type_id":"4","last_reported":1716048486,"current_range_meters":22800,"station_id":"ce4bgkh2rcd13ifvqbk0","pricing_plan_id":"cebpf4jnsgd1na2vs0mg"},{"bike_id":"226121ce-9cc4-415d-ae8d-3f3a0d8444f5","system_id":"levelo_inurba_marseille","lat":43.302992,"lon":5.392136,"is_reserved":false,"is_disabled":false,"rental_uris":{"android":"levelo://app?vid=226121ce-9cc4-415d-ae8d-3f3a0d8444f5","ios":"levelo://app?vid=226121ce-9cc4-415d-ae8d-3f3a0d8444f5"},"vehicle_type_id":"4","last_reported":1716048486,"current_range_meters":22400,"station_id":"ce4bgkh2rcd13ifvqbk0","pricing_plan_id":"cebpf4jnsgd1na2vs0mg"},{"bike_id":"af1b2b13-c416-43c3-87f7-037cf6cb51a0","system_id":"levelo_inurba_marseille","lat":43.293685,"lon":5.378439,"is_reserved":false,"is_disabled":false,"rental_uris":{"android":"levelo://app?vid=af1b2b13-c416-43c3-87f7-037cf6cb51a0","ios":"levelo://app?vid=af1b2b13-c416-43c3-87f7-037cf6cb51a0"},"vehicle_type_id":"4","last_reported":1716048486,"current_range_meters":1200,"station_id":"ce4bgjh2rcd13ifvqbf0","pricing_plan_id":"cebpf4jnsgd1na2vs0mg"},{"bike_id":"efac25ce-0d91-46e8-bc13-1f1963bda548","system_id":"levelo_inurba_marseille","lat":43.298037,"lon":5.381066,"is_reserved":false,"is_disabled":false,"rental_uris":{"android":"levelo://app?vid=efac25ce-0d91-46e8-bc13-1f1963bda548","ios":"levelo://app?vid=efac25ce-0d91-46e8-bc13-1f1963bda548"},"vehicle_type_id":"4","last_reported":1716048486,"current_range_meters":0,"station_id":"ce4bgip2rcd13ifvqbb0","pricing_plan_id":"cebpf4jnsgd1na2vs0mg"},{"bike_id":"3c62c334-0971-4418-be6e-ac101b0e63d8","system_id":"levelo_inurba_marseille","lat":43.293551,"lon":5.378136,"is_reserved":false,"is_disabled":false,"rental_uris":{"android":"levelo://app?vid=3c62c334-0971-4418-be6e-ac101b0e63d8","ios":"levelo://app?vid=3c62c334-0971-4418-be6e-ac101b0e63d8"},"vehicle_type_id":"4","last_reported":1716048486,"current_range_meters":0,"station_id":"ce4bgjh2rcd13ifvqbf0","pricing_plan_id":"cebpf4jnsgd1na2vs0mg"},{"bike_id":"672d190f-9707-4d5a-ae24-76a584e06eda","system_id":"levelo_inurba_marseille","lat":43.298764,"lon":5.388973,"is_reserved":false,"is_disabled":false,"rental_uris":{"android":"levelo://app?vid=672d190f-9707-4d5a-ae24-76a584e06eda","ios":"levelo://app?vid=672d190f-9707-4d5a-ae24-76a584e06eda"},"vehicle_type_id":"4","last_reported":1716048486,"current_range_meters":10400,"station_id":"ce4bh392rcd13ifvqdl0","pricing_plan_id":"cebpf4jnsgd1na2vs0mg"},{"bike_id":"d9148242-909f-4f03-988d-94561209186b","system_id":"levelo_inurba_marseille","lat":43.293009,"lon":5.374584,"is_reserved":false,"is_disabled":false,"rental_uris":{"android":"levelo://app?vid=d9148242-909f-4f03-988d-94561209186b","ios":"levelo://app?vid=d9148242-909f-4f03-988d-94561209186b"},"vehicle_type_id":"4","last_reported":1716048486,"current_range_meters":14000,"station_id":"ce4bgi12rcd13ifvqb70","pricing_plan_id":"cebpf4jnsgd1na2vs0mg"},{"bike_id":"1f3e7094-272b-4556-8d17-ae3505035d12","system_id":"levelo_inurba_marseille","lat":43.293009,"lon":5.374584,"is_reserved":false,"is_disabled":false,"rental_uris":{"android":"levelo://app?vid=1f3e7094-272b-4556-8d17-ae3505035d12","ios":"levelo://app?vid=1f3e7094-272b-4556-8d17-ae3505035d12"},"vehicle_type_id":"4","last_reported":1716048486,"current_range_meters":4800,"station_id":"ce4bgi12rcd13ifvqb70","pricing_plan_id":"cebpf4jnsgd1na2vs0mg"},{"bike_id":"a010a534-acb7-46b8-9919-788c6e5c713b","system_id":"levelo_inurba_marseille","lat":43.301117,"lon":5.398795,"is_reserved":false,"is_disabled":false,"rental_uris":{"android":"levelo://app?vid=a010a534-acb7-46b8-9919-788c6e5c713b","ios":"levelo://app?vid=a010a534-acb7-46b8-9919-788c6e5c713b"},"vehicle_type_id":"4","last_reported":1716048486,"current_range_meters":6000,"station_id":"ce4bh0h2rcd13ifvqd40","pricing_plan_id":"cebpf4jnsgd1na2vs0mg"},{"bike_id":"c535838e-615c-4eda-b837-6520fec9fdd0","system_id":"levelo_inurba_marseille","lat":43.292311,"lon":5.360731,"is_reserved":false,"is_disabled":false,"rental_uris":{"android":"levelo://app?vid=c535838e-615c-4eda-b837-6520fec9fdd0","ios":"levelo://app?vid=c535838e-615c-4eda-b837-6520fec9fdd0"},"vehicle_type_id":"4","last_reported":1716048486,"current_range_meters":15200,"station_id":"ce4bhbh2rcd13ifvqeqg","pricing_plan_id":"cebpf4jnsgd1na2vs0mg"},{"bike_id":"3896fc80-8bde-49db-911c-96543a704a5a","system_id":"levelo_inurba_marseille","lat":43.29169,"lon":5.371539,"is_reserved":false,"is_disabled":false,"rental_uris":{"android":"levelo://app?vid=3896fc80-8bde-49db-911c-96543a704a5a","ios":"levelo://app?vid=3896fc80-8bde-49db-911c-96543a704a5a"},"vehicle_type_id":"4","last_reported":1716048486,"current_range_meters":0,"station_id":"ce4bha92rcd13ifvqeh0","pricing_plan_id":"cebpf4jnsgd1na2vs0mg"},{"bike_id":"6d6e91c1-5080-4f5e-8a50-74cfff5822a8","system_id":"levelo_inurba_marseille","lat":43.291675,"lon":5.371583,"is_reserved":false,"is_disabled":false,"rental_uris":{"android":"levelo://app?vid=6d6e91c1-5080-4f5e-8a50-74cfff5822a8","ios":"levelo://app?vid=6d6e91c1-5080-4f5e-8a50-74cfff5822a8"},"vehicle_type_id":"4","last_reported":1716048486,"current_range_meters":3600,"station_id":"ce4bha92rcd13ifvqeh0","pricing_plan_id":"cebpf4jnsgd1na2vs0mg"},{"bike_id":"be8987a5-9134-4ae5-abd7-5aee1e8f9ecc","system_id":"levelo_inurba_marseille","lat":43.291994,"lon":5.357886,"is_reserved":false,"is_disabled":false,"rental_uris":{"android":"levelo://app?vid=be8987a5-9134-4ae5-abd7-5aee1e8f9ecc","ios":"levelo://app?vid=be8987a5-9134-4ae5-abd7-5aee1e8f9ecc"},"vehicle_type_id":"4","last_reported":1716048486,"current_range_meters":9600,"station_id":"ce4bhb12rcd13ifvqel0","pricing_plan_id":"cebpf4jnsgd1na2vs0mg"},{"bike_id":"db16f1cd-d070-489a-950f-278e80acbff0","system_id":"levelo_inurba_marseille","lat":43.31326,"lon":5.39693,"is_reserved":false,"is_disabled":false,"rental_uris":{"android":"levelo://app?vid=db16f1cd-d070-489a-950f-278e80acbff0","ios":"levelo://app?vid=db16f1cd-d070-489a-950f-278e80acbff0"},"vehicle_type_id":"4","last_reported":1716048486,"current_range_meters":0,"station_id":"ce4bgvp2rcd13ifvqcu0","pricing_plan_id":"cebpf4jnsgd1na2vs0mg"},{"bike_id":"8ea520ce-dba7-4e29-ae96-47d8afec0c39","system_id":"levelo_inurba_marseille","lat":43.309047,"lon":5.396551,"is_reserved":false,"is_disabled":false,"rental_uris":{"android":"levelo://app?vid=8ea520ce-dba7-4e29-ae96-47d8afec0c39","ios":"levelo://app?vid=8ea520ce-dba7-4e29-ae96-47d8afec0c39"},"vehicle_type_id":"4","last_reported":1716048486,"current_range_meters":0,"station_id":"ce4bh012rcd13ifvqcv0","pricing_plan_id":"cebpf4jnsgd1na2vs0mg"},{"bike_id":"2e85916f-e1dc-491c-a27c-5028593a3415","system_id":"levelo_inurba_marseille","lat":43.308675,"lon":5.396551,"is_reserved":false,"is_disabled":false,"rental_uris":{"android":"levelo://app?vid=2e85916f-e1dc-491c-a27c-5028593a3415","ios":"levelo://app?vid=2e85916f-e1dc-491c-a27c-5028593a3415"},"vehicle_type_id":"4","last_reported":1716048486,"current_range_meters":10400,"station_id":"ce4bh012rcd13ifvqcv0","pricing_plan_id":"cebpf4jnsgd1na2vs0mg"},{"bike_id":"f46b20fc-4b86-4078-813f-09a812bd489c","system_id":"levelo_inurba_marseille","lat":43.309047,"lon":5.396551,"is_reserved":false,"is_disabled":false,"rental_uris":{"android":"levelo://app?vid=f46b20fc-4b86-4078-813f-09a812bd489c","ios":"levelo://app?vid=f46b20fc-4b86-4078-813f-09a812bd489c"},"vehicle_type_id":"4","last_reported":1716048486,"current_range_meters":22800,"station_id":"ce4bh012rcd13ifvqcv0","pricing_plan_id":"cebpf4jnsgd1na2vs0mg"},{"bike_id":"07d2d1c2-ea57-441b-a09c-1f9c07b7a3b4","system_id":"levelo_inurba_marseille","lat":43.29529,"lon":5.385581,"is_reserved":false,"is_disabled":false,"rental_uris":{"android":"levelo://app?vid=07d2d1c2-ea57-441b-a09c-1f9c07b7a3b4","ios":"levelo://app?vid=07d2d1c2-ea57-441b-a09c-1f9c07b7a3b4"},"vehicle_type_id":"4","last_reported":1716048486,"current_range_meters":0,"station_id":"ce4bgih2rcd13ifvqba0","pricing_plan_id":"cebpf4jnsgd1na2vs0mg"},{"bike_id":"577ec571-1f8c-462a-a7a7-e2d7e604b052","system_id":"levelo_inurba_marseille","lat":43.29529,"lon":5.385581,"is_reserved":false,"is_disabled":false,"rental_uris":{"android":"levelo://app?vid=577ec571-1f8c-462a-a7a7-e2d7e604b052","ios":"levelo://app?vid=577ec571-1f8c-462a-a7a7-e2d7e604b052"},"vehicle_type_id":"4","last_reported":1716048486,"current_range_meters":13200,"station_id":"ce4bgih2rcd13ifvqba0","pricing_plan_id":"cebpf4jnsgd1na2vs0mg"},{"bike_id":"7c03dac7-66fd-4bf7-9251-7d74ab9852c8","system_id":"levelo_inurba_marseille","lat":43.29529,"lon":5.385581,"is_reserved":false,"is_disabled":false,"rental_uris":{"android":"levelo://app?vid=7c03dac7-66fd-4bf7-9251-7d74ab9852c8","ios":"levelo://app?vid=7c03dac7-66fd-4bf7-9251-7d74ab9852c8"},"vehicle_type_id":"4","last_reported":1716048486,"current_range_meters":800,"station_id":"ce4bgih2rcd13ifvqba0","pricing_plan_id":"cebpf4jnsgd1na2vs0mg"},{"bike_id":"68c95166-883b-4c23-bc2f-d647b9086ef7","system_id":"levelo_inurba_marseille","lat":43.290624,"lon":5.359245,"is_reserved":false,"is_disabled":false,"rental_uris":{"android":"levelo://app?vid=68c95166-883b-4c23-bc2f-d647b9086ef7","ios":"levelo://app?vid=68c95166-883b-4c23-bc2f-d647b9086ef7"},"vehicle_type_id":"4","last_reported":1716048486,"current_range_meters":800,"station_id":"ce4bha92rcd13ifvqeg0","pricing_plan_id":"cebpf4jnsgd1na2vs0mg"},{"bike_id":"f3d74647-ea05-4a52-9c5a-b57e5d59cde5","system_id":"levelo_inurba_marseille","lat":43.290779,"lon":5.371482,"is_reserved":false,"is_disabled":false,"rental_uris":{"android":"levelo://app?vid=f3d74647-ea05-4a52-9c5a-b57e5d59cde5","ios":"levelo://app?vid=f3d74647-ea05-4a52-9c5a-b57e5d59cde5"},"vehicle_type_id":"4","last_reported":1716048486,"current_range_meters":0,"station_id":"ce4bh5p2rcd13ifvqe4g","pricing_plan_id":"cebpf4jnsgd1na2vs0mg"},{"bike_id":"40583c16-2db4-436d-91b2-9a75e63fd03c","system_id":"levelo_inurba_marseille","lat":43.302008,"lon":5.394694,"is_reserved":false,"is_disabled":false,"rental_uris":{"android":"levelo://app?vid=40583c16-2db4-436d-91b2-9a75e63fd03c","ios":"levelo://app?vid=40583c16-2db4-436d-91b2-9a75e63fd03c"},"vehicle_type_id":"4","last_reported":1716048486,"current_range_meters":400,"station_id":"ce4bh0p2rcd13ifvqd70","pricing_plan_id":"cebpf4jnsgd1na2vs0mg"},{"bike_id":"c26adc50-6a01-4a9a-85f4-043e9727f346","system_id":"levelo_inurba_marseille","lat":43.294389,"lon":5.385691,"is_reserved":false,"is_disabled":false,"rental_uris":{"android":"levelo://app?vid=c26adc50-6a01-4a9a-85f4-043e9727f346","ios":"levelo://app?vid=c26adc50-6a01-4a9a-85f4-043e9727f346"},"vehicle_type_id":"4","last_reported":1716048486,"current_range_meters":1200,"station_id":"ce4bh2h2rcd13ifvqdh0","pricing_plan_id":"cebpf4jnsgd1na2vs0mg"},{"bike_id":"424ebab7-43e7-4afe-bc7f-c6c74dbc3129","system_id":"levelo_inurba_marseille","lat":43.289184,"lon":5.366408,"is_reserved":false,"is_disabled":false,"rental_uris":{"android":"levelo://app?vid=424ebab7-43e7-4afe-bc7f-c6c74dbc3129","ios":"levelo://app?vid=424ebab7-43e7-4afe-bc7f-c6c74dbc3129"},"vehicle_type_id":"4","last_reported":1716048486,"current_range_meters":0,"station_id":"ce4bhap2rcd13ifvqek0","pricing_plan_id":"cebpf4jnsgd1na2vs0mg"},{"bike_id":"22366688-4a24-4dc0-bdcd-5ff233f90a56","system_id":"levelo_inurba_marseille","lat":43.290417,"lon":5.375337,"is_reserved":false,"is_disabled":false,"rental_uris":{"android":"levelo://app?vid=22366688-4a24-4dc0-bdcd-5ff233f90a56","ios":"levelo://app?vid=22366688-4a24-4dc0-bdcd-5ff233f90a56"},"vehicle_type_id":"4","last_reported":1716048486,"current_range_meters":0,"station_id":"ce4bh692rcd13ifvqe90","pricing_plan_id":"cebpf4jnsgd1na2vs0mg"},{"bike_id":"6c03ba63-ec39-4563-9a29-552debcb9701","system_id":"levelo_inurba_marseille","lat":43.289572,"lon":5.364437,"is_reserved":false,"is_disabled":false,"rental_uris":{"android":"levelo://app?vid=6c03ba63-ec39-4563-9a29-552debcb9701","ios":"levelo://app?vid=6c03ba63-ec39-4563-9a29-552debcb9701"},"vehicle_type_id":"4","last_reported":1716048486,"current_range_meters":0,"station_id":"ce4bhc92rcd13ifvqetg","pricing_plan_id":"cebpf4jnsgd1na2vs0mg"},{"bike_id":"2f5dc8f5-e8b1-471e-9c4d-0f161d67dd98","system_id":"levelo_inurba_marseille","lat":43.294153,"lon":5.386305,"is_reserved":false,"is_disabled":false,"rental_uris":{"android":"levelo://app?vid=2f5dc8f5-e8b1-471e-9c4d-0f161d67dd98","ios":"levelo://app?vid=2f5dc8f5-e8b1-471e-9c4d-0f161d67dd98"},"vehicle_type_id":"4","last_reported":1716048486,"current_range_meters":7600,"station_id":"ce4bh2h2rcd13ifvqdh0","pricing_plan_id":"cebpf4jnsgd1na2vs0mg"},{"bike_id":"dce21aa5-f00a-430c-8665-25b9767e70b1","system_id":"levelo_inurba_marseille","lat":43.289468,"lon":5.363719,"is_reserved":false,"is_disabled":false,"rental_uris":{"android":"levelo://app?vid=dce21aa5-f00a-430c-8665-25b9767e70b1","ios":"levelo://app?vid=dce21aa5-f00a-430c-8665-25b9767e70b1"},"vehicle_type_id":"4","last_reported":1716048486,"current_range_meters":0,"station_id":"ce4bhc92rcd13ifvqetg","pricing_plan_id":"cebpf4jnsgd1na2vs0mg"},{"bike_id":"b8fe1c9b-360e-4329-bed9-f436c8312f08","system_id":"levelo_inurba_marseille","lat":43.290319,"lon":5.375732,"is_reserved":false,"is_disabled":false,"rental_uris":{"android":"levelo://app?vid=b8fe1c9b-360e-4329-bed9-f436c8312f08","ios":"levelo://app?vid=b8fe1c9b-360e-4329-bed9-f436c8312f08"},"vehicle_type_id":"4","last_reported":1716048486,"current_range_meters":3600,"station_id":"ce4bh692rcd13ifvqe90","pricing_plan_id":"cebpf4jnsgd1na2vs0mg"},{"bike_id":"c9fd71fb-51fe-49ba-bd4c-199a78a77d01","system_id":"levelo_inurba_marseille","lat":43.294247,"lon":5.386382,"is_reserved":false,"is_disabled":false,"rental_uris":{"android":"levelo://app?vid=c9fd71fb-51fe-49ba-bd4c-199a78a77d01","ios":"levelo://app?vid=c9fd71fb-51fe-49ba-bd4c-199a78a77d01"},"vehicle_type_id":"4","last_reported":1716048486,"current_range_meters":19600,"station_id":"ce4bh2h2rcd13ifvqdh0","pricing_plan_id":"cebpf4jnsgd1na2vs0mg"},{"bike_id":"eebbe116-d354-46c8-a996-50ebc8ceb16d","system_id":"levelo_inurba_marseille","lat":43.29416,"lon":5.38624,"is_reserved":false,"is_disabled":false,"rental_uris":{"android":"levelo://app?vid=eebbe116-d354-46c8-a996-50ebc8ceb16d","ios":"levelo://app?vid=eebbe116-d354-46c8-a996-50ebc8ceb16d"},"vehicle_type_id":"4","last_reported":1716048486,"current_range_meters":19600,"station_id":"ce4bh2h2rcd13ifvqdh0","pricing_plan_id":"cebpf4jnsgd1na2vs0mg"},{"bike_id":"d18c4d1b-4b0d-4c98-902b-5f3f259d6412","system_id":"levelo_inurba_marseille","lat":43.290631,"lon":5.359244,"is_reserved":false,"is_disabled":false,"rental_uris":{"android":"levelo://app?vid=d18c4d1b-4b0d-4c98-902b-5f3f259d6412","ios":"levelo://app?vid=d18c4d1b-4b0d-4c98-902b-5f3f259d6412"},"vehicle_type_id":"4","last_reported":1716048486,"current_range_meters":4000,"station_id":"ce4bha92rcd13ifvqeg0","pricing_plan_id":"cebpf4jnsgd1na2vs0mg"},{"bike_id":"7cf742d8-c577-4eb3-829d-b109556931bd","system_id":"levelo_inurba_marseille","lat":43.289184,"lon":5.366408,"is_reserved":false,"is_disabled":false,"rental_uris":{"android":"levelo://app?vid=7cf742d8-c577-4eb3-829d-b109556931bd","ios":"levelo://app?vid=7cf742d8-c577-4eb3-829d-b109556931bd"},"vehicle_type_id":"4","last_reported":1716048486,"current_range_meters":0,"station_id":"ce4bhap2rcd13ifvqek0","pricing_plan_id":"cebpf4jnsgd1na2vs0mg"},{"bike_id":"b20dbaa4-1672-43dc-80be-4b747ed18690","system_id":"levelo_inurba_marseille","lat":43.28934,"lon":5.36633,"is_reserved":false,"is_disabled":false,"rental_uris":{"android":"levelo://app?vid=b20dbaa4-1672-43dc-80be-4b747ed18690","ios":"levelo://app?vid=b20dbaa4-1672-43dc-80be-4b747ed18690"},"vehicle_type_id":"4","last_reported":1716048486,"current_range_meters":0,"station_id":"ce4bhap2rcd13ifvqek0","pricing_plan_id":"cebpf4jnsgd1na2vs0mg"},{"bike_id":"d985489a-9efb-4098-89d8-5d3547df71e3","system_id":"levelo_inurba_marseille","lat":43.289468,"lon":5.363719,"is_reserved":false,"is_disabled":false,"rental_uris":{"android":"levelo://app?vid=d985489a-9efb-4098-89d8-5d3547df71e3","ios":"levelo://app?vid=d985489a-9efb-4098-89d8-5d3547df71e3"},"vehicle_type_id":"4","last_reported":1716048486,"current_range_meters":28800,"station_id":"ce4bhc92rcd13ifvqetg","pricing_plan_id":"cebpf4jnsgd1na2vs0mg"},{"bike_id":"5911ec74-732a-44ad-bca6-9438e868456f","system_id":"levelo_inurba_marseille","lat":43.292644,"lon":5.384257,"is_reserved":false,"is_disabled":false,"rental_uris":{"android":"levelo://app?vid=5911ec74-732a-44ad-bca6-9438e868456f","ios":"levelo://app?vid=5911ec74-732a-44ad-bca6-9438e868456f"},"vehicle_type_id":"4","last_reported":1716048486,"current_range_meters":4800,"station_id":"ce4bh692rcd13ifvqea0","pricing_plan_id":"cebpf4jnsgd1na2vs0mg"},{"bike_id":"f53e02a9-5436-4e7c-af94-e48d0f9a65b8","system_id":"levelo_inurba_marseille","lat":43.292642,"lon":5.384254,"is_reserved":false,"is_disabled":false,"rental_uris":{"android":"levelo://app?vid=f53e02a9-5436-4e7c-af94-e48d0f9a65b8","ios":"levelo://app?vid=f53e02a9-5436-4e7c-af94-e48d0f9a65b8"},"vehicle_type_id":"4","last_reported":1716048486,"current_range_meters":0,"station_id":"ce4bh692rcd13ifvqea0","pricing_plan_id":"cebpf4jnsgd1na2vs0mg"},{"bike_id":"ee962f48-d285-4544-ae70-ed8e599c0133","system_id":"levelo_inurba_marseille","lat":43.290624,"lon":5.359245,"is_reserved":false,"is_disabled":false,"rental_uris":{"android":"levelo://app?vid=ee962f48-d285-4544-ae70-ed8e599c0133","ios":"levelo://app?vid=ee962f48-d285-4544-ae70-ed8e599c0133"},"vehicle_type_id":"4","last_reported":1716048486,"current_range_meters":6400,"station_id":"ce4bha92rcd13ifvqeg0","pricing_plan_id":"cebpf4jnsgd1na2vs0mg"},{"bike_id":"ab00b575-89c1-4e2b-b1f9-8256671c702b","system_id":"levelo_inurba_marseille","lat":43.292644,"lon":5.384257,"is_reserved":false,"is_disabled":false,"rental_uris":{"android":"levelo://app?vid=ab00b575-89c1-4e2b-b1f9-8256671c702b","ios":"levelo://app?vid=ab00b575-89c1-4e2b-b1f9-8256671c702b"},"vehicle_type_id":"4","last_reported":1716048486,"current_range_meters":8000,"station_id":"ce4bh692rcd13ifvqea0","pricing_plan_id":"cebpf4jnsgd1na2vs0mg"},{"bike_id":"39dd2ac0-2606-4553-9e96-0559c5a4219e","system_id":"levelo_inurba_marseille","lat":43.292644,"lon":5.384257,"is_reserved":false,"is_disabled":false,"rental_uris":{"android":"levelo://app?vid=39dd2ac0-2606-4553-9e96-0559c5a4219e","ios":"levelo://app?vid=39dd2ac0-2606-4553-9e96-0559c5a4219e"},"vehicle_type_id":"4","last_reported":1716048486,"current_range_meters":20800,"station_id":"ce4bh692rcd13ifvqea0","pricing_plan_id":"cebpf4jnsgd1na2vs0mg"},{"bike_id":"7a7ad3af-5f5c-417f-8751-9c69d56f8555","system_id":"levelo_inurba_marseille","lat":43.292642,"lon":5.384254,"is_reserved":false,"is_disabled":false,"rental_uris":{"android":"levelo://app?vid=7a7ad3af-5f5c-417f-8751-9c69d56f8555","ios":"levelo://app?vid=7a7ad3af-5f5c-417f-8751-9c69d56f8555"},"vehicle_type_id":"4","last_reported":1716048486,"current_range_meters":24400,"station_id":"ce4bh692rcd13ifvqea0","pricing_plan_id":"cebpf4jnsgd1na2vs0mg"},{"bike_id":"612312fd-c279-4358-befb-48036da5f7bc","system_id":"levelo_inurba_marseille","lat":43.295169,"lon":5.390426,"is_reserved":false,"is_disabled":false,"rental_uris":{"android":"levelo://app?vid=612312fd-c279-4358-befb-48036da5f7bc","ios":"levelo://app?vid=612312fd-c279-4358-befb-48036da5f7bc"},"vehicle_type_id":"4","last_reported":1716048486,"current_range_meters":16400,"station_id":"ce4bh3p2rcd13ifvqdp0","pricing_plan_id":"cebpf4jnsgd1na2vs0mg"},{"bike_id":"3ea46453-ec70-45bd-af02-aae7ecae07d6","system_id":"levelo_inurba_marseille","lat":43.290103,"lon":5.356114,"is_reserved":false,"is_disabled":false,"rental_uris":{"android":"levelo://app?vid=3ea46453-ec70-45bd-af02-aae7ecae07d6","ios":"levelo://app?vid=3ea46453-ec70-45bd-af02-aae7ecae07d6"},"vehicle_type_id":"4","last_reported":1716048486,"current_range_meters":4000,"station_id":"ce4bhb92rcd13ifvqen0","pricing_plan_id":"cebpf4jnsgd1na2vs0mg"},{"bike_id":"900015f6-486c-4fca-8250-51c6b29af804","system_id":"levelo_inurba_marseille","lat":43.290104,"lon":5.356111,"is_reserved":false,"is_disabled":false,"rental_uris":{"android":"levelo://app?vid=900015f6-486c-4fca-8250-51c6b29af804","ios":"levelo://app?vid=900015f6-486c-4fca-8250-51c6b29af804"},"vehicle_type_id":"4","last_reported":1716048486,"current_range_meters":0,"station_id":"ce4bhb92rcd13ifvqen0","pricing_plan_id":"cebpf4jnsgd1na2vs0mg"},{"bike_id":"092e46ca-427c-4d53-87ac-21492672f746","system_id":"levelo_inurba_marseille","lat":43.295169,"lon":5.390426,"is_reserved":false,"is_disabled":false,"rental_uris":{"android":"levelo://app?vid=092e46ca-427c-4d53-87ac-21492672f746","ios":"levelo://app?vid=092e46ca-427c-4d53-87ac-21492672f746"},"vehicle_type_id":"4","last_reported":1716048486,"current_range_meters":27200,"station_id":"ce4bh3p2rcd13ifvqdp0","pricing_plan_id":"cebpf4jnsgd1na2vs0mg"},{"bike_id":"c58e1d84-df7b-4023-982d-a405ecff3134","system_id":"levelo_inurba_marseille","lat":43.289741,"lon":5.378306,"is_reserved":false,"is_disabled":false,"rental_uris":{"android":"levelo://app?vid=c58e1d84-df7b-4023-982d-a405ecff3134","ios":"levelo://app?vid=c58e1d84-df7b-4023-982d-a405ecff3134"},"vehicle_type_id":"4","last_reported":1716048486,"current_range_meters":5600,"station_id":"ce4bh9p2rcd13ifvqed0","pricing_plan_id":"cebpf4jnsgd1na2vs0mg"},{"bike_id":"32acd7cb-58f7-4c59-98c9-881e8df6124b","system_id":"levelo_inurba_marseille","lat":43.29778,"lon":5.39339,"is_reserved":false,"is_disabled":false,"rental_uris":{"android":"levelo://app?vid=32acd7cb-58f7-4c59-98c9-881e8df6124b","ios":"levelo://app?vid=32acd7cb-58f7-4c59-98c9-881e8df6124b"},"vehicle_type_id":"4","last_reported":1716048486,"current_range_meters":5200,"station_id":"chh1huq6cuj3fo74tm60","pricing_plan_id":"cebpf4jnsgd1na2vs0mg"},{"bike_id":"d136587f-6eea-48f4-b497-d7a953b6905e","system_id":"levelo_inurba_marseille","lat":43.295169,"lon":5.390426,"is_reserved":false,"is_disabled":false,"rental_uris":{"android":"levelo://app?vid=d136587f-6eea-48f4-b497-d7a953b6905e","ios":"levelo://app?vid=d136587f-6eea-48f4-b497-d7a953b6905e"},"vehicle_type_id":"4","last_reported":1716048486,"current_range_meters":400,"station_id":"ce4bh3p2rcd13ifvqdp0","pricing_plan_id":"cebpf4jnsgd1na2vs0mg"},{"bike_id":"bb5e9155-dcfa-4ac5-81fc-e7f488cd7885","system_id":"levelo_inurba_marseille","lat":43.330442,"lon":5.389148,"is_reserved":false,"is_disabled":false,"rental_uris":{"android":"levelo://app?vid=bb5e9155-dcfa-4ac5-81fc-e7f488cd7885","ios":"levelo://app?vid=bb5e9155-dcfa-4ac5-81fc-e7f488cd7885"},"vehicle_type_id":"4","last_reported":1716048486,"current_range_meters":3200,"station_id":"ce4bhr92rcd13ifvqhrg","pricing_plan_id":"cebpf4jnsgd1na2vs0mg"},{"bike_id":"434dc482-cf21-492f-b234-805094595ad5","system_id":"levelo_inurba_marseille","lat":43.28976,"lon":5.37831,"is_reserved":false,"is_disabled":false,"rental_uris":{"android":"levelo://app?vid=434dc482-cf21-492f-b234-805094595ad5","ios":"levelo://app?vid=434dc482-cf21-492f-b234-805094595ad5"},"vehicle_type_id":"4","last_reported":1716048486,"current_range_meters":4800,"station_id":"ce4bh9p2rcd13ifvqed0","pricing_plan_id":"cebpf4jnsgd1na2vs0mg"},{"bike_id":"0625db30-8fe5-4b3a-a014-846bc41ad69d","system_id":"levelo_inurba_marseille","lat":43.330442,"lon":5.389148,"is_reserved":false,"is_disabled":false,"rental_uris":{"android":"levelo://app?vid=0625db30-8fe5-4b3a-a014-846bc41ad69d","ios":"levelo://app?vid=0625db30-8fe5-4b3a-a014-846bc41ad69d"},"vehicle_type_id":"4","last_reported":1716048486,"current_range_meters":3600,"station_id":"ce4bhr92rcd13ifvqhrg","pricing_plan_id":"cebpf4jnsgd1na2vs0mg"},{"bike_id":"d814a23b-76e2-4d44-b36e-32aec6081fda","system_id":"levelo_inurba_marseille","lat":43.28971,"lon":5.37831,"is_reserved":false,"is_disabled":false,"rental_uris":{"android":"levelo://app?vid=d814a23b-76e2-4d44-b36e-32aec6081fda","ios":"levelo://app?vid=d814a23b-76e2-4d44-b36e-32aec6081fda"},"vehicle_type_id":"4","last_reported":1716048486,"current_range_meters":12400,"station_id":"ce4bh9p2rcd13ifvqed0","pricing_plan_id":"cebpf4jnsgd1na2vs0mg"},{"bike_id":"049a4e26-a0bd-48c4-9fd4-c54d89be2fda","system_id":"levelo_inurba_marseille","lat":43.28856,"lon":5.358371,"is_reserved":false,"is_disabled":false,"rental_uris":{"android":"levelo://app?vid=049a4e26-a0bd-48c4-9fd4-c54d89be2fda","ios":"levelo://app?vid=049a4e26-a0bd-48c4-9fd4-c54d89be2fda"},"vehicle_type_id":"4","last_reported":1716048486,"current_range_meters":0,"station_id":"ce4bhb12rcd13ifvqem0","pricing_plan_id":"cebpf4jnsgd1na2vs0mg"},{"bike_id":"be138cf1-04f5-4da1-96fe-fcd0b429856c","system_id":"levelo_inurba_marseille","lat":43.28856,"lon":5.358371,"is_reserved":false,"is_disabled":false,"rental_uris":{"android":"levelo://app?vid=be138cf1-04f5-4da1-96fe-fcd0b429856c","ios":"levelo://app?vid=be138cf1-04f5-4da1-96fe-fcd0b429856c"},"vehicle_type_id":"4","last_reported":1716048486,"current_range_meters":27600,"station_id":"ce4bhb12rcd13ifvqem0","pricing_plan_id":"cebpf4jnsgd1na2vs0mg"},{"bike_id":"e4d77188-4116-4733-8433-746076338709","system_id":"levelo_inurba_marseille","lat":43.28856,"lon":5.358371,"is_reserved":false,"is_disabled":false,"rental_uris":{"android":"levelo://app?vid=e4d77188-4116-4733-8433-746076338709","ios":"levelo://app?vid=e4d77188-4116-4733-8433-746076338709"},"vehicle_type_id":"4","last_reported":1716048486,"current_range_meters":8400,"station_id":"ce4bhb12rcd13ifvqem0","pricing_plan_id":"cebpf4jnsgd1na2vs0mg"},{"bike_id":"3caa6732-79a3-47e6-baf9-bb2519340fc5","system_id":"levelo_inurba_marseille","lat":43.29022,"lon":5.38138,"is_reserved":false,"is_disabled":false,"rental_uris":{"android":"levelo://app?vid=3caa6732-79a3-47e6-baf9-bb2519340fc5","ios":"levelo://app?vid=3caa6732-79a3-47e6-baf9-bb2519340fc5"},"vehicle_type_id":"4","last_reported":1716048486,"current_range_meters":0,"station_id":"ce4bh4p2rcd13ifvqe1g","pricing_plan_id":"cebpf4jnsgd1na2vs0mg"},{"bike_id":"ab225203-2af6-47f0-9363-b02e8c94f5cb","system_id":"levelo_inurba_marseille","lat":43.290094,"lon":5.381264,"is_reserved":false,"is_disabled":false,"rental_uris":{"android":"levelo://app?vid=ab225203-2af6-47f0-9363-b02e8c94f5cb","ios":"levelo://app?vid=ab225203-2af6-47f0-9363-b02e8c94f5cb"},"vehicle_type_id":"4","last_reported":1716048486,"current_range_meters":25600,"station_id":"ce4bh4p2rcd13ifvqe1g","pricing_plan_id":"cebpf4jnsgd1na2vs0mg"},{"bike_id":"b5a768eb-db0c-492b-9637-01cee077cd51","system_id":"levelo_inurba_marseille","lat":43.290094,"lon":5.381264,"is_reserved":false,"is_disabled":false,"rental_uris":{"android":"levelo://app?vid=b5a768eb-db0c-492b-9637-01cee077cd51","ios":"levelo://app?vid=b5a768eb-db0c-492b-9637-01cee077cd51"},"vehicle_type_id":"4","last_reported":1716048486,"current_range_meters":4400,"station_id":"ce4bh4p2rcd13ifvqe1g","pricing_plan_id":"cebpf4jnsgd1na2vs0mg"},{"bike_id":"77c9d849-86fe-4150-8fca-4c77e7389ac2","system_id":"levelo_inurba_marseille","lat":43.28856,"lon":5.358371,"is_reserved":false,"is_disabled":false,"rental_uris":{"android":"levelo://app?vid=77c9d849-86fe-4150-8fca-4c77e7389ac2","ios":"levelo://app?vid=77c9d849-86fe-4150-8fca-4c77e7389ac2"},"vehicle_type_id":"4","last_reported":1716048486,"current_range_meters":5600,"station_id":"ce4bhb12rcd13ifvqem0","pricing_plan_id":"cebpf4jnsgd1na2vs0mg"},{"bike_id":"52ca8372-347e-4a3f-8ebe-7dfb729d8fe7","system_id":"levelo_inurba_marseille","lat":43.28856,"lon":5.358371,"is_reserved":false,"is_disabled":false,"rental_uris":{"android":"levelo://app?vid=52ca8372-347e-4a3f-8ebe-7dfb729d8fe7","ios":"levelo://app?vid=52ca8372-347e-4a3f-8ebe-7dfb729d8fe7"},"vehicle_type_id":"4","last_reported":1716048486,"current_range_meters":0,"station_id":"ce4bhb12rcd13ifvqem0","pricing_plan_id":"cebpf4jnsgd1na2vs0mg"},{"bike_id":"4fa81c91-a39d-4160-93d7-b314e9fd0ee8","system_id":"levelo_inurba_marseille","lat":43.33745,"lon":5.37453,"is_reserved":false,"is_disabled":false,"rental_uris":{"android":"levelo://app?vid=4fa81c91-a39d-4160-93d7-b314e9fd0ee8","ios":"levelo://app?vid=4fa81c91-a39d-4160-93d7-b314e9fd0ee8"},"vehicle_type_id":"4","last_reported":1716048486,"current_range_meters":13200,"station_id":"","pricing_plan_id":"cebpf4jnsgd1na2vs0mg"},{"bike_id":"9d82c127-4742-4065-bb63-06165d9487ab","system_id":"levelo_inurba_marseille","lat":43.30932,"lon":5.40143,"is_reserved":false,"is_disabled":false,"rental_uris":{"android":"levelo://app?vid=9d82c127-4742-4065-bb63-06165d9487ab","ios":"levelo://app?vid=9d82c127-4742-4065-bb63-06165d9487ab"},"vehicle_type_id":"4","last_reported":1716048486,"current_range_meters":0,"station_id":"ce4bgvp2rcd13ifvqct0","pricing_plan_id":"cebpf4jnsgd1na2vs0mg"},{"bike_id":"e1f2f429-a1e0-410a-bc27-e267a1fb9206","system_id":"levelo_inurba_marseille","lat":43.30932,"lon":5.40144,"is_reserved":false,"is_disabled":false,"rental_uris":{"android":"levelo://app?vid=e1f2f429-a1e0-410a-bc27-e267a1fb9206","ios":"levelo://app?vid=e1f2f429-a1e0-410a-bc27-e267a1fb9206"},"vehicle_type_id":"4","last_reported":1716048486,"current_range_meters":24400,"station_id":"ce4bgvp2rcd13ifvqct0","pricing_plan_id":"cebpf4jnsgd1na2vs0mg"},{"bike_id":"8fc6ebe8-68ab-4991-9aa7-185ef6592e71","system_id":"levelo_inurba_marseille","lat":43.337568,"lon":5.37449,"is_reserved":false,"is_disabled":false,"rental_uris":{"android":"levelo://app?vid=8fc6ebe8-68ab-4991-9aa7-185ef6592e71","ios":"levelo://app?vid=8fc6ebe8-68ab-4991-9aa7-185ef6592e71"},"vehicle_type_id":"4","last_reported":1716048486,"current_range_meters":11200,"station_id":"","pricing_plan_id":"cebpf4jnsgd1na2vs0mg"},{"bike_id":"73e1fa10-cd02-4201-9052-1fac5b14907e","system_id":"levelo_inurba_marseille","lat":43.309371,"lon":5.401449,"is_reserved":false,"is_disabled":false,"rental_uris":{"android":"levelo://app?vid=73e1fa10-cd02-4201-9052-1fac5b14907e","ios":"levelo://app?vid=73e1fa10-cd02-4201-9052-1fac5b14907e"},"vehicle_type_id":"4","last_reported":1716048486,"current_range_meters":10800,"station_id":"ce4bgvp2rcd13ifvqct0","pricing_plan_id":"cebpf4jnsgd1na2vs0mg"},{"bike_id":"91d9714b-b35f-47ce-8f34-022bf351236f","system_id":"levelo_inurba_marseille","lat":43.337642,"lon":5.374393,"is_reserved":false,"is_disabled":false,"rental_uris":{"android":"levelo://app?vid=91d9714b-b35f-47ce-8f34-022bf351236f","ios":"levelo://app?vid=91d9714b-b35f-47ce-8f34-022bf351236f"},"vehicle_type_id":"4","last_reported":1716048486,"current_range_meters":20800,"station_id":"","pricing_plan_id":"cebpf4jnsgd1na2vs0mg"},{"bike_id":"72228019-9b86-4b06-84e4-df6caf5be918","system_id":"levelo_inurba_marseille","lat":43.301208,"lon":5.398558,"is_reserved":false,"is_disabled":false,"rental_uris":{"android":"levelo://app?vid=72228019-9b86-4b06-84e4-df6caf5be918","ios":"levelo://app?vid=72228019-9b86-4b06-84e4-df6caf5be918"},"vehicle_type_id":"4","last_reported":1716048486,"current_range_meters":0,"station_id":"ce4bh0h2rcd13ifvqd40","pricing_plan_id":"cebpf4jnsgd1na2vs0mg"},{"bike_id":"ddad6753-715d-47c0-a2dc-eb5e28569896","system_id":"levelo_inurba_marseille","lat":43.301117,"lon":5.398795,"is_reserved":false,"is_disabled":false,"rental_uris":{"android":"levelo://app?vid=ddad6753-715d-47c0-a2dc-eb5e28569896","ios":"levelo://app?vid=ddad6753-715d-47c0-a2dc-eb5e28569896"},"vehicle_type_id":"4","last_reported":1716048486,"current_range_meters":13600,"station_id":"ce4bh0h2rcd13ifvqd40","pricing_plan_id":"cebpf4jnsgd1na2vs0mg"},{"bike_id":"962c5f0f-ac8b-4882-8c2c-3f685c20b38c","system_id":"levelo_inurba_marseille","lat":43.286591,"lon":5.363346,"is_reserved":false,"is_disabled":false,"rental_uris":{"android":"levelo://app?vid=962c5f0f-ac8b-4882-8c2c-3f685c20b38c","ios":"levelo://app?vid=962c5f0f-ac8b-4882-8c2c-3f685c20b38c"},"vehicle_type_id":"4","last_reported":1716048486,"current_range_meters":4400,"station_id":"ce4bhah2rcd13ifvqej0","pricing_plan_id":"cebpf4jnsgd1na2vs0mg"},{"bike_id":"fbbe5457-7d5a-4e58-af95-3306d3d39ce9","system_id":"levelo_inurba_marseille","lat":43.292644,"lon":5.384257,"is_reserved":false,"is_disabled":false,"rental_uris":{"android":"levelo://app?vid=fbbe5457-7d5a-4e58-af95-3306d3d39ce9","ios":"levelo://app?vid=fbbe5457-7d5a-4e58-af95-3306d3d39ce9"},"vehicle_type_id":"4","last_reported":1716048486,"current_range_meters":2800,"station_id":"ce4bh692rcd13ifvqea0","pricing_plan_id":"cebpf4jnsgd1na2vs0mg"},{"bike_id":"de49a395-3335-4971-87d9-94947f962d91","system_id":"levelo_inurba_marseille","lat":43.295196,"lon":5.39397,"is_reserved":false,"is_disabled":false,"rental_uris":{"android":"levelo://app?vid=de49a395-3335-4971-87d9-94947f962d91","ios":"levelo://app?vid=de49a395-3335-4971-87d9-94947f962d91"},"vehicle_type_id":"4","last_reported":1716048486,"current_range_meters":14000,"station_id":"ce4bh292rcd13ifvqdf0","pricing_plan_id":"cebpf4jnsgd1na2vs0mg"},{"bike_id":"fb637fd6-2b12-44bc-97a1-b0b674c944bc","system_id":"levelo_inurba_marseille","lat":43.295196,"lon":5.39397,"is_reserved":false,"is_disabled":false,"rental_uris":{"android":"levelo://app?vid=fb637fd6-2b12-44bc-97a1-b0b674c944bc","ios":"levelo://app?vid=fb637fd6-2b12-44bc-97a1-b0b674c944bc"},"vehicle_type_id":"4","last_reported":1716048486,"current_range_meters":3600,"station_id":"ce4bh292rcd13ifvqdf0","pricing_plan_id":"cebpf4jnsgd1na2vs0mg"},{"bike_id":"326afab1-d350-4044-9b50-62e99e223ecd","system_id":"levelo_inurba_marseille","lat":43.295194,"lon":5.39397,"is_reserved":false,"is_disabled":false,"rental_uris":{"android":"levelo://app?vid=326afab1-d350-4044-9b50-62e99e223ecd","ios":"levelo://app?vid=326afab1-d350-4044-9b50-62e99e223ecd"},"vehicle_type_id":"4","last_reported":1716048486,"current_range_meters":0,"station_id":"ce4bh292rcd13ifvqdf0","pricing_plan_id":"cebpf4jnsgd1na2vs0mg"},{"bike_id":"6a4e1409-e7b1-40bb-b0b0-c261bffdda76","system_id":"levelo_inurba_marseille","lat":43.290336,"lon":5.386425,"is_reserved":false,"is_disabled":false,"rental_uris":{"android":"levelo://app?vid=6a4e1409-e7b1-40bb-b0b0-c261bffdda76","ios":"levelo://app?vid=6a4e1409-e7b1-40bb-b0b0-c261bffdda76"},"vehicle_type_id":"4","last_reported":1716048486,"current_range_meters":3600,"station_id":"ce4bh4p2rcd13ifvqe0g","pricing_plan_id":"cebpf4jnsgd1na2vs0mg"},{"bike_id":"1c76883f-b28e-4780-b9e0-a62a5c371c4b","system_id":"levelo_inurba_marseille","lat":43.290345,"lon":5.38646,"is_reserved":false,"is_disabled":false,"rental_uris":{"android":"levelo://app?vid=1c76883f-b28e-4780-b9e0-a62a5c371c4b","ios":"levelo://app?vid=1c76883f-b28e-4780-b9e0-a62a5c371c4b"},"vehicle_type_id":"4","last_reported":1716048486,"current_range_meters":3200,"station_id":"ce4bh4p2rcd13ifvqe0g","pricing_plan_id":"cebpf4jnsgd1na2vs0mg"},{"bike_id":"52b66f31-9bc0-4606-9cb7-fa09a9e8203e","system_id":"levelo_inurba_marseille","lat":43.302759,"lon":5.400793,"is_reserved":false,"is_disabled":false,"rental_uris":{"android":"levelo://app?vid=52b66f31-9bc0-4606-9cb7-fa09a9e8203e","ios":"levelo://app?vid=52b66f31-9bc0-4606-9cb7-fa09a9e8203e"},"vehicle_type_id":"4","last_reported":1716048486,"current_range_meters":7200,"station_id":"ce4bgvh2rcd13ifvqcs0","pricing_plan_id":"cebpf4jnsgd1na2vs0mg"},{"bike_id":"a16fab8f-1a97-4986-90fd-921ba5620272","system_id":"levelo_inurba_marseille","lat":43.289307,"lon":5.38406,"is_reserved":false,"is_disabled":false,"rental_uris":{"android":"levelo://app?vid=a16fab8f-1a97-4986-90fd-921ba5620272","ios":"levelo://app?vid=a16fab8f-1a97-4986-90fd-921ba5620272"},"vehicle_type_id":"4","last_reported":1716048486,"current_range_meters":11200,"station_id":"ce4bh612rcd13ifvqe6g","pricing_plan_id":"cebpf4jnsgd1na2vs0mg"},{"bike_id":"cccf856b-3d06-40ae-8959-ae0cf2551b1d","system_id":"levelo_inurba_marseille","lat":43.29029,"lon":5.38646,"is_reserved":false,"is_disabled":false,"rental_uris":{"android":"levelo://app?vid=cccf856b-3d06-40ae-8959-ae0cf2551b1d","ios":"levelo://app?vid=cccf856b-3d06-40ae-8959-ae0cf2551b1d"},"vehicle_type_id":"4","last_reported":1716048486,"current_range_meters":0,"station_id":"ce4bh4p2rcd13ifvqe0g","pricing_plan_id":"cebpf4jnsgd1na2vs0mg"},{"bike_id":"1869c8e4-6eea-4957-a25f-f6f26bdcaa40","system_id":"levelo_inurba_marseille","lat":43.289307,"lon":5.38406,"is_reserved":false,"is_disabled":false,"rental_uris":{"android":"levelo://app?vid=1869c8e4-6eea-4957-a25f-f6f26bdcaa40","ios":"levelo://app?vid=1869c8e4-6eea-4957-a25f-f6f26bdcaa40"},"vehicle_type_id":"4","last_reported":1716048486,"current_range_meters":3600,"station_id":"ce4bh612rcd13ifvqe6g","pricing_plan_id":"cebpf4jnsgd1na2vs0mg"},{"bike_id":"e9e7b524-be35-41b1-a69d-b833d3fb6bc7","system_id":"levelo_inurba_marseille","lat":43.28917,"lon":5.384013,"is_reserved":false,"is_disabled":false,"rental_uris":{"android":"levelo://app?vid=e9e7b524-be35-41b1-a69d-b833d3fb6bc7","ios":"levelo://app?vid=e9e7b524-be35-41b1-a69d-b833d3fb6bc7"},"vehicle_type_id":"4","last_reported":1716048486,"current_range_meters":0,"station_id":"ce4bh612rcd13ifvqe6g","pricing_plan_id":"cebpf4jnsgd1na2vs0mg"},{"bike_id":"14c85672-99f1-41ae-b411-50b1001de1fe","system_id":"levelo_inurba_marseille","lat":43.286039,"lon":5.370681,"is_reserved":false,"is_disabled":false,"rental_uris":{"android":"levelo://app?vid=14c85672-99f1-41ae-b411-50b1001de1fe","ios":"levelo://app?vid=14c85672-99f1-41ae-b411-50b1001de1fe"},"vehicle_type_id":"4","last_reported":1716048486,"current_range_meters":0,"station_id":"ce4bht12rcd13ifvqi60","pricing_plan_id":"cebpf4jnsgd1na2vs0mg"},{"bike_id":"7c3d6570-cc38-4de4-8b92-3772c7de4455","system_id":"levelo_inurba_marseille","lat":43.286039,"lon":5.370681,"is_reserved":false,"is_disabled":false,"rental_uris":{"android":"levelo://app?vid=7c3d6570-cc38-4de4-8b92-3772c7de4455","ios":"levelo://app?vid=7c3d6570-cc38-4de4-8b92-3772c7de4455"},"vehicle_type_id":"4","last_reported":1716048486,"current_range_meters":20800,"station_id":"ce4bht12rcd13ifvqi60","pricing_plan_id":"cebpf4jnsgd1na2vs0mg"},{"bike_id":"1dad247d-f258-4bd7-95c3-35073e8b485e","system_id":"levelo_inurba_marseille","lat":43.28724,"lon":5.37944,"is_reserved":false,"is_disabled":false,"rental_uris":{"android":"levelo://app?vid=1dad247d-f258-4bd7-95c3-35073e8b485e","ios":"levelo://app?vid=1dad247d-f258-4bd7-95c3-35073e8b485e"},"vehicle_type_id":"4","last_reported":1716048486,"current_range_meters":24000,"station_id":"ce4bh9p2rcd13ifvqec0","pricing_plan_id":"cebpf4jnsgd1na2vs0mg"},{"bike_id":"2d828c3c-d34e-4e0b-a509-cd3466920103","system_id":"levelo_inurba_marseille","lat":43.28716,"lon":5.37938,"is_reserved":false,"is_disabled":false,"rental_uris":{"android":"levelo://app?vid=2d828c3c-d34e-4e0b-a509-cd3466920103","ios":"levelo://app?vid=2d828c3c-d34e-4e0b-a509-cd3466920103"},"vehicle_type_id":"4","last_reported":1716048486,"current_range_meters":0,"station_id":"ce4bh9p2rcd13ifvqec0","pricing_plan_id":"cebpf4jnsgd1na2vs0mg"},{"bike_id":"17455da9-a140-4d55-92ee-0d9841f03e58","system_id":"levelo_inurba_marseille","lat":43.273609,"lon":5.362708,"is_reserved":false,"is_disabled":false,"rental_uris":{"android":"levelo://app?vid=17455da9-a140-4d55-92ee-0d9841f03e58","ios":"levelo://app?vid=17455da9-a140-4d55-92ee-0d9841f03e58"},"vehicle_type_id":"4","last_reported":1716048486,"current_range_meters":1200,"station_id":"ce4bhbh2rcd13ifvqeo0","pricing_plan_id":"cebpf4jnsgd1na2vs0mg"},{"bike_id":"50722b0f-6636-4f3a-b828-1e3ea8c1adaa","system_id":"levelo_inurba_marseille","lat":43.303093,"lon":5.40257,"is_reserved":false,"is_disabled":false,"rental_uris":{"android":"levelo://app?vid=50722b0f-6636-4f3a-b828-1e3ea8c1adaa","ios":"levelo://app?vid=50722b0f-6636-4f3a-b828-1e3ea8c1adaa"},"vehicle_type_id":"4","last_reported":1716048486,"current_range_meters":16400,"station_id":"","pricing_plan_id":"cebpf4jnsgd1na2vs0mg"},{"bike_id":"52c57bec-29c1-41c7-b3e6-cc8929a963ad","system_id":"levelo_inurba_marseille","lat":43.291994,"lon":5.392907,"is_reserved":false,"is_disabled":false,"rental_uris":{"android":"levelo://app?vid=52c57bec-29c1-41c7-b3e6-cc8929a963ad","ios":"levelo://app?vid=52c57bec-29c1-41c7-b3e6-cc8929a963ad"},"vehicle_type_id":"4","last_reported":1716048486,"current_range_meters":6800,"station_id":"ce4bh192rcd13ifvqdd0","pricing_plan_id":"cebpf4jnsgd1na2vs0mg"},{"bike_id":"dabaf0bb-9ab7-4632-b19f-4ba371046375","system_id":"levelo_inurba_marseille","lat":43.291994,"lon":5.392907,"is_reserved":false,"is_disabled":false,"rental_uris":{"android":"levelo://app?vid=dabaf0bb-9ab7-4632-b19f-4ba371046375","ios":"levelo://app?vid=dabaf0bb-9ab7-4632-b19f-4ba371046375"},"vehicle_type_id":"4","last_reported":1716048486,"current_range_meters":7200,"station_id":"ce4bh192rcd13ifvqdd0","pricing_plan_id":"cebpf4jnsgd1na2vs0mg"},{"bike_id":"90c973bb-e88c-4ef7-a3eb-5d383ba7c2ab","system_id":"levelo_inurba_marseille","lat":43.28468,"lon":5.37143,"is_reserved":false,"is_disabled":false,"rental_uris":{"android":"levelo://app?vid=90c973bb-e88c-4ef7-a3eb-5d383ba7c2ab","ios":"levelo://app?vid=90c973bb-e88c-4ef7-a3eb-5d383ba7c2ab"},"vehicle_type_id":"4","last_reported":1716048486,"current_range_meters":0,"station_id":"ce4bhap2rcd13ifvqek0","pricing_plan_id":"cebpf4jnsgd1na2vs0mg"},{"bike_id":"764d2c91-e46d-4095-ac86-e2f2b628e8f4","system_id":"levelo_inurba_marseille","lat":43.284534,"lon":5.358662,"is_reserved":false,"is_disabled":false,"rental_uris":{"android":"levelo://app?vid=764d2c91-e46d-4095-ac86-e2f2b628e8f4","ios":"levelo://app?vid=764d2c91-e46d-4095-ac86-e2f2b628e8f4"},"vehicle_type_id":"4","last_reported":1716048486,"current_range_meters":12000,"station_id":"ce4bhah2rcd13ifvqei0","pricing_plan_id":"cebpf4jnsgd1na2vs0mg"},{"bike_id":"c3295b1f-b401-4665-a192-649550632166","system_id":"levelo_inurba_marseille","lat":43.284534,"lon":5.358662,"is_reserved":false,"is_disabled":false,"rental_uris":{"android":"levelo://app?vid=c3295b1f-b401-4665-a192-649550632166","ios":"levelo://app?vid=c3295b1f-b401-4665-a192-649550632166"},"vehicle_type_id":"4","last_reported":1716048486,"current_range_meters":0,"station_id":"ce4bhah2rcd13ifvqei0","pricing_plan_id":"cebpf4jnsgd1na2vs0mg"},{"bike_id":"a50eab27-47fe-488e-9ede-e3109acf8b60","system_id":"levelo_inurba_marseille","lat":43.28459,"lon":5.35887,"is_reserved":false,"is_disabled":false,"rental_uris":{"android":"levelo://app?vid=a50eab27-47fe-488e-9ede-e3109acf8b60","ios":"levelo://app?vid=a50eab27-47fe-488e-9ede-e3109acf8b60"},"vehicle_type_id":"4","last_reported":1716048486,"current_range_meters":9200,"station_id":"ce4bhah2rcd13ifvqei0","pricing_plan_id":"cebpf4jnsgd1na2vs0mg"},{"bike_id":"84a013d1-eba3-4aee-a80e-0248bc8b16c1","system_id":"levelo_inurba_marseille","lat":43.284534,"lon":5.358662,"is_reserved":false,"is_disabled":false,"rental_uris":{"android":"levelo://app?vid=84a013d1-eba3-4aee-a80e-0248bc8b16c1","ios":"levelo://app?vid=84a013d1-eba3-4aee-a80e-0248bc8b16c1"},"vehicle_type_id":"4","last_reported":1716048486,"current_range_meters":12400,"station_id":"ce4bhah2rcd13ifvqei0","pricing_plan_id":"cebpf4jnsgd1na2vs0mg"},{"bike_id":"19072fff-80ae-4e13-a173-f470ba95da7a","system_id":"levelo_inurba_marseille","lat":43.299176,"lon":5.401774,"is_reserved":false,"is_disabled":false,"rental_uris":{"android":"levelo://app?vid=19072fff-80ae-4e13-a173-f470ba95da7a","ios":"levelo://app?vid=19072fff-80ae-4e13-a173-f470ba95da7a"},"vehicle_type_id":"4","last_reported":1716048486,"current_range_meters":0,"station_id":"","pricing_plan_id":"cebpf4jnsgd1na2vs0mg"},{"bike_id":"7010f6c7-243f-423d-9fcd-cc8b7ff1062e","system_id":"levelo_inurba_marseille","lat":43.284538,"lon":5.358657,"is_reserved":false,"is_disabled":false,"rental_uris":{"android":"levelo://app?vid=7010f6c7-243f-423d-9fcd-cc8b7ff1062e","ios":"levelo://app?vid=7010f6c7-243f-423d-9fcd-cc8b7ff1062e"},"vehicle_type_id":"4","last_reported":1716048486,"current_range_meters":13200,"station_id":"ce4bhah2rcd13ifvqei0","pricing_plan_id":"cebpf4jnsgd1na2vs0mg"},{"bike_id":"7338de27-524b-4aa5-a4ad-2a7c20cfef52","system_id":"levelo_inurba_marseille","lat":43.284534,"lon":5.358662,"is_reserved":false,"is_disabled":false,"rental_uris":{"android":"levelo://app?vid=7338de27-524b-4aa5-a4ad-2a7c20cfef52","ios":"levelo://app?vid=7338de27-524b-4aa5-a4ad-2a7c20cfef52"},"vehicle_type_id":"4","last_reported":1716048486,"current_range_meters":10400,"station_id":"ce4bhah2rcd13ifvqei0","pricing_plan_id":"cebpf4jnsgd1na2vs0mg"},{"bike_id":"9b8af775-4b15-4960-9abd-70176048287c","system_id":"levelo_inurba_marseille","lat":43.284534,"lon":5.358662,"is_reserved":false,"is_disabled":false,"rental_uris":{"android":"levelo://app?vid=9b8af775-4b15-4960-9abd-70176048287c","ios":"levelo://app?vid=9b8af775-4b15-4960-9abd-70176048287c"},"vehicle_type_id":"4","last_reported":1716048486,"current_range_meters":0,"station_id":"ce4bhah2rcd13ifvqei0","pricing_plan_id":"cebpf4jnsgd1na2vs0mg"},{"bike_id":"f17c3039-28bb-49a6-8662-936915d2640b","system_id":"levelo_inurba_marseille","lat":43.284538,"lon":5.358657,"is_reserved":false,"is_disabled":false,"rental_uris":{"android":"levelo://app?vid=f17c3039-28bb-49a6-8662-936915d2640b","ios":"levelo://app?vid=f17c3039-28bb-49a6-8662-936915d2640b"},"vehicle_type_id":"4","last_reported":1716048486,"current_range_meters":1600,"station_id":"ce4bhah2rcd13ifvqei0","pricing_plan_id":"cebpf4jnsgd1na2vs0mg"},{"bike_id":"ff8f55a3-2fb3-426f-a0e2-fb6f1c3cd904","system_id":"levelo_inurba_marseille","lat":43.284538,"lon":5.358657,"is_reserved":false,"is_disabled":false,"rental_uris":{"android":"levelo://app?vid=ff8f55a3-2fb3-426f-a0e2-fb6f1c3cd904","ios":"levelo://app?vid=ff8f55a3-2fb3-426f-a0e2-fb6f1c3cd904"},"vehicle_type_id":"4","last_reported":1716048486,"current_range_meters":30000,"station_id":"ce4bhah2rcd13ifvqei0","pricing_plan_id":"cebpf4jnsgd1na2vs0mg"},{"bike_id":"7e18f216-358e-4b77-8352-b76257bfd899","system_id":"levelo_inurba_marseille","lat":43.283998,"lon":5.375062,"is_reserved":false,"is_disabled":false,"rental_uris":{"android":"levelo://app?vid=7e18f216-358e-4b77-8352-b76257bfd899","ios":"levelo://app?vid=7e18f216-358e-4b77-8352-b76257bfd899"},"vehicle_type_id":"4","last_reported":1716048486,"current_range_meters":31200,"station_id":"ce4bh412rcd13ifvqds0","pricing_plan_id":"cebpf4jnsgd1na2vs0mg"},{"bike_id":"58e7e2d3-1462-4378-a2cf-a52459b46dc1","system_id":"levelo_inurba_marseille","lat":43.286211,"lon":5.351097,"is_reserved":false,"is_disabled":false,"rental_uris":{"android":"levelo://app?vid=58e7e2d3-1462-4378-a2cf-a52459b46dc1","ios":"levelo://app?vid=58e7e2d3-1462-4378-a2cf-a52459b46dc1"},"vehicle_type_id":"4","last_reported":1716048486,"current_range_meters":2800,"station_id":"ce4bhch2rcd13ifvqeug","pricing_plan_id":"cebpf4jnsgd1na2vs0mg"},{"bike_id":"6b192d31-b845-4d6b-8b55-a379711f5e0f","system_id":"levelo_inurba_marseille","lat":43.28619,"lon":5.35112,"is_reserved":false,"is_disabled":false,"rental_uris":{"android":"levelo://app?vid=6b192d31-b845-4d6b-8b55-a379711f5e0f","ios":"levelo://app?vid=6b192d31-b845-4d6b-8b55-a379711f5e0f"},"vehicle_type_id":"4","last_reported":1716048486,"current_range_meters":18800,"station_id":"ce4bhch2rcd13ifvqeug","pricing_plan_id":"cebpf4jnsgd1na2vs0mg"},{"bike_id":"2cb99353-df25-4e97-8f3d-167322af5811","system_id":"levelo_inurba_marseille","lat":43.28621,"lon":5.35102,"is_reserved":false,"is_disabled":false,"rental_uris":{"android":"levelo://app?vid=2cb99353-df25-4e97-8f3d-167322af5811","ios":"levelo://app?vid=2cb99353-df25-4e97-8f3d-167322af5811"},"vehicle_type_id":"4","last_reported":1716048486,"current_range_meters":0,"station_id":"ce4bhch2rcd13ifvqeug","pricing_plan_id":"cebpf4jnsgd1na2vs0mg"},{"bike_id":"46c9d085-27ca-4f4a-bc58-14dac41a524f","system_id":"levelo_inurba_marseille","lat":43.28618,"lon":5.35107,"is_reserved":false,"is_disabled":false,"rental_uris":{"android":"levelo://app?vid=46c9d085-27ca-4f4a-bc58-14dac41a524f","ios":"levelo://app?vid=46c9d085-27ca-4f4a-bc58-14dac41a524f"},"vehicle_type_id":"4","last_reported":1716048486,"current_range_meters":0,"station_id":"ce4bhch2rcd13ifvqeug","pricing_plan_id":"cebpf4jnsgd1na2vs0mg"},{"bike_id":"bf811e51-94b0-4e29-8940-ea9d676aa564","system_id":"levelo_inurba_marseille","lat":43.28618,"lon":5.35106,"is_reserved":false,"is_disabled":false,"rental_uris":{"android":"levelo://app?vid=bf811e51-94b0-4e29-8940-ea9d676aa564","ios":"levelo://app?vid=bf811e51-94b0-4e29-8940-ea9d676aa564"},"vehicle_type_id":"4","last_reported":1716048486,"current_range_meters":31200,"station_id":"ce4bhch2rcd13ifvqeug","pricing_plan_id":"cebpf4jnsgd1na2vs0mg"},{"bike_id":"89d91cdc-2197-41d1-a7d1-c019d01d589f","system_id":"levelo_inurba_marseille","lat":43.28617,"lon":5.35106,"is_reserved":false,"is_disabled":false,"rental_uris":{"android":"levelo://app?vid=89d91cdc-2197-41d1-a7d1-c019d01d589f","ios":"levelo://app?vid=89d91cdc-2197-41d1-a7d1-c019d01d589f"},"vehicle_type_id":"4","last_reported":1716048486,"current_range_meters":14400,"station_id":"ce4bhch2rcd13ifvqeug","pricing_plan_id":"cebpf4jnsgd1na2vs0mg"},{"bike_id":"f81ba6d3-c0ba-42d8-9ea9-e8af2d65048d","system_id":"levelo_inurba_marseille","lat":43.28615,"lon":5.35108,"is_reserved":false,"is_disabled":false,"rental_uris":{"android":"levelo://app?vid=f81ba6d3-c0ba-42d8-9ea9-e8af2d65048d","ios":"levelo://app?vid=f81ba6d3-c0ba-42d8-9ea9-e8af2d65048d"},"vehicle_type_id":"4","last_reported":1716048486,"current_range_meters":26800,"station_id":"ce4bhch2rcd13ifvqeug","pricing_plan_id":"cebpf4jnsgd1na2vs0mg"},{"bike_id":"4fafa515-a3f3-4f81-a585-1dbc41d5b33d","system_id":"levelo_inurba_marseille","lat":43.28615,"lon":5.35106,"is_reserved":false,"is_disabled":false,"rental_uris":{"android":"levelo://app?vid=4fafa515-a3f3-4f81-a585-1dbc41d5b33d","ios":"levelo://app?vid=4fafa515-a3f3-4f81-a585-1dbc41d5b33d"},"vehicle_type_id":"4","last_reported":1716048486,"current_range_meters":0,"station_id":"ce4bhch2rcd13ifvqeug","pricing_plan_id":"cebpf4jnsgd1na2vs0mg"},{"bike_id":"4617576d-8588-480b-b8d9-645d81c3fe5a","system_id":"levelo_inurba_marseille","lat":43.286143,"lon":5.351077,"is_reserved":false,"is_disabled":false,"rental_uris":{"android":"levelo://app?vid=4617576d-8588-480b-b8d9-645d81c3fe5a","ios":"levelo://app?vid=4617576d-8588-480b-b8d9-645d81c3fe5a"},"vehicle_type_id":"4","last_reported":1716048486,"current_range_meters":4400,"station_id":"ce4bhch2rcd13ifvqeug","pricing_plan_id":"cebpf4jnsgd1na2vs0mg"},{"bike_id":"a204df4d-e329-4413-be6d-89e8eed6feea","system_id":"levelo_inurba_marseille","lat":43.28614,"lon":5.35106,"is_reserved":false,"is_disabled":false,"rental_uris":{"android":"levelo://app?vid=a204df4d-e329-4413-be6d-89e8eed6feea","ios":"levelo://app?vid=a204df4d-e329-4413-be6d-89e8eed6feea"},"vehicle_type_id":"4","last_reported":1716048486,"current_range_meters":10800,"station_id":"ce4bhch2rcd13ifvqeug","pricing_plan_id":"cebpf4jnsgd1na2vs0mg"},{"bike_id":"d764992a-ea70-4bd2-a3b8-fd60d8a6cd0d","system_id":"levelo_inurba_marseille","lat":43.28615,"lon":5.35102,"is_reserved":false,"is_disabled":false,"rental_uris":{"android":"levelo://app?vid=d764992a-ea70-4bd2-a3b8-fd60d8a6cd0d","ios":"levelo://app?vid=d764992a-ea70-4bd2-a3b8-fd60d8a6cd0d"},"vehicle_type_id":"4","last_reported":1716048486,"current_range_meters":22000,"station_id":"ce4bhch2rcd13ifvqeug","pricing_plan_id":"cebpf4jnsgd1na2vs0mg"},{"bike_id":"6f109804-73ae-484b-8762-bc6d63d6c534","system_id":"levelo_inurba_marseille","lat":43.28615,"lon":5.35102,"is_reserved":false,"is_disabled":false,"rental_uris":{"android":"levelo://app?vid=6f109804-73ae-484b-8762-bc6d63d6c534","ios":"levelo://app?vid=6f109804-73ae-484b-8762-bc6d63d6c534"},"vehicle_type_id":"4","last_reported":1716048486,"current_range_meters":5200,"station_id":"ce4bhch2rcd13ifvqeug","pricing_plan_id":"cebpf4jnsgd1na2vs0mg"},{"bike_id":"7ba1b34e-f10a-4c0b-927e-d4b3c9e5a04f","system_id":"levelo_inurba_marseille","lat":43.28615,"lon":5.35101,"is_reserved":false,"is_disabled":false,"rental_uris":{"android":"levelo://app?vid=7ba1b34e-f10a-4c0b-927e-d4b3c9e5a04f","ios":"levelo://app?vid=7ba1b34e-f10a-4c0b-927e-d4b3c9e5a04f"},"vehicle_type_id":"4","last_reported":1716048486,"current_range_meters":19200,"station_id":"ce4bhch2rcd13ifvqeug","pricing_plan_id":"cebpf4jnsgd1na2vs0mg"},{"bike_id":"156ac7f3-908c-4659-9ed1-4f4a00a47544","system_id":"levelo_inurba_marseille","lat":43.28614,"lon":5.35103,"is_reserved":false,"is_disabled":false,"rental_uris":{"android":"levelo://app?vid=156ac7f3-908c-4659-9ed1-4f4a00a47544","ios":"levelo://app?vid=156ac7f3-908c-4659-9ed1-4f4a00a47544"},"vehicle_type_id":"4","last_reported":1716048486,"current_range_meters":10400,"station_id":"ce4bhch2rcd13ifvqeug","pricing_plan_id":"cebpf4jnsgd1na2vs0mg"},{"bike_id":"d588d0db-134e-4bf0-9a01-643ee92c6adc","system_id":"levelo_inurba_marseille","lat":43.286137,"lon":5.351029,"is_reserved":false,"is_disabled":false,"rental_uris":{"android":"levelo://app?vid=d588d0db-134e-4bf0-9a01-643ee92c6adc","ios":"levelo://app?vid=d588d0db-134e-4bf0-9a01-643ee92c6adc"},"vehicle_type_id":"4","last_reported":1716048486,"current_range_meters":0,"station_id":"ce4bhch2rcd13ifvqeug","pricing_plan_id":"cebpf4jnsgd1na2vs0mg"},