{"last_updated":1708034785,"ttl":30,"version":"2.2","data":{"bikes":[{"bike_id":"57cc7846-7a3e-4761-a4fb-e541da702903","system_id":"levelo_inurba_marseille","lat":43.31341,"lon":5.367098,"is_reserved":false,"is_disabled":false,"rental_uris":{"android":"levelo://app?vid=57cc7846-7a3e-4761-a4fb-e541da702903","ios":"levelo://app?vid=57cc7846-7a3e-4761-a4fb-e541da702903"},"vehicle_type_id":"4","last_reported":1708034785,"current_range_meters":0,"station_id":"ce4bgr92rcd13ifvqc6g","pricing_plan_id":"cebpf4jnsgd1na2vs0mg"},{"bike_id":"80d40d17-e730-4767-81ee-7310bc20947a","system_id":"levelo_inurba_marseille","lat":43.312239,"lon":5.368562,"is_reserved":false,"is_disabled":false,"rental_uris":{"android":"levelo://app?vid=80d40d17-e730-4767-81ee-7310bc20947a","ios":"levelo://app?vid=80d40d17-e730-4767-81ee-7310bc20947a"},"vehicle_type_id":"4","last_reported":1708034785,"current_range_meters":23600,"station_id":"ce4bgl92rcd13ifvqbq0","pricing_plan_id":"cebpf4jnsgd1na2vs0mg"},{"bike_id":"d5c03cdd-883d-4f8c-8575-21ce8120f581","system_id":"levelo_inurba_marseille","lat":43.312239,"lon":5.368562,"is_reserved":false,"is_disabled":false,"rental_uris":{"android":"levelo://app?vid=d5c03cdd-883d-4f8c-8575-21ce8120f581","ios":"levelo://app?vid=d5c03cdd-883d-4f8c-8575-21ce8120f581"},"vehicle_type_id":"4","last_reported":1708034785,"current_range_meters":26000,"station_id":"ce4bgl92rcd13ifvqbq0","pricing_plan_id":"cebpf4jnsgd1na2vs0mg"},{"bike_id":"b1e06b7e-a0b2-4514-99c3-db1cf77a9238","system_id":"levelo_inurba_marseille","lat":43.31229,"lon":5.36852,"is_reserved":false,"is_disabled":false,"rental_uris":{"android":"levelo://app?vid=b1e06b7e-a0b2-4514-99c3-db1cf77a9238","ios":"levelo://app?vid=b1e06b7e-a0b2-4514-99c3-db1cf77a9238"},"vehicle_type_id":"4","last_reported":1708034785,"current_range_meters":17200,"station_id":"ce4bgl92rcd13ifvqbq0","pricing_plan_id":"cebpf4jnsgd1na2vs0mg"},{"bike_id":"a9777f56-dfa2-4ef5-b6c0-372a44d5558d","system_id":"levelo_inurba_marseille","lat":43.312239,"lon":5.368562,"is_reserved":false,"is_disabled":false,"rental_uris":{"android":"levelo://app?vid=a9777f56-dfa2-4ef5-b6c0-372a44d5558d","ios":"levelo://app?vid=a9777f56-dfa2-4ef5-b6c0-372a44d5558d"},"vehicle_type_id":"4","last_reported":1708034785,"current_range_meters":3600,"station_id":"ce4bgl92rcd13ifvqbq0","pricing_plan_id":"cebpf4jnsgd1na2vs0mg"},{"bike_id":"1e4d0e10-e730-4255-9f98-887873e86383","system_id":"levelo_inurba_marseille","lat":43.312239,"lon":5.368562,"is_reserved":false,"is_disabled":false,"rental_uris":{"android":"levelo://app?vid=1e4d0e10-e730-4255-9f98-887873e86383","ios":"levelo://app?vid=1e4d0e10-e730-4255-9f98-887873e86383"},"vehicle_type_id":"4","last_reported":1708034785,"current_range_meters":10400,"station_id":"ce4bgl92rcd13ifvqbq0","pricing_plan_id":"cebpf4jnsgd1na2vs0mg"},{"bike_id":"1886e30f-e37f-4776-b1e7-da3bb096356c","system_id":"levelo_inurba_marseille","lat":43.312239,"lon":5.368562,"is_reserved":false,"is_disabled":false,"rental_uris":{"android":"levelo://app?vid=1886e30f-e37f-4776-b1e7-da3bb096356c","ios":"levelo://app?vid=1886e30f-e37f-4776-b1e7-da3bb096356c"},"vehicle_type_id":"4","last_reported":1708034785,"current_range_meters":20800,"station_id":"ce4bgl92rcd13ifvqbq0","pricing_plan_id":"cebpf4jnsgd1na2vs0mg"},{"bike_id":"db13be7d-9864-4e9d-84be-4df9c90383e8","system_id":"levelo_inurba_marseille","lat":43.312239,"lon":5.368562,"is_reserved":false,"is_disabled":false,"rental_uris":{"android":"levelo://app?vid=db13be7d-9864-4e9d-84be-4df9c90383e8","ios":"levelo://app?vid=db13be7d-9864-4e9d-84be-4df9c90383e8"},"vehicle_type_id":"4","last_reported":1708034785,"current_range_meters":8000,"station_id":"ce4bgl92rcd13ifvqbq0","pricing_plan_id":"cebpf4jnsgd1na2vs0mg"},{"bike_id":"d819a46c-365f-40f0-8f32-f360c2640213","system_id":"levelo_inurba_marseille","lat":43.312239,"lon":5.368562,"is_reserved":false,"is_disabled":false,"rental_uris":{"android":"levelo://app?vid=d819a46c-365f-40f0-8f32-f360c2640213","ios":"levelo://app?vid=d819a46c-365f-40f0-8f32-f360c2640213"},"vehicle_type_id":"4","last_reported":1708034785,"current_range_meters":19600,"station_id":"ce4bgl92rcd13ifvqbq0","pricing_plan_id":"cebpf4jnsgd1na2vs0mg"},{"bike_id":"a8b5b6e9-ee1f-404c-bea9-db08c8e8ae41","system_id":"levelo_inurba_marseille","lat":43.309076,"lon":5.368465,"is_reserved":false,"is_disabled":false,"rental_uris":{"android":"levelo://app?vid=a8b5b6e9-ee1f-404c-bea9-db08c8e8ae41","ios":"levelo://app?vid=a8b5b6e9-ee1f-404c-bea9-db08c8e8ae41"},"vehicle_type_id":"4","last_reported":1708034785,"current_range_meters":7200,"station_id":"ce4bgn92rcd13ifvqbvg","pricing_plan_id":"cebpf4jnsgd1na2vs0mg"},{"bike_id":"056c460b-295d-4a3a-a3be-668fba7080ae","system_id":"levelo_inurba_marseille","lat":43.314811,"lon":5.373103,"is_reserved":false,"is_disabled":false,"rental_uris":{"android":"levelo://app?vid=056c460b-295d-4a3a-a3be-668fba7080ae","ios":"levelo://app?vid=056c460b-295d-4a3a-a3be-668fba7080ae"},"vehicle_type_id":"4","last_reported":1708034785,"current_range_meters":0,"station_id":"ce4bgt12rcd13ifvqcd0","pricing_plan_id":"cebpf4jnsgd1na2vs0mg"},{"bike_id":"44664950-8a83-4d38-8b90-c0da0d8aa6a1","system_id":"levelo_inurba_marseille","lat":43.309039,"lon":5.371797,"is_reserved":false,"is_disabled":false,"rental_uris":{"android":"levelo://app?vid=44664950-8a83-4d38-8b90-c0da0d8aa6a1","ios":"levelo://app?vid=44664950-8a83-4d38-8b90-c0da0d8aa6a1"},"vehicle_type_id":"4","last_reported":1708034785,"current_range_meters":28400,"station_id":"ce4bguh2rcd13ifvqckg","pricing_plan_id":"cebpf4jnsgd1na2vs0mg"},{"bike_id":"29e67b27-522d-4e52-87a1-b03cff41b2d6","system_id":"levelo_inurba_marseille","lat":43.309039,"lon":5.371797,"is_reserved":false,"is_disabled":false,"rental_uris":{"android":"levelo://app?vid=29e67b27-522d-4e52-87a1-b03cff41b2d6","ios":"levelo://app?vid=29e67b27-522d-4e52-87a1-b03cff41b2d6"},"vehicle_type_id":"4","last_reported":1708034785,"current_range_meters":27200,"station_id":"ce4bguh2rcd13ifvqckg","pricing_plan_id":"cebpf4jnsgd1na2vs0mg"},{"bike_id":"8db88541-372d-4c76-8acc-6651ce48de75","system_id":"levelo_inurba_marseille","lat":43.305368,"lon":5.367343,"is_reserved":false,"is_disabled":false,"rental_uris":{"android":"levelo://app?vid=8db88541-372d-4c76-8acc-6651ce48de75","ios":"levelo://app?vid=8db88541-372d-4c76-8acc-6651ce48de75"},"vehicle_type_id":"4","last_reported":1708034785,"current_range_meters":16400,"station_id":"ce4bgrp2rcd13ifvqc9g","pricing_plan_id":"cebpf4jnsgd1na2vs0mg"},{"bike_id":"38c56a46-6f6d-46c4-a14c-d81b1880d84a","system_id":"levelo_inurba_marseille","lat":43.305989,"lon":5.37225,"is_reserved":false,"is_disabled":false,"rental_uris":{"android":"levelo://app?vid=38c56a46-6f6d-46c4-a14c-d81b1880d84a","ios":"levelo://app?vid=38c56a46-6f6d-46c4-a14c-d81b1880d84a"},"vehicle_type_id":"4","last_reported":1708034785,"current_range_meters":5200,"station_id":"ce4bgqh2rcd13ifvqc4g","pricing_plan_id":"cebpf4jnsgd1na2vs0mg"},{"bike_id":"cd893a2f-3bb5-413b-812a-17af98c59678","system_id":"levelo_inurba_marseille","lat":43.311131,"lon":5.377651,"is_reserved":false,"is_disabled":false,"rental_uris":{"android":"levelo://app?vid=cd893a2f-3bb5-413b-812a-17af98c59678","ios":"levelo://app?vid=cd893a2f-3bb5-413b-812a-17af98c59678"},"vehicle_type_id":"4","last_reported":1708034785,"current_range_meters":27200,"station_id":"ce4bgt92rcd13ifvqcg0","pricing_plan_id":"cebpf4jnsgd1na2vs0mg"},{"bike_id":"326f744e-f7bb-4e92-b44e-2c98bd92b232","system_id":"levelo_inurba_marseille","lat":43.311131,"lon":5.377651,"is_reserved":false,"is_disabled":false,"rental_uris":{"android":"levelo://app?vid=326f744e-f7bb-4e92-b44e-2c98bd92b232","ios":"levelo://app?vid=326f744e-f7bb-4e92-b44e-2c98bd92b232"},"vehicle_type_id":"4","last_reported":1708034785,"current_range_meters":3200,"station_id":"ce4bgt92rcd13ifvqcg0","pricing_plan_id":"cebpf4jnsgd1na2vs0mg"},{"bike_id":"7cf6c0ff-bce6-47f1-b6fe-5ab1236b74db","system_id":"levelo_inurba_marseille","lat":43.3113,"lon":5.37764,"is_reserved":false,"is_disabled":false,"rental_uris":{"android":"levelo://app?vid=7cf6c0ff-bce6-47f1-b6fe-5ab1236b74db","ios":"levelo://app?vid=7cf6c0ff-bce6-47f1-b6fe-5ab1236b74db"},"vehicle_type_id":"4","last_reported":1708034785,"current_range_meters":0,"station_id":"ce4bgt92rcd13ifvqcg0","pricing_plan_id":"cebpf4jnsgd1na2vs0mg"},{"bike_id":"df7164c7-d670-4d02-a01a-881f90bd45db","system_id":"levelo_inurba_marseille","lat":43.311131,"lon":5.377651,"is_reserved":false,"is_disabled":false,"rental_uris":{"android":"levelo://app?vid=df7164c7-d670-4d02-a01a-881f90bd45db","ios":"levelo://app?vid=df7164c7-d670-4d02-a01a-881f90bd45db"},"vehicle_type_id":"4","last_reported":1708034785,"current_range_meters":10800,"station_id":"ce4bgt92rcd13ifvqcg0","pricing_plan_id":"cebpf4jnsgd1na2vs0mg"},{"bike_id":"36c4cac5-0923-43b9-b545-1bf3e5af092d","system_id":"levelo_inurba_marseille","lat":43.311131,"lon":5.377651,"is_reserved":false,"is_disabled":false,"rental_uris":{"android":"levelo://app?vid=36c4cac5-0923-43b9-b545-1bf3e5af092d","ios":"levelo://app?vid=36c4cac5-0923-43b9-b545-1bf3e5af092d"},"vehicle_type_id":"4","last_reported":1708034785,"current_range_meters":20800,"station_id":"ce4bgt92rcd13ifvqcg0","pricing_plan_id":"cebpf4jnsgd1na2vs0mg"},{"bike_id":"74c06545-9daa-4d3f-bd1f-12282f684bba","system_id":"levelo_inurba_marseille","lat":43.311131,"lon":5.377651,"is_reserved":false,"is_disabled":false,"rental_uris":{"android":"levelo://app?vid=74c06545-9daa-4d3f-bd1f-12282f684bba","ios":"levelo://app?vid=74c06545-9daa-4d3f-bd1f-12282f684bba"},"vehicle_type_id":"4","last_reported":1708034785,"current_range_meters":3600,"station_id":"ce4bgt92rcd13ifvqcg0","pricing_plan_id":"cebpf4jnsgd1na2vs0mg"},{"bike_id":"752aa9f8-c31f-44ce-83e9-f2911a21a674","system_id":"levelo_inurba_marseille","lat":43.313391,"lon":5.36706,"is_reserved":false,"is_disabled":false,"rental_uris":{"android":"levelo://app?vid=752aa9f8-c31f-44ce-83e9-f2911a21a674","ios":"levelo://app?vid=752aa9f8-c31f-44ce-83e9-f2911a21a674"},"vehicle_type_id":"4","last_reported":1708034785,"current_range_meters":26000,"station_id":"ce4bgr92rcd13ifvqc6g","pricing_plan_id":"cebpf4jnsgd1na2vs0mg"},{"bike_id":"978ed11a-0a52-484b-9e76-5af07e161748","system_id":"levelo_inurba_marseille","lat":43.307945,"lon":5.376487,"is_reserved":false,"is_disabled":false,"rental_uris":{"android":"levelo://app?vid=978ed11a-0a52-484b-9e76-5af07e161748","ios":"levelo://app?vid=978ed11a-0a52-484b-9e76-5af07e161748"},"vehicle_type_id":"4","last_reported":1708034785,"current_range_meters":18800,"station_id":"ce4bgv92rcd13ifvqcq0","pricing_plan_id":"cebpf4jnsgd1na2vs0mg"},{"bike_id":"2aa57958-534a-4c6f-a8d3-1d23b42768f8","system_id":"levelo_inurba_marseille","lat":43.307973,"lon":5.376503,"is_reserved":false,"is_disabled":false,"rental_uris":{"android":"levelo://app?vid=2aa57958-534a-4c6f-a8d3-1d23b42768f8","ios":"levelo://app?vid=2aa57958-534a-4c6f-a8d3-1d23b42768f8"},"vehicle_type_id":"4","last_reported":1708034785,"current_range_meters":11600,"station_id":"ce4bgv92rcd13ifvqcq0","pricing_plan_id":"cebpf4jnsgd1na2vs0mg"},{"bike_id":"a8bac236-f995-4b2f-8495-6366c88b1d16","system_id":"levelo_inurba_marseille","lat":43.307945,"lon":5.376487,"is_reserved":false,"is_disabled":false,"rental_uris":{"android":"levelo://app?vid=a8bac236-f995-4b2f-8495-6366c88b1d16","ios":"levelo://app?vid=a8bac236-f995-4b2f-8495-6366c88b1d16"},"vehicle_type_id":"4","last_reported":1708034785,"current_range_meters":26800,"station_id":"ce4bgv92rcd13ifvqcq0","pricing_plan_id":"cebpf4jnsgd1na2vs0mg"},{"bike_id":"44238313-b1ec-4659-8051-b1cc100fa107","system_id":"levelo_inurba_marseille","lat":43.30788,"lon":5.37646,"is_reserved":false,"is_disabled":false,"rental_uris":{"android":"levelo://app?vid=44238313-b1ec-4659-8051-b1cc100fa107","ios":"levelo://app?vid=44238313-b1ec-4659-8051-b1cc100fa107"},"vehicle_type_id":"4","last_reported":1708034785,"current_range_meters":30400,"station_id":"ce4bgv92rcd13ifvqcq0","pricing_plan_id":"cebpf4jnsgd1na2vs0mg"},{"bike_id":"2fca39f8-6a10-42b9-80c8-ff25bebc9e9e","system_id":"levelo_inurba_marseille","lat":43.307945,"lon":5.376487,"is_reserved":false,"is_disabled":false,"rental_uris":{"android":"levelo://app?vid=2fca39f8-6a10-42b9-80c8-ff25bebc9e9e","ios":"levelo://app?vid=2fca39f8-6a10-42b9-80c8-ff25bebc9e9e"},"vehicle_type_id":"4","last_reported":1708034785,"current_range_meters":29600,"station_id":"ce4bgv92rcd13ifvqcq0","pricing_plan_id":"cebpf4jnsgd1na2vs0mg"},{"bike_id":"8a8fcb00-336d-4096-a685-d52e4602f461","system_id":"levelo_inurba_marseille","lat":43.30787,"lon":5.3765,"is_reserved":false,"is_disabled":false,"rental_uris":{"android":"levelo://app?vid=8a8fcb00-336d-4096-a685-d52e4602f461","ios":"levelo://app?vid=8a8fcb00-336d-4096-a685-d52e4602f461"},"vehicle_type_id":"4","last_reported":1708034785,"current_range_meters":30000,"station_id":"","pricing_plan_id":"cebpf4jnsgd1na2vs0mg"},{"bike_id":"52a3977f-b948-4427-8189-406f5207363e","system_id":"levelo_inurba_marseille","lat":43.3078,"lon":5.376516,"is_reserved":false,"is_disabled":false,"rental_uris":{"android":"levelo://app?vid=52a3977f-b948-4427-8189-406f5207363e","ios":"levelo://app?vid=52a3977f-b948-4427-8189-406f5207363e"},"vehicle_type_id":"4","last_reported":1708034785,"current_range_meters":3600,"station_id":"ce4bgv92rcd13ifvqcq0","pricing_plan_id":"cebpf4jnsgd1na2vs0mg"},{"bike_id":"675e8e6e-3c5a-402c-a789-48ab73907593","system_id":"levelo_inurba_marseille","lat":43.307766,"lon":5.376522,"is_reserved":false,"is_disabled":false,"rental_uris":{"android":"levelo://app?vid=675e8e6e-3c5a-402c-a789-48ab73907593","ios":"levelo://app?vid=675e8e6e-3c5a-402c-a789-48ab73907593"},"vehicle_type_id":"4","last_reported":1708034785,"current_range_meters":14400,"station_id":"ce4bgv92rcd13ifvqcq0","pricing_plan_id":"cebpf4jnsgd1na2vs0mg"},{"bike_id":"d932df92-576d-48e7-a8cb-a8abfc83a10d","system_id":"levelo_inurba_marseille","lat":43.317075,"lon":5.377367,"is_reserved":false,"is_disabled":false,"rental_uris":{"android":"levelo://app?vid=d932df92-576d-48e7-a8cb-a8abfc83a10d","ios":"levelo://app?vid=d932df92-576d-48e7-a8cb-a8abfc83a10d"},"vehicle_type_id":"4","last_reported":1708034785,"current_range_meters":4400,"station_id":"ce4bgth2rcd13ifvqch0","pricing_plan_id":"cebpf4jnsgd1na2vs0mg"},{"bike_id":"32026692-5527-40f2-a535-e55bf2d47370","system_id":"levelo_inurba_marseille","lat":43.317075,"lon":5.377367,"is_reserved":false,"is_disabled":false,"rental_uris":{"android":"levelo://app?vid=32026692-5527-40f2-a535-e55bf2d47370","ios":"levelo://app?vid=32026692-5527-40f2-a535-e55bf2d47370"},"vehicle_type_id":"4","last_reported":1708034785,"current_range_meters":8400,"station_id":"ce4bgth2rcd13ifvqch0","pricing_plan_id":"cebpf4jnsgd1na2vs0mg"},{"bike_id":"aa533a6f-0dc9-4d7d-8582-0387547a46a5","system_id":"levelo_inurba_marseille","lat":43.317075,"lon":5.377367,"is_reserved":false,"is_disabled":false,"rental_uris":{"android":"levelo://app?vid=aa533a6f-0dc9-4d7d-8582-0387547a46a5","ios":"levelo://app?vid=aa533a6f-0dc9-4d7d-8582-0387547a46a5"},"vehicle_type_id":"4","last_reported":1708034785,"current_range_meters":4400,"station_id":"ce4bgth2rcd13ifvqch0","pricing_plan_id":"cebpf4jnsgd1na2vs0mg"},{"bike_id":"e8396d9b-01ad-42aa-ae6a-25e7361077f6","system_id":"levelo_inurba_marseille","lat":43.317075,"lon":5.377367,"is_reserved":false,"is_disabled":false,"rental_uris":{"android":"levelo://app?vid=e8396d9b-01ad-42aa-ae6a-25e7361077f6","ios":"levelo://app?vid=e8396d9b-01ad-42aa-ae6a-25e7361077f6"},"vehicle_type_id":"4","last_reported":1708034785,"current_range_meters":31200,"station_id":"ce4bgth2rcd13ifvqch0","pricing_plan_id":"cebpf4jnsgd1na2vs0mg"},{"bike_id":"8c2d62e3-3ad7-4140-9a67-65fa03190e2f","system_id":"levelo_inurba_marseille","lat":43.317075,"lon":5.377367,"is_reserved":false,"is_disabled":false,"rental_uris":{"android":"levelo://app?vid=8c2d62e3-3ad7-4140-9a67-65fa03190e2f","ios":"levelo://app?vid=8c2d62e3-3ad7-4140-9a67-65fa03190e2f"},"vehicle_type_id":"4","last_reported":1708034785,"current_range_meters":22800,"station_id":"ce4bgth2rcd13ifvqch0","pricing_plan_id":"cebpf4jnsgd1na2vs0mg"},{"bike_id":"e0ab11de-fc9c-4d4b-971a-3b2ba2a23340","system_id":"levelo_inurba_marseille","lat":43.317075,"lon":5.377367,"is_reserved":false,"is_disabled":false,"rental_uris":{"android":"levelo://app?vid=e0ab11de-fc9c-4d4b-971a-3b2ba2a23340","ios":"levelo://app?vid=e0ab11de-fc9c-4d4b-971a-3b2ba2a23340"},"vehicle_type_id":"4","last_reported":1708034785,"current_range_meters":31200,"station_id":"ce4bgth2rcd13ifvqch0","pricing_plan_id":"cebpf4jnsgd1na2vs0mg"},{"bike_id":"6f39090b-b91e-4eaa-81f6-ef24a66149be","system_id":"levelo_inurba_marseille","lat":43.317075,"lon":5.377367,"is_reserved":false,"is_disabled":false,"rental_uris":{"android":"levelo://app?vid=6f39090b-b91e-4eaa-81f6-ef24a66149be","ios":"levelo://app?vid=6f39090b-b91e-4eaa-81f6-ef24a66149be"},"vehicle_type_id":"4","last_reported":1708034785,"current_range_meters":22800,"station_id":"ce4bgth2rcd13ifvqch0","pricing_plan_id":"cebpf4jnsgd1na2vs0mg"},{"bike_id":"3c9de073-dca8-45b4-9f85-3f927607f92c","system_id":"levelo_inurba_marseille","lat":43.30314,"lon":5.36894,"is_reserved":false,"is_disabled":false,"rental_uris":{"android":"levelo://app?vid=3c9de073-dca8-45b4-9f85-3f927607f92c","ios":"levelo://app?vid=3c9de073-dca8-45b4-9f85-3f927607f92c"},"vehicle_type_id":"4","last_reported":1708034785,"current_range_meters":25200,"station_id":"ce4bgqh2rcd13ifvqc5g","pricing_plan_id":"cebpf4jnsgd1na2vs0mg"},{"bike_id":"76eb0440-9c84-4afa-89da-4e8d938cbe88","system_id":"levelo_inurba_marseille","lat":43.303046,"lon":5.368981,"is_reserved":false,"is_disabled":false,"rental_uris":{"android":"levelo://app?vid=76eb0440-9c84-4afa-89da-4e8d938cbe88","ios":"levelo://app?vid=76eb0440-9c84-4afa-89da-4e8d938cbe88"},"vehicle_type_id":"4","last_reported":1708034785,"current_range_meters":22000,"station_id":"ce4bgqh2rcd13ifvqc5g","pricing_plan_id":"cebpf4jnsgd1na2vs0mg"},{"bike_id":"50efbcea-44ce-48a3-8193-be34ac537b0c","system_id":"levelo_inurba_marseille","lat":43.315293,"lon":5.380349,"is_reserved":false,"is_disabled":false,"rental_uris":{"android":"levelo://app?vid=50efbcea-44ce-48a3-8193-be34ac537b0c","ios":"levelo://app?vid=50efbcea-44ce-48a3-8193-be34ac537b0c"},"vehicle_type_id":"4","last_reported":1708034785,"current_range_meters":26400,"station_id":"ce4bhsp2rcd13ifvqi50","pricing_plan_id":"cebpf4jnsgd1na2vs0mg"},{"bike_id":"2460bb75-16c1-4f11-808c-9c0fc729d203","system_id":"levelo_inurba_marseille","lat":43.315293,"lon":5.380349,"is_reserved":false,"is_disabled":false,"rental_uris":{"android":"levelo://app?vid=2460bb75-16c1-4f11-808c-9c0fc729d203","ios":"levelo://app?vid=2460bb75-16c1-4f11-808c-9c0fc729d203"},"vehicle_type_id":"4","last_reported":1708034785,"current_range_meters":13600,"station_id":"ce4bhsp2rcd13ifvqi50","pricing_plan_id":"cebpf4jnsgd1na2vs0mg"},{"bike_id":"e48eafa2-25f1-4367-910a-9c1c68d594ca","system_id":"levelo_inurba_marseille","lat":43.315293,"lon":5.380349,"is_reserved":false,"is_disabled":false,"rental_uris":{"android":"levelo://app?vid=e48eafa2-25f1-4367-910a-9c1c68d594ca","ios":"levelo://app?vid=e48eafa2-25f1-4367-910a-9c1c68d594ca"},"vehicle_type_id":"4","last_reported":1708034785,"current_range_meters":31200,"station_id":"ce4bhsp2rcd13ifvqi50","pricing_plan_id":"cebpf4jnsgd1na2vs0mg"},{"bike_id":"fab85cb8-17a5-46ee-a726-d0504fc2647c","system_id":"levelo_inurba_marseille","lat":43.315293,"lon":5.380349,"is_reserved":false,"is_disabled":false,"rental_uris":{"android":"levelo://app?vid=fab85cb8-17a5-46ee-a726-d0504fc2647c","ios":"levelo://app?vid=fab85cb8-17a5-46ee-a726-d0504fc2647c"},"vehicle_type_id":"4","last_reported":1708034785,"current_range_meters":14400,"station_id":"ce4bhsp2rcd13ifvqi50","pricing_plan_id":"cebpf4jnsgd1na2vs0mg"},{"bike_id":"ff1a131c-c75e-4300-8fe0-a4f8f46b33c8","system_id":"levelo_inurba_marseille","lat":43.301939,"lon":5.366286,"is_reserved":false,"is_disabled":false,"rental_uris":{"android":"levelo://app?vid=ff1a131c-c75e-4300-8fe0-a4f8f46b33c8","ios":"levelo://app?vid=ff1a131c-c75e-4300-8fe0-a4f8f46b33c8"},"vehicle_type_id":"4","last_reported":1708034785,"current_range_meters":25200,"station_id":"ce4bgrh2rcd13ifvqc8g","pricing_plan_id":"cebpf4jnsgd1na2vs0mg"},{"bike_id":"d009c2aa-21c6-4813-b756-91b7c989bbb9","system_id":"levelo_inurba_marseille","lat":43.308012,"lon":5.381511,"is_reserved":false,"is_disabled":false,"rental_uris":{"android":"levelo://app?vid=d009c2aa-21c6-4813-b756-91b7c989bbb9","ios":"levelo://app?vid=d009c2aa-21c6-4813-b756-91b7c989bbb9"},"vehicle_type_id":"4","last_reported":1708034785,"current_range_meters":1200,"station_id":"ce4bgt12rcd13ifvqce0","pricing_plan_id":"cebpf4jnsgd1na2vs0mg"},{"bike_id":"ae15e681-aa9b-4217-ba60-6b0c1a4f5118","system_id":"levelo_inurba_marseille","lat":43.308012,"lon":5.381511,"is_reserved":false,"is_disabled":false,"rental_uris":{"android":"levelo://app?vid=ae15e681-aa9b-4217-ba60-6b0c1a4f5118","ios":"levelo://app?vid=ae15e681-aa9b-4217-ba60-6b0c1a4f5118"},"vehicle_type_id":"4","last_reported":1708034785,"current_range_meters":21600,"station_id":"ce4bgt12rcd13ifvqce0","pricing_plan_id":"cebpf4jnsgd1na2vs0mg"},{"bike_id":"3bae3dab-cd23-477a-b620-83cccc8f7249","system_id":"levelo_inurba_marseille","lat":43.308012,"lon":5.381511,"is_reserved":false,"is_disabled":false,"rental_uris":{"android":"levelo://app?vid=3bae3dab-cd23-477a-b620-83cccc8f7249","ios":"levelo://app?vid=3bae3dab-cd23-477a-b620-83cccc8f7249"},"vehicle_type_id":"4","last_reported":1708034785,"current_range_meters":25600,"station_id":"ce4bgt12rcd13ifvqce0","pricing_plan_id":"cebpf4jnsgd1na2vs0mg"},{"bike_id":"133e1999-aec2-49b0-96da-5c01e071520b","system_id":"levelo_inurba_marseille","lat":43.308012,"lon":5.381511,"is_reserved":false,"is_disabled":false,"rental_uris":{"android":"levelo://app?vid=133e1999-aec2-49b0-96da-5c01e071520b","ios":"levelo://app?vid=133e1999-aec2-49b0-96da-5c01e071520b"},"vehicle_type_id":"4","last_reported":1708034785,"current_range_meters":17200,"station_id":"ce4bgt12rcd13ifvqce0","pricing_plan_id":"cebpf4jnsgd1na2vs0mg"},{"bike_id":"f6c7747e-b0f2-4b03-9fa4-0f68160d3e6c","system_id":"levelo_inurba_marseille","lat":43.308012,"lon":5.381511,"is_reserved":false,"is_disabled":false,"rental_uris":{"android":"levelo://app?vid=f6c7747e-b0f2-4b03-9fa4-0f68160d3e6c","ios":"levelo://app?vid=f6c7747e-b0f2-4b03-9fa4-0f68160d3e6c"},"vehicle_type_id":"4","last_reported":1708034785,"current_range_meters":6800,"station_id":"ce4bgt12rcd13ifvqce0","pricing_plan_id":"cebpf4jnsgd1na2vs0mg"},{"bike_id":"70ce027d-d613-4495-ae6e-9516a77be22f","system_id":"levelo_inurba_marseille","lat":43.308012,"lon":5.381511,"is_reserved":false,"is_disabled":false,"rental_uris":{"android":"levelo://app?vid=70ce027d-d613-4495-ae6e-9516a77be22f","ios":"levelo://app?vid=70ce027d-d613-4495-ae6e-9516a77be22f"},"vehicle_type_id":"4","last_reported":1708034785,"current_range_meters":30800,"station_id":"ce4bgt12rcd13ifvqce0","pricing_plan_id":"cebpf4jnsgd1na2vs0mg"},{"bike_id":"2b3a0904-5d09-44c7-9a85-4edfa7630923","system_id":"levelo_inurba_marseille","lat":43.304606,"lon":5.379026,"is_reserved":false,"is_disabled":false,"rental_uris":{"android":"levelo://app?vid=2b3a0904-5d09-44c7-9a85-4edfa7630923","ios":"levelo://app?vid=2b3a0904-5d09-44c7-9a85-4edfa7630923"},"vehicle_type_id":"4","last_reported":1708034785,"current_range_meters":28000,"station_id":"ce4bgup2rcd13ifvqcn0","pricing_plan_id":"cebpf4jnsgd1na2vs0mg"},{"bike_id":"0c5aa703-532a-48fc-81d9-d86718092b00","system_id":"levelo_inurba_marseille","lat":43.304606,"lon":5.379026,"is_reserved":false,"is_disabled":false,"rental_uris":{"android":"levelo://app?vid=0c5aa703-532a-48fc-81d9-d86718092b00","ios":"levelo://app?vid=0c5aa703-532a-48fc-81d9-d86718092b00"},"vehicle_type_id":"4","last_reported":1708034785,"current_range_meters":22800,"station_id":"ce4bgup2rcd13ifvqcn0","pricing_plan_id":"cebpf4jnsgd1na2vs0mg"},{"bike_id":"93bcaf1f-69b0-443b-855c-7fb369cb948a","system_id":"levelo_inurba_marseille","lat":43.304606,"lon":5.379026,"is_reserved":false,"is_disabled":false,"rental_uris":{"android":"levelo://app?vid=93bcaf1f-69b0-443b-855c-7fb369cb948a","ios":"levelo://app?vid=93bcaf1f-69b0-443b-855c-7fb369cb948a"},"vehicle_type_id":"4","last_reported":1708034785,"current_range_meters":10800,"station_id":"ce4bgup2rcd13ifvqcn0","pricing_plan_id":"cebpf4jnsgd1na2vs0mg"},{"bike_id":"d5fce783-e7ca-4c36-8158-18733bc92be9","system_id":"levelo_inurba_marseille","lat":43.304606,"lon":5.379026,"is_reserved":false,"is_disabled":false,"rental_uris":{"android":"levelo://app?vid=d5fce783-e7ca-4c36-8158-18733bc92be9","ios":"levelo://app?vid=d5fce783-e7ca-4c36-8158-18733bc92be9"},"vehicle_type_id":"4","last_reported":1708034785,"current_range_meters":27600,"station_id":"ce4bgup2rcd13ifvqcn0","pricing_plan_id":"cebpf4jnsgd1na2vs0mg"},{"bike_id":"9a2fd2c3-bac9-4996-bf1d-2aa9208e6939","system_id":"levelo_inurba_marseille","lat":43.304606,"lon":5.379026,"is_reserved":false,"is_disabled":false,"rental_uris":{"android":"levelo://app?vid=9a2fd2c3-bac9-4996-bf1d-2aa9208e6939","ios":"levelo://app?vid=9a2fd2c3-bac9-4996-bf1d-2aa9208e6939"},"vehicle_type_id":"4","last_reported":1708034785,"current_range_meters":4400,"station_id":"ce4bgup2rcd13ifvqcn0","pricing_plan_id":"cebpf4jnsgd1na2vs0mg"},{"bike_id":"2c0f7321-0b66-44ca-9be0-ab74fd30eabe","system_id":"levelo_inurba_marseille","lat":43.304606,"lon":5.379026,"is_reserved":false,"is_disabled":false,"rental_uris":{"android":"levelo://app?vid=2c0f7321-0b66-44ca-9be0-ab74fd30eabe","ios":"levelo://app?vid=2c0f7321-0b66-44ca-9be0-ab74fd30eabe"},"vehicle_type_id":"4","last_reported":1708034785,"current_range_meters":30000,"station_id":"ce4bgup2rcd13ifvqcn0","pricing_plan_id":"cebpf4jnsgd1na2vs0mg"},{"bike_id":"5ed0a109-9ca7-4876-adad-41d58d377d1a","system_id":"levelo_inurba_marseille","lat":43.324771,"lon":5.36557,"is_reserved":false,"is_disabled":false,"rental_uris":{"android":"levelo://app?vid=5ed0a109-9ca7-4876-adad-41d58d377d1a","ios":"levelo://app?vid=5ed0a109-9ca7-4876-adad-41d58d377d1a"},"vehicle_type_id":"4","last_reported":1708034785,"current_range_meters":4400,"station_id":"ce4bhs12rcd13ifvqhvg","pricing_plan_id":"cebpf4jnsgd1na2vs0mg"},{"bike_id":"980c8cba-35b1-44d2-a18a-a8be39861f38","system_id":"levelo_inurba_marseille","lat":43.324771,"lon":5.36557,"is_reserved":false,"is_disabled":false,"rental_uris":{"android":"levelo://app?vid=980c8cba-35b1-44d2-a18a-a8be39861f38","ios":"levelo://app?vid=980c8cba-35b1-44d2-a18a-a8be39861f38"},"vehicle_type_id":"4","last_reported":1708034785,"current_range_meters":24000,"station_id":"ce4bhs12rcd13ifvqhvg","pricing_plan_id":"cebpf4jnsgd1na2vs0mg"},{"bike_id":"74040d89-d5b2-4f31-8c52-790dda89ed07","system_id":"levelo_inurba_marseille","lat":43.324771,"lon":5.36557,"is_reserved":false,"is_disabled":false,"rental_uris":{"android":"levelo://app?vid=74040d89-d5b2-4f31-8c52-790dda89ed07","ios":"levelo://app?vid=74040d89-d5b2-4f31-8c52-790dda89ed07"},"vehicle_type_id":"4","last_reported":1708034785,"current_range_meters":12000,"station_id":"ce4bhs12rcd13ifvqhvg","pricing_plan_id":"cebpf4jnsgd1na2vs0mg"},{"bike_id":"67079a29-f28c-4d70-8856-b0af88c8d642","system_id":"levelo_inurba_marseille","lat":43.324771,"lon":5.36557,"is_reserved":false,"is_disabled":false,"rental_uris":{"android":"levelo://app?vid=67079a29-f28c-4d70-8856-b0af88c8d642","ios":"levelo://app?vid=67079a29-f28c-4d70-8856-b0af88c8d642"},"vehicle_type_id":"4","last_reported":1708034785,"current_range_meters":23600,"station_id":"ce4bhs12rcd13ifvqhvg","pricing_plan_id":"cebpf4jnsgd1na2vs0mg"},{"bike_id":"eb331c1c-770d-4ab0-8716-5793c3e19a18","system_id":"levelo_inurba_marseille","lat":43.324771,"lon":5.36557,"is_reserved":false,"is_disabled":false,"rental_uris":{"android":"levelo://app?vid=eb331c1c-770d-4ab0-8716-5793c3e19a18","ios":"levelo://app?vid=eb331c1c-770d-4ab0-8716-5793c3e19a18"},"vehicle_type_id":"4","last_reported":1708034785,"current_range_meters":10400,"station_id":"ce4bhs12rcd13ifvqhvg","pricing_plan_id":"cebpf4jnsgd1na2vs0mg"},{"bike_id":"7eac1002-a816-4569-b798-3a3a62c5a4d3","system_id":"levelo_inurba_marseille","lat":43.324771,"lon":5.36557,"is_reserved":false,"is_disabled":false,"rental_uris":{"android":"levelo://app?vid=7eac1002-a816-4569-b798-3a3a62c5a4d3","ios":"levelo://app?vid=7eac1002-a816-4569-b798-3a3a62c5a4d3"},"vehicle_type_id":"4","last_reported":1708034785,"current_range_meters":7200,"station_id":"ce4bhs12rcd13ifvqhvg","pricing_plan_id":"cebpf4jnsgd1na2vs0mg"},{"bike_id":"8cc61c4a-5302-4b6c-a32c-54803363c1d2","system_id":"levelo_inurba_marseille","lat":43.310714,"lon":5.38349,"is_reserved":false,"is_disabled":false,"rental_uris":{"android":"levelo://app?vid=8cc61c4a-5302-4b6c-a32c-54803363c1d2","ios":"levelo://app?vid=8cc61c4a-5302-4b6c-a32c-54803363c1d2"},"vehicle_type_id":"4","last_reported":1708034785,"current_range_meters":30000,"station_id":"ce4bgv92rcd13ifvqcr0","pricing_plan_id":"cebpf4jnsgd1na2vs0mg"},{"bike_id":"9a29bd98-7765-4199-8212-1ef4fe8ca9fe","system_id":"levelo_inurba_marseille","lat":43.310692,"lon":5.383491,"is_reserved":false,"is_disabled":false,"rental_uris":{"android":"levelo://app?vid=9a29bd98-7765-4199-8212-1ef4fe8ca9fe","ios":"levelo://app?vid=9a29bd98-7765-4199-8212-1ef4fe8ca9fe"},"vehicle_type_id":"4","last_reported":1708034785,"current_range_meters":1200,"station_id":"ce4bgv92rcd13ifvqcr0","pricing_plan_id":"cebpf4jnsgd1na2vs0mg"},{"bike_id":"da4fadf5-3e37-4933-b2d3-0de431b1409d","system_id":"levelo_inurba_marseille","lat":43.310763,"lon":5.383512,"is_reserved":false,"is_disabled":false,"rental_uris":{"android":"levelo://app?vid=da4fadf5-3e37-4933-b2d3-0de431b1409d","ios":"levelo://app?vid=da4fadf5-3e37-4933-b2d3-0de431b1409d"},"vehicle_type_id":"4","last_reported":1708034785,"current_range_meters":0,"station_id":"ce4bgv92rcd13ifvqcr0","pricing_plan_id":"cebpf4jnsgd1na2vs0mg"},{"bike_id":"2d834dbd-16b5-4e7f-8b94-a3c26253ebd1","system_id":"levelo_inurba_marseille","lat":43.310804,"lon":5.38359,"is_reserved":false,"is_disabled":false,"rental_uris":{"android":"levelo://app?vid=2d834dbd-16b5-4e7f-8b94-a3c26253ebd1","ios":"levelo://app?vid=2d834dbd-16b5-4e7f-8b94-a3c26253ebd1"},"vehicle_type_id":"4","last_reported":1708034785,"current_range_meters":6400,"station_id":"ce4bgv92rcd13ifvqcr0","pricing_plan_id":"cebpf4jnsgd1na2vs0mg"},{"bike_id":"c4a33b3a-50c1-4e50-8d7e-e5f5ec04e441","system_id":"levelo_inurba_marseille","lat":43.310804,"lon":5.38359,"is_reserved":false,"is_disabled":false,"rental_uris":{"android":"levelo://app?vid=c4a33b3a-50c1-4e50-8d7e-e5f5ec04e441","ios":"levelo://app?vid=c4a33b3a-50c1-4e50-8d7e-e5f5ec04e441"},"vehicle_type_id":"4","last_reported":1708034785,"current_range_meters":3600,"station_id":"ce4bgv92rcd13ifvqcr0","pricing_plan_id":"cebpf4jnsgd1na2vs0mg"},{"bike_id":"94ccd055-ac62-4dce-b15d-a257bbe9b731","system_id":"levelo_inurba_marseille","lat":43.310804,"lon":5.38359,"is_reserved":false,"is_disabled":false,"rental_uris":{"android":"levelo://app?vid=94ccd055-ac62-4dce-b15d-a257bbe9b731","ios":"levelo://app?vid=94ccd055-ac62-4dce-b15d-a257bbe9b731"},"vehicle_type_id":"4","last_reported":1708034785,"current_range_meters":2800,"station_id":"ce4bgv92rcd13ifvqcr0","pricing_plan_id":"cebpf4jnsgd1na2vs0mg"},{"bike_id":"3ba45bb5-5c20-4d90-aa8a-70a65b3bc284","system_id":"levelo_inurba_marseille","lat":43.302784,"lon":5.377158,"is_reserved":false,"is_disabled":false,"rental_uris":{"android":"levelo://app?vid=3ba45bb5-5c20-4d90-aa8a-70a65b3bc284","ios":"levelo://app?vid=3ba45bb5-5c20-4d90-aa8a-70a65b3bc284"},"vehicle_type_id":"4","last_reported":1708034785,"current_range_meters":17200,"station_id":"ce4bguh2rcd13ifvqcj0","pricing_plan_id":"cebpf4jnsgd1na2vs0mg"},{"bike_id":"0e53949d-06ed-45b7-8a87-fdca71c413b2","system_id":"levelo_inurba_marseille","lat":43.302784,"lon":5.377158,"is_reserved":false,"is_disabled":false,"rental_uris":{"android":"levelo://app?vid=0e53949d-06ed-45b7-8a87-fdca71c413b2","ios":"levelo://app?vid=0e53949d-06ed-45b7-8a87-fdca71c413b2"},"vehicle_type_id":"4","last_reported":1708034785,"current_range_meters":16000,"station_id":"ce4bguh2rcd13ifvqcj0","pricing_plan_id":"cebpf4jnsgd1na2vs0mg"},{"bike_id":"86d438c2-740b-4c96-8dfb-0664e1104c1b","system_id":"levelo_inurba_marseille","lat":43.302784,"lon":5.377158,"is_reserved":false,"is_disabled":false,"rental_uris":{"android":"levelo://app?vid=86d438c2-740b-4c96-8dfb-0664e1104c1b","ios":"levelo://app?vid=86d438c2-740b-4c96-8dfb-0664e1104c1b"},"vehicle_type_id":"4","last_reported":1708034785,"current_range_meters":29600,"station_id":"ce4bguh2rcd13ifvqcj0","pricing_plan_id":"cebpf4jnsgd1na2vs0mg"},{"bike_id":"470fde00-3503-4c79-922c-c4e020e38520","system_id":"levelo_inurba_marseille","lat":43.319935,"lon":5.381699,"is_reserved":false,"is_disabled":false,"rental_uris":{"android":"levelo://app?vid=470fde00-3503-4c79-922c-c4e020e38520","ios":"levelo://app?vid=470fde00-3503-4c79-922c-c4e020e38520"},"vehicle_type_id":"4","last_reported":1708034785,"current_range_meters":31200,"station_id":"ce4bhr12rcd13ifvqhpg","pricing_plan_id":"cebpf4jnsgd1na2vs0mg"},{"bike_id":"1524caed-e036-4a1d-90f3-0fb3698ebab1","system_id":"levelo_inurba_marseille","lat":43.319935,"lon":5.381699,"is_reserved":false,"is_disabled":false,"rental_uris":{"android":"levelo://app?vid=1524caed-e036-4a1d-90f3-0fb3698ebab1","ios":"levelo://app?vid=1524caed-e036-4a1d-90f3-0fb3698ebab1"},"vehicle_type_id":"4","last_reported":1708034785,"current_range_meters":2800,"station_id":"ce4bhr12rcd13ifvqhpg","pricing_plan_id":"cebpf4jnsgd1na2vs0mg"},{"bike_id":"401c17bb-22c6-40b7-8f6d-a63d489fd73f","system_id":"levelo_inurba_marseille","lat":43.319935,"lon":5.381699,"is_reserved":false,"is_disabled":false,"rental_uris":{"android":"levelo://app?vid=401c17bb-22c6-40b7-8f6d-a63d489fd73f","ios":"levelo://app?vid=401c17bb-22c6-40b7-8f6d-a63d489fd73f"},"vehicle_type_id":"4","last_reported":1708034785,"current_range_meters":10000,"station_id":"ce4bhr12rcd13ifvqhpg","pricing_plan_id":"cebpf4jnsgd1na2vs0mg"},{"bike_id":"c4f3a2cc-5e97-4f44-8d5e-f1dc56798a09","system_id":"levelo_inurba_marseille","lat":43.319935,"lon":5.381699,"is_reserved":false,"is_disabled":false,"rental_uris":{"android":"levelo://app?vid=c4f3a2cc-5e97-4f44-8d5e-f1dc56798a09","ios":"levelo://app?vid=c4f3a2cc-5e97-4f44-8d5e-f1dc56798a09"},"vehicle_type_id":"4","last_reported":1708034785,"current_range_meters":3200,"station_id":"ce4bhr12rcd13ifvqhpg","pricing_plan_id":"cebpf4jnsgd1na2vs0mg"},{"bike_id":"907a9688-94c1-46db-b8f9-3840c732093c","system_id":"levelo_inurba_marseille","lat":43.313571,"lon":5.384829,"is_reserved":false,"is_disabled":false,"rental_uris":{"android":"levelo://app?vid=907a9688-94c1-46db-b8f9-3840c732093c","ios":"levelo://app?vid=907a9688-94c1-46db-b8f9-3840c732093c"},"vehicle_type_id":"4","last_reported":1708034785,"current_range_meters":20400,"station_id":"ce4bgt92rcd13ifvqcf0","pricing_plan_id":"cebpf4jnsgd1na2vs0mg"},{"bike_id":"ceb98a3c-2f4b-4cf9-9751-8e7d9c2ff46a","system_id":"levelo_inurba_marseille","lat":43.303145,"lon":5.379282,"is_reserved":false,"is_disabled":false,"rental_uris":{"android":"levelo://app?vid=ceb98a3c-2f4b-4cf9-9751-8e7d9c2ff46a","ios":"levelo://app?vid=ceb98a3c-2f4b-4cf9-9751-8e7d9c2ff46a"},"vehicle_type_id":"4","last_reported":1708034785,"current_range_meters":4000,"station_id":"","pricing_plan_id":"cebpf4jnsgd1na2vs0mg"},{"bike_id":"8eefd68b-4638-4414-bd45-e93d6aaf32fd","system_id":"levelo_inurba_marseille","lat":43.313571,"lon":5.384829,"is_reserved":false,"is_disabled":false,"rental_uris":{"android":"levelo://app?vid=8eefd68b-4638-4414-bd45-e93d6aaf32fd","ios":"levelo://app?vid=8eefd68b-4638-4414-bd45-e93d6aaf32fd"},"vehicle_type_id":"4","last_reported":1708034785,"current_range_meters":28800,"station_id":"ce4bgt92rcd13ifvqcf0","pricing_plan_id":"cebpf4jnsgd1na2vs0mg"},{"bike_id":"79854c7c-0ab7-402b-920f-8ad582be0e43","system_id":"levelo_inurba_marseille","lat":43.29959,"lon":5.373953,"is_reserved":false,"is_disabled":false,"rental_uris":{"android":"levelo://app?vid=79854c7c-0ab7-402b-920f-8ad582be0e43","ios":"levelo://app?vid=79854c7c-0ab7-402b-920f-8ad582be0e43"},"vehicle_type_id":"4","last_reported":1708034785,"current_range_meters":28400,"station_id":"","pricing_plan_id":"cebpf4jnsgd1na2vs0mg"},{"bike_id":"94f61cf9-ebca-47e5-a284-a233fe291851","system_id":"levelo_inurba_marseille","lat":43.31183,"lon":5.38706,"is_reserved":false,"is_disabled":false,"rental_uris":{"android":"levelo://app?vid=94f61cf9-ebca-47e5-a284-a233fe291851","ios":"levelo://app?vid=94f61cf9-ebca-47e5-a284-a233fe291851"},"vehicle_type_id":"4","last_reported":1708034785,"current_range_meters":3200,"station_id":"ce4bgv12rcd13ifvqcp0","pricing_plan_id":"cebpf4jnsgd1na2vs0mg"},{"bike_id":"575bf409-c51d-4ade-a718-7639e23c2f85","system_id":"levelo_inurba_marseille","lat":43.299243,"lon":5.374807,"is_reserved":false,"is_disabled":false,"rental_uris":{"android":"levelo://app?vid=575bf409-c51d-4ade-a718-7639e23c2f85","ios":"levelo://app?vid=575bf409-c51d-4ade-a718-7639e23c2f85"},"vehicle_type_id":"4","last_reported":1708034785,"current_range_meters":19200,"station_id":"ce4bgjh2rcd13ifvqbg0","pricing_plan_id":"cebpf4jnsgd1na2vs0mg"},{"bike_id":"ddb0bc11-91cf-4c4c-86a1-4c9e5c9f6689","system_id":"levelo_inurba_marseille","lat":43.311722,"lon":5.387247,"is_reserved":false,"is_disabled":false,"rental_uris":{"android":"levelo://app?vid=ddb0bc11-91cf-4c4c-86a1-4c9e5c9f6689","ios":"levelo://app?vid=ddb0bc11-91cf-4c4c-86a1-4c9e5c9f6689"},"vehicle_type_id":"4","last_reported":1708034785,"current_range_meters":1600,"station_id":"ce4bgv12rcd13ifvqcp0","pricing_plan_id":"cebpf4jnsgd1na2vs0mg"},{"bike_id":"33b3bd62-9377-4b20-855e-49bae7cf6980","system_id":"levelo_inurba_marseille","lat":43.297662,"lon":5.369582,"is_reserved":false,"is_disabled":false,"rental_uris":{"android":"levelo://app?vid=33b3bd62-9377-4b20-855e-49bae7cf6980","ios":"levelo://app?vid=33b3bd62-9377-4b20-855e-49bae7cf6980"},"vehicle_type_id":"4","last_reported":1708034785,"current_range_meters":18400,"station_id":"","pricing_plan_id":"cebpf4jnsgd1na2vs0mg"},{"bike_id":"5b12ad66-370d-411f-8a89-1045f139e107","system_id":"levelo_inurba_marseille","lat":43.322872,"lon":5.382756,"is_reserved":false,"is_disabled":false,"rental_uris":{"android":"levelo://app?vid=5b12ad66-370d-411f-8a89-1045f139e107","ios":"levelo://app?vid=5b12ad66-370d-411f-8a89-1045f139e107"},"vehicle_type_id":"4","last_reported":1708034785,"current_range_meters":28400,"station_id":"ce4bhr12rcd13ifvqhqg","pricing_plan_id":"cebpf4jnsgd1na2vs0mg"},{"bike_id":"8f6edb34-5a88-45b3-b210-ae7579b9b87b","system_id":"levelo_inurba_marseille","lat":43.322942,"lon":5.382616,"is_reserved":false,"is_disabled":false,"rental_uris":{"android":"levelo://app?vid=8f6edb34-5a88-45b3-b210-ae7579b9b87b","ios":"levelo://app?vid=8f6edb34-5a88-45b3-b210-ae7579b9b87b"},"vehicle_type_id":"4","last_reported":1708034785,"current_range_meters":15600,"station_id":"ce4bhr12rcd13ifvqhqg","pricing_plan_id":"cebpf4jnsgd1na2vs0mg"},{"bike_id":"c3544a8b-3b2b-43d9-8c06-a1e4cd30f44c","system_id":"levelo_inurba_marseille","lat":43.300005,"lon":5.378605,"is_reserved":false,"is_disabled":false,"rental_uris":{"android":"levelo://app?vid=c3544a8b-3b2b-43d9-8c06-a1e4cd30f44c","ios":"levelo://app?vid=c3544a8b-3b2b-43d9-8c06-a1e4cd30f44c"},"vehicle_type_id":"4","last_reported":1708034785,"current_range_meters":400,"station_id":"","pricing_plan_id":"cebpf4jnsgd1na2vs0mg"},{"bike_id":"d8ff1e00-15c1-43b4-998c-41660f8bb197","system_id":"levelo_inurba_marseille","lat":43.297774,"lon":5.370875,"is_reserved":false,"is_disabled":false,"rental_uris":{"android":"levelo://app?vid=d8ff1e00-15c1-43b4-998c-41660f8bb197","ios":"levelo://app?vid=d8ff1e00-15c1-43b4-998c-41660f8bb197"},"vehicle_type_id":"4","last_reported":1708034785,"current_range_meters":26400,"station_id":"ce4bgop2rcd13ifvqc1g","pricing_plan_id":"cebpf4jnsgd1na2vs0mg"},{"bike_id":"466a0b3c-d73b-4507-b8b6-683f9244ed96","system_id":"levelo_inurba_marseille","lat":43.322872,"lon":5.382756,"is_reserved":false,"is_disabled":false,"rental_uris":{"android":"levelo://app?vid=466a0b3c-d73b-4507-b8b6-683f9244ed96","ios":"levelo://app?vid=466a0b3c-d73b-4507-b8b6-683f9244ed96"},"vehicle_type_id":"4","last_reported":1708034785,"current_range_meters":30000,"station_id":"ce4bhr12rcd13ifvqhqg","pricing_plan_id":"cebpf4jnsgd1na2vs0mg"},{"bike_id":"e674677d-7bc1-48fa-80fb-1e56b1f01f35","system_id":"levelo_inurba_marseille","lat":43.322872,"lon":5.382756,"is_reserved":false,"is_disabled":false,"rental_uris":{"android":"levelo://app?vid=e674677d-7bc1-48fa-80fb-1e56b1f01f35","ios":"levelo://app?vid=e674677d-7bc1-48fa-80fb-1e56b1f01f35"},"vehicle_type_id":"4","last_reported":1708034785,"current_range_meters":22400,"station_id":"ce4bhr12rcd13ifvqhqg","pricing_plan_id":"cebpf4jnsgd1na2vs0mg"},{"bike_id":"aed9e4ad-9c1a-4a51-8095-58a12f0b44f4","system_id":"levelo_inurba_marseille","lat":43.322872,"lon":5.382756,"is_reserved":false,"is_disabled":false,"rental_uris":{"android":"levelo://app?vid=aed9e4ad-9c1a-4a51-8095-58a12f0b44f4","ios":"levelo://app?vid=aed9e4ad-9c1a-4a51-8095-58a12f0b44f4"},"vehicle_type_id":"4","last_reported":1708034785,"current_range_meters":30800,"station_id":"ce4bhr12rcd13ifvqhqg","pricing_plan_id":"cebpf4jnsgd1na2vs0mg"},{"bike_id":"cce45d5b-b827-4599-8137-34ad81fdf112","system_id":"levelo_inurba_marseille","lat":43.322872,"lon":5.382756,"is_reserved":false,"is_disabled":false,"rental_uris":{"android":"levelo://app?vid=cce45d5b-b827-4599-8137-34ad81fdf112","ios":"levelo://app?vid=cce45d5b-b827-4599-8137-34ad81fdf112"},"vehicle_type_id":"4","last_reported":1708034785,"current_range_meters":5200,"station_id":"ce4bhr12rcd13ifvqhqg","pricing_plan_id":"cebpf4jnsgd1na2vs0mg"},{"bike_id":"f4b6c96f-f863-415f-916a-aff3ff7977d0","system_id":"levelo_inurba_marseille","lat":43.322872,"lon":5.382756,"is_reserved":false,"is_disabled":false,"rental_uris":{"android":"levelo://app?vid=f4b6c96f-f863-415f-916a-aff3ff7977d0","ios":"levelo://app?vid=f4b6c96f-f863-415f-916a-aff3ff7977d0"},"vehicle_type_id":"4","last_reported":1708034785,"current_range_meters":31200,"station_id":"ce4bhr12rcd13ifvqhqg","pricing_plan_id":"cebpf4jnsgd1na2vs0mg"},{"bike_id":"e7ddac79-3e05-4879-8044-19bc4cd52fa1","system_id":"levelo_inurba_marseille","lat":43.322872,"lon":5.382756,"is_reserved":false,"is_disabled":false,"rental_uris":{"android":"levelo://app?vid=e7ddac79-3e05-4879-8044-19bc4cd52fa1","ios":"levelo://app?vid=e7ddac79-3e05-4879-8044-19bc4cd52fa1"},"vehicle_type_id":"4","last_reported":1708034785,"current_range_meters":4800,"station_id":"ce4bhr12rcd13ifvqhqg","pricing_plan_id":"cebpf4jnsgd1na2vs0mg"},{"bike_id":"88a6f283-ebdc-4116-9bbe-c490469db988","system_id":"levelo_inurba_marseille","lat":43.29727,"lon":5.3662,"is_reserved":false,"is_disabled":false,"rental_uris":{"android":"levelo://app?vid=88a6f283-ebdc-4116-9bbe-c490469db988","ios":"levelo://app?vid=88a6f283-ebdc-4116-9bbe-c490469db988"},"vehicle_type_id":"4","last_reported":1708034785,"current_range_meters":25200,"station_id":"ce4bgn12rcd13ifvqbt0","pricing_plan_id":"cebpf4jnsgd1na2vs0mg"},{"bike_id":"d059372d-713e-4306-a0dc-ef5b2b5ad059","system_id":"levelo_inurba_marseille","lat":43.32823,"lon":5.36682,"is_reserved":false,"is_disabled":false,"rental_uris":{"android":"levelo://app?vid=d059372d-713e-4306-a0dc-ef5b2b5ad059","ios":"levelo://app?vid=d059372d-713e-4306-a0dc-ef5b2b5ad059"},"vehicle_type_id":"4","last_reported":1708034785,"current_range_meters":0,"station_id":"ce4bhs92rcd13ifvqi0g","pricing_plan_id":"cebpf4jnsgd1na2vs0mg"},{"bike_id":"e4cc1337-7654-41c0-8296-b1f3b25edb39","system_id":"levelo_inurba_marseille","lat":43.32825,"lon":5.36682,"is_reserved":false,"is_disabled":false,"rental_uris":{"android":"levelo://app?vid=e4cc1337-7654-41c0-8296-b1f3b25edb39","ios":"levelo://app?vid=e4cc1337-7654-41c0-8296-b1f3b25edb39"},"vehicle_type_id":"4","last_reported":1708034785,"current_range_meters":12000,"station_id":"ce4bhs92rcd13ifvqi0g","pricing_plan_id":"cebpf4jnsgd1na2vs0mg"},{"bike_id":"24cbb04a-c763-4b6c-91c7-7ce4ce9a6969","system_id":"levelo_inurba_marseille","lat":43.328254,"lon":5.366828,"is_reserved":false,"is_disabled":false,"rental_uris":{"android":"levelo://app?vid=24cbb04a-c763-4b6c-91c7-7ce4ce9a6969","ios":"levelo://app?vid=24cbb04a-c763-4b6c-91c7-7ce4ce9a6969"},"vehicle_type_id":"4","last_reported":1708034785,"current_range_meters":11600,"station_id":"ce4bhs92rcd13ifvqi0g","pricing_plan_id":"cebpf4jnsgd1na2vs0mg"},{"bike_id":"ec21c626-faeb-41e5-9192-4d2bef3ee4d3","system_id":"levelo_inurba_marseille","lat":43.32826,"lon":5.36681,"is_reserved":false,"is_disabled":false,"rental_uris":{"android":"levelo://app?vid=ec21c626-faeb-41e5-9192-4d2bef3ee4d3","ios":"levelo://app?vid=ec21c626-faeb-41e5-9192-4d2bef3ee4d3"},"vehicle_type_id":"4","last_reported":1708034785,"current_range_meters":4800,"station_id":"ce4bhs92rcd13ifvqi0g","pricing_plan_id":"cebpf4jnsgd1na2vs0mg"},{"bike_id":"b354d40e-f748-45df-b8a4-085ee0f39b31","system_id":"levelo_inurba_marseille","lat":43.32827,"lon":5.36682,"is_reserved":false,"is_disabled":false,"rental_uris":{"android":"levelo://app?vid=b354d40e-f748-45df-b8a4-085ee0f39b31","ios":"levelo://app?vid=b354d40e-f748-45df-b8a4-085ee0f39b31"},"vehicle_type_id":"4","last_reported":1708034785,"current_range_meters":19600,"station_id":"ce4bhs92rcd13ifvqi0g","pricing_plan_id":"cebpf4jnsgd1na2vs0mg"},{"bike_id":"093ca88f-caa4-4c82-8a56-ee36ac23f48c","system_id":"levelo_inurba_marseille","lat":43.297163,"lon":5.365866,"is_reserved":false,"is_disabled":false,"rental_uris":{"android":"levelo://app?vid=093ca88f-caa4-4c82-8a56-ee36ac23f48c","ios":"levelo://app?vid=093ca88f-caa4-4c82-8a56-ee36ac23f48c"},"vehicle_type_id":"4","last_reported":1708034785,"current_range_meters":9600,"station_id":"ce4bgn12rcd13ifvqbt0","pricing_plan_id":"cebpf4jnsgd1na2vs0mg"},{"bike_id":"c9b88aad-86c2-4a51-9436-08e8586a0048","system_id":"levelo_inurba_marseille","lat":43.328275,"lon":5.366863,"is_reserved":false,"is_disabled":false,"rental_uris":{"android":"levelo://app?vid=c9b88aad-86c2-4a51-9436-08e8586a0048","ios":"levelo://app?vid=c9b88aad-86c2-4a51-9436-08e8586a0048"},"vehicle_type_id":"4","last_reported":1708034785,"current_range_meters":14400,"station_id":"ce4bhs92rcd13ifvqi0g","pricing_plan_id":"cebpf4jnsgd1na2vs0mg"},{"bike_id":"4a0314a3-53ac-4faf-a81a-365240b15a43","system_id":"levelo_inurba_marseille","lat":43.32828,"lon":5.36682,"is_reserved":false,"is_disabled":false,"rental_uris":{"android":"levelo://app?vid=4a0314a3-53ac-4faf-a81a-365240b15a43","ios":"levelo://app?vid=4a0314a3-53ac-4faf-a81a-365240b15a43"},"vehicle_type_id":"4","last_reported":1708034785,"current_range_meters":25600,"station_id":"ce4bhs92rcd13ifvqi0g","pricing_plan_id":"cebpf4jnsgd1na2vs0mg"},{"bike_id":"ecc597d3-f2ea-41b5-b374-bc2279e4f21f","system_id":"levelo_inurba_marseille","lat":43.32828,"lon":5.3668,"is_reserved":false,"is_disabled":false,"rental_uris":{"android":"levelo://app?vid=ecc597d3-f2ea-41b5-b374-bc2279e4f21f","ios":"levelo://app?vid=ecc597d3-f2ea-41b5-b374-bc2279e4f21f"},"vehicle_type_id":"4","last_reported":1708034785,"current_range_meters":6000,"station_id":"ce4bhs92rcd13ifvqi0g","pricing_plan_id":"cebpf4jnsgd1na2vs0mg"},{"bike_id":"c579bad3-e2d0-4712-a783-f41c065e4e3f","system_id":"levelo_inurba_marseille","lat":43.328287,"lon":5.366711,"is_reserved":false,"is_disabled":false,"rental_uris":{"android":"levelo://app?vid=c579bad3-e2d0-4712-a783-f41c065e4e3f","ios":"levelo://app?vid=c579bad3-e2d0-4712-a783-f41c065e4e3f"},"vehicle_type_id":"4","last_reported":1708034785,"current_range_meters":4800,"station_id":"ce4bhs92rcd13ifvqi0g","pricing_plan_id":"cebpf4jnsgd1na2vs0mg"},{"bike_id":"db22ed90-3327-46a9-9568-3a914f891c9a","system_id":"levelo_inurba_marseille","lat":43.32829,"lon":5.36689,"is_reserved":false,"is_disabled":false,"rental_uris":{"android":"levelo://app?vid=db22ed90-3327-46a9-9568-3a914f891c9a","ios":"levelo://app?vid=db22ed90-3327-46a9-9568-3a914f891c9a"},"vehicle_type_id":"4","last_reported":1708034785,"current_range_meters":0,"station_id":"ce4bhs92rcd13ifvqi0g","pricing_plan_id":"cebpf4jnsgd1na2vs0mg"},{"bike_id":"78be67a2-342c-453a-88c1-566ae1ae49d2","system_id":"levelo_inurba_marseille","lat":43.297163,"lon":5.365866,"is_reserved":false,"is_disabled":false,"rental_uris":{"android":"levelo://app?vid=78be67a2-342c-453a-88c1-566ae1ae49d2","ios":"levelo://app?vid=78be67a2-342c-453a-88c1-566ae1ae49d2"},"vehicle_type_id":"4","last_reported":1708034785,"current_range_meters":4800,"station_id":"ce4bgn12rcd13ifvqbt0","pricing_plan_id":"cebpf4jnsgd1na2vs0mg"},{"bike_id":"7c47e388-9433-4092-857a-2e1a28e7faaa","system_id":"levelo_inurba_marseille","lat":43.3283,"lon":5.36676,"is_reserved":false,"is_disabled":false,"rental_uris":{"android":"levelo://app?vid=7c47e388-9433-4092-857a-2e1a28e7faaa","ios":"levelo://app?vid=7c47e388-9433-4092-857a-2e1a28e7faaa"},"vehicle_type_id":"4","last_reported":1708034785,"current_range_meters":22400,"station_id":"ce4bhs92rcd13ifvqi0g","pricing_plan_id":"cebpf4jnsgd1na2vs0mg"},{"bike_id":"a587ca06-20c3-495b-af00-feeb2b6eba27","system_id":"levelo_inurba_marseille","lat":43.32831,"lon":5.36684,"is_reserved":false,"is_disabled":false,"rental_uris":{"android":"levelo://app?vid=a587ca06-20c3-495b-af00-feeb2b6eba27","ios":"levelo://app?vid=a587ca06-20c3-495b-af00-feeb2b6eba27"},"vehicle_type_id":"4","last_reported":1708034785,"current_range_meters":4400,"station_id":"ce4bhs92rcd13ifvqi0g","pricing_plan_id":"cebpf4jnsgd1na2vs0mg"},{"bike_id":"57f57f96-aa15-40ae-a761-f5242a8c30b7","system_id":"levelo_inurba_marseille","lat":43.32831,"lon":5.36677,"is_reserved":false,"is_disabled":false,"rental_uris":{"android":"levelo://app?vid=57f57f96-aa15-40ae-a761-f5242a8c30b7","ios":"levelo://app?vid=57f57f96-aa15-40ae-a761-f5242a8c30b7"},"vehicle_type_id":"4","last_reported":1708034785,"current_range_meters":10400,"station_id":"ce4bhs92rcd13ifvqi0g","pricing_plan_id":"cebpf4jnsgd1na2vs0mg"},{"bike_id":"3b0f291b-fca2-474d-b73b-4f4a07c317d1","system_id":"levelo_inurba_marseille","lat":43.297163,"lon":5.365866,"is_reserved":false,"is_disabled":false,"rental_uris":{"android":"levelo://app?vid=3b0f291b-fca2-474d-b73b-4f4a07c317d1","ios":"levelo://app?vid=3b0f291b-fca2-474d-b73b-4f4a07c317d1"},"vehicle_type_id":"4","last_reported":1708034785,"current_range_meters":19600,"station_id":"ce4bgn12rcd13ifvqbt0","pricing_plan_id":"cebpf4jnsgd1na2vs0mg"},{"bike_id":"7a4dca57-f04c-4571-b308-319f5253d6f2","system_id":"levelo_inurba_marseille","lat":43.32833,"lon":5.36681,"is_reserved":false,"is_disabled":false,"rental_uris":{"android":"levelo://app?vid=7a4dca57-f04c-4571-b308-319f5253d6f2","ios":"levelo://app?vid=7a4dca57-f04c-4571-b308-319f5253d6f2"},"vehicle_type_id":"4","last_reported":1708034785,"current_range_meters":16000,"station_id":"ce4bhs92rcd13ifvqi0g","pricing_plan_id":"cebpf4jnsgd1na2vs0mg"},{"bike_id":"01ef1e87-7b88-4771-aca4-bf0407485e75","system_id":"levelo_inurba_marseille","lat":43.297163,"lon":5.365866,"is_reserved":false,"is_disabled":false,"rental_uris":{"android":"levelo://app?vid=01ef1e87-7b88-4771-aca4-bf0407485e75","ios":"levelo://app?vid=01ef1e87-7b88-4771-aca4-bf0407485e75"},"vehicle_type_id":"4","last_reported":1708034785,"current_range_meters":26400,"station_id":"ce4bgn12rcd13ifvqbt0","pricing_plan_id":"cebpf4jnsgd1na2vs0mg"},{"bike_id":"8d4d4aba-3495-4235-ada7-809a0bcb5c57","system_id":"levelo_inurba_marseille","lat":43.328348,"lon":5.366796,"is_reserved":false,"is_disabled":false,"rental_uris":{"android":"levelo://app?vid=8d4d4aba-3495-4235-ada7-809a0bcb5c57","ios":"levelo://app?vid=8d4d4aba-3495-4235-ada7-809a0bcb5c57"},"vehicle_type_id":"4","last_reported":1708034785,"current_range_meters":17600,"station_id":"ce4bhs92rcd13ifvqi0g","pricing_plan_id":"cebpf4jnsgd1na2vs0mg"},{"bike_id":"20747a73-3ec2-4ec7-9c3a-f0ad85525260","system_id":"levelo_inurba_marseille","lat":43.32835,"lon":5.36687,"is_reserved":false,"is_disabled":false,"rental_uris":{"android":"levelo://app?vid=20747a73-3ec2-4ec7-9c3a-f0ad85525260","ios":"levelo://app?vid=20747a73-3ec2-4ec7-9c3a-f0ad85525260"},"vehicle_type_id":"4","last_reported":1708034785,"current_range_meters":0,"station_id":"ce4bhs92rcd13ifvqi0g","pricing_plan_id":"cebpf4jnsgd1na2vs0mg"},{"bike_id":"f6eee7ea-321a-42ae-8023-940f7f07676f","system_id":"levelo_inurba_marseille","lat":43.328371,"lon":5.366912,"is_reserved":false,"is_disabled":false,"rental_uris":{"android":"levelo://app?vid=f6eee7ea-321a-42ae-8023-940f7f07676f","ios":"levelo://app?vid=f6eee7ea-321a-42ae-8023-940f7f07676f"},"vehicle_type_id":"4","last_reported":1708034785,"current_range_meters":2400,"station_id":"ce4bhs92rcd13ifvqi0g","pricing_plan_id":"cebpf4jnsgd1na2vs0mg"},{"bike_id":"6683842f-a6f1-429e-8ef0-9530f8f45a09","system_id":"levelo_inurba_marseille","lat":43.29712,"lon":5.366103,"is_reserved":false,"is_disabled":false,"rental_uris":{"android":"levelo://app?vid=6683842f-a6f1-429e-8ef0-9530f8f45a09","ios":"levelo://app?vid=6683842f-a6f1-429e-8ef0-9530f8f45a09"},"vehicle_type_id":"4","last_reported":1708034785,"current_range_meters":22400,"station_id":"ce4bgn12rcd13ifvqbt0","pricing_plan_id":"cebpf4jnsgd1na2vs0mg"},{"bike_id":"0cb9e94c-d4c3-46d6-b162-b2515c7bc520","system_id":"levelo_inurba_marseille","lat":43.297163,"lon":5.365866,"is_reserved":false,"is_disabled":false,"rental_uris":{"android":"levelo://app?vid=0cb9e94c-d4c3-46d6-b162-b2515c7bc520","ios":"levelo://app?vid=0cb9e94c-d4c3-46d6-b162-b2515c7bc520"},"vehicle_type_id":"4","last_reported":1708034785,"current_range_meters":6000,"station_id":"ce4bgn12rcd13ifvqbt0","pricing_plan_id":"cebpf4jnsgd1na2vs0mg"},{"bike_id":"d26d40aa-dce3-44d2-8910-77f73b075fef","system_id":"levelo_inurba_marseille","lat":43.29708,"lon":5.36604,"is_reserved":false,"is_disabled":false,"rental_uris":{"android":"levelo://app?vid=d26d40aa-dce3-44d2-8910-77f73b075fef","ios":"levelo://app?vid=d26d40aa-dce3-44d2-8910-77f73b075fef"},"vehicle_type_id":"4","last_reported":1708034785,"current_range_meters":29600,"station_id":"ce4bgn12rcd13ifvqbt0","pricing_plan_id":"cebpf4jnsgd1na2vs0mg"},{"bike_id":"cc4ce816-decb-4e5e-8ea3-540d91db8d62","system_id":"levelo_inurba_marseille","lat":43.297163,"lon":5.365866,"is_reserved":false,"is_disabled":false,"rental_uris":{"android":"levelo://app?vid=cc4ce816-decb-4e5e-8ea3-540d91db8d62","ios":"levelo://app?vid=cc4ce816-decb-4e5e-8ea3-540d91db8d62"},"vehicle_type_id":"4","last_reported":1708034785,"current_range_meters":29200,"station_id":"ce4bgn12rcd13ifvqbt0","pricing_plan_id":"cebpf4jnsgd1na2vs0mg"},{"bike_id":"657444d8-fd1d-4bfa-a178-9af396af1faf","system_id":"levelo_inurba_marseille","lat":43.299028,"lon":5.381509,"is_reserved":false,"is_disabled":false,"rental_uris":{"android":"levelo://app?vid=657444d8-fd1d-4bfa-a178-9af396af1faf","ios":"levelo://app?vid=657444d8-fd1d-4bfa-a178-9af396af1faf"},"vehicle_type_id":"4","last_reported":1708034785,"current_range_meters":26800,"station_id":"ce4bgj12rcd13ifvqbc0","pricing_plan_id":"cebpf4jnsgd1na2vs0mg"},{"bike_id":"3bcc2564-83ae-4f78-9e0f-b6fc131940aa","system_id":"levelo_inurba_marseille","lat":43.299028,"lon":5.381509,"is_reserved":false,"is_disabled":false,"rental_uris":{"android":"levelo://app?vid=3bcc2564-83ae-4f78-9e0f-b6fc131940aa","ios":"levelo://app?vid=3bcc2564-83ae-4f78-9e0f-b6fc131940aa"},"vehicle_type_id":"4","last_reported":1708034785,"current_range_meters":20400,"station_id":"ce4bgj12rcd13ifvqbc0","pricing_plan_id":"cebpf4jnsgd1na2vs0mg"},{"bike_id":"f0c70a5f-b0c3-4df4-9f2f-b2d519a459b6","system_id":"levelo_inurba_marseille","lat":43.30955,"lon":5.39027,"is_reserved":false,"is_disabled":false,"rental_uris":{"android":"levelo://app?vid=f0c70a5f-b0c3-4df4-9f2f-b2d519a459b6","ios":"levelo://app?vid=f0c70a5f-b0c3-4df4-9f2f-b2d519a459b6"},"vehicle_type_id":"4","last_reported":1708034785,"current_range_meters":0,"station_id":"ce4bgup2rcd13ifvqco0","pricing_plan_id":"cebpf4jnsgd1na2vs0mg"},{"bike_id":"7d483980-6a33-4c1e-955f-97667621a91f","system_id":"levelo_inurba_marseille","lat":43.299028,"lon":5.381509,"is_reserved":false,"is_disabled":false,"rental_uris":{"android":"levelo://app?vid=7d483980-6a33-4c1e-955f-97667621a91f","ios":"levelo://app?vid=7d483980-6a33-4c1e-955f-97667621a91f"},"vehicle_type_id":"4","last_reported":1708034785,"current_range_meters":7200,"station_id":"ce4bgj12rcd13ifvqbc0","pricing_plan_id":"cebpf4jnsgd1na2vs0mg"},{"bike_id":"04a263cc-f7fb-40e2-9889-8225f7c983b8","system_id":"levelo_inurba_marseille","lat":43.31757,"lon":5.3901,"is_reserved":false,"is_disabled":false,"rental_uris":{"android":"levelo://app?vid=04a263cc-f7fb-40e2-9889-8225f7c983b8","ios":"levelo://app?vid=04a263cc-f7fb-40e2-9889-8225f7c983b8"},"vehicle_type_id":"4","last_reported":1708034785,"current_range_meters":400,"station_id":"ce4bhqp2rcd13ifvqhng","pricing_plan_id":"cebpf4jnsgd1na2vs0mg"},{"bike_id":"b3dcb9ba-bf07-48c1-aada-2fbdb761a352","system_id":"levelo_inurba_marseille","lat":43.317557,"lon":5.390173,"is_reserved":false,"is_disabled":false,"rental_uris":{"android":"levelo://app?vid=b3dcb9ba-bf07-48c1-aada-2fbdb761a352","ios":"levelo://app?vid=b3dcb9ba-bf07-48c1-aada-2fbdb761a352"},"vehicle_type_id":"4","last_reported":1708034785,"current_range_meters":31200,"station_id":"ce4bhqp2rcd13ifvqhng","pricing_plan_id":"cebpf4jnsgd1na2vs0mg"},{"bike_id":"12fde8e2-7aff-44e5-b0cb-316b4dfe9ecf","system_id":"levelo_inurba_marseille","lat":43.317557,"lon":5.390173,"is_reserved":false,"is_disabled":false,"rental_uris":{"android":"levelo://app?vid=12fde8e2-7aff-44e5-b0cb-316b4dfe9ecf","ios":"levelo://app?vid=12fde8e2-7aff-44e5-b0cb-316b4dfe9ecf"},"vehicle_type_id":"4","last_reported":1708034785,"current_range_meters":29200,"station_id":"ce4bhqp2rcd13ifvqhng","pricing_plan_id":"cebpf4jnsgd1na2vs0mg"},{"bike_id":"4d1fc426-76ca-4e7f-b775-e8d4d4862683","system_id":"levelo_inurba_marseille","lat":43.317557,"lon":5.390173,"is_reserved":false,"is_disabled":false,"rental_uris":{"android":"levelo://app?vid=4d1fc426-76ca-4e7f-b775-e8d4d4862683","ios":"levelo://app?vid=4d1fc426-76ca-4e7f-b775-e8d4d4862683"},"vehicle_type_id":"4","last_reported":1708034785,"current_range_meters":31200,"station_id":"ce4bhqp2rcd13ifvqhng","pricing_plan_id":"cebpf4jnsgd1na2vs0mg"},{"bike_id":"b67306fa-d95b-4754-b4be-c4de1138c990","system_id":"levelo_inurba_marseille","lat":43.31755,"lon":5.39016,"is_reserved":false,"is_disabled":false,"rental_uris":{"android":"levelo://app?vid=b67306fa-d95b-4754-b4be-c4de1138c990","ios":"levelo://app?vid=b67306fa-d95b-4754-b4be-c4de1138c990"},"vehicle_type_id":"4","last_reported":1708034785,"current_range_meters":14000,"station_id":"","pricing_plan_id":"cebpf4jnsgd1na2vs0mg"},{"bike_id":"cece8118-751e-4704-b260-95811fc140db","system_id":"levelo_inurba_marseille","lat":43.317557,"lon":5.390173,"is_reserved":false,"is_disabled":false,"rental_uris":{"android":"levelo://app?vid=cece8118-751e-4704-b260-95811fc140db","ios":"levelo://app?vid=cece8118-751e-4704-b260-95811fc140db"},"vehicle_type_id":"4","last_reported":1708034785,"current_range_meters":30000,"station_id":"ce4bhqp2rcd13ifvqhng","pricing_plan_id":"cebpf4jnsgd1na2vs0mg"},{"bike_id":"b38bbca5-1482-40ad-8405-56dac9cba366","system_id":"levelo_inurba_marseille","lat":43.317557,"lon":5.390173,"is_reserved":false,"is_disabled":false,"rental_uris":{"android":"levelo://app?vid=b38bbca5-1482-40ad-8405-56dac9cba366","ios":"levelo://app?vid=b38bbca5-1482-40ad-8405-56dac9cba366"},"vehicle_type_id":"4","last_reported":1708034785,"current_range_meters":27200,"station_id":"ce4bhqp2rcd13ifvqhng","pricing_plan_id":"cebpf4jnsgd1na2vs0mg"},{"bike_id":"0d568f49-9e25-417a-91e9-babe78949eca","system_id":"levelo_inurba_marseille","lat":43.317557,"lon":5.390173,"is_reserved":false,"is_disabled":false,"rental_uris":{"android":"levelo://app?vid=0d568f49-9e25-417a-91e9-babe78949eca","ios":"levelo://app?vid=0d568f49-9e25-417a-91e9-babe78949eca"},"vehicle_type_id":"4","last_reported":1708034785,"current_range_meters":30800,"station_id":"ce4bhqp2rcd13ifvqhng","pricing_plan_id":"cebpf4jnsgd1na2vs0mg"},{"bike_id":"732e5b28-993c-42c5-90a3-0986a8fb1481","system_id":"levelo_inurba_marseille","lat":43.29658,"lon":5.37656,"is_reserved":false,"is_disabled":false,"rental_uris":{"android":"levelo://app?vid=732e5b28-993c-42c5-90a3-0986a8fb1481","ios":"levelo://app?vid=732e5b28-993c-42c5-90a3-0986a8fb1481"},"vehicle_type_id":"4","last_reported":1708034785,"current_range_meters":5200,"station_id":"","pricing_plan_id":"cebpf4jnsgd1na2vs0mg"},{"bike_id":"27aaf622-ad2c-42b5-9690-9fff0a27e24d","system_id":"levelo_inurba_marseille","lat":43.317557,"lon":5.390173,"is_reserved":false,"is_disabled":false,"rental_uris":{"android":"levelo://app?vid=27aaf622-ad2c-42b5-9690-9fff0a27e24d","ios":"levelo://app?vid=27aaf622-ad2c-42b5-9690-9fff0a27e24d"},"vehicle_type_id":"4","last_reported":1708034785,"current_range_meters":29200,"station_id":"ce4bhqp2rcd13ifvqhng","pricing_plan_id":"cebpf4jnsgd1na2vs0mg"},{"bike_id":"0d156083-61b0-4bb3-9f9b-681df99b9fa1","system_id":"levelo_inurba_marseille","lat":43.298037,"lon":5.381066,"is_reserved":false,"is_disabled":false,"rental_uris":{"android":"levelo://app?vid=0d156083-61b0-4bb3-9f9b-681df99b9fa1","ios":"levelo://app?vid=0d156083-61b0-4bb3-9f9b-681df99b9fa1"},"vehicle_type_id":"4","last_reported":1708034785,"current_range_meters":21600,"station_id":"ce4bgip2rcd13ifvqbb0","pricing_plan_id":"cebpf4jnsgd1na2vs0mg"},{"bike_id":"71e428d6-f0ef-496f-951c-afdbc894713c","system_id":"levelo_inurba_marseille","lat":43.29796,"lon":5.38094,"is_reserved":false,"is_disabled":false,"rental_uris":{"android":"levelo://app?vid=71e428d6-f0ef-496f-951c-afdbc894713c","ios":"levelo://app?vid=71e428d6-f0ef-496f-951c-afdbc894713c"},"vehicle_type_id":"4","last_reported":1708034785,"current_range_meters":7200,"station_id":"ce4bgip2rcd13ifvqbb0","pricing_plan_id":"cebpf4jnsgd1na2vs0mg"},{"bike_id":"0c579ed9-d995-4715-ba91-9d1d048dcd1d","system_id":"levelo_inurba_marseille","lat":43.30422,"lon":5.38866,"is_reserved":false,"is_disabled":false,"rental_uris":{"android":"levelo://app?vid=0c579ed9-d995-4715-ba91-9d1d048dcd1d","ios":"levelo://app?vid=0c579ed9-d995-4715-ba91-9d1d048dcd1d"},"vehicle_type_id":"4","last_reported":1708034785,"current_range_meters":12000,"station_id":"ce4bgk12rcd13ifvqbi0","pricing_plan_id":"cebpf4jnsgd1na2vs0mg"},{"bike_id":"523af342-5027-4a62-a51b-ab3e8a538701","system_id":"levelo_inurba_marseille","lat":43.304278,"lon":5.388868,"is_reserved":false,"is_disabled":false,"rental_uris":{"android":"levelo://app?vid=523af342-5027-4a62-a51b-ab3e8a538701","ios":"levelo://app?vid=523af342-5027-4a62-a51b-ab3e8a538701"},"vehicle_type_id":"4","last_reported":1708034785,"current_range_meters":31600,"station_id":"ce4bgk12rcd13ifvqbi0","pricing_plan_id":"cebpf4jnsgd1na2vs0mg"},{"bike_id":"649d0103-8b16-4e59-a312-377cf528357b","system_id":"levelo_inurba_marseille","lat":43.304386,"lon":5.388845,"is_reserved":false,"is_disabled":false,"rental_uris":{"android":"levelo://app?vid=649d0103-8b16-4e59-a312-377cf528357b","ios":"levelo://app?vid=649d0103-8b16-4e59-a312-377cf528357b"},"vehicle_type_id":"4","last_reported":1708034785,"current_range_meters":29200,"station_id":"ce4bgk12rcd13ifvqbi0","pricing_plan_id":"cebpf4jnsgd1na2vs0mg"},{"bike_id":"536593a1-260d-4221-819b-67bf8d05c5de","system_id":"levelo_inurba_marseille","lat":43.304278,"lon":5.388868,"is_reserved":false,"is_disabled":false,"rental_uris":{"android":"levelo://app?vid=536593a1-260d-4221-819b-67bf8d05c5de","ios":"levelo://app?vid=536593a1-260d-4221-819b-67bf8d05c5de"},"vehicle_type_id":"4","last_reported":1708034785,"current_range_meters":16000,"station_id":"ce4bgk12rcd13ifvqbi0","pricing_plan_id":"cebpf4jnsgd1na2vs0mg"},{"bike_id":"c537b4b5-b84c-4b0a-82b8-333e82941033","system_id":"levelo_inurba_marseille","lat":43.304278,"lon":5.388868,"is_reserved":false,"is_disabled":false,"rental_uris":{"android":"levelo://app?vid=c537b4b5-b84c-4b0a-82b8-333e82941033","ios":"levelo://app?vid=c537b4b5-b84c-4b0a-82b8-333e82941033"},"vehicle_type_id":"4","last_reported":1708034785,"current_range_meters":24800,"station_id":"ce4bgk12rcd13ifvqbi0","pricing_plan_id":"cebpf4jnsgd1na2vs0mg"},{"bike_id":"aa638172-f43f-419e-adbf-d9edc8b94798","system_id":"levelo_inurba_marseille","lat":43.304278,"lon":5.388868,"is_reserved":false,"is_disabled":false,"rental_uris":{"android":"levelo://app?vid=aa638172-f43f-419e-adbf-d9edc8b94798","ios":"levelo://app?vid=aa638172-f43f-419e-adbf-d9edc8b94798"},"vehicle_type_id":"4","last_reported":1708034785,"current_range_meters":10400,"station_id":"ce4bgk12rcd13ifvqbi0","pricing_plan_id":"cebpf4jnsgd1na2vs0mg"},{"bike_id":"f7f7c210-a86b-49d0-9242-6f0348da9886","system_id":"levelo_inurba_marseille","lat":43.304278,"lon":5.388868,"is_reserved":false,"is_disabled":false,"rental_uris":{"android":"levelo://app?vid=f7f7c210-a86b-49d0-9242-6f0348da9886","ios":"levelo://app?vid=f7f7c210-a86b-49d0-9242-6f0348da9886"},"vehicle_type_id":"4","last_reported":1708034785,"current_range_meters":28400,"station_id":"ce4bgk12rcd13ifvqbi0","pricing_plan_id":"cebpf4jnsgd1na2vs0mg"},{"bike_id":"d950a5c1-0eb9-4646-b774-9994b201b2d7","system_id":"levelo_inurba_marseille","lat":43.304284,"lon":5.388963,"is_reserved":false,"is_disabled":false,"rental_uris":{"android":"levelo://app?vid=d950a5c1-0eb9-4646-b774-9994b201b2d7","ios":"levelo://app?vid=d950a5c1-0eb9-4646-b774-9994b201b2d7"},"vehicle_type_id":"4","last_reported":1708034785,"current_range_meters":4400,"station_id":"ce4bgk12rcd13ifvqbi0","pricing_plan_id":"cebpf4jnsgd1na2vs0mg"},{"bike_id":"47a35669-d0b6-4a02-a97b-72f7a44f3c09","system_id":"levelo_inurba_marseille","lat":43.30079,"lon":5.38612,"is_reserved":false,"is_disabled":false,"rental_uris":{"android":"levelo://app?vid=47a35669-d0b6-4a02-a97b-72f7a44f3c09","ios":"levelo://app?vid=47a35669-d0b6-4a02-a97b-72f7a44f3c09"},"vehicle_type_id":"4","last_reported":1708034785,"current_range_meters":15600,"station_id":"","pricing_plan_id":"cebpf4jnsgd1na2vs0mg"},{"bike_id":"703ba552-5e8f-4240-9103-370bdf21973d","system_id":"levelo_inurba_marseille","lat":43.32733,"lon":5.38266,"is_reserved":false,"is_disabled":false,"rental_uris":{"android":"levelo://app?vid=703ba552-5e8f-4240-9103-370bdf21973d","ios":"levelo://app?vid=703ba552-5e8f-4240-9103-370bdf21973d"},"vehicle_type_id":"4","last_reported":1708034785,"current_range_meters":20800,"station_id":"","pricing_plan_id":"cebpf4jnsgd1na2vs0mg"},{"bike_id":"6b2aad30-0b91-4566-aa19-9c169ed50d22","system_id":"levelo_inurba_marseille","lat":43.29963,"lon":5.38502,"is_reserved":false,"is_disabled":false,"rental_uris":{"android":"levelo://app?vid=6b2aad30-0b91-4566-aa19-9c169ed50d22","ios":"levelo://app?vid=6b2aad30-0b91-4566-aa19-9c169ed50d22"},"vehicle_type_id":"4","last_reported":1708034785,"current_range_meters":0,"station_id":"ce4bgj92rcd13ifvqbd0","pricing_plan_id":"cebpf4jnsgd1na2vs0mg"},{"bike_id":"db5a62d4-f9ba-40ff-9ae3-5d05cc8e7704","system_id":"levelo_inurba_marseille","lat":43.32367,"lon":5.388836,"is_reserved":false,"is_disabled":false,"rental_uris":{"android":"levelo://app?vid=db5a62d4-f9ba-40ff-9ae3-5d05cc8e7704","ios":"levelo://app?vid=db5a62d4-f9ba-40ff-9ae3-5d05cc8e7704"},"vehicle_type_id":"4","last_reported":1708034785,"current_range_meters":6800,"station_id":"ce4bhqp2rcd13ifvqhog","pricing_plan_id":"cebpf4jnsgd1na2vs0mg"},{"bike_id":"28152d88-f1e7-4013-9b8c-cad9c3cb847e","system_id":"levelo_inurba_marseille","lat":43.32367,"lon":5.388836,"is_reserved":false,"is_disabled":false,"rental_uris":{"android":"levelo://app?vid=28152d88-f1e7-4013-9b8c-cad9c3cb847e","ios":"levelo://app?vid=28152d88-f1e7-4013-9b8c-cad9c3cb847e"},"vehicle_type_id":"4","last_reported":1708034785,"current_range_meters":11200,"station_id":"ce4bhqp2rcd13ifvqhog","pricing_plan_id":"cebpf4jnsgd1na2vs0mg"},{"bike_id":"9a785585-c85b-4fa3-85aa-80d29ca57d9f","system_id":"levelo_inurba_marseille","lat":43.32367,"lon":5.388836,"is_reserved":false,"is_disabled":false,"rental_uris":{"android":"levelo://app?vid=9a785585-c85b-4fa3-85aa-80d29ca57d9f","ios":"levelo://app?vid=9a785585-c85b-4fa3-85aa-80d29ca57d9f"},"vehicle_type_id":"4","last_reported":1708034785,"current_range_meters":7200,"station_id":"ce4bhqp2rcd13ifvqhog","pricing_plan_id":"cebpf4jnsgd1na2vs0mg"},{"bike_id":"86aac113-ad26-4e1e-a9a2-1e0a7b7f3734","system_id":"levelo_inurba_marseille","lat":43.32367,"lon":5.388836,"is_reserved":false,"is_disabled":false,"rental_uris":{"android":"levelo://app?vid=86aac113-ad26-4e1e-a9a2-1e0a7b7f3734","ios":"levelo://app?vid=86aac113-ad26-4e1e-a9a2-1e0a7b7f3734"},"vehicle_type_id":"4","last_reported":1708034785,"current_range_meters":14800,"station_id":"ce4bhqp2rcd13ifvqhog","pricing_plan_id":"cebpf4jnsgd1na2vs0mg"},{"bike_id":"22835b97-3d5c-4086-89cb-d0702c84ca31","system_id":"levelo_inurba_marseille","lat":43.32367,"lon":5.388836,"is_reserved":false,"is_disabled":false,"rental_uris":{"android":"levelo://app?vid=22835b97-3d5c-4086-89cb-d0702c84ca31","ios":"levelo://app?vid=22835b97-3d5c-4086-89cb-d0702c84ca31"},"vehicle_type_id":"4","last_reported":1708034785,"current_range_meters":17200,"station_id":"ce4bhqp2rcd13ifvqhog","pricing_plan_id":"cebpf4jnsgd1na2vs0mg"},{"bike_id":"b990bd33-11fa-4194-a071-8e5a2381ab47","system_id":"levelo_inurba_marseille","lat":43.32367,"lon":5.388836,"is_reserved":false,"is_disabled":false,"rental_uris":{"android":"levelo://app?vid=b990bd33-11fa-4194-a071-8e5a2381ab47","ios":"levelo://app?vid=b990bd33-11fa-4194-a071-8e5a2381ab47"},"vehicle_type_id":"4","last_reported":1708034785,"current_range_meters":6000,"station_id":"ce4bhqp2rcd13ifvqhog","pricing_plan_id":"cebpf4jnsgd1na2vs0mg"},{"bike_id":"41305819-44f5-40af-827b-218028eee8ba","system_id":"levelo_inurba_marseille","lat":43.32366,"lon":5.38884,"is_reserved":false,"is_disabled":false,"rental_uris":{"android":"levelo://app?vid=41305819-44f5-40af-827b-218028eee8ba","ios":"levelo://app?vid=41305819-44f5-40af-827b-218028eee8ba"},"vehicle_type_id":"4","last_reported":1708034785,"current_range_meters":0,"station_id":"ce4bhqp2rcd13ifvqhog","pricing_plan_id":"cebpf4jnsgd1na2vs0mg"},{"bike_id":"db2bc009-1b6b-43a5-9572-4ba46f979c16","system_id":"levelo_inurba_marseille","lat":43.32367,"lon":5.388836,"is_reserved":false,"is_disabled":false,"rental_uris":{"android":"levelo://app?vid=db2bc009-1b6b-43a5-9572-4ba46f979c16","ios":"levelo://app?vid=db2bc009-1b6b-43a5-9572-4ba46f979c16"},"vehicle_type_id":"4","last_reported":1708034785,"current_range_meters":18400,"station_id":"ce4bhqp2rcd13ifvqhog","pricing_plan_id":"cebpf4jnsgd1na2vs0mg"},{"bike_id":"a8c7fcf6-2476-48b4-a2a7-391dc6d39d14","system_id":"levelo_inurba_marseille","lat":43.32367,"lon":5.388836,"is_reserved":false,"is_disabled":false,"rental_uris":{"android":"levelo://app?vid=a8c7fcf6-2476-48b4-a2a7-391dc6d39d14","ios":"levelo://app?vid=a8c7fcf6-2476-48b4-a2a7-391dc6d39d14"},"vehicle_type_id":"4","last_reported":1708034785,"current_range_meters":0,"station_id":"ce4bhqp2rcd13ifvqhog","pricing_plan_id":"cebpf4jnsgd1na2vs0mg"},{"bike_id":"7b8ae2a5-fea4-420f-9e1d-5f67a20c6887","system_id":"levelo_inurba_marseille","lat":43.32367,"lon":5.388836,"is_reserved":false,"is_disabled":false,"rental_uris":{"android":"levelo://app?vid=7b8ae2a5-fea4-420f-9e1d-5f67a20c6887","ios":"levelo://app?vid=7b8ae2a5-fea4-420f-9e1d-5f67a20c6887"},"vehicle_type_id":"4","last_reported":1708034785,"current_range_meters":19600,"station_id":"ce4bhqp2rcd13ifvqhog","pricing_plan_id":"cebpf4jnsgd1na2vs0mg"},{"bike_id":"273a78da-d021-4468-b42c-ae595a372fa1","system_id":"levelo_inurba_marseille","lat":43.29602,"lon":5.381084,"is_reserved":false,"is_disabled":false,"rental_uris":{"android":"levelo://app?vid=273a78da-d021-4468-b42c-ae595a372fa1","ios":"levelo://app?vid=273a78da-d021-4468-b42c-ae595a372fa1"},"vehicle_type_id":"4","last_reported":1708034785,"current_range_meters":0,"station_id":"ce4bgl12rcd13ifvqbo0","pricing_plan_id":"cebpf4jnsgd1na2vs0mg"},{"bike_id":"088091d0-8fa6-4246-9a0c-ef11f30a237b","system_id":"levelo_inurba_marseille","lat":43.293259,"lon":5.371586,"is_reserved":false,"is_disabled":false,"rental_uris":{"android":"levelo://app?vid=088091d0-8fa6-4246-9a0c-ef11f30a237b","ios":"levelo://app?vid=088091d0-8fa6-4246-9a0c-ef11f30a237b"},"vehicle_type_id":"4","last_reported":1708034785,"current_range_meters":0,"station_id":"ce4bgh92rcd13ifvqb40","pricing_plan_id":"cebpf4jnsgd1na2vs0mg"},{"bike_id":"24dbd017-e002-4304-ba52-a44060b64f07","system_id":"levelo_inurba_marseille","lat":43.293259,"lon":5.371586,"is_reserved":false,"is_disabled":false,"rental_uris":{"android":"levelo://app?vid=24dbd017-e002-4304-ba52-a44060b64f07","ios":"levelo://app?vid=24dbd017-e002-4304-ba52-a44060b64f07"},"vehicle_type_id":"4","last_reported":1708034785,"current_range_meters":0,"station_id":"ce4bgh92rcd13ifvqb40","pricing_plan_id":"cebpf4jnsgd1na2vs0mg"},{"bike_id":"067a0336-9c38-4497-ab4e-558cd7f126ac","system_id":"levelo_inurba_marseille","lat":43.293259,"lon":5.371586,"is_reserved":false,"is_disabled":false,"rental_uris":{"android":"levelo://app?vid=067a0336-9c38-4497-ab4e-558cd7f126ac","ios":"levelo://app?vid=067a0336-9c38-4497-ab4e-558cd7f126ac"},"vehicle_type_id":"4","last_reported":1708034785,"current_range_meters":29600,"station_id":"ce4bgh92rcd13ifvqb40","pricing_plan_id":"cebpf4jnsgd1na2vs0mg"},{"bike_id":"8f795d00-eb66-4272-baa0-530010bec413","system_id":"levelo_inurba_marseille","lat":43.29267,"lon":5.36849,"is_reserved":false,"is_disabled":false,"rental_uris":{"android":"levelo://app?vid=8f795d00-eb66-4272-baa0-530010bec413","ios":"levelo://app?vid=8f795d00-eb66-4272-baa0-530010bec413"},"vehicle_type_id":"4","last_reported":1708034785,"current_range_meters":0,"station_id":"ce4bhbp2rcd13ifvqesg","pricing_plan_id":"cebpf4jnsgd1na2vs0mg"},{"bike_id":"61894ff7-f1d0-4018-8c3c-3503c1aca120","system_id":"levelo_inurba_marseille","lat":43.293009,"lon":5.374584,"is_reserved":false,"is_disabled":false,"rental_uris":{"android":"levelo://app?vid=61894ff7-f1d0-4018-8c3c-3503c1aca120","ios":"levelo://app?vid=61894ff7-f1d0-4018-8c3c-3503c1aca120"},"vehicle_type_id":"4","last_reported":1708034785,"current_range_meters":0,"station_id":"ce4bgi12rcd13ifvqb70","pricing_plan_id":"cebpf4jnsgd1na2vs0mg"},{"bike_id":"0b2c9bde-e1d9-4637-85ad-82e704b8600b","system_id":"levelo_inurba_marseille","lat":43.303002,"lon":5.392142,"is_reserved":false,"is_disabled":false,"rental_uris":{"android":"levelo://app?vid=0b2c9bde-e1d9-4637-85ad-82e704b8600b","ios":"levelo://app?vid=0b2c9bde-e1d9-4637-85ad-82e704b8600b"},"vehicle_type_id":"4","last_reported":1708034785,"current_range_meters":27600,"station_id":"ce4bgkh2rcd13ifvqbk0","pricing_plan_id":"cebpf4jnsgd1na2vs0mg"},{"bike_id":"ebc7f7af-78b9-442f-aeee-f9078a057926","system_id":"levelo_inurba_marseille","lat":43.303002,"lon":5.392142,"is_reserved":false,"is_disabled":false,"rental_uris":{"android":"levelo://app?vid=ebc7f7af-78b9-442f-aeee-f9078a057926","ios":"levelo://app?vid=ebc7f7af-78b9-442f-aeee-f9078a057926"},"vehicle_type_id":"4","last_reported":1708034785,"current_range_meters":8800,"station_id":"ce4bgkh2rcd13ifvqbk0","pricing_plan_id":"cebpf4jnsgd1na2vs0mg"},{"bike_id":"70a29a34-b86a-448f-9a23-7d10f1fd66d0","system_id":"levelo_inurba_marseille","lat":43.303002,"lon":5.392142,"is_reserved":false,"is_disabled":false,"rental_uris":{"android":"levelo://app?vid=70a29a34-b86a-448f-9a23-7d10f1fd66d0","ios":"levelo://app?vid=70a29a34-b86a-448f-9a23-7d10f1fd66d0"},"vehicle_type_id":"4","last_reported":1708034785,"current_range_meters":0,"station_id":"ce4bgkh2rcd13ifvqbk0","pricing_plan_id":"cebpf4jnsgd1na2vs0mg"},{"bike_id":"814a0711-385d-44f7-a692-d81527f73fe8","system_id":"levelo_inurba_marseille","lat":43.30299,"lon":5.39216,"is_reserved":false,"is_disabled":false,"rental_uris":{"android":"levelo://app?vid=814a0711-385d-44f7-a692-d81527f73fe8","ios":"levelo://app?vid=814a0711-385d-44f7-a692-d81527f73fe8"},"vehicle_type_id":"4","last_reported":1708034785,"current_range_meters":29200,"station_id":"ce4bgkh2rcd13ifvqbk0","pricing_plan_id":"cebpf4jnsgd1na2vs0mg"},{"bike_id":"0f235831-9e55-40f9-acaf-88d3afb2b877","system_id":"levelo_inurba_marseille","lat":43.300852,"lon":5.390859,"is_reserved":false,"is_disabled":false,"rental_uris":{"android":"levelo://app?vid=0f235831-9e55-40f9-acaf-88d3afb2b877","ios":"levelo://app?vid=0f235831-9e55-40f9-acaf-88d3afb2b877"},"vehicle_type_id":"4","last_reported":1708034785,"current_range_meters":0,"station_id":"ce4bh192rcd13ifvqdb0","pricing_plan_id":"cebpf4jnsgd1na2vs0mg"},{"bike_id":"60d5f52c-fa21-46ff-aa88-400003faf6dd","system_id":"levelo_inurba_marseille","lat":43.30085,"lon":5.390856,"is_reserved":false,"is_disabled":false,"rental_uris":{"android":"levelo://app?vid=60d5f52c-fa21-46ff-aa88-400003faf6dd","ios":"levelo://app?vid=60d5f52c-fa21-46ff-aa88-400003faf6dd"},"vehicle_type_id":"4","last_reported":1708034785,"current_range_meters":27200,"station_id":"ce4bh192rcd13ifvqdb0","pricing_plan_id":"cebpf4jnsgd1na2vs0mg"},{"bike_id":"f0cdb7f7-8c78-4dd3-b158-7c98e67aee7b","system_id":"levelo_inurba_marseille","lat":43.300852,"lon":5.390859,"is_reserved":false,"is_disabled":false,"rental_uris":{"android":"levelo://app?vid=f0cdb7f7-8c78-4dd3-b158-7c98e67aee7b","ios":"levelo://app?vid=f0cdb7f7-8c78-4dd3-b158-7c98e67aee7b"},"vehicle_type_id":"4","last_reported":1708034785,"current_range_meters":5600,"station_id":"ce4bh192rcd13ifvqdb0","pricing_plan_id":"cebpf4jnsgd1na2vs0mg"},{"bike_id":"efdb2a9e-e4fc-43af-8173-b19a3cf0b236","system_id":"levelo_inurba_marseille","lat":43.300852,"lon":5.390859,"is_reserved":false,"is_disabled":false,"rental_uris":{"android":"levelo://app?vid=efdb2a9e-e4fc-43af-8173-b19a3cf0b236","ios":"levelo://app?vid=efdb2a9e-e4fc-43af-8173-b19a3cf0b236"},"vehicle_type_id":"4","last_reported":1708034785,"current_range_meters":4800,"station_id":"ce4bh192rcd13ifvqdb0","pricing_plan_id":"cebpf4jnsgd1na2vs0mg"},{"bike_id":"e2e52467-2f48-476f-9e7f-c84b5976d602","system_id":"levelo_inurba_marseille","lat":43.300852,"lon":5.390859,"is_reserved":false,"is_disabled":false,"rental_uris":{"android":"levelo://app?vid=e2e52467-2f48-476f-9e7f-c84b5976d602","ios":"levelo://app?vid=e2e52467-2f48-476f-9e7f-c84b5976d602"},"vehicle_type_id":"4","last_reported":1708034785,"current_range_meters":29600,"station_id":"ce4bh192rcd13ifvqdb0","pricing_plan_id":"cebpf4jnsgd1na2vs0mg"},{"bike_id":"176667b1-14ec-4db5-8807-440fbc643cda","system_id":"levelo_inurba_marseille","lat":43.300852,"lon":5.390859,"is_reserved":false,"is_disabled":false,"rental_uris":{"android":"levelo://app?vid=176667b1-14ec-4db5-8807-440fbc643cda","ios":"levelo://app?vid=176667b1-14ec-4db5-8807-440fbc643cda"},"vehicle_type_id":"4","last_reported":1708034785,"current_range_meters":17600,"station_id":"ce4bh192rcd13ifvqdb0","pricing_plan_id":"cebpf4jnsgd1na2vs0mg"},{"bike_id":"1cf62bcb-34d9-4c38-9870-ca22924b8df7","system_id":"levelo_inurba_marseille","lat":43.300852,"lon":5.390859,"is_reserved":false,"is_disabled":false,"rental_uris":{"android":"levelo://app?vid=1cf62bcb-34d9-4c38-9870-ca22924b8df7","ios":"levelo://app?vid=1cf62bcb-34d9-4c38-9870-ca22924b8df7"},"vehicle_type_id":"4","last_reported":1708034785,"current_range_meters":16400,"station_id":"ce4bh192rcd13ifvqdb0","pricing_plan_id":"cebpf4jnsgd1na2vs0mg"},{"bike_id":"236576a4-dad6-4c50-b8da-14e56bdbc875","system_id":"levelo_inurba_marseille","lat":43.30085,"lon":5.390856,"is_reserved":false,"is_disabled":false,"rental_uris":{"android":"levelo://app?vid=236576a4-dad6-4c50-b8da-14e56bdbc875","ios":"levelo://app?vid=236576a4-dad6-4c50-b8da-14e56bdbc875"},"vehicle_type_id":"4","last_reported":1708034785,"current_range_meters":16400,"station_id":"ce4bh192rcd13ifvqdb0","pricing_plan_id":"cebpf4jnsgd1na2vs0mg"},{"bike_id":"ea2dcd2b-03e8-44d3-a2d4-1cbc0417fb38","system_id":"levelo_inurba_marseille","lat":43.299105,"lon":5.389005,"is_reserved":false,"is_disabled":false,"rental_uris":{"android":"levelo://app?vid=ea2dcd2b-03e8-44d3-a2d4-1cbc0417fb38","ios":"levelo://app?vid=ea2dcd2b-03e8-44d3-a2d4-1cbc0417fb38"},"vehicle_type_id":"4","last_reported":1708034785,"current_range_meters":8800,"station_id":"","pricing_plan_id":"cebpf4jnsgd1na2vs0mg"},{"bike_id":"324c65f0-a136-47cc-b723-d44356312e60","system_id":"levelo_inurba_marseille","lat":43.298764,"lon":5.388973,"is_reserved":false,"is_disabled":false,"rental_uris":{"android":"levelo://app?vid=324c65f0-a136-47cc-b723-d44356312e60","ios":"levelo://app?vid=324c65f0-a136-47cc-b723-d44356312e60"},"vehicle_type_id":"4","last_reported":1708034785,"current_range_meters":11200,"station_id":"ce4bh392rcd13ifvqdl0","pricing_plan_id":"cebpf4jnsgd1na2vs0mg"},{"bike_id":"f618a93e-2e65-4cb3-ad02-29aac37bbe03","system_id":"levelo_inurba_marseille","lat":43.298764,"lon":5.388973,"is_reserved":false,"is_disabled":false,"rental_uris":{"android":"levelo://app?vid=f618a93e-2e65-4cb3-ad02-29aac37bbe03","ios":"levelo://app?vid=f618a93e-2e65-4cb3-ad02-29aac37bbe03"},"vehicle_type_id":"4","last_reported":1708034785,"current_range_meters":24800,"station_id":"ce4bh392rcd13ifvqdl0","pricing_plan_id":"cebpf4jnsgd1na2vs0mg"},{"bike_id":"7d06ee52-1822-429f-8ba7-0c52b7a1525d","system_id":"levelo_inurba_marseille","lat":43.309038,"lon":5.396546,"is_reserved":false,"is_disabled":false,"rental_uris":{"android":"levelo://app?vid=7d06ee52-1822-429f-8ba7-0c52b7a1525d","ios":"levelo://app?vid=7d06ee52-1822-429f-8ba7-0c52b7a1525d"},"vehicle_type_id":"4","last_reported":1708034785,"current_range_meters":31200,"station_id":"ce4bh012rcd13ifvqcv0","pricing_plan_id":"cebpf4jnsgd1na2vs0mg"},{"bike_id":"82282f38-3bc4-46a6-b5d0-8b366272de42","system_id":"levelo_inurba_marseille","lat":43.291994,"lon":5.357886,"is_reserved":false,"is_disabled":false,"rental_uris":{"android":"levelo://app?vid=82282f38-3bc4-46a6-b5d0-8b366272de42","ios":"levelo://app?vid=82282f38-3bc4-46a6-b5d0-8b366272de42"},"vehicle_type_id":"4","last_reported":1708034785,"current_range_meters":23200,"station_id":"ce4bhb12rcd13ifvqel0","pricing_plan_id":"cebpf4jnsgd1na2vs0mg"},{"bike_id":"f4423796-ae47-4166-883b-f60cf33c6836","system_id":"levelo_inurba_marseille","lat":43.29193,"lon":5.358092,"is_reserved":false,"is_disabled":false,"rental_uris":{"android":"levelo://app?vid=f4423796-ae47-4166-883b-f60cf33c6836","ios":"levelo://app?vid=f4423796-ae47-4166-883b-f60cf33c6836"},"vehicle_type_id":"4","last_reported":1708034785,"current_range_meters":6000,"station_id":"ce4bhb12rcd13ifvqel0","pricing_plan_id":"cebpf4jnsgd1na2vs0mg"},{"bike_id":"335315e2-db4c-40db-858f-d69afeaf1210","system_id":"levelo_inurba_marseille","lat":43.313291,"lon":5.396838,"is_reserved":false,"is_disabled":false,"rental_uris":{"android":"levelo://app?vid=335315e2-db4c-40db-858f-d69afeaf1210","ios":"levelo://app?vid=335315e2-db4c-40db-858f-d69afeaf1210"},"vehicle_type_id":"4","last_reported":1708034785,"current_range_meters":16800,"station_id":"ce4bgvp2rcd13ifvqcu0","pricing_plan_id":"cebpf4jnsgd1na2vs0mg"},{"bike_id":"2824e9e2-51de-4b11-a0f5-4c8be6cd090b","system_id":"levelo_inurba_marseille","lat":43.309047,"lon":5.396551,"is_reserved":false,"is_disabled":false,"rental_uris":{"android":"levelo://app?vid=2824e9e2-51de-4b11-a0f5-4c8be6cd090b","ios":"levelo://app?vid=2824e9e2-51de-4b11-a0f5-4c8be6cd090b"},"vehicle_type_id":"4","last_reported":1708034785,"current_range_meters":20000,"station_id":"ce4bh012rcd13ifvqcv0","pricing_plan_id":"cebpf4jnsgd1na2vs0mg"},{"bike_id":"89056fb0-c841-48ae-a48f-efa5f1af8039","system_id":"levelo_inurba_marseille","lat":43.313291,"lon":5.396838,"is_reserved":false,"is_disabled":false,"rental_uris":{"android":"levelo://app?vid=89056fb0-c841-48ae-a48f-efa5f1af8039","ios":"levelo://app?vid=89056fb0-c841-48ae-a48f-efa5f1af8039"},"vehicle_type_id":"4","last_reported":1708034785,"current_range_meters":27200,"station_id":"ce4bgvp2rcd13ifvqcu0","pricing_plan_id":"cebpf4jnsgd1na2vs0mg"},{"bike_id":"843b637f-e1f4-4300-8028-63a66c17e13a","system_id":"levelo_inurba_marseille","lat":43.313291,"lon":5.396838,"is_reserved":false,"is_disabled":false,"rental_uris":{"android":"levelo://app?vid=843b637f-e1f4-4300-8028-63a66c17e13a","ios":"levelo://app?vid=843b637f-e1f4-4300-8028-63a66c17e13a"},"vehicle_type_id":"4","last_reported":1708034785,"current_range_meters":30000,"station_id":"ce4bgvp2rcd13ifvqcu0","pricing_plan_id":"cebpf4jnsgd1na2vs0mg"},{"bike_id":"6ed23e49-c41f-4b20-84d7-2e4f6128d3fd","system_id":"levelo_inurba_marseille","lat":43.309038,"lon":5.396546,"is_reserved":false,"is_disabled":false,"rental_uris":{"android":"levelo://app?vid=6ed23e49-c41f-4b20-84d7-2e4f6128d3fd","ios":"levelo://app?vid=6ed23e49-c41f-4b20-84d7-2e4f6128d3fd"},"vehicle_type_id":"4","last_reported":1708034785,"current_range_meters":1600,"station_id":"ce4bh012rcd13ifvqcv0","pricing_plan_id":"cebpf4jnsgd1na2vs0mg"},{"bike_id":"ac5d0d15-675d-4752-9cc0-085be4de0d26","system_id":"levelo_inurba_marseille","lat":43.313291,"lon":5.396838,"is_reserved":false,"is_disabled":false,"rental_uris":{"android":"levelo://app?vid=ac5d0d15-675d-4752-9cc0-085be4de0d26","ios":"levelo://app?vid=ac5d0d15-675d-4752-9cc0-085be4de0d26"},"vehicle_type_id":"4","last_reported":1708034785,"current_range_meters":0,"station_id":"ce4bgvp2rcd13ifvqcu0","pricing_plan_id":"cebpf4jnsgd1na2vs0mg"},{"bike_id":"af142075-b4b5-499d-8207-101416a5b50f","system_id":"levelo_inurba_marseille","lat":43.309047,"lon":5.396551,"is_reserved":false,"is_disabled":false,"rental_uris":{"android":"levelo://app?vid=af142075-b4b5-499d-8207-101416a5b50f","ios":"levelo://app?vid=af142075-b4b5-499d-8207-101416a5b50f"},"vehicle_type_id":"4","last_reported":1708034785,"current_range_meters":24000,"station_id":"ce4bh012rcd13ifvqcv0","pricing_plan_id":"cebpf4jnsgd1na2vs0mg"},{"bike_id":"f757dd7d-5688-42f2-aae7-d5bc38b7616c","system_id":"levelo_inurba_marseille","lat":43.309038,"lon":5.396546,"is_reserved":false,"is_disabled":false,"rental_uris":{"android":"levelo://app?vid=f757dd7d-5688-42f2-aae7-d5bc38b7616c","ios":"levelo://app?vid=f757dd7d-5688-42f2-aae7-d5bc38b7616c"},"vehicle_type_id":"4","last_reported":1708034785,"current_range_meters":14000,"station_id":"ce4bh012rcd13ifvqcv0","pricing_plan_id":"cebpf4jnsgd1na2vs0mg"},{"bike_id":"fbf2a8c9-1fd4-4431-b1fb-c70ebec01e64","system_id":"levelo_inurba_marseille","lat":43.313291,"lon":5.396838,"is_reserved":false,"is_disabled":false,"rental_uris":{"android":"levelo://app?vid=fbf2a8c9-1fd4-4431-b1fb-c70ebec01e64","ios":"levelo://app?vid=fbf2a8c9-1fd4-4431-b1fb-c70ebec01e64"},"vehicle_type_id":"4","last_reported":1708034785,"current_range_meters":30800,"station_id":"ce4bgvp2rcd13ifvqcu0","pricing_plan_id":"cebpf4jnsgd1na2vs0mg"},{"bike_id":"b8a665da-9e7c-4538-925a-a49701e7014e","system_id":"levelo_inurba_marseille","lat":43.309047,"lon":5.396551,"is_reserved":false,"is_disabled":false,"rental_uris":{"android":"levelo://app?vid=b8a665da-9e7c-4538-925a-a49701e7014e","ios":"levelo://app?vid=b8a665da-9e7c-4538-925a-a49701e7014e"},"vehicle_type_id":"4","last_reported":1708034785,"current_range_meters":21600,"station_id":"ce4bh012rcd13ifvqcv0","pricing_plan_id":"cebpf4jnsgd1na2vs0mg"},{"bike_id":"c6b80f8e-d6ea-4461-b766-812c5050ea20","system_id":"levelo_inurba_marseille","lat":43.309047,"lon":5.396551,"is_reserved":false,"is_disabled":false,"rental_uris":{"android":"levelo://app?vid=c6b80f8e-d6ea-4461-b766-812c5050ea20","ios":"levelo://app?vid=c6b80f8e-d6ea-4461-b766-812c5050ea20"},"vehicle_type_id":"4","last_reported":1708034785,"current_range_meters":14400,"station_id":"ce4bh012rcd13ifvqcv0","pricing_plan_id":"cebpf4jnsgd1na2vs0mg"},{"bike_id":"7342eddc-bc7c-40d5-9adc-9fa5d7e9b69c","system_id":"levelo_inurba_marseille","lat":43.309038,"lon":5.396546,"is_reserved":false,"is_disabled":false,"rental_uris":{"android":"levelo://app?vid=7342eddc-bc7c-40d5-9adc-9fa5d7e9b69c","ios":"levelo://app?vid=7342eddc-bc7c-40d5-9adc-9fa5d7e9b69c"},"vehicle_type_id":"4","last_reported":1708034785,"current_range_meters":9200,"station_id":"ce4bh012rcd13ifvqcv0","pricing_plan_id":"cebpf4jnsgd1na2vs0mg"},{"bike_id":"0ab13978-d981-4da7-b425-fdb79e4e8ba5","system_id":"levelo_inurba_marseille","lat":43.309038,"lon":5.396546,"is_reserved":false,"is_disabled":false,"rental_uris":{"android":"levelo://app?vid=0ab13978-d981-4da7-b425-fdb79e4e8ba5","ios":"levelo://app?vid=0ab13978-d981-4da7-b425-fdb79e4e8ba5"},"vehicle_type_id":"4","last_reported":1708034785,"current_range_meters":10800,"station_id":"ce4bh012rcd13ifvqcv0","pricing_plan_id":"cebpf4jnsgd1na2vs0mg"},{"bike_id":"d38c04dc-eab6-4451-a2a7-26b477808295","system_id":"levelo_inurba_marseille","lat":43.2954,"lon":5.38543,"is_reserved":false,"is_disabled":false,"rental_uris":{"android":"levelo://app?vid=d38c04dc-eab6-4451-a2a7-26b477808295","ios":"levelo://app?vid=d38c04dc-eab6-4451-a2a7-26b477808295"},"vehicle_type_id":"4","last_reported":1708034785,"current_range_meters":0,"station_id":"ce4bgih2rcd13ifvqba0","pricing_plan_id":"cebpf4jnsgd1na2vs0mg"},{"bike_id":"be27a18e-f1fa-497e-b1b9-76e5b109357a","system_id":"levelo_inurba_marseille","lat":43.2953,"lon":5.3853,"is_reserved":false,"is_disabled":false,"rental_uris":{"android":"levelo://app?vid=be27a18e-f1fa-497e-b1b9-76e5b109357a","ios":"levelo://app?vid=be27a18e-f1fa-497e-b1b9-76e5b109357a"},"vehicle_type_id":"4","last_reported":1708034785,"current_range_meters":10800,"station_id":"ce4bgih2rcd13ifvqba0","pricing_plan_id":"cebpf4jnsgd1na2vs0mg"},{"bike_id":"ca31d44c-4daf-4dd8-b752-9988b012f9eb","system_id":"levelo_inurba_marseille","lat":43.295338,"lon":5.385418,"is_reserved":false,"is_disabled":false,"rental_uris":{"android":"levelo://app?vid=ca31d44c-4daf-4dd8-b752-9988b012f9eb","ios":"levelo://app?vid=ca31d44c-4daf-4dd8-b752-9988b012f9eb"},"vehicle_type_id":"4","last_reported":1708034785,"current_range_meters":1200,"station_id":"ce4bgih2rcd13ifvqba0","pricing_plan_id":"cebpf4jnsgd1na2vs0mg"},{"bike_id":"435c4cf5-bcd7-4edd-8d11-eff487bc33e9","system_id":"levelo_inurba_marseille","lat":43.29536,"lon":5.385516,"is_reserved":false,"is_disabled":false,"rental_uris":{"android":"levelo://app?vid=435c4cf5-bcd7-4edd-8d11-eff487bc33e9","ios":"levelo://app?vid=435c4cf5-bcd7-4edd-8d11-eff487bc33e9"},"vehicle_type_id":"4","last_reported":1708034785,"current_range_meters":24400,"station_id":"ce4bgih2rcd13ifvqba0","pricing_plan_id":"cebpf4jnsgd1na2vs0mg"},{"bike_id":"e4f90330-26f4-4105-b7ab-8b264c474991","system_id":"levelo_inurba_marseille","lat":43.290779,"lon":5.371482,"is_reserved":false,"is_disabled":false,"rental_uris":{"android":"levelo://app?vid=e4f90330-26f4-4105-b7ab-8b264c474991","ios":"levelo://app?vid=e4f90330-26f4-4105-b7ab-8b264c474991"},"vehicle_type_id":"4","last_reported":1708034785,"current_range_meters":20800,"station_id":"ce4bh5p2rcd13ifvqe4g","pricing_plan_id":"cebpf4jnsgd1na2vs0mg"},{"bike_id":"ccaed8d5-971f-49f1-a749-e92527e39fb7","system_id":"levelo_inurba_marseille","lat":43.290779,"lon":5.371482,"is_reserved":false,"is_disabled":false,"rental_uris":{"android":"levelo://app?vid=ccaed8d5-971f-49f1-a749-e92527e39fb7","ios":"levelo://app?vid=ccaed8d5-971f-49f1-a749-e92527e39fb7"},"vehicle_type_id":"4","last_reported":1708034785,"current_range_meters":22400,"station_id":"ce4bh5p2rcd13ifvqe4g","pricing_plan_id":"cebpf4jnsgd1na2vs0mg"},{"bike_id":"c717c6c1-e6dc-4129-ac12-623e5039077b","system_id":"levelo_inurba_marseille","lat":43.290624,"lon":5.359245,"is_reserved":false,"is_disabled":false,"rental_uris":{"android":"levelo://app?vid=c717c6c1-e6dc-4129-ac12-623e5039077b","ios":"levelo://app?vid=c717c6c1-e6dc-4129-ac12-623e5039077b"},"vehicle_type_id":"4","last_reported":1708034785,"current_range_meters":11200,"station_id":"ce4bha92rcd13ifvqeg0","pricing_plan_id":"cebpf4jnsgd1na2vs0mg"},{"bike_id":"405485ba-f27c-4e89-a7cf-9c424ed179a7","system_id":"levelo_inurba_marseille","lat":43.290458,"lon":5.359223,"is_reserved":false,"is_disabled":false,"rental_uris":{"android":"levelo://app?vid=405485ba-f27c-4e89-a7cf-9c424ed179a7","ios":"levelo://app?vid=405485ba-f27c-4e89-a7cf-9c424ed179a7"},"vehicle_type_id":"4","last_reported":1708034785,"current_range_meters":20000,"station_id":"ce4bha92rcd13ifvqeg0","pricing_plan_id":"cebpf4jnsgd1na2vs0mg"},{"bike_id":"85fe2657-06b9-4053-b6f6-f420f6de1456","system_id":"levelo_inurba_marseille","lat":43.29045,"lon":5.35911,"is_reserved":false,"is_disabled":false,"rental_uris":{"android":"levelo://app?vid=85fe2657-06b9-4053-b6f6-f420f6de1456","ios":"levelo://app?vid=85fe2657-06b9-4053-b6f6-f420f6de1456"},"vehicle_type_id":"4","last_reported":1708034785,"current_range_meters":4800,"station_id":"ce4bha92rcd13ifvqeg0","pricing_plan_id":"cebpf4jnsgd1na2vs0mg"},{"bike_id":"49e5d620-f84f-4664-af65-aaea39ac335a","system_id":"levelo_inurba_marseille","lat":43.290624,"lon":5.359245,"is_reserved":false,"is_disabled":false,"rental_uris":{"android":"levelo://app?vid=49e5d620-f84f-4664-af65-aaea39ac335a","ios":"levelo://app?vid=49e5d620-f84f-4664-af65-aaea39ac335a"},"vehicle_type_id":"4","last_reported":1708034785,"current_range_meters":26400,"station_id":"ce4bha92rcd13ifvqeg0","pricing_plan_id":"cebpf4jnsgd1na2vs0mg"},{"bike_id":"31e71826-7d0a-432d-88ae-1a2cbbaf8412","system_id":"levelo_inurba_marseille","lat":43.29035,"lon":5.35918,"is_reserved":false,"is_disabled":false,"rental_uris":{"android":"levelo://app?vid=31e71826-7d0a-432d-88ae-1a2cbbaf8412","ios":"levelo://app?vid=31e71826-7d0a-432d-88ae-1a2cbbaf8412"},"vehicle_type_id":"4","last_reported":1708034785,"current_range_meters":3200,"station_id":"ce4bha92rcd13ifvqeg0","pricing_plan_id":"cebpf4jnsgd1na2vs0mg"},{"bike_id":"16ede4d3-711f-4f4f-be38-88cf1a84c19e","system_id":"levelo_inurba_marseille","lat":43.290327,"lon":5.375711,"is_reserved":false,"is_disabled":false,"rental_uris":{"android":"levelo://app?vid=16ede4d3-711f-4f4f-be38-88cf1a84c19e","ios":"levelo://app?vid=16ede4d3-711f-4f4f-be38-88cf1a84c19e"},"vehicle_type_id":"4","last_reported":1708034785,"current_range_meters":9600,"station_id":"ce4bh692rcd13ifvqe90","pricing_plan_id":"cebpf4jnsgd1na2vs0mg"},{"bike_id":"2943fd45-a6c6-47f3-b40a-d503ef768467","system_id":"levelo_inurba_marseille","lat":43.29031,"lon":5.37545,"is_reserved":false,"is_disabled":false,"rental_uris":{"android":"levelo://app?vid=2943fd45-a6c6-47f3-b40a-d503ef768467","ios":"levelo://app?vid=2943fd45-a6c6-47f3-b40a-d503ef768467"},"vehicle_type_id":"4","last_reported":1708034785,"current_range_meters":10000,"station_id":"ce4bh692rcd13ifvqe90","pricing_plan_id":"cebpf4jnsgd1na2vs0mg"},{"bike_id":"e75d3d6d-4af0-410a-ae13-0ca9f337d9d2","system_id":"levelo_inurba_marseille","lat":43.294162,"lon":5.386292,"is_reserved":false,"is_disabled":false,"rental_uris":{"android":"levelo://app?vid=e75d3d6d-4af0-410a-ae13-0ca9f337d9d2","ios":"levelo://app?vid=e75d3d6d-4af0-410a-ae13-0ca9f337d9d2"},"vehicle_type_id":"4","last_reported":1708034785,"current_range_meters":4400,"station_id":"ce4bh2h2rcd13ifvqdh0","pricing_plan_id":"cebpf4jnsgd1na2vs0mg"},{"bike_id":"adbd4a02-9233-4653-8839-1a47039ae54c","system_id":"levelo_inurba_marseille","lat":43.29421,"lon":5.38634,"is_reserved":false,"is_disabled":false,"rental_uris":{"android":"levelo://app?vid=adbd4a02-9233-4653-8839-1a47039ae54c","ios":"levelo://app?vid=adbd4a02-9233-4653-8839-1a47039ae54c"},"vehicle_type_id":"4","last_reported":1708034785,"current_range_meters":30000,"station_id":"ce4bh2h2rcd13ifvqdh0","pricing_plan_id":"cebpf4jnsgd1na2vs0mg"},{"bike_id":"f67d43c4-17fb-44b8-a804-e1188232c381","system_id":"levelo_inurba_marseille","lat":43.289184,"lon":5.366408,"is_reserved":false,"is_disabled":false,"rental_uris":{"android":"levelo://app?vid=f67d43c4-17fb-44b8-a804-e1188232c381","ios":"levelo://app?vid=f67d43c4-17fb-44b8-a804-e1188232c381"},"vehicle_type_id":"4","last_reported":1708034785,"current_range_meters":4000,"station_id":"ce4bhap2rcd13ifvqek0","pricing_plan_id":"cebpf4jnsgd1na2vs0mg"},{"bike_id":"538df069-8b7a-4442-b2e0-a6060c806a08","system_id":"levelo_inurba_marseille","lat":43.289468,"lon":5.363719,"is_reserved":false,"is_disabled":false,"rental_uris":{"android":"levelo://app?vid=538df069-8b7a-4442-b2e0-a6060c806a08","ios":"levelo://app?vid=538df069-8b7a-4442-b2e0-a6060c806a08"},"vehicle_type_id":"4","last_reported":1708034785,"current_range_meters":13200,"station_id":"ce4bhc92rcd13ifvqetg","pricing_plan_id":"cebpf4jnsgd1na2vs0mg"},{"bike_id":"e01831d2-426d-4503-8991-66308a03a3b6","system_id":"levelo_inurba_marseille","lat":43.289381,"lon":5.363932,"is_reserved":false,"is_disabled":false,"rental_uris":{"android":"levelo://app?vid=e01831d2-426d-4503-8991-66308a03a3b6","ios":"levelo://app?vid=e01831d2-426d-4503-8991-66308a03a3b6"},"vehicle_type_id":"4","last_reported":1708034785,"current_range_meters":14000,"station_id":"ce4bhc92rcd13ifvqetg","pricing_plan_id":"cebpf4jnsgd1na2vs0mg"},{"bike_id":"610d7ccc-eaea-46e3-b719-fac1467334a5","system_id":"levelo_inurba_marseille","lat":43.292642,"lon":5.384254,"is_reserved":false,"is_disabled":false,"rental_uris":{"android":"levelo://app?vid=610d7ccc-eaea-46e3-b719-fac1467334a5","ios":"levelo://app?vid=610d7ccc-eaea-46e3-b719-fac1467334a5"},"vehicle_type_id":"4","last_reported":1708034785,"current_range_meters":22000,"station_id":"ce4bh692rcd13ifvqea0","pricing_plan_id":"cebpf4jnsgd1na2vs0mg"},{"bike_id":"b206396a-db5f-4f5e-9d38-9679b6f87627","system_id":"levelo_inurba_marseille","lat":43.292644,"lon":5.384257,"is_reserved":false,"is_disabled":false,"rental_uris":{"android":"levelo://app?vid=b206396a-db5f-4f5e-9d38-9679b6f87627","ios":"levelo://app?vid=b206396a-db5f-4f5e-9d38-9679b6f87627"},"vehicle_type_id":"4","last_reported":1708034785,"current_range_meters":4000,"station_id":"ce4bh692rcd13ifvqea0","pricing_plan_id":"cebpf4jnsgd1na2vs0mg"},{"bike_id":"a440f4f3-ab93-4140-8e26-b43b9383ca39","system_id":"levelo_inurba_marseille","lat":43.304296,"lon":5.397513,"is_reserved":false,"is_disabled":false,"rental_uris":{"android":"levelo://app?vid=a440f4f3-ab93-4140-8e26-b43b9383ca39","ios":"levelo://app?vid=a440f4f3-ab93-4140-8e26-b43b9383ca39"},"vehicle_type_id":"4","last_reported":1708034785,"current_range_meters":21600,"station_id":"ce4bh092rcd13ifvqd20","pricing_plan_id":"cebpf4jnsgd1na2vs0mg"},{"bike_id":"0071769d-414c-4e8d-ba08-50c2ccec49fa","system_id":"levelo_inurba_marseille","lat":43.304296,"lon":5.397513,"is_reserved":false,"is_disabled":false,"rental_uris":{"android":"levelo://app?vid=0071769d-414c-4e8d-ba08-50c2ccec49fa","ios":"levelo://app?vid=0071769d-414c-4e8d-ba08-50c2ccec49fa"},"vehicle_type_id":"4","last_reported":1708034785,"current_range_meters":24400,"station_id":"ce4bh092rcd13ifvqd20","pricing_plan_id":"cebpf4jnsgd1na2vs0mg"},{"bike_id":"1c5eaf3c-8374-4265-9e10-ac4bf5c88db4","system_id":"levelo_inurba_marseille","lat":43.29103,"lon":5.38085,"is_reserved":false,"is_disabled":false,"rental_uris":{"android":"levelo://app?vid=1c5eaf3c-8374-4265-9e10-ac4bf5c88db4","ios":"levelo://app?vid=1c5eaf3c-8374-4265-9e10-ac4bf5c88db4"},"vehicle_type_id":"4","last_reported":1708034785,"current_range_meters":30800,"station_id":"","pricing_plan_id":"cebpf4jnsgd1na2vs0mg"},{"bike_id":"804592df-3fff-4db8-9dba-842495948a11","system_id":"levelo_inurba_marseille","lat":43.290104,"lon":5.356111,"is_reserved":false,"is_disabled":false,"rental_uris":{"android":"levelo://app?vid=804592df-3fff-4db8-9dba-842495948a11","ios":"levelo://app?vid=804592df-3fff-4db8-9dba-842495948a11"},"vehicle_type_id":"4","last_reported":1708034785,"current_range_meters":21200,"station_id":"ce4bhb92rcd13ifvqen0","pricing_plan_id":"cebpf4jnsgd1na2vs0mg"},{"bike_id":"f918a395-17f9-450c-b1a6-1d22f46b289e","system_id":"levelo_inurba_marseille","lat":43.290104,"lon":5.356111,"is_reserved":false,"is_disabled":false,"rental_uris":{"android":"levelo://app?vid=f918a395-17f9-450c-b1a6-1d22f46b289e","ios":"levelo://app?vid=f918a395-17f9-450c-b1a6-1d22f46b289e"},"vehicle_type_id":"4","last_reported":1708034785,"current_range_meters":4000,"station_id":"ce4bhb92rcd13ifvqen0","pricing_plan_id":"cebpf4jnsgd1na2vs0mg"},{"bike_id":"a540fa01-c254-4e0a-b6b1-06183026e88a","system_id":"levelo_inurba_marseille","lat":43.290104,"lon":5.356111,"is_reserved":false,"is_disabled":false,"rental_uris":{"android":"levelo://app?vid=a540fa01-c254-4e0a-b6b1-06183026e88a","ios":"levelo://app?vid=a540fa01-c254-4e0a-b6b1-06183026e88a"},