{"last_updated":1730801405,"ttl":60,"version":"2.2","data":{"bikes":[{"bike_id":"27c3248b-c595-4ca3-8d16-fd1fce0083ca","system_id":"levelo_inurba_marseille","lat":43.34143,"lon":5.4091,"is_reserved":false,"is_disabled":false,"rental_uris":{"android":"levelo://app?vid=27c3248b-c595-4ca3-8d16-fd1fce0083ca","ios":"levelo://app?vid=27c3248b-c595-4ca3-8d16-fd1fce0083ca"},"vehicle_type_id":"4","last_reported":1730801405,"current_range_meters":24000,"station_id":"ce4bhqh2rcd13ifvqhlg","pricing_plan_id":"cebpf4jnsgd1na2vs0mg"},{"bike_id":"0919f2aa-5596-42ec-8a82-01ff30eaf74a","system_id":"levelo_inurba_marseille","lat":43.26205,"lon":5.3793,"is_reserved":false,"is_disabled":false,"rental_uris":{"android":"levelo://app?vid=0919f2aa-5596-42ec-8a82-01ff30eaf74a","ios":"levelo://app?vid=0919f2aa-5596-42ec-8a82-01ff30eaf74a"},"vehicle_type_id":"4","last_reported":1730801405,"current_range_meters":15200,"station_id":"ce4bhjp2rcd13ifvqg90","pricing_plan_id":"cebpf4jnsgd1na2vs0mg"},{"bike_id":"c24fb9a5-b454-4ee1-a0d9-7727e66a5e9b","system_id":"levelo_inurba_marseille","lat":43.29088,"lon":5.38143,"is_reserved":false,"is_disabled":false,"rental_uris":{"android":"levelo://app?vid=c24fb9a5-b454-4ee1-a0d9-7727e66a5e9b","ios":"levelo://app?vid=c24fb9a5-b454-4ee1-a0d9-7727e66a5e9b"},"vehicle_type_id":"4","last_reported":1730801405,"current_range_meters":35600,"station_id":"ce4bh512rcd13ifvqe2g","pricing_plan_id":"cebpf4jnsgd1na2vs0mg"},{"bike_id":"3675d184-4550-4970-9661-d3d7f50009e5","system_id":"levelo_inurba_marseille","lat":43.31343,"lon":5.36708,"is_reserved":false,"is_disabled":false,"rental_uris":{"android":"levelo://app?vid=3675d184-4550-4970-9661-d3d7f50009e5","ios":"levelo://app?vid=3675d184-4550-4970-9661-d3d7f50009e5"},"vehicle_type_id":"4","last_reported":1730801405,"current_range_meters":24000,"station_id":"ce4bgr92rcd13ifvqc6g","pricing_plan_id":"cebpf4jnsgd1na2vs0mg"},{"bike_id":"e1bb263b-1d62-4bca-92c9-1d1f84da765b","system_id":"levelo_inurba_marseille","lat":43.293628,"lon":5.37847,"is_reserved":false,"is_disabled":false,"rental_uris":{"android":"levelo://app?vid=e1bb263b-1d62-4bca-92c9-1d1f84da765b","ios":"levelo://app?vid=e1bb263b-1d62-4bca-92c9-1d1f84da765b"},"vehicle_type_id":"4","last_reported":1730801405,"current_range_meters":23200,"station_id":"ce4bh0h2rcd13ifvqd50","pricing_plan_id":"cebpf4jnsgd1na2vs0mg"},{"bike_id":"8efad21c-db8e-4ff4-b707-adeb03a5b779","system_id":"levelo_inurba_marseille","lat":43.29056,"lon":5.39934,"is_reserved":false,"is_disabled":false,"rental_uris":{"android":"levelo://app?vid=8efad21c-db8e-4ff4-b707-adeb03a5b779","ios":"levelo://app?vid=8efad21c-db8e-4ff4-b707-adeb03a5b779"},"vehicle_type_id":"4","last_reported":1730801405,"current_range_meters":36400,"station_id":"ce4bh392rcd13ifvqdm0","pricing_plan_id":"cebpf4jnsgd1na2vs0mg"},{"bike_id":"058a4e1e-9d15-4901-9327-3ad7ad54c659","system_id":"levelo_inurba_marseille","lat":43.29679,"lon":5.37292,"is_reserved":false,"is_disabled":false,"rental_uris":{"android":"levelo://app?vid=058a4e1e-9d15-4901-9327-3ad7ad54c659","ios":"levelo://app?vid=058a4e1e-9d15-4901-9327-3ad7ad54c659"},"vehicle_type_id":"4","last_reported":1730801405,"current_range_meters":37600,"station_id":"ce4bgk12rcd13ifvqbj0","pricing_plan_id":"cebpf4jnsgd1na2vs0mg"},{"bike_id":"0397af8d-3628-4915-8148-c7c96bb44fda","system_id":"levelo_inurba_marseille","lat":43.27914,"lon":5.39573,"is_reserved":false,"is_disabled":false,"rental_uris":{"android":"levelo://app?vid=0397af8d-3628-4915-8148-c7c96bb44fda","ios":"levelo://app?vid=0397af8d-3628-4915-8148-c7c96bb44fda"},"vehicle_type_id":"4","last_reported":1730801405,"current_range_meters":34800,"station_id":"ce4bhf92rcd13ifvqf40","pricing_plan_id":"cebpf4jnsgd1na2vs0mg"},{"bike_id":"47188366-9ba1-4e2e-907e-c2a5c3fd8c31","system_id":"levelo_inurba_marseille","lat":43.31342,"lon":5.3672,"is_reserved":false,"is_disabled":false,"rental_uris":{"android":"levelo://app?vid=47188366-9ba1-4e2e-907e-c2a5c3fd8c31","ios":"levelo://app?vid=47188366-9ba1-4e2e-907e-c2a5c3fd8c31"},"vehicle_type_id":"4","last_reported":1730801405,"current_range_meters":6400,"station_id":"ce4bgr92rcd13ifvqc6g","pricing_plan_id":"cebpf4jnsgd1na2vs0mg"},{"bike_id":"81f6b4c0-466f-469e-9440-cacd811d84f3","system_id":"levelo_inurba_marseille","lat":43.2408,"lon":5.37752,"is_reserved":false,"is_disabled":false,"rental_uris":{"android":"levelo://app?vid=81f6b4c0-466f-469e-9440-cacd811d84f3","ios":"levelo://app?vid=81f6b4c0-466f-469e-9440-cacd811d84f3"},"vehicle_type_id":"4","last_reported":1730801405,"current_range_meters":22800,"station_id":"ce4bhnp2rcd13ifvqgvg","pricing_plan_id":"cebpf4jnsgd1na2vs0mg"},{"bike_id":"95c40018-7eca-4eaf-aa8f-17957e468643","system_id":"levelo_inurba_marseille","lat":43.26802,"lon":5.40266,"is_reserved":false,"is_disabled":false,"rental_uris":{"android":"levelo://app?vid=95c40018-7eca-4eaf-aa8f-17957e468643","ios":"levelo://app?vid=95c40018-7eca-4eaf-aa8f-17957e468643"},"vehicle_type_id":"4","last_reported":1730801405,"current_range_meters":23200,"station_id":"ce501612rcd8frsf0b60","pricing_plan_id":"cebpf4jnsgd1na2vs0mg"},{"bike_id":"e916d7fa-6822-44e4-a9a3-a0a3017bbbf6","system_id":"levelo_inurba_marseille","lat":43.31226,"lon":5.36875,"is_reserved":false,"is_disabled":false,"rental_uris":{"android":"levelo://app?vid=e916d7fa-6822-44e4-a9a3-a0a3017bbbf6","ios":"levelo://app?vid=e916d7fa-6822-44e4-a9a3-a0a3017bbbf6"},"vehicle_type_id":"4","last_reported":1730801405,"current_range_meters":20800,"station_id":"ce4bgl92rcd13ifvqbq0","pricing_plan_id":"cebpf4jnsgd1na2vs0mg"},{"bike_id":"739b2a9b-91fe-4d16-98d1-1f95412dcec1","system_id":"levelo_inurba_marseille","lat":43.24081,"lon":5.37758,"is_reserved":false,"is_disabled":false,"rental_uris":{"android":"levelo://app?vid=739b2a9b-91fe-4d16-98d1-1f95412dcec1","ios":"levelo://app?vid=739b2a9b-91fe-4d16-98d1-1f95412dcec1"},"vehicle_type_id":"4","last_reported":1730801405,"current_range_meters":16800,"station_id":"ce4bhnp2rcd13ifvqgvg","pricing_plan_id":"cebpf4jnsgd1na2vs0mg"},{"bike_id":"4147bbfb-4b14-4aca-b782-8ec6c0473609","system_id":"levelo_inurba_marseille","lat":43.23598,"lon":5.40348,"is_reserved":false,"is_disabled":false,"rental_uris":{"android":"levelo://app?vid=4147bbfb-4b14-4aca-b782-8ec6c0473609","ios":"levelo://app?vid=4147bbfb-4b14-4aca-b782-8ec6c0473609"},"vehicle_type_id":"4","last_reported":1730801405,"current_range_meters":8800,"station_id":"","pricing_plan_id":"cebpf4jnsgd1na2vs0mg"},{"bike_id":"fa66adb8-19da-4b56-aeb9-ccf1206b3e1e","system_id":"levelo_inurba_marseille","lat":43.32362,"lon":5.36754,"is_reserved":false,"is_disabled":false,"rental_uris":{"android":"levelo://app?vid=fa66adb8-19da-4b56-aeb9-ccf1206b3e1e","ios":"levelo://app?vid=fa66adb8-19da-4b56-aeb9-ccf1206b3e1e"},"vehicle_type_id":"4","last_reported":1730801405,"current_range_meters":35600,"station_id":"ce4bhsh2rcd13ifvqi2g","pricing_plan_id":"cebpf4jnsgd1na2vs0mg"},{"bike_id":"26524832-8824-4bc7-95ef-aedb1815c904","system_id":"levelo_inurba_marseille","lat":43.29847,"lon":5.36285,"is_reserved":false,"is_disabled":false,"rental_uris":{"android":"levelo://app?vid=26524832-8824-4bc7-95ef-aedb1815c904","ios":"levelo://app?vid=26524832-8824-4bc7-95ef-aedb1815c904"},"vehicle_type_id":"4","last_reported":1730801405,"current_range_meters":16800,"station_id":"ce4bgpp2rcd13ifvqc3g","pricing_plan_id":"cebpf4jnsgd1na2vs0mg"},{"bike_id":"b86a711c-4431-4ef4-a884-4457ab24af51","system_id":"levelo_inurba_marseille","lat":43.25577,"lon":5.38238,"is_reserved":false,"is_disabled":false,"rental_uris":{"android":"levelo://app?vid=b86a711c-4431-4ef4-a884-4457ab24af51","ios":"levelo://app?vid=b86a711c-4431-4ef4-a884-4457ab24af51"},"vehicle_type_id":"4","last_reported":1730801405,"current_range_meters":28400,"station_id":"ce4bhih2rcd13ifvqfs0","pricing_plan_id":"cebpf4jnsgd1na2vs0mg"},{"bike_id":"f3336ee7-3df0-4857-b6c6-13d25357c3fd","system_id":"levelo_inurba_marseille","lat":43.25582,"lon":5.38227,"is_reserved":false,"is_disabled":false,"rental_uris":{"android":"levelo://app?vid=f3336ee7-3df0-4857-b6c6-13d25357c3fd","ios":"levelo://app?vid=f3336ee7-3df0-4857-b6c6-13d25357c3fd"},"vehicle_type_id":"4","last_reported":1730801405,"current_range_meters":33600,"station_id":"ce4bhih2rcd13ifvqfs0","pricing_plan_id":"cebpf4jnsgd1na2vs0mg"},{"bike_id":"66179393-5228-4b44-9c95-8cd9f7e21adb","system_id":"levelo_inurba_marseille","lat":43.27495,"lon":5.4245,"is_reserved":false,"is_disabled":false,"rental_uris":{"android":"levelo://app?vid=66179393-5228-4b44-9c95-8cd9f7e21adb","ios":"levelo://app?vid=66179393-5228-4b44-9c95-8cd9f7e21adb"},"vehicle_type_id":"4","last_reported":1730801405,"current_range_meters":37600,"station_id":"ce4bhn92rcd13ifvqgrg","pricing_plan_id":"cebpf4jnsgd1na2vs0mg"},{"bike_id":"d3316a79-5388-4d1e-90a0-dc05613f7da2","system_id":"levelo_inurba_marseille","lat":43.31339,"lon":5.36719,"is_reserved":false,"is_disabled":false,"rental_uris":{"android":"levelo://app?vid=d3316a79-5388-4d1e-90a0-dc05613f7da2","ios":"levelo://app?vid=d3316a79-5388-4d1e-90a0-dc05613f7da2"},"vehicle_type_id":"4","last_reported":1730801405,"current_range_meters":31200,"station_id":"ce4bgr92rcd13ifvqc6g","pricing_plan_id":"cebpf4jnsgd1na2vs0mg"},{"bike_id":"5ad3f732-7e23-4ad9-b57d-10c8736d4e8f","system_id":"levelo_inurba_marseille","lat":43.3249,"lon":5.36564,"is_reserved":false,"is_disabled":false,"rental_uris":{"android":"levelo://app?vid=5ad3f732-7e23-4ad9-b57d-10c8736d4e8f","ios":"levelo://app?vid=5ad3f732-7e23-4ad9-b57d-10c8736d4e8f"},"vehicle_type_id":"4","last_reported":1730801405,"current_range_meters":20400,"station_id":"ce4bhs12rcd13ifvqhvg","pricing_plan_id":"cebpf4jnsgd1na2vs0mg"},{"bike_id":"0ded0c70-2091-4bb2-996d-65218b609240","system_id":"levelo_inurba_marseille","lat":43.29875,"lon":5.39736,"is_reserved":false,"is_disabled":false,"rental_uris":{"android":"levelo://app?vid=0ded0c70-2091-4bb2-996d-65218b609240","ios":"levelo://app?vid=0ded0c70-2091-4bb2-996d-65218b609240"},"vehicle_type_id":"4","last_reported":1730801405,"current_range_meters":14800,"station_id":"ce4bh0h2rcd13ifvqd50","pricing_plan_id":"cebpf4jnsgd1na2vs0mg"},{"bike_id":"35d46972-faca-4525-a2d2-3f928f24f16c","system_id":"levelo_inurba_marseille","lat":43.24174,"lon":5.36394,"is_reserved":false,"is_disabled":false,"rental_uris":{"android":"levelo://app?vid=35d46972-faca-4525-a2d2-3f928f24f16c","ios":"levelo://app?vid=35d46972-faca-4525-a2d2-3f928f24f16c"},"vehicle_type_id":"4","last_reported":1730801405,"current_range_meters":37600,"station_id":"cpo36qri1sfpv3e86is0","pricing_plan_id":"cebpf4jnsgd1na2vs0mg"},{"bike_id":"d318c6e1-c410-412e-a114-e709a85263a0","system_id":"levelo_inurba_marseille","lat":43.25588,"lon":5.38222,"is_reserved":false,"is_disabled":false,"rental_uris":{"android":"levelo://app?vid=d318c6e1-c410-412e-a114-e709a85263a0","ios":"levelo://app?vid=d318c6e1-c410-412e-a114-e709a85263a0"},"vehicle_type_id":"4","last_reported":1730801405,"current_range_meters":32400,"station_id":"ce4bhih2rcd13ifvqfs0","pricing_plan_id":"cebpf4jnsgd1na2vs0mg"},{"bike_id":"54a6fbac-ad24-455e-ae41-fa09579174e0","system_id":"levelo_inurba_marseille","lat":43.30132,"lon":5.38781,"is_reserved":false,"is_disabled":false,"rental_uris":{"android":"levelo://app?vid=54a6fbac-ad24-455e-ae41-fa09579174e0","ios":"levelo://app?vid=54a6fbac-ad24-455e-ae41-fa09579174e0"},"vehicle_type_id":"4","last_reported":1730801405,"current_range_meters":23200,"station_id":"ce4bghh2rcd13ifvqb60","pricing_plan_id":"cebpf4jnsgd1na2vs0mg"},{"bike_id":"2378f453-72a7-4eb2-ab3b-946285d406fd","system_id":"levelo_inurba_marseille","lat":43.292269,"lon":5.377213,"is_reserved":false,"is_disabled":false,"rental_uris":{"android":"levelo://app?vid=2378f453-72a7-4eb2-ab3b-946285d406fd","ios":"levelo://app?vid=2378f453-72a7-4eb2-ab3b-946285d406fd"},"vehicle_type_id":"4","last_reported":1730801405,"current_range_meters":3600,"station_id":"","pricing_plan_id":"cebpf4jnsgd1na2vs0mg"},{"bike_id":"3da4622c-c31c-40d3-8aab-c802043c4fb2","system_id":"levelo_inurba_marseille","lat":43.24078,"lon":5.37746,"is_reserved":false,"is_disabled":false,"rental_uris":{"android":"levelo://app?vid=3da4622c-c31c-40d3-8aab-c802043c4fb2","ios":"levelo://app?vid=3da4622c-c31c-40d3-8aab-c802043c4fb2"},"vehicle_type_id":"4","last_reported":1730801405,"current_range_meters":38800,"station_id":"ce4bhnp2rcd13ifvqgvg","pricing_plan_id":"cebpf4jnsgd1na2vs0mg"},{"bike_id":"3e5cda30-f422-4927-82be-82b4fa952d53","system_id":"levelo_inurba_marseille","lat":43.29626,"lon":5.40594,"is_reserved":false,"is_disabled":false,"rental_uris":{"android":"levelo://app?vid=3e5cda30-f422-4927-82be-82b4fa952d53","ios":"levelo://app?vid=3e5cda30-f422-4927-82be-82b4fa952d53"},"vehicle_type_id":"4","last_reported":1730801405,"current_range_meters":38400,"station_id":"ce4bh0h2rcd13ifvqd60","pricing_plan_id":"cebpf4jnsgd1na2vs0mg"},{"bike_id":"182e91a9-0e4e-4788-9b82-32e72e41d2da","system_id":"levelo_inurba_marseille","lat":43.30272,"lon":5.37709,"is_reserved":false,"is_disabled":false,"rental_uris":{"android":"levelo://app?vid=182e91a9-0e4e-4788-9b82-32e72e41d2da","ios":"levelo://app?vid=182e91a9-0e4e-4788-9b82-32e72e41d2da"},"vehicle_type_id":"4","last_reported":1730801405,"current_range_meters":39200,"station_id":"ce4bguh2rcd13ifvqcj0","pricing_plan_id":"cebpf4jnsgd1na2vs0mg"},{"bike_id":"842346f7-da91-4c44-a6d1-e84d0afabf42","system_id":"levelo_inurba_marseille","lat":43.29719,"lon":5.37692,"is_reserved":false,"is_disabled":false,"rental_uris":{"android":"levelo://app?vid=842346f7-da91-4c44-a6d1-e84d0afabf42","ios":"levelo://app?vid=842346f7-da91-4c44-a6d1-e84d0afabf42"},"vehicle_type_id":"4","last_reported":1730801405,"current_range_meters":21600,"station_id":"ce4bgkh2rcd13ifvqbl0","pricing_plan_id":"cebpf4jnsgd1na2vs0mg"},{"bike_id":"8f9b1417-60dc-4e25-94ce-f05731a86005","system_id":"levelo_inurba_marseille","lat":43.3028,"lon":5.37698,"is_reserved":false,"is_disabled":false,"rental_uris":{"android":"levelo://app?vid=8f9b1417-60dc-4e25-94ce-f05731a86005","ios":"levelo://app?vid=8f9b1417-60dc-4e25-94ce-f05731a86005"},"vehicle_type_id":"4","last_reported":1730801405,"current_range_meters":30400,"station_id":"ce4bguh2rcd13ifvqcj0","pricing_plan_id":"cebpf4jnsgd1na2vs0mg"},{"bike_id":"ee2b2394-b3c1-485d-ac2f-90f36124a8fc","system_id":"levelo_inurba_marseille","lat":43.26203,"lon":5.37931,"is_reserved":false,"is_disabled":false,"rental_uris":{"android":"levelo://app?vid=ee2b2394-b3c1-485d-ac2f-90f36124a8fc","ios":"levelo://app?vid=ee2b2394-b3c1-485d-ac2f-90f36124a8fc"},"vehicle_type_id":"4","last_reported":1730801405,"current_range_meters":17600,"station_id":"ce4bhjp2rcd13ifvqg90","pricing_plan_id":"cebpf4jnsgd1na2vs0mg"},{"bike_id":"e7d19d88-9146-4e92-9c2a-cb12db34afa1","system_id":"levelo_inurba_marseille","lat":43.240818,"lon":5.377328,"is_reserved":false,"is_disabled":false,"rental_uris":{"android":"levelo://app?vid=e7d19d88-9146-4e92-9c2a-cb12db34afa1","ios":"levelo://app?vid=e7d19d88-9146-4e92-9c2a-cb12db34afa1"},"vehicle_type_id":"4","last_reported":1730801405,"current_range_meters":2000,"station_id":"ce4bhnp2rcd13ifvqgvg","pricing_plan_id":"cebpf4jnsgd1na2vs0mg"},{"bike_id":"551ac0ac-232d-4450-b3d3-1dea3064e4dc","system_id":"levelo_inurba_marseille","lat":43.26953,"lon":5.38627,"is_reserved":false,"is_disabled":false,"rental_uris":{"android":"levelo://app?vid=551ac0ac-232d-4450-b3d3-1dea3064e4dc","ios":"levelo://app?vid=551ac0ac-232d-4450-b3d3-1dea3064e4dc"},"vehicle_type_id":"4","last_reported":1730801405,"current_range_meters":31200,"station_id":"ce4bhh92rcd13ifvqfh0","pricing_plan_id":"cebpf4jnsgd1na2vs0mg"},{"bike_id":"ddfa70a9-9d32-48ef-99b7-f4cb9b41791d","system_id":"levelo_inurba_marseille","lat":43.2407,"lon":5.3776,"is_reserved":false,"is_disabled":false,"rental_uris":{"android":"levelo://app?vid=ddfa70a9-9d32-48ef-99b7-f4cb9b41791d","ios":"levelo://app?vid=ddfa70a9-9d32-48ef-99b7-f4cb9b41791d"},"vehicle_type_id":"4","last_reported":1730801405,"current_range_meters":10000,"station_id":"ce4bhnp2rcd13ifvqgvg","pricing_plan_id":"cebpf4jnsgd1na2vs0mg"},{"bike_id":"a407ba01-6f07-4049-a088-2f627b262ade","system_id":"levelo_inurba_marseille","lat":43.30456,"lon":5.379,"is_reserved":false,"is_disabled":false,"rental_uris":{"android":"levelo://app?vid=a407ba01-6f07-4049-a088-2f627b262ade","ios":"levelo://app?vid=a407ba01-6f07-4049-a088-2f627b262ade"},"vehicle_type_id":"4","last_reported":1730801405,"current_range_meters":38400,"station_id":"ce4bgup2rcd13ifvqcn0","pricing_plan_id":"cebpf4jnsgd1na2vs0mg"},{"bike_id":"51b0cc7e-772d-41e9-97a0-b689f0d0604e","system_id":"levelo_inurba_marseille","lat":43.31335,"lon":5.36711,"is_reserved":false,"is_disabled":false,"rental_uris":{"android":"levelo://app?vid=51b0cc7e-772d-41e9-97a0-b689f0d0604e","ios":"levelo://app?vid=51b0cc7e-772d-41e9-97a0-b689f0d0604e"},"vehicle_type_id":"4","last_reported":1730801405,"current_range_meters":38800,"station_id":"ce4bgr92rcd13ifvqc6g","pricing_plan_id":"cebpf4jnsgd1na2vs0mg"},{"bike_id":"6522d7f1-85a4-4c6d-a1d6-ef19eb217cea","system_id":"levelo_inurba_marseille","lat":43.29097,"lon":5.38123,"is_reserved":false,"is_disabled":false,"rental_uris":{"android":"levelo://app?vid=6522d7f1-85a4-4c6d-a1d6-ef19eb217cea","ios":"levelo://app?vid=6522d7f1-85a4-4c6d-a1d6-ef19eb217cea"},"vehicle_type_id":"4","last_reported":1730801405,"current_range_meters":10800,"station_id":"ce4bh512rcd13ifvqe2g","pricing_plan_id":"cebpf4jnsgd1na2vs0mg"},{"bike_id":"7dcbf618-7b81-4a8b-bf18-63d8efcda169","system_id":"levelo_inurba_marseille","lat":43.30946,"lon":5.3904,"is_reserved":false,"is_disabled":false,"rental_uris":{"android":"levelo://app?vid=7dcbf618-7b81-4a8b-bf18-63d8efcda169","ios":"levelo://app?vid=7dcbf618-7b81-4a8b-bf18-63d8efcda169"},"vehicle_type_id":"4","last_reported":1730801405,"current_range_meters":32800,"station_id":"ce4bgup2rcd13ifvqco0","pricing_plan_id":"cebpf4jnsgd1na2vs0mg"},{"bike_id":"06709a5b-2e0b-43f2-948e-c99d6f7d728d","system_id":"levelo_inurba_marseille","lat":43.25581,"lon":5.38239,"is_reserved":false,"is_disabled":false,"rental_uris":{"android":"levelo://app?vid=06709a5b-2e0b-43f2-948e-c99d6f7d728d","ios":"levelo://app?vid=06709a5b-2e0b-43f2-948e-c99d6f7d728d"},"vehicle_type_id":"4","last_reported":1730801405,"current_range_meters":25600,"station_id":"ce4bhih2rcd13ifvqfs0","pricing_plan_id":"cebpf4jnsgd1na2vs0mg"},{"bike_id":"99d78f6e-5bfc-4e99-baa1-b9137a41c134","system_id":"levelo_inurba_marseille","lat":43.28151,"lon":5.42645,"is_reserved":false,"is_disabled":false,"rental_uris":{"android":"levelo://app?vid=99d78f6e-5bfc-4e99-baa1-b9137a41c134","ios":"levelo://app?vid=99d78f6e-5bfc-4e99-baa1-b9137a41c134"},"vehicle_type_id":"4","last_reported":1730801405,"current_range_meters":37600,"station_id":"ce4bhnh2rcd13ifvqgug","pricing_plan_id":"cebpf4jnsgd1na2vs0mg"},{"bike_id":"2ba51bdb-8ce2-4aea-9c86-aff37f952fb4","system_id":"levelo_inurba_marseille","lat":43.28983,"lon":5.37828,"is_reserved":false,"is_disabled":false,"rental_uris":{"android":"levelo://app?vid=2ba51bdb-8ce2-4aea-9c86-aff37f952fb4","ios":"levelo://app?vid=2ba51bdb-8ce2-4aea-9c86-aff37f952fb4"},"vehicle_type_id":"4","last_reported":1730801405,"current_range_meters":4400,"station_id":"ce4bh9p2rcd13ifvqed0","pricing_plan_id":"cebpf4jnsgd1na2vs0mg"},{"bike_id":"0fb9819f-f5ed-4bc1-9006-4b1ad7d9b36e","system_id":"levelo_inurba_marseille","lat":43.32486,"lon":5.3656,"is_reserved":false,"is_disabled":false,"rental_uris":{"android":"levelo://app?vid=0fb9819f-f5ed-4bc1-9006-4b1ad7d9b36e","ios":"levelo://app?vid=0fb9819f-f5ed-4bc1-9006-4b1ad7d9b36e"},"vehicle_type_id":"4","last_reported":1730801405,"current_range_meters":14400,"station_id":"ce4bhs12rcd13ifvqhvg","pricing_plan_id":"cebpf4jnsgd1na2vs0mg"},{"bike_id":"878e1338-9921-44c7-b3fa-0c4d6e128386","system_id":"levelo_inurba_marseille","lat":43.30913,"lon":5.36848,"is_reserved":false,"is_disabled":false,"rental_uris":{"android":"levelo://app?vid=878e1338-9921-44c7-b3fa-0c4d6e128386","ios":"levelo://app?vid=878e1338-9921-44c7-b3fa-0c4d6e128386"},"vehicle_type_id":"4","last_reported":1730801405,"current_range_meters":22000,"station_id":"ce4bgn92rcd13ifvqbvg","pricing_plan_id":"cebpf4jnsgd1na2vs0mg"},{"bike_id":"c5c22aec-2d85-4437-b8e8-52528a4d9d6a","system_id":"levelo_inurba_marseille","lat":43.29912,"lon":5.37472,"is_reserved":false,"is_disabled":false,"rental_uris":{"android":"levelo://app?vid=c5c22aec-2d85-4437-b8e8-52528a4d9d6a","ios":"levelo://app?vid=c5c22aec-2d85-4437-b8e8-52528a4d9d6a"},"vehicle_type_id":"4","last_reported":1730801405,"current_range_meters":38800,"station_id":"ce4bgjh2rcd13ifvqbg0","pricing_plan_id":"cebpf4jnsgd1na2vs0mg"},{"bike_id":"037eaf0f-9112-47d3-aa8d-7a0ef0d58625","system_id":"levelo_inurba_marseille","lat":43.24167,"lon":5.36395,"is_reserved":false,"is_disabled":false,"rental_uris":{"android":"levelo://app?vid=037eaf0f-9112-47d3-aa8d-7a0ef0d58625","ios":"levelo://app?vid=037eaf0f-9112-47d3-aa8d-7a0ef0d58625"},"vehicle_type_id":"4","last_reported":1730801405,"current_range_meters":38400,"station_id":"cpo36qri1sfpv3e86is0","pricing_plan_id":"cebpf4jnsgd1na2vs0mg"},{"bike_id":"fb1edf83-6d2b-4b12-82f4-695756704ce1","system_id":"levelo_inurba_marseille","lat":43.29024,"lon":5.38119,"is_reserved":false,"is_disabled":false,"rental_uris":{"android":"levelo://app?vid=fb1edf83-6d2b-4b12-82f4-695756704ce1","ios":"levelo://app?vid=fb1edf83-6d2b-4b12-82f4-695756704ce1"},"vehicle_type_id":"4","last_reported":1730801405,"current_range_meters":28000,"station_id":"ce4bh4p2rcd13ifvqe1g","pricing_plan_id":"cebpf4jnsgd1na2vs0mg"},{"bike_id":"d087e58f-56e3-4104-b338-02fbd86b3d4d","system_id":"levelo_inurba_marseille","lat":43.26776,"lon":5.39415,"is_reserved":false,"is_disabled":false,"rental_uris":{"android":"levelo://app?vid=d087e58f-56e3-4104-b338-02fbd86b3d4d","ios":"levelo://app?vid=d087e58f-56e3-4104-b338-02fbd86b3d4d"},"vehicle_type_id":"4","last_reported":1730801405,"current_range_meters":38400,"station_id":"ce4bhh12rcd13ifvqfg0","pricing_plan_id":"cebpf4jnsgd1na2vs0mg"},{"bike_id":"98b0350c-71d2-4d3f-bcc7-d7d1b37428aa","system_id":"levelo_inurba_marseille","lat":43.30451,"lon":5.37894,"is_reserved":false,"is_disabled":false,"rental_uris":{"android":"levelo://app?vid=98b0350c-71d2-4d3f-bcc7-d7d1b37428aa","ios":"levelo://app?vid=98b0350c-71d2-4d3f-bcc7-d7d1b37428aa"},"vehicle_type_id":"4","last_reported":1730801405,"current_range_meters":38400,"station_id":"ce4bgup2rcd13ifvqcn0","pricing_plan_id":"cebpf4jnsgd1na2vs0mg"},{"bike_id":"2ae32aa7-1df4-433f-9bea-437352080460","system_id":"levelo_inurba_marseille","lat":43.337444,"lon":5.374475,"is_reserved":false,"is_disabled":false,"rental_uris":{"android":"levelo://app?vid=2ae32aa7-1df4-433f-9bea-437352080460","ios":"levelo://app?vid=2ae32aa7-1df4-433f-9bea-437352080460"},"vehicle_type_id":"4","last_reported":1730801405,"current_range_meters":36400,"station_id":"","pricing_plan_id":"cebpf4jnsgd1na2vs0mg"},{"bike_id":"d21c28b2-c174-4e9f-ad7f-35fb94eae1cd","system_id":"levelo_inurba_marseille","lat":43.30537,"lon":5.36702,"is_reserved":false,"is_disabled":false,"rental_uris":{"android":"levelo://app?vid=d21c28b2-c174-4e9f-ad7f-35fb94eae1cd","ios":"levelo://app?vid=d21c28b2-c174-4e9f-ad7f-35fb94eae1cd"},"vehicle_type_id":"4","last_reported":1730801405,"current_range_meters":39200,"station_id":"ce4bgrp2rcd13ifvqc9g","pricing_plan_id":"cebpf4jnsgd1na2vs0mg"},{"bike_id":"808063db-7290-45cf-a512-4559e44653ed","system_id":"levelo_inurba_marseille","lat":43.26682,"lon":5.38261,"is_reserved":false,"is_disabled":false,"rental_uris":{"android":"levelo://app?vid=808063db-7290-45cf-a512-4559e44653ed","ios":"levelo://app?vid=808063db-7290-45cf-a512-4559e44653ed"},"vehicle_type_id":"4","last_reported":1730801405,"current_range_meters":39200,"station_id":"ce4bhg92rcd13ifvqf90","pricing_plan_id":"cebpf4jnsgd1na2vs0mg"},{"bike_id":"acdea68a-7783-4908-bf21-09a59a510c29","system_id":"levelo_inurba_marseille","lat":43.31333,"lon":5.36722,"is_reserved":false,"is_disabled":false,"rental_uris":{"android":"levelo://app?vid=acdea68a-7783-4908-bf21-09a59a510c29","ios":"levelo://app?vid=acdea68a-7783-4908-bf21-09a59a510c29"},"vehicle_type_id":"4","last_reported":1730801405,"current_range_meters":25600,"station_id":"ce4bgr92rcd13ifvqc6g","pricing_plan_id":"cebpf4jnsgd1na2vs0mg"},{"bike_id":"881d758d-d3e0-400b-b96d-62f4912249e0","system_id":"levelo_inurba_marseille","lat":43.26212,"lon":5.37437,"is_reserved":false,"is_disabled":false,"rental_uris":{"android":"levelo://app?vid=881d758d-d3e0-400b-b96d-62f4912249e0","ios":"levelo://app?vid=881d758d-d3e0-400b-b96d-62f4912249e0"},"vehicle_type_id":"4","last_reported":1730801405,"current_range_meters":14400,"station_id":"ce4bhgp2rcd13ifvqfc0","pricing_plan_id":"cebpf4jnsgd1na2vs0mg"},{"bike_id":"2208cd18-b7e1-4d15-8a96-477d4e7ba53c","system_id":"levelo_inurba_marseille","lat":43.29896,"lon":5.43665,"is_reserved":false,"is_disabled":false,"rental_uris":{"android":"levelo://app?vid=2208cd18-b7e1-4d15-8a96-477d4e7ba53c","ios":"levelo://app?vid=2208cd18-b7e1-4d15-8a96-477d4e7ba53c"},"vehicle_type_id":"4","last_reported":1730801405,"current_range_meters":20400,"station_id":"ce4bhpp2rcd13ifvqhfg","pricing_plan_id":"cebpf4jnsgd1na2vs0mg"},{"bike_id":"a9eba138-536c-4a61-803a-c0067d3bb559","system_id":"levelo_inurba_marseille","lat":43.30948,"lon":5.39049,"is_reserved":false,"is_disabled":false,"rental_uris":{"android":"levelo://app?vid=a9eba138-536c-4a61-803a-c0067d3bb559","ios":"levelo://app?vid=a9eba138-536c-4a61-803a-c0067d3bb559"},"vehicle_type_id":"4","last_reported":1730801405,"current_range_meters":32800,"station_id":"ce4bgup2rcd13ifvqco0","pricing_plan_id":"cebpf4jnsgd1na2vs0mg"},{"bike_id":"08b5ac60-ae3b-4572-ad0d-29de19027274","system_id":"levelo_inurba_marseille","lat":43.29929,"lon":5.36553,"is_reserved":false,"is_disabled":false,"rental_uris":{"android":"levelo://app?vid=08b5ac60-ae3b-4572-ad0d-29de19027274","ios":"levelo://app?vid=08b5ac60-ae3b-4572-ad0d-29de19027274"},"vehicle_type_id":"4","last_reported":1730801405,"current_range_meters":34800,"station_id":"ce4bgm92rcd13ifvqbr0","pricing_plan_id":"cebpf4jnsgd1na2vs0mg"},{"bike_id":"8d5faf28-e526-4d5b-93d3-399bd2cb1046","system_id":"levelo_inurba_marseille","lat":43.31753,"lon":5.39013,"is_reserved":false,"is_disabled":false,"rental_uris":{"android":"levelo://app?vid=8d5faf28-e526-4d5b-93d3-399bd2cb1046","ios":"levelo://app?vid=8d5faf28-e526-4d5b-93d3-399bd2cb1046"},"vehicle_type_id":"4","last_reported":1730801405,"current_range_meters":9600,"station_id":"ce4bhqp2rcd13ifvqhng","pricing_plan_id":"cebpf4jnsgd1na2vs0mg"},{"bike_id":"340a7787-a7bb-487e-b987-8609f75ecfd6","system_id":"levelo_inurba_marseille","lat":43.30952,"lon":5.39035,"is_reserved":false,"is_disabled":false,"rental_uris":{"android":"levelo://app?vid=340a7787-a7bb-487e-b987-8609f75ecfd6","ios":"levelo://app?vid=340a7787-a7bb-487e-b987-8609f75ecfd6"},"vehicle_type_id":"4","last_reported":1730801405,"current_range_meters":8800,"station_id":"ce4bgup2rcd13ifvqco0","pricing_plan_id":"cebpf4jnsgd1na2vs0mg"},{"bike_id":"4efe1719-2091-49a9-b407-f0f4961cf2b0","system_id":"levelo_inurba_marseille","lat":43.27486,"lon":5.42458,"is_reserved":false,"is_disabled":false,"rental_uris":{"android":"levelo://app?vid=4efe1719-2091-49a9-b407-f0f4961cf2b0","ios":"levelo://app?vid=4efe1719-2091-49a9-b407-f0f4961cf2b0"},"vehicle_type_id":"4","last_reported":1730801405,"current_range_meters":25200,"station_id":"ce4bhn92rcd13ifvqgrg","pricing_plan_id":"cebpf4jnsgd1na2vs0mg"},{"bike_id":"b5285c74-98e8-4f0a-94af-92f68936c3b4","system_id":"levelo_inurba_marseille","lat":43.29584,"lon":5.36743,"is_reserved":false,"is_disabled":false,"rental_uris":{"android":"levelo://app?vid=b5285c74-98e8-4f0a-94af-92f68936c3b4","ios":"levelo://app?vid=b5285c74-98e8-4f0a-94af-92f68936c3b4"},"vehicle_type_id":"4","last_reported":1730801405,"current_range_meters":28400,"station_id":"ce4bgph2rcd13ifvqc2g","pricing_plan_id":"cebpf4jnsgd1na2vs0mg"},{"bike_id":"fc370af9-4723-4589-bd34-43e0e367fb35","system_id":"levelo_inurba_marseille","lat":43.26794,"lon":5.40267,"is_reserved":false,"is_disabled":false,"rental_uris":{"android":"levelo://app?vid=fc370af9-4723-4589-bd34-43e0e367fb35","ios":"levelo://app?vid=fc370af9-4723-4589-bd34-43e0e367fb35"},"vehicle_type_id":"4","last_reported":1730801405,"current_range_meters":27200,"station_id":"ce501612rcd8frsf0b60","pricing_plan_id":"cebpf4jnsgd1na2vs0mg"},{"bike_id":"17089379-7bd8-4e4a-9fb6-4bf532874469","system_id":"levelo_inurba_marseille","lat":43.29616,"lon":5.37717,"is_reserved":false,"is_disabled":false,"rental_uris":{"android":"levelo://app?vid=17089379-7bd8-4e4a-9fb6-4bf532874469","ios":"levelo://app?vid=17089379-7bd8-4e4a-9fb6-4bf532874469"},"vehicle_type_id":"4","last_reported":1730801405,"current_range_meters":14400,"station_id":"ce4bgi92rcd13ifvqb90","pricing_plan_id":"cebpf4jnsgd1na2vs0mg"},{"bike_id":"9144c157-634d-4240-9c41-6d80b65ff913","system_id":"levelo_inurba_marseille","lat":43.30546,"lon":5.36534,"is_reserved":false,"is_disabled":false,"rental_uris":{"android":"levelo://app?vid=9144c157-634d-4240-9c41-6d80b65ff913","ios":"levelo://app?vid=9144c157-634d-4240-9c41-6d80b65ff913"},"vehicle_type_id":"4","last_reported":1730801405,"current_range_meters":30800,"station_id":"ce4bgs12rcd13ifvqcag","pricing_plan_id":"cebpf4jnsgd1na2vs0mg"},{"bike_id":"de9bc7da-0805-4f2e-a638-6f594e31fc19","system_id":"levelo_inurba_marseille","lat":43.23152,"lon":5.43703,"is_reserved":false,"is_disabled":false,"rental_uris":{"android":"levelo://app?vid=de9bc7da-0805-4f2e-a638-6f594e31fc19","ios":"levelo://app?vid=de9bc7da-0805-4f2e-a638-6f594e31fc19"},"vehicle_type_id":"4","last_reported":1730801405,"current_range_meters":21600,"station_id":"ce4bhmp2rcd13ifvqgog","pricing_plan_id":"cebpf4jnsgd1na2vs0mg"},{"bike_id":"5fb98fcb-8467-43bc-8f32-700a3dc876c9","system_id":"levelo_inurba_marseille","lat":43.23153,"lon":5.43715,"is_reserved":false,"is_disabled":false,"rental_uris":{"android":"levelo://app?vid=5fb98fcb-8467-43bc-8f32-700a3dc876c9","ios":"levelo://app?vid=5fb98fcb-8467-43bc-8f32-700a3dc876c9"},"vehicle_type_id":"4","last_reported":1730801405,"current_range_meters":24000,"station_id":"ce4bhmp2rcd13ifvqgog","pricing_plan_id":"cebpf4jnsgd1na2vs0mg"},{"bike_id":"f2c092a2-0134-4ce9-b755-7ee8d58ab87c","system_id":"levelo_inurba_marseille","lat":43.27096,"lon":5.38198,"is_reserved":false,"is_disabled":false,"rental_uris":{"android":"levelo://app?vid=f2c092a2-0134-4ce9-b755-7ee8d58ab87c","ios":"levelo://app?vid=f2c092a2-0134-4ce9-b755-7ee8d58ab87c"},"vehicle_type_id":"4","last_reported":1730801405,"current_range_meters":22400,"station_id":"","pricing_plan_id":"cebpf4jnsgd1na2vs0mg"},{"bike_id":"9b88452b-f39e-4788-a074-cab00182416b","system_id":"levelo_inurba_marseille","lat":43.27915,"lon":5.38021,"is_reserved":false,"is_disabled":false,"rental_uris":{"android":"levelo://app?vid=9b88452b-f39e-4788-a074-cab00182416b","ios":"levelo://app?vid=9b88452b-f39e-4788-a074-cab00182416b"},"vehicle_type_id":"4","last_reported":1730801405,"current_range_meters":38800,"station_id":"ce4bhf92rcd13ifvqf50","pricing_plan_id":"cebpf4jnsgd1na2vs0mg"},{"bike_id":"6edcb5d2-dbf0-49f4-9f8b-5d93ccae943e","system_id":"levelo_inurba_marseille","lat":43.2791,"lon":5.38025,"is_reserved":false,"is_disabled":false,"rental_uris":{"android":"levelo://app?vid=6edcb5d2-dbf0-49f4-9f8b-5d93ccae943e","ios":"levelo://app?vid=6edcb5d2-dbf0-49f4-9f8b-5d93ccae943e"},"vehicle_type_id":"4","last_reported":1730801405,"current_range_meters":33200,"station_id":"ce4bhf92rcd13ifvqf50","pricing_plan_id":"cebpf4jnsgd1na2vs0mg"},{"bike_id":"f38b74f1-091f-4a53-be86-f11ff6a2b03b","system_id":"levelo_inurba_marseille","lat":43.24073,"lon":5.37747,"is_reserved":false,"is_disabled":false,"rental_uris":{"android":"levelo://app?vid=f38b74f1-091f-4a53-be86-f11ff6a2b03b","ios":"levelo://app?vid=f38b74f1-091f-4a53-be86-f11ff6a2b03b"},"vehicle_type_id":"4","last_reported":1730801405,"current_range_meters":35600,"station_id":"ce4bhnp2rcd13ifvqgvg","pricing_plan_id":"cebpf4jnsgd1na2vs0mg"},{"bike_id":"3cc9dd69-9c0d-41f6-8f9d-006e9497ebe4","system_id":"levelo_inurba_marseille","lat":43.33745,"lon":5.37448,"is_reserved":false,"is_disabled":false,"rental_uris":{"android":"levelo://app?vid=3cc9dd69-9c0d-41f6-8f9d-006e9497ebe4","ios":"levelo://app?vid=3cc9dd69-9c0d-41f6-8f9d-006e9497ebe4"},"vehicle_type_id":"4","last_reported":1730801405,"current_range_meters":12000,"station_id":"","pricing_plan_id":"cebpf4jnsgd1na2vs0mg"},{"bike_id":"b498b98d-e880-4ac2-b168-2cbbc804a79b","system_id":"levelo_inurba_marseille","lat":43.26683,"lon":5.38268,"is_reserved":false,"is_disabled":false,"rental_uris":{"android":"levelo://app?vid=b498b98d-e880-4ac2-b168-2cbbc804a79b","ios":"levelo://app?vid=b498b98d-e880-4ac2-b168-2cbbc804a79b"},"vehicle_type_id":"4","last_reported":1730801405,"current_range_meters":28400,"station_id":"ce4bhg92rcd13ifvqf90","pricing_plan_id":"cebpf4jnsgd1na2vs0mg"},{"bike_id":"b1fe64db-656d-4e90-9b40-b5b616d72f80","system_id":"levelo_inurba_marseille","lat":43.29956,"lon":5.41327,"is_reserved":false,"is_disabled":false,"rental_uris":{"android":"levelo://app?vid=b1fe64db-656d-4e90-9b40-b5b616d72f80","ios":"levelo://app?vid=b1fe64db-656d-4e90-9b40-b5b616d72f80"},"vehicle_type_id":"4","last_reported":1730801405,"current_range_meters":32000,"station_id":"ce4bhp12rcd13ifvqh9g","pricing_plan_id":"cebpf4jnsgd1na2vs0mg"},{"bike_id":"5eeefd11-649c-499f-9856-2a20cd33e6cb","system_id":"levelo_inurba_marseille","lat":43.30547,"lon":5.36702,"is_reserved":false,"is_disabled":false,"rental_uris":{"android":"levelo://app?vid=5eeefd11-649c-499f-9856-2a20cd33e6cb","ios":"levelo://app?vid=5eeefd11-649c-499f-9856-2a20cd33e6cb"},"vehicle_type_id":"4","last_reported":1730801405,"current_range_meters":11200,"station_id":"ce4bgrp2rcd13ifvqc9g","pricing_plan_id":"cebpf4jnsgd1na2vs0mg"},{"bike_id":"9a1bbfa1-363b-4e8d-a8f2-52c02f44ffb9","system_id":"levelo_inurba_marseille","lat":43.29555,"lon":5.42294,"is_reserved":false,"is_disabled":false,"rental_uris":{"android":"levelo://app?vid=9a1bbfa1-363b-4e8d-a8f2-52c02f44ffb9","ios":"levelo://app?vid=9a1bbfa1-363b-4e8d-a8f2-52c02f44ffb9"},"vehicle_type_id":"4","last_reported":1730801405,"current_range_meters":11600,"station_id":"ce4bhph2rcd13ifvqhdg","pricing_plan_id":"cebpf4jnsgd1na2vs0mg"},{"bike_id":"2e01336c-e619-4649-8e1c-31d6863b91fd","system_id":"levelo_inurba_marseille","lat":43.24069,"lon":5.37756,"is_reserved":false,"is_disabled":false,"rental_uris":{"android":"levelo://app?vid=2e01336c-e619-4649-8e1c-31d6863b91fd","ios":"levelo://app?vid=2e01336c-e619-4649-8e1c-31d6863b91fd"},"vehicle_type_id":"4","last_reported":1730801405,"current_range_meters":10000,"station_id":"ce4bhnp2rcd13ifvqgvg","pricing_plan_id":"cebpf4jnsgd1na2vs0mg"},{"bike_id":"4b29dfbd-12f6-4b0b-ae5a-a31f6e264fee","system_id":"levelo_inurba_marseille","lat":43.26199,"lon":5.3793,"is_reserved":false,"is_disabled":false,"rental_uris":{"android":"levelo://app?vid=4b29dfbd-12f6-4b0b-ae5a-a31f6e264fee","ios":"levelo://app?vid=4b29dfbd-12f6-4b0b-ae5a-a31f6e264fee"},"vehicle_type_id":"4","last_reported":1730801405,"current_range_meters":27600,"station_id":"ce4bhjp2rcd13ifvqg90","pricing_plan_id":"cebpf4jnsgd1na2vs0mg"},{"bike_id":"4f89cd28-e8bb-461f-a3db-aaf6ada6710d","system_id":"levelo_inurba_marseille","lat":43.26954,"lon":5.38633,"is_reserved":false,"is_disabled":false,"rental_uris":{"android":"levelo://app?vid=4f89cd28-e8bb-461f-a3db-aaf6ada6710d","ios":"levelo://app?vid=4f89cd28-e8bb-461f-a3db-aaf6ada6710d"},"vehicle_type_id":"4","last_reported":1730801405,"current_range_meters":28800,"station_id":"ce4bhh92rcd13ifvqfh0","pricing_plan_id":"cebpf4jnsgd1na2vs0mg"},{"bike_id":"1d013471-bbe7-4ee1-b64d-aa6723c79607","system_id":"levelo_inurba_marseille","lat":43.33605,"lon":5.41033,"is_reserved":false,"is_disabled":false,"rental_uris":{"android":"levelo://app?vid=1d013471-bbe7-4ee1-b64d-aa6723c79607","ios":"levelo://app?vid=1d013471-bbe7-4ee1-b64d-aa6723c79607"},"vehicle_type_id":"4","last_reported":1730801405,"current_range_meters":24000,"station_id":"ce4bhqh2rcd13ifvqhmg","pricing_plan_id":"cebpf4jnsgd1na2vs0mg"},{"bike_id":"b9b12d63-3609-4a50-a2a5-e2c8dc25af4c","system_id":"levelo_inurba_marseille","lat":43.29978,"lon":5.37177,"is_reserved":false,"is_disabled":false,"rental_uris":{"android":"levelo://app?vid=b9b12d63-3609-4a50-a2a5-e2c8dc25af4c","ios":"levelo://app?vid=b9b12d63-3609-4a50-a2a5-e2c8dc25af4c"},"vehicle_type_id":"4","last_reported":1730801405,"current_range_meters":14000,"station_id":"ce4bgr92rcd13ifvqc7g","pricing_plan_id":"cebpf4jnsgd1na2vs0mg"},{"bike_id":"40c04e5c-3683-4803-9761-5cc8bff954b8","system_id":"levelo_inurba_marseille","lat":43.25116,"lon":5.40318,"is_reserved":false,"is_disabled":false,"rental_uris":{"android":"levelo://app?vid=40c04e5c-3683-4803-9761-5cc8bff954b8","ios":"levelo://app?vid=40c04e5c-3683-4803-9761-5cc8bff954b8"},"vehicle_type_id":"4","last_reported":1730801405,"current_range_meters":9200,"station_id":"ce4bhlh2rcd13ifvqgig","pricing_plan_id":"cebpf4jnsgd1na2vs0mg"},{"bike_id":"f1a1e297-408f-4a7c-87fd-892842d5a1cb","system_id":"levelo_inurba_marseille","lat":43.29966,"lon":5.38481,"is_reserved":false,"is_disabled":false,"rental_uris":{"android":"levelo://app?vid=f1a1e297-408f-4a7c-87fd-892842d5a1cb","ios":"levelo://app?vid=f1a1e297-408f-4a7c-87fd-892842d5a1cb"},"vehicle_type_id":"4","last_reported":1730801405,"current_range_meters":14400,"station_id":"ce4bgj92rcd13ifvqbd0","pricing_plan_id":"cebpf4jnsgd1na2vs0mg"},{"bike_id":"18ce672e-f7b2-453e-8c80-e0b41ff871de","system_id":"levelo_inurba_marseille","lat":43.29715,"lon":5.37693,"is_reserved":false,"is_disabled":false,"rental_uris":{"android":"levelo://app?vid=18ce672e-f7b2-453e-8c80-e0b41ff871de","ios":"levelo://app?vid=18ce672e-f7b2-453e-8c80-e0b41ff871de"},"vehicle_type_id":"4","last_reported":1730801405,"current_range_meters":27600,"station_id":"ce4bgkh2rcd13ifvqbl0","pricing_plan_id":"cebpf4jnsgd1na2vs0mg"},{"bike_id":"d112ef64-8345-40dc-a437-a0aa8c5bd57d","system_id":"levelo_inurba_marseille","lat":43.30541,"lon":5.36696,"is_reserved":false,"is_disabled":false,"rental_uris":{"android":"levelo://app?vid=d112ef64-8345-40dc-a437-a0aa8c5bd57d","ios":"levelo://app?vid=d112ef64-8345-40dc-a437-a0aa8c5bd57d"},"vehicle_type_id":"4","last_reported":1730801405,"current_range_meters":40000,"station_id":"ce4bgrp2rcd13ifvqc9g","pricing_plan_id":"cebpf4jnsgd1na2vs0mg"},{"bike_id":"11077b42-689c-4dd0-bba0-e371d30c5902","system_id":"levelo_inurba_marseille","lat":43.24661,"lon":5.38156,"is_reserved":false,"is_disabled":false,"rental_uris":{"android":"levelo://app?vid=11077b42-689c-4dd0-bba0-e371d30c5902","ios":"levelo://app?vid=11077b42-689c-4dd0-bba0-e371d30c5902"},"vehicle_type_id":"4","last_reported":1730801405,"current_range_meters":14400,"station_id":"ce4bhih2rcd13ifvqfr0","pricing_plan_id":"cebpf4jnsgd1na2vs0mg"},{"bike_id":"5931a260-1033-4cf1-9cac-35ff1b447cb6","system_id":"levelo_inurba_marseille","lat":43.24178,"lon":5.39732,"is_reserved":false,"is_disabled":false,"rental_uris":{"android":"levelo://app?vid=5931a260-1033-4cf1-9cac-35ff1b447cb6","ios":"levelo://app?vid=5931a260-1033-4cf1-9cac-35ff1b447cb6"},"vehicle_type_id":"4","last_reported":1730801405,"current_range_meters":20800,"station_id":"ce4bhn12rcd13ifvqgpg","pricing_plan_id":"cebpf4jnsgd1na2vs0mg"},{"bike_id":"a1080c46-91fb-4ea3-82b8-29a66f3d125f","system_id":"levelo_inurba_marseille","lat":43.2861,"lon":5.35102,"is_reserved":false,"is_disabled":false,"rental_uris":{"android":"levelo://app?vid=a1080c46-91fb-4ea3-82b8-29a66f3d125f","ios":"levelo://app?vid=a1080c46-91fb-4ea3-82b8-29a66f3d125f"},"vehicle_type_id":"4","last_reported":1730801405,"current_range_meters":38800,"station_id":"ce4bhch2rcd13ifvqeug","pricing_plan_id":"cebpf4jnsgd1na2vs0mg"},{"bike_id":"adf94568-f560-4501-938c-780d1b506fa8","system_id":"levelo_inurba_marseille","lat":43.31355,"lon":5.36692,"is_reserved":false,"is_disabled":false,"rental_uris":{"android":"levelo://app?vid=adf94568-f560-4501-938c-780d1b506fa8","ios":"levelo://app?vid=adf94568-f560-4501-938c-780d1b506fa8"},"vehicle_type_id":"4","last_reported":1730801405,"current_range_meters":35200,"station_id":"ce4bgr92rcd13ifvqc6g","pricing_plan_id":"cebpf4jnsgd1na2vs0mg"},{"bike_id":"694f092e-f110-47aa-a4f6-4f232524efe4","system_id":"levelo_inurba_marseille","lat":43.29563,"lon":5.37516,"is_reserved":false,"is_disabled":false,"rental_uris":{"android":"levelo://app?vid=694f092e-f110-47aa-a4f6-4f232524efe4","ios":"levelo://app?vid=694f092e-f110-47aa-a4f6-4f232524efe4"},"vehicle_type_id":"4","last_reported":1730801405,"current_range_meters":14400,"station_id":"ce4bgh92rcd13ifvqb50","pricing_plan_id":"cebpf4jnsgd1na2vs0mg"},{"bike_id":"d3a2d74b-227b-43e0-a669-db2d440f7cc1","system_id":"levelo_inurba_marseille","lat":43.30541,"lon":5.36537,"is_reserved":false,"is_disabled":false,"rental_uris":{"android":"levelo://app?vid=d3a2d74b-227b-43e0-a669-db2d440f7cc1","ios":"levelo://app?vid=d3a2d74b-227b-43e0-a669-db2d440f7cc1"},"vehicle_type_id":"4","last_reported":1730801405,"current_range_meters":10800,"station_id":"ce4bgs12rcd13ifvqcag","pricing_plan_id":"cebpf4jnsgd1na2vs0mg"},{"bike_id":"1188b6aa-11b7-4349-89c8-b72ebc2cdf8c","system_id":"levelo_inurba_marseille","lat":43.325425,"lon":5.41432,"is_reserved":false,"is_disabled":false,"rental_uris":{"android":"levelo://app?vid=1188b6aa-11b7-4349-89c8-b72ebc2cdf8c","ios":"levelo://app?vid=1188b6aa-11b7-4349-89c8-b72ebc2cdf8c"},"vehicle_type_id":"4","last_reported":1730801405,"current_range_meters":36400,"station_id":"ce4bhq12rcd13ifvqhhg","pricing_plan_id":"cebpf4jnsgd1na2vs0mg"},{"bike_id":"a2e40f3a-3095-4e13-b735-28e6c447bc0e","system_id":"levelo_inurba_marseille","lat":43.3123,"lon":5.36859,"is_reserved":false,"is_disabled":false,"rental_uris":{"android":"levelo://app?vid=a2e40f3a-3095-4e13-b735-28e6c447bc0e","ios":"levelo://app?vid=a2e40f3a-3095-4e13-b735-28e6c447bc0e"},"vehicle_type_id":"4","last_reported":1730801405,"current_range_meters":32800,"station_id":"ce4bgl92rcd13ifvqbq0","pricing_plan_id":"cebpf4jnsgd1na2vs0mg"},{"bike_id":"aa05d2c2-4358-495d-9cc3-5c5932d63dc6","system_id":"levelo_inurba_marseille","lat":43.26552,"lon":5.37283,"is_reserved":false,"is_disabled":false,"rental_uris":{"android":"levelo://app?vid=aa05d2c2-4358-495d-9cc3-5c5932d63dc6","ios":"levelo://app?vid=aa05d2c2-4358-495d-9cc3-5c5932d63dc6"},"vehicle_type_id":"4","last_reported":1730801405,"current_range_meters":16800,"station_id":"ce4bhg12rcd13ifvqf70","pricing_plan_id":"cebpf4jnsgd1na2vs0mg"},{"bike_id":"15038621-f50b-4d83-b76d-65a0390ac4ac","system_id":"levelo_inurba_marseille","lat":43.27489,"lon":5.42454,"is_reserved":false,"is_disabled":false,"rental_uris":{"android":"levelo://app?vid=15038621-f50b-4d83-b76d-65a0390ac4ac","ios":"levelo://app?vid=15038621-f50b-4d83-b76d-65a0390ac4ac"},"vehicle_type_id":"4","last_reported":1730801405,"current_range_meters":28400,"station_id":"ce4bhn92rcd13ifvqgrg","pricing_plan_id":"cebpf4jnsgd1na2vs0mg"},{"bike_id":"0d25758e-80b0-4508-acf5-238abc25a9b1","system_id":"levelo_inurba_marseille","lat":43.30909,"lon":5.36844,"is_reserved":false,"is_disabled":false,"rental_uris":{"android":"levelo://app?vid=0d25758e-80b0-4508-acf5-238abc25a9b1","ios":"levelo://app?vid=0d25758e-80b0-4508-acf5-238abc25a9b1"},"vehicle_type_id":"4","last_reported":1730801405,"current_range_meters":30400,"station_id":"ce4bgn92rcd13ifvqbvg","pricing_plan_id":"cebpf4jnsgd1na2vs0mg"},{"bike_id":"2dd40e8a-347a-4069-9f04-901c41b0a3c7","system_id":"levelo_inurba_marseille","lat":43.32099,"lon":5.36776,"is_reserved":false,"is_disabled":false,"rental_uris":{"android":"levelo://app?vid=2dd40e8a-347a-4069-9f04-901c41b0a3c7","ios":"levelo://app?vid=2dd40e8a-347a-4069-9f04-901c41b0a3c7"},"vehicle_type_id":"4","last_reported":1730801405,"current_range_meters":36800,"station_id":"ce4bhrh2rcd13ifvqhug","pricing_plan_id":"cebpf4jnsgd1na2vs0mg"},{"bike_id":"a007cebf-822b-4aff-9522-4d654d3c1eb3","system_id":"levelo_inurba_marseille","lat":43.29551,"lon":5.42283,"is_reserved":false,"is_disabled":false,"rental_uris":{"android":"levelo://app?vid=a007cebf-822b-4aff-9522-4d654d3c1eb3","ios":"levelo://app?vid=a007cebf-822b-4aff-9522-4d654d3c1eb3"},"vehicle_type_id":"4","last_reported":1730801405,"current_range_meters":33600,"station_id":"ce4bhph2rcd13ifvqhdg","pricing_plan_id":"cebpf4jnsgd1na2vs0mg"},{"bike_id":"dd43fefb-c201-457d-a082-76abb8f02a47","system_id":"levelo_inurba_marseille","lat":43.304626,"lon":5.379113,"is_reserved":false,"is_disabled":false,"rental_uris":{"android":"levelo://app?vid=dd43fefb-c201-457d-a082-76abb8f02a47","ios":"levelo://app?vid=dd43fefb-c201-457d-a082-76abb8f02a47"},"vehicle_type_id":"4","last_reported":1730801405,"current_range_meters":27600,"station_id":"ce4bgup2rcd13ifvqcn0","pricing_plan_id":"cebpf4jnsgd1na2vs0mg"},{"bike_id":"67dab935-1b71-438c-83ee-d4f8ffbef4c9","system_id":"levelo_inurba_marseille","lat":43.32486,"lon":5.36558,"is_reserved":false,"is_disabled":false,"rental_uris":{"android":"levelo://app?vid=67dab935-1b71-438c-83ee-d4f8ffbef4c9","ios":"levelo://app?vid=67dab935-1b71-438c-83ee-d4f8ffbef4c9"},"vehicle_type_id":"4","last_reported":1730801405,"current_range_meters":24400,"station_id":"ce4bhs12rcd13ifvqhvg","pricing_plan_id":"cebpf4jnsgd1na2vs0mg"},{"bike_id":"aafef72a-734b-4b0d-8b0f-c07b72926a7a","system_id":"levelo_inurba_marseille","lat":43.30541,"lon":5.36531,"is_reserved":false,"is_disabled":false,"rental_uris":{"android":"levelo://app?vid=aafef72a-734b-4b0d-8b0f-c07b72926a7a","ios":"levelo://app?vid=aafef72a-734b-4b0d-8b0f-c07b72926a7a"},"vehicle_type_id":"4","last_reported":1730801405,"current_range_meters":6800,"station_id":"ce4bgs12rcd13ifvqcag","pricing_plan_id":"cebpf4jnsgd1na2vs0mg"},{"bike_id":"90833e26-f75d-4a18-bf45-2e7661da8dba","system_id":"levelo_inurba_marseille","lat":43.29625,"lon":5.4059,"is_reserved":false,"is_disabled":false,"rental_uris":{"android":"levelo://app?vid=90833e26-f75d-4a18-bf45-2e7661da8dba","ios":"levelo://app?vid=90833e26-f75d-4a18-bf45-2e7661da8dba"},"vehicle_type_id":"4","last_reported":1730801405,"current_range_meters":25200,"station_id":"ce4bh0h2rcd13ifvqd60","pricing_plan_id":"cebpf4jnsgd1na2vs0mg"},{"bike_id":"c8a2d708-abe4-4e54-aedc-a081f8a474e1","system_id":"levelo_inurba_marseille","lat":43.24081,"lon":5.37754,"is_reserved":false,"is_disabled":false,"rental_uris":{"android":"levelo://app?vid=c8a2d708-abe4-4e54-aedc-a081f8a474e1","ios":"levelo://app?vid=c8a2d708-abe4-4e54-aedc-a081f8a474e1"},"vehicle_type_id":"4","last_reported":1730801405,"current_range_meters":28000,"station_id":"ce4bhnp2rcd13ifvqgvg","pricing_plan_id":"cebpf4jnsgd1na2vs0mg"},{"bike_id":"91250bf2-829d-44d4-9abc-97013f1fe234","system_id":"levelo_inurba_marseille","lat":43.23156,"lon":5.43708,"is_reserved":false,"is_disabled":false,"rental_uris":{"android":"levelo://app?vid=91250bf2-829d-44d4-9abc-97013f1fe234","ios":"levelo://app?vid=91250bf2-829d-44d4-9abc-97013f1fe234"},"vehicle_type_id":"4","last_reported":1730801405,"current_range_meters":15200,"station_id":"ce4bhmp2rcd13ifvqgog","pricing_plan_id":"cebpf4jnsgd1na2vs0mg"},{"bike_id":"937ce82d-a7d4-4dbe-af7d-b5b30ccf2148","system_id":"levelo_inurba_marseille","lat":43.31357,"lon":5.36707,"is_reserved":false,"is_disabled":false,"rental_uris":{"android":"levelo://app?vid=937ce82d-a7d4-4dbe-af7d-b5b30ccf2148","ios":"levelo://app?vid=937ce82d-a7d4-4dbe-af7d-b5b30ccf2148"},"vehicle_type_id":"4","last_reported":1730801405,"current_range_meters":36000,"station_id":"ce4bgr92rcd13ifvqc6g","pricing_plan_id":"cebpf4jnsgd1na2vs0mg"},{"bike_id":"68e82ea6-05cb-447c-801c-b7197f92bbc9","system_id":"levelo_inurba_marseille","lat":43.2315,"lon":5.43718,"is_reserved":false,"is_disabled":false,"rental_uris":{"android":"levelo://app?vid=68e82ea6-05cb-447c-801c-b7197f92bbc9","ios":"levelo://app?vid=68e82ea6-05cb-447c-801c-b7197f92bbc9"},"vehicle_type_id":"4","last_reported":1730801405,"current_range_meters":8400,"station_id":"ce4bhmp2rcd13ifvqgog","pricing_plan_id":"cebpf4jnsgd1na2vs0mg"},{"bike_id":"476b1032-3456-4e75-9225-7aec38b7121d","system_id":"levelo_inurba_marseille","lat":43.27813,"lon":5.40713,"is_reserved":false,"is_disabled":false,"rental_uris":{"android":"levelo://app?vid=476b1032-3456-4e75-9225-7aec38b7121d","ios":"levelo://app?vid=476b1032-3456-4e75-9225-7aec38b7121d"},"vehicle_type_id":"4","last_reported":1730801405,"current_range_meters":23200,"station_id":"ce4bhnh2rcd13ifvqgtg","pricing_plan_id":"cebpf4jnsgd1na2vs0mg"},{"bike_id":"fafcdd5e-df58-4b0d-9d57-6ed3ac30df65","system_id":"levelo_inurba_marseille","lat":43.31534,"lon":5.3803,"is_reserved":false,"is_disabled":false,"rental_uris":{"android":"levelo://app?vid=fafcdd5e-df58-4b0d-9d57-6ed3ac30df65","ios":"levelo://app?vid=fafcdd5e-df58-4b0d-9d57-6ed3ac30df65"},"vehicle_type_id":"4","last_reported":1730801405,"current_range_meters":38400,"station_id":"ce4bhsp2rcd13ifvqi50","pricing_plan_id":"cebpf4jnsgd1na2vs0mg"},{"bike_id":"0e82a3eb-e3e3-4ca6-b551-765f1b1e97e5","system_id":"levelo_inurba_marseille","lat":43.30549,"lon":5.36531,"is_reserved":false,"is_disabled":false,"rental_uris":{"android":"levelo://app?vid=0e82a3eb-e3e3-4ca6-b551-765f1b1e97e5","ios":"levelo://app?vid=0e82a3eb-e3e3-4ca6-b551-765f1b1e97e5"},"vehicle_type_id":"4","last_reported":1730801405,"current_range_meters":38800,"station_id":"ce4bgs12rcd13ifvqcag","pricing_plan_id":"cebpf4jnsgd1na2vs0mg"},{"bike_id":"5e54c44d-8842-4822-9012-1191662070de","system_id":"levelo_inurba_marseille","lat":43.29103,"lon":5.38134,"is_reserved":false,"is_disabled":false,"rental_uris":{"android":"levelo://app?vid=5e54c44d-8842-4822-9012-1191662070de","ios":"levelo://app?vid=5e54c44d-8842-4822-9012-1191662070de"},"vehicle_type_id":"4","last_reported":1730801405,"current_range_meters":36400,"station_id":"ce4bh512rcd13ifvqe2g","pricing_plan_id":"cebpf4jnsgd1na2vs0mg"},{"bike_id":"98ecf52e-74c6-45bc-a5b2-06c6ca5d158c","system_id":"levelo_inurba_marseille","lat":43.30917,"lon":5.36849,"is_reserved":false,"is_disabled":false,"rental_uris":{"android":"levelo://app?vid=98ecf52e-74c6-45bc-a5b2-06c6ca5d158c","ios":"levelo://app?vid=98ecf52e-74c6-45bc-a5b2-06c6ca5d158c"},"vehicle_type_id":"4","last_reported":1730801405,"current_range_meters":39200,"station_id":"ce4bgn92rcd13ifvqbvg","pricing_plan_id":"cebpf4jnsgd1na2vs0mg"},{"bike_id":"0d6389f7-bab8-4ebf-ad74-7e0fecb405b9","system_id":"levelo_inurba_marseille","lat":43.31341,"lon":5.36701,"is_reserved":false,"is_disabled":false,"rental_uris":{"android":"levelo://app?vid=0d6389f7-bab8-4ebf-ad74-7e0fecb405b9","ios":"levelo://app?vid=0d6389f7-bab8-4ebf-ad74-7e0fecb405b9"},"vehicle_type_id":"4","last_reported":1730801405,"current_range_meters":35200,"station_id":"ce4bgr92rcd13ifvqc6g","pricing_plan_id":"cebpf4jnsgd1na2vs0mg"},{"bike_id":"a1531f64-a3b4-450d-a778-589523db0ddd","system_id":"levelo_inurba_marseille","lat":43.27563,"lon":5.3842,"is_reserved":false,"is_disabled":false,"rental_uris":{"android":"levelo://app?vid=a1531f64-a3b4-450d-a778-589523db0ddd","ios":"levelo://app?vid=a1531f64-a3b4-450d-a778-589523db0ddd"},"vehicle_type_id":"4","last_reported":1730801405,"current_range_meters":38800,"station_id":"ce4bhh92rcd13ifvqfi0","pricing_plan_id":"cebpf4jnsgd1na2vs0mg"},{"bike_id":"9957bfcf-6b97-4e18-aaac-48b0bc97ce11","system_id":"levelo_inurba_marseille","lat":43.31373,"lon":5.38491,"is_reserved":false,"is_disabled":false,"rental_uris":{"android":"levelo://app?vid=9957bfcf-6b97-4e18-aaac-48b0bc97ce11","ios":"levelo://app?vid=9957bfcf-6b97-4e18-aaac-48b0bc97ce11"},"vehicle_type_id":"4","last_reported":1730801405,"current_range_meters":30000,"station_id":"ce4bgt92rcd13ifvqcf0","pricing_plan_id":"cebpf4jnsgd1na2vs0mg"},{"bike_id":"4f504ae4-1af1-4ca5-8d2d-7a0139326a6e","system_id":"levelo_inurba_marseille","lat":43.31076,"lon":5.383473,"is_reserved":false,"is_disabled":false,"rental_uris":{"android":"levelo://app?vid=4f504ae4-1af1-4ca5-8d2d-7a0139326a6e","ios":"levelo://app?vid=4f504ae4-1af1-4ca5-8d2d-7a0139326a6e"},"vehicle_type_id":"4","last_reported":1730801405,"current_range_meters":18000,"station_id":"ce4bgv92rcd13ifvqcr0","pricing_plan_id":"cebpf4jnsgd1na2vs0mg"},{"bike_id":"a81de78b-11ed-455a-9ade-7c52b807ee45","system_id":"levelo_inurba_marseille","lat":43.29354,"lon":5.37826,"is_reserved":false,"is_disabled":false,"rental_uris":{"android":"levelo://app?vid=a81de78b-11ed-455a-9ade-7c52b807ee45","ios":"levelo://app?vid=a81de78b-11ed-455a-9ade-7c52b807ee45"},"vehicle_type_id":"4","last_reported":1730801405,"current_range_meters":38000,"station_id":"ce4bgjh2rcd13ifvqbf0","pricing_plan_id":"cebpf4jnsgd1na2vs0mg"},{"bike_id":"a392bcbf-bc25-4e64-b8e7-272659554425","system_id":"levelo_inurba_marseille","lat":43.30951,"lon":5.39037,"is_reserved":false,"is_disabled":false,"rental_uris":{"android":"levelo://app?vid=a392bcbf-bc25-4e64-b8e7-272659554425","ios":"levelo://app?vid=a392bcbf-bc25-4e64-b8e7-272659554425"},"vehicle_type_id":"4","last_reported":1730801405,"current_range_meters":3200,"station_id":"ce4bgup2rcd13ifvqco0","pricing_plan_id":"cebpf4jnsgd1na2vs0mg"},{"bike_id":"8e276551-85a6-4d6f-96cf-66bbded28bbf","system_id":"levelo_inurba_marseille","lat":43.30274,"lon":5.36766,"is_reserved":false,"is_disabled":false,"rental_uris":{"android":"levelo://app?vid=8e276551-85a6-4d6f-96cf-66bbded28bbf","ios":"levelo://app?vid=8e276551-85a6-4d6f-96cf-66bbded28bbf"},"vehicle_type_id":"4","last_reported":1730801405,"current_range_meters":14400,"station_id":"ce4bgr92rcd13ifvqc7g","pricing_plan_id":"cebpf4jnsgd1na2vs0mg"},{"bike_id":"fe319810-8d53-4a22-a087-96a644f89f95","system_id":"levelo_inurba_marseille","lat":43.29846,"lon":5.36264,"is_reserved":false,"is_disabled":false,"rental_uris":{"android":"levelo://app?vid=fe319810-8d53-4a22-a087-96a644f89f95","ios":"levelo://app?vid=fe319810-8d53-4a22-a087-96a644f89f95"},"vehicle_type_id":"4","last_reported":1730801405,"current_range_meters":32000,"station_id":"ce4bgpp2rcd13ifvqc3g","pricing_plan_id":"cebpf4jnsgd1na2vs0mg"},{"bike_id":"ba8f5d9a-4861-4465-b828-23e2245ef053","system_id":"levelo_inurba_marseille","lat":43.23185,"lon":5.39975,"is_reserved":false,"is_disabled":false,"rental_uris":{"android":"levelo://app?vid=ba8f5d9a-4861-4465-b828-23e2245ef053","ios":"levelo://app?vid=ba8f5d9a-4861-4465-b828-23e2245ef053"},"vehicle_type_id":"4","last_reported":1730801405,"current_range_meters":38800,"station_id":"ce4bhn12rcd13ifvqgqg","pricing_plan_id":"cebpf4jnsgd1na2vs0mg"},{"bike_id":"aa4651e0-5c67-4882-91d7-705fd184d1aa","system_id":"levelo_inurba_marseille","lat":43.30537,"lon":5.38426,"is_reserved":false,"is_disabled":false,"rental_uris":{"android":"levelo://app?vid=aa4651e0-5c67-4882-91d7-705fd184d1aa","ios":"levelo://app?vid=aa4651e0-5c67-4882-91d7-705fd184d1aa"},"vehicle_type_id":"4","last_reported":1730801405,"current_range_meters":38400,"station_id":"ce4bgg92rcd13ifvqb30","pricing_plan_id":"cebpf4jnsgd1na2vs0mg"},{"bike_id":"83a9a6cf-b4ff-4a60-9488-9cac4c3bc152","system_id":"levelo_inurba_marseille","lat":43.25831,"lon":5.39429,"is_reserved":false,"is_disabled":false,"rental_uris":{"android":"levelo://app?vid=83a9a6cf-b4ff-4a60-9488-9cac4c3bc152","ios":"levelo://app?vid=83a9a6cf-b4ff-4a60-9488-9cac4c3bc152"},"vehicle_type_id":"4","last_reported":1730801405,"current_range_meters":25600,"station_id":"ce4bhip2rcd13ifvqft0","pricing_plan_id":"cebpf4jnsgd1na2vs0mg"},{"bike_id":"e9c24325-948c-40a0-9716-20b40a7d3bc5","system_id":"levelo_inurba_marseille","lat":43.26685,"lon":5.38262,"is_reserved":false,"is_disabled":false,"rental_uris":{"android":"levelo://app?vid=e9c24325-948c-40a0-9716-20b40a7d3bc5","ios":"levelo://app?vid=e9c24325-948c-40a0-9716-20b40a7d3bc5"},"vehicle_type_id":"4","last_reported":1730801405,"current_range_meters":36800,"station_id":"ce4bhg92rcd13ifvqf90","pricing_plan_id":"cebpf4jnsgd1na2vs0mg"},{"bike_id":"29c04edf-4b27-496b-9c3a-b345ce8f3bcb","system_id":"levelo_inurba_marseille","lat":43.23192,"lon":5.35554,"is_reserved":false,"is_disabled":false,"rental_uris":{"android":"levelo://app?vid=29c04edf-4b27-496b-9c3a-b345ce8f3bcb","ios":"levelo://app?vid=29c04edf-4b27-496b-9c3a-b345ce8f3bcb"},"vehicle_type_id":"4","last_reported":1730801405,"current_range_meters":11600,"station_id":"ce4bhu92rcd13ifvqi70","pricing_plan_id":"cebpf4jnsgd1na2vs0mg"},{"bike_id":"2108f68f-72fa-4d86-9e5e-58f2c7629696","system_id":"levelo_inurba_marseille","lat":43.28478,"lon":5.38404,"is_reserved":false,"is_disabled":false,"rental_uris":{"android":"levelo://app?vid=2108f68f-72fa-4d86-9e5e-58f2c7629696","ios":"levelo://app?vid=2108f68f-72fa-4d86-9e5e-58f2c7629696"},"vehicle_type_id":"4","last_reported":1730801405,"current_range_meters":39200,"station_id":"ce4bh512rcd13ifvqe3g","pricing_plan_id":"cebpf4jnsgd1na2vs0mg"},{"bike_id":"15de2ca6-28c5-4f21-a946-3c35db8b327d","system_id":"levelo_inurba_marseille","lat":43.24068,"lon":5.37757,"is_reserved":false,"is_disabled":false,"rental_uris":{"android":"levelo://app?vid=15de2ca6-28c5-4f21-a946-3c35db8b327d","ios":"levelo://app?vid=15de2ca6-28c5-4f21-a946-3c35db8b327d"},"vehicle_type_id":"4","last_reported":1730801405,"current_range_meters":32400,"station_id":"ce4bhnp2rcd13ifvqgvg","pricing_plan_id":"cebpf4jnsgd1na2vs0mg"},{"bike_id":"89613f0f-5b27-46f7-8ae5-dc5ac8fe7e35","system_id":"levelo_inurba_marseille","lat":43.25937,"lon":5.409,"is_reserved":false,"is_disabled":false,"rental_uris":{"android":"levelo://app?vid=89613f0f-5b27-46f7-8ae5-dc5ac8fe7e35","ios":"levelo://app?vid=89613f0f-5b27-46f7-8ae5-dc5ac8fe7e35"},"vehicle_type_id":"4","last_reported":1730801405,"current_range_meters":20800,"station_id":"ce4bhm92rcd13ifvqglg","pricing_plan_id":"cebpf4jnsgd1na2vs0mg"},{"bike_id":"30f83e63-a1bb-4d2c-a26c-6c33461e9aa4","system_id":"levelo_inurba_marseille","lat":43.296906,"lon":5.37945,"is_reserved":false,"is_disabled":false,"rental_uris":{"android":"levelo://app?vid=30f83e63-a1bb-4d2c-a26c-6c33461e9aa4","ios":"levelo://app?vid=30f83e63-a1bb-4d2c-a26c-6c33461e9aa4"},"vehicle_type_id":"4","last_reported":1730801405,"current_range_meters":30400,"station_id":"ce4bh012rcd13ifvqcv0","pricing_plan_id":"cebpf4jnsgd1na2vs0mg"},{"bike_id":"16ae9290-db9a-4317-b34b-8b26fa9930fd","system_id":"levelo_inurba_marseille","lat":43.23156,"lon":5.43704,"is_reserved":false,"is_disabled":false,"rental_uris":{"android":"levelo://app?vid=16ae9290-db9a-4317-b34b-8b26fa9930fd","ios":"levelo://app?vid=16ae9290-db9a-4317-b34b-8b26fa9930fd"},"vehicle_type_id":"4","last_reported":1730801405,"current_range_meters":28400,"station_id":"ce4bhmp2rcd13ifvqgog","pricing_plan_id":"cebpf4jnsgd1na2vs0mg"},{"bike_id":"aa2395f8-9d30-4a27-9bdc-78c2fe515d0c","system_id":"levelo_inurba_marseille","lat":43.31082,"lon":5.42428,"is_reserved":false,"is_disabled":false,"rental_uris":{"android":"levelo://app?vid=aa2395f8-9d30-4a27-9bdc-78c2fe515d0c","ios":"levelo://app?vid=aa2395f8-9d30-4a27-9bdc-78c2fe515d0c"},"vehicle_type_id":"4","last_reported":1730801405,"current_range_meters":24800,"station_id":"ce4bhp92rcd13ifvqhag","pricing_plan_id":"cebpf4jnsgd1na2vs0mg"},{"bike_id":"77f75c58-df77-4d1f-b372-5b5eed455101","system_id":"levelo_inurba_marseille","lat":43.30537,"lon":5.36529,"is_reserved":false,"is_disabled":false,"rental_uris":{"android":"levelo://app?vid=77f75c58-df77-4d1f-b372-5b5eed455101","ios":"levelo://app?vid=77f75c58-df77-4d1f-b372-5b5eed455101"},"vehicle_type_id":"4","last_reported":1730801405,"current_range_meters":34000,"station_id":"ce4bgs12rcd13ifvqcag","pricing_plan_id":"cebpf4jnsgd1na2vs0mg"},{"bike_id":"23ddf6b7-63f6-41f7-a867-e52589caa855","system_id":"levelo_inurba_marseille","lat":43.32488,"lon":5.36563,"is_reserved":false,"is_disabled":false,"rental_uris":{"android":"levelo://app?vid=23ddf6b7-63f6-41f7-a867-e52589caa855","ios":"levelo://app?vid=23ddf6b7-63f6-41f7-a867-e52589caa855"},"vehicle_type_id":"4","last_reported":1730801405,"current_range_meters":25600,"station_id":"ce4bhs12rcd13ifvqhvg","pricing_plan_id":"cebpf4jnsgd1na2vs0mg"},{"bike_id":"d7eba0bc-553a-47d4-8bc6-a467f428147a","system_id":"levelo_inurba_marseille","lat":43.31345,"lon":5.36705,"is_reserved":false,"is_disabled":false,"rental_uris":{"android":"levelo://app?vid=d7eba0bc-553a-47d4-8bc6-a467f428147a","ios":"levelo://app?vid=d7eba0bc-553a-47d4-8bc6-a467f428147a"},"vehicle_type_id":"4","last_reported":1730801405,"current_range_meters":30400,"station_id":"ce4bgr92rcd13ifvqc6g","pricing_plan_id":"cebpf4jnsgd1na2vs0mg"},{"bike_id":"822ef2fd-a837-4824-bb26-9fcc7ffeb8c2","system_id":"levelo_inurba_marseille","lat":43.29531,"lon":5.3853,"is_reserved":false,"is_disabled":false,"rental_uris":{"android":"levelo://app?vid=822ef2fd-a837-4824-bb26-9fcc7ffeb8c2","ios":"levelo://app?vid=822ef2fd-a837-4824-bb26-9fcc7ffeb8c2"},"vehicle_type_id":"4","last_reported":1730801405,"current_range_meters":26000,"station_id":"ce4bgih2rcd13ifvqba0","pricing_plan_id":"cebpf4jnsgd1na2vs0mg"},{"bike_id":"fc0994af-e8f2-4567-83ee-e8ca0eb4f61f","system_id":"levelo_inurba_marseille","lat":43.3112,"lon":5.37771,"is_reserved":false,"is_disabled":false,"rental_uris":{"android":"levelo://app?vid=fc0994af-e8f2-4567-83ee-e8ca0eb4f61f","ios":"levelo://app?vid=fc0994af-e8f2-4567-83ee-e8ca0eb4f61f"},"vehicle_type_id":"4","last_reported":1730801405,"current_range_meters":19200,"station_id":"ce4bgt92rcd13ifvqcg0","pricing_plan_id":"cebpf4jnsgd1na2vs0mg"},{"bike_id":"55c88d0d-09c6-4e51-a411-aca3fe05d038","system_id":"levelo_inurba_marseille","lat":43.25584,"lon":5.38228,"is_reserved":false,"is_disabled":false,"rental_uris":{"android":"levelo://app?vid=55c88d0d-09c6-4e51-a411-aca3fe05d038","ios":"levelo://app?vid=55c88d0d-09c6-4e51-a411-aca3fe05d038"},"vehicle_type_id":"4","last_reported":1730801405,"current_range_meters":34800,"station_id":"ce4bhih2rcd13ifvqfs0","pricing_plan_id":"cebpf4jnsgd1na2vs0mg"},{"bike_id":"bb254295-6b2f-47fa-b542-f768ed4879ee","system_id":"levelo_inurba_marseille","lat":43.23153,"lon":5.43712,"is_reserved":false,"is_disabled":false,"rental_uris":{"android":"levelo://app?vid=bb254295-6b2f-47fa-b542-f768ed4879ee","ios":"levelo://app?vid=bb254295-6b2f-47fa-b542-f768ed4879ee"},"vehicle_type_id":"4","last_reported":1730801405,"current_range_meters":18000,"station_id":"ce4bhmp2rcd13ifvqgog","pricing_plan_id":"cebpf4jnsgd1na2vs0mg"},{"bike_id":"0ba4dc4a-d599-43e0-abdf-4bdd77bd59ce","system_id":"levelo_inurba_marseille","lat":43.26678,"lon":5.38261,"is_reserved":false,"is_disabled":false,"rental_uris":{"android":"levelo://app?vid=0ba4dc4a-d599-43e0-abdf-4bdd77bd59ce","ios":"levelo://app?vid=0ba4dc4a-d599-43e0-abdf-4bdd77bd59ce"},"vehicle_type_id":"4","last_reported":1730801405,"current_range_meters":33200,"station_id":"ce4bhg92rcd13ifvqf90","pricing_plan_id":"cebpf4jnsgd1na2vs0mg"},{"bike_id":"ff667aa2-147a-4a47-b6ea-40549b50c928","system_id":"levelo_inurba_marseille","lat":43.23152,"lon":5.43717,"is_reserved":false,"is_disabled":false,"rental_uris":{"android":"levelo://app?vid=ff667aa2-147a-4a47-b6ea-40549b50c928","ios":"levelo://app?vid=ff667aa2-147a-4a47-b6ea-40549b50c928"},"vehicle_type_id":"4","last_reported":1730801405,"current_range_meters":32000,"station_id":"ce4bhmp2rcd13ifvqgog","pricing_plan_id":"cebpf4jnsgd1na2vs0mg"},{"bike_id":"3f0ac8b6-a688-4ae8-b86c-0f4e3445eb81","system_id":"levelo_inurba_marseille","lat":43.27065,"lon":5.42272,"is_reserved":false,"is_disabled":false,"rental_uris":{"android":"levelo://app?vid=3f0ac8b6-a688-4ae8-b86c-0f4e3445eb81","ios":"levelo://app?vid=3f0ac8b6-a688-4ae8-b86c-0f4e3445eb81"},"vehicle_type_id":"4","last_reported":1730801405,"current_range_meters":38800,"station_id":"ce4bhk92rcd13ifvqgb0","pricing_plan_id":"cebpf4jnsgd1na2vs0mg"},{"bike_id":"54bc5c04-a443-4fca-8505-bd795ddbdc06","system_id":"levelo_inurba_marseille","lat":43.24183,"lon":5.39725,"is_reserved":false,"is_disabled":false,"rental_uris":{"android":"levelo://app?vid=54bc5c04-a443-4fca-8505-bd795ddbdc06","ios":"levelo://app?vid=54bc5c04-a443-4fca-8505-bd795ddbdc06"},"vehicle_type_id":"4","last_reported":1730801405,"current_range_meters":28000,"station_id":"ce4bhn12rcd13ifvqgpg","pricing_plan_id":"cebpf4jnsgd1na2vs0mg"},{"bike_id":"4f16fe17-7dca-4df2-b254-6e94ac75d8e0","system_id":"levelo_inurba_marseille","lat":43.34142,"lon":5.40899,"is_reserved":false,"is_disabled":false,"rental_uris":{"android":"levelo://app?vid=4f16fe17-7dca-4df2-b254-6e94ac75d8e0","ios":"levelo://app?vid=4f16fe17-7dca-4df2-b254-6e94ac75d8e0"},"vehicle_type_id":"4","last_reported":1730801405,"current_range_meters":26000,"station_id":"ce4bhqh2rcd13ifvqhlg","pricing_plan_id":"cebpf4jnsgd1na2vs0mg"},{"bike_id":"3a4daf16-adfd-4e7e-964d-e1ce255aeee3","system_id":"levelo_inurba_marseille","lat":43.325406,"lon":5.414329,"is_reserved":false,"is_disabled":false,"rental_uris":{"android":"levelo://app?vid=3a4daf16-adfd-4e7e-964d-e1ce255aeee3","ios":"levelo://app?vid=3a4daf16-adfd-4e7e-964d-e1ce255aeee3"},"vehicle_type_id":"4","last_reported":1730801405,"current_range_meters":12000,"station_id":"ce4bhq12rcd13ifvqhhg","pricing_plan_id":"cebpf4jnsgd1na2vs0mg"},{"bike_id":"a3bbb043-6bb9-4f1e-adc9-58cb8bda5cf9","system_id":"levelo_inurba_marseille","lat":43.24084,"lon":5.37745,"is_reserved":false,"is_disabled":false,"rental_uris":{"android":"levelo://app?vid=a3bbb043-6bb9-4f1e-adc9-58cb8bda5cf9","ios":"levelo://app?vid=a3bbb043-6bb9-4f1e-adc9-58cb8bda5cf9"},"vehicle_type_id":"4","last_reported":1730801405,"current_range_meters":25200,"station_id":"ce4bhnp2rcd13ifvqgvg","pricing_plan_id":"cebpf4jnsgd1na2vs0mg"},{"bike_id":"2f3fb672-e693-4cd7-8835-965da134d65f","system_id":"levelo_inurba_marseille","lat":43.27672,"lon":5.38897,"is_reserved":false,"is_disabled":false,"rental_uris":{"android":"levelo://app?vid=2f3fb672-e693-4cd7-8835-965da134d65f","ios":"levelo://app?vid=2f3fb672-e693-4cd7-8835-965da134d65f"},"vehicle_type_id":"4","last_reported":1730801405,"current_range_meters":36800,"station_id":"ce4bhi12rcd13ifvqfo0","pricing_plan_id":"cebpf4jnsgd1na2vs0mg"},{"bike_id":"57e7ea0d-136c-4ce7-8242-21c4b2cac819","system_id":"levelo_inurba_marseille","lat":43.30917,"lon":5.36846,"is_reserved":false,"is_disabled":false,"rental_uris":{"android":"levelo://app?vid=57e7ea0d-136c-4ce7-8242-21c4b2cac819","ios":"levelo://app?vid=57e7ea0d-136c-4ce7-8242-21c4b2cac819"},"vehicle_type_id":"4","last_reported":1730801405,"current_range_meters":32000,"station_id":"ce4bgn92rcd13ifvqbvg","pricing_plan_id":"cebpf4jnsgd1na2vs0mg"},{"bike_id":"154acfee-d67d-4e4b-8812-97f42357517d","system_id":"levelo_inurba_marseille","lat":43.27807,"lon":5.40708,"is_reserved":false,"is_disabled":false,"rental_uris":{"android":"levelo://app?vid=154acfee-d67d-4e4b-8812-97f42357517d","ios":"levelo://app?vid=154acfee-d67d-4e4b-8812-97f42357517d"},"vehicle_type_id":"4","last_reported":1730801405,"current_range_meters":20400,"station_id":"ce4bhnh2rcd13ifvqgtg","pricing_plan_id":"cebpf4jnsgd1na2vs0mg"},{"bike_id":"c1d0c445-164d-43eb-b9ec-414fbdb8aee2","system_id":"levelo_inurba_marseille","lat":43.29373,"lon":5.37844,"is_reserved":false,"is_disabled":false,"rental_uris":{"android":"levelo://app?vid=c1d0c445-164d-43eb-b9ec-414fbdb8aee2","ios":"levelo://app?vid=c1d0c445-164d-43eb-b9ec-414fbdb8aee2"},"vehicle_type_id":"4","last_reported":1730801405,"current_range_meters":40000,"station_id":"ce4bgjh2rcd13ifvqbf0","pricing_plan_id":"cebpf4jnsgd1na2vs0mg"},{"bike_id":"e20042a3-679d-432e-bbad-615f69049412","system_id":"levelo_inurba_marseille","lat":43.2315,"lon":5.43708,"is_reserved":false,"is_disabled":false,"rental_uris":{"android":"levelo://app?vid=e20042a3-679d-432e-bbad-615f69049412","ios":"levelo://app?vid=e20042a3-679d-432e-bbad-615f69049412"},"vehicle_type_id":"4","last_reported":1730801405,"current_range_meters":28000,"station_id":"ce4bhmp2rcd13ifvqgog","pricing_plan_id":"cebpf4jnsgd1na2vs0mg"},{"bike_id":"47a64d21-5ac6-4cb0-9d7a-360d0b956e6c","system_id":"levelo_inurba_marseille","lat":43.30279,"lon":5.37707,"is_reserved":false,"is_disabled":false,"rental_uris":{"android":"levelo://app?vid=47a64d21-5ac6-4cb0-9d7a-360d0b956e6c","ios":"levelo://app?vid=47a64d21-5ac6-4cb0-9d7a-360d0b956e6c"},"vehicle_type_id":"4","last_reported":1730801405,"current_range_meters":6800,"station_id":"ce4bguh2rcd13ifvqcj0","pricing_plan_id":"cebpf4jnsgd1na2vs0mg"},{"bike_id":"0364ef51-c7bc-42b0-96db-5ed05474de36","system_id":"levelo_inurba_marseille","lat":43.26907,"lon":5.40328,"is_reserved":false,"is_disabled":false,"rental_uris":{"android":"levelo://app?vid=0364ef51-c7bc-42b0-96db-5ed05474de36","ios":"levelo://app?vid=0364ef51-c7bc-42b0-96db-5ed05474de36"},"vehicle_type_id":"4","last_reported":1730801405,"current_range_meters":16800,"station_id":"ce501612rcd8frsf0b60","pricing_plan_id":"cebpf4jnsgd1na2vs0mg"},{"bike_id":"21e05d56-c70e-48c0-a097-0bcb1751e011","system_id":"levelo_inurba_marseille","lat":43.2931,"lon":5.37173,"is_reserved":false,"is_disabled":false,"rental_uris":{"android":"levelo://app?vid=21e05d56-c70e-48c0-a097-0bcb1751e011","ios":"levelo://app?vid=21e05d56-c70e-48c0-a097-0bcb1751e011"},"vehicle_type_id":"4","last_reported":1730801405,"current_range_meters":16800,"station_id":"ce4bgh92rcd13ifvqb40","pricing_plan_id":"cebpf4jnsgd1na2vs0mg"},{"bike_id":"cb439c87-139e-4d75-a793-131f7708c2ed","system_id":"levelo_inurba_marseille","lat":43.32285,"lon":5.3827,"is_reserved":false,"is_disabled":false,"rental_uris":{"android":"levelo://app?vid=cb439c87-139e-4d75-a793-131f7708c2ed","ios":"levelo://app?vid=cb439c87-139e-4d75-a793-131f7708c2ed"},"vehicle_type_id":"4","last_reported":1730801405,"current_range_meters":19600,"station_id":"ce4bhr12rcd13ifvqhqg","pricing_plan_id":"cebpf4jnsgd1na2vs0mg"},{"bike_id":"f6fac252-bcfe-4359-8cd8-84ee90eebb7d","system_id":"levelo_inurba_marseille","lat":43.30536,"lon":5.3653,"is_reserved":false,"is_disabled":false,"rental_uris":{"android":"levelo://app?vid=f6fac252-bcfe-4359-8cd8-84ee90eebb7d","ios":"levelo://app?vid=f6fac252-bcfe-4359-8cd8-84ee90eebb7d"},"vehicle_type_id":"4","last_reported":1730801405,"current_range_meters":40000,"station_id":"ce4bgs12rcd13ifvqcag","pricing_plan_id":"cebpf4jnsgd1na2vs0mg"},{"bike_id":"b3aca119-8ee6-48e1-90b0-adfd3adcdd31","system_id":"levelo_inurba_marseille","lat":43.25585,"lon":5.38235,"is_reserved":false,"is_disabled":false,"rental_uris":{"android":"levelo://app?vid=b3aca119-8ee6-48e1-90b0-adfd3adcdd31","ios":"levelo://app?vid=b3aca119-8ee6-48e1-90b0-adfd3adcdd31"},"vehicle_type_id":"4","last_reported":1730801405,"current_range_meters":8400,"station_id":"ce4bhih2rcd13ifvqfs0","pricing_plan_id":"cebpf4jnsgd1na2vs0mg"},{"bike_id":"660f9ab5-0ee6-45bd-9ba0-20f4579b8e99","system_id":"levelo_inurba_marseille","lat":43.33603,"lon":5.410264,"is_reserved":false,"is_disabled":false,"rental_uris":{"android":"levelo://app?vid=660f9ab5-0ee6-45bd-9ba0-20f4579b8e99","ios":"levelo://app?vid=660f9ab5-0ee6-45bd-9ba0-20f4579b8e99"},"vehicle_type_id":"4","last_reported":1730801405,"current_range_meters":40000,"station_id":"ce4bhqh2rcd13ifvqhmg","pricing_plan_id":"cebpf4jnsgd1na2vs0mg"},{"bike_id":"ae041007-e592-4090-bb3e-17b320956fec","system_id":"levelo_inurba_marseille","lat":43.24072,"lon":5.37762,"is_reserved":false,"is_disabled":false,"rental_uris":{"android":"levelo://app?vid=ae041007-e592-4090-bb3e-17b320956fec","ios":"levelo://app?vid=ae041007-e592-4090-bb3e-17b320956fec"},"vehicle_type_id":"4","last_reported":1730801405,"current_range_meters":24800,"station_id":"ce4bhnp2rcd13ifvqgvg","pricing_plan_id":"cebpf4jnsgd1na2vs0mg"},{"bike_id":"32920a41-7391-4fe0-8909-574511ef3b4d","system_id":"levelo_inurba_marseille","lat":43.3013,"lon":5.37416,"is_reserved":false,"is_disabled":false,"rental_uris":{"android":"levelo://app?vid=32920a41-7391-4fe0-8909-574511ef3b4d","ios":"levelo://app?vid=32920a41-7391-4fe0-8909-574511ef3b4d"},"vehicle_type_id":"4","last_reported":1730801405,"current_range_meters":31200,"station_id":"ce4bgs92rcd13ifvqcc0","pricing_plan_id":"cebpf4jnsgd1na2vs0mg"},{"bike_id":"fc7e1c38-5ceb-4fb3-9afa-990ebfb95007","system_id":"levelo_inurba_marseille","lat":43.23156,"lon":5.43709,"is_reserved":false,"is_disabled":false,"rental_uris":{"android":"levelo://app?vid=fc7e1c38-5ceb-4fb3-9afa-990ebfb95007","ios":"levelo://app?vid=fc7e1c38-5ceb-4fb3-9afa-990ebfb95007"},"vehicle_type_id":"4","last_reported":1730801405,"current_range_meters":19200,"station_id":"ce4bhmp2rcd13ifvqgog","pricing_plan_id":"cebpf4jnsgd1na2vs0mg"},{"bike_id":"82f5b993-a6a4-4cae-bd5f-f938570ff132","system_id":"levelo_inurba_marseille","lat":43.31389,"lon":5.385,"is_reserved":false,"is_disabled":false,"rental_uris":{"android":"levelo://app?vid=82f5b993-a6a4-4cae-bd5f-f938570ff132","ios":"levelo://app?vid=82f5b993-a6a4-4cae-bd5f-f938570ff132"},"vehicle_type_id":"4","last_reported":1730801405,"current_range_meters":26800,"station_id":"ce4bgt92rcd13ifvqcf0","pricing_plan_id":"cebpf4jnsgd1na2vs0mg"},{"bike_id":"ada3955f-a638-437f-a359-7553433b0343","system_id":"levelo_inurba_marseille","lat":43.26949,"lon":5.38631,"is_reserved":false,"is_disabled":false,"rental_uris":{"android":"levelo://app?vid=ada3955f-a638-437f-a359-7553433b0343","ios":"levelo://app?vid=ada3955f-a638-437f-a359-7553433b0343"},"vehicle_type_id":"4","last_reported":1730801405,"current_range_meters":10800,"station_id":"ce4bhh92rcd13ifvqfh0","pricing_plan_id":"cebpf4jnsgd1na2vs0mg"},{"bike_id":"8d300db8-fddf-4c19-b47b-a311848031fe","system_id":"levelo_inurba_marseille","lat":43.25937,"lon":5.409,"is_reserved":false,"is_disabled":false,"rental_uris":{"android":"levelo://app?vid=8d300db8-fddf-4c19-b47b-a311848031fe","ios":"levelo://app?vid=8d300db8-fddf-4c19-b47b-a311848031fe"},"vehicle_type_id":"4","last_reported":1730801405,"current_range_meters":16800,"station_id":"ce4bhm92rcd13ifvqglg","pricing_plan_id":"cebpf4jnsgd1na2vs0mg"},{"bike_id":"94767d64-6cce-4bdd-a274-3194a009e90b","system_id":"levelo_inurba_marseille","lat":43.29928,"lon":5.36541,"is_reserved":false,"is_disabled":false,"rental_uris":{"android":"levelo://app?vid=94767d64-6cce-4bdd-a274-3194a009e90b","ios":"levelo://app?vid=94767d64-6cce-4bdd-a274-3194a009e90b"},"vehicle_type_id":"4","last_reported":1730801405,"current_range_meters":32400,"station_id":"ce4bgm92rcd13ifvqbr0","pricing_plan_id":"cebpf4jnsgd1na2vs0mg"},{"bike_id":"9f4017a7-590d-46e1-90ac-f643ab37d017","system_id":"levelo_inurba_marseille","lat":43.30457,"lon":5.37907,"is_reserved":false,"is_disabled":false,"rental_uris":{"android":"levelo://app?vid=9f4017a7-590d-46e1-90ac-f643ab37d017","ios":"levelo://app?vid=9f4017a7-590d-46e1-90ac-f643ab37d017"},"vehicle_type_id":"4","last_reported":1730801405,"current_range_meters":17600,"station_id":"ce4bgup2rcd13ifvqcn0","pricing_plan_id":"cebpf4jnsgd1na2vs0mg"},{"bike_id":"0efd1a77-e838-4169-857b-b17507606c33","system_id":"levelo_inurba_marseille","lat":43.29866,"lon":5.39736,"is_reserved":false,"is_disabled":false,"rental_uris":{"android":"levelo://app?vid=0efd1a77-e838-4169-857b-b17507606c33","ios":"levelo://app?vid=0efd1a77-e838-4169-857b-b17507606c33"},"vehicle_type_id":"4","last_reported":1730801405,"current_range_meters":7200,"station_id":"ce4bh0h2rcd13ifvqd50","pricing_plan_id":"cebpf4jnsgd1na2vs0mg"},{"bike_id":"4cfa7c95-7b12-4adc-937b-e1311d881e9c","system_id":"levelo_inurba_marseille","lat":43.24181,"lon":5.39727,"is_reserved":false,"is_disabled":false,"rental_uris":{"android":"levelo://app?vid=4cfa7c95-7b12-4adc-937b-e1311d881e9c","ios":"levelo://app?vid=4cfa7c95-7b12-4adc-937b-e1311d881e9c"},"vehicle_type_id":"4","last_reported":1730801405,"current_range_meters":9600,"station_id":"ce4bhn12rcd13ifvqgpg","pricing_plan_id":"cebpf4jnsgd1na2vs0mg"},{"bike_id":"823967de-5ba0-4689-8bf8-641b466fd8b1","system_id":"levelo_inurba_marseille","lat":43.23195,"lon":5.35556,"is_reserved":false,"is_disabled":false,"rental_uris":{"android":"levelo://app?vid=823967de-5ba0-4689-8bf8-641b466fd8b1","ios":"levelo://app?vid=823967de-5ba0-4689-8bf8-641b466fd8b1"},"vehicle_type_id":"4","last_reported":1730801405,"current_range_meters":39200,"station_id":"ce4bhu92rcd13ifvqi70","pricing_plan_id":"cebpf4jnsgd1na2vs0mg"},{"bike_id":"ad73c176-425a-48ae-ba4b-8cb3ee938f70","system_id":"levelo_inurba_marseille","lat":43.24392,"lon":5.37054,"is_reserved":false,"is_disabled":false,"rental_uris":{"android":"levelo://app?vid=ad73c176-425a-48ae-ba4b-8cb3ee938f70","ios":"levelo://app?vid=ad73c176-425a-48ae-ba4b-8cb3ee938f70"},"vehicle_type_id":"4","last_reported":1730801405,"current_range_meters":38000,"station_id":"ce4bhhh2rcd13ifvqfk0","pricing_plan_id":"cebpf4jnsgd1na2vs0mg"},{"bike_id":"df2000e4-7ce1-46ba-980f-a90a63f2d7a2","system_id":"levelo_inurba_marseille","lat":43.29848,"lon":5.36283,"is_reserved":false,"is_disabled":false,"rental_uris":{"android":"levelo://app?vid=df2000e4-7ce1-46ba-980f-a90a63f2d7a2","ios":"levelo://app?vid=df2000e4-7ce1-46ba-980f-a90a63f2d7a2"},"vehicle_type_id":"4","last_reported":1730801405,"current_range_meters":37600,"station_id":"ce4bgpp2rcd13ifvqc3g","pricing_plan_id":"cebpf4jnsgd1na2vs0mg"},{"bike_id":"78f9e492-90d7-4f2e-b433-8a4d32d8b368","system_id":"levelo_inurba_marseille","lat":43.34148,"lon":5.40904,"is_reserved":false,"is_disabled":false,"rental_uris":{"android":"levelo://app?vid=78f9e492-90d7-4f2e-b433-8a4d32d8b368","ios":"levelo://app?vid=78f9e492-90d7-4f2e-b433-8a4d32d8b368"},"vehicle_type_id":"4","last_reported":1730801405,"current_range_meters":34000,"station_id":"ce4bhqh2rcd13ifvqhlg","pricing_plan_id":"cebpf4jnsgd1na2vs0mg"},{"bike_id":"80321231-d2f0-42fa-8d09-af9526df13b5","system_id":"levelo_inurba_marseille","lat":43.26811,"lon":5.40274,"is_reserved":false,"is_disabled":false,"rental_uris":{"android":"levelo://app?vid=80321231-d2f0-42fa-8d09-af9526df13b5","ios":"levelo://app?vid=80321231-d2f0-42fa-8d09-af9526df13b5"},"vehicle_type_id":"4","last_reported":1730801405,"current_range_meters":28800,"station_id":"ce501612rcd8frsf0b60","pricing_plan_id":"cebpf4jnsgd1na2vs0mg"},{"bike_id":"a277368d-791b-402a-832d-49a121abbb5e","system_id":"levelo_inurba_marseille","lat":43.31222,"lon":5.3685,"is_reserved":false,"is_disabled":false,"rental_uris":{"android":"levelo://app?vid=a277368d-791b-402a-832d-49a121abbb5e","ios":"levelo://app?vid=a277368d-791b-402a-832d-49a121abbb5e"},"vehicle_type_id":"4","last_reported":1730801405,"current_range_meters":19600,"station_id":"ce4bgl92rcd13ifvqbq0","pricing_plan_id":"cebpf4jnsgd1na2vs0mg"},{"bike_id":"894a641f-a8d5-4e99-9582-55ba67b5c3f3","system_id":"levelo_inurba_marseille","lat":43.30946,"lon":5.39044,"is_reserved":false,"is_disabled":false,"rental_uris":{"android":"levelo://app?vid=894a641f-a8d5-4e99-9582-55ba67b5c3f3","ios":"levelo://app?vid=894a641f-a8d5-4e99-9582-55ba67b5c3f3"},"vehicle_type_id":"4","last_reported":1730801405,"current_range_meters":12400,"station_id":"ce4bgup2rcd13ifvqco0","pricing_plan_id":"cebpf4jnsgd1na2vs0mg"},{"bike_id":"45609497-9b7a-4b69-b420-e16894885132","system_id":"levelo_inurba_marseille","lat":43.25937,"lon":5.40903,"is_reserved":false,"is_disabled":false,"rental_uris":{"android":"levelo://app?vid=45609497-9b7a-4b69-b420-e16894885132","ios":"levelo://app?vid=45609497-9b7a-4b69-b420-e16894885132"},"vehicle_type_id":"4","last_reported":1730801405,"current_range_meters":34000,"station_id":"ce4bhm92rcd13ifvqglg","pricing_plan_id":"cebpf4jnsgd1na2vs0mg"},{"bike_id":"38720abd-68e9-43b3-a2dd-7c40aa97c441","system_id":"levelo_inurba_marseille","lat":43.2439,"lon":5.37048,"is_reserved":false,"is_disabled":false,"rental_uris":{"android":"levelo://app?vid=38720abd-68e9-43b3-a2dd-7c40aa97c441","ios":"levelo://app?vid=38720abd-68e9-43b3-a2dd-7c40aa97c441"},"vehicle_type_id":"4","last_reported":1730801405,"current_range_meters":37600,"station_id":"ce4bhhh2rcd13ifvqfk0","pricing_plan_id":"cebpf4jnsgd1na2vs0mg"},{"bike_id":"d704f688-af5b-4e0a-927f-265937093706","system_id":"levelo_inurba_marseille","lat":43.305303,"lon":5.384337,"is_reserved":false,"is_disabled":false,"rental_uris":{"android":"levelo://app?vid=d704f688-af5b-4e0a-927f-265937093706","ios":"levelo://app?vid=d704f688-af5b-4e0a-927f-265937093706"},"vehicle_type_id":"4","last_reported":1730801405,"current_range_meters":37600,"station_id":"ce4bgg92rcd13ifvqb30","pricing_plan_id":"cebpf4jnsgd1na2vs0mg"},{"bike_id":"d3d5bf97-ee4e-462c-9692-ff991a12530c","system_id":"levelo_inurba_marseille","lat":43.33604,"lon":5.41034,"is_reserved":false,"is_disabled":false,"rental_uris":{"android":"levelo://app?vid=d3d5bf97-ee4e-462c-9692-ff991a12530c","ios":"levelo://app?vid=d3d5bf97-ee4e-462c-9692-ff991a12530c"},"vehicle_type_id":"4","last_reported":1730801405,"current_range_meters":36800,"station_id":"ce4bhqh2rcd13ifvqhmg","pricing_plan_id":"cebpf4jnsgd1na2vs0mg"},{"bike_id":"f535cfa7-af66-4581-bf1b-0b636d06197c","system_id":"levelo_inurba_marseille","lat":43.279176,"lon":5.395872,"is_reserved":false,"is_disabled":false,"rental_uris":{"android":"levelo://app?vid=f535cfa7-af66-4581-bf1b-0b636d06197c","ios":"levelo://app?vid=f535cfa7-af66-4581-bf1b-0b636d06197c"},"vehicle_type_id":"4","last_reported":1730801405,"current_range_meters":22400,"station_id":"ce4bhf92rcd13ifvqf40","pricing_plan_id":"cebpf4jnsgd1na2vs0mg"},{"bike_id":"8dc76639-2dba-4127-a7d7-b5be66c6c3aa","system_id":"levelo_inurba_marseille","lat":43.29103,"lon":5.38131,"is_reserved":false,"is_disabled":false,"rental_uris":{"android":"levelo://app?vid=8dc76639-2dba-4127-a7d7-b5be66c6c3aa","ios":"levelo://app?vid=8dc76639-2dba-4127-a7d7-b5be66c6c3aa"},"vehicle_type_id":"4","last_reported":1730801405,"current_range_meters":39200,"station_id":"ce4bh512rcd13ifvqe2g","pricing_plan_id":"cebpf4jnsgd1na2vs0mg"},{"bike_id":"a6b470c9-d823-44bc-baa3-d9eb5e2efbd3","system_id":"levelo_inurba_marseille","lat":43.28153,"lon":5.42635,"is_reserved":false,"is_disabled":false,"rental_uris":{"android":"levelo://app?vid=a6b470c9-d823-44bc-baa3-d9eb5e2efbd3","ios":"levelo://app?vid=a6b470c9-d823-44bc-baa3-d9eb5e2efbd3"},"vehicle_type_id":"4","last_reported":1730801405,"current_range_meters":7200,"station_id":"ce4bhnh2rcd13ifvqgug","pricing_plan_id":"cebpf4jnsgd1na2vs0mg"},{"bike_id":"f4cdb0e1-9450-465b-b3d4-57ac794a165b","system_id":"levelo_inurba_marseille","lat":43.30602,"lon":5.37217,"is_reserved":false,"is_disabled":false,"rental_uris":{"android":"levelo://app?vid=f4cdb0e1-9450-465b-b3d4-57ac794a165b","ios":"levelo://app?vid=f4cdb0e1-9450-465b-b3d4-57ac794a165b"},"vehicle_type_id":"4","last_reported":1730801405,"current_range_meters":19600,"station_id":"ce4bgqh2rcd13ifvqc4g","pricing_plan_id":"cebpf4jnsgd1na2vs0mg"},{"bike_id":"029ff5ee-3e43-4656-bd0f-80559eb25bab","system_id":"levelo_inurba_marseille","lat":43.30454,"lon":5.37897,"is_reserved":false,"is_disabled":false,"rental_uris":{"android":"levelo://app?vid=029ff5ee-3e43-4656-bd0f-80559eb25bab","ios":"levelo://app?vid=029ff5ee-3e43-4656-bd0f-80559eb25bab"},"vehicle_type_id":"4","last_reported":1730801405,"current_range_meters":32000,"station_id":"ce4bgup2rcd13ifvqcn0","pricing_plan_id":"cebpf4jnsgd1na2vs0mg"},{"bike_id":"c7d9ce53-2481-4ea3-a073-a01309ade140","system_id":"levelo_inurba_marseille","lat":43.27319,"lon":5.3907,"is_reserved":false,"is_disabled":false,"rental_uris":{"android":"levelo://app?vid=c7d9ce53-2481-4ea3-a073-a01309ade140","ios":"levelo://app?vid=c7d9ce53-2481-4ea3-a073-a01309ade140"},"vehicle_type_id":"4","last_reported":1730801405,"current_range_meters":27200,"station_id":"ce4bhgp2rcd13ifvqfe0","pricing_plan_id":"cebpf4jnsgd1na2vs0mg"},{"bike_id":"6570b412-93b8-4466-ad30-af5dce57660f","system_id":"levelo_inurba_marseille","lat":43.29713,"lon":5.3769,"is_reserved":false,"is_disabled":false,"rental_uris":{"android":"levelo://app?vid=6570b412-93b8-4466-ad30-af5dce57660f","ios":"levelo://app?vid=6570b412-93b8-4466-ad30-af5dce57660f"},"vehicle_type_id":"4","last_reported":1730801405,"current_range_meters":40000,"station_id":"ce4bgkh2rcd13ifvqbl0","pricing_plan_id":"cebpf4jnsgd1na2vs0mg"},{"bike_id":"7be00819-4f80-428e-ae6c-d0dce715c2e7","system_id":"levelo_inurba_marseille","lat":43.30954,"lon":5.39042,"is_reserved":false,"is_disabled":false,"rental_uris":{"android":"levelo://app?vid=7be00819-4f80-428e-ae6c-d0dce715c2e7","ios":"levelo://app?vid=7be00819-4f80-428e-ae6c-d0dce715c2e7"},"vehicle_type_id":"4","last_reported":1730801405,"current_range_meters":20000,"station_id":"ce4bgup2rcd13ifvqco0","pricing_plan_id":"cebpf4jnsgd1na2vs0mg"},{"bike_id":"67530428-f3f0-463d-bf0b-247618325f6b","system_id":"levelo_inurba_marseille","lat":43.26949,"lon":5.38632,"is_reserved":false,"is_disabled":false,"rental_uris":{"android":"levelo://app?vid=67530428-f3f0-463d-bf0b-247618325f6b","ios":"levelo://app?vid=67530428-f3f0-463d-bf0b-247618325f6b"},"vehicle_type_id":"4","last_reported":1730801405,"current_range_meters":8800,"station_id":"ce4bhh92rcd13ifvqfh0","pricing_plan_id":"cebpf4jnsgd1na2vs0mg"},{"bike_id":"0fbc4a3d-1f69-4036-b805-2218f285e490","system_id":"levelo_inurba_marseille","lat":43.24078,"lon":5.37741,"is_reserved":false,"is_disabled":false,"rental_uris":{"android":"levelo://app?vid=0fbc4a3d-1f69-4036-b805-2218f285e490","ios":"levelo://app?vid=0fbc4a3d-1f69-4036-b805-2218f285e490"},"vehicle_type_id":"4","last_reported":1730801405,"current_range_meters":2000,"station_id":"ce4bhnp2rcd13ifvqgvg","pricing_plan_id":"cebpf4jnsgd1na2vs0mg"},{"bike_id":"c864c025-b3b0-4077-aaf8-410eaac1ccba","system_id":"levelo_inurba_marseille","lat":43.29853,"lon":5.36275,"is_reserved":false,"is_disabled":false,"rental_uris":{"android":"levelo://app?vid=c864c025-b3b0-4077-aaf8-410eaac1ccba","ios":"levelo://app?vid=c864c025-b3b0-4077-aaf8-410eaac1ccba"},"vehicle_type_id":"4","last_reported":1730801405,"current_range_meters":16400,"station_id":"ce4bgpp2rcd13ifvqc3g","pricing_plan_id":"cebpf4jnsgd1na2vs0mg"},{"bike_id":"386e8f4e-97a7-4f8b-bed6-4fe2299c5fdf","system_id":"levelo_inurba_marseille","lat":43.30463,"lon":5.37901,"is_reserved":false,"is_disabled":false,"rental_uris":{"android":"levelo://app?vid=386e8f4e-97a7-4f8b-bed6-4fe2299c5fdf","ios":"levelo://app?vid=386e8f4e-97a7-4f8b-bed6-4fe2299c5fdf"},"vehicle_type_id":"4","last_reported":1730801405,"current_range_meters":16400,"station_id":"ce4bgup2rcd13ifvqcn0","pricing_plan_id":"cebpf4jnsgd1na2vs0mg"},{"bike_id":"c8162795-6567-46cf-b768-e5a00f49d71a","system_id":"levelo_inurba_marseille","lat":43.29794,"lon":5.3811,"is_reserved":false,"is_disabled":false,"rental_uris":{"android":"levelo://app?vid=c8162795-6567-46cf-b768-e5a00f49d71a","ios":"levelo://app?vid=c8162795-6567-46cf-b768-e5a00f49d71a"},"vehicle_type_id":"4","last_reported":1730801405,"current_range_meters":32400,"station_id":"ce4bgip2rcd13ifvqbb0","pricing_plan_id":"cebpf4jnsgd1na2vs0mg"},{"bike_id":"0fef86bd-98fb-4900-a3ea-852f52dce060","system_id":"levelo_inurba_marseille","lat":43.30543,"lon":5.36562,"is_reserved":false,"is_disabled":false,"rental_uris":{"android":"levelo://app?vid=0fef86bd-98fb-4900-a3ea-852f52dce060","ios":"levelo://app?vid=0fef86bd-98fb-4900-a3ea-852f52dce060"},"vehicle_type_id":"4","last_reported":1730801405,"current_range_meters":7200,"station_id":"ce4bgs12rcd13ifvqcag","pricing_plan_id":"cebpf4jnsgd1na2vs0mg"},{"bike_id":"dcee63b1-3103-4e66-a0f1-07bab6a41bc6","system_id":"levelo_inurba_marseille","lat":43.27911,"lon":5.39568,"is_reserved":false,"is_disabled":false,"rental_uris":{"android":"levelo://app?vid=dcee63b1-3103-4e66-a0f1-07bab6a41bc6","ios":"levelo://app?vid=dcee63b1-3103-4e66-a0f1-07bab6a41bc6"},"vehicle_type_id":"4","last_reported":1730801405,"current_range_meters":38400,"station_id":"ce4bhf92rcd13ifvqf40","pricing_plan_id":"cebpf4jnsgd1na2vs0mg"},{"bike_id":"b592aa30-9f80-4f5b-a0ff-da2be38dcc1f","system_id":"levelo_inurba_marseille","lat":43.32117,"lon":5.36773,"is_reserved":false,"is_disabled":false,"rental_uris":{"android":"levelo://app?vid=b592aa30-9f80-4f5b-a0ff-da2be38dcc1f","ios":"levelo://app?vid=b592aa30-9f80-4f5b-a0ff-da2be38dcc1f"},"vehicle_type_id":"4","last_reported":1730801405,"current_range_meters":38400,"station_id":"ce4bhrh2rcd13ifvqhug","pricing_plan_id":"cebpf4jnsgd1na2vs0mg"},{"bike_id":"2d0d6434-d99a-4665-a52c-d6f7dad52a8f","system_id":"levelo_inurba_marseille","lat":43.30947,"lon":5.39044,"is_reserved":false,"is_disabled":false,"rental_uris":{"android":"levelo://app?vid=2d0d6434-d99a-4665-a52c-d6f7dad52a8f","ios":"levelo://app?vid=2d0d6434-d99a-4665-a52c-d6f7dad52a8f"},"vehicle_type_id":"4","last_reported":1730801405,"current_range_meters":28800,"station_id":"ce4bgup2rcd13ifvqco0","pricing_plan_id":"cebpf4jnsgd1na2vs0mg"},{"bike_id":"79dc6371-9f69-4ba8-abf4-03c6ad162c4f","system_id":"levelo_inurba_marseille","lat":43.30282,"lon":5.36823,"is_reserved":false,"is_disabled":false,"rental_uris":{"android":"levelo://app?vid=79dc6371-9f69-4ba8-abf4-03c6ad162c4f","ios":"levelo://app?vid=79dc6371-9f69-4ba8-abf4-03c6ad162c4f"},"vehicle_type_id":"4","last_reported":1730801405,"current_range_meters":31200,"station_id":"","pricing_plan_id":"cebpf4jnsgd1na2vs0mg"},{"bike_id":"eab47ed5-f83a-4939-80d1-ff052743bdd1","system_id":"levelo_inurba_marseille","lat":43.32117,"lon":5.36767,"is_reserved":false,"is_disabled":false,"rental_uris":{"android":"levelo://app?vid=eab47ed5-f83a-4939-80d1-ff052743bdd1","ios":"levelo://app?vid=eab47ed5-f83a-4939-80d1-ff052743bdd1"},"vehicle_type_id":"4","last_reported":1730801405,"current_range_meters":31200,"station_id":"ce4bhrh2rcd13ifvqhug","pricing_plan_id":"cebpf4jnsgd1na2vs0mg"},{"bike_id":"1651f37a-dd78-42c3-85bf-9d337044bfda","system_id":"levelo_inurba_marseille","lat":43.30283,"lon":5.37719,"is_reserved":false,"is_disabled":false,"rental_uris":{"android":"levelo://app?vid=1651f37a-dd78-42c3-85bf-9d337044bfda","ios":"levelo://app?vid=1651f37a-dd78-42c3-85bf-9d337044bfda"},"vehicle_type_id":"4","last_reported":1730801405,"current_range_meters":37600,"station_id":"ce4bguh2rcd13ifvqcj0","pricing_plan_id":"cebpf4jnsgd1na2vs0mg"},{"bike_id":"f88e7deb-3757-413b-8276-38cd9dd64b21","system_id":"levelo_inurba_marseille","lat":43.313359,"lon":5.367149,"is_reserved":false,"is_disabled":false,"rental_uris":{"android":"levelo://app?vid=f88e7deb-3757-413b-8276-38cd9dd64b21","ios":"levelo://app?vid=f88e7deb-3757-413b-8276-38cd9dd64b21"},"vehicle_type_id":"4","last_reported":1730801405,"current_range_meters":19200,"station_id":"ce4bgr92rcd13ifvqc6g","pricing_plan_id":"cebpf4jnsgd1na2vs0mg"},{"bike_id":"31db50c2-2307-4ebc-97b5-4be4446fd18c","system_id":"levelo_inurba_marseille","lat":43.26059,"lon":5.39394,"is_reserved":false,"is_disabled":false,"rental_uris":{"android":"levelo://app?vid=31db50c2-2307-4ebc-97b5-4be4446fd18c","ios":"levelo://app?vid=31db50c2-2307-4ebc-97b5-4be4446fd18c"},"vehicle_type_id":"4","last_reported":1730801405,"current_range_meters":38800,"station_id":"ce4bhh92rcd13ifvqfj0","pricing_plan_id":"cebpf4jnsgd1na2vs0mg"},{"bike_id":"8cca8b48-2ec9-4e72-ba50-916cb77d27e2","system_id":"levelo_inurba_marseille","lat":43.34144,"lon":5.40898,"is_reserved":false,"is_disabled":false,"rental_uris":{"android":"levelo://app?vid=8cca8b48-2ec9-4e72-ba50-916cb77d27e2","ios":"levelo://app?vid=8cca8b48-2ec9-4e72-ba50-916cb77d27e2"},"vehicle_type_id":"4","last_reported":1730801405,"current_range_meters":8800,"station_id":"ce4bhqh2rcd13ifvqhlg","pricing_plan_id":"cebpf4jnsgd1na2vs0mg"},{"bike_id":"0dd1d622-4760-44e9-a9ed-3bfd4e99bf22","system_id":"levelo_inurba_marseille","lat":43.30915,"lon":5.36848,"is_reserved":false,"is_disabled":false,"rental_uris":{"android":"levelo://app?vid=0dd1d622-4760-44e9-a9ed-3bfd4e99bf22","ios":"levelo://app?vid=0dd1d622-4760-44e9-a9ed-3bfd4e99bf22"},"vehicle_type_id":"4","last_reported":1730801405,"current_range_meters":32800,"station_id":"ce4bgn92rcd13ifvqbvg","pricing_plan_id":"cebpf4jnsgd1na2vs0mg"},{"bike_id":"d7798a4a-7e24-4f13-abf6-c911fb931448","system_id":"levelo_inurba_marseille","lat":43.3414,"lon":5.40908,"is_reserved":false,"is_disabled":false,"rental_uris":{"android":"levelo://app?vid=d7798a4a-7e24-4f13-abf6-c911fb931448","ios":"levelo://app?vid=d7798a4a-7e24-4f13-abf6-c911fb931448"},"vehicle_type_id":"4","last_reported":1730801405,"current_range_meters":29600,"station_id":"ce4bhqh2rcd13ifvqhlg","pricing_plan_id":"cebpf4jnsgd1na2vs0mg"},{"bike_id":"de7fa6e2-fa28-45bf-9532-4d20a4c4af14","system_id":"levelo_inurba_marseille","lat":43.2827,"lon":5.35061,"is_reserved":false,"is_disabled":false,"rental_uris":{"android":"levelo://app?vid=de7fa6e2-fa28-45bf-9532-4d20a4c4af14","ios":"levelo://app?vid=de7fa6e2-fa28-45bf-9532-4d20a4c4af14"},"vehicle_type_id":"4","last_reported":1730801405,"current_range_meters":38800,"station_id":"ce4bhbp2rcd13ifvqerg","pricing_plan_id":"cebpf4jnsgd1na2vs0mg"},{"bike_id":"ea43565c-4dbb-442a-ac20-b496c2733246","system_id":"levelo_inurba_marseille","lat":43.29926,"lon":5.36533,"is_reserved":false,"is_disabled":false,"rental_uris":{"android":"levelo://app?vid=ea43565c-4dbb-442a-ac20-b496c2733246","ios":"levelo://app?vid=ea43565c-4dbb-442a-ac20-b496c2733246"},"vehicle_type_id":"4","last_reported":1730801405,"current_range_meters":15200,"station_id":"ce4bgm92rcd13ifvqbr0","pricing_plan_id":"cebpf4jnsgd1na2vs0mg"},{"bike_id":"85d45bf7-37e4-4e88-952f-cd0c86ed3ea5","system_id":"levelo_inurba_marseille","lat":43.24174,"lon":5.39725,"is_reserved":false,"is_disabled":false,"rental_uris":{"android":"levelo://app?vid=85d45bf7-37e4-4e88-952f-cd0c86ed3ea5","ios":"levelo://app?vid=85d45bf7-37e4-4e88-952f-cd0c86ed3ea5"},"vehicle_type_id":"4","last_reported":1730801405,"current_range_meters":25200,"station_id":"ce4bhn12rcd13ifvqgpg","pricing_plan_id":"cebpf4jnsgd1na2vs0mg"},{"bike_id":"7682d053-f816-4a9b-a5d5-70490a2875fc","system_id":"levelo_inurba_marseille","lat":43.26951,"lon":5.38621,"is_reserved":false,"is_disabled":false,"rental_uris":{"android":"levelo://app?vid=7682d053-f816-4a9b-a5d5-70490a2875fc","ios":"levelo://app?vid=7682d053-f816-4a9b-a5d5-70490a2875fc"},"vehicle_type_id":"4","last_reported":1730801405,"current_range_meters":36800,"station_id":"ce4bhh92rcd13ifvqfh0","pricing_plan_id":"cebpf4jnsgd1na2vs0mg"},{"bike_id":"260fa75a-01a4-4465-ba93-2899bc76795b","system_id":"levelo_inurba_marseille","lat":43.27072,"lon":5.4228,"is_reserved":false,"is_disabled":false,"rental_uris":{"android":"levelo://app?vid=260fa75a-01a4-4465-ba93-2899bc76795b","ios":"levelo://app?vid=260fa75a-01a4-4465-ba93-2899bc76795b"},"vehicle_type_id":"4","last_reported":1730801405,"current_range_meters":16800,"station_id":"ce4bhk92rcd13ifvqgb0","pricing_plan_id":"cebpf4jnsgd1na2vs0mg"},{"bike_id":"3560c5ce-d02f-4630-8b3a-5ae2ad7fb9b3","system_id":"levelo_inurba_marseille","lat":43.24073,"lon":5.37761,"is_reserved":false,"is_disabled":false,"rental_uris":{"android":"levelo://app?vid=3560c5ce-d02f-4630-8b3a-5ae2ad7fb9b3","ios":"levelo://app?vid=3560c5ce-d02f-4630-8b3a-5ae2ad7fb9b3"},"vehicle_type_id":"4","last_reported":1730801405,"current_range_meters":25200,"station_id":"ce4bhnp2rcd13ifvqgvg","pricing_plan_id":"cebpf4jnsgd1na2vs0mg"},{"bike_id":"2b7c7838-0b38-48ff-a34b-04cd5d917cba","system_id":"levelo_inurba_marseille","lat":43.29583,"lon":5.36738,"is_reserved":false,"is_disabled":false,"rental_uris":{"android":"levelo://app?vid=2b7c7838-0b38-48ff-a34b-04cd5d917cba","ios":"levelo://app?vid=2b7c7838-0b38-48ff-a34b-04cd5d917cba"},"vehicle_type_id":"4","last_reported":1730801405,"current_range_meters":20800,"station_id":"ce4bgph2rcd13ifvqc2g","pricing_plan_id":"cebpf4jnsgd1na2vs0mg"},{"bike_id":"f605cfa1-16bb-45b0-9f38-3b83d0d5059b","system_id":"levelo_inurba_marseille","lat":43.27484,"lon":5.42461,"is_reserved":false,"is_disabled":false,"rental_uris":{"android":"levelo://app?vid=f605cfa1-16bb-45b0-9f38-3b83d0d5059b","ios":"levelo://app?vid=f605cfa1-16bb-45b0-9f38-3b83d0d5059b"},"vehicle_type_id":"4","last_reported":1730801405,"current_range_meters":37600,"station_id":"ce4bhn92rcd13ifvqgrg","pricing_plan_id":"cebpf4jnsgd1na2vs0mg"},{"bike_id":"423d5629-60ea-46cc-8398-d31d7c9a3239","system_id":"levelo_inurba_marseille","lat":43.23962,"lon":5.36614,"is_reserved":false,"is_disabled":false,"rental_uris":{"android":"levelo://app?vid=423d5629-60ea-46cc-8398-d31d7c9a3239","ios":"levelo://app?vid=423d5629-60ea-46cc-8398-d31d7c9a3239"},"vehicle_type_id":"4","last_reported":1730801405,"current_range_meters":9600,"station_id":"ce4bhi12rcd13ifvqfp0","pricing_plan_id":"cebpf4jnsgd1na2vs0mg"},{"bike_id":"f426e44f-877a-44af-a239-b1f2458bea5e","system_id":"levelo_inurba_marseille","lat":43.28941,"lon":5.3963,"is_reserved":false,"is_disabled":false,"rental_uris":{"android":"levelo://app?vid=f426e44f-877a-44af-a239-b1f2458bea5e","ios":"levelo://app?vid=f426e44f-877a-44af-a239-b1f2458bea5e"},"vehicle_type_id":"4","last_reported":1730801405,"current_range_meters":22800,"station_id":"ce4bh3h2rcd13ifvqdn0","pricing_plan_id":"cebpf4jnsgd1na2vs0mg"},{"bike_id":"9299d562-1b8b-40ff-89cd-a9d1f20d46f8","system_id":"levelo_inurba_marseille","lat":43.28036,"lon":5.36934,"is_reserved":false,"is_disabled":false,"rental_uris":{"android":"levelo://app?vid=9299d562-1b8b-40ff-89cd-a9d1f20d46f8","ios":"levelo://app?vid=9299d562-1b8b-40ff-89cd-a9d1f20d46f8"},"vehicle_type_id":"4","last_reported":1730801405,"current_range_meters":28000,"station_id":"ce4bha12rcd13ifvqef0","pricing_plan_id":"cebpf4jnsgd1na2vs0mg"},{"bike_id":"db31db70-cc20-4b5f-acb8-538f14a09b27","system_id":"levelo_inurba_marseille","lat":43.23187,"lon":5.39983,"is_reserved":false,"is_disabled":false,"rental_uris":{"android":"levelo://app?vid=db31db70-cc20-4b5f-acb8-538f14a09b27","ios":"levelo://app?vid=db31db70-cc20-4b5f-acb8-538f14a09b27"},"vehicle_type_id":"4","last_reported":1730801405,"current_range_meters":36400,"station_id":"ce4bhn12rcd13ifvqgqg","pricing_plan_id":"cebpf4jnsgd1na2vs0mg"},{"bike_id":"9d5bc649-ffc6-4d50-a55b-829257b6fed3","system_id":"levelo_inurba_marseille","lat":43.24548,"lon":5.39522,"is_reserved":false,"is_disabled":false,"rental_uris":{"android":"levelo://app?vid=9d5bc649-ffc6-4d50-a55b-829257b6fed3","ios":"levelo://app?vid=9d5bc649-ffc6-4d50-a55b-829257b6fed3"},"vehicle_type_id":"4","last_reported":1730801405,"current_range_meters":38800,"station_id":"ce4bhlp2rcd13ifvqgjg","pricing_plan_id":"cebpf4jnsgd1na2vs0mg"},{"bike_id":"05263202-86e8-43c5-893e-e51be5c53f33","system_id":"levelo_inurba_marseille","lat":43.27837,"lon":5.39221,"is_reserved":false,"is_disabled":false,"rental_uris":{"android":"levelo://app?vid=05263202-86e8-43c5-893e-e51be5c53f33","ios":"levelo://app?vid=05263202-86e8-43c5-893e-e51be5c53f33"},"vehicle_type_id":"4","last_reported":1730801405,"current_range_meters":37600,"station_id":"ce4bhjp2rcd13ifvqga0","pricing_plan_id":"cebpf4jnsgd1na2vs0mg"},{"bike_id":"99205f74-3323-4998-8fb1-809072c68045","system_id":"levelo_inurba_marseille","lat":43.29859,"lon":5.39734,"is_reserved":false,"is_disabled":false,"rental_uris":{"android":"levelo://app?vid=99205f74-3323-4998-8fb1-809072c68045","ios":"levelo://app?vid=99205f74-3323-4998-8fb1-809072c68045"},"vehicle_type_id":"4","last_reported":1730801405,"current_range_meters":20800,"station_id":"ce4bh0h2rcd13ifvqd50","pricing_plan_id":"cebpf4jnsgd1na2vs0mg"},{"bike_id":"a37aab81-9bc2-4f5b-a409-cb2df43e21ca","system_id":"levelo_inurba_marseille","lat":43.29867,"lon":5.39727,"is_reserved":false,"is_disabled":false,"rental_uris":{"android":"levelo://app?vid=a37aab81-9bc2-4f5b-a409-cb2df43e21ca","ios":"levelo://app?vid=a37aab81-9bc2-4f5b-a409-cb2df43e21ca"},"vehicle_type_id":"4","last_reported":1730801405,"current_range_meters":8800,"station_id":"ce4bh0h2rcd13ifvqd50","pricing_plan_id":"cebpf4jnsgd1na2vs0mg"},{"bike_id":"cf6df2de-822d-4e4e-b602-cdb87f02952e","system_id":"levelo_inurba_marseille","lat":43.31344,"lon":5.36709,"is_reserved":false,"is_disabled":false,"rental_uris":{"android":"levelo://app?vid=cf6df2de-822d-4e4e-b602-cdb87f02952e","ios":"levelo://app?vid=cf6df2de-822d-4e4e-b602-cdb87f02952e"},"vehicle_type_id":"4","last_reported":1730801405,"current_range_meters":30400,"station_id":"ce4bgr92rcd13ifvqc6g","pricing_plan_id":"cebpf4jnsgd1na2vs0mg"},{"bike_id":"936de00c-7fbf-4ccc-b481-d56152b0c55c","system_id":"levelo_inurba_marseille","lat":43.2992,"lon":5.37455,"is_reserved":false,"is_disabled":false,"rental_uris":{"android":"levelo://app?vid=936de00c-7fbf-4ccc-b481-d56152b0c55c","ios":"levelo://app?vid=936de00c-7fbf-4ccc-b481-d56152b0c55c"},"vehicle_type_id":"4","last_reported":1730801405,"current_range_meters":36800,"station_id":"ce4bgjh2rcd13ifvqbg0","pricing_plan_id":"cebpf4jnsgd1na2vs0mg"},