{"last_updated":1734088080,"ttl":60,"version":"2.2","data":{"bikes":[{"bike_id":"3e5d99b9-1aaf-48b9-b5fb-fb7a0b5b1ba5","system_id":"levelo_inurba_marseille","lat":43.29035,"lon":5.3916,"is_reserved":false,"is_disabled":true,"rental_uris":{"android":"levelo://app?vid=3e5d99b9-1aaf-48b9-b5fb-fb7a0b5b1ba5","ios":"levelo://app?vid=3e5d99b9-1aaf-48b9-b5fb-fb7a0b5b1ba5"},"vehicle_type_id":"4","last_reported":1734088080,"current_range_meters":0,"station_id":"","pricing_plan_id":"cebpf4jnsgd1na2vs0mg"},{"bike_id":"32012652-5e48-4a8c-ac37-2e6b69c10270","system_id":"levelo_inurba_marseille","lat":43.28417,"lon":5.34975,"is_reserved":false,"is_disabled":false,"rental_uris":{"android":"levelo://app?vid=32012652-5e48-4a8c-ac37-2e6b69c10270","ios":"levelo://app?vid=32012652-5e48-4a8c-ac37-2e6b69c10270"},"vehicle_type_id":"4","last_reported":1734088080,"current_range_meters":24800,"station_id":"ce4bhbh2rcd13ifvqepg","pricing_plan_id":"cebpf4jnsgd1na2vs0mg"},{"bike_id":"68a5e283-83da-4da3-a08f-76abd1202548","system_id":"levelo_inurba_marseille","lat":43.31217,"lon":5.36894,"is_reserved":false,"is_disabled":false,"rental_uris":{"android":"levelo://app?vid=68a5e283-83da-4da3-a08f-76abd1202548","ios":"levelo://app?vid=68a5e283-83da-4da3-a08f-76abd1202548"},"vehicle_type_id":"4","last_reported":1734088080,"current_range_meters":38800,"station_id":"ce4bgl92rcd13ifvqbq0","pricing_plan_id":"cebpf4jnsgd1na2vs0mg"},{"bike_id":"66d7c108-bd5d-4432-968e-1a040027252f","system_id":"levelo_inurba_marseille","lat":43.29006,"lon":5.35615,"is_reserved":false,"is_disabled":false,"rental_uris":{"android":"levelo://app?vid=66d7c108-bd5d-4432-968e-1a040027252f","ios":"levelo://app?vid=66d7c108-bd5d-4432-968e-1a040027252f"},"vehicle_type_id":"4","last_reported":1734088080,"current_range_meters":37600,"station_id":"ce4bhb92rcd13ifvqen0","pricing_plan_id":"cebpf4jnsgd1na2vs0mg"},{"bike_id":"72fe140c-8069-42b9-9079-53c877e1eaa4","system_id":"levelo_inurba_marseille","lat":43.26552,"lon":5.37288,"is_reserved":false,"is_disabled":false,"rental_uris":{"android":"levelo://app?vid=72fe140c-8069-42b9-9079-53c877e1eaa4","ios":"levelo://app?vid=72fe140c-8069-42b9-9079-53c877e1eaa4"},"vehicle_type_id":"4","last_reported":1734088080,"current_range_meters":14000,"station_id":"ce4bhg12rcd13ifvqf70","pricing_plan_id":"cebpf4jnsgd1na2vs0mg"},{"bike_id":"f0d672bd-b7de-48da-b0d8-04f6e97348cb","system_id":"levelo_inurba_marseille","lat":43.27943,"lon":5.41048,"is_reserved":false,"is_disabled":false,"rental_uris":{"android":"levelo://app?vid=f0d672bd-b7de-48da-b0d8-04f6e97348cb","ios":"levelo://app?vid=f0d672bd-b7de-48da-b0d8-04f6e97348cb"},"vehicle_type_id":"4","last_reported":1734088080,"current_range_meters":16400,"station_id":"ce4bhnp2rcd13ifvqh0g","pricing_plan_id":"cebpf4jnsgd1na2vs0mg"},{"bike_id":"9d513f93-118a-4268-bd5e-30eba98d10bc","system_id":"levelo_inurba_marseille","lat":43.30137,"lon":5.38099,"is_reserved":false,"is_disabled":false,"rental_uris":{"android":"levelo://app?vid=9d513f93-118a-4268-bd5e-30eba98d10bc","ios":"levelo://app?vid=9d513f93-118a-4268-bd5e-30eba98d10bc"},"vehicle_type_id":"4","last_reported":1734088080,"current_range_meters":39200,"station_id":"ce4bgjp2rcd13ifvqbh0","pricing_plan_id":"cebpf4jnsgd1na2vs0mg"},{"bike_id":"9f1537c0-07d7-4795-8bbb-2225d8ee6116","system_id":"levelo_inurba_marseille","lat":43.337444,"lon":5.374475,"is_reserved":false,"is_disabled":false,"rental_uris":{"android":"levelo://app?vid=9f1537c0-07d7-4795-8bbb-2225d8ee6116","ios":"levelo://app?vid=9f1537c0-07d7-4795-8bbb-2225d8ee6116"},"vehicle_type_id":"4","last_reported":1734088080,"current_range_meters":38800,"station_id":"ce4bh492rcd13ifvqdug","pricing_plan_id":"cebpf4jnsgd1na2vs0mg"},{"bike_id":"9134c73e-9e11-4d12-9fc2-d4a26311dab8","system_id":"levelo_inurba_marseille","lat":43.26198,"lon":5.37927,"is_reserved":false,"is_disabled":false,"rental_uris":{"android":"levelo://app?vid=9134c73e-9e11-4d12-9fc2-d4a26311dab8","ios":"levelo://app?vid=9134c73e-9e11-4d12-9fc2-d4a26311dab8"},"vehicle_type_id":"4","last_reported":1734088080,"current_range_meters":34800,"station_id":"ce4bhjp2rcd13ifvqg90","pricing_plan_id":"cebpf4jnsgd1na2vs0mg"},{"bike_id":"f53a51f1-6db0-4716-9c45-7ac4c7fcd208","system_id":"levelo_inurba_marseille","lat":43.3227,"lon":5.3827,"is_reserved":false,"is_disabled":false,"rental_uris":{"android":"levelo://app?vid=f53a51f1-6db0-4716-9c45-7ac4c7fcd208","ios":"levelo://app?vid=f53a51f1-6db0-4716-9c45-7ac4c7fcd208"},"vehicle_type_id":"4","last_reported":1734088080,"current_range_meters":36400,"station_id":"ce4bhr12rcd13ifvqhqg","pricing_plan_id":"cebpf4jnsgd1na2vs0mg"},{"bike_id":"980f96eb-32c9-4906-98f6-c44dbf4c84a1","system_id":"levelo_inurba_marseille","lat":43.27455,"lon":5.40073,"is_reserved":false,"is_disabled":true,"rental_uris":{"android":"levelo://app?vid=980f96eb-32c9-4906-98f6-c44dbf4c84a1","ios":"levelo://app?vid=980f96eb-32c9-4906-98f6-c44dbf4c84a1"},"vehicle_type_id":"4","last_reported":1734088080,"current_range_meters":0,"station_id":"","pricing_plan_id":"cebpf4jnsgd1na2vs0mg"},{"bike_id":"2fc0bcc3-2025-431a-bd17-8a1337c9033b","system_id":"levelo_inurba_marseille","lat":43.30097,"lon":5.39074,"is_reserved":false,"is_disabled":false,"rental_uris":{"android":"levelo://app?vid=2fc0bcc3-2025-431a-bd17-8a1337c9033b","ios":"levelo://app?vid=2fc0bcc3-2025-431a-bd17-8a1337c9033b"},"vehicle_type_id":"4","last_reported":1734088080,"current_range_meters":27200,"station_id":"ce4bh192rcd13ifvqdb0","pricing_plan_id":"cebpf4jnsgd1na2vs0mg"},{"bike_id":"8eb40f25-fc14-4288-9dd7-aae13b0a9b04","system_id":"levelo_inurba_marseille","lat":43.26934,"lon":5.4029,"is_reserved":false,"is_disabled":false,"rental_uris":{"android":"levelo://app?vid=8eb40f25-fc14-4288-9dd7-aae13b0a9b04","ios":"levelo://app?vid=8eb40f25-fc14-4288-9dd7-aae13b0a9b04"},"vehicle_type_id":"4","last_reported":1734088080,"current_range_meters":30000,"station_id":"cjm6bp8fraef2m0cb0m0","pricing_plan_id":"cebpf4jnsgd1na2vs0mg"},{"bike_id":"32cf16f4-9a39-47cc-b122-aade4b67d5ee","system_id":"levelo_inurba_marseille","lat":43.34139,"lon":5.40923,"is_reserved":false,"is_disabled":false,"rental_uris":{"android":"levelo://app?vid=32cf16f4-9a39-47cc-b122-aade4b67d5ee","ios":"levelo://app?vid=32cf16f4-9a39-47cc-b122-aade4b67d5ee"},"vehicle_type_id":"4","last_reported":1734088080,"current_range_meters":36800,"station_id":"ce4bhqh2rcd13ifvqhlg","pricing_plan_id":"cebpf4jnsgd1na2vs0mg"},{"bike_id":"44fb5f0a-2ae4-4d74-aec6-24e498791295","system_id":"levelo_inurba_marseille","lat":43.25498,"lon":5.37653,"is_reserved":false,"is_disabled":false,"rental_uris":{"android":"levelo://app?vid=44fb5f0a-2ae4-4d74-aec6-24e498791295","ios":"levelo://app?vid=44fb5f0a-2ae4-4d74-aec6-24e498791295"},"vehicle_type_id":"4","last_reported":1734088080,"current_range_meters":38800,"station_id":"ce4bhh12rcd13ifvqff0","pricing_plan_id":"cebpf4jnsgd1na2vs0mg"},{"bike_id":"ee633bd0-40f5-46a9-aaab-947219add634","system_id":"levelo_inurba_marseille","lat":43.2919,"lon":5.35794,"is_reserved":false,"is_disabled":true,"rental_uris":{"android":"levelo://app?vid=ee633bd0-40f5-46a9-aaab-947219add634","ios":"levelo://app?vid=ee633bd0-40f5-46a9-aaab-947219add634"},"vehicle_type_id":"4","last_reported":1734088080,"current_range_meters":30400,"station_id":"ce4bhb12rcd13ifvqel0","pricing_plan_id":"cebpf4jnsgd1na2vs0mg"},{"bike_id":"1a248e21-fb16-4d2e-8ca0-7887ec96d314","system_id":"levelo_inurba_marseille","lat":43.26934,"lon":5.38913,"is_reserved":false,"is_disabled":false,"rental_uris":{"android":"levelo://app?vid=1a248e21-fb16-4d2e-8ca0-7887ec96d314","ios":"levelo://app?vid=1a248e21-fb16-4d2e-8ca0-7887ec96d314"},"vehicle_type_id":"4","last_reported":1734088080,"current_range_meters":28400,"station_id":"ce4bhhh2rcd13ifvqfl0","pricing_plan_id":"cebpf4jnsgd1na2vs0mg"},{"bike_id":"506ab972-ac84-46b6-90f5-267f1345b92d","system_id":"levelo_inurba_marseille","lat":43.27062,"lon":5.40268,"is_reserved":false,"is_disabled":false,"rental_uris":{"android":"levelo://app?vid=506ab972-ac84-46b6-90f5-267f1345b92d","ios":"levelo://app?vid=506ab972-ac84-46b6-90f5-267f1345b92d"},"vehicle_type_id":"4","last_reported":1734088080,"current_range_meters":32000,"station_id":"ce4bhk92rcd13ifvqgc0","pricing_plan_id":"cebpf4jnsgd1na2vs0mg"},{"bike_id":"fe87f8f2-6e97-4611-93da-1318a830eb3c","system_id":"levelo_inurba_marseille","lat":43.27992,"lon":5.41662,"is_reserved":false,"is_disabled":true,"rental_uris":{"android":"levelo://app?vid=fe87f8f2-6e97-4611-93da-1318a830eb3c","ios":"levelo://app?vid=fe87f8f2-6e97-4611-93da-1318a830eb3c"},"vehicle_type_id":"4","last_reported":1734088080,"current_range_meters":37600,"station_id":"ce4bho12rcd13ifvqh1g","pricing_plan_id":"cebpf4jnsgd1na2vs0mg"},{"bike_id":"68341feb-c70b-4c28-91d5-1c7269ec3b3a","system_id":"levelo_inurba_marseille","lat":43.29607,"lon":5.37712,"is_reserved":false,"is_disabled":false,"rental_uris":{"android":"levelo://app?vid=68341feb-c70b-4c28-91d5-1c7269ec3b3a","ios":"levelo://app?vid=68341feb-c70b-4c28-91d5-1c7269ec3b3a"},"vehicle_type_id":"4","last_reported":1734088080,"current_range_meters":38800,"station_id":"ce4bgi92rcd13ifvqb90","pricing_plan_id":"cebpf4jnsgd1na2vs0mg"},{"bike_id":"a830854d-85a5-4d22-8e8f-1bf3eb4beebf","system_id":"levelo_inurba_marseille","lat":43.30506,"lon":5.36552,"is_reserved":false,"is_disabled":false,"rental_uris":{"android":"levelo://app?vid=a830854d-85a5-4d22-8e8f-1bf3eb4beebf","ios":"levelo://app?vid=a830854d-85a5-4d22-8e8f-1bf3eb4beebf"},"vehicle_type_id":"4","last_reported":1734088080,"current_range_meters":37600,"station_id":"ce4bgs12rcd13ifvqcag","pricing_plan_id":"cebpf4jnsgd1na2vs0mg"},{"bike_id":"122ef8ea-854e-4f5b-a311-db456c866df0","system_id":"levelo_inurba_marseille","lat":43.28695,"lon":5.39991,"is_reserved":false,"is_disabled":false,"rental_uris":{"android":"levelo://app?vid=122ef8ea-854e-4f5b-a311-db456c866df0","ios":"levelo://app?vid=122ef8ea-854e-4f5b-a311-db456c866df0"},"vehicle_type_id":"4","last_reported":1734088080,"current_range_meters":4000,"station_id":"ce4bho92rcd13ifvqh3g","pricing_plan_id":"cebpf4jnsgd1na2vs0mg"},{"bike_id":"2757863f-4be8-42ad-bf70-1e54a617ce3d","system_id":"levelo_inurba_marseille","lat":43.29548,"lon":5.42284,"is_reserved":false,"is_disabled":true,"rental_uris":{"android":"levelo://app?vid=2757863f-4be8-42ad-bf70-1e54a617ce3d","ios":"levelo://app?vid=2757863f-4be8-42ad-bf70-1e54a617ce3d"},"vehicle_type_id":"4","last_reported":1734088080,"current_range_meters":3200,"station_id":"ce4bhph2rcd13ifvqhdg","pricing_plan_id":"cebpf4jnsgd1na2vs0mg"},{"bike_id":"41e78fe5-4d91-4a8c-9f18-8440028ea58e","system_id":"levelo_inurba_marseille","lat":43.2922,"lon":5.36075,"is_reserved":false,"is_disabled":false,"rental_uris":{"android":"levelo://app?vid=41e78fe5-4d91-4a8c-9f18-8440028ea58e","ios":"levelo://app?vid=41e78fe5-4d91-4a8c-9f18-8440028ea58e"},"vehicle_type_id":"4","last_reported":1734088080,"current_range_meters":28400,"station_id":"ce4bhbh2rcd13ifvqeqg","pricing_plan_id":"cebpf4jnsgd1na2vs0mg"},{"bike_id":"d5c89c1f-3bad-4af2-9449-e04c277a4696","system_id":"levelo_inurba_marseille","lat":43.29963,"lon":5.41341,"is_reserved":false,"is_disabled":true,"rental_uris":{"android":"levelo://app?vid=d5c89c1f-3bad-4af2-9449-e04c277a4696","ios":"levelo://app?vid=d5c89c1f-3bad-4af2-9449-e04c277a4696"},"vehicle_type_id":"4","last_reported":1734088080,"current_range_meters":34800,"station_id":"ce4bhp12rcd13ifvqh9g","pricing_plan_id":"cebpf4jnsgd1na2vs0mg"},{"bike_id":"07513f7f-4ef0-4b60-a78e-a5f2a9b9009d","system_id":"levelo_inurba_marseille","lat":43.291,"lon":5.38155,"is_reserved":false,"is_disabled":false,"rental_uris":{"android":"levelo://app?vid=07513f7f-4ef0-4b60-a78e-a5f2a9b9009d","ios":"levelo://app?vid=07513f7f-4ef0-4b60-a78e-a5f2a9b9009d"},"vehicle_type_id":"4","last_reported":1734088080,"current_range_meters":36400,"station_id":"ce4bh512rcd13ifvqe2g","pricing_plan_id":"cebpf4jnsgd1na2vs0mg"},{"bike_id":"c4c2d57e-0041-4441-af5b-4e76fecd4711","system_id":"levelo_inurba_marseille","lat":43.24102,"lon":5.37758,"is_reserved":false,"is_disabled":false,"rental_uris":{"android":"levelo://app?vid=c4c2d57e-0041-4441-af5b-4e76fecd4711","ios":"levelo://app?vid=c4c2d57e-0041-4441-af5b-4e76fecd4711"},"vehicle_type_id":"4","last_reported":1734088080,"current_range_meters":14000,"station_id":"ce4bhnp2rcd13ifvqgvg","pricing_plan_id":"cebpf4jnsgd1na2vs0mg"},{"bike_id":"44dea3bd-4411-41f6-b1ef-f066d537c0bd","system_id":"levelo_inurba_marseille","lat":43.23963,"lon":5.36637,"is_reserved":false,"is_disabled":false,"rental_uris":{"android":"levelo://app?vid=44dea3bd-4411-41f6-b1ef-f066d537c0bd","ios":"levelo://app?vid=44dea3bd-4411-41f6-b1ef-f066d537c0bd"},"vehicle_type_id":"4","last_reported":1734088080,"current_range_meters":38800,"station_id":"ce4bhi12rcd13ifvqfp0","pricing_plan_id":"cebpf4jnsgd1na2vs0mg"},{"bike_id":"38eb172d-a077-4ca7-9a48-d1565bc55b20","system_id":"levelo_inurba_marseille","lat":43.32286,"lon":5.38265,"is_reserved":false,"is_disabled":false,"rental_uris":{"android":"levelo://app?vid=38eb172d-a077-4ca7-9a48-d1565bc55b20","ios":"levelo://app?vid=38eb172d-a077-4ca7-9a48-d1565bc55b20"},"vehicle_type_id":"4","last_reported":1734088080,"current_range_meters":37600,"station_id":"ce4bhr12rcd13ifvqhqg","pricing_plan_id":"cebpf4jnsgd1na2vs0mg"},{"bike_id":"23b203e2-b068-4fc8-9a12-e11cba490e91","system_id":"levelo_inurba_marseille","lat":43.25581,"lon":5.38233,"is_reserved":false,"is_disabled":false,"rental_uris":{"android":"levelo://app?vid=23b203e2-b068-4fc8-9a12-e11cba490e91","ios":"levelo://app?vid=23b203e2-b068-4fc8-9a12-e11cba490e91"},"vehicle_type_id":"4","last_reported":1734088080,"current_range_meters":37600,"station_id":"ce4bhih2rcd13ifvqfs0","pricing_plan_id":"cebpf4jnsgd1na2vs0mg"},{"bike_id":"516bcbce-8b75-4610-9ee5-df08b7034853","system_id":"levelo_inurba_marseille","lat":43.26796,"lon":5.39463,"is_reserved":false,"is_disabled":false,"rental_uris":{"android":"levelo://app?vid=516bcbce-8b75-4610-9ee5-df08b7034853","ios":"levelo://app?vid=516bcbce-8b75-4610-9ee5-df08b7034853"},"vehicle_type_id":"4","last_reported":1734088080,"current_range_meters":37600,"station_id":"ce4bhh12rcd13ifvqfg0","pricing_plan_id":"cebpf4jnsgd1na2vs0mg"},{"bike_id":"94e1f871-2269-4dc0-b678-810d929953a4","system_id":"levelo_inurba_marseille","lat":43.26557,"lon":5.3729,"is_reserved":false,"is_disabled":false,"rental_uris":{"android":"levelo://app?vid=94e1f871-2269-4dc0-b678-810d929953a4","ios":"levelo://app?vid=94e1f871-2269-4dc0-b678-810d929953a4"},"vehicle_type_id":"4","last_reported":1734088080,"current_range_meters":30000,"station_id":"ce4bhg12rcd13ifvqf70","pricing_plan_id":"cebpf4jnsgd1na2vs0mg"},{"bike_id":"3a56946e-b571-4f0a-89c3-228266a44430","system_id":"levelo_inurba_marseille","lat":43.26597,"lon":5.38971,"is_reserved":false,"is_disabled":true,"rental_uris":{"android":"levelo://app?vid=3a56946e-b571-4f0a-89c3-228266a44430","ios":"levelo://app?vid=3a56946e-b571-4f0a-89c3-228266a44430"},"vehicle_type_id":"4","last_reported":1734088080,"current_range_meters":0,"station_id":"","pricing_plan_id":"cebpf4jnsgd1na2vs0mg"},{"bike_id":"495986c7-e02a-4c20-a1dc-c3edae2c8c07","system_id":"levelo_inurba_marseille","lat":43.30539,"lon":5.36702,"is_reserved":false,"is_disabled":false,"rental_uris":{"android":"levelo://app?vid=495986c7-e02a-4c20-a1dc-c3edae2c8c07","ios":"levelo://app?vid=495986c7-e02a-4c20-a1dc-c3edae2c8c07"},"vehicle_type_id":"4","last_reported":1734088080,"current_range_meters":31200,"station_id":"ce4bgrp2rcd13ifvqc9g","pricing_plan_id":"cebpf4jnsgd1na2vs0mg"},{"bike_id":"3579cd3c-5694-48a6-92ce-95bfe5890d10","system_id":"levelo_inurba_marseille","lat":43.2794,"lon":5.41046,"is_reserved":false,"is_disabled":false,"rental_uris":{"android":"levelo://app?vid=3579cd3c-5694-48a6-92ce-95bfe5890d10","ios":"levelo://app?vid=3579cd3c-5694-48a6-92ce-95bfe5890d10"},"vehicle_type_id":"4","last_reported":1734088080,"current_range_meters":38800,"station_id":"ce4bhnp2rcd13ifvqh0g","pricing_plan_id":"cebpf4jnsgd1na2vs0mg"},{"bike_id":"edaea664-24e0-4d6c-aa7a-497f5c5f88f6","system_id":"levelo_inurba_marseille","lat":43.27013,"lon":5.39151,"is_reserved":false,"is_disabled":true,"rental_uris":{"android":"levelo://app?vid=edaea664-24e0-4d6c-aa7a-497f5c5f88f6","ios":"levelo://app?vid=edaea664-24e0-4d6c-aa7a-497f5c5f88f6"},"vehicle_type_id":"4","last_reported":1734088080,"current_range_meters":0,"station_id":"","pricing_plan_id":"cebpf4jnsgd1na2vs0mg"},{"bike_id":"e3f87214-e79a-460e-b324-ceed85381c34","system_id":"levelo_inurba_marseille","lat":43.33636,"lon":5.40922,"is_reserved":false,"is_disabled":false,"rental_uris":{"android":"levelo://app?vid=e3f87214-e79a-460e-b324-ceed85381c34","ios":"levelo://app?vid=e3f87214-e79a-460e-b324-ceed85381c34"},"vehicle_type_id":"4","last_reported":1734088080,"current_range_meters":38800,"station_id":"","pricing_plan_id":"cebpf4jnsgd1na2vs0mg"},{"bike_id":"a0e7baff-ae90-454a-b1e9-339a83461670","system_id":"levelo_inurba_marseille","lat":43.29965,"lon":5.385,"is_reserved":false,"is_disabled":false,"rental_uris":{"android":"levelo://app?vid=a0e7baff-ae90-454a-b1e9-339a83461670","ios":"levelo://app?vid=a0e7baff-ae90-454a-b1e9-339a83461670"},"vehicle_type_id":"4","last_reported":1734088080,"current_range_meters":19200,"station_id":"ce4bgj92rcd13ifvqbd0","pricing_plan_id":"cebpf4jnsgd1na2vs0mg"},{"bike_id":"e68026dc-dac2-4919-adcc-d616eeb65659","system_id":"levelo_inurba_marseille","lat":43.30214,"lon":5.39485,"is_reserved":false,"is_disabled":false,"rental_uris":{"android":"levelo://app?vid=e68026dc-dac2-4919-adcc-d616eeb65659","ios":"levelo://app?vid=e68026dc-dac2-4919-adcc-d616eeb65659"},"vehicle_type_id":"4","last_reported":1734088080,"current_range_meters":27200,"station_id":"ce4bh0p2rcd13ifvqd70","pricing_plan_id":"cebpf4jnsgd1na2vs0mg"},{"bike_id":"cbd77541-7514-4cc3-ab18-83c3dc63b756","system_id":"levelo_inurba_marseille","lat":43.31527,"lon":5.38039,"is_reserved":false,"is_disabled":false,"rental_uris":{"android":"levelo://app?vid=cbd77541-7514-4cc3-ab18-83c3dc63b756","ios":"levelo://app?vid=cbd77541-7514-4cc3-ab18-83c3dc63b756"},"vehicle_type_id":"4","last_reported":1734088080,"current_range_meters":25600,"station_id":"ce4bhsp2rcd13ifvqi50","pricing_plan_id":"cebpf4jnsgd1na2vs0mg"},{"bike_id":"c2b0a1de-04dc-4eba-8fc8-f71a703093c8","system_id":"levelo_inurba_marseille","lat":43.26485,"lon":5.39558,"is_reserved":false,"is_disabled":true,"rental_uris":{"android":"levelo://app?vid=c2b0a1de-04dc-4eba-8fc8-f71a703093c8","ios":"levelo://app?vid=c2b0a1de-04dc-4eba-8fc8-f71a703093c8"},"vehicle_type_id":"4","last_reported":1734088080,"current_range_meters":38800,"station_id":"ce4bhi12rcd13ifvqfq0","pricing_plan_id":"cebpf4jnsgd1na2vs0mg"},{"bike_id":"516f14a4-04fe-406e-80c1-e9be448aafa5","system_id":"levelo_inurba_marseille","lat":43.30551,"lon":5.36521,"is_reserved":false,"is_disabled":false,"rental_uris":{"android":"levelo://app?vid=516f14a4-04fe-406e-80c1-e9be448aafa5","ios":"levelo://app?vid=516f14a4-04fe-406e-80c1-e9be448aafa5"},"vehicle_type_id":"4","last_reported":1734088080,"current_range_meters":38000,"station_id":"ce4bgs12rcd13ifvqcag","pricing_plan_id":"cebpf4jnsgd1na2vs0mg"},{"bike_id":"21d7108e-6653-4b9a-b6e1-e661fa9a96d8","system_id":"levelo_inurba_marseille","lat":43.24994,"lon":5.38934,"is_reserved":false,"is_disabled":false,"rental_uris":{"android":"levelo://app?vid=21d7108e-6653-4b9a-b6e1-e661fa9a96d8","ios":"levelo://app?vid=21d7108e-6653-4b9a-b6e1-e661fa9a96d8"},"vehicle_type_id":"4","last_reported":1734088080,"current_range_meters":20000,"station_id":"ce4bhgp2rcd13ifvqfd0","pricing_plan_id":"cebpf4jnsgd1na2vs0mg"},{"bike_id":"75d005f1-a104-4287-b501-1002db049ee7","system_id":"levelo_inurba_marseille","lat":43.33708,"lon":5.39208,"is_reserved":false,"is_disabled":false,"rental_uris":{"android":"levelo://app?vid=75d005f1-a104-4287-b501-1002db049ee7","ios":"levelo://app?vid=75d005f1-a104-4287-b501-1002db049ee7"},"vehicle_type_id":"4","last_reported":1734088080,"current_range_meters":38800,"station_id":"ce4bhr92rcd13ifvqhsg","pricing_plan_id":"cebpf4jnsgd1na2vs0mg"},{"bike_id":"f209049a-aa9d-495c-81a6-8bf93cf9e9ab","system_id":"levelo_inurba_marseille","lat":43.30208,"lon":5.39474,"is_reserved":false,"is_disabled":false,"rental_uris":{"android":"levelo://app?vid=f209049a-aa9d-495c-81a6-8bf93cf9e9ab","ios":"levelo://app?vid=f209049a-aa9d-495c-81a6-8bf93cf9e9ab"},"vehicle_type_id":"4","last_reported":1734088080,"current_range_meters":30000,"station_id":"ce4bh0p2rcd13ifvqd70","pricing_plan_id":"cebpf4jnsgd1na2vs0mg"},{"bike_id":"30b7f7b0-cffb-44e8-9e23-86428fe1183d","system_id":"levelo_inurba_marseille","lat":43.23068,"lon":5.35502,"is_reserved":false,"is_disabled":false,"rental_uris":{"android":"levelo://app?vid=30b7f7b0-cffb-44e8-9e23-86428fe1183d","ios":"levelo://app?vid=30b7f7b0-cffb-44e8-9e23-86428fe1183d"},"vehicle_type_id":"4","last_reported":1734088080,"current_range_meters":38800,"station_id":"cpo3342slgdg3j2ifvpg","pricing_plan_id":"cebpf4jnsgd1na2vs0mg"},{"bike_id":"f877d23b-8541-4fd9-93d6-f34905a3f0ec","system_id":"levelo_inurba_marseille","lat":43.29878,"lon":5.397299,"is_reserved":false,"is_disabled":false,"rental_uris":{"android":"levelo://app?vid=f877d23b-8541-4fd9-93d6-f34905a3f0ec","ios":"levelo://app?vid=f877d23b-8541-4fd9-93d6-f34905a3f0ec"},"vehicle_type_id":"4","last_reported":1734088080,"current_range_meters":17600,"station_id":"ce4bh0h2rcd13ifvqd50","pricing_plan_id":"cebpf4jnsgd1na2vs0mg"},{"bike_id":"c962957d-ec10-4997-96e1-a869343f922e","system_id":"levelo_inurba_marseille","lat":43.32675,"lon":5.36087,"is_reserved":false,"is_disabled":false,"rental_uris":{"android":"levelo://app?vid=c962957d-ec10-4997-96e1-a869343f922e","ios":"levelo://app?vid=c962957d-ec10-4997-96e1-a869343f922e"},"vehicle_type_id":"4","last_reported":1734088080,"current_range_meters":6400,"station_id":"","pricing_plan_id":"cebpf4jnsgd1na2vs0mg"},{"bike_id":"5313f15a-6be9-4e32-afca-b26d6d5068af","system_id":"levelo_inurba_marseille","lat":43.26559,"lon":5.39017,"is_reserved":false,"is_disabled":false,"rental_uris":{"android":"levelo://app?vid=5313f15a-6be9-4e32-afca-b26d6d5068af","ios":"levelo://app?vid=5313f15a-6be9-4e32-afca-b26d6d5068af"},"vehicle_type_id":"4","last_reported":1734088080,"current_range_meters":7200,"station_id":"ce4bhe12rcd13ifvqf30","pricing_plan_id":"cebpf4jnsgd1na2vs0mg"},{"bike_id":"7123aa8b-c80e-4f40-9072-be578e43de12","system_id":"levelo_inurba_marseille","lat":43.30148,"lon":5.37429,"is_reserved":false,"is_disabled":false,"rental_uris":{"android":"levelo://app?vid=7123aa8b-c80e-4f40-9072-be578e43de12","ios":"levelo://app?vid=7123aa8b-c80e-4f40-9072-be578e43de12"},"vehicle_type_id":"4","last_reported":1734088080,"current_range_meters":30400,"station_id":"ce4bgs92rcd13ifvqcc0","pricing_plan_id":"cebpf4jnsgd1na2vs0mg"},{"bike_id":"51524a51-fed7-42cd-9ad5-a44d5b930670","system_id":"levelo_inurba_marseille","lat":43.29089,"lon":5.38163,"is_reserved":false,"is_disabled":false,"rental_uris":{"android":"levelo://app?vid=51524a51-fed7-42cd-9ad5-a44d5b930670","ios":"levelo://app?vid=51524a51-fed7-42cd-9ad5-a44d5b930670"},"vehicle_type_id":"4","last_reported":1734088080,"current_range_meters":30800,"station_id":"ce4bh512rcd13ifvqe2g","pricing_plan_id":"cebpf4jnsgd1na2vs0mg"},{"bike_id":"b2b94c2b-4213-4224-804e-94d481f95e98","system_id":"levelo_inurba_marseille","lat":43.23151,"lon":5.43694,"is_reserved":false,"is_disabled":false,"rental_uris":{"android":"levelo://app?vid=b2b94c2b-4213-4224-804e-94d481f95e98","ios":"levelo://app?vid=b2b94c2b-4213-4224-804e-94d481f95e98"},"vehicle_type_id":"4","last_reported":1734088080,"current_range_meters":18000,"station_id":"ce4bhmp2rcd13ifvqgog","pricing_plan_id":"cebpf4jnsgd1na2vs0mg"},{"bike_id":"da345435-a4ab-4142-96e2-d4c3515056c7","system_id":"levelo_inurba_marseille","lat":43.30135,"lon":5.38785,"is_reserved":false,"is_disabled":true,"rental_uris":{"android":"levelo://app?vid=da345435-a4ab-4142-96e2-d4c3515056c7","ios":"levelo://app?vid=da345435-a4ab-4142-96e2-d4c3515056c7"},"vehicle_type_id":"4","last_reported":1734088080,"current_range_meters":0,"station_id":"ce4bghh2rcd13ifvqb60","pricing_plan_id":"cebpf4jnsgd1na2vs0mg"},{"bike_id":"1f569fb1-5314-48af-abe3-83ce7f284a13","system_id":"levelo_inurba_marseille","lat":43.33718,"lon":5.39188,"is_reserved":false,"is_disabled":false,"rental_uris":{"android":"levelo://app?vid=1f569fb1-5314-48af-abe3-83ce7f284a13","ios":"levelo://app?vid=1f569fb1-5314-48af-abe3-83ce7f284a13"},"vehicle_type_id":"4","last_reported":1734088080,"current_range_meters":16800,"station_id":"ce4bhr92rcd13ifvqhsg","pricing_plan_id":"cebpf4jnsgd1na2vs0mg"},{"bike_id":"05b2ecfd-a231-44c0-af2c-fc8159e6814c","system_id":"levelo_inurba_marseille","lat":43.2679,"lon":5.39419,"is_reserved":false,"is_disabled":false,"rental_uris":{"android":"levelo://app?vid=05b2ecfd-a231-44c0-af2c-fc8159e6814c","ios":"levelo://app?vid=05b2ecfd-a231-44c0-af2c-fc8159e6814c"},"vehicle_type_id":"4","last_reported":1734088080,"current_range_meters":38800,"station_id":"ce4bhh12rcd13ifvqfg0","pricing_plan_id":"cebpf4jnsgd1na2vs0mg"},{"bike_id":"e950313b-5e39-4034-9922-e29dbf2afb2e","system_id":"levelo_inurba_marseille","lat":43.33605,"lon":5.41031,"is_reserved":false,"is_disabled":false,"rental_uris":{"android":"levelo://app?vid=e950313b-5e39-4034-9922-e29dbf2afb2e","ios":"levelo://app?vid=e950313b-5e39-4034-9922-e29dbf2afb2e"},"vehicle_type_id":"4","last_reported":1734088080,"current_range_meters":28800,"station_id":"ce4bhqh2rcd13ifvqhmg","pricing_plan_id":"cebpf4jnsgd1na2vs0mg"},{"bike_id":"967ee490-0378-44ed-ac8a-56044b8c7cb8","system_id":"levelo_inurba_marseille","lat":43.30466,"lon":5.37912,"is_reserved":false,"is_disabled":false,"rental_uris":{"android":"levelo://app?vid=967ee490-0378-44ed-ac8a-56044b8c7cb8","ios":"levelo://app?vid=967ee490-0378-44ed-ac8a-56044b8c7cb8"},"vehicle_type_id":"4","last_reported":1734088080,"current_range_meters":14800,"station_id":"ce4bgup2rcd13ifvqcn0","pricing_plan_id":"cebpf4jnsgd1na2vs0mg"},{"bike_id":"1b1ae9b5-c393-4c85-9750-37c0a049fca9","system_id":"levelo_inurba_marseille","lat":43.302948,"lon":5.396804,"is_reserved":false,"is_disabled":false,"rental_uris":{"android":"levelo://app?vid=1b1ae9b5-c393-4c85-9750-37c0a049fca9","ios":"levelo://app?vid=1b1ae9b5-c393-4c85-9750-37c0a049fca9"},"vehicle_type_id":"4","last_reported":1734088080,"current_range_meters":37600,"station_id":"ce4bgj12rcd13ifvqbc0","pricing_plan_id":"cebpf4jnsgd1na2vs0mg"},{"bike_id":"af67ac53-ba21-4ff0-8334-95679e9ff2cc","system_id":"levelo_inurba_marseille","lat":43.278805,"lon":5.388003,"is_reserved":false,"is_disabled":true,"rental_uris":{"android":"levelo://app?vid=af67ac53-ba21-4ff0-8334-95679e9ff2cc","ios":"levelo://app?vid=af67ac53-ba21-4ff0-8334-95679e9ff2cc"},"vehicle_type_id":"4","last_reported":1734088080,"current_range_meters":6800,"station_id":"","pricing_plan_id":"cebpf4jnsgd1na2vs0mg"},{"bike_id":"7ef45363-4449-4581-8642-1221e400cf3b","system_id":"levelo_inurba_marseille","lat":43.30535,"lon":5.36545,"is_reserved":false,"is_disabled":false,"rental_uris":{"android":"levelo://app?vid=7ef45363-4449-4581-8642-1221e400cf3b","ios":"levelo://app?vid=7ef45363-4449-4581-8642-1221e400cf3b"},"vehicle_type_id":"4","last_reported":1734088080,"current_range_meters":38000,"station_id":"ce4bgs12rcd13ifvqcag","pricing_plan_id":"cebpf4jnsgd1na2vs0mg"},{"bike_id":"acda3b07-2b42-4ca1-af90-241588b2bea4","system_id":"levelo_inurba_marseille","lat":43.26571,"lon":5.39011,"is_reserved":false,"is_disabled":false,"rental_uris":{"android":"levelo://app?vid=acda3b07-2b42-4ca1-af90-241588b2bea4","ios":"levelo://app?vid=acda3b07-2b42-4ca1-af90-241588b2bea4"},"vehicle_type_id":"4","last_reported":1734088080,"current_range_meters":19200,"station_id":"ce4bhe12rcd13ifvqf30","pricing_plan_id":"cebpf4jnsgd1na2vs0mg"},{"bike_id":"db77e765-d19a-457b-827a-76559bcb7fb2","system_id":"levelo_inurba_marseille","lat":43.29024,"lon":5.38132,"is_reserved":false,"is_disabled":false,"rental_uris":{"android":"levelo://app?vid=db77e765-d19a-457b-827a-76559bcb7fb2","ios":"levelo://app?vid=db77e765-d19a-457b-827a-76559bcb7fb2"},"vehicle_type_id":"4","last_reported":1734088080,"current_range_meters":39200,"station_id":"ce4bh4p2rcd13ifvqe1g","pricing_plan_id":"cebpf4jnsgd1na2vs0mg"},{"bike_id":"1863e5bb-1339-4a2a-a04e-e9e9d05a787a","system_id":"levelo_inurba_marseille","lat":43.2907,"lon":5.37172,"is_reserved":false,"is_disabled":false,"rental_uris":{"android":"levelo://app?vid=1863e5bb-1339-4a2a-a04e-e9e9d05a787a","ios":"levelo://app?vid=1863e5bb-1339-4a2a-a04e-e9e9d05a787a"},"vehicle_type_id":"4","last_reported":1734088080,"current_range_meters":38800,"station_id":"ce4bh5p2rcd13ifvqe4g","pricing_plan_id":"cebpf4jnsgd1na2vs0mg"},{"bike_id":"d8d7ffef-ae54-446a-a28c-8265164b47ce","system_id":"levelo_inurba_marseille","lat":43.2916,"lon":5.43921,"is_reserved":false,"is_disabled":true,"rental_uris":{"android":"levelo://app?vid=d8d7ffef-ae54-446a-a28c-8265164b47ce","ios":"levelo://app?vid=d8d7ffef-ae54-446a-a28c-8265164b47ce"},"vehicle_type_id":"4","last_reported":1734088080,"current_range_meters":31200,"station_id":"","pricing_plan_id":"cebpf4jnsgd1na2vs0mg"},{"bike_id":"4cfc2a4b-bdca-42cd-a3b1-e269da8fbdeb","system_id":"levelo_inurba_marseille","lat":43.296813,"lon":5.372899,"is_reserved":false,"is_disabled":false,"rental_uris":{"android":"levelo://app?vid=4cfc2a4b-bdca-42cd-a3b1-e269da8fbdeb","ios":"levelo://app?vid=4cfc2a4b-bdca-42cd-a3b1-e269da8fbdeb"},"vehicle_type_id":"4","last_reported":1734088080,"current_range_meters":38000,"station_id":"ce4bgk12rcd13ifvqbj0","pricing_plan_id":"cebpf4jnsgd1na2vs0mg"},{"bike_id":"d65fcea9-51ba-41f0-86fd-e798dfdd6f09","system_id":"levelo_inurba_marseille","lat":43.2867,"lon":5.38339,"is_reserved":false,"is_disabled":true,"rental_uris":{"android":"levelo://app?vid=d65fcea9-51ba-41f0-86fd-e798dfdd6f09","ios":"levelo://app?vid=d65fcea9-51ba-41f0-86fd-e798dfdd6f09"},"vehicle_type_id":"4","last_reported":1734088080,"current_range_meters":0,"station_id":"","pricing_plan_id":"cebpf4jnsgd1na2vs0mg"},{"bike_id":"3cffa040-7e8b-4d9e-a1bd-b8a78d782447","system_id":"levelo_inurba_marseille","lat":43.314905,"lon":5.373088,"is_reserved":false,"is_disabled":true,"rental_uris":{"android":"levelo://app?vid=3cffa040-7e8b-4d9e-a1bd-b8a78d782447","ios":"levelo://app?vid=3cffa040-7e8b-4d9e-a1bd-b8a78d782447"},"vehicle_type_id":"4","last_reported":1734088080,"current_range_meters":4000,"station_id":"","pricing_plan_id":"cebpf4jnsgd1na2vs0mg"},{"bike_id":"812146ef-5497-4746-b4ff-5d5d828fb6ac","system_id":"levelo_inurba_marseille","lat":43.3171,"lon":5.42404,"is_reserved":false,"is_disabled":false,"rental_uris":{"android":"levelo://app?vid=812146ef-5497-4746-b4ff-5d5d828fb6ac","ios":"levelo://app?vid=812146ef-5497-4746-b4ff-5d5d828fb6ac"},"vehicle_type_id":"4","last_reported":1734088080,"current_range_meters":38400,"station_id":"ce4bhp92rcd13ifvqhbg","pricing_plan_id":"cebpf4jnsgd1na2vs0mg"},{"bike_id":"e7cfd852-9909-436d-bad5-f8e28209031c","system_id":"levelo_inurba_marseille","lat":43.26928,"lon":5.40246,"is_reserved":false,"is_disabled":false,"rental_uris":{"android":"levelo://app?vid=e7cfd852-9909-436d-bad5-f8e28209031c","ios":"levelo://app?vid=e7cfd852-9909-436d-bad5-f8e28209031c"},"vehicle_type_id":"4","last_reported":1734088080,"current_range_meters":38800,"station_id":"cjm6bp8fraef2m0cb0m0","pricing_plan_id":"cebpf4jnsgd1na2vs0mg"},{"bike_id":"9f8fddbc-d447-4d2b-b616-2105b99bbea1","system_id":"levelo_inurba_marseille","lat":43.30634,"lon":5.40098,"is_reserved":false,"is_disabled":false,"rental_uris":{"android":"levelo://app?vid=9f8fddbc-d447-4d2b-b616-2105b99bbea1","ios":"levelo://app?vid=9f8fddbc-d447-4d2b-b616-2105b99bbea1"},"vehicle_type_id":"4","last_reported":1734088080,"current_range_meters":38800,"station_id":"ce4bh112rcd13ifvqda0","pricing_plan_id":"cebpf4jnsgd1na2vs0mg"},{"bike_id":"5fd2d230-b800-4b85-b8f9-d759ea94e1ca","system_id":"levelo_inurba_marseille","lat":43.28146,"lon":5.42657,"is_reserved":false,"is_disabled":false,"rental_uris":{"android":"levelo://app?vid=5fd2d230-b800-4b85-b8f9-d759ea94e1ca","ios":"levelo://app?vid=5fd2d230-b800-4b85-b8f9-d759ea94e1ca"},"vehicle_type_id":"4","last_reported":1734088080,"current_range_meters":38800,"station_id":"ce4bhnh2rcd13ifvqgug","pricing_plan_id":"cebpf4jnsgd1na2vs0mg"},{"bike_id":"64203de9-e72b-4d66-9a84-7a315c7ed37f","system_id":"levelo_inurba_marseille","lat":43.2944,"lon":5.374357,"is_reserved":false,"is_disabled":true,"rental_uris":{"android":"levelo://app?vid=64203de9-e72b-4d66-9a84-7a315c7ed37f","ios":"levelo://app?vid=64203de9-e72b-4d66-9a84-7a315c7ed37f"},"vehicle_type_id":"4","last_reported":1734088080,"current_range_meters":0,"station_id":"","pricing_plan_id":"cebpf4jnsgd1na2vs0mg"},{"bike_id":"9ed053b7-1efa-406a-8ba8-7c7442f45c2c","system_id":"levelo_inurba_marseille","lat":43.28675,"lon":5.38665,"is_reserved":false,"is_disabled":false,"rental_uris":{"android":"levelo://app?vid=9ed053b7-1efa-406a-8ba8-7c7442f45c2c","ios":"levelo://app?vid=9ed053b7-1efa-406a-8ba8-7c7442f45c2c"},"vehicle_type_id":"4","last_reported":1734088080,"current_range_meters":16400,"station_id":"ce4bh492rcd13ifvqdug","pricing_plan_id":"cebpf4jnsgd1na2vs0mg"},{"bike_id":"b79eb40f-48a5-4480-bca5-4099aa46efe6","system_id":"levelo_inurba_marseille","lat":43.30614,"lon":5.37228,"is_reserved":false,"is_disabled":false,"rental_uris":{"android":"levelo://app?vid=b79eb40f-48a5-4480-bca5-4099aa46efe6","ios":"levelo://app?vid=b79eb40f-48a5-4480-bca5-4099aa46efe6"},"vehicle_type_id":"4","last_reported":1734088080,"current_range_meters":14000,"station_id":"ce4bgqh2rcd13ifvqc4g","pricing_plan_id":"cebpf4jnsgd1na2vs0mg"},{"bike_id":"c9179a56-6ac3-49b3-8785-0da77ec0b66c","system_id":"levelo_inurba_marseille","lat":43.29805,"lon":5.36298,"is_reserved":false,"is_disabled":false,"rental_uris":{"android":"levelo://app?vid=c9179a56-6ac3-49b3-8785-0da77ec0b66c","ios":"levelo://app?vid=c9179a56-6ac3-49b3-8785-0da77ec0b66c"},"vehicle_type_id":"4","last_reported":1734088080,"current_range_meters":39200,"station_id":"ce4bgpp2rcd13ifvqc3g","pricing_plan_id":"cebpf4jnsgd1na2vs0mg"},{"bike_id":"e577bfc5-d7d7-4ada-a086-4531e88bc82a","system_id":"levelo_inurba_marseille","lat":43.32537,"lon":5.41446,"is_reserved":false,"is_disabled":false,"rental_uris":{"android":"levelo://app?vid=e577bfc5-d7d7-4ada-a086-4531e88bc82a","ios":"levelo://app?vid=e577bfc5-d7d7-4ada-a086-4531e88bc82a"},"vehicle_type_id":"4","last_reported":1734088080,"current_range_meters":22400,"station_id":"ce4bhq12rcd13ifvqhhg","pricing_plan_id":"cebpf4jnsgd1na2vs0mg"},{"bike_id":"aca38aad-6fb6-4b07-9bd1-902f5464374f","system_id":"levelo_inurba_marseille","lat":43.28664,"lon":5.38683,"is_reserved":false,"is_disabled":false,"rental_uris":{"android":"levelo://app?vid=aca38aad-6fb6-4b07-9bd1-902f5464374f","ios":"levelo://app?vid=aca38aad-6fb6-4b07-9bd1-902f5464374f"},"vehicle_type_id":"4","last_reported":1734088080,"current_range_meters":33600,"station_id":"ce4bh492rcd13ifvqdug","pricing_plan_id":"cebpf4jnsgd1na2vs0mg"},{"bike_id":"5cf1a6d2-5370-4ad7-a793-9a3d9e8bb489","system_id":"levelo_inurba_marseille","lat":43.26572,"lon":5.39005,"is_reserved":false,"is_disabled":false,"rental_uris":{"android":"levelo://app?vid=5cf1a6d2-5370-4ad7-a793-9a3d9e8bb489","ios":"levelo://app?vid=5cf1a6d2-5370-4ad7-a793-9a3d9e8bb489"},"vehicle_type_id":"4","last_reported":1734088080,"current_range_meters":15200,"station_id":"ce4bhe12rcd13ifvqf30","pricing_plan_id":"cebpf4jnsgd1na2vs0mg"},{"bike_id":"039b6f22-cfaa-479d-b6be-d30c8bca7e6b","system_id":"levelo_inurba_marseille","lat":43.27819,"lon":5.40717,"is_reserved":false,"is_disabled":false,"rental_uris":{"android":"levelo://app?vid=039b6f22-cfaa-479d-b6be-d30c8bca7e6b","ios":"levelo://app?vid=039b6f22-cfaa-479d-b6be-d30c8bca7e6b"},"vehicle_type_id":"4","last_reported":1734088080,"current_range_meters":6800,"station_id":"ce4bhnh2rcd13ifvqgtg","pricing_plan_id":"cebpf4jnsgd1na2vs0mg"},{"bike_id":"e3d43a0e-6b52-44ac-b396-265da1367c01","system_id":"levelo_inurba_marseille","lat":43.29317,"lon":5.37177,"is_reserved":false,"is_disabled":false,"rental_uris":{"android":"levelo://app?vid=e3d43a0e-6b52-44ac-b396-265da1367c01","ios":"levelo://app?vid=e3d43a0e-6b52-44ac-b396-265da1367c01"},"vehicle_type_id":"4","last_reported":1734088080,"current_range_meters":26800,"station_id":"ce4bgh92rcd13ifvqb40","pricing_plan_id":"cebpf4jnsgd1na2vs0mg"},{"bike_id":"2d92463f-6ba9-4a99-9b0c-87d9cb45b5a8","system_id":"levelo_inurba_marseille","lat":43.26217,"lon":5.37897,"is_reserved":false,"is_disabled":false,"rental_uris":{"android":"levelo://app?vid=2d92463f-6ba9-4a99-9b0c-87d9cb45b5a8","ios":"levelo://app?vid=2d92463f-6ba9-4a99-9b0c-87d9cb45b5a8"},"vehicle_type_id":"4","last_reported":1734088080,"current_range_meters":38800,"station_id":"ce4bhjp2rcd13ifvqg90","pricing_plan_id":"cebpf4jnsgd1na2vs0mg"},{"bike_id":"18449eca-7cd4-4637-aad8-d740a9109818","system_id":"levelo_inurba_marseille","lat":43.26798,"lon":5.40294,"is_reserved":false,"is_disabled":false,"rental_uris":{"android":"levelo://app?vid=18449eca-7cd4-4637-aad8-d740a9109818","ios":"levelo://app?vid=18449eca-7cd4-4637-aad8-d740a9109818"},"vehicle_type_id":"4","last_reported":1734088080,"current_range_meters":38800,"station_id":"ce501612rcd8frsf0b60","pricing_plan_id":"cebpf4jnsgd1na2vs0mg"},{"bike_id":"bd8f45e9-3abe-4e77-924c-47e3d176c755","system_id":"levelo_inurba_marseille","lat":43.267803,"lon":5.39429,"is_reserved":false,"is_disabled":false,"rental_uris":{"android":"levelo://app?vid=bd8f45e9-3abe-4e77-924c-47e3d176c755","ios":"levelo://app?vid=bd8f45e9-3abe-4e77-924c-47e3d176c755"},"vehicle_type_id":"4","last_reported":1734088080,"current_range_meters":32400,"station_id":"ce4bhh12rcd13ifvqfg0","pricing_plan_id":"cebpf4jnsgd1na2vs0mg"},{"bike_id":"3d91e3c5-7cef-4a6b-b72c-1f72f9823e2d","system_id":"levelo_inurba_marseille","lat":43.29831,"lon":5.36232,"is_reserved":false,"is_disabled":false,"rental_uris":{"android":"levelo://app?vid=3d91e3c5-7cef-4a6b-b72c-1f72f9823e2d","ios":"levelo://app?vid=3d91e3c5-7cef-4a6b-b72c-1f72f9823e2d"},"vehicle_type_id":"4","last_reported":1734088080,"current_range_meters":38400,"station_id":"ce4bgpp2rcd13ifvqc3g","pricing_plan_id":"cebpf4jnsgd1na2vs0mg"},{"bike_id":"3772e04e-41fd-4726-adc0-6c20ef0530a6","system_id":"levelo_inurba_marseille","lat":43.31991,"lon":5.38167,"is_reserved":false,"is_disabled":false,"rental_uris":{"android":"levelo://app?vid=3772e04e-41fd-4726-adc0-6c20ef0530a6","ios":"levelo://app?vid=3772e04e-41fd-4726-adc0-6c20ef0530a6"},"vehicle_type_id":"4","last_reported":1734088080,"current_range_meters":16800,"station_id":"ce4bhr12rcd13ifvqhpg","pricing_plan_id":"cebpf4jnsgd1na2vs0mg"},{"bike_id":"dcbb4b72-97fd-48f4-aebb-37c123c4a660","system_id":"levelo_inurba_marseille","lat":43.25579,"lon":5.38229,"is_reserved":false,"is_disabled":false,"rental_uris":{"android":"levelo://app?vid=dcbb4b72-97fd-48f4-aebb-37c123c4a660","ios":"levelo://app?vid=dcbb4b72-97fd-48f4-aebb-37c123c4a660"},"vehicle_type_id":"4","last_reported":1734088080,"current_range_meters":37600,"station_id":"ce4bhih2rcd13ifvqfs0","pricing_plan_id":"cebpf4jnsgd1na2vs0mg"},{"bike_id":"e939de06-d909-4758-b8f3-8d43330311ae","system_id":"levelo_inurba_marseille","lat":43.25582,"lon":5.38238,"is_reserved":false,"is_disabled":false,"rental_uris":{"android":"levelo://app?vid=e939de06-d909-4758-b8f3-8d43330311ae","ios":"levelo://app?vid=e939de06-d909-4758-b8f3-8d43330311ae"},"vehicle_type_id":"4","last_reported":1734088080,"current_range_meters":37600,"station_id":"ce4bhih2rcd13ifvqfs0","pricing_plan_id":"cebpf4jnsgd1na2vs0mg"},{"bike_id":"efb655cb-2785-4efc-abaf-ae9549ebe3e6","system_id":"levelo_inurba_marseille","lat":43.24078,"lon":5.37731,"is_reserved":false,"is_disabled":false,"rental_uris":{"android":"levelo://app?vid=efb655cb-2785-4efc-abaf-ae9549ebe3e6","ios":"levelo://app?vid=efb655cb-2785-4efc-abaf-ae9549ebe3e6"},"vehicle_type_id":"4","last_reported":1734088080,"current_range_meters":36000,"station_id":"ce4bhnp2rcd13ifvqgvg","pricing_plan_id":"cebpf4jnsgd1na2vs0mg"},{"bike_id":"c9e1454b-54c0-42a6-b3fa-918fdc07bf7b","system_id":"levelo_inurba_marseille","lat":43.30141,"lon":5.37424,"is_reserved":false,"is_disabled":false,"rental_uris":{"android":"levelo://app?vid=c9e1454b-54c0-42a6-b3fa-918fdc07bf7b","ios":"levelo://app?vid=c9e1454b-54c0-42a6-b3fa-918fdc07bf7b"},"vehicle_type_id":"4","last_reported":1734088080,"current_range_meters":39200,"station_id":"ce4bgs92rcd13ifvqcc0","pricing_plan_id":"cebpf4jnsgd1na2vs0mg"},{"bike_id":"cd38f6a8-de5c-4f91-b714-406576d42a7b","system_id":"levelo_inurba_marseille","lat":43.30187,"lon":5.36622,"is_reserved":false,"is_disabled":false,"rental_uris":{"android":"levelo://app?vid=cd38f6a8-de5c-4f91-b714-406576d42a7b","ios":"levelo://app?vid=cd38f6a8-de5c-4f91-b714-406576d42a7b"},"vehicle_type_id":"4","last_reported":1734088080,"current_range_meters":38400,"station_id":"ce4bgrh2rcd13ifvqc8g","pricing_plan_id":"cebpf4jnsgd1na2vs0mg"},{"bike_id":"ccc9e736-395b-4466-94dc-6a787309142a","system_id":"levelo_inurba_marseille","lat":43.30916,"lon":5.368474,"is_reserved":false,"is_disabled":false,"rental_uris":{"android":"levelo://app?vid=ccc9e736-395b-4466-94dc-6a787309142a","ios":"levelo://app?vid=ccc9e736-395b-4466-94dc-6a787309142a"},"vehicle_type_id":"4","last_reported":1734088080,"current_range_meters":32400,"station_id":"ce4bgn92rcd13ifvqbvg","pricing_plan_id":"cebpf4jnsgd1na2vs0mg"},{"bike_id":"97b55a38-976a-4015-b3d7-3ad989b0be89","system_id":"levelo_inurba_marseille","lat":43.33016,"lon":5.39034,"is_reserved":false,"is_disabled":false,"rental_uris":{"android":"levelo://app?vid=97b55a38-976a-4015-b3d7-3ad989b0be89","ios":"levelo://app?vid=97b55a38-976a-4015-b3d7-3ad989b0be89"},"vehicle_type_id":"4","last_reported":1734088080,"current_range_meters":38800,"station_id":"ce4bhr92rcd13ifvqhrg","pricing_plan_id":"cebpf4jnsgd1na2vs0mg"},{"bike_id":"265a59a5-1f8b-40cd-bb56-038ad2f60a5d","system_id":"levelo_inurba_marseille","lat":43.29043,"lon":5.40006,"is_reserved":false,"is_disabled":true,"rental_uris":{"android":"levelo://app?vid=265a59a5-1f8b-40cd-bb56-038ad2f60a5d","ios":"levelo://app?vid=265a59a5-1f8b-40cd-bb56-038ad2f60a5d"},"vehicle_type_id":"4","last_reported":1734088080,"current_range_meters":38400,"station_id":"ce4bh392rcd13ifvqdm0","pricing_plan_id":"cebpf4jnsgd1na2vs0mg"},{"bike_id":"9cae785b-bd39-4a7b-8aad-0b48af8c98e6","system_id":"levelo_inurba_marseille","lat":43.24801,"lon":5.37466,"is_reserved":false,"is_disabled":false,"rental_uris":{"android":"levelo://app?vid=9cae785b-bd39-4a7b-8aad-0b48af8c98e6","ios":"levelo://app?vid=9cae785b-bd39-4a7b-8aad-0b48af8c98e6"},"vehicle_type_id":"4","last_reported":1734088080,"current_range_meters":25200,"station_id":"ce4bhgh2rcd13ifvqfb0","pricing_plan_id":"cebpf4jnsgd1na2vs0mg"},{"bike_id":"6bc7401a-ad66-4e4d-bfd6-a954bc5b40c0","system_id":"levelo_inurba_marseille","lat":43.337527,"lon":5.37441,"is_reserved":false,"is_disabled":false,"rental_uris":{"android":"levelo://app?vid=6bc7401a-ad66-4e4d-bfd6-a954bc5b40c0","ios":"levelo://app?vid=6bc7401a-ad66-4e4d-bfd6-a954bc5b40c0"},"vehicle_type_id":"4","last_reported":1734088080,"current_range_meters":30400,"station_id":"","pricing_plan_id":"cebpf4jnsgd1na2vs0mg"},{"bike_id":"4bac8f48-0631-4c42-a0a3-9215ee2bf75e","system_id":"levelo_inurba_marseille","lat":43.2887,"lon":5.35858,"is_reserved":false,"is_disabled":false,"rental_uris":{"android":"levelo://app?vid=4bac8f48-0631-4c42-a0a3-9215ee2bf75e","ios":"levelo://app?vid=4bac8f48-0631-4c42-a0a3-9215ee2bf75e"},"vehicle_type_id":"4","last_reported":1734088080,"current_range_meters":30400,"station_id":"ce4bhb12rcd13ifvqem0","pricing_plan_id":"cebpf4jnsgd1na2vs0mg"},{"bike_id":"f0a4f587-2333-4a7a-8819-09121e495e1b","system_id":"levelo_inurba_marseille","lat":43.22935,"lon":5.3538,"is_reserved":false,"is_disabled":false,"rental_uris":{"android":"levelo://app?vid=f0a4f587-2333-4a7a-8819-09121e495e1b","ios":"levelo://app?vid=f0a4f587-2333-4a7a-8819-09121e495e1b"},"vehicle_type_id":"4","last_reported":1734088080,"current_range_meters":4800,"station_id":"cpo3532slgdg3j2ikp40","pricing_plan_id":"cebpf4jnsgd1na2vs0mg"},{"bike_id":"d03ed5ce-e520-4069-9e0e-9e1df4579056","system_id":"levelo_inurba_marseille","lat":43.2985,"lon":5.36306,"is_reserved":false,"is_disabled":false,"rental_uris":{"android":"levelo://app?vid=d03ed5ce-e520-4069-9e0e-9e1df4579056","ios":"levelo://app?vid=d03ed5ce-e520-4069-9e0e-9e1df4579056"},"vehicle_type_id":"4","last_reported":1734088080,"current_range_meters":38000,"station_id":"ce4bgpp2rcd13ifvqc3g","pricing_plan_id":"cebpf4jnsgd1na2vs0mg"},{"bike_id":"1b220d30-3141-46d2-9384-1a5e1a00a2c3","system_id":"levelo_inurba_marseille","lat":43.28148,"lon":5.42642,"is_reserved":false,"is_disabled":false,"rental_uris":{"android":"levelo://app?vid=1b220d30-3141-46d2-9384-1a5e1a00a2c3","ios":"levelo://app?vid=1b220d30-3141-46d2-9384-1a5e1a00a2c3"},"vehicle_type_id":"4","last_reported":1734088080,"current_range_meters":28400,"station_id":"ce4bhnh2rcd13ifvqgug","pricing_plan_id":"cebpf4jnsgd1na2vs0mg"},{"bike_id":"5f7350aa-6be0-4012-bc16-bb17a1538b4c","system_id":"levelo_inurba_marseille","lat":43.30948,"lon":5.39036,"is_reserved":false,"is_disabled":true,"rental_uris":{"android":"levelo://app?vid=5f7350aa-6be0-4012-bc16-bb17a1538b4c","ios":"levelo://app?vid=5f7350aa-6be0-4012-bc16-bb17a1538b4c"},"vehicle_type_id":"4","last_reported":1734088080,"current_range_meters":38800,"station_id":"ce4bgup2rcd13ifvqco0","pricing_plan_id":"cebpf4jnsgd1na2vs0mg"},{"bike_id":"1be4dfd7-b95c-4558-b62a-debc1f52eb94","system_id":"levelo_inurba_marseille","lat":43.27063,"lon":5.4229,"is_reserved":false,"is_disabled":false,"rental_uris":{"android":"levelo://app?vid=1be4dfd7-b95c-4558-b62a-debc1f52eb94","ios":"levelo://app?vid=1be4dfd7-b95c-4558-b62a-debc1f52eb94"},"vehicle_type_id":"4","last_reported":1734088080,"current_range_meters":38800,"station_id":"ce4bhk92rcd13ifvqgb0","pricing_plan_id":"cebpf4jnsgd1na2vs0mg"},{"bike_id":"eb1496f4-67ed-47fd-8660-60023378367f","system_id":"levelo_inurba_marseille","lat":43.294212,"lon":5.374322,"is_reserved":false,"is_disabled":true,"rental_uris":{"android":"levelo://app?vid=eb1496f4-67ed-47fd-8660-60023378367f","ios":"levelo://app?vid=eb1496f4-67ed-47fd-8660-60023378367f"},"vehicle_type_id":"4","last_reported":1734088080,"current_range_meters":0,"station_id":"","pricing_plan_id":"cebpf4jnsgd1na2vs0mg"},{"bike_id":"11b1ef83-98d9-4a4b-8405-091e4926d663","system_id":"levelo_inurba_marseille","lat":43.30138,"lon":5.39871,"is_reserved":false,"is_disabled":false,"rental_uris":{"android":"levelo://app?vid=11b1ef83-98d9-4a4b-8405-091e4926d663","ios":"levelo://app?vid=11b1ef83-98d9-4a4b-8405-091e4926d663"},"vehicle_type_id":"4","last_reported":1734088080,"current_range_meters":39200,"station_id":"ce4bh0h2rcd13ifvqd40","pricing_plan_id":"cebpf4jnsgd1na2vs0mg"},{"bike_id":"a2e3bf37-f1e5-4b35-adeb-0da3e0fe69d3","system_id":"levelo_inurba_marseille","lat":43.28633,"lon":5.38608,"is_reserved":false,"is_disabled":true,"rental_uris":{"android":"levelo://app?vid=a2e3bf37-f1e5-4b35-adeb-0da3e0fe69d3","ios":"levelo://app?vid=a2e3bf37-f1e5-4b35-adeb-0da3e0fe69d3"},"vehicle_type_id":"4","last_reported":1734088080,"current_range_meters":0,"station_id":"","pricing_plan_id":"cebpf4jnsgd1na2vs0mg"},{"bike_id":"a29ec15a-0267-4de8-b687-0d568e0a6a18","system_id":"levelo_inurba_marseille","lat":43.30986,"lon":5.37948,"is_reserved":false,"is_disabled":true,"rental_uris":{"android":"levelo://app?vid=a29ec15a-0267-4de8-b687-0d568e0a6a18","ios":"levelo://app?vid=a29ec15a-0267-4de8-b687-0d568e0a6a18"},"vehicle_type_id":"4","last_reported":1734088080,"current_range_meters":0,"station_id":"","pricing_plan_id":"cebpf4jnsgd1na2vs0mg"},{"bike_id":"4e1a89e0-73cd-4fdb-823a-d951d9f182c3","system_id":"levelo_inurba_marseille","lat":43.25001,"lon":5.38927,"is_reserved":false,"is_disabled":false,"rental_uris":{"android":"levelo://app?vid=4e1a89e0-73cd-4fdb-823a-d951d9f182c3","ios":"levelo://app?vid=4e1a89e0-73cd-4fdb-823a-d951d9f182c3"},"vehicle_type_id":"4","last_reported":1734088080,"current_range_meters":17600,"station_id":"ce4bhgp2rcd13ifvqfd0","pricing_plan_id":"cebpf4jnsgd1na2vs0mg"},{"bike_id":"097a41bf-6635-41a6-b7a7-1173cae29ada","system_id":"levelo_inurba_marseille","lat":43.22913,"lon":5.35398,"is_reserved":false,"is_disabled":false,"rental_uris":{"android":"levelo://app?vid=097a41bf-6635-41a6-b7a7-1173cae29ada","ios":"levelo://app?vid=097a41bf-6635-41a6-b7a7-1173cae29ada"},"vehicle_type_id":"4","last_reported":1734088080,"current_range_meters":38400,"station_id":"cpo3532slgdg3j2ikp40","pricing_plan_id":"cebpf4jnsgd1na2vs0mg"},{"bike_id":"a876e5ab-b772-49b4-beed-cb92cd22e8fa","system_id":"levelo_inurba_marseille","lat":43.23963,"lon":5.3663,"is_reserved":false,"is_disabled":false,"rental_uris":{"android":"levelo://app?vid=a876e5ab-b772-49b4-beed-cb92cd22e8fa","ios":"levelo://app?vid=a876e5ab-b772-49b4-beed-cb92cd22e8fa"},"vehicle_type_id":"4","last_reported":1734088080,"current_range_meters":31200,"station_id":"ce4bhi12rcd13ifvqfp0","pricing_plan_id":"cebpf4jnsgd1na2vs0mg"},{"bike_id":"bd036758-19ef-462b-a62c-970c1680f5b0","system_id":"levelo_inurba_marseille","lat":43.27812,"lon":5.40712,"is_reserved":false,"is_disabled":false,"rental_uris":{"android":"levelo://app?vid=bd036758-19ef-462b-a62c-970c1680f5b0","ios":"levelo://app?vid=bd036758-19ef-462b-a62c-970c1680f5b0"},"vehicle_type_id":"4","last_reported":1734088080,"current_range_meters":11200,"station_id":"ce4bhnh2rcd13ifvqgtg","pricing_plan_id":"cebpf4jnsgd1na2vs0mg"},{"bike_id":"e74372ac-2a6c-47ae-afc7-e1b4e1c3d13f","system_id":"levelo_inurba_marseille","lat":43.23052,"lon":5.35506,"is_reserved":false,"is_disabled":false,"rental_uris":{"android":"levelo://app?vid=e74372ac-2a6c-47ae-afc7-e1b4e1c3d13f","ios":"levelo://app?vid=e74372ac-2a6c-47ae-afc7-e1b4e1c3d13f"},"vehicle_type_id":"4","last_reported":1734088080,"current_range_meters":38800,"station_id":"cpo3342slgdg3j2ifvpg","pricing_plan_id":"cebpf4jnsgd1na2vs0mg"},{"bike_id":"d937db70-f7a3-4428-b2b8-402916faf695","system_id":"levelo_inurba_marseille","lat":43.33595,"lon":5.41019,"is_reserved":false,"is_disabled":false,"rental_uris":{"android":"levelo://app?vid=d937db70-f7a3-4428-b2b8-402916faf695","ios":"levelo://app?vid=d937db70-f7a3-4428-b2b8-402916faf695"},"vehicle_type_id":"4","last_reported":1734088080,"current_range_meters":30400,"station_id":"ce4bhqh2rcd13ifvqhmg","pricing_plan_id":"cebpf4jnsgd1na2vs0mg"},{"bike_id":"e193ef0e-e328-415a-a8ad-7b8f709bf396","system_id":"levelo_inurba_marseille","lat":43.28491,"lon":5.37904,"is_reserved":false,"is_disabled":true,"rental_uris":{"android":"levelo://app?vid=e193ef0e-e328-415a-a8ad-7b8f709bf396","ios":"levelo://app?vid=e193ef0e-e328-415a-a8ad-7b8f709bf396"},"vehicle_type_id":"4","last_reported":1734088080,"current_range_meters":24800,"station_id":"","pricing_plan_id":"cebpf4jnsgd1na2vs0mg"},{"bike_id":"dcb57a56-cacc-4e79-bb61-d5279d9de050","system_id":"levelo_inurba_marseille","lat":43.30304,"lon":5.36893,"is_reserved":false,"is_disabled":false,"rental_uris":{"android":"levelo://app?vid=dcb57a56-cacc-4e79-bb61-d5279d9de050","ios":"levelo://app?vid=dcb57a56-cacc-4e79-bb61-d5279d9de050"},"vehicle_type_id":"4","last_reported":1734088080,"current_range_meters":38000,"station_id":"ce4bgqh2rcd13ifvqc5g","pricing_plan_id":"cebpf4jnsgd1na2vs0mg"},{"bike_id":"1f3bb220-68bc-4ae2-ad43-3a927d11010e","system_id":"levelo_inurba_marseille","lat":43.27047,"lon":5.40271,"is_reserved":false,"is_disabled":false,"rental_uris":{"android":"levelo://app?vid=1f3bb220-68bc-4ae2-ad43-3a927d11010e","ios":"levelo://app?vid=1f3bb220-68bc-4ae2-ad43-3a927d11010e"},"vehicle_type_id":"4","last_reported":1734088080,"current_range_meters":6800,"station_id":"ce4bhk92rcd13ifvqgc0","pricing_plan_id":"cebpf4jnsgd1na2vs0mg"},{"bike_id":"409bc7aa-9eb7-45e9-aea2-11f34d5e1c06","system_id":"levelo_inurba_marseille","lat":43.26022,"lon":5.37555,"is_reserved":false,"is_disabled":false,"rental_uris":{"android":"levelo://app?vid=409bc7aa-9eb7-45e9-aea2-11f34d5e1c06","ios":"levelo://app?vid=409bc7aa-9eb7-45e9-aea2-11f34d5e1c06"},"vehicle_type_id":"4","last_reported":1734088080,"current_range_meters":38800,"station_id":"ce4bhgh2rcd13ifvqfa0","pricing_plan_id":"cebpf4jnsgd1na2vs0mg"},{"bike_id":"16629034-a9ee-4dc6-9dde-fdcffeb5d512","system_id":"levelo_inurba_marseille","lat":43.30151,"lon":5.37409,"is_reserved":false,"is_disabled":false,"rental_uris":{"android":"levelo://app?vid=16629034-a9ee-4dc6-9dde-fdcffeb5d512","ios":"levelo://app?vid=16629034-a9ee-4dc6-9dde-fdcffeb5d512"},"vehicle_type_id":"4","last_reported":1734088080,"current_range_meters":37600,"station_id":"ce4bgs92rcd13ifvqcc0","pricing_plan_id":"cebpf4jnsgd1na2vs0mg"},{"bike_id":"48e2ac3f-e925-4b33-9ce3-13df3fa9afe4","system_id":"levelo_inurba_marseille","lat":43.23149,"lon":5.43721,"is_reserved":false,"is_disabled":false,"rental_uris":{"android":"levelo://app?vid=48e2ac3f-e925-4b33-9ce3-13df3fa9afe4","ios":"levelo://app?vid=48e2ac3f-e925-4b33-9ce3-13df3fa9afe4"},"vehicle_type_id":"4","last_reported":1734088080,"current_range_meters":39200,"station_id":"ce4bhmp2rcd13ifvqgog","pricing_plan_id":"cebpf4jnsgd1na2vs0mg"},{"bike_id":"f43b60c0-f88c-4e14-af84-90e9e26b07b0","system_id":"levelo_inurba_marseille","lat":43.30715,"lon":5.3704,"is_reserved":false,"is_disabled":false,"rental_uris":{"android":"levelo://app?vid=f43b60c0-f88c-4e14-af84-90e9e26b07b0","ios":"levelo://app?vid=f43b60c0-f88c-4e14-af84-90e9e26b07b0"},"vehicle_type_id":"4","last_reported":1734088080,"current_range_meters":36400,"station_id":"","pricing_plan_id":"cebpf4jnsgd1na2vs0mg"},{"bike_id":"fc2cf9f1-be91-4561-b5e9-c6760840ad17","system_id":"levelo_inurba_marseille","lat":43.28843,"lon":5.39326,"is_reserved":false,"is_disabled":false,"rental_uris":{"android":"levelo://app?vid=fc2cf9f1-be91-4561-b5e9-c6760840ad17","ios":"levelo://app?vid=fc2cf9f1-be91-4561-b5e9-c6760840ad17"},"vehicle_type_id":"4","last_reported":1734088080,"current_range_meters":36000,"station_id":"ce4bh2p2rcd13ifvqdi0","pricing_plan_id":"cebpf4jnsgd1na2vs0mg"},{"bike_id":"6af5705e-0b63-4941-bd75-095717cfa6f1","system_id":"levelo_inurba_marseille","lat":43.29689,"lon":5.37303,"is_reserved":false,"is_disabled":false,"rental_uris":{"android":"levelo://app?vid=6af5705e-0b63-4941-bd75-095717cfa6f1","ios":"levelo://app?vid=6af5705e-0b63-4941-bd75-095717cfa6f1"},"vehicle_type_id":"4","last_reported":1734088080,"current_range_meters":38800,"station_id":"ce4bgk12rcd13ifvqbj0","pricing_plan_id":"cebpf4jnsgd1na2vs0mg"},{"bike_id":"2043af62-049c-42e3-8c2a-256cb1b49a43","system_id":"levelo_inurba_marseille","lat":43.30597,"lon":5.39353,"is_reserved":false,"is_disabled":true,"rental_uris":{"android":"levelo://app?vid=2043af62-049c-42e3-8c2a-256cb1b49a43","ios":"levelo://app?vid=2043af62-049c-42e3-8c2a-256cb1b49a43"},"vehicle_type_id":"4","last_reported":1734088080,"current_range_meters":400,"station_id":"ce4bh0p2rcd13ifvqd80","pricing_plan_id":"cebpf4jnsgd1na2vs0mg"},{"bike_id":"3a4d6237-714c-4803-962c-00f589c472b2","system_id":"levelo_inurba_marseille","lat":43.29311,"lon":5.37177,"is_reserved":false,"is_disabled":false,"rental_uris":{"android":"levelo://app?vid=3a4d6237-714c-4803-962c-00f589c472b2","ios":"levelo://app?vid=3a4d6237-714c-4803-962c-00f589c472b2"},"vehicle_type_id":"4","last_reported":1734088080,"current_range_meters":36800,"station_id":"ce4bgh92rcd13ifvqb40","pricing_plan_id":"cebpf4jnsgd1na2vs0mg"},{"bike_id":"0e8d9c6d-369e-46b6-b2b3-8721a9cfd445","system_id":"levelo_inurba_marseille","lat":43.30155,"lon":5.38869,"is_reserved":false,"is_disabled":false,"rental_uris":{"android":"levelo://app?vid=0e8d9c6d-369e-46b6-b2b3-8721a9cfd445","ios":"levelo://app?vid=0e8d9c6d-369e-46b6-b2b3-8721a9cfd445"},"vehicle_type_id":"4","last_reported":1734088080,"current_range_meters":38400,"station_id":"","pricing_plan_id":"cebpf4jnsgd1na2vs0mg"},{"bike_id":"002069da-d74c-4e41-ae54-1da711c0eed6","system_id":"levelo_inurba_marseille","lat":43.28602,"lon":5.41316,"is_reserved":false,"is_disabled":true,"rental_uris":{"android":"levelo://app?vid=002069da-d74c-4e41-ae54-1da711c0eed6","ios":"levelo://app?vid=002069da-d74c-4e41-ae54-1da711c0eed6"},"vehicle_type_id":"4","last_reported":1734088080,"current_range_meters":0,"station_id":"","pricing_plan_id":"cebpf4jnsgd1na2vs0mg"},{"bike_id":"63481ad9-2e1c-4c79-86ba-4261df66f71a","system_id":"levelo_inurba_marseille","lat":43.2549,"lon":5.37668,"is_reserved":false,"is_disabled":false,"rental_uris":{"android":"levelo://app?vid=63481ad9-2e1c-4c79-86ba-4261df66f71a","ios":"levelo://app?vid=63481ad9-2e1c-4c79-86ba-4261df66f71a"},"vehicle_type_id":"4","last_reported":1734088080,"current_range_meters":38800,"station_id":"ce4bhh12rcd13ifvqff0","pricing_plan_id":"cebpf4jnsgd1na2vs0mg"},{"bike_id":"003fcc20-75cd-4e78-9b9a-bd60ee138a76","system_id":"levelo_inurba_marseille","lat":43.25581,"lon":5.38246,"is_reserved":false,"is_disabled":false,"rental_uris":{"android":"levelo://app?vid=003fcc20-75cd-4e78-9b9a-bd60ee138a76","ios":"levelo://app?vid=003fcc20-75cd-4e78-9b9a-bd60ee138a76"},"vehicle_type_id":"4","last_reported":1734088080,"current_range_meters":38000,"station_id":"ce4bhih2rcd13ifvqfs0","pricing_plan_id":"cebpf4jnsgd1na2vs0mg"},{"bike_id":"e2f124c7-d990-40c0-b50f-b56a2eaf596e","system_id":"levelo_inurba_marseille","lat":43.23959,"lon":5.366331,"is_reserved":false,"is_disabled":false,"rental_uris":{"android":"levelo://app?vid=e2f124c7-d990-40c0-b50f-b56a2eaf596e","ios":"levelo://app?vid=e2f124c7-d990-40c0-b50f-b56a2eaf596e"},"vehicle_type_id":"4","last_reported":1734088080,"current_range_meters":38000,"station_id":"ce4bhi12rcd13ifvqfp0","pricing_plan_id":"cebpf4jnsgd1na2vs0mg"},{"bike_id":"0dc53ed0-703c-41c7-a7ba-e5fe121ea6cc","system_id":"levelo_inurba_marseille","lat":43.28924,"lon":5.37921,"is_reserved":false,"is_disabled":false,"rental_uris":{"android":"levelo://app?vid=0dc53ed0-703c-41c7-a7ba-e5fe121ea6cc","ios":"levelo://app?vid=0dc53ed0-703c-41c7-a7ba-e5fe121ea6cc"},"vehicle_type_id":"4","last_reported":1734088080,"current_range_meters":34000,"station_id":"","pricing_plan_id":"cebpf4jnsgd1na2vs0mg"},{"bike_id":"a1b3e7ef-122c-4c3b-8be9-c3cc1fd01590","system_id":"levelo_inurba_marseille","lat":43.24541,"lon":5.3953,"is_reserved":false,"is_disabled":false,"rental_uris":{"android":"levelo://app?vid=a1b3e7ef-122c-4c3b-8be9-c3cc1fd01590","ios":"levelo://app?vid=a1b3e7ef-122c-4c3b-8be9-c3cc1fd01590"},"vehicle_type_id":"4","last_reported":1734088080,"current_range_meters":4800,"station_id":"ce4bhlp2rcd13ifvqgjg","pricing_plan_id":"cebpf4jnsgd1na2vs0mg"},{"bike_id":"1e09aea1-6592-4606-838e-01c5295332d1","system_id":"levelo_inurba_marseille","lat":43.32669,"lon":5.40992,"is_reserved":false,"is_disabled":true,"rental_uris":{"android":"levelo://app?vid=1e09aea1-6592-4606-838e-01c5295332d1","ios":"levelo://app?vid=1e09aea1-6592-4606-838e-01c5295332d1"},"vehicle_type_id":"4","last_reported":1734088080,"current_range_meters":33200,"station_id":"ce4bhpp2rcd13ifvqhgg","pricing_plan_id":"cebpf4jnsgd1na2vs0mg"},{"bike_id":"117995f4-b8d9-45ec-80c9-df0eb7dadab5","system_id":"levelo_inurba_marseille","lat":43.30142,"lon":5.37418,"is_reserved":false,"is_disabled":false,"rental_uris":{"android":"levelo://app?vid=117995f4-b8d9-45ec-80c9-df0eb7dadab5","ios":"levelo://app?vid=117995f4-b8d9-45ec-80c9-df0eb7dadab5"},"vehicle_type_id":"4","last_reported":1734088080,"current_range_meters":36000,"station_id":"ce4bgs92rcd13ifvqcc0","pricing_plan_id":"cebpf4jnsgd1na2vs0mg"},{"bike_id":"be3d60a6-6fb6-4cc8-81d6-6fe96ff5ee23","system_id":"levelo_inurba_marseille","lat":43.23067,"lon":5.35493,"is_reserved":false,"is_disabled":false,"rental_uris":{"android":"levelo://app?vid=be3d60a6-6fb6-4cc8-81d6-6fe96ff5ee23","ios":"levelo://app?vid=be3d60a6-6fb6-4cc8-81d6-6fe96ff5ee23"},"vehicle_type_id":"4","last_reported":1734088080,"current_range_meters":38400,"station_id":"cpo3342slgdg3j2ifvpg","pricing_plan_id":"cebpf4jnsgd1na2vs0mg"},{"bike_id":"dfd6a7b1-1bfd-45d4-b3ac-ca6eb00299de","system_id":"levelo_inurba_marseille","lat":43.240835,"lon":5.377512,"is_reserved":false,"is_disabled":false,"rental_uris":{"android":"levelo://app?vid=dfd6a7b1-1bfd-45d4-b3ac-ca6eb00299de","ios":"levelo://app?vid=dfd6a7b1-1bfd-45d4-b3ac-ca6eb00299de"},"vehicle_type_id":"4","last_reported":1734088080,"current_range_meters":38800,"station_id":"ce4bhnp2rcd13ifvqgvg","pricing_plan_id":"cebpf4jnsgd1na2vs0mg"},{"bike_id":"f7235e1b-bd49-4bfc-85da-79dbffe2ae1b","system_id":"levelo_inurba_marseille","lat":43.25577,"lon":5.38279,"is_reserved":false,"is_disabled":false,"rental_uris":{"android":"levelo://app?vid=f7235e1b-bd49-4bfc-85da-79dbffe2ae1b","ios":"levelo://app?vid=f7235e1b-bd49-4bfc-85da-79dbffe2ae1b"},"vehicle_type_id":"4","last_reported":1734088080,"current_range_meters":28000,"station_id":"ce4bhih2rcd13ifvqfs0","pricing_plan_id":"cebpf4jnsgd1na2vs0mg"},{"bike_id":"1a6191e2-ac99-485d-8e32-fe2f8071e4a9","system_id":"levelo_inurba_marseille","lat":43.29417,"lon":5.38626,"is_reserved":false,"is_disabled":true,"rental_uris":{"android":"levelo://app?vid=1a6191e2-ac99-485d-8e32-fe2f8071e4a9","ios":"levelo://app?vid=1a6191e2-ac99-485d-8e32-fe2f8071e4a9"},"vehicle_type_id":"4","last_reported":1734088080,"current_range_meters":800,"station_id":"ce4bh2h2rcd13ifvqdh0","pricing_plan_id":"cebpf4jnsgd1na2vs0mg"},{"bike_id":"ebdbc8d5-b290-4e69-aa5c-3c2a17f728a0","system_id":"levelo_inurba_marseille","lat":43.30149,"lon":5.37421,"is_reserved":false,"is_disabled":false,"rental_uris":{"android":"levelo://app?vid=ebdbc8d5-b290-4e69-aa5c-3c2a17f728a0","ios":"levelo://app?vid=ebdbc8d5-b290-4e69-aa5c-3c2a17f728a0"},"vehicle_type_id":"4","last_reported":1734088080,"current_range_meters":39200,"station_id":"ce4bgs92rcd13ifvqcc0","pricing_plan_id":"cebpf4jnsgd1na2vs0mg"},{"bike_id":"bced2216-fe81-4039-bef5-7e9843b329f3","system_id":"levelo_inurba_marseille","lat":43.28151,"lon":5.42671,"is_reserved":false,"is_disabled":false,"rental_uris":{"android":"levelo://app?vid=bced2216-fe81-4039-bef5-7e9843b329f3","ios":"levelo://app?vid=bced2216-fe81-4039-bef5-7e9843b329f3"},"vehicle_type_id":"4","last_reported":1734088080,"current_range_meters":37600,"station_id":"ce4bhnh2rcd13ifvqgug","pricing_plan_id":"cebpf4jnsgd1na2vs0mg"},{"bike_id":"02010470-d49c-4e8d-bc30-b563b1dfc3f9","system_id":"levelo_inurba_marseille","lat":43.25824,"lon":5.39435,"is_reserved":false,"is_disabled":false,"rental_uris":{"android":"levelo://app?vid=02010470-d49c-4e8d-bc30-b563b1dfc3f9","ios":"levelo://app?vid=02010470-d49c-4e8d-bc30-b563b1dfc3f9"},"vehicle_type_id":"4","last_reported":1734088080,"current_range_meters":32000,"station_id":"ce4bhip2rcd13ifvqft0","pricing_plan_id":"cebpf4jnsgd1na2vs0mg"},{"bike_id":"9332f19c-96e3-47ac-8807-c5c2384614c0","system_id":"levelo_inurba_marseille","lat":43.23061,"lon":5.3548,"is_reserved":false,"is_disabled":false,"rental_uris":{"android":"levelo://app?vid=9332f19c-96e3-47ac-8807-c5c2384614c0","ios":"levelo://app?vid=9332f19c-96e3-47ac-8807-c5c2384614c0"},"vehicle_type_id":"4","last_reported":1734088080,"current_range_meters":7200,"station_id":"cpo3342slgdg3j2ifvpg","pricing_plan_id":"cebpf4jnsgd1na2vs0mg"},{"bike_id":"80da6ad0-086c-4dfb-b1ba-80f2a81df1f4","system_id":"levelo_inurba_marseille","lat":43.30599,"lon":5.39361,"is_reserved":false,"is_disabled":true,"rental_uris":{"android":"levelo://app?vid=80da6ad0-086c-4dfb-b1ba-80f2a81df1f4","ios":"levelo://app?vid=80da6ad0-086c-4dfb-b1ba-80f2a81df1f4"},"vehicle_type_id":"4","last_reported":1734088080,"current_range_meters":31200,"station_id":"ce4bh0p2rcd13ifvqd80","pricing_plan_id":"cebpf4jnsgd1na2vs0mg"},{"bike_id":"524fdc59-1def-4765-b344-53587a6914ff","system_id":"levelo_inurba_marseille","lat":43.31081,"lon":5.42427,"is_reserved":false,"is_disabled":false,"rental_uris":{"android":"levelo://app?vid=524fdc59-1def-4765-b344-53587a6914ff","ios":"levelo://app?vid=524fdc59-1def-4765-b344-53587a6914ff"},"vehicle_type_id":"4","last_reported":1734088080,"current_range_meters":28000,"station_id":"ce4bhp92rcd13ifvqhag","pricing_plan_id":"cebpf4jnsgd1na2vs0mg"},{"bike_id":"1e5b3424-92e2-4d6e-a8c1-3ffc43434050","system_id":"levelo_inurba_marseille","lat":43.28143,"lon":5.4266,"is_reserved":false,"is_disabled":false,"rental_uris":{"android":"levelo://app?vid=1e5b3424-92e2-4d6e-a8c1-3ffc43434050","ios":"levelo://app?vid=1e5b3424-92e2-4d6e-a8c1-3ffc43434050"},"vehicle_type_id":"4","last_reported":1734088080,"current_range_meters":20800,"station_id":"ce4bhnh2rcd13ifvqgug","pricing_plan_id":"cebpf4jnsgd1na2vs0mg"},{"bike_id":"a8942e43-f3d6-46fd-8576-2cc6b2787f3e","system_id":"levelo_inurba_marseille","lat":43.33019,"lon":5.3906,"is_reserved":false,"is_disabled":false,"rental_uris":{"android":"levelo://app?vid=a8942e43-f3d6-46fd-8576-2cc6b2787f3e","ios":"levelo://app?vid=a8942e43-f3d6-46fd-8576-2cc6b2787f3e"},"vehicle_type_id":"4","last_reported":1734088080,"current_range_meters":21600,"station_id":"ce4bhr92rcd13ifvqhrg","pricing_plan_id":"cebpf4jnsgd1na2vs0mg"},{"bike_id":"e8ec362c-403a-44c7-84b1-878bad06e441","system_id":"levelo_inurba_marseille","lat":43.29872,"lon":5.39734,"is_reserved":false,"is_disabled":false,"rental_uris":{"android":"levelo://app?vid=e8ec362c-403a-44c7-84b1-878bad06e441","ios":"levelo://app?vid=e8ec362c-403a-44c7-84b1-878bad06e441"},"vehicle_type_id":"4","last_reported":1734088080,"current_range_meters":36000,"station_id":"ce4bh0h2rcd13ifvqd50","pricing_plan_id":"cebpf4jnsgd1na2vs0mg"},{"bike_id":"9814419f-a19d-48e0-8ff2-caed57f69ca3","system_id":"levelo_inurba_marseille","lat":43.29198,"lon":5.358,"is_reserved":false,"is_disabled":false,"rental_uris":{"android":"levelo://app?vid=9814419f-a19d-48e0-8ff2-caed57f69ca3","ios":"levelo://app?vid=9814419f-a19d-48e0-8ff2-caed57f69ca3"},"vehicle_type_id":"4","last_reported":1734088080,"current_range_meters":38800,"station_id":"ce4bhb12rcd13ifvqel0","pricing_plan_id":"cebpf4jnsgd1na2vs0mg"},{"bike_id":"c05efbe3-0a45-458d-8dd3-149785c457f0","system_id":"levelo_inurba_marseille","lat":43.26941,"lon":5.40255,"is_reserved":false,"is_disabled":false,"rental_uris":{"android":"levelo://app?vid=c05efbe3-0a45-458d-8dd3-149785c457f0","ios":"levelo://app?vid=c05efbe3-0a45-458d-8dd3-149785c457f0"},"vehicle_type_id":"4","last_reported":1734088080,"current_range_meters":24800,"station_id":"cjm6bp8fraef2m0cb0m0","pricing_plan_id":"cebpf4jnsgd1na2vs0mg"},{"bike_id":"208886c0-de2e-43ca-abbf-3e8665653f84","system_id":"levelo_inurba_marseille","lat":43.30404,"lon":5.37714,"is_reserved":false,"is_disabled":true,"rental_uris":{"android":"levelo://app?vid=208886c0-de2e-43ca-abbf-3e8665653f84","ios":"levelo://app?vid=208886c0-de2e-43ca-abbf-3e8665653f84"},"vehicle_type_id":"4","last_reported":1734088080,"current_range_meters":0,"station_id":"","pricing_plan_id":"cebpf4jnsgd1na2vs0mg"},{"bike_id":"9bec7e02-cc4e-42a5-9336-5b32da85843d","system_id":"levelo_inurba_marseille","lat":43.29719,"lon":5.3661,"is_reserved":false,"is_disabled":false,"rental_uris":{"android":"levelo://app?vid=9bec7e02-cc4e-42a5-9336-5b32da85843d","ios":"levelo://app?vid=9bec7e02-cc4e-42a5-9336-5b32da85843d"},"vehicle_type_id":"4","last_reported":1734088080,"current_range_meters":39200,"station_id":"ce4bgn12rcd13ifvqbt0","pricing_plan_id":"cebpf4jnsgd1na2vs0mg"},{"bike_id":"918dc9bf-c6b9-4c6e-bf56-67accfb7b3a6","system_id":"levelo_inurba_marseille","lat":43.26775,"lon":5.39422,"is_reserved":false,"is_disabled":false,"rental_uris":{"android":"levelo://app?vid=918dc9bf-c6b9-4c6e-bf56-67accfb7b3a6","ios":"levelo://app?vid=918dc9bf-c6b9-4c6e-bf56-67accfb7b3a6"},"vehicle_type_id":"4","last_reported":1734088080,"current_range_meters":19600,"station_id":"ce4bhh12rcd13ifvqfg0","pricing_plan_id":"cebpf4jnsgd1na2vs0mg"},{"bike_id":"36a6aaf7-7942-4cf8-a178-14100534e00e","system_id":"levelo_inurba_marseille","lat":43.28444,"lon":5.39184,"is_reserved":false,"is_disabled":false,"rental_uris":{"android":"levelo://app?vid=36a6aaf7-7942-4cf8-a178-14100534e00e","ios":"levelo://app?vid=36a6aaf7-7942-4cf8-a178-14100534e00e"},"vehicle_type_id":"4","last_reported":1734088080,"current_range_meters":28000,"station_id":"","pricing_plan_id":"cebpf4jnsgd1na2vs0mg"},{"bike_id":"1432cf1d-5f52-496b-8b0f-41af200811c1","system_id":"levelo_inurba_marseille","lat":43.29574,"lon":5.37505,"is_reserved":false,"is_disabled":false,"rental_uris":{"android":"levelo://app?vid=1432cf1d-5f52-496b-8b0f-41af200811c1","ios":"levelo://app?vid=1432cf1d-5f52-496b-8b0f-41af200811c1"},"vehicle_type_id":"4","last_reported":1734088080,"current_range_meters":29600,"station_id":"ce4bgh92rcd13ifvqb50","pricing_plan_id":"cebpf4jnsgd1na2vs0mg"},{"bike_id":"a8563854-8250-423f-8f80-b4177ef138bc","system_id":"levelo_inurba_marseille","lat":43.29916,"lon":5.37474,"is_reserved":false,"is_disabled":false,"rental_uris":{"android":"levelo://app?vid=a8563854-8250-423f-8f80-b4177ef138bc","ios":"levelo://app?vid=a8563854-8250-423f-8f80-b4177ef138bc"},"vehicle_type_id":"4","last_reported":1734088080,"current_range_meters":36800,"station_id":"ce4bgjh2rcd13ifvqbg0","pricing_plan_id":"cebpf4jnsgd1na2vs0mg"},{"bike_id":"f3cb3fa5-f996-4779-a72c-c8dc29955965","system_id":"levelo_inurba_marseille","lat":43.26557,"lon":5.37292,"is_reserved":false,"is_disabled":false,"rental_uris":{"android":"levelo://app?vid=f3cb3fa5-f996-4779-a72c-c8dc29955965","ios":"levelo://app?vid=f3cb3fa5-f996-4779-a72c-c8dc29955965"},"vehicle_type_id":"4","last_reported":1734088080,"current_range_meters":27600,"station_id":"ce4bhg12rcd13ifvqf70","pricing_plan_id":"cebpf4jnsgd1na2vs0mg"},{"bike_id":"6e6a004b-462d-4b03-aeaa-2611256f0d89","system_id":"levelo_inurba_marseille","lat":43.28117,"lon":5.38935,"is_reserved":false,"is_disabled":true,"rental_uris":{"android":"levelo://app?vid=6e6a004b-462d-4b03-aeaa-2611256f0d89","ios":"levelo://app?vid=6e6a004b-462d-4b03-aeaa-2611256f0d89"},"vehicle_type_id":"4","last_reported":1734088080,"current_range_meters":0,"station_id":"","pricing_plan_id":"cebpf4jnsgd1na2vs0mg"},{"bike_id":"14845a8f-c0c8-4311-843d-ef820014914a","system_id":"levelo_inurba_marseille","lat":43.26798,"lon":5.40263,"is_reserved":false,"is_disabled":false,"rental_uris":{"android":"levelo://app?vid=14845a8f-c0c8-4311-843d-ef820014914a","ios":"levelo://app?vid=14845a8f-c0c8-4311-843d-ef820014914a"},"vehicle_type_id":"4","last_reported":1734088080,"current_range_meters":37600,"station_id":"ce501612rcd8frsf0b60","pricing_plan_id":"cebpf4jnsgd1na2vs0mg"},{"bike_id":"89b7528c-fd56-4128-b133-e3ab623913c3","system_id":"levelo_inurba_marseille","lat":43.30534,"lon":5.36703,"is_reserved":false,"is_disabled":false,"rental_uris":{"android":"levelo://app?vid=89b7528c-fd56-4128-b133-e3ab623913c3","ios":"levelo://app?vid=89b7528c-fd56-4128-b133-e3ab623913c3"},"vehicle_type_id":"4","last_reported":1734088080,"current_range_meters":36400,"station_id":"ce4bgrp2rcd13ifvqc9g","pricing_plan_id":"cebpf4jnsgd1na2vs0mg"},{"bike_id":"e738fcc8-c725-46f1-b7fe-8f522bd56ad4","system_id":"levelo_inurba_marseille","lat":43.22916,"lon":5.35391,"is_reserved":false,"is_disabled":false,"rental_uris":{"android":"levelo://app?vid=e738fcc8-c725-46f1-b7fe-8f522bd56ad4","ios":"levelo://app?vid=e738fcc8-c725-46f1-b7fe-8f522bd56ad4"},"vehicle_type_id":"4","last_reported":1734088080,"current_range_meters":6800,"station_id":"cpo3532slgdg3j2ikp40","pricing_plan_id":"cebpf4jnsgd1na2vs0mg"},{"bike_id":"5f1cfd8c-9d3d-4847-b38c-c599318bbbeb","system_id":"levelo_inurba_marseille","lat":43.29306,"lon":5.37153,"is_reserved":false,"is_disabled":false,"rental_uris":{"android":"levelo://app?vid=5f1cfd8c-9d3d-4847-b38c-c599318bbbeb","ios":"levelo://app?vid=5f1cfd8c-9d3d-4847-b38c-c599318bbbeb"},"vehicle_type_id":"4","last_reported":1734088080,"current_range_meters":38400,"station_id":"ce4bgh92rcd13ifvqb40","pricing_plan_id":"cebpf4jnsgd1na2vs0mg"},{"bike_id":"7965bd8b-65b9-4460-9e65-36f253ebc53b","system_id":"levelo_inurba_marseille","lat":43.32049,"lon":5.41544,"is_reserved":false,"is_disabled":false,"rental_uris":{"android":"levelo://app?vid=7965bd8b-65b9-4460-9e65-36f253ebc53b","ios":"levelo://app?vid=7965bd8b-65b9-4460-9e65-36f253ebc53b"},"vehicle_type_id":"4","last_reported":1734088080,"current_range_meters":24000,"station_id":"ce4bhq92rcd13ifvqhkg","pricing_plan_id":"cebpf4jnsgd1na2vs0mg"},{"bike_id":"7babbeb6-08b2-42a9-ae67-2f93861638de","system_id":"levelo_inurba_marseille","lat":43.30146,"lon":5.38091,"is_reserved":false,"is_disabled":false,"rental_uris":{"android":"levelo://app?vid=7babbeb6-08b2-42a9-ae67-2f93861638de","ios":"levelo://app?vid=7babbeb6-08b2-42a9-ae67-2f93861638de"},"vehicle_type_id":"4","last_reported":1734088080,"current_range_meters":20800,"station_id":"ce4bgjp2rcd13ifvqbh0","pricing_plan_id":"cebpf4jnsgd1na2vs0mg"},{"bike_id":"698ad75d-4505-4127-812a-dfdea147bfbd","system_id":"levelo_inurba_marseille","lat":43.36725,"lon":5.34626,"is_reserved":false,"is_disabled":false,"rental_uris":{"android":"levelo://app?vid=698ad75d-4505-4127-812a-dfdea147bfbd","ios":"levelo://app?vid=698ad75d-4505-4127-812a-dfdea147bfbd"},"vehicle_type_id":"4","last_reported":1734088080,"current_range_meters":28000,"station_id":"","pricing_plan_id":"cebpf4jnsgd1na2vs0mg"},{"bike_id":"883f5257-634e-48ae-8ffa-8b75dd6845e8","system_id":"levelo_inurba_marseille","lat":43.2744,"lon":5.39417,"is_reserved":false,"is_disabled":false,"rental_uris":{"android":"levelo://app?vid=883f5257-634e-48ae-8ffa-8b75dd6845e8","ios":"levelo://app?vid=883f5257-634e-48ae-8ffa-8b75dd6845e8"},"vehicle_type_id":"4","last_reported":1734088080,"current_range_meters":19600,"station_id":"ce4bhdp2rcd13ifvqf20","pricing_plan_id":"cebpf4jnsgd1na2vs0mg"},{"bike_id":"400924dc-8f30-43a2-84e4-042f443d3fa7","system_id":"levelo_inurba_marseille","lat":43.24539,"lon":5.39547,"is_reserved":false,"is_disabled":false,"rental_uris":{"android":"levelo://app?vid=400924dc-8f30-43a2-84e4-042f443d3fa7","ios":"levelo://app?vid=400924dc-8f30-43a2-84e4-042f443d3fa7"},"vehicle_type_id":"4","last_reported":1734088080,"current_range_meters":30400,"station_id":"ce4bhlp2rcd13ifvqgjg","pricing_plan_id":"cebpf4jnsgd1na2vs0mg"},{"bike_id":"a5589391-a7e4-412b-9a87-f917b2322580","system_id":"levelo_inurba_marseille","lat":43.23043,"lon":5.35514,"is_reserved":false,"is_disabled":false,"rental_uris":{"android":"levelo://app?vid=a5589391-a7e4-412b-9a87-f917b2322580","ios":"levelo://app?vid=a5589391-a7e4-412b-9a87-f917b2322580"},"vehicle_type_id":"4","last_reported":1734088080,"current_range_meters":38800,"station_id":"cpo3342slgdg3j2ifvpg","pricing_plan_id":"cebpf4jnsgd1na2vs0mg"},{"bike_id":"2a19995e-ebbd-4c77-9ef2-fad91cb964fc","system_id":"levelo_inurba_marseille","lat":43.28949,"lon":5.37194,"is_reserved":false,"is_disabled":false,"rental_uris":{"android":"levelo://app?vid=2a19995e-ebbd-4c77-9ef2-fad91cb964fc","ios":"levelo://app?vid=2a19995e-ebbd-4c77-9ef2-fad91cb964fc"},"vehicle_type_id":"4","last_reported":1734088080,"current_range_meters":32400,"station_id":"ce4bhap2rcd13ifvqek0","pricing_plan_id":"cebpf4jnsgd1na2vs0mg"},{"bike_id":"103e9cb3-a529-4d55-b047-75adf6d60c18","system_id":"levelo_inurba_marseille","lat":43.27967,"lon":5.39923,"is_reserved":false,"is_disabled":true,"rental_uris":{"android":"levelo://app?vid=103e9cb3-a529-4d55-b047-75adf6d60c18","ios":"levelo://app?vid=103e9cb3-a529-4d55-b047-75adf6d60c18"},"vehicle_type_id":"4","last_reported":1734088080,"current_range_meters":0,"station_id":"","pricing_plan_id":"cebpf4jnsgd1na2vs0mg"},{"bike_id":"31ab51ef-1505-42cd-91a4-b143b9a55d4f","system_id":"levelo_inurba_marseille","lat":43.29008,"lon":5.35609,"is_reserved":false,"is_disabled":false,"rental_uris":{"android":"levelo://app?vid=31ab51ef-1505-42cd-91a4-b143b9a55d4f","ios":"levelo://app?vid=31ab51ef-1505-42cd-91a4-b143b9a55d4f"},"vehicle_type_id":"4","last_reported":1734088080,"current_range_meters":38000,"station_id":"ce4bhb92rcd13ifvqen0","pricing_plan_id":"cebpf4jnsgd1na2vs0mg"},{"bike_id":"2abcec0c-aafa-4f10-b40b-0344473164ae","system_id":"levelo_inurba_marseille","lat":43.23963,"lon":5.36635,"is_reserved":false,"is_disabled":false,"rental_uris":{"android":"levelo://app?vid=2abcec0c-aafa-4f10-b40b-0344473164ae","ios":"levelo://app?vid=2abcec0c-aafa-4f10-b40b-0344473164ae"},"vehicle_type_id":"4","last_reported":1734088080,"current_range_meters":26000,"station_id":"ce4bhi12rcd13ifvqfp0","pricing_plan_id":"cebpf4jnsgd1na2vs0mg"},{"bike_id":"cf2a554d-dca1-468f-a79f-dbc5900e9168","system_id":"levelo_inurba_marseille","lat":43.33015,"lon":5.3905,"is_reserved":false,"is_disabled":false,"rental_uris":{"android":"levelo://app?vid=cf2a554d-dca1-468f-a79f-dbc5900e9168","ios":"levelo://app?vid=cf2a554d-dca1-468f-a79f-dbc5900e9168"},"vehicle_type_id":"4","last_reported":1734088080,"current_range_meters":30800,"station_id":"ce4bhr92rcd13ifvqhrg","pricing_plan_id":"cebpf4jnsgd1na2vs0mg"},{"bike_id":"9170b74c-6ab9-4aed-ae3b-75ae727d0100","system_id":"levelo_inurba_marseille","lat":43.27414,"lon":5.39001,"is_reserved":false,"is_disabled":false,"rental_uris":{"android":"levelo://app?vid=9170b74c-6ab9-4aed-ae3b-75ae727d0100","ios":"levelo://app?vid=9170b74c-6ab9-4aed-ae3b-75ae727d0100"},"vehicle_type_id":"4","last_reported":1734088080,"current_range_meters":10000,"station_id":"","pricing_plan_id":"cebpf4jnsgd1na2vs0mg"},{"bike_id":"bf26ba67-e67a-47f2-aeb5-22efb7770553","system_id":"levelo_inurba_marseille","lat":43.28623,"lon":5.35095,"is_reserved":false,"is_disabled":true,"rental_uris":{"android":"levelo://app?vid=bf26ba67-e67a-47f2-aeb5-22efb7770553","ios":"levelo://app?vid=bf26ba67-e67a-47f2-aeb5-22efb7770553"},"vehicle_type_id":"4","last_reported":1734088080,"current_range_meters":28800,"station_id":"ce4bhch2rcd13ifvqeug","pricing_plan_id":"cebpf4jnsgd1na2vs0mg"},{"bike_id":"1edcb435-be97-41f8-aa8c-4a20808cef7c","system_id":"levelo_inurba_marseille","lat":43.26812,"lon":5.40277,"is_reserved":false,"is_disabled":false,"rental_uris":{"android":"levelo://app?vid=1edcb435-be97-41f8-aa8c-4a20808cef7c","ios":"levelo://app?vid=1edcb435-be97-41f8-aa8c-4a20808cef7c"},"vehicle_type_id":"4","last_reported":1734088080,"current_range_meters":6000,"station_id":"ce501612rcd8frsf0b60","pricing_plan_id":"cebpf4jnsgd1na2vs0mg"},{"bike_id":"24d7c5f1-20f7-4de4-81b6-5568529a782b","system_id":"levelo_inurba_marseille","lat":43.28673,"lon":5.38687,"is_reserved":false,"is_disabled":false,"rental_uris":{"android":"levelo://app?vid=24d7c5f1-20f7-4de4-81b6-5568529a782b","ios":"levelo://app?vid=24d7c5f1-20f7-4de4-81b6-5568529a782b"},"vehicle_type_id":"4","last_reported":1734088080,"current_range_meters":29600,"station_id":"ce4bh492rcd13ifvqdug","pricing_plan_id":"cebpf4jnsgd1na2vs0mg"},{"bike_id":"61df4582-7c9f-489e-b7da-d6a0cfdcd7c7","system_id":"levelo_inurba_marseille","lat":43.28659,"lon":5.36351,"is_reserved":false,"is_disabled":true,"rental_uris":{"android":"levelo://app?vid=61df4582-7c9f-489e-b7da-d6a0cfdcd7c7","ios":"levelo://app?vid=61df4582-7c9f-489e-b7da-d6a0cfdcd7c7"},"vehicle_type_id":"4","last_reported":1734088080,"current_range_meters":0,"station_id":"ce4bhah2rcd13ifvqej0","pricing_plan_id":"cebpf4jnsgd1na2vs0mg"},{"bike_id":"069bd7be-d7b1-4fb4-8a31-6d5c7733f3a6","system_id":"levelo_inurba_marseille","lat":43.30143,"lon":5.37422,"is_reserved":false,"is_disabled":false,"rental_uris":{"android":"levelo://app?vid=069bd7be-d7b1-4fb4-8a31-6d5c7733f3a6","ios":"levelo://app?vid=069bd7be-d7b1-4fb4-8a31-6d5c7733f3a6"},"vehicle_type_id":"4","last_reported":1734088080,"current_range_meters":16400,"station_id":"ce4bgs92rcd13ifvqcc0","pricing_plan_id":"cebpf4jnsgd1na2vs0mg"},{"bike_id":"ca3bf6a0-806c-4046-b219-bbea4c2ba646","system_id":"levelo_inurba_marseille","lat":43.23197,"lon":5.35542,"is_reserved":false,"is_disabled":false,"rental_uris":{"android":"levelo://app?vid=ca3bf6a0-806c-4046-b219-bbea4c2ba646","ios":"levelo://app?vid=ca3bf6a0-806c-4046-b219-bbea4c2ba646"},"vehicle_type_id":"4","last_reported":1734088080,"current_range_meters":38800,"station_id":"ce4bhu92rcd13ifvqi70","pricing_plan_id":"cebpf4jnsgd1na2vs0mg"},{"bike_id":"222eeefe-e0b6-4735-86e7-298871df3cb1","system_id":"levelo_inurba_marseille","lat":43.3095,"lon":5.39031,"is_reserved":false,"is_disabled":false,"rental_uris":{"android":"levelo://app?vid=222eeefe-e0b6-4735-86e7-298871df3cb1","ios":"levelo://app?vid=222eeefe-e0b6-4735-86e7-298871df3cb1"},"vehicle_type_id":"4","last_reported":1734088080,"current_range_meters":35200,"station_id":"ce4bgup2rcd13ifvqco0","pricing_plan_id":"cebpf4jnsgd1na2vs0mg"},{"bike_id":"057d46ff-2ee8-4fe4-a32e-cfffa3f5aaa8","system_id":"levelo_inurba_marseille","lat":43.28426,"lon":5.39178,"is_reserved":false,"is_disabled":true,"rental_uris":{"android":"levelo://app?vid=057d46ff-2ee8-4fe4-a32e-cfffa3f5aaa8","ios":"levelo://app?vid=057d46ff-2ee8-4fe4-a32e-cfffa3f5aaa8"},"vehicle_type_id":"4","last_reported":1734088080,"current_range_meters":0,"station_id":"","pricing_plan_id":"cebpf4jnsgd1na2vs0mg"},{"bike_id":"46b2fdec-0870-4ae2-84dc-b1f57512351e","system_id":"levelo_inurba_marseille","lat":43.337444,"lon":5.374475,"is_reserved":false,"is_disabled":true,"rental_uris":{"android":"levelo://app?vid=46b2fdec-0870-4ae2-84dc-b1f57512351e","ios":"levelo://app?vid=46b2fdec-0870-4ae2-84dc-b1f57512351e"},"vehicle_type_id":"4","last_reported":1734088080,"current_range_meters":0,"station_id":"","pricing_plan_id":"cebpf4jnsgd1na2vs0mg"},{"bike_id":"f6bfa59a-017c-4ffa-b401-cde289947443","system_id":"levelo_inurba_marseille","lat":43.2586,"lon":5.39904,"is_reserved":false,"is_disabled":false,"rental_uris":{"android":"levelo://app?vid=f6bfa59a-017c-4ffa-b401-cde289947443","ios":"levelo://app?vid=f6bfa59a-017c-4ffa-b401-cde289947443"},"vehicle_type_id":"4","last_reported":1734088080,"current_range_meters":26800,"station_id":"ce4bhl92rcd13ifvqghg","pricing_plan_id":"cebpf4jnsgd1na2vs0mg"},{"bike_id":"4a32eee4-95b9-444b-98a9-f44fcefc94d2","system_id":"levelo_inurba_marseille","lat":43.28572,"lon":5.39497,"is_reserved":false,"is_disabled":false,"rental_uris":{"android":"levelo://app?vid=4a32eee4-95b9-444b-98a9-f44fcefc94d2","ios":"levelo://app?vid=4a32eee4-95b9-444b-98a9-f44fcefc94d2"},"vehicle_type_id":"4","last_reported":1734088080,"current_range_meters":20000,"station_id":"ce4bh292rcd13ifvqdg0","pricing_plan_id":"cebpf4jnsgd1na2vs0mg"},{"bike_id":"cbe01e99-0ff7-479e-ac8d-a89f5a65b0d8","system_id":"levelo_inurba_marseille","lat":43.25574,"lon":5.38246,"is_reserved":false,"is_disabled":false,"rental_uris":{"android":"levelo://app?vid=cbe01e99-0ff7-479e-ac8d-a89f5a65b0d8","ios":"levelo://app?vid=cbe01e99-0ff7-479e-ac8d-a89f5a65b0d8"},"vehicle_type_id":"4","last_reported":1734088080,"current_range_meters":37600,"station_id":"ce4bhih2rcd13ifvqfs0","pricing_plan_id":"cebpf4jnsgd1na2vs0mg"},{"bike_id":"53137f10-384f-4722-8f4b-28efb63c52ea","system_id":"levelo_inurba_marseille","lat":43.28004,"lon":5.41673,"is_reserved":false,"is_disabled":false,"rental_uris":{"android":"levelo://app?vid=53137f10-384f-4722-8f4b-28efb63c52ea","ios":"levelo://app?vid=53137f10-384f-4722-8f4b-28efb63c52ea"},"vehicle_type_id":"4","last_reported":1734088080,"current_range_meters":39200,"station_id":"ce4bho12rcd13ifvqh1g","pricing_plan_id":"cebpf4jnsgd1na2vs0mg"},{"bike_id":"c8f061b9-cdf8-456e-b591-d2629d387532","system_id":"levelo_inurba_marseille","lat":43.24082,"lon":5.37746,"is_reserved":false,"is_disabled":false,"rental_uris":{"android":"levelo://app?vid=c8f061b9-cdf8-456e-b591-d2629d387532","ios":"levelo://app?vid=c8f061b9-cdf8-456e-b591-d2629d387532"},"vehicle_type_id":"4","last_reported":1734088080,"current_range_meters":14400,"station_id":"ce4bhnp2rcd13ifvqgvg","pricing_plan_id":"cebpf4jnsgd1na2vs0mg"},{"bike_id":"69ef6e13-6d74-4067-a25e-0d94d6f9f54f","system_id":"levelo_inurba_marseille","lat":43.25578,"lon":5.38239,"is_reserved":false,"is_disabled":false,"rental_uris":{"android":"levelo://app?vid=69ef6e13-6d74-4067-a25e-0d94d6f9f54f","ios":"levelo://app?vid=69ef6e13-6d74-4067-a25e-0d94d6f9f54f"},"vehicle_type_id":"4","last_reported":1734088080,"current_range_meters":37600,"station_id":"ce4bhih2rcd13ifvqfs0","pricing_plan_id":"cebpf4jnsgd1na2vs0mg"},{"bike_id":"9c51598c-968e-48b4-81b9-e35f67cfa712","system_id":"levelo_inurba_marseille","lat":43.28461,"lon":5.35884,"is_reserved":false,"is_disabled":false,"rental_uris":{"android":"levelo://app?vid=9c51598c-968e-48b4-81b9-e35f67cfa712","ios":"levelo://app?vid=9c51598c-968e-48b4-81b9-e35f67cfa712"},"vehicle_type_id":"4","last_reported":1734088080,"current_range_meters":38400,"station_id":"ce4bhah2rcd13ifvqei0","pricing_plan_id":"cebpf4jnsgd1na2vs0mg"},{"bike_id":"2448f112-093b-44a4-8c49-c482af2ba024","system_id":"levelo_inurba_marseille","lat":43.23071,"lon":5.35482,"is_reserved":false,"is_disabled":false,"rental_uris":{"android":"levelo://app?vid=2448f112-093b-44a4-8c49-c482af2ba024","ios":"levelo://app?vid=2448f112-093b-44a4-8c49-c482af2ba024"},"vehicle_type_id":"4","last_reported":1734088080,"current_range_meters":26800,"station_id":"cpo3342slgdg3j2ifvpg","pricing_plan_id":"cebpf4jnsgd1na2vs0mg"},{"bike_id":"45575a3e-6014-4a43-b82a-d550eb87db4b","system_id":"levelo_inurba_marseille","lat":43.29515,"lon":5.39401,"is_reserved":false,"is_disabled":false,"rental_uris":{"android":"levelo://app?vid=45575a3e-6014-4a43-b82a-d550eb87db4b","ios":"levelo://app?vid=45575a3e-6014-4a43-b82a-d550eb87db4b"},"vehicle_type_id":"4","last_reported":1734088080,"current_range_meters":17600,"station_id":"ce4bh292rcd13ifvqdf0","pricing_plan_id":"cebpf4jnsgd1na2vs0mg"},{"bike_id":"75a7ac90-871e-43e4-a5f1-3d767d2c6ff5","system_id":"levelo_inurba_marseille","lat":43.284627,"lon":5.358864,"is_reserved":false,"is_disabled":false,"rental_uris":{"android":"levelo://app?vid=75a7ac90-871e-43e4-a5f1-3d767d2c6ff5","ios":"levelo://app?vid=75a7ac90-871e-43e4-a5f1-3d767d2c6ff5"},"vehicle_type_id":"4","last_reported":1734088080,"current_range_meters":38400,"station_id":"ce4bhah2rcd13ifvqei0","pricing_plan_id":"cebpf4jnsgd1na2vs0mg"},{"bike_id":"da936c82-4420-405a-90bb-8622efc90b1f","system_id":"levelo_inurba_marseille","lat":43.30178,"lon":5.3661,"is_reserved":false,"is_disabled":false,"rental_uris":{"android":"levelo://app?vid=da936c82-4420-405a-90bb-8622efc90b1f","ios":"levelo://app?vid=da936c82-4420-405a-90bb-8622efc90b1f"},"vehicle_type_id":"4","last_reported":1734088080,"current_range_meters":38400,"station_id":"ce4bgrh2rcd13ifvqc8g","pricing_plan_id":"cebpf4jnsgd1na2vs0mg"},{"bike_id":"26036155-8218-4522-88a5-9de59192fbcd","system_id":"levelo_inurba_marseille","lat":43.33359,"lon":5.41041,"is_reserved":false,"is_disabled":false,"rental_uris":{"android":"levelo://app?vid=26036155-8218-4522-88a5-9de59192fbcd","ios":"levelo://app?vid=26036155-8218-4522-88a5-9de59192fbcd"},"vehicle_type_id":"4","last_reported":1734088080,"current_range_meters":10000,"station_id":"ce4bhqh2rcd13ifvqhmg","pricing_plan_id":"cebpf4jnsgd1na2vs0mg"},{"bike_id":"36fe7f2d-6b60-46ad-a5d3-ec5715357c26","system_id":"levelo_inurba_marseille","lat":43.33756,"lon":5.37399,"is_reserved":false,"is_disabled":false,"rental_uris":{"android":"levelo://app?vid=36fe7f2d-6b60-46ad-a5d3-ec5715357c26","ios":"levelo://app?vid=36fe7f2d-6b60-46ad-a5d3-ec5715357c26"},"vehicle_type_id":"4","last_reported":1734088080,"current_range_meters":38800,"station_id":"","pricing_plan_id":"cebpf4jnsgd1na2vs0mg"},{"bike_id":"6d05f7ba-808a-4403-b1f3-f8483fec843c","system_id":"levelo_inurba_marseille","lat":43.23192,"lon":5.35556,"is_reserved":false,"is_disabled":false,"rental_uris":{"android":"levelo://app?vid=6d05f7ba-808a-4403-b1f3-f8483fec843c","ios":"levelo://app?vid=6d05f7ba-808a-4403-b1f3-f8483fec843c"},"vehicle_type_id":"4","last_reported":1734088080,"current_range_meters":27600,"station_id":"ce4bhu92rcd13ifvqi70","pricing_plan_id":"cebpf4jnsgd1na2vs0mg"},{"bike_id":"632cbb7d-3930-4d08-9c55-101c7c0073c2","system_id":"levelo_inurba_marseille","lat":43.30287,"lon":5.37711,"is_reserved":false,"is_disabled":false,"rental_uris":{"android":"levelo://app?vid=632cbb7d-3930-4d08-9c55-101c7c0073c2","ios":"levelo://app?vid=632cbb7d-3930-4d08-9c55-101c7c0073c2"},"vehicle_type_id":"4","last_reported":1734088080,"current_range_meters":38800,"station_id":"ce4bguh2rcd13ifvqcj0","pricing_plan_id":"cebpf4jnsgd1na2vs0mg"},{"bike_id":"36f84b63-5e88-406e-b909-c7ee6424d209","system_id":"levelo_inurba_marseille","lat":43.2804,"lon":5.386,"is_reserved":false,"is_disabled":true,"rental_uris":{"android":"levelo://app?vid=36f84b63-5e88-406e-b909-c7ee6424d209","ios":"levelo://app?vid=36f84b63-5e88-406e-b909-c7ee6424d209"},"vehicle_type_id":"4","last_reported":1734088080,"current_range_meters":24400,"station_id":"","pricing_plan_id":"cebpf4jnsgd1na2vs0mg"},{"bike_id":"e134a774-05a7-4f47-9c01-177fb7fc438a","system_id":"levelo_inurba_marseille","lat":43.31226,"lon":5.36867,"is_reserved":false,"is_disabled":false,"rental_uris":{"android":"levelo://app?vid=e134a774-05a7-4f47-9c01-177fb7fc438a","ios":"levelo://app?vid=e134a774-05a7-4f47-9c01-177fb7fc438a"},"vehicle_type_id":"4","last_reported":1734088080,"current_range_meters":36400,"station_id":"ce4bgl92rcd13ifvqbq0","pricing_plan_id":"cebpf4jnsgd1na2vs0mg"},{"bike_id":"c3db8b81-768f-493d-964f-6b4c58f7a351","system_id":"levelo_inurba_marseille","lat":43.27815,"lon":5.40716,"is_reserved":false,"is_disabled":false,"rental_uris":{"android":"levelo://app?vid=c3db8b81-768f-493d-964f-6b4c58f7a351","ios":"levelo://app?vid=c3db8b81-768f-493d-964f-6b4c58f7a351"},"vehicle_type_id":"4","last_reported":1734088080,"current_range_meters":23200,"station_id":"ce4bhnh2rcd13ifvqgtg","pricing_plan_id":"cebpf4jnsgd1na2vs0mg"},{"bike_id":"9c8c1480-9ffa-4086-913c-c2125a6eb848","system_id":"levelo_inurba_marseille","lat":43.22931,"lon":5.35378,"is_reserved":false,"is_disabled":false,"rental_uris":{"android":"levelo://app?vid=9c8c1480-9ffa-4086-913c-c2125a6eb848","ios":"levelo://app?vid=9c8c1480-9ffa-4086-913c-c2125a6eb848"},"vehicle_type_id":"4","last_reported":1734088080,"current_range_meters":32800,"station_id":"cpo3532slgdg3j2ikp40","pricing_plan_id":"cebpf4jnsgd1na2vs0mg"},{"bike_id":"6f01bb7d-4400-45d7-98f5-701a6b4c1e67","system_id":"levelo_inurba_marseille","lat":43.29187,"lon":5.39316,"is_reserved":false,"is_disabled":false,"rental_uris":{"android":"levelo://app?vid=6f01bb7d-4400-45d7-98f5-701a6b4c1e67","ios":"levelo://app?vid=6f01bb7d-4400-45d7-98f5-701a6b4c1e67"},"vehicle_type_id":"4","last_reported":1734088080,"current_range_meters":25600,"station_id":"ce4bh192rcd13ifvqdd0","pricing_plan_id":"cebpf4jnsgd1na2vs0mg"},{"bike_id":"2edcd021-cde1-4fb0-9e43-6279930c08d2","system_id":"levelo_inurba_marseille","lat":43.32542,"lon":5.41453,"is_reserved":false,"is_disabled":false,"rental_uris":{"android":"levelo://app?vid=2edcd021-cde1-4fb0-9e43-6279930c08d2","ios":"levelo://app?vid=2edcd021-cde1-4fb0-9e43-6279930c08d2"},"vehicle_type_id":"4","last_reported":1734088080,"current_range_meters":37600,"station_id":"ce4bhq12rcd13ifvqhhg","pricing_plan_id":"cebpf4jnsgd1na2vs0mg"},{"bike_id":"dd76e1a4-0943-4507-a76b-20b15c09ddac","system_id":"levelo_inurba_marseille","lat":43.29571,"lon":5.39966,"is_reserved":false,"is_disabled":true,"rental_uris":{"android":"levelo://app?vid=dd76e1a4-0943-4507-a76b-20b15c09ddac","ios":"levelo://app?vid=dd76e1a4-0943-4507-a76b-20b15c09ddac"},"vehicle_type_id":"4","last_reported":1734088080,"current_range_meters":36800,"station_id":"ce4bh312rcd13ifvqdj0","pricing_plan_id":"cebpf4jnsgd1na2vs0mg"},{"bike_id":"6c7cc439-8ccd-46ff-b686-4156fed91d60","system_id":"levelo_inurba_marseille","lat":43.29381,"lon":5.37846,"is_reserved":false,"is_disabled":false,"rental_uris":{"android":"levelo://app?vid=6c7cc439-8ccd-46ff-b686-4156fed91d60","ios":"levelo://app?vid=6c7cc439-8ccd-46ff-b686-4156fed91d60"},"vehicle_type_id":"4","last_reported":1734088080,"current_range_meters":38800,"station_id":"ce4bgjh2rcd13ifvqbf0","pricing_plan_id":"cebpf4jnsgd1na2vs0mg"},{"bike_id":"11569a89-87ad-4dd6-a538-2e060b5201dd","system_id":"levelo_inurba_marseille","lat":43.28417,"lon":5.34995,"is_reserved":false,"is_disabled":true,"rental_uris":{"android":"levelo://app?vid=11569a89-87ad-4dd6-a538-2e060b5201dd","ios":"levelo://app?vid=11569a89-87ad-4dd6-a538-2e060b5201dd"},"vehicle_type_id":"4","last_reported":1734088080,"current_range_meters":19600,"station_id":"ce4bhbh2rcd13ifvqepg","pricing_plan_id":"cebpf4jnsgd1na2vs0mg"},{"bike_id":"76ff6577-012f-45c0-9808-97bac7529c3f","system_id":"levelo_inurba_marseille","lat":43.30521,"lon":5.36709,"is_reserved":false,"is_disabled":false,"rental_uris":{"android":"levelo://app?vid=76ff6577-012f-45c0-9808-97bac7529c3f","ios":"levelo://app?vid=76ff6577-012f-45c0-9808-97bac7529c3f"},"vehicle_type_id":"4","last_reported":1734088080,"current_range_meters":38400,"station_id":"ce4bgrp2rcd13ifvqc9g","pricing_plan_id":"cebpf4jnsgd1na2vs0mg"},{"bike_id":"9ac7fa6e-2578-4832-8168-ade341fdc585","system_id":"levelo_inurba_marseille","lat":43.2841,"lon":5.428961,"is_reserved":false,"is_disabled":true,"rental_uris":{"android":"levelo://app?vid=9ac7fa6e-2578-4832-8168-ade341fdc585","ios":"levelo://app?vid=9ac7fa6e-2578-4832-8168-ade341fdc585"},"vehicle_type_id":"4","last_reported":1734088080,"current_range_meters":0,"station_id":"","pricing_plan_id":"cebpf4jnsgd1na2vs0mg"},{"bike_id":"335ab030-c097-456c-a1b3-98808b61e42f","system_id":"levelo_inurba_marseille","lat":43.3014,"lon":5.37417,"is_reserved":false,"is_disabled":false,"rental_uris":{"android":"levelo://app?vid=335ab030-c097-456c-a1b3-98808b61e42f","ios":"levelo://app?vid=335ab030-c097-456c-a1b3-98808b61e42f"},"vehicle_type_id":"4","last_reported":1734088080,"current_range_meters":38000,"station_id":"ce4bgs92rcd13ifvqcc0","pricing_plan_id":"cebpf4jnsgd1na2vs0mg"},{"bike_id":"09272c0c-8863-4b19-893b-9afa2ff2a239","system_id":"levelo_inurba_marseille","lat":43.28151,"lon":5.42655,"is_reserved":false,"is_disabled":true,"rental_uris":{"android":"levelo://app?vid=09272c0c-8863-4b19-893b-9afa2ff2a239","ios":"levelo://app?vid=09272c0c-8863-4b19-893b-9afa2ff2a239"},"vehicle_type_id":"4","last_reported":1734088080,"current_range_meters":35200,"station_id":"ce4bhnh2rcd13ifvqgug","pricing_plan_id":"cebpf4jnsgd1na2vs0mg"},{"bike_id":"0d010a08-2d95-42ce-b35c-0cddd3ee4f0f","system_id":"levelo_inurba_marseille","lat":43.24804,"lon":5.37459,"is_reserved":false,"is_disabled":false,"rental_uris":{"android":"levelo://app?vid=0d010a08-2d95-42ce-b35c-0cddd3ee4f0f","ios":"levelo://app?vid=0d010a08-2d95-42ce-b35c-0cddd3ee4f0f"},"vehicle_type_id":"4","last_reported":1734088080,"current_range_meters":26000,"station_id":"ce4bhgh2rcd13ifvqfb0","pricing_plan_id":"cebpf4jnsgd1na2vs0mg"},{"bike_id":"ece3a9b6-b9fd-495c-89f4-05956fc71826","system_id":"levelo_inurba_marseille","lat":43.28476,"lon":5.38421,"is_reserved":false,"is_disabled":false,"rental_uris":{"android":"levelo://app?vid=ece3a9b6-b9fd-495c-89f4-05956fc71826","ios":"levelo://app?vid=ece3a9b6-b9fd-495c-89f4-05956fc71826"},"vehicle_type_id":"4","last_reported":1734088080,"current_range_meters":35600,"station_id":"ce4bh512rcd13ifvqe3g","pricing_plan_id":"cebpf4jnsgd1na2vs0mg"},{"bike_id":"28fab13f-69a4-45df-844c-0b28ea31db58","system_id":"levelo_inurba_marseille","lat":43.30277,"lon":5.36868,"is_reserved":false,"is_disabled":false,"rental_uris":{"android":"levelo://app?vid=28fab13f-69a4-45df-844c-0b28ea31db58","ios":"levelo://app?vid=28fab13f-69a4-45df-844c-0b28ea31db58"},"vehicle_type_id":"4","last_reported":1734088080,"current_range_meters":36000,"station_id":"ce4bgqh2rcd13ifvqc5g","pricing_plan_id":"cebpf4jnsgd1na2vs0mg"},{"bike_id":"a785ec8b-dd9a-4959-a018-d379d42875f5","system_id":"levelo_inurba_marseille","lat":43.23176,"lon":5.39978,"is_reserved":false,"is_disabled":false,"rental_uris":{"android":"levelo://app?vid=a785ec8b-dd9a-4959-a018-d379d42875f5","ios":"levelo://app?vid=a785ec8b-dd9a-4959-a018-d379d42875f5"},"vehicle_type_id":"4","last_reported":1734088080,"current_range_meters":38400,"station_id":"ce4bhn12rcd13ifvqgqg","pricing_plan_id":"cebpf4jnsgd1na2vs0mg"},{"bike_id":"1ab34c15-2f35-461f-a0a3-4f1efe4e8ee9","system_id":"levelo_inurba_marseille","lat":43.30386,"lon":5.37319,"is_reserved":false,"is_disabled":true,"rental_uris":{"android":"levelo://app?vid=1ab34c15-2f35-461f-a0a3-4f1efe4e8ee9","ios":"levelo://app?vid=1ab34c15-2f35-461f-a0a3-4f1efe4e8ee9"},"vehicle_type_id":"4","last_reported":1734088080,"current_range_meters":0,"station_id":"","pricing_plan_id":"cebpf4jnsgd1na2vs0mg"},{"bike_id":"aac994a1-8478-4f84-8259-ce561e859632","system_id":"levelo_inurba_marseille","lat":43.30142,"lon":5.39877,"is_reserved":false,"is_disabled":false,"rental_uris":{"android":"levelo://app?vid=aac994a1-8478-4f84-8259-ce561e859632","ios":"levelo://app?vid=aac994a1-8478-4f84-8259-ce561e859632"},"vehicle_type_id":"4","last_reported":1734088080,"current_range_meters":39200,"station_id":"ce4bh0h2rcd13ifvqd40","pricing_plan_id":"cebpf4jnsgd1na2vs0mg"},{"bike_id":"0c048de4-9c12-4588-8a62-d143a1964913","system_id":"levelo_inurba_marseille","lat":43.29177,"lon":5.3715,"is_reserved":false,"is_disabled":false,"rental_uris":{"android":"levelo://app?vid=0c048de4-9c12-4588-8a62-d143a1964913","ios":"levelo://app?vid=0c048de4-9c12-4588-8a62-d143a1964913"},"vehicle_type_id":"4","last_reported":1734088080,"current_range_meters":19200,"station_id":"ce4bha92rcd13ifvqeh0","pricing_plan_id":"cebpf4jnsgd1na2vs0mg"},{"bike_id":"2b5d3560-4167-42a1-8b5b-0d7021d13f9f","system_id":"levelo_inurba_marseille","lat":43.2606,"lon":5.39394,"is_reserved":false,"is_disabled":false,"rental_uris":{"android":"levelo://app?vid=2b5d3560-4167-42a1-8b5b-0d7021d13f9f","ios":"levelo://app?vid=2b5d3560-4167-42a1-8b5b-0d7021d13f9f"},"vehicle_type_id":"4","last_reported":1734088080,"current_range_meters":32000,"station_id":"ce4bhh92rcd13ifvqfj0","pricing_plan_id":"cebpf4jnsgd1na2vs0mg"},{"bike_id":"312a56fa-a572-4b26-9af8-993942b727fa","system_id":"levelo_inurba_marseille","lat":43.33082,"lon":5.38224,"is_reserved":false,"is_disabled":false,"rental_uris":{"android":"levelo://app?vid=312a56fa-a572-4b26-9af8-993942b727fa","ios":"levelo://app?vid=312a56fa-a572-4b26-9af8-993942b727fa"},"vehicle_type_id":"4","last_reported":1734088080,"current_range_meters":30400,"station_id":"","pricing_plan_id":"cebpf4jnsgd1na2vs0mg"},{"bike_id":"a4f79af6-5106-41a3-86fc-7f5a7799c3cf","system_id":"levelo_inurba_marseille","lat":43.27178,"lon":5.41,"is_reserved":false,"is_disabled":false,"rental_uris":{"android":"levelo://app?vid=a4f79af6-5106-41a3-86fc-7f5a7799c3cf","ios":"levelo://app?vid=a4f79af6-5106-41a3-86fc-7f5a7799c3cf"},"vehicle_type_id":"4","last_reported":1734088080,"current_range_meters":30400,"station_id":"ce4bhl12rcd13ifvqgf0","pricing_plan_id":"cebpf4jnsgd1na2vs0mg"},{"bike_id":"ce5ef2d3-b94f-4c61-be15-4c872a1181f0","system_id":"levelo_inurba_marseille","lat":43.231899,"lon":5.399863,"is_reserved":false,"is_disabled":false,"rental_uris":{"android":"levelo://app?vid=ce5ef2d3-b94f-4c61-be15-4c872a1181f0","ios":"levelo://app?vid=ce5ef2d3-b94f-4c61-be15-4c872a1181f0"},"vehicle_type_id":"4","last_reported":1734088080,"current_range_meters":34000,"station_id":"ce4bhn12rcd13ifvqgqg","pricing_plan_id":"cebpf4jnsgd1na2vs0mg"},{"bike_id":"b890382b-a6ba-4ffd-8b10-50827b1832c3","system_id":"levelo_inurba_marseille","lat":43.30167,"lon":5.38068,"is_reserved":false,"is_disabled":false,"rental_uris":{"android":"levelo://app?vid=b890382b-a6ba-4ffd-8b10-50827b1832c3","ios":"levelo://app?vid=b890382b-a6ba-4ffd-8b10-50827b1832c3"},"vehicle_type_id":"4","last_reported":1734088080,"current_range_meters":17600,"station_id":"ce4bgjp2rcd13ifvqbh0","pricing_plan_id":"cebpf4jnsgd1na2vs0mg"},{"bike_id":"ca31ef6f-3922-4614-9ae8-c36215db38d6","system_id":"levelo_inurba_marseille","lat":43.28262,"lon":5.3507,"is_reserved":false,"is_disabled":false,"rental_uris":{"android":"levelo://app?vid=ca31ef6f-3922-4614-9ae8-c36215db38d6","ios":"levelo://app?vid=ca31ef6f-3922-4614-9ae8-c36215db38d6"},"vehicle_type_id":"4","last_reported":1734088080,"current_range_meters":38000,"station_id":"ce4bhbp2rcd13ifvqerg","pricing_plan_id":"cebpf4jnsgd1na2vs0mg"},