{"last_updated":1679238376,"ttl":30,"version":"2.2","data":{"bikes":[{"bike_id":"54e747e2-5109-44b9-b73e-864125018cda","system_id":"levelo_inurba_marseille","lat":43.305989,"lon":5.37225,"is_reserved":false,"is_disabled":false,"rental_uris":{"android":"levelo://app?vid=54e747e2-5109-44b9-b73e-864125018cda","ios":"levelo://app?vid=54e747e2-5109-44b9-b73e-864125018cda"},"vehicle_type_id":"4","last_reported":1679238378,"current_range_meters":18800,"station_id":"ce4bgqh2rcd13ifvqc4g","pricing_plan_id":"free"},{"bike_id":"25f224fb-8c81-4a86-bf87-35cdd5c3e414","system_id":"levelo_inurba_marseille","lat":43.304606,"lon":5.379026,"is_reserved":false,"is_disabled":false,"rental_uris":{"android":"levelo://app?vid=25f224fb-8c81-4a86-bf87-35cdd5c3e414","ios":"levelo://app?vid=25f224fb-8c81-4a86-bf87-35cdd5c3e414"},"vehicle_type_id":"4","last_reported":1679238378,"current_range_meters":6400,"station_id":"ce4bgup2rcd13ifvqcn0","pricing_plan_id":"free"},{"bike_id":"3f552f40-04e8-43ef-9a0c-6f2fcb57e224","system_id":"levelo_inurba_marseille","lat":43.300877,"lon":5.374799,"is_reserved":false,"is_disabled":false,"rental_uris":{"android":"levelo://app?vid=3f552f40-04e8-43ef-9a0c-6f2fcb57e224","ios":"levelo://app?vid=3f552f40-04e8-43ef-9a0c-6f2fcb57e224"},"vehicle_type_id":"4","last_reported":1679238378,"current_range_meters":0,"station_id":"","pricing_plan_id":"free"},{"bike_id":"f2ae4bd2-74ec-47a4-b873-64c8c6cfa8f7","system_id":"levelo_inurba_marseille","lat":43.298489,"lon":5.362974,"is_reserved":false,"is_disabled":false,"rental_uris":{"android":"levelo://app?vid=f2ae4bd2-74ec-47a4-b873-64c8c6cfa8f7","ios":"levelo://app?vid=f2ae4bd2-74ec-47a4-b873-64c8c6cfa8f7"},"vehicle_type_id":"4","last_reported":1679238378,"current_range_meters":11600,"station_id":"ce4bgpp2rcd13ifvqc3g","pricing_plan_id":"free"},{"bike_id":"fb9d4ee0-d584-4ca6-b381-fc268da0abda","system_id":"levelo_inurba_marseille","lat":43.298433,"lon":5.362774,"is_reserved":false,"is_disabled":false,"rental_uris":{"android":"levelo://app?vid=fb9d4ee0-d584-4ca6-b381-fc268da0abda","ios":"levelo://app?vid=fb9d4ee0-d584-4ca6-b381-fc268da0abda"},"vehicle_type_id":"4","last_reported":1679238378,"current_range_meters":31600,"station_id":"ce4bgpp2rcd13ifvqc3g","pricing_plan_id":"free"},{"bike_id":"e507acc9-0f4a-4d6e-87c7-18a22e6feafa","system_id":"levelo_inurba_marseille","lat":43.29774,"lon":5.37101,"is_reserved":false,"is_disabled":false,"rental_uris":{"android":"levelo://app?vid=e507acc9-0f4a-4d6e-87c7-18a22e6feafa","ios":"levelo://app?vid=e507acc9-0f4a-4d6e-87c7-18a22e6feafa"},"vehicle_type_id":"4","last_reported":1679238378,"current_range_meters":29200,"station_id":"ce4bgop2rcd13ifvqc1g","pricing_plan_id":"free"},{"bike_id":"5f1953a9-d6b0-4ce0-8b30-d4e40c5fa677","system_id":"levelo_inurba_marseille","lat":43.296131,"lon":5.370791,"is_reserved":false,"is_disabled":false,"rental_uris":{"android":"levelo://app?vid=5f1953a9-d6b0-4ce0-8b30-d4e40c5fa677","ios":"levelo://app?vid=5f1953a9-d6b0-4ce0-8b30-d4e40c5fa677"},"vehicle_type_id":"4","last_reported":1679238378,"current_range_meters":18000,"station_id":"ce4bgnh2rcd13ifvqc0g","pricing_plan_id":"free"},{"bike_id":"7acf979e-3c86-4160-b8d9-bf7af2b894b1","system_id":"levelo_inurba_marseille","lat":43.317567,"lon":5.390166,"is_reserved":false,"is_disabled":false,"rental_uris":{"android":"levelo://app?vid=7acf979e-3c86-4160-b8d9-bf7af2b894b1","ios":"levelo://app?vid=7acf979e-3c86-4160-b8d9-bf7af2b894b1"},"vehicle_type_id":"4","last_reported":1679238378,"current_range_meters":0,"station_id":"","pricing_plan_id":"free"},{"bike_id":"8f0253d3-dd17-42cf-841b-2d4082d06618","system_id":"levelo_inurba_marseille","lat":43.298063,"lon":5.380914,"is_reserved":false,"is_disabled":false,"rental_uris":{"android":"levelo://app?vid=8f0253d3-dd17-42cf-841b-2d4082d06618","ios":"levelo://app?vid=8f0253d3-dd17-42cf-841b-2d4082d06618"},"vehicle_type_id":"4","last_reported":1679238378,"current_range_meters":0,"station_id":"ce4bgip2rcd13ifvqbb0","pricing_plan_id":"free"},{"bike_id":"d6a2435e-f8ad-48de-8b0d-416d7f7512b3","system_id":"levelo_inurba_marseille","lat":43.295748,"lon":5.37522,"is_reserved":false,"is_disabled":false,"rental_uris":{"android":"levelo://app?vid=d6a2435e-f8ad-48de-8b0d-416d7f7512b3","ios":"levelo://app?vid=d6a2435e-f8ad-48de-8b0d-416d7f7512b3"},"vehicle_type_id":"4","last_reported":1679238378,"current_range_meters":24400,"station_id":"ce4bgh92rcd13ifvqb50","pricing_plan_id":"free"},{"bike_id":"0fcf2b6b-b474-46b6-9d2e-c9b6893d3ae9","system_id":"levelo_inurba_marseille","lat":43.29526,"lon":5.374805,"is_reserved":false,"is_disabled":false,"rental_uris":{"android":"levelo://app?vid=0fcf2b6b-b474-46b6-9d2e-c9b6893d3ae9","ios":"levelo://app?vid=0fcf2b6b-b474-46b6-9d2e-c9b6893d3ae9"},"vehicle_type_id":"4","last_reported":1679238378,"current_range_meters":24400,"station_id":"","pricing_plan_id":"free"},{"bike_id":"021df76b-7950-4f3f-9c4f-7231011e62e5","system_id":"levelo_inurba_marseille","lat":43.295279,"lon":5.375048,"is_reserved":false,"is_disabled":false,"rental_uris":{"android":"levelo://app?vid=021df76b-7950-4f3f-9c4f-7231011e62e5","ios":"levelo://app?vid=021df76b-7950-4f3f-9c4f-7231011e62e5"},"vehicle_type_id":"4","last_reported":1679238378,"current_range_meters":24800,"station_id":"ce4bgkp2rcd13ifvqbmg","pricing_plan_id":"free"},{"bike_id":"4f192315-1ba4-4731-87da-a8fa68d8f93c","system_id":"levelo_inurba_marseille","lat":43.29369,"lon":5.37866,"is_reserved":false,"is_disabled":false,"rental_uris":{"android":"levelo://app?vid=4f192315-1ba4-4731-87da-a8fa68d8f93c","ios":"levelo://app?vid=4f192315-1ba4-4731-87da-a8fa68d8f93c"},"vehicle_type_id":"4","last_reported":1679238378,"current_range_meters":17200,"station_id":"","pricing_plan_id":"free"},{"bike_id":"039ea9ba-d736-4dfb-b67e-565b04374e5b","system_id":"levelo_inurba_marseille","lat":43.29226,"lon":5.360725,"is_reserved":false,"is_disabled":false,"rental_uris":{"android":"levelo://app?vid=039ea9ba-d736-4dfb-b67e-565b04374e5b","ios":"levelo://app?vid=039ea9ba-d736-4dfb-b67e-565b04374e5b"},"vehicle_type_id":"4","last_reported":1679238378,"current_range_meters":23600,"station_id":"ce4bhbh2rcd13ifvqeqg","pricing_plan_id":"free"},{"bike_id":"53cde394-758f-43db-97c9-6b92fabac739","system_id":"levelo_inurba_marseille","lat":43.292311,"lon":5.360731,"is_reserved":false,"is_disabled":false,"rental_uris":{"android":"levelo://app?vid=53cde394-758f-43db-97c9-6b92fabac739","ios":"levelo://app?vid=53cde394-758f-43db-97c9-6b92fabac739"},"vehicle_type_id":"4","last_reported":1679238378,"current_range_meters":17600,"station_id":"ce4bhbh2rcd13ifvqeqg","pricing_plan_id":"free"},{"bike_id":"4434b6fb-d2d9-4776-98a4-0506f541fccf","system_id":"levelo_inurba_marseille","lat":43.2936,"lon":5.37835,"is_reserved":false,"is_disabled":false,"rental_uris":{"android":"levelo://app?vid=4434b6fb-d2d9-4776-98a4-0506f541fccf","ios":"levelo://app?vid=4434b6fb-d2d9-4776-98a4-0506f541fccf"},"vehicle_type_id":"4","last_reported":1679238378,"current_range_meters":25200,"station_id":"ce4bgjh2rcd13ifvqbf0","pricing_plan_id":"free"},{"bike_id":"ecc41209-444b-4f9e-85d9-5f0909855a85","system_id":"levelo_inurba_marseille","lat":43.294153,"lon":5.386305,"is_reserved":false,"is_disabled":false,"rental_uris":{"android":"levelo://app?vid=ecc41209-444b-4f9e-85d9-5f0909855a85","ios":"levelo://app?vid=ecc41209-444b-4f9e-85d9-5f0909855a85"},"vehicle_type_id":"4","last_reported":1679238378,"current_range_meters":17600,"station_id":"ce4bh2h2rcd13ifvqdh0","pricing_plan_id":"free"},{"bike_id":"8d7f2fae-223a-47fc-b70e-a704e460830a","system_id":"levelo_inurba_marseille","lat":43.294153,"lon":5.386305,"is_reserved":false,"is_disabled":false,"rental_uris":{"android":"levelo://app?vid=8d7f2fae-223a-47fc-b70e-a704e460830a","ios":"levelo://app?vid=8d7f2fae-223a-47fc-b70e-a704e460830a"},"vehicle_type_id":"4","last_reported":1679238378,"current_range_meters":24800,"station_id":"ce4bh2h2rcd13ifvqdh0","pricing_plan_id":"free"},{"bike_id":"f6b47893-db2c-4283-b371-030676db922c","system_id":"levelo_inurba_marseille","lat":43.292703,"lon":5.384214,"is_reserved":false,"is_disabled":false,"rental_uris":{"android":"levelo://app?vid=f6b47893-db2c-4283-b371-030676db922c","ios":"levelo://app?vid=f6b47893-db2c-4283-b371-030676db922c"},"vehicle_type_id":"4","last_reported":1679238378,"current_range_meters":7200,"station_id":"","pricing_plan_id":"free"},{"bike_id":"bc168ff1-00da-4c9a-a9a7-ad9c283cfc7d","system_id":"levelo_inurba_marseille","lat":43.292644,"lon":5.384257,"is_reserved":false,"is_disabled":false,"rental_uris":{"android":"levelo://app?vid=bc168ff1-00da-4c9a-a9a7-ad9c283cfc7d","ios":"levelo://app?vid=bc168ff1-00da-4c9a-a9a7-ad9c283cfc7d"},"vehicle_type_id":"4","last_reported":1679238378,"current_range_meters":30000,"station_id":"ce4bh692rcd13ifvqea0","pricing_plan_id":"free"},{"bike_id":"6350899c-b860-4d51-9eb8-d7f52b18d215","system_id":"levelo_inurba_marseille","lat":43.304274,"lon":5.397513,"is_reserved":false,"is_disabled":false,"rental_uris":{"android":"levelo://app?vid=6350899c-b860-4d51-9eb8-d7f52b18d215","ios":"levelo://app?vid=6350899c-b860-4d51-9eb8-d7f52b18d215"},"vehicle_type_id":"4","last_reported":1679238378,"current_range_meters":5600,"station_id":"ce4bh092rcd13ifvqd20","pricing_plan_id":"free"},{"bike_id":"5a899b21-6d14-417a-b744-cc1adc4320a9","system_id":"levelo_inurba_marseille","lat":43.291036,"lon":5.381413,"is_reserved":false,"is_disabled":false,"rental_uris":{"android":"levelo://app?vid=5a899b21-6d14-417a-b744-cc1adc4320a9","ios":"levelo://app?vid=5a899b21-6d14-417a-b744-cc1adc4320a9"},"vehicle_type_id":"4","last_reported":1679238378,"current_range_meters":22800,"station_id":"ce4bh512rcd13ifvqe2g","pricing_plan_id":"free"},{"bike_id":"c3d6ce61-e21b-47f0-a90e-ef25c26c1ef6","system_id":"levelo_inurba_marseille","lat":43.29042,"lon":5.37955,"is_reserved":false,"is_disabled":false,"rental_uris":{"android":"levelo://app?vid=c3d6ce61-e21b-47f0-a90e-ef25c26c1ef6","ios":"levelo://app?vid=c3d6ce61-e21b-47f0-a90e-ef25c26c1ef6"},"vehicle_type_id":"4","last_reported":1679238378,"current_range_meters":6000,"station_id":"ce4bhq92rcd13ifvqhjg","pricing_plan_id":"free"},{"bike_id":"d354d6f6-6a8d-40cd-baeb-f567813afe30","system_id":"levelo_inurba_marseille","lat":43.295169,"lon":5.390426,"is_reserved":false,"is_disabled":false,"rental_uris":{"android":"levelo://app?vid=d354d6f6-6a8d-40cd-baeb-f567813afe30","ios":"levelo://app?vid=d354d6f6-6a8d-40cd-baeb-f567813afe30"},"vehicle_type_id":"4","last_reported":1679238378,"current_range_meters":21200,"station_id":"ce4bh3p2rcd13ifvqdp0","pricing_plan_id":"free"},{"bike_id":"be484056-5b6a-4ba3-8e94-4d1605bb42d3","system_id":"levelo_inurba_marseille","lat":43.295169,"lon":5.390426,"is_reserved":false,"is_disabled":false,"rental_uris":{"android":"levelo://app?vid=be484056-5b6a-4ba3-8e94-4d1605bb42d3","ios":"levelo://app?vid=be484056-5b6a-4ba3-8e94-4d1605bb42d3"},"vehicle_type_id":"4","last_reported":1679238378,"current_range_meters":6800,"station_id":"ce4bh3p2rcd13ifvqdp0","pricing_plan_id":"free"},{"bike_id":"d0d7df32-c37a-428a-9862-70b0480dd19b","system_id":"levelo_inurba_marseille","lat":43.337455,"lon":5.374605,"is_reserved":false,"is_disabled":false,"rental_uris":{"android":"levelo://app?vid=d0d7df32-c37a-428a-9862-70b0480dd19b","ios":"levelo://app?vid=d0d7df32-c37a-428a-9862-70b0480dd19b"},"vehicle_type_id":"4","last_reported":1679238378,"current_range_meters":5600,"station_id":"","pricing_plan_id":"free"},{"bike_id":"3691d997-1cad-46ed-b7e6-586680d35f2f","system_id":"levelo_inurba_marseille","lat":43.337479,"lon":5.374594,"is_reserved":false,"is_disabled":false,"rental_uris":{"android":"levelo://app?vid=3691d997-1cad-46ed-b7e6-586680d35f2f","ios":"levelo://app?vid=3691d997-1cad-46ed-b7e6-586680d35f2f"},"vehicle_type_id":"4","last_reported":1679238378,"current_range_meters":18000,"station_id":"","pricing_plan_id":"free"},{"bike_id":"f3e60a9c-2b74-43cb-ac11-5dfafdbb73c0","system_id":"levelo_inurba_marseille","lat":43.337578,"lon":5.37469,"is_reserved":false,"is_disabled":false,"rental_uris":{"android":"levelo://app?vid=f3e60a9c-2b74-43cb-ac11-5dfafdbb73c0","ios":"levelo://app?vid=f3e60a9c-2b74-43cb-ac11-5dfafdbb73c0"},"vehicle_type_id":"4","last_reported":1679238378,"current_range_meters":21600,"station_id":"","pricing_plan_id":"free"},{"bike_id":"afed8a6e-9ee6-4af1-938f-98fef175e2e9","system_id":"levelo_inurba_marseille","lat":43.287185,"lon":5.379373,"is_reserved":false,"is_disabled":false,"rental_uris":{"android":"levelo://app?vid=afed8a6e-9ee6-4af1-938f-98fef175e2e9","ios":"levelo://app?vid=afed8a6e-9ee6-4af1-938f-98fef175e2e9"},"vehicle_type_id":"4","last_reported":1679238378,"current_range_meters":0,"station_id":"ce4bh9p2rcd13ifvqec0","pricing_plan_id":"free"},{"bike_id":"a7884236-1adc-4176-a6c4-4f391d366108","system_id":"levelo_inurba_marseille","lat":43.28723,"lon":5.37937,"is_reserved":false,"is_disabled":false,"rental_uris":{"android":"levelo://app?vid=a7884236-1adc-4176-a6c4-4f391d366108","ios":"levelo://app?vid=a7884236-1adc-4176-a6c4-4f391d366108"},"vehicle_type_id":"4","last_reported":1679238378,"current_range_meters":29600,"station_id":"ce4bh9p2rcd13ifvqec0","pricing_plan_id":"free"},{"bike_id":"ca2b801f-8098-4b46-9207-e796276339ad","system_id":"levelo_inurba_marseille","lat":43.287185,"lon":5.379373,"is_reserved":false,"is_disabled":false,"rental_uris":{"android":"levelo://app?vid=ca2b801f-8098-4b46-9207-e796276339ad","ios":"levelo://app?vid=ca2b801f-8098-4b46-9207-e796276339ad"},"vehicle_type_id":"4","last_reported":1679238378,"current_range_meters":22000,"station_id":"ce4bh9p2rcd13ifvqec0","pricing_plan_id":"free"},{"bike_id":"36f7536b-2668-4529-a374-e3beae29a501","system_id":"levelo_inurba_marseille","lat":43.323417,"lon":5.40625,"is_reserved":false,"is_disabled":false,"rental_uris":{"android":"levelo://app?vid=36f7536b-2668-4529-a374-e3beae29a501","ios":"levelo://app?vid=36f7536b-2668-4529-a374-e3beae29a501"},"vehicle_type_id":"4","last_reported":1679238378,"current_range_meters":8000,"station_id":"","pricing_plan_id":"free"},{"bike_id":"705f6c38-2781-4e9e-9a01-3331cf1a4e72","system_id":"levelo_inurba_marseille","lat":43.284793,"lon":5.384119,"is_reserved":false,"is_disabled":false,"rental_uris":{"android":"levelo://app?vid=705f6c38-2781-4e9e-9a01-3331cf1a4e72","ios":"levelo://app?vid=705f6c38-2781-4e9e-9a01-3331cf1a4e72"},"vehicle_type_id":"4","last_reported":1679238378,"current_range_meters":26000,"station_id":"ce4bh512rcd13ifvqe3g","pricing_plan_id":"free"},{"bike_id":"d0a1350b-3e9c-4596-bcbc-59ac845ee222","system_id":"levelo_inurba_marseille","lat":43.284219,"lon":5.3497,"is_reserved":false,"is_disabled":false,"rental_uris":{"android":"levelo://app?vid=d0a1350b-3e9c-4596-bcbc-59ac845ee222","ios":"levelo://app?vid=d0a1350b-3e9c-4596-bcbc-59ac845ee222"},"vehicle_type_id":"4","last_reported":1679238378,"current_range_meters":31200,"station_id":"ce4bhbh2rcd13ifvqepg","pricing_plan_id":"free"},{"bike_id":"60007814-c5c9-4145-8660-512c894b5e97","system_id":"levelo_inurba_marseille","lat":43.32411,"lon":5.40681,"is_reserved":false,"is_disabled":false,"rental_uris":{"android":"levelo://app?vid=60007814-c5c9-4145-8660-512c894b5e97","ios":"levelo://app?vid=60007814-c5c9-4145-8660-512c894b5e97"},"vehicle_type_id":"4","last_reported":1679238378,"current_range_meters":0,"station_id":"","pricing_plan_id":"free"},{"bike_id":"13644946-5586-4a45-b4ea-dcc3b1dc4c19","system_id":"levelo_inurba_marseille","lat":43.29277,"lon":5.4012,"is_reserved":false,"is_disabled":false,"rental_uris":{"android":"levelo://app?vid=13644946-5586-4a45-b4ea-dcc3b1dc4c19","ios":"levelo://app?vid=13644946-5586-4a45-b4ea-dcc3b1dc4c19"},"vehicle_type_id":"4","last_reported":1679238378,"current_range_meters":18000,"station_id":"","pricing_plan_id":"free"},{"bike_id":"7c55cb3c-f0e3-41b2-a2c5-ea3235bbcdc6","system_id":"levelo_inurba_marseille","lat":43.282744,"lon":5.350533,"is_reserved":false,"is_disabled":false,"rental_uris":{"android":"levelo://app?vid=7c55cb3c-f0e3-41b2-a2c5-ea3235bbcdc6","ios":"levelo://app?vid=7c55cb3c-f0e3-41b2-a2c5-ea3235bbcdc6"},"vehicle_type_id":"4","last_reported":1679238378,"current_range_meters":29200,"station_id":"ce4bhbp2rcd13ifvqerg","pricing_plan_id":"free"},{"bike_id":"3b332252-7c8b-4c8e-91e4-19219f611027","system_id":"levelo_inurba_marseille","lat":43.282744,"lon":5.350533,"is_reserved":false,"is_disabled":false,"rental_uris":{"android":"levelo://app?vid=3b332252-7c8b-4c8e-91e4-19219f611027","ios":"levelo://app?vid=3b332252-7c8b-4c8e-91e4-19219f611027"},"vehicle_type_id":"4","last_reported":1679238378,"current_range_meters":23600,"station_id":"ce4bhbp2rcd13ifvqerg","pricing_plan_id":"free"},{"bike_id":"afee9863-b52e-46ed-8789-b700319e1805","system_id":"levelo_inurba_marseille","lat":43.28266,"lon":5.3506,"is_reserved":false,"is_disabled":false,"rental_uris":{"android":"levelo://app?vid=afee9863-b52e-46ed-8789-b700319e1805","ios":"levelo://app?vid=afee9863-b52e-46ed-8789-b700319e1805"},"vehicle_type_id":"4","last_reported":1679238378,"current_range_meters":10400,"station_id":"","pricing_plan_id":"free"},{"bike_id":"5e68e96c-bd89-4581-877e-1478e0f53fd4","system_id":"levelo_inurba_marseille","lat":43.28265,"lon":5.3506,"is_reserved":false,"is_disabled":false,"rental_uris":{"android":"levelo://app?vid=5e68e96c-bd89-4581-877e-1478e0f53fd4","ios":"levelo://app?vid=5e68e96c-bd89-4581-877e-1478e0f53fd4"},"vehicle_type_id":"4","last_reported":1679238378,"current_range_meters":4000,"station_id":"ce4bhbp2rcd13ifvqerg","pricing_plan_id":"free"},{"bike_id":"d48e6a3e-cc15-47b7-ad94-dcca04f9859b","system_id":"levelo_inurba_marseille","lat":43.28039,"lon":5.369297,"is_reserved":false,"is_disabled":false,"rental_uris":{"android":"levelo://app?vid=d48e6a3e-cc15-47b7-ad94-dcca04f9859b","ios":"levelo://app?vid=d48e6a3e-cc15-47b7-ad94-dcca04f9859b"},"vehicle_type_id":"4","last_reported":1679238378,"current_range_meters":20000,"station_id":"ce4bha12rcd13ifvqef0","pricing_plan_id":"free"},{"bike_id":"66545219-fac3-4430-9800-56a78158c2ae","system_id":"levelo_inurba_marseille","lat":43.28039,"lon":5.369297,"is_reserved":false,"is_disabled":false,"rental_uris":{"android":"levelo://app?vid=66545219-fac3-4430-9800-56a78158c2ae","ios":"levelo://app?vid=66545219-fac3-4430-9800-56a78158c2ae"},"vehicle_type_id":"4","last_reported":1679238378,"current_range_meters":26400,"station_id":"ce4bha12rcd13ifvqef0","pricing_plan_id":"free"},{"bike_id":"0fd1245d-57b9-42ea-ad4e-905105695061","system_id":"levelo_inurba_marseille","lat":43.280382,"lon":5.369291,"is_reserved":false,"is_disabled":false,"rental_uris":{"android":"levelo://app?vid=0fd1245d-57b9-42ea-ad4e-905105695061","ios":"levelo://app?vid=0fd1245d-57b9-42ea-ad4e-905105695061"},"vehicle_type_id":"4","last_reported":1679238378,"current_range_meters":30800,"station_id":"ce4bha12rcd13ifvqef0","pricing_plan_id":"free"},{"bike_id":"1d6e8e1d-6f28-4515-a8b6-af47cc171353","system_id":"levelo_inurba_marseille","lat":43.284462,"lon":5.392121,"is_reserved":false,"is_disabled":false,"rental_uris":{"android":"levelo://app?vid=1d6e8e1d-6f28-4515-a8b6-af47cc171353","ios":"levelo://app?vid=1d6e8e1d-6f28-4515-a8b6-af47cc171353"},"vehicle_type_id":"4","last_reported":1679238378,"current_range_meters":0,"station_id":"ce4bhoh2rcd13ifvqh5g","pricing_plan_id":"free"},{"bike_id":"b17a465d-fe2b-4b33-866c-7501b051de18","system_id":"levelo_inurba_marseille","lat":43.299579,"lon":5.413255,"is_reserved":false,"is_disabled":false,"rental_uris":{"android":"levelo://app?vid=b17a465d-fe2b-4b33-866c-7501b051de18","ios":"levelo://app?vid=b17a465d-fe2b-4b33-866c-7501b051de18"},"vehicle_type_id":"4","last_reported":1679238378,"current_range_meters":2400,"station_id":"ce4bhp12rcd13ifvqh9g","pricing_plan_id":"free"},{"bike_id":"97a70033-7d5e-47f2-8bb5-fc9c1729cb57","system_id":"levelo_inurba_marseille","lat":43.32059,"lon":5.41564,"is_reserved":false,"is_disabled":false,"rental_uris":{"android":"levelo://app?vid=97a70033-7d5e-47f2-8bb5-fc9c1729cb57","ios":"levelo://app?vid=97a70033-7d5e-47f2-8bb5-fc9c1729cb57"},"vehicle_type_id":"4","last_reported":1679238378,"current_range_meters":20800,"station_id":"","pricing_plan_id":"free"},{"bike_id":"e6fafcd6-1eee-4d56-8d32-f5a5a36d6617","system_id":"levelo_inurba_marseille","lat":43.324769,"lon":5.414285,"is_reserved":false,"is_disabled":false,"rental_uris":{"android":"levelo://app?vid=e6fafcd6-1eee-4d56-8d32-f5a5a36d6617","ios":"levelo://app?vid=e6fafcd6-1eee-4d56-8d32-f5a5a36d6617"},"vehicle_type_id":"4","last_reported":1679238378,"current_range_meters":5200,"station_id":"","pricing_plan_id":"free"},{"bike_id":"d018e779-f135-49a5-a886-433e3cdf1ed6","system_id":"levelo_inurba_marseille","lat":43.29266,"lon":5.40901,"is_reserved":false,"is_disabled":false,"rental_uris":{"android":"levelo://app?vid=d018e779-f135-49a5-a886-433e3cdf1ed6","ios":"levelo://app?vid=d018e779-f135-49a5-a886-433e3cdf1ed6"},"vehicle_type_id":"4","last_reported":1679238378,"current_range_meters":7200,"station_id":"ce4bh192rcd13ifvqdc0","pricing_plan_id":"free"},{"bike_id":"de28cf24-bb43-4293-8a55-94319d2fd3b5","system_id":"levelo_inurba_marseille","lat":43.27618,"lon":5.361009,"is_reserved":false,"is_disabled":false,"rental_uris":{"android":"levelo://app?vid=de28cf24-bb43-4293-8a55-94319d2fd3b5","ios":"levelo://app?vid=de28cf24-bb43-4293-8a55-94319d2fd3b5"},"vehicle_type_id":"4","last_reported":1679238378,"current_range_meters":24400,"station_id":"ce4bgj92rcd13ifvqbe0","pricing_plan_id":"free"},{"bike_id":"dbf580d0-fc09-4faa-ad5d-12f749e3a199","system_id":"levelo_inurba_marseille","lat":43.27618,"lon":5.361009,"is_reserved":false,"is_disabled":false,"rental_uris":{"android":"levelo://app?vid=dbf580d0-fc09-4faa-ad5d-12f749e3a199","ios":"levelo://app?vid=dbf580d0-fc09-4faa-ad5d-12f749e3a199"},"vehicle_type_id":"4","last_reported":1679238378,"current_range_meters":30800,"station_id":"ce4bgj92rcd13ifvqbe0","pricing_plan_id":"free"},{"bike_id":"271167e0-c5f6-4399-80ae-7c7a6a87d8c9","system_id":"levelo_inurba_marseille","lat":43.27618,"lon":5.361009,"is_reserved":false,"is_disabled":false,"rental_uris":{"android":"levelo://app?vid=271167e0-c5f6-4399-80ae-7c7a6a87d8c9","ios":"levelo://app?vid=271167e0-c5f6-4399-80ae-7c7a6a87d8c9"},"vehicle_type_id":"4","last_reported":1679238378,"current_range_meters":30400,"station_id":"ce4bgj92rcd13ifvqbe0","pricing_plan_id":"free"},{"bike_id":"023d97a7-62bd-4e85-9aae-863e8a5c20b6","system_id":"levelo_inurba_marseille","lat":43.27618,"lon":5.361009,"is_reserved":false,"is_disabled":false,"rental_uris":{"android":"levelo://app?vid=023d97a7-62bd-4e85-9aae-863e8a5c20b6","ios":"levelo://app?vid=023d97a7-62bd-4e85-9aae-863e8a5c20b6"},"vehicle_type_id":"4","last_reported":1679238378,"current_range_meters":28400,"station_id":"ce4bgj92rcd13ifvqbe0","pricing_plan_id":"free"},{"bike_id":"1aaa30e0-ed9b-43b8-94ae-9b481ae02da4","system_id":"levelo_inurba_marseille","lat":43.27618,"lon":5.361009,"is_reserved":false,"is_disabled":false,"rental_uris":{"android":"levelo://app?vid=1aaa30e0-ed9b-43b8-94ae-9b481ae02da4","ios":"levelo://app?vid=1aaa30e0-ed9b-43b8-94ae-9b481ae02da4"},"vehicle_type_id":"4","last_reported":1679238378,"current_range_meters":28000,"station_id":"ce4bgj92rcd13ifvqbe0","pricing_plan_id":"free"},{"bike_id":"06cb637d-12ad-4664-8628-3e46c4b56935","system_id":"levelo_inurba_marseille","lat":43.27618,"lon":5.361009,"is_reserved":false,"is_disabled":false,"rental_uris":{"android":"levelo://app?vid=06cb637d-12ad-4664-8628-3e46c4b56935","ios":"levelo://app?vid=06cb637d-12ad-4664-8628-3e46c4b56935"},"vehicle_type_id":"4","last_reported":1679238378,"current_range_meters":31200,"station_id":"ce4bgj92rcd13ifvqbe0","pricing_plan_id":"free"},{"bike_id":"232e11cb-fc22-4e57-a623-17d44806111b","system_id":"levelo_inurba_marseille","lat":43.27618,"lon":5.361009,"is_reserved":false,"is_disabled":false,"rental_uris":{"android":"levelo://app?vid=232e11cb-fc22-4e57-a623-17d44806111b","ios":"levelo://app?vid=232e11cb-fc22-4e57-a623-17d44806111b"},"vehicle_type_id":"4","last_reported":1679238378,"current_range_meters":31200,"station_id":"ce4bgj92rcd13ifvqbe0","pricing_plan_id":"free"},{"bike_id":"229e1c4a-a89e-4c2e-ab50-85550d4f7067","system_id":"levelo_inurba_marseille","lat":43.27618,"lon":5.361009,"is_reserved":false,"is_disabled":false,"rental_uris":{"android":"levelo://app?vid=229e1c4a-a89e-4c2e-ab50-85550d4f7067","ios":"levelo://app?vid=229e1c4a-a89e-4c2e-ab50-85550d4f7067"},"vehicle_type_id":"4","last_reported":1679238378,"current_range_meters":13600,"station_id":"ce4bgj92rcd13ifvqbe0","pricing_plan_id":"free"},{"bike_id":"8fbe6727-759c-4318-9f70-988458c2a137","system_id":"levelo_inurba_marseille","lat":43.27618,"lon":5.361009,"is_reserved":false,"is_disabled":false,"rental_uris":{"android":"levelo://app?vid=8fbe6727-759c-4318-9f70-988458c2a137","ios":"levelo://app?vid=8fbe6727-759c-4318-9f70-988458c2a137"},"vehicle_type_id":"4","last_reported":1679238378,"current_range_meters":10400,"station_id":"ce4bgj92rcd13ifvqbe0","pricing_plan_id":"free"},{"bike_id":"7064f867-bcf8-42cd-9421-ffe4eb331807","system_id":"levelo_inurba_marseille","lat":43.273994,"lon":5.362128,"is_reserved":false,"is_disabled":false,"rental_uris":{"android":"levelo://app?vid=7064f867-bcf8-42cd-9421-ffe4eb331807","ios":"levelo://app?vid=7064f867-bcf8-42cd-9421-ffe4eb331807"},"vehicle_type_id":"4","last_reported":1679238378,"current_range_meters":18800,"station_id":"ce4bhbh2rcd13ifvqeo0","pricing_plan_id":"free"},{"bike_id":"24f7ec43-954c-46d2-8b0b-aa2635fecf1a","system_id":"levelo_inurba_marseille","lat":43.273613,"lon":5.362705,"is_reserved":false,"is_disabled":false,"rental_uris":{"android":"levelo://app?vid=24f7ec43-954c-46d2-8b0b-aa2635fecf1a","ios":"levelo://app?vid=24f7ec43-954c-46d2-8b0b-aa2635fecf1a"},"vehicle_type_id":"4","last_reported":1679238378,"current_range_meters":8400,"station_id":"ce4bhbh2rcd13ifvqeo0","pricing_plan_id":"free"},{"bike_id":"5a245dc9-711a-4cd8-b44a-e21ed0f40710","system_id":"levelo_inurba_marseille","lat":43.273613,"lon":5.362705,"is_reserved":false,"is_disabled":false,"rental_uris":{"android":"levelo://app?vid=5a245dc9-711a-4cd8-b44a-e21ed0f40710","ios":"levelo://app?vid=5a245dc9-711a-4cd8-b44a-e21ed0f40710"},"vehicle_type_id":"4","last_reported":1679238378,"current_range_meters":4000,"station_id":"ce4bhbh2rcd13ifvqeo0","pricing_plan_id":"free"},{"bike_id":"f1d171da-3618-4eb0-9171-26fa2f7fbb16","system_id":"levelo_inurba_marseille","lat":43.273613,"lon":5.362705,"is_reserved":false,"is_disabled":false,"rental_uris":{"android":"levelo://app?vid=f1d171da-3618-4eb0-9171-26fa2f7fbb16","ios":"levelo://app?vid=f1d171da-3618-4eb0-9171-26fa2f7fbb16"},"vehicle_type_id":"4","last_reported":1679238378,"current_range_meters":16000,"station_id":"ce4bhbh2rcd13ifvqeo0","pricing_plan_id":"free"},{"bike_id":"c90b9139-1a18-4323-a4f3-f5b1a5fbe4c1","system_id":"levelo_inurba_marseille","lat":43.273613,"lon":5.362705,"is_reserved":false,"is_disabled":false,"rental_uris":{"android":"levelo://app?vid=c90b9139-1a18-4323-a4f3-f5b1a5fbe4c1","ios":"levelo://app?vid=c90b9139-1a18-4323-a4f3-f5b1a5fbe4c1"},"vehicle_type_id":"4","last_reported":1679238378,"current_range_meters":0,"station_id":"ce4bhbh2rcd13ifvqeo0","pricing_plan_id":"free"},{"bike_id":"c346bb19-0643-417f-a4ff-68656009ed90","system_id":"levelo_inurba_marseille","lat":43.273613,"lon":5.362705,"is_reserved":false,"is_disabled":false,"rental_uris":{"android":"levelo://app?vid=c346bb19-0643-417f-a4ff-68656009ed90","ios":"levelo://app?vid=c346bb19-0643-417f-a4ff-68656009ed90"},"vehicle_type_id":"4","last_reported":1679238378,"current_range_meters":800,"station_id":"ce4bhbh2rcd13ifvqeo0","pricing_plan_id":"free"},{"bike_id":"98afab0f-0c84-4e16-b906-d0689ff385ae","system_id":"levelo_inurba_marseille","lat":43.273613,"lon":5.362705,"is_reserved":false,"is_disabled":false,"rental_uris":{"android":"levelo://app?vid=98afab0f-0c84-4e16-b906-d0689ff385ae","ios":"levelo://app?vid=98afab0f-0c84-4e16-b906-d0689ff385ae"},"vehicle_type_id":"4","last_reported":1679238378,"current_range_meters":31600,"station_id":"ce4bhbh2rcd13ifvqeo0","pricing_plan_id":"free"},{"bike_id":"6a6e372c-63e6-422f-a9ad-886a957a18be","system_id":"levelo_inurba_marseille","lat":43.273613,"lon":5.362705,"is_reserved":false,"is_disabled":false,"rental_uris":{"android":"levelo://app?vid=6a6e372c-63e6-422f-a9ad-886a957a18be","ios":"levelo://app?vid=6a6e372c-63e6-422f-a9ad-886a957a18be"},"vehicle_type_id":"4","last_reported":1679238378,"current_range_meters":23600,"station_id":"ce4bhbh2rcd13ifvqeo0","pricing_plan_id":"free"},{"bike_id":"78bf5e38-879a-4735-9123-ad2409413cf8","system_id":"levelo_inurba_marseille","lat":43.273613,"lon":5.362705,"is_reserved":false,"is_disabled":false,"rental_uris":{"android":"levelo://app?vid=78bf5e38-879a-4735-9123-ad2409413cf8","ios":"levelo://app?vid=78bf5e38-879a-4735-9123-ad2409413cf8"},"vehicle_type_id":"4","last_reported":1679238378,"current_range_meters":22800,"station_id":"ce4bhbh2rcd13ifvqeo0","pricing_plan_id":"free"},{"bike_id":"0a9f75ee-d189-41f8-ae92-07a1da76ecfa","system_id":"levelo_inurba_marseille","lat":43.273613,"lon":5.362705,"is_reserved":false,"is_disabled":false,"rental_uris":{"android":"levelo://app?vid=0a9f75ee-d189-41f8-ae92-07a1da76ecfa","ios":"levelo://app?vid=0a9f75ee-d189-41f8-ae92-07a1da76ecfa"},"vehicle_type_id":"4","last_reported":1679238378,"current_range_meters":21600,"station_id":"ce4bhbh2rcd13ifvqeo0","pricing_plan_id":"free"},{"bike_id":"9fcfc8e5-fbc0-40f9-8a18-8a51f7a326b1","system_id":"levelo_inurba_marseille","lat":43.273613,"lon":5.362705,"is_reserved":false,"is_disabled":false,"rental_uris":{"android":"levelo://app?vid=9fcfc8e5-fbc0-40f9-8a18-8a51f7a326b1","ios":"levelo://app?vid=9fcfc8e5-fbc0-40f9-8a18-8a51f7a326b1"},"vehicle_type_id":"4","last_reported":1679238378,"current_range_meters":23600,"station_id":"ce4bhbh2rcd13ifvqeo0","pricing_plan_id":"free"},{"bike_id":"8d76696c-69d6-49c4-b5c8-cb54bb495f96","system_id":"levelo_inurba_marseille","lat":43.273613,"lon":5.362705,"is_reserved":false,"is_disabled":false,"rental_uris":{"android":"levelo://app?vid=8d76696c-69d6-49c4-b5c8-cb54bb495f96","ios":"levelo://app?vid=8d76696c-69d6-49c4-b5c8-cb54bb495f96"},"vehicle_type_id":"4","last_reported":1679238378,"current_range_meters":31600,"station_id":"ce4bhbh2rcd13ifvqeo0","pricing_plan_id":"free"},{"bike_id":"0c462d48-5519-45cb-b395-6cd9b5c501d6","system_id":"levelo_inurba_marseille","lat":43.317121,"lon":5.423936,"is_reserved":false,"is_disabled":false,"rental_uris":{"android":"levelo://app?vid=0c462d48-5519-45cb-b395-6cd9b5c501d6","ios":"levelo://app?vid=0c462d48-5519-45cb-b395-6cd9b5c501d6"},"vehicle_type_id":"4","last_reported":1679238378,"current_range_meters":21200,"station_id":"ce4bhp92rcd13ifvqhbg","pricing_plan_id":"free"},{"bike_id":"2dbc4e40-3fd1-4830-8044-aa51e1d0e3dc","system_id":"levelo_inurba_marseille","lat":43.272116,"lon":5.391763,"is_reserved":false,"is_disabled":false,"rental_uris":{"android":"levelo://app?vid=2dbc4e40-3fd1-4830-8044-aa51e1d0e3dc","ios":"levelo://app?vid=2dbc4e40-3fd1-4830-8044-aa51e1d0e3dc"},"vehicle_type_id":"4","last_reported":1679238378,"current_range_meters":7600,"station_id":"ce4bhhp2rcd13ifvqfm0","pricing_plan_id":"free"},{"bike_id":"a8808574-ec37-46c0-a2e4-71aec7816d1d","system_id":"levelo_inurba_marseille","lat":43.272118,"lon":5.391758,"is_reserved":false,"is_disabled":false,"rental_uris":{"android":"levelo://app?vid=a8808574-ec37-46c0-a2e4-71aec7816d1d","ios":"levelo://app?vid=a8808574-ec37-46c0-a2e4-71aec7816d1d"},"vehicle_type_id":"4","last_reported":1679238378,"current_range_meters":13200,"station_id":"ce4bhhp2rcd13ifvqfm0","pricing_plan_id":"free"},{"bike_id":"12088630-72e0-458c-be71-87b9c8676f4d","system_id":"levelo_inurba_marseille","lat":43.278128,"lon":5.407195,"is_reserved":false,"is_disabled":false,"rental_uris":{"android":"levelo://app?vid=12088630-72e0-458c-be71-87b9c8676f4d","ios":"levelo://app?vid=12088630-72e0-458c-be71-87b9c8676f4d"},"vehicle_type_id":"4","last_reported":1679238378,"current_range_meters":2400,"station_id":"ce4bhnh2rcd13ifvqgtg","pricing_plan_id":"free"},{"bike_id":"8b151f34-3a2e-41df-b59b-6ff957243696","system_id":"levelo_inurba_marseille","lat":43.278128,"lon":5.407195,"is_reserved":false,"is_disabled":false,"rental_uris":{"android":"levelo://app?vid=8b151f34-3a2e-41df-b59b-6ff957243696","ios":"levelo://app?vid=8b151f34-3a2e-41df-b59b-6ff957243696"},"vehicle_type_id":"4","last_reported":1679238378,"current_range_meters":11600,"station_id":"ce4bhnh2rcd13ifvqgtg","pricing_plan_id":"free"},{"bike_id":"9eed45d8-1242-4938-a3ba-39f135556245","system_id":"levelo_inurba_marseille","lat":43.278128,"lon":5.407195,"is_reserved":false,"is_disabled":false,"rental_uris":{"android":"levelo://app?vid=9eed45d8-1242-4938-a3ba-39f135556245","ios":"levelo://app?vid=9eed45d8-1242-4938-a3ba-39f135556245"},"vehicle_type_id":"4","last_reported":1679238378,"current_range_meters":30000,"station_id":"ce4bhnh2rcd13ifvqgtg","pricing_plan_id":"free"},{"bike_id":"2171b7e3-2fca-4094-b200-8883662b172e","system_id":"levelo_inurba_marseille","lat":43.278128,"lon":5.407195,"is_reserved":false,"is_disabled":false,"rental_uris":{"android":"levelo://app?vid=2171b7e3-2fca-4094-b200-8883662b172e","ios":"levelo://app?vid=2171b7e3-2fca-4094-b200-8883662b172e"},"vehicle_type_id":"4","last_reported":1679238378,"current_range_meters":5200,"station_id":"ce4bhnh2rcd13ifvqgtg","pricing_plan_id":"free"},{"bike_id":"d946bf85-f0e6-4379-ab61-92d4aa524689","system_id":"levelo_inurba_marseille","lat":43.26681,"lon":5.382694,"is_reserved":false,"is_disabled":false,"rental_uris":{"android":"levelo://app?vid=d946bf85-f0e6-4379-ab61-92d4aa524689","ios":"levelo://app?vid=d946bf85-f0e6-4379-ab61-92d4aa524689"},"vehicle_type_id":"4","last_reported":1679238378,"current_range_meters":26800,"station_id":"ce4bhg92rcd13ifvqf90","pricing_plan_id":"free"},{"bike_id":"5f87edcf-1711-49dd-827f-46fdff3afbad","system_id":"levelo_inurba_marseille","lat":43.265714,"lon":5.372891,"is_reserved":false,"is_disabled":false,"rental_uris":{"android":"levelo://app?vid=5f87edcf-1711-49dd-827f-46fdff3afbad","ios":"levelo://app?vid=5f87edcf-1711-49dd-827f-46fdff3afbad"},"vehicle_type_id":"4","last_reported":1679238378,"current_range_meters":11600,"station_id":"ce4bhg12rcd13ifvqf70","pricing_plan_id":"free"},{"bike_id":"7e9d8cf2-07bb-4045-aa3d-5000abae3099","system_id":"levelo_inurba_marseille","lat":43.265714,"lon":5.372891,"is_reserved":false,"is_disabled":false,"rental_uris":{"android":"levelo://app?vid=7e9d8cf2-07bb-4045-aa3d-5000abae3099","ios":"levelo://app?vid=7e9d8cf2-07bb-4045-aa3d-5000abae3099"},"vehicle_type_id":"4","last_reported":1679238378,"current_range_meters":24400,"station_id":"ce4bhg12rcd13ifvqf70","pricing_plan_id":"free"},{"bike_id":"9bf08198-e2bc-4889-a231-c614bf78c0a1","system_id":"levelo_inurba_marseille","lat":43.265714,"lon":5.372891,"is_reserved":false,"is_disabled":false,"rental_uris":{"android":"levelo://app?vid=9bf08198-e2bc-4889-a231-c614bf78c0a1","ios":"levelo://app?vid=9bf08198-e2bc-4889-a231-c614bf78c0a1"},"vehicle_type_id":"4","last_reported":1679238378,"current_range_meters":18000,"station_id":"ce4bhg12rcd13ifvqf70","pricing_plan_id":"free"},{"bike_id":"0379ab00-ceba-4e5c-b5be-7b1db6693bf8","system_id":"levelo_inurba_marseille","lat":43.307987,"lon":5.435237,"is_reserved":false,"is_disabled":false,"rental_uris":{"android":"levelo://app?vid=0379ab00-ceba-4e5c-b5be-7b1db6693bf8","ios":"levelo://app?vid=0379ab00-ceba-4e5c-b5be-7b1db6693bf8"},"vehicle_type_id":"4","last_reported":1679238378,"current_range_meters":0,"station_id":"ce4bhph2rcd13ifvqheg","pricing_plan_id":"free"},{"bike_id":"d090d36b-a16d-4bac-baa7-0e1d0e0ba246","system_id":"levelo_inurba_marseille","lat":43.261782,"lon":5.374515,"is_reserved":false,"is_disabled":false,"rental_uris":{"android":"levelo://app?vid=d090d36b-a16d-4bac-baa7-0e1d0e0ba246","ios":"levelo://app?vid=d090d36b-a16d-4bac-baa7-0e1d0e0ba246"},"vehicle_type_id":"4","last_reported":1679238378,"current_range_meters":16400,"station_id":"ce4bhgp2rcd13ifvqfc0","pricing_plan_id":"free"},{"bike_id":"fd91c143-4591-4d22-88b1-03456c9055ab","system_id":"levelo_inurba_marseille","lat":43.261782,"lon":5.374515,"is_reserved":false,"is_disabled":false,"rental_uris":{"android":"levelo://app?vid=fd91c143-4591-4d22-88b1-03456c9055ab","ios":"levelo://app?vid=fd91c143-4591-4d22-88b1-03456c9055ab"},"vehicle_type_id":"4","last_reported":1679238378,"current_range_meters":800,"station_id":"ce4bhgp2rcd13ifvqfc0","pricing_plan_id":"free"},{"bike_id":"03cf8e2a-74ff-45f1-8ef8-116f31cb37b6","system_id":"levelo_inurba_marseille","lat":43.26206,"lon":5.37915,"is_reserved":false,"is_disabled":false,"rental_uris":{"android":"levelo://app?vid=03cf8e2a-74ff-45f1-8ef8-116f31cb37b6","ios":"levelo://app?vid=03cf8e2a-74ff-45f1-8ef8-116f31cb37b6"},"vehicle_type_id":"4","last_reported":1679238378,"current_range_meters":17200,"station_id":"","pricing_plan_id":"free"},{"bike_id":"39b7208d-d89d-4120-91b5-04fdcee987df","system_id":"levelo_inurba_marseille","lat":43.26205,"lon":5.37936,"is_reserved":false,"is_disabled":false,"rental_uris":{"android":"levelo://app?vid=39b7208d-d89d-4120-91b5-04fdcee987df","ios":"levelo://app?vid=39b7208d-d89d-4120-91b5-04fdcee987df"},"vehicle_type_id":"4","last_reported":1679238378,"current_range_meters":9200,"station_id":"","pricing_plan_id":"free"},{"bike_id":"5b42df58-48fe-4929-ab8b-271c3f7e03e7","system_id":"levelo_inurba_marseille","lat":43.26202,"lon":5.379299,"is_reserved":false,"is_disabled":false,"rental_uris":{"android":"levelo://app?vid=5b42df58-48fe-4929-ab8b-271c3f7e03e7","ios":"levelo://app?vid=5b42df58-48fe-4929-ab8b-271c3f7e03e7"},"vehicle_type_id":"4","last_reported":1679238378,"current_range_meters":11200,"station_id":"ce4bhjp2rcd13ifvqg90","pricing_plan_id":"free"},{"bike_id":"49b04d4b-4ba8-497c-a8d5-91347dcd3d0f","system_id":"levelo_inurba_marseille","lat":43.262012,"lon":5.379307,"is_reserved":false,"is_disabled":false,"rental_uris":{"android":"levelo://app?vid=49b04d4b-4ba8-497c-a8d5-91347dcd3d0f","ios":"levelo://app?vid=49b04d4b-4ba8-497c-a8d5-91347dcd3d0f"},"vehicle_type_id":"4","last_reported":1679238378,"current_range_meters":24000,"station_id":"ce4bhjp2rcd13ifvqg90","pricing_plan_id":"free"},{"bike_id":"55c21b3f-a973-4977-aa8b-e85d089eb929","system_id":"levelo_inurba_marseille","lat":43.26201,"lon":5.37929,"is_reserved":false,"is_disabled":false,"rental_uris":{"android":"levelo://app?vid=55c21b3f-a973-4977-aa8b-e85d089eb929","ios":"levelo://app?vid=55c21b3f-a973-4977-aa8b-e85d089eb929"},"vehicle_type_id":"4","last_reported":1679238378,"current_range_meters":16000,"station_id":"ce4bhjp2rcd13ifvqg90","pricing_plan_id":"free"},{"bike_id":"559dcf23-b576-44de-b93d-4ef4e7eef905","system_id":"levelo_inurba_marseille","lat":43.262012,"lon":5.379307,"is_reserved":false,"is_disabled":false,"rental_uris":{"android":"levelo://app?vid=559dcf23-b576-44de-b93d-4ef4e7eef905","ios":"levelo://app?vid=559dcf23-b576-44de-b93d-4ef4e7eef905"},"vehicle_type_id":"4","last_reported":1679238378,"current_range_meters":11600,"station_id":"ce4bhjp2rcd13ifvqg90","pricing_plan_id":"free"},{"bike_id":"5c7c1de7-3f5a-45e9-8054-4677bdee77f9","system_id":"levelo_inurba_marseille","lat":43.261975,"lon":5.379315,"is_reserved":false,"is_disabled":false,"rental_uris":{"android":"levelo://app?vid=5c7c1de7-3f5a-45e9-8054-4677bdee77f9","ios":"levelo://app?vid=5c7c1de7-3f5a-45e9-8054-4677bdee77f9"},"vehicle_type_id":"4","last_reported":1679238378,"current_range_meters":18400,"station_id":"","pricing_plan_id":"free"},{"bike_id":"c768164d-935e-4009-b62d-e6936d35ea95","system_id":"levelo_inurba_marseille","lat":43.260219,"lon":5.37546,"is_reserved":false,"is_disabled":false,"rental_uris":{"android":"levelo://app?vid=c768164d-935e-4009-b62d-e6936d35ea95","ios":"levelo://app?vid=c768164d-935e-4009-b62d-e6936d35ea95"},"vehicle_type_id":"4","last_reported":1679238378,"current_range_meters":26000,"station_id":"ce4bhgh2rcd13ifvqfa0","pricing_plan_id":"free"},{"bike_id":"c5d54837-9353-4696-bade-0a8bfea2e0ea","system_id":"levelo_inurba_marseille","lat":43.260225,"lon":5.375455,"is_reserved":false,"is_disabled":false,"rental_uris":{"android":"levelo://app?vid=c5d54837-9353-4696-bade-0a8bfea2e0ea","ios":"levelo://app?vid=c5d54837-9353-4696-bade-0a8bfea2e0ea"},"vehicle_type_id":"4","last_reported":1679238378,"current_range_meters":28400,"station_id":"ce4bhgh2rcd13ifvqfa0","pricing_plan_id":"free"},{"bike_id":"5f111c16-cbbf-42af-8bde-f8c7e3ad27ef","system_id":"levelo_inurba_marseille","lat":43.260909,"lon":5.397624,"is_reserved":false,"is_disabled":false,"rental_uris":{"android":"levelo://app?vid=5f111c16-cbbf-42af-8bde-f8c7e3ad27ef","ios":"levelo://app?vid=5f111c16-cbbf-42af-8bde-f8c7e3ad27ef"},"vehicle_type_id":"4","last_reported":1679238378,"current_range_meters":20800,"station_id":"","pricing_plan_id":"free"},{"bike_id":"217a32fe-0161-43b0-bec3-ad3345425f35","system_id":"levelo_inurba_marseille","lat":43.29248,"lon":5.44137,"is_reserved":false,"is_disabled":false,"rental_uris":{"android":"levelo://app?vid=217a32fe-0161-43b0-bec3-ad3345425f35","ios":"levelo://app?vid=217a32fe-0161-43b0-bec3-ad3345425f35"},"vehicle_type_id":"4","last_reported":1679238378,"current_range_meters":19200,"station_id":"","pricing_plan_id":"free"},{"bike_id":"6b027bb1-f9c9-4e09-aa41-6421f9016233","system_id":"levelo_inurba_marseille","lat":43.254947,"lon":5.376454,"is_reserved":false,"is_disabled":false,"rental_uris":{"android":"levelo://app?vid=6b027bb1-f9c9-4e09-aa41-6421f9016233","ios":"levelo://app?vid=6b027bb1-f9c9-4e09-aa41-6421f9016233"},"vehicle_type_id":"4","last_reported":1679238378,"current_range_meters":9600,"station_id":"ce4bhh12rcd13ifvqff0","pricing_plan_id":"free"},{"bike_id":"152ad44a-e302-420a-866f-55f6b02a1aa6","system_id":"levelo_inurba_marseille","lat":43.254947,"lon":5.376454,"is_reserved":false,"is_disabled":false,"rental_uris":{"android":"levelo://app?vid=152ad44a-e302-420a-866f-55f6b02a1aa6","ios":"levelo://app?vid=152ad44a-e302-420a-866f-55f6b02a1aa6"},"vehicle_type_id":"4","last_reported":1679238378,"current_range_meters":5600,"station_id":"ce4bhh12rcd13ifvqff0","pricing_plan_id":"free"},{"bike_id":"52a866cc-942f-4dfe-951a-682766601fdb","system_id":"levelo_inurba_marseille","lat":43.254947,"lon":5.376454,"is_reserved":false,"is_disabled":false,"rental_uris":{"android":"levelo://app?vid=52a866cc-942f-4dfe-951a-682766601fdb","ios":"levelo://app?vid=52a866cc-942f-4dfe-951a-682766601fdb"},"vehicle_type_id":"4","last_reported":1679238378,"current_range_meters":26800,"station_id":"ce4bhh12rcd13ifvqff0","pricing_plan_id":"free"},{"bike_id":"01482599-1397-499d-b5f3-dc7a66d61776","system_id":"levelo_inurba_marseille","lat":43.254947,"lon":5.376454,"is_reserved":false,"is_disabled":false,"rental_uris":{"android":"levelo://app?vid=01482599-1397-499d-b5f3-dc7a66d61776","ios":"levelo://app?vid=01482599-1397-499d-b5f3-dc7a66d61776"},"vehicle_type_id":"4","last_reported":1679238378,"current_range_meters":12800,"station_id":"ce4bhh12rcd13ifvqff0","pricing_plan_id":"free"},{"bike_id":"625ae294-7a52-4ee1-bc74-eb337d3b69ad","system_id":"levelo_inurba_marseille","lat":43.254947,"lon":5.376454,"is_reserved":false,"is_disabled":false,"rental_uris":{"android":"levelo://app?vid=625ae294-7a52-4ee1-bc74-eb337d3b69ad","ios":"levelo://app?vid=625ae294-7a52-4ee1-bc74-eb337d3b69ad"},"vehicle_type_id":"4","last_reported":1679238378,"current_range_meters":31600,"station_id":"ce4bhh12rcd13ifvqff0","pricing_plan_id":"free"},{"bike_id":"b323e64c-1367-4240-99ed-352e6147c2e6","system_id":"levelo_inurba_marseille","lat":43.25871,"lon":5.39894,"is_reserved":false,"is_disabled":false,"rental_uris":{"android":"levelo://app?vid=b323e64c-1367-4240-99ed-352e6147c2e6","ios":"levelo://app?vid=b323e64c-1367-4240-99ed-352e6147c2e6"},"vehicle_type_id":"4","last_reported":1679238378,"current_range_meters":400,"station_id":"ce4bhl92rcd13ifvqghg","pricing_plan_id":"free"},{"bike_id":"9a4efcb9-0721-435c-8f36-168725a30732","system_id":"levelo_inurba_marseille","lat":43.2479,"lon":5.374457,"is_reserved":false,"is_disabled":false,"rental_uris":{"android":"levelo://app?vid=9a4efcb9-0721-435c-8f36-168725a30732","ios":"levelo://app?vid=9a4efcb9-0721-435c-8f36-168725a30732"},"vehicle_type_id":"4","last_reported":1679238378,"current_range_meters":12000,"station_id":"ce4bhgh2rcd13ifvqfb0","pricing_plan_id":"free"},{"bike_id":"5405a88b-3310-43e6-b6fc-304a5411445b","system_id":"levelo_inurba_marseille","lat":43.2479,"lon":5.374457,"is_reserved":false,"is_disabled":false,"rental_uris":{"android":"levelo://app?vid=5405a88b-3310-43e6-b6fc-304a5411445b","ios":"levelo://app?vid=5405a88b-3310-43e6-b6fc-304a5411445b"},"vehicle_type_id":"4","last_reported":1679238378,"current_range_meters":8800,"station_id":"ce4bhgh2rcd13ifvqfb0","pricing_plan_id":"free"},{"bike_id":"d73b6d02-a3d9-4e40-97b0-6e89f6b9e28c","system_id":"levelo_inurba_marseille","lat":43.25102,"lon":5.403214,"is_reserved":false,"is_disabled":false,"rental_uris":{"android":"levelo://app?vid=d73b6d02-a3d9-4e40-97b0-6e89f6b9e28c","ios":"levelo://app?vid=d73b6d02-a3d9-4e40-97b0-6e89f6b9e28c"},"vehicle_type_id":"4","last_reported":1679238378,"current_range_meters":0,"station_id":"ce4bhlh2rcd13ifvqgig","pricing_plan_id":"free"},{"bike_id":"1b1b7c61-dbe7-4748-b31b-b4560b1cfadc","system_id":"levelo_inurba_marseille","lat":43.239588,"lon":5.366238,"is_reserved":false,"is_disabled":false,"rental_uris":{"android":"levelo://app?vid=1b1b7c61-dbe7-4748-b31b-b4560b1cfadc","ios":"levelo://app?vid=1b1b7c61-dbe7-4748-b31b-b4560b1cfadc"},"vehicle_type_id":"4","last_reported":1679238378,"current_range_meters":1200,"station_id":"ce4bhi12rcd13ifvqfp0","pricing_plan_id":"free"},{"bike_id":"afd9d1df-a4ec-4e3a-b1c7-2d2faa43b8f9","system_id":"levelo_inurba_marseille","lat":43.239588,"lon":5.366238,"is_reserved":false,"is_disabled":false,"rental_uris":{"android":"levelo://app?vid=afd9d1df-a4ec-4e3a-b1c7-2d2faa43b8f9","ios":"levelo://app?vid=afd9d1df-a4ec-4e3a-b1c7-2d2faa43b8f9"},"vehicle_type_id":"4","last_reported":1679238378,"current_range_meters":30400,"station_id":"ce4bhi12rcd13ifvqfp0","pricing_plan_id":"free"},{"bike_id":"49348b8e-b634-4d0b-a642-3d9806bc0450","system_id":"levelo_inurba_marseille","lat":43.239588,"lon":5.366238,"is_reserved":false,"is_disabled":false,"rental_uris":{"android":"levelo://app?vid=49348b8e-b634-4d0b-a642-3d9806bc0450","ios":"levelo://app?vid=49348b8e-b634-4d0b-a642-3d9806bc0450"},"vehicle_type_id":"4","last_reported":1679238378,"current_range_meters":27600,"station_id":"ce4bhi12rcd13ifvqfp0","pricing_plan_id":"free"},{"bike_id":"c2c9379b-4f41-4885-a94e-39d469949a82","system_id":"levelo_inurba_marseille","lat":43.239588,"lon":5.366238,"is_reserved":false,"is_disabled":false,"rental_uris":{"android":"levelo://app?vid=c2c9379b-4f41-4885-a94e-39d469949a82","ios":"levelo://app?vid=c2c9379b-4f41-4885-a94e-39d469949a82"},"vehicle_type_id":"4","last_reported":1679238378,"current_range_meters":10400,"station_id":"ce4bhi12rcd13ifvqfp0","pricing_plan_id":"free"},{"bike_id":"dcfbe225-2601-4561-81df-92cf185c56f6","system_id":"levelo_inurba_marseille","lat":43.239588,"lon":5.366238,"is_reserved":false,"is_disabled":false,"rental_uris":{"android":"levelo://app?vid=dcfbe225-2601-4561-81df-92cf185c56f6","ios":"levelo://app?vid=dcfbe225-2601-4561-81df-92cf185c56f6"},"vehicle_type_id":"4","last_reported":1679238378,"current_range_meters":31600,"station_id":"ce4bhi12rcd13ifvqfp0","pricing_plan_id":"free"},{"bike_id":"bc665d64-5f37-4b19-8117-bf941b8f569e","system_id":"levelo_inurba_marseille","lat":43.23198,"lon":5.35554,"is_reserved":false,"is_disabled":false,"rental_uris":{"android":"levelo://app?vid=bc665d64-5f37-4b19-8117-bf941b8f569e","ios":"levelo://app?vid=bc665d64-5f37-4b19-8117-bf941b8f569e"},"vehicle_type_id":"4","last_reported":1679238378,"current_range_meters":12000,"station_id":"","pricing_plan_id":"free"},{"bike_id":"e8fea5b7-48a9-48c9-b449-fe6211bd9de6","system_id":"levelo_inurba_marseille","lat":43.231923,"lon":5.355545,"is_reserved":false,"is_disabled":false,"rental_uris":{"android":"levelo://app?vid=e8fea5b7-48a9-48c9-b449-fe6211bd9de6","ios":"levelo://app?vid=e8fea5b7-48a9-48c9-b449-fe6211bd9de6"},"vehicle_type_id":"4","last_reported":1679238378,"current_range_meters":31600,"station_id":"ce4bhu92rcd13ifvqi70","pricing_plan_id":"free"},{"bike_id":"c4a765e8-1981-4501-b559-fd423b924ef4","system_id":"levelo_inurba_marseille","lat":43.231923,"lon":5.355545,"is_reserved":false,"is_disabled":false,"rental_uris":{"android":"levelo://app?vid=c4a765e8-1981-4501-b559-fd423b924ef4","ios":"levelo://app?vid=c4a765e8-1981-4501-b559-fd423b924ef4"},"vehicle_type_id":"4","last_reported":1679238378,"current_range_meters":30800,"station_id":"ce4bhu92rcd13ifvqi70","pricing_plan_id":"free"},{"bike_id":"ff98316f-748f-4069-a942-b27635abd352","system_id":"levelo_inurba_marseille","lat":43.231923,"lon":5.355545,"is_reserved":false,"is_disabled":false,"rental_uris":{"android":"levelo://app?vid=ff98316f-748f-4069-a942-b27635abd352","ios":"levelo://app?vid=ff98316f-748f-4069-a942-b27635abd352"},"vehicle_type_id":"4","last_reported":1679238378,"current_range_meters":31600,"station_id":"ce4bhu92rcd13ifvqi70","pricing_plan_id":"free"},{"bike_id":"fc60cf01-ffec-47d9-a010-09f7c60298a4","system_id":"levelo_inurba_marseille","lat":43.231923,"lon":5.355545,"is_reserved":false,"is_disabled":false,"rental_uris":{"android":"levelo://app?vid=fc60cf01-ffec-47d9-a010-09f7c60298a4","ios":"levelo://app?vid=fc60cf01-ffec-47d9-a010-09f7c60298a4"},"vehicle_type_id":"4","last_reported":1679238378,"current_range_meters":29200,"station_id":"ce4bhu92rcd13ifvqi70","pricing_plan_id":"free"},{"bike_id":"beaf722f-8cce-48cc-9f08-62b9af3ed634","system_id":"levelo_inurba_marseille","lat":43.23193,"lon":5.35553,"is_reserved":false,"is_disabled":false,"rental_uris":{"android":"levelo://app?vid=beaf722f-8cce-48cc-9f08-62b9af3ed634","ios":"levelo://app?vid=beaf722f-8cce-48cc-9f08-62b9af3ed634"},"vehicle_type_id":"4","last_reported":1679238378,"current_range_meters":20800,"station_id":"ce4bhu92rcd13ifvqi70","pricing_plan_id":"free"},{"bike_id":"956fe110-a343-4414-91a1-6e3d50bfa094","system_id":"levelo_inurba_marseille","lat":43.231923,"lon":5.355545,"is_reserved":false,"is_disabled":false,"rental_uris":{"android":"levelo://app?vid=956fe110-a343-4414-91a1-6e3d50bfa094","ios":"levelo://app?vid=956fe110-a343-4414-91a1-6e3d50bfa094"},"vehicle_type_id":"4","last_reported":1679238378,"current_range_meters":31600,"station_id":"ce4bhu92rcd13ifvqi70","pricing_plan_id":"free"},{"bike_id":"a3fadb5e-9fdc-40fb-bc20-adc563525449","system_id":"levelo_inurba_marseille","lat":43.231923,"lon":5.355545,"is_reserved":false,"is_disabled":false,"rental_uris":{"android":"levelo://app?vid=a3fadb5e-9fdc-40fb-bc20-adc563525449","ios":"levelo://app?vid=a3fadb5e-9fdc-40fb-bc20-adc563525449"},"vehicle_type_id":"4","last_reported":1679238378,"current_range_meters":26400,"station_id":"ce4bhu92rcd13ifvqi70","pricing_plan_id":"free"},{"bike_id":"2e490e53-54a0-41f3-a8d7-fafbe308fed1","system_id":"levelo_inurba_marseille","lat":43.23192,"lon":5.35556,"is_reserved":false,"is_disabled":false,"rental_uris":{"android":"levelo://app?vid=2e490e53-54a0-41f3-a8d7-fafbe308fed1","ios":"levelo://app?vid=2e490e53-54a0-41f3-a8d7-fafbe308fed1"},"vehicle_type_id":"4","last_reported":1679238378,"current_range_meters":23600,"station_id":"ce4bhu92rcd13ifvqi70","pricing_plan_id":"free"},{"bike_id":"21b5ed1d-fb8d-4bf3-acb3-ab3fc0a370fd","system_id":"levelo_inurba_marseille","lat":43.23191,"lon":5.3555,"is_reserved":false,"is_disabled":false,"rental_uris":{"android":"levelo://app?vid=21b5ed1d-fb8d-4bf3-acb3-ab3fc0a370fd","ios":"levelo://app?vid=21b5ed1d-fb8d-4bf3-acb3-ab3fc0a370fd"},"vehicle_type_id":"4","last_reported":1679238378,"current_range_meters":4400,"station_id":"ce4bhu92rcd13ifvqi70","pricing_plan_id":"free"}]}}