{"last_updated":1732029009,"ttl":60,"version":"2.2","data":{"bikes":[{"bike_id":"cacde89c-5086-4b87-8bcd-a2b586b3345d","system_id":"levelo_inurba_marseille","lat":43.30152,"lon":5.38106,"is_reserved":false,"is_disabled":true,"rental_uris":{"android":"levelo://app?vid=cacde89c-5086-4b87-8bcd-a2b586b3345d","ios":"levelo://app?vid=cacde89c-5086-4b87-8bcd-a2b586b3345d"},"vehicle_type_id":"4","last_reported":1732029009,"current_range_meters":38800,"station_id":"ce4bgjp2rcd13ifvqbh0","pricing_plan_id":"cebpf4jnsgd1na2vs0mg"},{"bike_id":"0bf38b20-846a-41ae-97c9-96787e2b6237","system_id":"levelo_inurba_marseille","lat":43.27211,"lon":5.39179,"is_reserved":false,"is_disabled":false,"rental_uris":{"android":"levelo://app?vid=0bf38b20-846a-41ae-97c9-96787e2b6237","ios":"levelo://app?vid=0bf38b20-846a-41ae-97c9-96787e2b6237"},"vehicle_type_id":"4","last_reported":1732029009,"current_range_meters":38800,"station_id":"ce4bhhp2rcd13ifvqfm0","pricing_plan_id":"cebpf4jnsgd1na2vs0mg"},{"bike_id":"52ed04c9-43db-4332-92fa-4e56597126fd","system_id":"levelo_inurba_marseille","lat":43.29945,"lon":5.36554,"is_reserved":false,"is_disabled":false,"rental_uris":{"android":"levelo://app?vid=52ed04c9-43db-4332-92fa-4e56597126fd","ios":"levelo://app?vid=52ed04c9-43db-4332-92fa-4e56597126fd"},"vehicle_type_id":"4","last_reported":1732029009,"current_range_meters":25600,"station_id":"ce4bgm92rcd13ifvqbr0","pricing_plan_id":"cebpf4jnsgd1na2vs0mg"},{"bike_id":"acd6185c-33a0-4407-9b6f-d6e54a412225","system_id":"levelo_inurba_marseille","lat":43.28412,"lon":5.34983,"is_reserved":false,"is_disabled":false,"rental_uris":{"android":"levelo://app?vid=acd6185c-33a0-4407-9b6f-d6e54a412225","ios":"levelo://app?vid=acd6185c-33a0-4407-9b6f-d6e54a412225"},"vehicle_type_id":"4","last_reported":1732029009,"current_range_meters":4800,"station_id":"ce4bhbh2rcd13ifvqepg","pricing_plan_id":"cebpf4jnsgd1na2vs0mg"},{"bike_id":"56b1e23a-a8b6-4eed-a858-f200a5a0a62a","system_id":"levelo_inurba_marseille","lat":43.23148,"lon":5.43727,"is_reserved":false,"is_disabled":false,"rental_uris":{"android":"levelo://app?vid=56b1e23a-a8b6-4eed-a858-f200a5a0a62a","ios":"levelo://app?vid=56b1e23a-a8b6-4eed-a858-f200a5a0a62a"},"vehicle_type_id":"4","last_reported":1732029009,"current_range_meters":38400,"station_id":"ce4bhmp2rcd13ifvqgog","pricing_plan_id":"cebpf4jnsgd1na2vs0mg"},{"bike_id":"bb9ea763-6e93-4922-b0c2-ce9421dca49b","system_id":"levelo_inurba_marseille","lat":43.25932,"lon":5.40911,"is_reserved":false,"is_disabled":true,"rental_uris":{"android":"levelo://app?vid=bb9ea763-6e93-4922-b0c2-ce9421dca49b","ios":"levelo://app?vid=bb9ea763-6e93-4922-b0c2-ce9421dca49b"},"vehicle_type_id":"4","last_reported":1732029009,"current_range_meters":0,"station_id":"ce4bhm92rcd13ifvqglg","pricing_plan_id":"cebpf4jnsgd1na2vs0mg"},{"bike_id":"88ec678b-ecf3-4d70-b617-4cb5f3e2902d","system_id":"levelo_inurba_marseille","lat":43.29848,"lon":5.36288,"is_reserved":false,"is_disabled":false,"rental_uris":{"android":"levelo://app?vid=88ec678b-ecf3-4d70-b617-4cb5f3e2902d","ios":"levelo://app?vid=88ec678b-ecf3-4d70-b617-4cb5f3e2902d"},"vehicle_type_id":"4","last_reported":1732029009,"current_range_meters":17600,"station_id":"ce4bgpp2rcd13ifvqc3g","pricing_plan_id":"cebpf4jnsgd1na2vs0mg"},{"bike_id":"ff742d6c-bdde-474a-9823-f232c89901ec","system_id":"levelo_inurba_marseille","lat":43.29092,"lon":5.37948,"is_reserved":false,"is_disabled":false,"rental_uris":{"android":"levelo://app?vid=ff742d6c-bdde-474a-9823-f232c89901ec","ios":"levelo://app?vid=ff742d6c-bdde-474a-9823-f232c89901ec"},"vehicle_type_id":"4","last_reported":1732029009,"current_range_meters":24400,"station_id":"","pricing_plan_id":"cebpf4jnsgd1na2vs0mg"},{"bike_id":"57e77ac8-34ec-43b5-a39b-336eccbba646","system_id":"levelo_inurba_marseille","lat":43.33756,"lon":5.37464,"is_reserved":false,"is_disabled":false,"rental_uris":{"android":"levelo://app?vid=57e77ac8-34ec-43b5-a39b-336eccbba646","ios":"levelo://app?vid=57e77ac8-34ec-43b5-a39b-336eccbba646"},"vehicle_type_id":"4","last_reported":1732029009,"current_range_meters":38800,"station_id":"","pricing_plan_id":"cebpf4jnsgd1na2vs0mg"},{"bike_id":"bd9ed099-582b-409c-b781-8c5bed8b30c8","system_id":"levelo_inurba_marseille","lat":43.29807,"lon":5.38093,"is_reserved":false,"is_disabled":false,"rental_uris":{"android":"levelo://app?vid=bd9ed099-582b-409c-b781-8c5bed8b30c8","ios":"levelo://app?vid=bd9ed099-582b-409c-b781-8c5bed8b30c8"},"vehicle_type_id":"4","last_reported":1732029009,"current_range_meters":24800,"station_id":"ce4bgip2rcd13ifvqbb0","pricing_plan_id":"cebpf4jnsgd1na2vs0mg"},{"bike_id":"ab8b3dcb-d33d-4854-a37e-2243fffa6f29","system_id":"levelo_inurba_marseille","lat":43.30146,"lon":5.38079,"is_reserved":false,"is_disabled":false,"rental_uris":{"android":"levelo://app?vid=ab8b3dcb-d33d-4854-a37e-2243fffa6f29","ios":"levelo://app?vid=ab8b3dcb-d33d-4854-a37e-2243fffa6f29"},"vehicle_type_id":"4","last_reported":1732029009,"current_range_meters":34000,"station_id":"ce4bgjp2rcd13ifvqbh0","pricing_plan_id":"cebpf4jnsgd1na2vs0mg"},{"bike_id":"c8c1db44-3f46-4851-a84a-f4f502fc1899","system_id":"levelo_inurba_marseille","lat":43.2792,"lon":5.39577,"is_reserved":false,"is_disabled":false,"rental_uris":{"android":"levelo://app?vid=c8c1db44-3f46-4851-a84a-f4f502fc1899","ios":"levelo://app?vid=c8c1db44-3f46-4851-a84a-f4f502fc1899"},"vehicle_type_id":"4","last_reported":1732029009,"current_range_meters":4400,"station_id":"ce4bhf92rcd13ifvqf40","pricing_plan_id":"cebpf4jnsgd1na2vs0mg"},{"bike_id":"ee4489f6-f94a-41d8-a411-753856a63822","system_id":"levelo_inurba_marseille","lat":43.30524,"lon":5.38083,"is_reserved":false,"is_disabled":false,"rental_uris":{"android":"levelo://app?vid=ee4489f6-f94a-41d8-a411-753856a63822","ios":"levelo://app?vid=ee4489f6-f94a-41d8-a411-753856a63822"},"vehicle_type_id":"4","last_reported":1732029009,"current_range_meters":6800,"station_id":"","pricing_plan_id":"cebpf4jnsgd1na2vs0mg"},{"bike_id":"0ea93326-5034-4b5e-97b8-0a33b4d38611","system_id":"levelo_inurba_marseille","lat":43.30152,"lon":5.38103,"is_reserved":false,"is_disabled":true,"rental_uris":{"android":"levelo://app?vid=0ea93326-5034-4b5e-97b8-0a33b4d38611","ios":"levelo://app?vid=0ea93326-5034-4b5e-97b8-0a33b4d38611"},"vehicle_type_id":"4","last_reported":1732029009,"current_range_meters":0,"station_id":"ce4bgjp2rcd13ifvqbh0","pricing_plan_id":"cebpf4jnsgd1na2vs0mg"},{"bike_id":"8f387bf0-3327-47fd-b1c1-c2af46a3e3f7","system_id":"levelo_inurba_marseille","lat":43.23143,"lon":5.43706,"is_reserved":false,"is_disabled":false,"rental_uris":{"android":"levelo://app?vid=8f387bf0-3327-47fd-b1c1-c2af46a3e3f7","ios":"levelo://app?vid=8f387bf0-3327-47fd-b1c1-c2af46a3e3f7"},"vehicle_type_id":"4","last_reported":1732029009,"current_range_meters":16800,"station_id":"ce4bhmp2rcd13ifvqgog","pricing_plan_id":"cebpf4jnsgd1na2vs0mg"},{"bike_id":"2accd549-8c29-48bb-899a-29b868f44c74","system_id":"levelo_inurba_marseille","lat":43.283373,"lon":5.381009,"is_reserved":false,"is_disabled":false,"rental_uris":{"android":"levelo://app?vid=2accd549-8c29-48bb-899a-29b868f44c74","ios":"levelo://app?vid=2accd549-8c29-48bb-899a-29b868f44c74"},"vehicle_type_id":"4","last_reported":1732029009,"current_range_meters":22800,"station_id":"ce4bh412rcd13ifvqdr0","pricing_plan_id":"cebpf4jnsgd1na2vs0mg"},{"bike_id":"ab7f380b-87be-43c7-9c5a-00e675488952","system_id":"levelo_inurba_marseille","lat":43.29377,"lon":5.37841,"is_reserved":false,"is_disabled":false,"rental_uris":{"android":"levelo://app?vid=ab7f380b-87be-43c7-9c5a-00e675488952","ios":"levelo://app?vid=ab7f380b-87be-43c7-9c5a-00e675488952"},"vehicle_type_id":"4","last_reported":1732029009,"current_range_meters":38800,"station_id":"ce4bgjh2rcd13ifvqbf0","pricing_plan_id":"cebpf4jnsgd1na2vs0mg"},{"bike_id":"b1879da0-4952-4a10-8d90-fd2192536eda","system_id":"levelo_inurba_marseille","lat":43.23154,"lon":5.43719,"is_reserved":false,"is_disabled":false,"rental_uris":{"android":"levelo://app?vid=b1879da0-4952-4a10-8d90-fd2192536eda","ios":"levelo://app?vid=b1879da0-4952-4a10-8d90-fd2192536eda"},"vehicle_type_id":"4","last_reported":1732029009,"current_range_meters":39200,"station_id":"ce4bhmp2rcd13ifvqgog","pricing_plan_id":"cebpf4jnsgd1na2vs0mg"},{"bike_id":"24061edd-ded8-42aa-93d0-1520d915e818","system_id":"levelo_inurba_marseille","lat":43.30883,"lon":5.39653,"is_reserved":false,"is_disabled":false,"rental_uris":{"android":"levelo://app?vid=24061edd-ded8-42aa-93d0-1520d915e818","ios":"levelo://app?vid=24061edd-ded8-42aa-93d0-1520d915e818"},"vehicle_type_id":"4","last_reported":1732029009,"current_range_meters":29600,"station_id":"ce4bh012rcd13ifvqcv0","pricing_plan_id":"cebpf4jnsgd1na2vs0mg"},{"bike_id":"31e0f2e5-7a97-4e9d-a2e0-e7ac86565714","system_id":"levelo_inurba_marseille","lat":43.301647,"lon":5.376363,"is_reserved":false,"is_disabled":false,"rental_uris":{"android":"levelo://app?vid=31e0f2e5-7a97-4e9d-a2e0-e7ac86565714","ios":"levelo://app?vid=31e0f2e5-7a97-4e9d-a2e0-e7ac86565714"},"vehicle_type_id":"4","last_reported":1732029009,"current_range_meters":34000,"station_id":"","pricing_plan_id":"cebpf4jnsgd1na2vs0mg"},{"bike_id":"91988532-8808-464d-8a57-05e57412c828","system_id":"levelo_inurba_marseille","lat":43.2408,"lon":5.37755,"is_reserved":false,"is_disabled":true,"rental_uris":{"android":"levelo://app?vid=91988532-8808-464d-8a57-05e57412c828","ios":"levelo://app?vid=91988532-8808-464d-8a57-05e57412c828"},"vehicle_type_id":"4","last_reported":1732029009,"current_range_meters":0,"station_id":"ce4bhnp2rcd13ifvqgvg","pricing_plan_id":"cebpf4jnsgd1na2vs0mg"},{"bike_id":"c85666ef-4eaa-47a5-b89b-259bc40468c0","system_id":"levelo_inurba_marseille","lat":43.33026,"lon":5.39044,"is_reserved":false,"is_disabled":false,"rental_uris":{"android":"levelo://app?vid=c85666ef-4eaa-47a5-b89b-259bc40468c0","ios":"levelo://app?vid=c85666ef-4eaa-47a5-b89b-259bc40468c0"},"vehicle_type_id":"4","last_reported":1732029009,"current_range_meters":4400,"station_id":"ce4bhr92rcd13ifvqhrg","pricing_plan_id":"cebpf4jnsgd1na2vs0mg"},{"bike_id":"ccebe5cf-2c1f-4616-9818-dd870a925438","system_id":"levelo_inurba_marseille","lat":43.31877,"lon":5.40739,"is_reserved":false,"is_disabled":false,"rental_uris":{"android":"levelo://app?vid=ccebe5cf-2c1f-4616-9818-dd870a925438","ios":"levelo://app?vid=ccebe5cf-2c1f-4616-9818-dd870a925438"},"vehicle_type_id":"4","last_reported":1732029009,"current_range_meters":38800,"station_id":"ce4bhq12rcd13ifvqhig","pricing_plan_id":"cebpf4jnsgd1na2vs0mg"},{"bike_id":"6cd7b50d-b764-4c8a-a1e1-8711453a0e0d","system_id":"levelo_inurba_marseille","lat":43.29806,"lon":5.38104,"is_reserved":false,"is_disabled":false,"rental_uris":{"android":"levelo://app?vid=6cd7b50d-b764-4c8a-a1e1-8711453a0e0d","ios":"levelo://app?vid=6cd7b50d-b764-4c8a-a1e1-8711453a0e0d"},"vehicle_type_id":"4","last_reported":1732029009,"current_range_meters":37600,"station_id":"ce4bgip2rcd13ifvqbb0","pricing_plan_id":"cebpf4jnsgd1na2vs0mg"},{"bike_id":"4f17ca83-5b56-46c8-9eb1-44219ca2b9a0","system_id":"levelo_inurba_marseille","lat":43.29868,"lon":5.38333,"is_reserved":false,"is_disabled":false,"rental_uris":{"android":"levelo://app?vid=4f17ca83-5b56-46c8-9eb1-44219ca2b9a0","ios":"levelo://app?vid=4f17ca83-5b56-46c8-9eb1-44219ca2b9a0"},"vehicle_type_id":"4","last_reported":1732029009,"current_range_meters":22400,"station_id":"","pricing_plan_id":"cebpf4jnsgd1na2vs0mg"},{"bike_id":"6830afdd-e950-4b78-9a92-28242ff7854a","system_id":"levelo_inurba_marseille","lat":43.29057,"lon":5.35914,"is_reserved":false,"is_disabled":false,"rental_uris":{"android":"levelo://app?vid=6830afdd-e950-4b78-9a92-28242ff7854a","ios":"levelo://app?vid=6830afdd-e950-4b78-9a92-28242ff7854a"},"vehicle_type_id":"4","last_reported":1732029009,"current_range_meters":8800,"station_id":"ce4bha92rcd13ifvqeg0","pricing_plan_id":"cebpf4jnsgd1na2vs0mg"},{"bike_id":"c6c8493f-c7ba-4abf-b274-210b70c0e3d0","system_id":"levelo_inurba_marseille","lat":43.3031,"lon":5.36902,"is_reserved":false,"is_disabled":false,"rental_uris":{"android":"levelo://app?vid=c6c8493f-c7ba-4abf-b274-210b70c0e3d0","ios":"levelo://app?vid=c6c8493f-c7ba-4abf-b274-210b70c0e3d0"},"vehicle_type_id":"4","last_reported":1732029009,"current_range_meters":17600,"station_id":"ce4bgqh2rcd13ifvqc5g","pricing_plan_id":"cebpf4jnsgd1na2vs0mg"},{"bike_id":"72c78bf6-58d2-4997-97f1-4b4bd160a4b0","system_id":"levelo_inurba_marseille","lat":43.29534,"lon":5.39393,"is_reserved":false,"is_disabled":false,"rental_uris":{"android":"levelo://app?vid=72c78bf6-58d2-4997-97f1-4b4bd160a4b0","ios":"levelo://app?vid=72c78bf6-58d2-4997-97f1-4b4bd160a4b0"},"vehicle_type_id":"4","last_reported":1732029009,"current_range_meters":16800,"station_id":"ce4bh292rcd13ifvqdf0","pricing_plan_id":"cebpf4jnsgd1na2vs0mg"},{"bike_id":"7f3a0674-d5e6-4f9e-8b6f-58a078e609ab","system_id":"levelo_inurba_marseille","lat":43.26033,"lon":5.37553,"is_reserved":false,"is_disabled":false,"rental_uris":{"android":"levelo://app?vid=7f3a0674-d5e6-4f9e-8b6f-58a078e609ab","ios":"levelo://app?vid=7f3a0674-d5e6-4f9e-8b6f-58a078e609ab"},"vehicle_type_id":"4","last_reported":1732029009,"current_range_meters":4000,"station_id":"ce4bhgh2rcd13ifvqfa0","pricing_plan_id":"cebpf4jnsgd1na2vs0mg"},{"bike_id":"1f28c99d-f14b-46b1-a2cd-f1a94e16d3c4","system_id":"levelo_inurba_marseille","lat":43.30548,"lon":5.36542,"is_reserved":false,"is_disabled":false,"rental_uris":{"android":"levelo://app?vid=1f28c99d-f14b-46b1-a2cd-f1a94e16d3c4","ios":"levelo://app?vid=1f28c99d-f14b-46b1-a2cd-f1a94e16d3c4"},"vehicle_type_id":"4","last_reported":1732029009,"current_range_meters":12000,"station_id":"ce4bgs12rcd13ifvqcag","pricing_plan_id":"cebpf4jnsgd1na2vs0mg"},{"bike_id":"ba88cf55-b306-4158-8739-8d4a1851943e","system_id":"levelo_inurba_marseille","lat":43.2942,"lon":5.38627,"is_reserved":false,"is_disabled":false,"rental_uris":{"android":"levelo://app?vid=ba88cf55-b306-4158-8739-8d4a1851943e","ios":"levelo://app?vid=ba88cf55-b306-4158-8739-8d4a1851943e"},"vehicle_type_id":"4","last_reported":1732029009,"current_range_meters":36400,"station_id":"ce4bh2h2rcd13ifvqdh0","pricing_plan_id":"cebpf4jnsgd1na2vs0mg"},{"bike_id":"6845657a-a6e5-46c7-807b-65ba4d25e773","system_id":"levelo_inurba_marseille","lat":43.31061,"lon":5.38359,"is_reserved":false,"is_disabled":false,"rental_uris":{"android":"levelo://app?vid=6845657a-a6e5-46c7-807b-65ba4d25e773","ios":"levelo://app?vid=6845657a-a6e5-46c7-807b-65ba4d25e773"},"vehicle_type_id":"4","last_reported":1732029009,"current_range_meters":36400,"station_id":"ce4bgv92rcd13ifvqcr0","pricing_plan_id":"cebpf4jnsgd1na2vs0mg"},{"bike_id":"aeea4a6d-decf-4b6b-b79b-0330c496c383","system_id":"levelo_inurba_marseille","lat":43.28613,"lon":5.35097,"is_reserved":false,"is_disabled":false,"rental_uris":{"android":"levelo://app?vid=aeea4a6d-decf-4b6b-b79b-0330c496c383","ios":"levelo://app?vid=aeea4a6d-decf-4b6b-b79b-0330c496c383"},"vehicle_type_id":"4","last_reported":1732029009,"current_range_meters":22800,"station_id":"ce4bhch2rcd13ifvqeug","pricing_plan_id":"cebpf4jnsgd1na2vs0mg"},{"bike_id":"073d1a31-3fdd-43ff-83ec-7b27c03150bf","system_id":"levelo_inurba_marseille","lat":43.27939,"lon":5.41054,"is_reserved":false,"is_disabled":false,"rental_uris":{"android":"levelo://app?vid=073d1a31-3fdd-43ff-83ec-7b27c03150bf","ios":"levelo://app?vid=073d1a31-3fdd-43ff-83ec-7b27c03150bf"},"vehicle_type_id":"4","last_reported":1732029009,"current_range_meters":9200,"station_id":"ce4bhnp2rcd13ifvqh0g","pricing_plan_id":"cebpf4jnsgd1na2vs0mg"},{"bike_id":"d1bf43e2-cab7-400d-b33f-4db6d9922c19","system_id":"levelo_inurba_marseille","lat":43.2926,"lon":5.38447,"is_reserved":false,"is_disabled":false,"rental_uris":{"android":"levelo://app?vid=d1bf43e2-cab7-400d-b33f-4db6d9922c19","ios":"levelo://app?vid=d1bf43e2-cab7-400d-b33f-4db6d9922c19"},"vehicle_type_id":"4","last_reported":1732029009,"current_range_meters":25600,"station_id":"ce4bh692rcd13ifvqea0","pricing_plan_id":"cebpf4jnsgd1na2vs0mg"},{"bike_id":"1341a828-b981-4198-a789-8a5791ca7539","system_id":"levelo_inurba_marseille","lat":43.25006,"lon":5.3892,"is_reserved":false,"is_disabled":false,"rental_uris":{"android":"levelo://app?vid=1341a828-b981-4198-a789-8a5791ca7539","ios":"levelo://app?vid=1341a828-b981-4198-a789-8a5791ca7539"},"vehicle_type_id":"4","last_reported":1732029009,"current_range_meters":36000,"station_id":"ce4bhgp2rcd13ifvqfd0","pricing_plan_id":"cebpf4jnsgd1na2vs0mg"},{"bike_id":"2eb8bf07-c314-407a-b867-b5ba00bca695","system_id":"levelo_inurba_marseille","lat":43.30094,"lon":5.39068,"is_reserved":false,"is_disabled":false,"rental_uris":{"android":"levelo://app?vid=2eb8bf07-c314-407a-b867-b5ba00bca695","ios":"levelo://app?vid=2eb8bf07-c314-407a-b867-b5ba00bca695"},"vehicle_type_id":"4","last_reported":1732029009,"current_range_meters":39200,"station_id":"ce4bh192rcd13ifvqdb0","pricing_plan_id":"cebpf4jnsgd1na2vs0mg"},{"bike_id":"e3511c0c-eb2b-4100-bb2d-c5ebcd644bea","system_id":"levelo_inurba_marseille","lat":43.23962,"lon":5.36627,"is_reserved":false,"is_disabled":true,"rental_uris":{"android":"levelo://app?vid=e3511c0c-eb2b-4100-bb2d-c5ebcd644bea","ios":"levelo://app?vid=e3511c0c-eb2b-4100-bb2d-c5ebcd644bea"},"vehicle_type_id":"4","last_reported":1732029009,"current_range_meters":35600,"station_id":"ce4bhi12rcd13ifvqfp0","pricing_plan_id":"cebpf4jnsgd1na2vs0mg"},{"bike_id":"7dc2540e-5c15-49cc-843d-b22dafd2ded0","system_id":"levelo_inurba_marseille","lat":43.33773,"lon":5.37428,"is_reserved":false,"is_disabled":false,"rental_uris":{"android":"levelo://app?vid=7dc2540e-5c15-49cc-843d-b22dafd2ded0","ios":"levelo://app?vid=7dc2540e-5c15-49cc-843d-b22dafd2ded0"},"vehicle_type_id":"4","last_reported":1732029009,"current_range_meters":38000,"station_id":"","pricing_plan_id":"cebpf4jnsgd1na2vs0mg"},{"bike_id":"5917a06d-1a89-42ee-9c96-70b3e49f2520","system_id":"levelo_inurba_marseille","lat":43.3169,"lon":5.40484,"is_reserved":false,"is_disabled":true,"rental_uris":{"android":"levelo://app?vid=5917a06d-1a89-42ee-9c96-70b3e49f2520","ios":"levelo://app?vid=5917a06d-1a89-42ee-9c96-70b3e49f2520"},"vehicle_type_id":"4","last_reported":1732029009,"current_range_meters":11600,"station_id":"ce4bh012rcd13ifvqd00","pricing_plan_id":"cebpf4jnsgd1na2vs0mg"},{"bike_id":"f1c9243d-c0ac-4902-87f5-22970d90ffcc","system_id":"levelo_inurba_marseille","lat":43.26759,"lon":5.39436,"is_reserved":false,"is_disabled":false,"rental_uris":{"android":"levelo://app?vid=f1c9243d-c0ac-4902-87f5-22970d90ffcc","ios":"levelo://app?vid=f1c9243d-c0ac-4902-87f5-22970d90ffcc"},"vehicle_type_id":"4","last_reported":1732029009,"current_range_meters":30000,"station_id":"","pricing_plan_id":"cebpf4jnsgd1na2vs0mg"},{"bike_id":"5625640b-ae71-40f7-9abc-ea27d3e38e29","system_id":"levelo_inurba_marseille","lat":43.28158,"lon":5.42644,"is_reserved":false,"is_disabled":false,"rental_uris":{"android":"levelo://app?vid=5625640b-ae71-40f7-9abc-ea27d3e38e29","ios":"levelo://app?vid=5625640b-ae71-40f7-9abc-ea27d3e38e29"},"vehicle_type_id":"4","last_reported":1732029009,"current_range_meters":6400,"station_id":"ce4bhnh2rcd13ifvqgug","pricing_plan_id":"cebpf4jnsgd1na2vs0mg"},{"bike_id":"ce92d552-5c8f-4728-8ada-4a9cd5141250","system_id":"levelo_inurba_marseille","lat":43.28571,"lon":5.39498,"is_reserved":false,"is_disabled":false,"rental_uris":{"android":"levelo://app?vid=ce92d552-5c8f-4728-8ada-4a9cd5141250","ios":"levelo://app?vid=ce92d552-5c8f-4728-8ada-4a9cd5141250"},"vehicle_type_id":"4","last_reported":1732029009,"current_range_meters":31200,"station_id":"ce4bh292rcd13ifvqdg0","pricing_plan_id":"cebpf4jnsgd1na2vs0mg"},{"bike_id":"9d50e364-35e7-4c38-97d1-384e40a77e79","system_id":"levelo_inurba_marseille","lat":43.29793,"lon":5.38134,"is_reserved":false,"is_disabled":false,"rental_uris":{"android":"levelo://app?vid=9d50e364-35e7-4c38-97d1-384e40a77e79","ios":"levelo://app?vid=9d50e364-35e7-4c38-97d1-384e40a77e79"},"vehicle_type_id":"4","last_reported":1732029009,"current_range_meters":16800,"station_id":"ce4bgip2rcd13ifvqbb0","pricing_plan_id":"cebpf4jnsgd1na2vs0mg"},{"bike_id":"a00e18ae-9f92-45bf-a7c3-ea8bc2ef6cba","system_id":"levelo_inurba_marseille","lat":43.28489,"lon":5.38556,"is_reserved":false,"is_disabled":false,"rental_uris":{"android":"levelo://app?vid=a00e18ae-9f92-45bf-a7c3-ea8bc2ef6cba","ios":"levelo://app?vid=a00e18ae-9f92-45bf-a7c3-ea8bc2ef6cba"},"vehicle_type_id":"4","last_reported":1732029009,"current_range_meters":19600,"station_id":"ce4bh8p2rcd13ifvqeb0","pricing_plan_id":"cebpf4jnsgd1na2vs0mg"},{"bike_id":"b48ffeaa-acd3-4b4d-a578-625f39d31859","system_id":"levelo_inurba_marseille","lat":43.32041,"lon":5.41566,"is_reserved":false,"is_disabled":false,"rental_uris":{"android":"levelo://app?vid=b48ffeaa-acd3-4b4d-a578-625f39d31859","ios":"levelo://app?vid=b48ffeaa-acd3-4b4d-a578-625f39d31859"},"vehicle_type_id":"4","last_reported":1732029009,"current_range_meters":39200,"station_id":"ce4bhq92rcd13ifvqhkg","pricing_plan_id":"cebpf4jnsgd1na2vs0mg"},{"bike_id":"9655464b-87bb-4f11-91a5-226ff7c93e31","system_id":"levelo_inurba_marseille","lat":43.2936,"lon":5.37862,"is_reserved":false,"is_disabled":false,"rental_uris":{"android":"levelo://app?vid=9655464b-87bb-4f11-91a5-226ff7c93e31","ios":"levelo://app?vid=9655464b-87bb-4f11-91a5-226ff7c93e31"},"vehicle_type_id":"4","last_reported":1732029009,"current_range_meters":37600,"station_id":"ce4bgjh2rcd13ifvqbf0","pricing_plan_id":"cebpf4jnsgd1na2vs0mg"},{"bike_id":"1da9f889-ea67-465b-92d2-794cb7593068","system_id":"levelo_inurba_marseille","lat":43.28469,"lon":5.38416,"is_reserved":false,"is_disabled":false,"rental_uris":{"android":"levelo://app?vid=1da9f889-ea67-465b-92d2-794cb7593068","ios":"levelo://app?vid=1da9f889-ea67-465b-92d2-794cb7593068"},"vehicle_type_id":"4","last_reported":1732029009,"current_range_meters":38000,"station_id":"ce4bh512rcd13ifvqe3g","pricing_plan_id":"cebpf4jnsgd1na2vs0mg"},{"bike_id":"90a61bb8-2c5c-4c88-8028-f52b1c4df300","system_id":"levelo_inurba_marseille","lat":43.25502,"lon":5.37651,"is_reserved":false,"is_disabled":false,"rental_uris":{"android":"levelo://app?vid=90a61bb8-2c5c-4c88-8028-f52b1c4df300","ios":"levelo://app?vid=90a61bb8-2c5c-4c88-8028-f52b1c4df300"},"vehicle_type_id":"4","last_reported":1732029009,"current_range_meters":24400,"station_id":"ce4bhh12rcd13ifvqff0","pricing_plan_id":"cebpf4jnsgd1na2vs0mg"},{"bike_id":"88901e5c-eefe-4726-a965-0f600a356892","system_id":"levelo_inurba_marseille","lat":43.29725,"lon":5.37678,"is_reserved":false,"is_disabled":false,"rental_uris":{"android":"levelo://app?vid=88901e5c-eefe-4726-a965-0f600a356892","ios":"levelo://app?vid=88901e5c-eefe-4726-a965-0f600a356892"},"vehicle_type_id":"4","last_reported":1732029009,"current_range_meters":12400,"station_id":"ce4bgkh2rcd13ifvqbl0","pricing_plan_id":"cebpf4jnsgd1na2vs0mg"},{"bike_id":"d674a550-723f-4e20-a0c2-89aa344c2ade","system_id":"levelo_inurba_marseille","lat":43.28203,"lon":5.44381,"is_reserved":false,"is_disabled":true,"rental_uris":{"android":"levelo://app?vid=d674a550-723f-4e20-a0c2-89aa344c2ade","ios":"levelo://app?vid=d674a550-723f-4e20-a0c2-89aa344c2ade"},"vehicle_type_id":"4","last_reported":1732029009,"current_range_meters":1600,"station_id":"","pricing_plan_id":"cebpf4jnsgd1na2vs0mg"},{"bike_id":"f542b112-204e-4422-a866-9c7f8c2c4c4d","system_id":"levelo_inurba_marseille","lat":43.31495,"lon":5.37317,"is_reserved":false,"is_disabled":false,"rental_uris":{"android":"levelo://app?vid=f542b112-204e-4422-a866-9c7f8c2c4c4d","ios":"levelo://app?vid=f542b112-204e-4422-a866-9c7f8c2c4c4d"},"vehicle_type_id":"4","last_reported":1732029009,"current_range_meters":39200,"station_id":"ce4bgt12rcd13ifvqcd0","pricing_plan_id":"cebpf4jnsgd1na2vs0mg"},{"bike_id":"17074aa1-9793-4a2b-aca3-b6144efd20f2","system_id":"levelo_inurba_marseille","lat":43.28771,"lon":5.39027,"is_reserved":false,"is_disabled":false,"rental_uris":{"android":"levelo://app?vid=17074aa1-9793-4a2b-aca3-b6144efd20f2","ios":"levelo://app?vid=17074aa1-9793-4a2b-aca3-b6144efd20f2"},"vehicle_type_id":"4","last_reported":1732029009,"current_range_meters":28400,"station_id":"ce4bh4p2rcd13ifvqe0g","pricing_plan_id":"cebpf4jnsgd1na2vs0mg"},{"bike_id":"f5cf085e-8694-4c6f-ba9c-aa6e0d3c58c6","system_id":"levelo_inurba_marseille","lat":43.34614,"lon":5.35458,"is_reserved":false,"is_disabled":true,"rental_uris":{"android":"levelo://app?vid=f5cf085e-8694-4c6f-ba9c-aa6e0d3c58c6","ios":"levelo://app?vid=f5cf085e-8694-4c6f-ba9c-aa6e0d3c58c6"},"vehicle_type_id":"4","last_reported":1732029009,"current_range_meters":17600,"station_id":"","pricing_plan_id":"cebpf4jnsgd1na2vs0mg"},{"bike_id":"6e4700da-2223-4213-b156-7eedfb193e83","system_id":"levelo_inurba_marseille","lat":43.23189,"lon":5.35566,"is_reserved":false,"is_disabled":false,"rental_uris":{"android":"levelo://app?vid=6e4700da-2223-4213-b156-7eedfb193e83","ios":"levelo://app?vid=6e4700da-2223-4213-b156-7eedfb193e83"},"vehicle_type_id":"4","last_reported":1732029009,"current_range_meters":3600,"station_id":"ce4bhu92rcd13ifvqi70","pricing_plan_id":"cebpf4jnsgd1na2vs0mg"},{"bike_id":"736a9e28-9d44-4d20-87d3-cde0293b61e8","system_id":"levelo_inurba_marseille","lat":43.31706,"lon":5.40453,"is_reserved":false,"is_disabled":false,"rental_uris":{"android":"levelo://app?vid=736a9e28-9d44-4d20-87d3-cde0293b61e8","ios":"levelo://app?vid=736a9e28-9d44-4d20-87d3-cde0293b61e8"},"vehicle_type_id":"4","last_reported":1732029009,"current_range_meters":27200,"station_id":"ce4bh012rcd13ifvqd00","pricing_plan_id":"cebpf4jnsgd1na2vs0mg"},{"bike_id":"7b800c37-3806-46b4-a7fd-8f0af486e7e9","system_id":"levelo_inurba_marseille","lat":43.28268,"lon":5.35069,"is_reserved":false,"is_disabled":false,"rental_uris":{"android":"levelo://app?vid=7b800c37-3806-46b4-a7fd-8f0af486e7e9","ios":"levelo://app?vid=7b800c37-3806-46b4-a7fd-8f0af486e7e9"},"vehicle_type_id":"4","last_reported":1732029009,"current_range_meters":18800,"station_id":"ce4bhbp2rcd13ifvqerg","pricing_plan_id":"cebpf4jnsgd1na2vs0mg"},{"bike_id":"76b26817-8a0e-47d4-9818-68227ec46540","system_id":"levelo_inurba_marseille","lat":43.29057,"lon":5.37151,"is_reserved":false,"is_disabled":false,"rental_uris":{"android":"levelo://app?vid=76b26817-8a0e-47d4-9818-68227ec46540","ios":"levelo://app?vid=76b26817-8a0e-47d4-9818-68227ec46540"},"vehicle_type_id":"4","last_reported":1732029009,"current_range_meters":37600,"station_id":"ce4bh5p2rcd13ifvqe4g","pricing_plan_id":"cebpf4jnsgd1na2vs0mg"},{"bike_id":"bd4a772f-74de-4528-ae45-171c28be203c","system_id":"levelo_inurba_marseille","lat":43.30415,"lon":5.41278,"is_reserved":false,"is_disabled":false,"rental_uris":{"android":"levelo://app?vid=bd4a772f-74de-4528-ae45-171c28be203c","ios":"levelo://app?vid=bd4a772f-74de-4528-ae45-171c28be203c"},"vehicle_type_id":"4","last_reported":1732029009,"current_range_meters":24000,"station_id":"ce4bhop2rcd13ifvqh8g","pricing_plan_id":"cebpf4jnsgd1na2vs0mg"},{"bike_id":"612e3995-23ae-440c-b02d-427476ab863a","system_id":"levelo_inurba_marseille","lat":43.29034,"lon":5.38645,"is_reserved":false,"is_disabled":false,"rental_uris":{"android":"levelo://app?vid=612e3995-23ae-440c-b02d-427476ab863a","ios":"levelo://app?vid=612e3995-23ae-440c-b02d-427476ab863a"},"vehicle_type_id":"4","last_reported":1732029009,"current_range_meters":24800,"station_id":"ce4bh4p2rcd13ifvqe0g","pricing_plan_id":"cebpf4jnsgd1na2vs0mg"},{"bike_id":"31e6bd0b-c283-428e-a60e-39ea0d752798","system_id":"levelo_inurba_marseille","lat":43.26213,"lon":5.37442,"is_reserved":false,"is_disabled":false,"rental_uris":{"android":"levelo://app?vid=31e6bd0b-c283-428e-a60e-39ea0d752798","ios":"levelo://app?vid=31e6bd0b-c283-428e-a60e-39ea0d752798"},"vehicle_type_id":"4","last_reported":1732029009,"current_range_meters":13600,"station_id":"ce4bhgp2rcd13ifvqfc0","pricing_plan_id":"cebpf4jnsgd1na2vs0mg"},{"bike_id":"c1399dc8-f32d-43a3-b434-0bcb290d0fe1","system_id":"levelo_inurba_marseille","lat":43.28486,"lon":5.38551,"is_reserved":false,"is_disabled":false,"rental_uris":{"android":"levelo://app?vid=c1399dc8-f32d-43a3-b434-0bcb290d0fe1","ios":"levelo://app?vid=c1399dc8-f32d-43a3-b434-0bcb290d0fe1"},"vehicle_type_id":"4","last_reported":1732029009,"current_range_meters":30000,"station_id":"ce4bh8p2rcd13ifvqeb0","pricing_plan_id":"cebpf4jnsgd1na2vs0mg"},{"bike_id":"daa8c22e-8f4d-480c-912c-ff69e2a4e6c8","system_id":"levelo_inurba_marseille","lat":43.29008,"lon":5.35613,"is_reserved":false,"is_disabled":false,"rental_uris":{"android":"levelo://app?vid=daa8c22e-8f4d-480c-912c-ff69e2a4e6c8","ios":"levelo://app?vid=daa8c22e-8f4d-480c-912c-ff69e2a4e6c8"},"vehicle_type_id":"4","last_reported":1732029009,"current_range_meters":35600,"station_id":"ce4bhb92rcd13ifvqen0","pricing_plan_id":"cebpf4jnsgd1na2vs0mg"},{"bike_id":"e21e70fc-e354-431d-98b8-1fce583f2d1c","system_id":"levelo_inurba_marseille","lat":43.27664,"lon":5.38861,"is_reserved":false,"is_disabled":false,"rental_uris":{"android":"levelo://app?vid=e21e70fc-e354-431d-98b8-1fce583f2d1c","ios":"levelo://app?vid=e21e70fc-e354-431d-98b8-1fce583f2d1c"},"vehicle_type_id":"4","last_reported":1732029009,"current_range_meters":23200,"station_id":"ce4bhi12rcd13ifvqfo0","pricing_plan_id":"cebpf4jnsgd1na2vs0mg"},{"bike_id":"c965d922-041e-4314-8721-46b1ef5413d3","system_id":"levelo_inurba_marseille","lat":43.26203,"lon":5.37929,"is_reserved":false,"is_disabled":false,"rental_uris":{"android":"levelo://app?vid=c965d922-041e-4314-8721-46b1ef5413d3","ios":"levelo://app?vid=c965d922-041e-4314-8721-46b1ef5413d3"},"vehicle_type_id":"4","last_reported":1732029009,"current_range_meters":38800,"station_id":"ce4bhjp2rcd13ifvqg90","pricing_plan_id":"cebpf4jnsgd1na2vs0mg"},{"bike_id":"fd62d244-3078-4d0f-b42f-51ce3dfa4a51","system_id":"levelo_inurba_marseille","lat":43.30334,"lon":5.40428,"is_reserved":false,"is_disabled":false,"rental_uris":{"android":"levelo://app?vid=fd62d244-3078-4d0f-b42f-51ce3dfa4a51","ios":"levelo://app?vid=fd62d244-3078-4d0f-b42f-51ce3dfa4a51"},"vehicle_type_id":"4","last_reported":1732029009,"current_range_meters":36000,"station_id":"ce4bh012rcd13ifvqd10","pricing_plan_id":"cebpf4jnsgd1na2vs0mg"},{"bike_id":"7eab42ad-0bd4-412e-af10-d59fce6c7598","system_id":"levelo_inurba_marseille","lat":43.29631,"lon":5.40601,"is_reserved":false,"is_disabled":false,"rental_uris":{"android":"levelo://app?vid=7eab42ad-0bd4-412e-af10-d59fce6c7598","ios":"levelo://app?vid=7eab42ad-0bd4-412e-af10-d59fce6c7598"},"vehicle_type_id":"4","last_reported":1732029009,"current_range_meters":20000,"station_id":"ce4bh0h2rcd13ifvqd60","pricing_plan_id":"cebpf4jnsgd1na2vs0mg"},{"bike_id":"bc249293-6395-4334-b84a-652f70f197fc","system_id":"levelo_inurba_marseille","lat":43.2763,"lon":5.42656,"is_reserved":false,"is_disabled":true,"rental_uris":{"android":"levelo://app?vid=bc249293-6395-4334-b84a-652f70f197fc","ios":"levelo://app?vid=bc249293-6395-4334-b84a-652f70f197fc"},"vehicle_type_id":"4","last_reported":1732029009,"current_range_meters":0,"station_id":"","pricing_plan_id":"cebpf4jnsgd1na2vs0mg"},{"bike_id":"1426cae0-d8f2-4da7-9cfb-ba7cf7c941f1","system_id":"levelo_inurba_marseille","lat":43.310722,"lon":5.38357,"is_reserved":false,"is_disabled":false,"rental_uris":{"android":"levelo://app?vid=1426cae0-d8f2-4da7-9cfb-ba7cf7c941f1","ios":"levelo://app?vid=1426cae0-d8f2-4da7-9cfb-ba7cf7c941f1"},"vehicle_type_id":"4","last_reported":1732029009,"current_range_meters":36000,"station_id":"ce4bgv92rcd13ifvqcr0","pricing_plan_id":"cebpf4jnsgd1na2vs0mg"},{"bike_id":"5d99237c-43fd-4199-9b06-53d7207472aa","system_id":"levelo_inurba_marseille","lat":43.31702,"lon":5.37768,"is_reserved":false,"is_disabled":false,"rental_uris":{"android":"levelo://app?vid=5d99237c-43fd-4199-9b06-53d7207472aa","ios":"levelo://app?vid=5d99237c-43fd-4199-9b06-53d7207472aa"},"vehicle_type_id":"4","last_reported":1732029009,"current_range_meters":28800,"station_id":"ce4bgth2rcd13ifvqch0","pricing_plan_id":"cebpf4jnsgd1na2vs0mg"},{"bike_id":"be1dd5f8-91fc-4786-8461-76cd869dae13","system_id":"levelo_inurba_marseille","lat":43.31982,"lon":5.41584,"is_reserved":false,"is_disabled":true,"rental_uris":{"android":"levelo://app?vid=be1dd5f8-91fc-4786-8461-76cd869dae13","ios":"levelo://app?vid=be1dd5f8-91fc-4786-8461-76cd869dae13"},"vehicle_type_id":"4","last_reported":1732029009,"current_range_meters":25600,"station_id":"","pricing_plan_id":"cebpf4jnsgd1na2vs0mg"},{"bike_id":"1b66acf4-f6da-45ad-a96f-dc36daf42114","system_id":"levelo_inurba_marseille","lat":43.25868,"lon":5.39898,"is_reserved":false,"is_disabled":false,"rental_uris":{"android":"levelo://app?vid=1b66acf4-f6da-45ad-a96f-dc36daf42114","ios":"levelo://app?vid=1b66acf4-f6da-45ad-a96f-dc36daf42114"},"vehicle_type_id":"4","last_reported":1732029009,"current_range_meters":23200,"station_id":"ce4bhl92rcd13ifvqghg","pricing_plan_id":"cebpf4jnsgd1na2vs0mg"},{"bike_id":"35e74e42-a783-49cd-884d-8a241590c517","system_id":"levelo_inurba_marseille","lat":43.29548,"lon":5.42293,"is_reserved":false,"is_disabled":false,"rental_uris":{"android":"levelo://app?vid=35e74e42-a783-49cd-884d-8a241590c517","ios":"levelo://app?vid=35e74e42-a783-49cd-884d-8a241590c517"},"vehicle_type_id":"4","last_reported":1732029009,"current_range_meters":39200,"station_id":"ce4bhph2rcd13ifvqhdg","pricing_plan_id":"cebpf4jnsgd1na2vs0mg"},{"bike_id":"ee5ad2bc-dd93-4a60-9deb-ff629596020e","system_id":"levelo_inurba_marseille","lat":43.2418,"lon":5.39732,"is_reserved":false,"is_disabled":false,"rental_uris":{"android":"levelo://app?vid=ee5ad2bc-dd93-4a60-9deb-ff629596020e","ios":"levelo://app?vid=ee5ad2bc-dd93-4a60-9deb-ff629596020e"},"vehicle_type_id":"4","last_reported":1732029009,"current_range_meters":38800,"station_id":"ce4bhn12rcd13ifvqgpg","pricing_plan_id":"cebpf4jnsgd1na2vs0mg"},{"bike_id":"35114f41-e371-4dc4-a460-06d37579febc","system_id":"levelo_inurba_marseille","lat":43.297918,"lon":5.381116,"is_reserved":false,"is_disabled":false,"rental_uris":{"android":"levelo://app?vid=35114f41-e371-4dc4-a460-06d37579febc","ios":"levelo://app?vid=35114f41-e371-4dc4-a460-06d37579febc"},"vehicle_type_id":"4","last_reported":1732029009,"current_range_meters":38800,"station_id":"ce4bgip2rcd13ifvqbb0","pricing_plan_id":"cebpf4jnsgd1na2vs0mg"},{"bike_id":"f696ba5f-e3b9-4d4b-a63b-ca4d98dbb32b","system_id":"levelo_inurba_marseille","lat":43.29198,"lon":5.3931,"is_reserved":false,"is_disabled":false,"rental_uris":{"android":"levelo://app?vid=f696ba5f-e3b9-4d4b-a63b-ca4d98dbb32b","ios":"levelo://app?vid=f696ba5f-e3b9-4d4b-a63b-ca4d98dbb32b"},"vehicle_type_id":"4","last_reported":1732029009,"current_range_meters":25200,"station_id":"ce4bh192rcd13ifvqdd0","pricing_plan_id":"cebpf4jnsgd1na2vs0mg"},{"bike_id":"e5e2248a-03d3-4b07-b4f7-fd61796e9419","system_id":"levelo_inurba_marseille","lat":43.2997,"lon":5.38082,"is_reserved":false,"is_disabled":true,"rental_uris":{"android":"levelo://app?vid=e5e2248a-03d3-4b07-b4f7-fd61796e9419","ios":"levelo://app?vid=e5e2248a-03d3-4b07-b4f7-fd61796e9419"},"vehicle_type_id":"4","last_reported":1732029009,"current_range_meters":0,"station_id":"","pricing_plan_id":"cebpf4jnsgd1na2vs0mg"},{"bike_id":"8c3ed580-b22d-4828-92bd-979ea319c261","system_id":"levelo_inurba_marseille","lat":43.26791,"lon":5.39412,"is_reserved":false,"is_disabled":false,"rental_uris":{"android":"levelo://app?vid=8c3ed580-b22d-4828-92bd-979ea319c261","ios":"levelo://app?vid=8c3ed580-b22d-4828-92bd-979ea319c261"},"vehicle_type_id":"4","last_reported":1732029009,"current_range_meters":38800,"station_id":"ce4bhh12rcd13ifvqfg0","pricing_plan_id":"cebpf4jnsgd1na2vs0mg"},{"bike_id":"160d4b55-d7c8-4c9e-9fad-c3a2b64aa122","system_id":"levelo_inurba_marseille","lat":43.31078,"lon":5.38348,"is_reserved":false,"is_disabled":false,"rental_uris":{"android":"levelo://app?vid=160d4b55-d7c8-4c9e-9fad-c3a2b64aa122","ios":"levelo://app?vid=160d4b55-d7c8-4c9e-9fad-c3a2b64aa122"},"vehicle_type_id":"4","last_reported":1732029009,"current_range_meters":4400,"station_id":"ce4bgv92rcd13ifvqcr0","pricing_plan_id":"cebpf4jnsgd1na2vs0mg"},{"bike_id":"6fe65320-959e-41bb-8132-72e6c31cb31d","system_id":"levelo_inurba_marseille","lat":43.28412,"lon":5.38564,"is_reserved":false,"is_disabled":true,"rental_uris":{"android":"levelo://app?vid=6fe65320-959e-41bb-8132-72e6c31cb31d","ios":"levelo://app?vid=6fe65320-959e-41bb-8132-72e6c31cb31d"},"vehicle_type_id":"4","last_reported":1732029009,"current_range_meters":21600,"station_id":"ce4bho12rcd13ifvqh2g","pricing_plan_id":"cebpf4jnsgd1na2vs0mg"},{"bike_id":"0ad9d990-b612-414e-bc37-409495c7d8c0","system_id":"levelo_inurba_marseille","lat":43.30162,"lon":5.38085,"is_reserved":false,"is_disabled":false,"rental_uris":{"android":"levelo://app?vid=0ad9d990-b612-414e-bc37-409495c7d8c0","ios":"levelo://app?vid=0ad9d990-b612-414e-bc37-409495c7d8c0"},"vehicle_type_id":"4","last_reported":1732029009,"current_range_meters":18800,"station_id":"ce4bgjp2rcd13ifvqbh0","pricing_plan_id":"cebpf4jnsgd1na2vs0mg"},{"bike_id":"6060058b-38b6-45b5-8a09-d5cf2d7f2013","system_id":"levelo_inurba_marseille","lat":43.29798,"lon":5.39349,"is_reserved":false,"is_disabled":false,"rental_uris":{"android":"levelo://app?vid=6060058b-38b6-45b5-8a09-d5cf2d7f2013","ios":"levelo://app?vid=6060058b-38b6-45b5-8a09-d5cf2d7f2013"},"vehicle_type_id":"4","last_reported":1732029009,"current_range_meters":24400,"station_id":"chh1huq6cuj3fo74tm60","pricing_plan_id":"cebpf4jnsgd1na2vs0mg"},{"bike_id":"cfbed237-c79f-4f65-b311-be4997dd399e","system_id":"levelo_inurba_marseille","lat":43.27206,"lon":5.39192,"is_reserved":false,"is_disabled":true,"rental_uris":{"android":"levelo://app?vid=cfbed237-c79f-4f65-b311-be4997dd399e","ios":"levelo://app?vid=cfbed237-c79f-4f65-b311-be4997dd399e"},"vehicle_type_id":"4","last_reported":1732029009,"current_range_meters":0,"station_id":"ce4bhhp2rcd13ifvqfm0","pricing_plan_id":"cebpf4jnsgd1na2vs0mg"},{"bike_id":"5fe20d58-65ac-4c8a-b149-a2e6de20044d","system_id":"levelo_inurba_marseille","lat":43.29375,"lon":5.37861,"is_reserved":false,"is_disabled":true,"rental_uris":{"android":"levelo://app?vid=5fe20d58-65ac-4c8a-b149-a2e6de20044d","ios":"levelo://app?vid=5fe20d58-65ac-4c8a-b149-a2e6de20044d"},"vehicle_type_id":"4","last_reported":1732029009,"current_range_meters":32400,"station_id":"ce4bgjh2rcd13ifvqbf0","pricing_plan_id":"cebpf4jnsgd1na2vs0mg"},{"bike_id":"3da71fd3-0d93-4696-8595-22035816c5ec","system_id":"levelo_inurba_marseille","lat":43.28728,"lon":5.36085,"is_reserved":false,"is_disabled":false,"rental_uris":{"android":"levelo://app?vid=3da71fd3-0d93-4696-8595-22035816c5ec","ios":"levelo://app?vid=3da71fd3-0d93-4696-8595-22035816c5ec"},"vehicle_type_id":"4","last_reported":1732029009,"current_range_meters":17200,"station_id":"cki0cbj6b192h4jlfktg","pricing_plan_id":"cebpf4jnsgd1na2vs0mg"},{"bike_id":"524d919a-3f8c-4052-8e3f-3a0413f019de","system_id":"levelo_inurba_marseille","lat":43.29912,"lon":5.37491,"is_reserved":false,"is_disabled":false,"rental_uris":{"android":"levelo://app?vid=524d919a-3f8c-4052-8e3f-3a0413f019de","ios":"levelo://app?vid=524d919a-3f8c-4052-8e3f-3a0413f019de"},"vehicle_type_id":"4","last_reported":1732029009,"current_range_meters":16800,"station_id":"ce4bgjh2rcd13ifvqbg0","pricing_plan_id":"cebpf4jnsgd1na2vs0mg"},{"bike_id":"d14483f0-c0ad-46b1-ac17-f4c19b85857b","system_id":"levelo_inurba_marseille","lat":43.33021,"lon":5.39035,"is_reserved":false,"is_disabled":false,"rental_uris":{"android":"levelo://app?vid=d14483f0-c0ad-46b1-ac17-f4c19b85857b","ios":"levelo://app?vid=d14483f0-c0ad-46b1-ac17-f4c19b85857b"},"vehicle_type_id":"4","last_reported":1732029009,"current_range_meters":12800,"station_id":"ce4bhr92rcd13ifvqhrg","pricing_plan_id":"cebpf4jnsgd1na2vs0mg"},{"bike_id":"1ff970a9-d231-4bbd-92a9-fc25fa1a5bc7","system_id":"levelo_inurba_marseille","lat":43.30144,"lon":5.38087,"is_reserved":false,"is_disabled":false,"rental_uris":{"android":"levelo://app?vid=1ff970a9-d231-4bbd-92a9-fc25fa1a5bc7","ios":"levelo://app?vid=1ff970a9-d231-4bbd-92a9-fc25fa1a5bc7"},"vehicle_type_id":"4","last_reported":1732029009,"current_range_meters":37600,"station_id":"ce4bgjp2rcd13ifvqbh0","pricing_plan_id":"cebpf4jnsgd1na2vs0mg"},{"bike_id":"f1888b1a-22ac-4f8d-8a07-bea9e3e6d605","system_id":"levelo_inurba_marseille","lat":43.29982,"lon":5.37181,"is_reserved":false,"is_disabled":true,"rental_uris":{"android":"levelo://app?vid=f1888b1a-22ac-4f8d-8a07-bea9e3e6d605","ios":"levelo://app?vid=f1888b1a-22ac-4f8d-8a07-bea9e3e6d605"},"vehicle_type_id":"4","last_reported":1732029009,"current_range_meters":0,"station_id":"ce4bgr92rcd13ifvqc7g","pricing_plan_id":"cebpf4jnsgd1na2vs0mg"},{"bike_id":"b967642a-4386-4389-a89d-fd7f06a35604","system_id":"levelo_inurba_marseille","lat":43.28729,"lon":5.3608,"is_reserved":false,"is_disabled":false,"rental_uris":{"android":"levelo://app?vid=b967642a-4386-4389-a89d-fd7f06a35604","ios":"levelo://app?vid=b967642a-4386-4389-a89d-fd7f06a35604"},"vehicle_type_id":"4","last_reported":1732029009,"current_range_meters":16800,"station_id":"cki0cbj6b192h4jlfktg","pricing_plan_id":"cebpf4jnsgd1na2vs0mg"},{"bike_id":"24b2c3eb-8b9b-40a7-8aad-177c7a5a5f47","system_id":"levelo_inurba_marseille","lat":43.26934,"lon":5.38909,"is_reserved":false,"is_disabled":true,"rental_uris":{"android":"levelo://app?vid=24b2c3eb-8b9b-40a7-8aad-177c7a5a5f47","ios":"levelo://app?vid=24b2c3eb-8b9b-40a7-8aad-177c7a5a5f47"},"vehicle_type_id":"4","last_reported":1732029009,"current_range_meters":0,"station_id":"ce4bhhh2rcd13ifvqfl0","pricing_plan_id":"cebpf4jnsgd1na2vs0mg"},{"bike_id":"b80bc086-241e-444a-883b-f0b9cbe142b6","system_id":"levelo_inurba_marseille","lat":43.30153,"lon":5.38083,"is_reserved":false,"is_disabled":false,"rental_uris":{"android":"levelo://app?vid=b80bc086-241e-444a-883b-f0b9cbe142b6","ios":"levelo://app?vid=b80bc086-241e-444a-883b-f0b9cbe142b6"},"vehicle_type_id":"4","last_reported":1732029009,"current_range_meters":38400,"station_id":"ce4bgjp2rcd13ifvqbh0","pricing_plan_id":"cebpf4jnsgd1na2vs0mg"},{"bike_id":"0c21866d-64a6-48bd-84ec-2cdb016bb953","system_id":"levelo_inurba_marseille","lat":43.24385,"lon":5.37066,"is_reserved":false,"is_disabled":true,"rental_uris":{"android":"levelo://app?vid=0c21866d-64a6-48bd-84ec-2cdb016bb953","ios":"levelo://app?vid=0c21866d-64a6-48bd-84ec-2cdb016bb953"},"vehicle_type_id":"4","last_reported":1732029009,"current_range_meters":0,"station_id":"ce4bhhh2rcd13ifvqfk0","pricing_plan_id":"cebpf4jnsgd1na2vs0mg"},{"bike_id":"9b4d52a8-a22b-418c-a556-65afaca3a235","system_id":"levelo_inurba_marseille","lat":43.337444,"lon":5.374475,"is_reserved":false,"is_disabled":false,"rental_uris":{"android":"levelo://app?vid=9b4d52a8-a22b-418c-a556-65afaca3a235","ios":"levelo://app?vid=9b4d52a8-a22b-418c-a556-65afaca3a235"},"vehicle_type_id":"4","last_reported":1732029009,"current_range_meters":23200,"station_id":"","pricing_plan_id":"cebpf4jnsgd1na2vs0mg"},{"bike_id":"0f3ece26-4a8b-42e2-bf99-8ffb37ae1603","system_id":"levelo_inurba_marseille","lat":43.3009,"lon":5.39095,"is_reserved":false,"is_disabled":false,"rental_uris":{"android":"levelo://app?vid=0f3ece26-4a8b-42e2-bf99-8ffb37ae1603","ios":"levelo://app?vid=0f3ece26-4a8b-42e2-bf99-8ffb37ae1603"},"vehicle_type_id":"4","last_reported":1732029009,"current_range_meters":38800,"station_id":"ce4bh192rcd13ifvqdb0","pricing_plan_id":"cebpf4jnsgd1na2vs0mg"},{"bike_id":"7c048259-3d75-46eb-81aa-57dbdc1c4651","system_id":"levelo_inurba_marseille","lat":43.29181,"lon":5.3714,"is_reserved":false,"is_disabled":false,"rental_uris":{"android":"levelo://app?vid=7c048259-3d75-46eb-81aa-57dbdc1c4651","ios":"levelo://app?vid=7c048259-3d75-46eb-81aa-57dbdc1c4651"},"vehicle_type_id":"4","last_reported":1732029009,"current_range_meters":26000,"station_id":"ce4bha92rcd13ifvqeh0","pricing_plan_id":"cebpf4jnsgd1na2vs0mg"},{"bike_id":"d6e54eb8-b569-4670-b12b-fc7e345ccec9","system_id":"levelo_inurba_marseille","lat":43.29729,"lon":5.37689,"is_reserved":false,"is_disabled":false,"rental_uris":{"android":"levelo://app?vid=d6e54eb8-b569-4670-b12b-fc7e345ccec9","ios":"levelo://app?vid=d6e54eb8-b569-4670-b12b-fc7e345ccec9"},"vehicle_type_id":"4","last_reported":1732029009,"current_range_meters":36800,"station_id":"ce4bgkh2rcd13ifvqbl0","pricing_plan_id":"cebpf4jnsgd1na2vs0mg"},{"bike_id":"22a30351-e298-462d-b053-d4f3e5a0aa06","system_id":"levelo_inurba_marseille","lat":43.26783,"lon":5.39417,"is_reserved":false,"is_disabled":false,"rental_uris":{"android":"levelo://app?vid=22a30351-e298-462d-b053-d4f3e5a0aa06","ios":"levelo://app?vid=22a30351-e298-462d-b053-d4f3e5a0aa06"},"vehicle_type_id":"4","last_reported":1732029009,"current_range_meters":20800,"station_id":"ce4bhh12rcd13ifvqfg0","pricing_plan_id":"cebpf4jnsgd1na2vs0mg"},{"bike_id":"3b0c545d-4cf2-4e15-900f-03b6156ee277","system_id":"levelo_inurba_marseille","lat":43.30489,"lon":5.36976,"is_reserved":false,"is_disabled":false,"rental_uris":{"android":"levelo://app?vid=3b0c545d-4cf2-4e15-900f-03b6156ee277","ios":"levelo://app?vid=3b0c545d-4cf2-4e15-900f-03b6156ee277"},"vehicle_type_id":"4","last_reported":1732029009,"current_range_meters":20400,"station_id":"","pricing_plan_id":"cebpf4jnsgd1na2vs0mg"},{"bike_id":"fb93105b-c526-4283-a079-1ca5dd5c36e0","system_id":"levelo_inurba_marseille","lat":43.27678,"lon":5.38889,"is_reserved":false,"is_disabled":false,"rental_uris":{"android":"levelo://app?vid=fb93105b-c526-4283-a079-1ca5dd5c36e0","ios":"levelo://app?vid=fb93105b-c526-4283-a079-1ca5dd5c36e0"},"vehicle_type_id":"4","last_reported":1732029009,"current_range_meters":38400,"station_id":"ce4bhi12rcd13ifvqfo0","pricing_plan_id":"cebpf4jnsgd1na2vs0mg"},{"bike_id":"50b63a49-d3ba-4a2c-9238-ff0c990217f5","system_id":"levelo_inurba_marseille","lat":43.28713,"lon":5.37944,"is_reserved":false,"is_disabled":false,"rental_uris":{"android":"levelo://app?vid=50b63a49-d3ba-4a2c-9238-ff0c990217f5","ios":"levelo://app?vid=50b63a49-d3ba-4a2c-9238-ff0c990217f5"},"vehicle_type_id":"4","last_reported":1732029009,"current_range_meters":32800,"station_id":"ce4bh9p2rcd13ifvqec0","pricing_plan_id":"cebpf4jnsgd1na2vs0mg"},{"bike_id":"6ce0c70e-1309-4207-a5bb-ecce2e972b5e","system_id":"levelo_inurba_marseille","lat":43.33766,"lon":5.37453,"is_reserved":false,"is_disabled":false,"rental_uris":{"android":"levelo://app?vid=6ce0c70e-1309-4207-a5bb-ecce2e972b5e","ios":"levelo://app?vid=6ce0c70e-1309-4207-a5bb-ecce2e972b5e"},"vehicle_type_id":"4","last_reported":1732029009,"current_range_meters":38400,"station_id":"","pricing_plan_id":"cebpf4jnsgd1na2vs0mg"},{"bike_id":"1462f68e-113f-431d-9d5b-f4d7f987f2b8","system_id":"levelo_inurba_marseille","lat":43.28474,"lon":5.38438,"is_reserved":false,"is_disabled":true,"rental_uris":{"android":"levelo://app?vid=1462f68e-113f-431d-9d5b-f4d7f987f2b8","ios":"levelo://app?vid=1462f68e-113f-431d-9d5b-f4d7f987f2b8"},"vehicle_type_id":"4","last_reported":1732029009,"current_range_meters":14400,"station_id":"ce4bh512rcd13ifvqe3g","pricing_plan_id":"cebpf4jnsgd1na2vs0mg"},{"bike_id":"92265e91-c501-4b60-9c87-ba6c845ad6b3","system_id":"levelo_inurba_marseille","lat":43.23147,"lon":5.43716,"is_reserved":false,"is_disabled":false,"rental_uris":{"android":"levelo://app?vid=92265e91-c501-4b60-9c87-ba6c845ad6b3","ios":"levelo://app?vid=92265e91-c501-4b60-9c87-ba6c845ad6b3"},"vehicle_type_id":"4","last_reported":1732029009,"current_range_meters":3200,"station_id":"ce4bhmp2rcd13ifvqgog","pricing_plan_id":"cebpf4jnsgd1na2vs0mg"},{"bike_id":"0b733133-03c9-4766-961e-92b775b50bbc","system_id":"levelo_inurba_marseille","lat":43.28193,"lon":5.44272,"is_reserved":false,"is_disabled":true,"rental_uris":{"android":"levelo://app?vid=0b733133-03c9-4766-961e-92b775b50bbc","ios":"levelo://app?vid=0b733133-03c9-4766-961e-92b775b50bbc"},"vehicle_type_id":"4","last_reported":1732029009,"current_range_meters":0,"station_id":"","pricing_plan_id":"cebpf4jnsgd1na2vs0mg"},{"bike_id":"87f72484-0dd8-4a5a-8b7f-bb079e67d618","system_id":"levelo_inurba_marseille","lat":43.29586,"lon":5.3675,"is_reserved":false,"is_disabled":false,"rental_uris":{"android":"levelo://app?vid=87f72484-0dd8-4a5a-8b7f-bb079e67d618","ios":"levelo://app?vid=87f72484-0dd8-4a5a-8b7f-bb079e67d618"},"vehicle_type_id":"4","last_reported":1732029009,"current_range_meters":35200,"station_id":"ce4bgph2rcd13ifvqc2g","pricing_plan_id":"cebpf4jnsgd1na2vs0mg"},{"bike_id":"7d02f161-c4ab-430d-be6a-e052ba68aacf","system_id":"levelo_inurba_marseille","lat":43.30955,"lon":5.39028,"is_reserved":false,"is_disabled":true,"rental_uris":{"android":"levelo://app?vid=7d02f161-c4ab-430d-be6a-e052ba68aacf","ios":"levelo://app?vid=7d02f161-c4ab-430d-be6a-e052ba68aacf"},"vehicle_type_id":"4","last_reported":1732029009,"current_range_meters":10800,"station_id":"ce4bgup2rcd13ifvqco0","pricing_plan_id":"cebpf4jnsgd1na2vs0mg"},{"bike_id":"d0dcea00-461d-4821-ae03-aa277fb435e6","system_id":"levelo_inurba_marseille","lat":43.29034,"lon":5.38125,"is_reserved":false,"is_disabled":false,"rental_uris":{"android":"levelo://app?vid=d0dcea00-461d-4821-ae03-aa277fb435e6","ios":"levelo://app?vid=d0dcea00-461d-4821-ae03-aa277fb435e6"},"vehicle_type_id":"4","last_reported":1732029009,"current_range_meters":38000,"station_id":"ce4bh4p2rcd13ifvqe1g","pricing_plan_id":"cebpf4jnsgd1na2vs0mg"},{"bike_id":"e65461e3-d425-4dee-a20c-933c7023442e","system_id":"levelo_inurba_marseille","lat":43.30253,"lon":5.40081,"is_reserved":false,"is_disabled":true,"rental_uris":{"android":"levelo://app?vid=e65461e3-d425-4dee-a20c-933c7023442e","ios":"levelo://app?vid=e65461e3-d425-4dee-a20c-933c7023442e"},"vehicle_type_id":"4","last_reported":1732029009,"current_range_meters":38000,"station_id":"ce4bgvh2rcd13ifvqcs0","pricing_plan_id":"cebpf4jnsgd1na2vs0mg"},{"bike_id":"496e1ad3-a676-4981-be61-dc1dfd5fe9ee","system_id":"levelo_inurba_marseille","lat":43.28156,"lon":5.42639,"is_reserved":false,"is_disabled":false,"rental_uris":{"android":"levelo://app?vid=496e1ad3-a676-4981-be61-dc1dfd5fe9ee","ios":"levelo://app?vid=496e1ad3-a676-4981-be61-dc1dfd5fe9ee"},"vehicle_type_id":"4","last_reported":1732029009,"current_range_meters":4400,"station_id":"ce4bhnh2rcd13ifvqgug","pricing_plan_id":"cebpf4jnsgd1na2vs0mg"},{"bike_id":"7732a2f0-6d08-4371-8cdb-c3da37c32aea","system_id":"levelo_inurba_marseille","lat":43.2767,"lon":5.38885,"is_reserved":false,"is_disabled":false,"rental_uris":{"android":"levelo://app?vid=7732a2f0-6d08-4371-8cdb-c3da37c32aea","ios":"levelo://app?vid=7732a2f0-6d08-4371-8cdb-c3da37c32aea"},"vehicle_type_id":"4","last_reported":1732029009,"current_range_meters":38400,"station_id":"ce4bhi12rcd13ifvqfo0","pricing_plan_id":"cebpf4jnsgd1na2vs0mg"},{"bike_id":"8632ca3c-32d7-4c27-b845-d08c678d0faf","system_id":"levelo_inurba_marseille","lat":43.30306,"lon":5.369,"is_reserved":false,"is_disabled":false,"rental_uris":{"android":"levelo://app?vid=8632ca3c-32d7-4c27-b845-d08c678d0faf","ios":"levelo://app?vid=8632ca3c-32d7-4c27-b845-d08c678d0faf"},"vehicle_type_id":"4","last_reported":1732029009,"current_range_meters":21600,"station_id":"ce4bgqh2rcd13ifvqc5g","pricing_plan_id":"cebpf4jnsgd1na2vs0mg"},{"bike_id":"bf616fda-0885-4bcf-8258-bc47aa3041a1","system_id":"levelo_inurba_marseille","lat":43.32485,"lon":5.36575,"is_reserved":false,"is_disabled":false,"rental_uris":{"android":"levelo://app?vid=bf616fda-0885-4bcf-8258-bc47aa3041a1","ios":"levelo://app?vid=bf616fda-0885-4bcf-8258-bc47aa3041a1"},"vehicle_type_id":"4","last_reported":1732029009,"current_range_meters":38800,"station_id":"ce4bhs12rcd13ifvqhvg","pricing_plan_id":"cebpf4jnsgd1na2vs0mg"},{"bike_id":"6054ceaa-05c3-4c9a-8aee-2a049f0c951b","system_id":"levelo_inurba_marseille","lat":43.30923,"lon":5.40145,"is_reserved":false,"is_disabled":false,"rental_uris":{"android":"levelo://app?vid=6054ceaa-05c3-4c9a-8aee-2a049f0c951b","ios":"levelo://app?vid=6054ceaa-05c3-4c9a-8aee-2a049f0c951b"},"vehicle_type_id":"4","last_reported":1732029009,"current_range_meters":17200,"station_id":"ce4bgvp2rcd13ifvqct0","pricing_plan_id":"cebpf4jnsgd1na2vs0mg"},{"bike_id":"89379fa8-228f-484a-9998-5c6ca866613d","system_id":"levelo_inurba_marseille","lat":43.3054,"lon":5.36554,"is_reserved":false,"is_disabled":false,"rental_uris":{"android":"levelo://app?vid=89379fa8-228f-484a-9998-5c6ca866613d","ios":"levelo://app?vid=89379fa8-228f-484a-9998-5c6ca866613d"},"vehicle_type_id":"4","last_reported":1732029009,"current_range_meters":27600,"station_id":"ce4bgs12rcd13ifvqcag","pricing_plan_id":"cebpf4jnsgd1na2vs0mg"},{"bike_id":"20d43469-0b35-4110-9c40-be0f1a781705","system_id":"levelo_inurba_marseille","lat":43.26208,"lon":5.37449,"is_reserved":false,"is_disabled":false,"rental_uris":{"android":"levelo://app?vid=20d43469-0b35-4110-9c40-be0f1a781705","ios":"levelo://app?vid=20d43469-0b35-4110-9c40-be0f1a781705"},"vehicle_type_id":"4","last_reported":1732029009,"current_range_meters":27200,"station_id":"ce4bhgp2rcd13ifvqfc0","pricing_plan_id":"cebpf4jnsgd1na2vs0mg"},{"bike_id":"cd600d2b-7cc6-47e2-8667-4034a3acdd71","system_id":"levelo_inurba_marseille","lat":43.27059,"lon":5.40261,"is_reserved":false,"is_disabled":false,"rental_uris":{"android":"levelo://app?vid=cd600d2b-7cc6-47e2-8667-4034a3acdd71","ios":"levelo://app?vid=cd600d2b-7cc6-47e2-8667-4034a3acdd71"},"vehicle_type_id":"4","last_reported":1732029009,"current_range_meters":19600,"station_id":"ce4bhk92rcd13ifvqgc0","pricing_plan_id":"cebpf4jnsgd1na2vs0mg"},{"bike_id":"c85281b3-be96-4cbf-94ce-60988d7323fa","system_id":"levelo_inurba_marseille","lat":43.29734,"lon":5.37696,"is_reserved":false,"is_disabled":false,"rental_uris":{"android":"levelo://app?vid=c85281b3-be96-4cbf-94ce-60988d7323fa","ios":"levelo://app?vid=c85281b3-be96-4cbf-94ce-60988d7323fa"},"vehicle_type_id":"4","last_reported":1732029009,"current_range_meters":6400,"station_id":"ce4bgkh2rcd13ifvqbl0","pricing_plan_id":"cebpf4jnsgd1na2vs0mg"},{"bike_id":"8dfe3502-1a44-41d0-93ec-2f8847296f61","system_id":"levelo_inurba_marseille","lat":43.29194,"lon":5.35805,"is_reserved":false,"is_disabled":true,"rental_uris":{"android":"levelo://app?vid=8dfe3502-1a44-41d0-93ec-2f8847296f61","ios":"levelo://app?vid=8dfe3502-1a44-41d0-93ec-2f8847296f61"},"vehicle_type_id":"4","last_reported":1732029009,"current_range_meters":38800,"station_id":"ce4bhb12rcd13ifvqel0","pricing_plan_id":"cebpf4jnsgd1na2vs0mg"},{"bike_id":"954054ad-77ac-46c3-a1b5-c8fc266a522b","system_id":"levelo_inurba_marseille","lat":43.31719,"lon":5.42407,"is_reserved":false,"is_disabled":false,"rental_uris":{"android":"levelo://app?vid=954054ad-77ac-46c3-a1b5-c8fc266a522b","ios":"levelo://app?vid=954054ad-77ac-46c3-a1b5-c8fc266a522b"},"vehicle_type_id":"4","last_reported":1732029009,"current_range_meters":39200,"station_id":"ce4bhp92rcd13ifvqhbg","pricing_plan_id":"cebpf4jnsgd1na2vs0mg"},{"bike_id":"5781e378-95cb-4745-bf16-678110ecaa4c","system_id":"levelo_inurba_marseille","lat":43.32482,"lon":5.36558,"is_reserved":false,"is_disabled":false,"rental_uris":{"android":"levelo://app?vid=5781e378-95cb-4745-bf16-678110ecaa4c","ios":"levelo://app?vid=5781e378-95cb-4745-bf16-678110ecaa4c"},"vehicle_type_id":"4","last_reported":1732029009,"current_range_meters":27600,"station_id":"ce4bhs12rcd13ifvqhvg","pricing_plan_id":"cebpf4jnsgd1na2vs0mg"},{"bike_id":"a068dc40-1862-43fc-975c-c8329fcb1c80","system_id":"levelo_inurba_marseille","lat":43.27311,"lon":5.39108,"is_reserved":false,"is_disabled":true,"rental_uris":{"android":"levelo://app?vid=a068dc40-1862-43fc-975c-c8329fcb1c80","ios":"levelo://app?vid=a068dc40-1862-43fc-975c-c8329fcb1c80"},"vehicle_type_id":"4","last_reported":1732029009,"current_range_meters":1200,"station_id":"ce4bhgp2rcd13ifvqfe0","pricing_plan_id":"cebpf4jnsgd1na2vs0mg"},{"bike_id":"9c4a655e-2680-4a60-a844-6a2ea62fb4b1","system_id":"levelo_inurba_marseille","lat":43.26063,"lon":5.3939,"is_reserved":false,"is_disabled":true,"rental_uris":{"android":"levelo://app?vid=9c4a655e-2680-4a60-a844-6a2ea62fb4b1","ios":"levelo://app?vid=9c4a655e-2680-4a60-a844-6a2ea62fb4b1"},"vehicle_type_id":"4","last_reported":1732029009,"current_range_meters":28400,"station_id":"ce4bhh92rcd13ifvqfj0","pricing_plan_id":"cebpf4jnsgd1na2vs0mg"},{"bike_id":"2d983866-913c-4390-ae48-1873d10c9730","system_id":"levelo_inurba_marseille","lat":43.24813,"lon":5.37458,"is_reserved":false,"is_disabled":true,"rental_uris":{"android":"levelo://app?vid=2d983866-913c-4390-ae48-1873d10c9730","ios":"levelo://app?vid=2d983866-913c-4390-ae48-1873d10c9730"},"vehicle_type_id":"4","last_reported":1732029009,"current_range_meters":15200,"station_id":"ce4bhgh2rcd13ifvqfb0","pricing_plan_id":"cebpf4jnsgd1na2vs0mg"},{"bike_id":"8fd18ae9-aed3-411f-9c2d-95d6ae12c81e","system_id":"levelo_inurba_marseille","lat":43.29579,"lon":5.37507,"is_reserved":false,"is_disabled":false,"rental_uris":{"android":"levelo://app?vid=8fd18ae9-aed3-411f-9c2d-95d6ae12c81e","ios":"levelo://app?vid=8fd18ae9-aed3-411f-9c2d-95d6ae12c81e"},"vehicle_type_id":"4","last_reported":1732029009,"current_range_meters":36800,"station_id":"ce4bgh92rcd13ifvqb50","pricing_plan_id":"cebpf4jnsgd1na2vs0mg"},{"bike_id":"e5e16f44-b3f1-4c9e-8131-bdcd4f77e97e","system_id":"levelo_inurba_marseille","lat":43.28566,"lon":5.3951,"is_reserved":false,"is_disabled":false,"rental_uris":{"android":"levelo://app?vid=e5e16f44-b3f1-4c9e-8131-bdcd4f77e97e","ios":"levelo://app?vid=e5e16f44-b3f1-4c9e-8131-bdcd4f77e97e"},"vehicle_type_id":"4","last_reported":1732029009,"current_range_meters":30800,"station_id":"ce4bh292rcd13ifvqdg0","pricing_plan_id":"cebpf4jnsgd1na2vs0mg"},{"bike_id":"88196073-5d79-4eef-8b98-5b6c67eee457","system_id":"levelo_inurba_marseille","lat":43.31083,"lon":5.4243,"is_reserved":false,"is_disabled":true,"rental_uris":{"android":"levelo://app?vid=88196073-5d79-4eef-8b98-5b6c67eee457","ios":"levelo://app?vid=88196073-5d79-4eef-8b98-5b6c67eee457"},"vehicle_type_id":"4","last_reported":1732029009,"current_range_meters":16000,"station_id":"ce4bhp92rcd13ifvqhag","pricing_plan_id":"cebpf4jnsgd1na2vs0mg"},{"bike_id":"653baa63-efe1-4bd9-a5dc-ac2baa2ece89","system_id":"levelo_inurba_marseille","lat":43.30876,"lon":5.37196,"is_reserved":false,"is_disabled":true,"rental_uris":{"android":"levelo://app?vid=653baa63-efe1-4bd9-a5dc-ac2baa2ece89","ios":"levelo://app?vid=653baa63-efe1-4bd9-a5dc-ac2baa2ece89"},"vehicle_type_id":"4","last_reported":1732029009,"current_range_meters":800,"station_id":"ce4bguh2rcd13ifvqckg","pricing_plan_id":"cebpf4jnsgd1na2vs0mg"},{"bike_id":"e5ac7d62-1000-40b9-939a-55fe4802d712","system_id":"levelo_inurba_marseille","lat":43.32366,"lon":5.38886,"is_reserved":false,"is_disabled":false,"rental_uris":{"android":"levelo://app?vid=e5ac7d62-1000-40b9-939a-55fe4802d712","ios":"levelo://app?vid=e5ac7d62-1000-40b9-939a-55fe4802d712"},"vehicle_type_id":"4","last_reported":1732029009,"current_range_meters":24000,"station_id":"ce4bhqp2rcd13ifvqhog","pricing_plan_id":"cebpf4jnsgd1na2vs0mg"},{"bike_id":"4430c7fe-75c4-4750-ade5-2860cae79f17","system_id":"levelo_inurba_marseille","lat":43.23157,"lon":5.43705,"is_reserved":false,"is_disabled":false,"rental_uris":{"android":"levelo://app?vid=4430c7fe-75c4-4750-ade5-2860cae79f17","ios":"levelo://app?vid=4430c7fe-75c4-4750-ade5-2860cae79f17"},"vehicle_type_id":"4","last_reported":1732029009,"current_range_meters":38800,"station_id":"ce4bhmp2rcd13ifvqgog","pricing_plan_id":"cebpf4jnsgd1na2vs0mg"},{"bike_id":"889f5e40-5e45-4c43-b224-093ba9df375d","system_id":"levelo_inurba_marseille","lat":43.29855,"lon":5.38132,"is_reserved":false,"is_disabled":false,"rental_uris":{"android":"levelo://app?vid=889f5e40-5e45-4c43-b224-093ba9df375d","ios":"levelo://app?vid=889f5e40-5e45-4c43-b224-093ba9df375d"},"vehicle_type_id":"4","last_reported":1732029009,"current_range_meters":6400,"station_id":"","pricing_plan_id":"cebpf4jnsgd1na2vs0mg"},{"bike_id":"e264033a-f915-4b27-a08a-2f42cfcf052a","system_id":"levelo_inurba_marseille","lat":43.33785,"lon":5.37426,"is_reserved":false,"is_disabled":false,"rental_uris":{"android":"levelo://app?vid=e264033a-f915-4b27-a08a-2f42cfcf052a","ios":"levelo://app?vid=e264033a-f915-4b27-a08a-2f42cfcf052a"},"vehicle_type_id":"4","last_reported":1732029009,"current_range_meters":31200,"station_id":"","pricing_plan_id":"cebpf4jnsgd1na2vs0mg"},{"bike_id":"affc6a42-c87f-4640-9297-4a4ea6bc3ad3","system_id":"levelo_inurba_marseille","lat":43.29557,"lon":5.42288,"is_reserved":false,"is_disabled":false,"rental_uris":{"android":"levelo://app?vid=affc6a42-c87f-4640-9297-4a4ea6bc3ad3","ios":"levelo://app?vid=affc6a42-c87f-4640-9297-4a4ea6bc3ad3"},"vehicle_type_id":"4","last_reported":1732029009,"current_range_meters":39200,"station_id":"ce4bhph2rcd13ifvqhdg","pricing_plan_id":"cebpf4jnsgd1na2vs0mg"},{"bike_id":"ff9aa95b-001f-424e-adeb-5e5203f499bc","system_id":"levelo_inurba_marseille","lat":43.29808,"lon":5.38105,"is_reserved":false,"is_disabled":false,"rental_uris":{"android":"levelo://app?vid=ff9aa95b-001f-424e-adeb-5e5203f499bc","ios":"levelo://app?vid=ff9aa95b-001f-424e-adeb-5e5203f499bc"},"vehicle_type_id":"4","last_reported":1732029009,"current_range_meters":18000,"station_id":"ce4bgip2rcd13ifvqbb0","pricing_plan_id":"cebpf4jnsgd1na2vs0mg"},{"bike_id":"e3340ae6-dc2a-4b66-bdeb-841501ccc4a3","system_id":"levelo_inurba_marseille","lat":43.3009,"lon":5.39075,"is_reserved":false,"is_disabled":false,"rental_uris":{"android":"levelo://app?vid=e3340ae6-dc2a-4b66-bdeb-841501ccc4a3","ios":"levelo://app?vid=e3340ae6-dc2a-4b66-bdeb-841501ccc4a3"},"vehicle_type_id":"4","last_reported":1732029009,"current_range_meters":38800,"station_id":"ce4bh192rcd13ifvqdb0","pricing_plan_id":"cebpf4jnsgd1na2vs0mg"},{"bike_id":"118619b4-9a02-4081-be66-00f72c211c19","system_id":"levelo_inurba_marseille","lat":43.27666,"lon":5.3887,"is_reserved":false,"is_disabled":false,"rental_uris":{"android":"levelo://app?vid=118619b4-9a02-4081-be66-00f72c211c19","ios":"levelo://app?vid=118619b4-9a02-4081-be66-00f72c211c19"},"vehicle_type_id":"4","last_reported":1732029009,"current_range_meters":38800,"station_id":"ce4bhi12rcd13ifvqfo0","pricing_plan_id":"cebpf4jnsgd1na2vs0mg"},{"bike_id":"123862ba-68e2-48f6-a477-31ab9dae8bd5","system_id":"levelo_inurba_marseille","lat":43.337444,"lon":5.374475,"is_reserved":false,"is_disabled":true,"rental_uris":{"android":"levelo://app?vid=123862ba-68e2-48f6-a477-31ab9dae8bd5","ios":"levelo://app?vid=123862ba-68e2-48f6-a477-31ab9dae8bd5"},"vehicle_type_id":"4","last_reported":1732029009,"current_range_meters":15200,"station_id":"","pricing_plan_id":"cebpf4jnsgd1na2vs0mg"},{"bike_id":"085f25a4-e773-4e90-81ed-19b8119297ef","system_id":"levelo_inurba_marseille","lat":43.29609,"lon":5.38106,"is_reserved":false,"is_disabled":false,"rental_uris":{"android":"levelo://app?vid=085f25a4-e773-4e90-81ed-19b8119297ef","ios":"levelo://app?vid=085f25a4-e773-4e90-81ed-19b8119297ef"},"vehicle_type_id":"4","last_reported":1732029009,"current_range_meters":38000,"station_id":"ce4bgl12rcd13ifvqbo0","pricing_plan_id":"cebpf4jnsgd1na2vs0mg"},{"bike_id":"3c880f4e-66d1-48ae-bc71-5a418335d036","system_id":"levelo_inurba_marseille","lat":43.2955,"lon":5.42286,"is_reserved":false,"is_disabled":false,"rental_uris":{"android":"levelo://app?vid=3c880f4e-66d1-48ae-bc71-5a418335d036","ios":"levelo://app?vid=3c880f4e-66d1-48ae-bc71-5a418335d036"},"vehicle_type_id":"4","last_reported":1732029009,"current_range_meters":38800,"station_id":"ce4bhph2rcd13ifvqhdg","pricing_plan_id":"cebpf4jnsgd1na2vs0mg"},{"bike_id":"83b4690b-9706-4a24-acf5-129b822d4290","system_id":"levelo_inurba_marseille","lat":43.26562,"lon":5.39004,"is_reserved":false,"is_disabled":false,"rental_uris":{"android":"levelo://app?vid=83b4690b-9706-4a24-acf5-129b822d4290","ios":"levelo://app?vid=83b4690b-9706-4a24-acf5-129b822d4290"},"vehicle_type_id":"4","last_reported":1732029009,"current_range_meters":8400,"station_id":"ce4bhe12rcd13ifvqf30","pricing_plan_id":"cebpf4jnsgd1na2vs0mg"},{"bike_id":"c0414705-628e-4ecb-a390-6a6747dfe975","system_id":"levelo_inurba_marseille","lat":43.30477,"lon":5.36796,"is_reserved":false,"is_disabled":false,"rental_uris":{"android":"levelo://app?vid=c0414705-628e-4ecb-a390-6a6747dfe975","ios":"levelo://app?vid=c0414705-628e-4ecb-a390-6a6747dfe975"},"vehicle_type_id":"4","last_reported":1732029009,"current_range_meters":36000,"station_id":"","pricing_plan_id":"cebpf4jnsgd1na2vs0mg"},{"bike_id":"70195512-f54a-4c5e-b04e-d42f4bfebcd9","system_id":"levelo_inurba_marseille","lat":43.29279,"lon":5.40133,"is_reserved":false,"is_disabled":false,"rental_uris":{"android":"levelo://app?vid=70195512-f54a-4c5e-b04e-d42f4bfebcd9","ios":"levelo://app?vid=70195512-f54a-4c5e-b04e-d42f4bfebcd9"},"vehicle_type_id":"4","last_reported":1732029009,"current_range_meters":24400,"station_id":"ce4bh312rcd13ifvqdk0","pricing_plan_id":"cebpf4jnsgd1na2vs0mg"},{"bike_id":"82b0d54c-2a7f-4f37-8989-121c374f3bd7","system_id":"levelo_inurba_marseille","lat":43.29903,"lon":5.38144,"is_reserved":false,"is_disabled":false,"rental_uris":{"android":"levelo://app?vid=82b0d54c-2a7f-4f37-8989-121c374f3bd7","ios":"levelo://app?vid=82b0d54c-2a7f-4f37-8989-121c374f3bd7"},"vehicle_type_id":"4","last_reported":1732029009,"current_range_meters":38000,"station_id":"ce4bgj12rcd13ifvqbc0","pricing_plan_id":"cebpf4jnsgd1na2vs0mg"},{"bike_id":"c3789893-8480-4a62-a70a-e4492aa60a95","system_id":"levelo_inurba_marseille","lat":43.24387,"lon":5.37064,"is_reserved":false,"is_disabled":false,"rental_uris":{"android":"levelo://app?vid=c3789893-8480-4a62-a70a-e4492aa60a95","ios":"levelo://app?vid=c3789893-8480-4a62-a70a-e4492aa60a95"},"vehicle_type_id":"4","last_reported":1732029009,"current_range_meters":12800,"station_id":"ce4bhhh2rcd13ifvqfk0","pricing_plan_id":"cebpf4jnsgd1na2vs0mg"},{"bike_id":"a476e1bf-d8f7-4151-a53e-c56634e1f58a","system_id":"levelo_inurba_marseille","lat":43.31083,"lon":5.4243,"is_reserved":false,"is_disabled":false,"rental_uris":{"android":"levelo://app?vid=a476e1bf-d8f7-4151-a53e-c56634e1f58a","ios":"levelo://app?vid=a476e1bf-d8f7-4151-a53e-c56634e1f58a"},"vehicle_type_id":"4","last_reported":1732029009,"current_range_meters":16400,"station_id":"ce4bhp92rcd13ifvqhag","pricing_plan_id":"cebpf4jnsgd1na2vs0mg"},{"bike_id":"efaa20f7-d2fb-4778-9ca3-b17e9193d440","system_id":"levelo_inurba_marseille","lat":43.337207,"lon":5.391736,"is_reserved":false,"is_disabled":false,"rental_uris":{"android":"levelo://app?vid=efaa20f7-d2fb-4778-9ca3-b17e9193d440","ios":"levelo://app?vid=efaa20f7-d2fb-4778-9ca3-b17e9193d440"},"vehicle_type_id":"4","last_reported":1732029009,"current_range_meters":38000,"station_id":"ce4bhr92rcd13ifvqhsg","pricing_plan_id":"cebpf4jnsgd1na2vs0mg"},{"bike_id":"195cc99e-1f5f-4b00-afbb-24213c216a0b","system_id":"levelo_inurba_marseille","lat":43.30675,"lon":5.39965,"is_reserved":false,"is_disabled":false,"rental_uris":{"android":"levelo://app?vid=195cc99e-1f5f-4b00-afbb-24213c216a0b","ios":"levelo://app?vid=195cc99e-1f5f-4b00-afbb-24213c216a0b"},"vehicle_type_id":"4","last_reported":1732029009,"current_range_meters":22000,"station_id":"","pricing_plan_id":"cebpf4jnsgd1na2vs0mg"},{"bike_id":"d5d93423-8b59-49ff-a38f-f9112bad0624","system_id":"levelo_inurba_marseille","lat":43.23153,"lon":5.43707,"is_reserved":false,"is_disabled":true,"rental_uris":{"android":"levelo://app?vid=d5d93423-8b59-49ff-a38f-f9112bad0624","ios":"levelo://app?vid=d5d93423-8b59-49ff-a38f-f9112bad0624"},"vehicle_type_id":"4","last_reported":1732029009,"current_range_meters":18000,"station_id":"ce4bhmp2rcd13ifvqgog","pricing_plan_id":"cebpf4jnsgd1na2vs0mg"},{"bike_id":"e2f6a0a8-eb6e-492e-a17f-6bde58b9d768","system_id":"levelo_inurba_marseille","lat":43.29849,"lon":5.36276,"is_reserved":false,"is_disabled":false,"rental_uris":{"android":"levelo://app?vid=e2f6a0a8-eb6e-492e-a17f-6bde58b9d768","ios":"levelo://app?vid=e2f6a0a8-eb6e-492e-a17f-6bde58b9d768"},"vehicle_type_id":"4","last_reported":1732029009,"current_range_meters":36400,"station_id":"ce4bgpp2rcd13ifvqc3g","pricing_plan_id":"cebpf4jnsgd1na2vs0mg"},{"bike_id":"bdf773a7-015c-4bf3-8c5a-59e3dcdff924","system_id":"levelo_inurba_marseille","lat":43.25495,"lon":5.37646,"is_reserved":false,"is_disabled":false,"rental_uris":{"android":"levelo://app?vid=bdf773a7-015c-4bf3-8c5a-59e3dcdff924","ios":"levelo://app?vid=bdf773a7-015c-4bf3-8c5a-59e3dcdff924"},"vehicle_type_id":"4","last_reported":1732029009,"current_range_meters":34000,"station_id":"ce4bhh12rcd13ifvqff0","pricing_plan_id":"cebpf4jnsgd1na2vs0mg"},{"bike_id":"fbf50743-a751-4d22-8d7f-9047b9d72787","system_id":"levelo_inurba_marseille","lat":43.33333,"lon":5.41878,"is_reserved":false,"is_disabled":false,"rental_uris":{"android":"levelo://app?vid=fbf50743-a751-4d22-8d7f-9047b9d72787","ios":"levelo://app?vid=fbf50743-a751-4d22-8d7f-9047b9d72787"},"vehicle_type_id":"4","last_reported":1732029009,"current_range_meters":27200,"station_id":"","pricing_plan_id":"cebpf4jnsgd1na2vs0mg"},{"bike_id":"b0bde7d4-19cb-4f3b-8af7-3880cfc6f0a1","system_id":"levelo_inurba_marseille","lat":43.29418,"lon":5.38619,"is_reserved":false,"is_disabled":false,"rental_uris":{"android":"levelo://app?vid=b0bde7d4-19cb-4f3b-8af7-3880cfc6f0a1","ios":"levelo://app?vid=b0bde7d4-19cb-4f3b-8af7-3880cfc6f0a1"},"vehicle_type_id":"4","last_reported":1732029009,"current_range_meters":16400,"station_id":"ce4bh2h2rcd13ifvqdh0","pricing_plan_id":"cebpf4jnsgd1na2vs0mg"},{"bike_id":"56af11bc-cc37-43d6-99b5-a146ef7aeedc","system_id":"levelo_inurba_marseille","lat":43.29714,"lon":5.36611,"is_reserved":false,"is_disabled":false,"rental_uris":{"android":"levelo://app?vid=56af11bc-cc37-43d6-99b5-a146ef7aeedc","ios":"levelo://app?vid=56af11bc-cc37-43d6-99b5-a146ef7aeedc"},"vehicle_type_id":"4","last_reported":1732029009,"current_range_meters":37600,"station_id":"ce4bgn12rcd13ifvqbt0","pricing_plan_id":"cebpf4jnsgd1na2vs0mg"},{"bike_id":"64244a35-0b9b-492f-859d-fe3e7bc6b409","system_id":"levelo_inurba_marseille","lat":43.28498,"lon":5.38036,"is_reserved":false,"is_disabled":false,"rental_uris":{"android":"levelo://app?vid=64244a35-0b9b-492f-859d-fe3e7bc6b409","ios":"levelo://app?vid=64244a35-0b9b-492f-859d-fe3e7bc6b409"},"vehicle_type_id":"4","last_reported":1732029009,"current_range_meters":13600,"station_id":"ce4bh412rcd13ifvqdr0","pricing_plan_id":"cebpf4jnsgd1na2vs0mg"},{"bike_id":"ec22b1ce-615d-46c7-acb7-b1961aa0d0cf","system_id":"levelo_inurba_marseille","lat":43.31696,"lon":5.40478,"is_reserved":false,"is_disabled":false,"rental_uris":{"android":"levelo://app?vid=ec22b1ce-615d-46c7-acb7-b1961aa0d0cf","ios":"levelo://app?vid=ec22b1ce-615d-46c7-acb7-b1961aa0d0cf"},"vehicle_type_id":"4","last_reported":1732029009,"current_range_meters":37600,"station_id":"ce4bh012rcd13ifvqd00","pricing_plan_id":"cebpf4jnsgd1na2vs0mg"},{"bike_id":"1ea9d202-7235-44ff-a808-1a87a3b9cfc1","system_id":"levelo_inurba_marseille","lat":43.25575,"lon":5.3824,"is_reserved":false,"is_disabled":false,"rental_uris":{"android":"levelo://app?vid=1ea9d202-7235-44ff-a808-1a87a3b9cfc1","ios":"levelo://app?vid=1ea9d202-7235-44ff-a808-1a87a3b9cfc1"},"vehicle_type_id":"4","last_reported":1732029009,"current_range_meters":14800,"station_id":"ce4bhih2rcd13ifvqfs0","pricing_plan_id":"cebpf4jnsgd1na2vs0mg"},{"bike_id":"d0a8d1e0-8de9-4df8-bcae-ad9cbd74d90d","system_id":"levelo_inurba_marseille","lat":43.32368,"lon":5.38886,"is_reserved":false,"is_disabled":false,"rental_uris":{"android":"levelo://app?vid=d0a8d1e0-8de9-4df8-bcae-ad9cbd74d90d","ios":"levelo://app?vid=d0a8d1e0-8de9-4df8-bcae-ad9cbd74d90d"},"vehicle_type_id":"4","last_reported":1732029009,"current_range_meters":28800,"station_id":"ce4bhqp2rcd13ifvqhog","pricing_plan_id":"cebpf4jnsgd1na2vs0mg"},{"bike_id":"22c5d98b-691c-484d-93d0-076a8fc368cd","system_id":"levelo_inurba_marseille","lat":43.29662,"lon":5.37301,"is_reserved":false,"is_disabled":false,"rental_uris":{"android":"levelo://app?vid=22c5d98b-691c-484d-93d0-076a8fc368cd","ios":"levelo://app?vid=22c5d98b-691c-484d-93d0-076a8fc368cd"},"vehicle_type_id":"4","last_reported":1732029009,"current_range_meters":19200,"station_id":"ce4bgk12rcd13ifvqbj0","pricing_plan_id":"cebpf4jnsgd1na2vs0mg"},{"bike_id":"51e5c05e-a4d8-4a02-a2a4-a9252294ab86","system_id":"levelo_inurba_marseille","lat":43.25004,"lon":5.38926,"is_reserved":false,"is_disabled":false,"rental_uris":{"android":"levelo://app?vid=51e5c05e-a4d8-4a02-a2a4-a9252294ab86","ios":"levelo://app?vid=51e5c05e-a4d8-4a02-a2a4-a9252294ab86"},"vehicle_type_id":"4","last_reported":1732029009,"current_range_meters":16800,"station_id":"ce4bhgp2rcd13ifvqfd0","pricing_plan_id":"cebpf4jnsgd1na2vs0mg"},{"bike_id":"e724f48d-7831-4a53-bd1c-2ddf0f9a9faa","system_id":"levelo_inurba_marseille","lat":43.30312,"lon":5.36915,"is_reserved":false,"is_disabled":false,"rental_uris":{"android":"levelo://app?vid=e724f48d-7831-4a53-bd1c-2ddf0f9a9faa","ios":"levelo://app?vid=e724f48d-7831-4a53-bd1c-2ddf0f9a9faa"},"vehicle_type_id":"4","last_reported":1732029009,"current_range_meters":8000,"station_id":"ce4bgqh2rcd13ifvqc5g","pricing_plan_id":"cebpf4jnsgd1na2vs0mg"},{"bike_id":"29860f8d-356a-4715-b755-e109046695d2","system_id":"levelo_inurba_marseille","lat":43.25862,"lon":5.399,"is_reserved":false,"is_disabled":false,"rental_uris":{"android":"levelo://app?vid=29860f8d-356a-4715-b755-e109046695d2","ios":"levelo://app?vid=29860f8d-356a-4715-b755-e109046695d2"},"vehicle_type_id":"4","last_reported":1732029009,"current_range_meters":8000,"station_id":"ce4bhl92rcd13ifvqghg","pricing_plan_id":"cebpf4jnsgd1na2vs0mg"},{"bike_id":"d05460ac-afbf-42ec-9736-4b6eb3075013","system_id":"levelo_inurba_marseille","lat":43.29529,"lon":5.38556,"is_reserved":false,"is_disabled":false,"rental_uris":{"android":"levelo://app?vid=d05460ac-afbf-42ec-9736-4b6eb3075013","ios":"levelo://app?vid=d05460ac-afbf-42ec-9736-4b6eb3075013"},"vehicle_type_id":"4","last_reported":1732029009,"current_range_meters":28400,"station_id":"ce4bgih2rcd13ifvqba0","pricing_plan_id":"cebpf4jnsgd1na2vs0mg"},{"bike_id":"d2cd61e5-ddea-400d-806b-2d0378e6417b","system_id":"levelo_inurba_marseille","lat":43.30539,"lon":5.36547,"is_reserved":false,"is_disabled":false,"rental_uris":{"android":"levelo://app?vid=d2cd61e5-ddea-400d-806b-2d0378e6417b","ios":"levelo://app?vid=d2cd61e5-ddea-400d-806b-2d0378e6417b"},"vehicle_type_id":"4","last_reported":1732029009,"current_range_meters":8000,"station_id":"ce4bgs12rcd13ifvqcag","pricing_plan_id":"cebpf4jnsgd1na2vs0mg"},{"bike_id":"88ac81fd-2358-4e76-b2b1-a20fc0729da1","system_id":"levelo_inurba_marseille","lat":43.27843,"lon":5.39205,"is_reserved":false,"is_disabled":false,"rental_uris":{"android":"levelo://app?vid=88ac81fd-2358-4e76-b2b1-a20fc0729da1","ios":"levelo://app?vid=88ac81fd-2358-4e76-b2b1-a20fc0729da1"},"vehicle_type_id":"4","last_reported":1732029009,"current_range_meters":33200,"station_id":"ce4bhjp2rcd13ifvqga0","pricing_plan_id":"cebpf4jnsgd1na2vs0mg"},{"bike_id":"d6c4391c-900a-44eb-a566-a9f2adbba91f","system_id":"levelo_inurba_marseille","lat":43.26552,"lon":5.37292,"is_reserved":false,"is_disabled":false,"rental_uris":{"android":"levelo://app?vid=d6c4391c-900a-44eb-a566-a9f2adbba91f","ios":"levelo://app?vid=d6c4391c-900a-44eb-a566-a9f2adbba91f"},"vehicle_type_id":"4","last_reported":1732029009,"current_range_meters":7200,"station_id":"ce4bhg12rcd13ifvqf70","pricing_plan_id":"cebpf4jnsgd1na2vs0mg"},{"bike_id":"de014caf-6936-4e9f-b18f-b83f39679797","system_id":"levelo_inurba_marseille","lat":43.29285,"lon":5.40115,"is_reserved":false,"is_disabled":false,"rental_uris":{"android":"levelo://app?vid=de014caf-6936-4e9f-b18f-b83f39679797","ios":"levelo://app?vid=de014caf-6936-4e9f-b18f-b83f39679797"},"vehicle_type_id":"4","last_reported":1732029009,"current_range_meters":36000,"station_id":"ce4bh312rcd13ifvqdk0","pricing_plan_id":"cebpf4jnsgd1na2vs0mg"},{"bike_id":"0a5a60ac-404d-484a-b3c8-3f60e722bf85","system_id":"levelo_inurba_marseille","lat":43.28272,"lon":5.35073,"is_reserved":false,"is_disabled":false,"rental_uris":{"android":"levelo://app?vid=0a5a60ac-404d-484a-b3c8-3f60e722bf85","ios":"levelo://app?vid=0a5a60ac-404d-484a-b3c8-3f60e722bf85"},"vehicle_type_id":"4","last_reported":1732029009,"current_range_meters":24800,"station_id":"ce4bhbp2rcd13ifvqerg","pricing_plan_id":"cebpf4jnsgd1na2vs0mg"},{"bike_id":"2910f69a-6dac-4d69-a60d-e4f1b8cce200","system_id":"levelo_inurba_marseille","lat":43.27819,"lon":5.40724,"is_reserved":false,"is_disabled":true,"rental_uris":{"android":"levelo://app?vid=2910f69a-6dac-4d69-a60d-e4f1b8cce200","ios":"levelo://app?vid=2910f69a-6dac-4d69-a60d-e4f1b8cce200"},"vehicle_type_id":"4","last_reported":1732029009,"current_range_meters":19200,"station_id":"ce4bhnh2rcd13ifvqgtg","pricing_plan_id":"cebpf4jnsgd1na2vs0mg"},{"bike_id":"922eab31-d33e-48d9-9996-7751ce3403a5","system_id":"levelo_inurba_marseille","lat":43.31373,"lon":5.38496,"is_reserved":false,"is_disabled":false,"rental_uris":{"android":"levelo://app?vid=922eab31-d33e-48d9-9996-7751ce3403a5","ios":"levelo://app?vid=922eab31-d33e-48d9-9996-7751ce3403a5"},"vehicle_type_id":"4","last_reported":1732029009,"current_range_meters":38800,"station_id":"ce4bgt92rcd13ifvqcf0","pricing_plan_id":"cebpf4jnsgd1na2vs0mg"},{"bike_id":"13618e71-32eb-498d-b636-bf4b3269d0d2","system_id":"levelo_inurba_marseille","lat":43.28263,"lon":5.35064,"is_reserved":false,"is_disabled":false,"rental_uris":{"android":"levelo://app?vid=13618e71-32eb-498d-b636-bf4b3269d0d2","ios":"levelo://app?vid=13618e71-32eb-498d-b636-bf4b3269d0d2"},"vehicle_type_id":"4","last_reported":1732029009,"current_range_meters":28000,"station_id":"ce4bhbp2rcd13ifvqerg","pricing_plan_id":"cebpf4jnsgd1na2vs0mg"},{"bike_id":"6d8b7440-c1eb-4cb8-8928-d8d817a1a440","system_id":"levelo_inurba_marseille","lat":43.28478,"lon":5.38419,"is_reserved":false,"is_disabled":false,"rental_uris":{"android":"levelo://app?vid=6d8b7440-c1eb-4cb8-8928-d8d817a1a440","ios":"levelo://app?vid=6d8b7440-c1eb-4cb8-8928-d8d817a1a440"},"vehicle_type_id":"4","last_reported":1732029009,"current_range_meters":6400,"station_id":"ce4bh512rcd13ifvqe3g","pricing_plan_id":"cebpf4jnsgd1na2vs0mg"},{"bike_id":"4b6ed403-efdd-4ab1-b72d-fbfd8d37fff6","system_id":"levelo_inurba_marseille","lat":43.27538,"lon":5.35996,"is_reserved":false,"is_disabled":false,"rental_uris":{"android":"levelo://app?vid=4b6ed403-efdd-4ab1-b72d-fbfd8d37fff6","ios":"levelo://app?vid=4b6ed403-efdd-4ab1-b72d-fbfd8d37fff6"},"vehicle_type_id":"4","last_reported":1732029009,"current_range_meters":30800,"station_id":"ce4bgj92rcd13ifvqbe0","pricing_plan_id":"cebpf4jnsgd1na2vs0mg"},{"bike_id":"85782696-36f2-4c33-98b6-2d88f8670e2c","system_id":"levelo_inurba_marseille","lat":43.31081,"lon":5.42429,"is_reserved":false,"is_disabled":false,"rental_uris":{"android":"levelo://app?vid=85782696-36f2-4c33-98b6-2d88f8670e2c","ios":"levelo://app?vid=85782696-36f2-4c33-98b6-2d88f8670e2c"},"vehicle_type_id":"4","last_reported":1732029009,"current_range_meters":35600,"station_id":"ce4bhp92rcd13ifvqhag","pricing_plan_id":"cebpf4jnsgd1na2vs0mg"},{"bike_id":"8364d23a-9205-411d-baf4-c565d5f97ca6","system_id":"levelo_inurba_marseille","lat":43.26943,"lon":5.40252,"is_reserved":false,"is_disabled":false,"rental_uris":{"android":"levelo://app?vid=8364d23a-9205-411d-baf4-c565d5f97ca6","ios":"levelo://app?vid=8364d23a-9205-411d-baf4-c565d5f97ca6"},"vehicle_type_id":"4","last_reported":1732029009,"current_range_meters":3200,"station_id":"cjm6bp8fraef2m0cb0m0","pricing_plan_id":"cebpf4jnsgd1na2vs0mg"},{"bike_id":"800fea11-f496-4c18-9208-f2888c95692c","system_id":"levelo_inurba_marseille","lat":43.31221,"lon":5.36848,"is_reserved":false,"is_disabled":false,"rental_uris":{"android":"levelo://app?vid=800fea11-f496-4c18-9208-f2888c95692c","ios":"levelo://app?vid=800fea11-f496-4c18-9208-f2888c95692c"},"vehicle_type_id":"4","last_reported":1732029009,"current_range_meters":30800,"station_id":"ce4bgl92rcd13ifvqbq0","pricing_plan_id":"cebpf4jnsgd1na2vs0mg"},{"bike_id":"73f7e3ea-ec32-493a-85e2-e04e1909b2dd","system_id":"levelo_inurba_marseille","lat":43.27618,"lon":5.36112,"is_reserved":false,"is_disabled":false,"rental_uris":{"android":"levelo://app?vid=73f7e3ea-ec32-493a-85e2-e04e1909b2dd","ios":"levelo://app?vid=73f7e3ea-ec32-493a-85e2-e04e1909b2dd"},"vehicle_type_id":"4","last_reported":1732029009,"current_range_meters":24000,"station_id":"ce4bgj92rcd13ifvqbe0","pricing_plan_id":"cebpf4jnsgd1na2vs0mg"},{"bike_id":"c46435fb-ac45-4251-8f82-c93eda02ef2f","system_id":"levelo_inurba_marseille","lat":43.31077,"lon":5.42432,"is_reserved":false,"is_disabled":false,"rental_uris":{"android":"levelo://app?vid=c46435fb-ac45-4251-8f82-c93eda02ef2f","ios":"levelo://app?vid=c46435fb-ac45-4251-8f82-c93eda02ef2f"},"vehicle_type_id":"4","last_reported":1732029009,"current_range_meters":38800,"station_id":"ce4bhp92rcd13ifvqhag","pricing_plan_id":"cebpf4jnsgd1na2vs0mg"},{"bike_id":"0ba115c2-8d62-4a79-8ada-794cfdf14fa4","system_id":"levelo_inurba_marseille","lat":43.280334,"lon":5.369532,"is_reserved":false,"is_disabled":false,"rental_uris":{"android":"levelo://app?vid=0ba115c2-8d62-4a79-8ada-794cfdf14fa4","ios":"levelo://app?vid=0ba115c2-8d62-4a79-8ada-794cfdf14fa4"},"vehicle_type_id":"4","last_reported":1732029009,"current_range_meters":23200,"station_id":"ce4bha12rcd13ifvqef0","pricing_plan_id":"cebpf4jnsgd1na2vs0mg"},{"bike_id":"ac9d2f49-8491-4f64-8df3-f15847cdf648","system_id":"levelo_inurba_marseille","lat":43.29897,"lon":5.38145,"is_reserved":false,"is_disabled":false,"rental_uris":{"android":"levelo://app?vid=ac9d2f49-8491-4f64-8df3-f15847cdf648","ios":"levelo://app?vid=ac9d2f49-8491-4f64-8df3-f15847cdf648"},"vehicle_type_id":"4","last_reported":1732029009,"current_range_meters":38400,"station_id":"ce4bgj12rcd13ifvqbc0","pricing_plan_id":"cebpf4jnsgd1na2vs0mg"},{"bike_id":"92450c3d-2142-44c9-8454-b2bb1dfc77ff","system_id":"levelo_inurba_marseille","lat":43.23194,"lon":5.35555,"is_reserved":false,"is_disabled":false,"rental_uris":{"android":"levelo://app?vid=92450c3d-2142-44c9-8454-b2bb1dfc77ff","ios":"levelo://app?vid=92450c3d-2142-44c9-8454-b2bb1dfc77ff"},"vehicle_type_id":"4","last_reported":1732029009,"current_range_meters":16000,"station_id":"ce4bhu92rcd13ifvqi70","pricing_plan_id":"cebpf4jnsgd1na2vs0mg"},{"bike_id":"7e35deb2-0950-494e-a5fc-48886e723f0a","system_id":"levelo_inurba_marseille","lat":43.290368,"lon":5.37561,"is_reserved":false,"is_disabled":true,"rental_uris":{"android":"levelo://app?vid=7e35deb2-0950-494e-a5fc-48886e723f0a","ios":"levelo://app?vid=7e35deb2-0950-494e-a5fc-48886e723f0a"},"vehicle_type_id":"4","last_reported":1732029009,"current_range_meters":8800,"station_id":"ce4bh692rcd13ifvqe90","pricing_plan_id":"cebpf4jnsgd1na2vs0mg"},{"bike_id":"d482b473-8011-43d1-9203-ef428f8af553","system_id":"levelo_inurba_marseille","lat":43.2955,"lon":5.42285,"is_reserved":false,"is_disabled":false,"rental_uris":{"android":"levelo://app?vid=d482b473-8011-43d1-9203-ef428f8af553","ios":"levelo://app?vid=d482b473-8011-43d1-9203-ef428f8af553"},"vehicle_type_id":"4","last_reported":1732029009,"current_range_meters":39200,"station_id":"ce4bhph2rcd13ifvqhdg","pricing_plan_id":"cebpf4jnsgd1na2vs0mg"},{"bike_id":"1985f0ad-5fec-4017-9c67-4c18c8f68667","system_id":"levelo_inurba_marseille","lat":43.29577,"lon":5.36735,"is_reserved":false,"is_disabled":true,"rental_uris":{"android":"levelo://app?vid=1985f0ad-5fec-4017-9c67-4c18c8f68667","ios":"levelo://app?vid=1985f0ad-5fec-4017-9c67-4c18c8f68667"},"vehicle_type_id":"4","last_reported":1732029009,"current_range_meters":0,"station_id":"ce4bgph2rcd13ifvqc2g","pricing_plan_id":"cebpf4jnsgd1na2vs0mg"},{"bike_id":"a7debd6b-9cbe-4635-b5f6-14fade41149e","system_id":"levelo_inurba_marseille","lat":43.29378,"lon":5.37845,"is_reserved":false,"is_disabled":false,"rental_uris":{"android":"levelo://app?vid=a7debd6b-9cbe-4635-b5f6-14fade41149e","ios":"levelo://app?vid=a7debd6b-9cbe-4635-b5f6-14fade41149e"},"vehicle_type_id":"4","last_reported":1732029009,"current_range_meters":38000,"station_id":"ce4bgjh2rcd13ifvqbf0","pricing_plan_id":"cebpf4jnsgd1na2vs0mg"},{"bike_id":"cde5eb04-35f5-4971-aec4-8004f9b2dcd9","system_id":"levelo_inurba_marseille","lat":43.28264,"lon":5.35066,"is_reserved":false,"is_disabled":true,"rental_uris":{"android":"levelo://app?vid=cde5eb04-35f5-4971-aec4-8004f9b2dcd9","ios":"levelo://app?vid=cde5eb04-35f5-4971-aec4-8004f9b2dcd9"},"vehicle_type_id":"4","last_reported":1732029009,"current_range_meters":33200,"station_id":"ce4bhbp2rcd13ifvqerg","pricing_plan_id":"cebpf4jnsgd1na2vs0mg"},{"bike_id":"e63fa20f-859b-43dc-995d-a32935dd2a71","system_id":"levelo_inurba_marseille","lat":43.2761,"lon":5.36111,"is_reserved":false,"is_disabled":false,"rental_uris":{"android":"levelo://app?vid=e63fa20f-859b-43dc-995d-a32935dd2a71","ios":"levelo://app?vid=e63fa20f-859b-43dc-995d-a32935dd2a71"},"vehicle_type_id":"4","last_reported":1732029009,"current_range_meters":17600,"station_id":"ce4bgj92rcd13ifvqbe0","pricing_plan_id":"cebpf4jnsgd1na2vs0mg"},{"bike_id":"e7fd0a64-4db5-45f6-a90d-e4dd4331ffef","system_id":"levelo_inurba_marseille","lat":43.26788,"lon":5.39417,"is_reserved":false,"is_disabled":false,"rental_uris":{"android":"levelo://app?vid=e7fd0a64-4db5-45f6-a90d-e4dd4331ffef","ios":"levelo://app?vid=e7fd0a64-4db5-45f6-a90d-e4dd4331ffef"},"vehicle_type_id":"4","last_reported":1732029009,"current_range_meters":30400,"station_id":"ce4bhh12rcd13ifvqfg0","pricing_plan_id":"cebpf4jnsgd1na2vs0mg"},{"bike_id":"5c36ed54-7f34-4a23-8a39-c72fc87aba57","system_id":"levelo_inurba_marseille","lat":43.2972,"lon":5.37697,"is_reserved":false,"is_disabled":false,"rental_uris":{"android":"levelo://app?vid=5c36ed54-7f34-4a23-8a39-c72fc87aba57","ios":"levelo://app?vid=5c36ed54-7f34-4a23-8a39-c72fc87aba57"},"vehicle_type_id":"4","last_reported":1732029009,"current_range_meters":34000,"station_id":"ce4bgkh2rcd13ifvqbl0","pricing_plan_id":"cebpf4jnsgd1na2vs0mg"},{"bike_id":"8900f549-cd7c-47eb-8777-83d4c4a7c47f","system_id":"levelo_inurba_marseille","lat":43.34145,"lon":5.40906,"is_reserved":false,"is_disabled":false,"rental_uris":{"android":"levelo://app?vid=8900f549-cd7c-47eb-8777-83d4c4a7c47f","ios":"levelo://app?vid=8900f549-cd7c-47eb-8777-83d4c4a7c47f"},"vehicle_type_id":"4","last_reported":1732029009,"current_range_meters":39200,"station_id":"ce4bhqh2rcd13ifvqhlg","pricing_plan_id":"cebpf4jnsgd1na2vs0mg"},{"bike_id":"8a931a80-c7c5-46f5-8a51-c27987a54dbc","system_id":"levelo_inurba_marseille","lat":43.25496,"lon":5.37647,"is_reserved":false,"is_disabled":false,"rental_uris":{"android":"levelo://app?vid=8a931a80-c7c5-46f5-8a51-c27987a54dbc","ios":"levelo://app?vid=8a931a80-c7c5-46f5-8a51-c27987a54dbc"},"vehicle_type_id":"4","last_reported":1732029009,"current_range_meters":28000,"station_id":"ce4bhh12rcd13ifvqff0","pricing_plan_id":"cebpf4jnsgd1na2vs0mg"},{"bike_id":"0e2bbe61-8f31-47ba-b582-6a82d0b052e0","system_id":"levelo_inurba_marseille","lat":43.29026,"lon":5.38351,"is_reserved":false,"is_disabled":false,"rental_uris":{"android":"levelo://app?vid=0e2bbe61-8f31-47ba-b582-6a82d0b052e0","ios":"levelo://app?vid=0e2bbe61-8f31-47ba-b582-6a82d0b052e0"},"vehicle_type_id":"4","last_reported":1732029009,"current_range_meters":28400,"station_id":"ce4bgip2rcd13ifvqbb0","pricing_plan_id":"cebpf4jnsgd1na2vs0mg"},{"bike_id":"c3bc0f64-f384-48a7-9517-04f95522a7e3","system_id":"levelo_inurba_marseille","lat":43.318242,"lon":5.37611,"is_reserved":false,"is_disabled":true,"rental_uris":{"android":"levelo://app?vid=c3bc0f64-f384-48a7-9517-04f95522a7e3","ios":"levelo://app?vid=c3bc0f64-f384-48a7-9517-04f95522a7e3"},"vehicle_type_id":"4","last_reported":1732029009,"current_range_meters":14800,"station_id":"","pricing_plan_id":"cebpf4jnsgd1na2vs0mg"},{"bike_id":"da8b076d-8325-46bc-83fa-f77af832ce07","system_id":"levelo_inurba_marseille","lat":43.27328,"lon":5.39075,"is_reserved":false,"is_disabled":true,"rental_uris":{"android":"levelo://app?vid=da8b076d-8325-46bc-83fa-f77af832ce07","ios":"levelo://app?vid=da8b076d-8325-46bc-83fa-f77af832ce07"},"vehicle_type_id":"4","last_reported":1732029009,"current_range_meters":0,"station_id":"ce4bhgp2rcd13ifvqfe0","pricing_plan_id":"cebpf4jnsgd1na2vs0mg"},{"bike_id":"44ee0950-3528-490a-948e-7f3976ab238c","system_id":"levelo_inurba_marseille","lat":43.32367,"lon":5.38888,"is_reserved":false,"is_disabled":false,"rental_uris":{"android":"levelo://app?vid=44ee0950-3528-490a-948e-7f3976ab238c","ios":"levelo://app?vid=44ee0950-3528-490a-948e-7f3976ab238c"},"vehicle_type_id":"4","last_reported":1732029009,"current_range_meters":33200,"station_id":"ce4bhqp2rcd13ifvqhog","pricing_plan_id":"cebpf4jnsgd1na2vs0mg"},{"bike_id":"b1bf3626-2c72-49f2-ac8f-ae721f99d9c9","system_id":"levelo_inurba_marseille","lat":43.27062,"lon":5.40261,"is_reserved":false,"is_disabled":false,"rental_uris":{"android":"levelo://app?vid=b1bf3626-2c72-49f2-ac8f-ae721f99d9c9","ios":"levelo://app?vid=b1bf3626-2c72-49f2-ac8f-ae721f99d9c9"},"vehicle_type_id":"4","last_reported":1732029009,"current_range_meters":16000,"station_id":"ce4bhk92rcd13ifvqgc0","pricing_plan_id":"cebpf4jnsgd1na2vs0mg"},{"bike_id":"bc8d3e74-da72-49e5-9fa8-e51bebc42f78","system_id":"levelo_inurba_marseille","lat":43.29003,"lon":5.35613,"is_reserved":false,"is_disabled":false,"rental_uris":{"android":"levelo://app?vid=bc8d3e74-da72-49e5-9fa8-e51bebc42f78","ios":"levelo://app?vid=bc8d3e74-da72-49e5-9fa8-e51bebc42f78"},"vehicle_type_id":"4","last_reported":1732029009,"current_range_meters":32400,"station_id":"ce4bhb92rcd13ifvqen0","pricing_plan_id":"cebpf4jnsgd1na2vs0mg"},{"bike_id":"7946cf93-2154-41e2-a5d7-985e0724de27","system_id":"levelo_inurba_marseille","lat":43.24074,"lon":5.37755,"is_reserved":false,"is_disabled":true,"rental_uris":{"android":"levelo://app?vid=7946cf93-2154-41e2-a5d7-985e0724de27","ios":"levelo://app?vid=7946cf93-2154-41e2-a5d7-985e0724de27"},"vehicle_type_id":"4","last_reported":1732029009,"current_range_meters":0,"station_id":"ce4bhnp2rcd13ifvqgvg","pricing_plan_id":"cebpf4jnsgd1na2vs0mg"},{"bike_id":"729f081d-5184-4f31-801f-2b41f23e3a17","system_id":"levelo_inurba_marseille","lat":43.33114,"lon":5.38222,"is_reserved":false,"is_disabled":true,"rental_uris":{"android":"levelo://app?vid=729f081d-5184-4f31-801f-2b41f23e3a17","ios":"levelo://app?vid=729f081d-5184-4f31-801f-2b41f23e3a17"},"vehicle_type_id":"4","last_reported":1732029009,"current_range_meters":33600,"station_id":"","pricing_plan_id":"cebpf4jnsgd1na2vs0mg"},{"bike_id":"7770b1cc-2a54-4d08-8255-6bed2fc397aa","system_id":"levelo_inurba_marseille","lat":43.23199,"lon":5.35549,"is_reserved":false,"is_disabled":false,"rental_uris":{"android":"levelo://app?vid=7770b1cc-2a54-4d08-8255-6bed2fc397aa","ios":"levelo://app?vid=7770b1cc-2a54-4d08-8255-6bed2fc397aa"},"vehicle_type_id":"4","last_reported":1732029009,"current_range_meters":29600,"station_id":"ce4bhu92rcd13ifvqi70","pricing_plan_id":"cebpf4jnsgd1na2vs0mg"},{"bike_id":"b321c3f8-cfeb-49c2-9411-946d91e0b750","system_id":"levelo_inurba_marseille","lat":43.2956,"lon":5.42281,"is_reserved":false,"is_disabled":false,"rental_uris":{"android":"levelo://app?vid=b321c3f8-cfeb-49c2-9411-946d91e0b750","ios":"levelo://app?vid=b321c3f8-cfeb-49c2-9411-946d91e0b750"},"vehicle_type_id":"4","last_reported":1732029009,"current_range_meters":17200,"station_id":"ce4bhph2rcd13ifvqhdg","pricing_plan_id":"cebpf4jnsgd1na2vs0mg"},{"bike_id":"fe329a77-e269-4bcf-a39a-93ffd701de4f","system_id":"levelo_inurba_marseille","lat":43.31223,"lon":5.36863,"is_reserved":false,"is_disabled":false,"rental_uris":{"android":"levelo://app?vid=fe329a77-e269-4bcf-a39a-93ffd701de4f","ios":"levelo://app?vid=fe329a77-e269-4bcf-a39a-93ffd701de4f"},"vehicle_type_id":"4","last_reported":1732029009,"current_range_meters":16800,"station_id":"ce4bgl92rcd13ifvqbq0","pricing_plan_id":"cebpf4jnsgd1na2vs0mg"},{"bike_id":"22c26796-98c3-49c3-9484-10b5e9cc2eb9","system_id":"levelo_inurba_marseille","lat":43.29628,"lon":5.37722,"is_reserved":false,"is_disabled":false,"rental_uris":{"android":"levelo://app?vid=22c26796-98c3-49c3-9484-10b5e9cc2eb9","ios":"levelo://app?vid=22c26796-98c3-49c3-9484-10b5e9cc2eb9"},"vehicle_type_id":"4","last_reported":1732029009,"current_range_meters":29600,"station_id":"ce4bgi92rcd13ifvqb90","pricing_plan_id":"cebpf4jnsgd1na2vs0mg"},{"bike_id":"3d25d818-80cf-415a-996a-afc2d01ce97b","system_id":"levelo_inurba_marseille","lat":43.27788,"lon":5.4073,"is_reserved":false,"is_disabled":false,"rental_uris":{"android":"levelo://app?vid=3d25d818-80cf-415a-996a-afc2d01ce97b","ios":"levelo://app?vid=3d25d818-80cf-415a-996a-afc2d01ce97b"},"vehicle_type_id":"4","last_reported":1732029009,"current_range_meters":15200,"station_id":"ce4bhnh2rcd13ifvqgtg","pricing_plan_id":"cebpf4jnsgd1na2vs0mg"},{"bike_id":"64ed23a0-3533-4dca-8fb9-650aaf2586c1","system_id":"levelo_inurba_marseille","lat":43.31721,"lon":5.42406,"is_reserved":false,"is_disabled":false,"rental_uris":{"android":"levelo://app?vid=64ed23a0-3533-4dca-8fb9-650aaf2586c1","ios":"levelo://app?vid=64ed23a0-3533-4dca-8fb9-650aaf2586c1"},"vehicle_type_id":"4","last_reported":1732029009,"current_range_meters":39200,"station_id":"ce4bhp92rcd13ifvqhbg","pricing_plan_id":"cebpf4jnsgd1na2vs0mg"},{"bike_id":"50b44e30-7bf5-4e2e-be3f-0e38514d5052","system_id":"levelo_inurba_marseille","lat":43.23155,"lon":5.43703,"is_reserved":false,"is_disabled":true,"rental_uris":{"android":"levelo://app?vid=50b44e30-7bf5-4e2e-be3f-0e38514d5052","ios":"levelo://app?vid=50b44e30-7bf5-4e2e-be3f-0e38514d5052"},"vehicle_type_id":"4","last_reported":1732029009,"current_range_meters":0,"station_id":"ce4bhmp2rcd13ifvqgog","pricing_plan_id":"cebpf4jnsgd1na2vs0mg"},{"bike_id":"5fbaf450-90c7-416c-a9b6-8e3b3003c75c","system_id":"levelo_inurba_marseille","lat":43.32489,"lon":5.36566,"is_reserved":false,"is_disabled":false,"rental_uris":{"android":"levelo://app?vid=5fbaf450-90c7-416c-a9b6-8e3b3003c75c","ios":"levelo://app?vid=5fbaf450-90c7-416c-a9b6-8e3b3003c75c"},"vehicle_type_id":"4","last_reported":1732029009,"current_range_meters":38800,"station_id":"ce4bhs12rcd13ifvqhvg","pricing_plan_id":"cebpf4jnsgd1na2vs0mg"},{"bike_id":"ca7f02db-066e-4a14-97a8-5890785ca700","system_id":"levelo_inurba_marseille","lat":43.29613,"lon":5.37725,"is_reserved":false,"is_disabled":false,"rental_uris":{"android":"levelo://app?vid=ca7f02db-066e-4a14-97a8-5890785ca700","ios":"levelo://app?vid=ca7f02db-066e-4a14-97a8-5890785ca700"},"vehicle_type_id":"4","last_reported":1732029009,"current_range_meters":38800,"station_id":"ce4bgi92rcd13ifvqb90","pricing_plan_id":"cebpf4jnsgd1na2vs0mg"},{"bike_id":"03624f7d-f25e-4ca6-82bf-9bdcb0d27757","system_id":"levelo_inurba_marseille","lat":43.30634,"lon":5.36758,"is_reserved":false,"is_disabled":true,"rental_uris":{"android":"levelo://app?vid=03624f7d-f25e-4ca6-82bf-9bdcb0d27757","ios":"levelo://app?vid=03624f7d-f25e-4ca6-82bf-9bdcb0d27757"},"vehicle_type_id":"4","last_reported":1732029009,"current_range_meters":0,"station_id":"","pricing_plan_id":"cebpf4jnsgd1na2vs0mg"},{"bike_id":"15111a72-47bd-488c-a7fe-5f33bf784577","system_id":"levelo_inurba_marseille","lat":43.24074,"lon":5.37765,"is_reserved":false,"is_disabled":false,"rental_uris":{"android":"levelo://app?vid=15111a72-47bd-488c-a7fe-5f33bf784577","ios":"levelo://app?vid=15111a72-47bd-488c-a7fe-5f33bf784577"},"vehicle_type_id":"4","last_reported":1732029009,"current_range_meters":36000,"station_id":"ce4bhnp2rcd13ifvqgvg","pricing_plan_id":"cebpf4jnsgd1na2vs0mg"},{"bike_id":"62e6d7c5-dcbf-4261-9c5e-4d74d094030f","system_id":"levelo_inurba_marseille","lat":43.29175,"lon":5.37155,"is_reserved":false,"is_disabled":false,"rental_uris":{"android":"levelo://app?vid=62e6d7c5-dcbf-4261-9c5e-4d74d094030f","ios":"levelo://app?vid=62e6d7c5-dcbf-4261-9c5e-4d74d094030f"},"vehicle_type_id":"4","last_reported":1732029009,"current_range_meters":39200,"station_id":"ce4bha92rcd13ifvqeh0","pricing_plan_id":"cebpf4jnsgd1na2vs0mg"},{"bike_id":"8b3601dd-844a-4847-baf3-c4b7e38fcb75","system_id":"levelo_inurba_marseille","lat":43.27615,"lon":5.36122,"is_reserved":false,"is_disabled":false,"rental_uris":{"android":"levelo://app?vid=8b3601dd-844a-4847-baf3-c4b7e38fcb75","ios":"levelo://app?vid=8b3601dd-844a-4847-baf3-c4b7e38fcb75"},"vehicle_type_id":"4","last_reported":1732029009,"current_range_meters":38800,"station_id":"ce4bgj92rcd13ifvqbe0","pricing_plan_id":"cebpf4jnsgd1na2vs0mg"},{"bike_id":"c34e4720-c6fc-4109-90cd-c8f7072016eb","system_id":"levelo_inurba_marseille","lat":43.28154,"lon":5.42645,"is_reserved":false,"is_disabled":false,"rental_uris":{"android":"levelo://app?vid=c34e4720-c6fc-4109-90cd-c8f7072016eb","ios":"levelo://app?vid=c34e4720-c6fc-4109-90cd-c8f7072016eb"},"vehicle_type_id":"4","last_reported":1732029009,"current_range_meters":8000,"station_id":"ce4bhnh2rcd13ifvqgug","pricing_plan_id":"cebpf4jnsgd1na2vs0mg"},{"bike_id":"34e62580-b696-453a-9f2d-920a9e765f06","system_id":"levelo_inurba_marseille","lat":43.28036,"lon":5.36946,"is_reserved":false,"is_disabled":false,"rental_uris":{"android":"levelo://app?vid=34e62580-b696-453a-9f2d-920a9e765f06","ios":"levelo://app?vid=34e62580-b696-453a-9f2d-920a9e765f06"},"vehicle_type_id":"4","last_reported":1732029009,"current_range_meters":28000,"station_id":"ce4bha12rcd13ifvqef0","pricing_plan_id":"cebpf4jnsgd1na2vs0mg"},{"bike_id":"18b8f091-c34a-472c-8dc3-5f3caf056c58","system_id":"levelo_inurba_marseille","lat":43.337444,"lon":5.374475,"is_reserved":false,"is_disabled":false,"rental_uris":{"android":"levelo://app?vid=18b8f091-c34a-472c-8dc3-5f3caf056c58","ios":"levelo://app?vid=18b8f091-c34a-472c-8dc3-5f3caf056c58"},"vehicle_type_id":"4","last_reported":1732029009,"current_range_meters":38800,"station_id":"","pricing_plan_id":"cebpf4jnsgd1na2vs0mg"},{"bike_id":"9044f75c-15b5-4f34-bbd2-226c9f41adac","system_id":"levelo_inurba_marseille","lat":43.27609,"lon":5.36116,"is_reserved":false,"is_disabled":true,"rental_uris":{"android":"levelo://app?vid=9044f75c-15b5-4f34-bbd2-226c9f41adac","ios":"levelo://app?vid=9044f75c-15b5-4f34-bbd2-226c9f41adac"},"vehicle_type_id":"4","last_reported":1732029009,"current_range_meters":33200,"station_id":"ce4bgj92rcd13ifvqbe0","pricing_plan_id":"cebpf4jnsgd1na2vs0mg"},{"bike_id":"e03a06b6-df6d-487f-8834-4cdb03f56f47","system_id":"levelo_inurba_marseille","lat":43.28101,"lon":5.44084,"is_reserved":false,"is_disabled":true,"rental_uris":{"android":"levelo://app?vid=e03a06b6-df6d-487f-8834-4cdb03f56f47","ios":"levelo://app?vid=e03a06b6-df6d-487f-8834-4cdb03f56f47"},"vehicle_type_id":"4","last_reported":1732029009,"current_range_meters":0,"station_id":"","pricing_plan_id":"cebpf4jnsgd1na2vs0mg"},{"bike_id":"f5557847-0cf1-4ada-bcd6-c7726194655d","system_id":"levelo_inurba_marseille","lat":43.33767,"lon":5.37438,"is_reserved":false,"is_disabled":false,"rental_uris":{"android":"levelo://app?vid=f5557847-0cf1-4ada-bcd6-c7726194655d","ios":"levelo://app?vid=f5557847-0cf1-4ada-bcd6-c7726194655d"},"vehicle_type_id":"4","last_reported":1732029009,"current_range_meters":37600,"station_id":"","pricing_plan_id":"cebpf4jnsgd1na2vs0mg"},{"bike_id":"f050218e-b27a-4f28-b2e5-897a4081c987","system_id":"levelo_inurba_marseille","lat":43.28407,"lon":5.37526,"is_reserved":false,"is_disabled":false,"rental_uris":{"android":"levelo://app?vid=f050218e-b27a-4f28-b2e5-897a4081c987","ios":"levelo://app?vid=f050218e-b27a-4f28-b2e5-897a4081c987"},"vehicle_type_id":"4","last_reported":1732029009,"current_range_meters":32000,"station_id":"ce4bh412rcd13ifvqds0","pricing_plan_id":"cebpf4jnsgd1na2vs0mg"},{"bike_id":"79511df2-b072-4a83-b5fb-62b31b8c5f1e","system_id":"levelo_inurba_marseille","lat":43.30539,"lon":5.36705,"is_reserved":false,"is_disabled":true,"rental_uris":{"android":"levelo://app?vid=79511df2-b072-4a83-b5fb-62b31b8c5f1e","ios":"levelo://app?vid=79511df2-b072-4a83-b5fb-62b31b8c5f1e"},"vehicle_type_id":"4","last_reported":1732029009,"current_range_meters":17600,"station_id":"ce4bgrp2rcd13ifvqc9g","pricing_plan_id":"cebpf4jnsgd1na2vs0mg"},{"bike_id":"87a1679d-aa59-41b4-bd56-bc5165abd16a","system_id":"levelo_inurba_marseille","lat":43.27901,"lon":5.38006,"is_reserved":false,"is_disabled":true,"rental_uris":{"android":"levelo://app?vid=87a1679d-aa59-41b4-bd56-bc5165abd16a","ios":"levelo://app?vid=87a1679d-aa59-41b4-bd56-bc5165abd16a"},"vehicle_type_id":"4","last_reported":1732029009,"current_range_meters":0,"station_id":"","pricing_plan_id":"cebpf4jnsgd1na2vs0mg"},