{"last_updated":1773337246,"ttl":60,"version":"2.2","data":{"bikes":[{"bike_id":"e8dfe635-a703-41ae-9072-df5bb8305194","system_id":"levelo_inurba_marseille","lat":43.33571,"lon":5.3745,"is_reserved":false,"is_disabled":false,"rental_uris":{"android":"levelo://app?vid=e8dfe635-a703-41ae-9072-df5bb8305194","ios":"levelo://app?vid=e8dfe635-a703-41ae-9072-df5bb8305194"},"vehicle_type_id":"4","last_reported":1773337247,"current_range_meters":32800,"station_id":"","pricing_plan_id":"cebpf4jnsgd1na2vs0mg"},{"bike_id":"c08b2b9c-be05-44e0-8e37-3eece16be82d","system_id":"levelo_inurba_marseille","lat":43.30948,"lon":5.39059,"is_reserved":false,"is_disabled":false,"rental_uris":{"android":"levelo://app?vid=c08b2b9c-be05-44e0-8e37-3eece16be82d","ios":"levelo://app?vid=c08b2b9c-be05-44e0-8e37-3eece16be82d"},"vehicle_type_id":"4","last_reported":1773337247,"current_range_meters":3600,"station_id":"ce4bgup2rcd13ifvqco0","pricing_plan_id":"cebpf4jnsgd1na2vs0mg"},{"bike_id":"13f2ffb9-16fb-4a9c-9718-7a98c6045164","system_id":"levelo_inurba_marseille","lat":43.30643,"lon":5.40113,"is_reserved":false,"is_disabled":false,"rental_uris":{"android":"levelo://app?vid=13f2ffb9-16fb-4a9c-9718-7a98c6045164","ios":"levelo://app?vid=13f2ffb9-16fb-4a9c-9718-7a98c6045164"},"vehicle_type_id":"4","last_reported":1773337247,"current_range_meters":36400,"station_id":"ce4bh112rcd13ifvqda0","pricing_plan_id":"cebpf4jnsgd1na2vs0mg"},{"bike_id":"d7f14f08-66d3-42a5-9c51-7afcaa567af4","system_id":"levelo_inurba_marseille","lat":43.29869,"lon":5.39743,"is_reserved":false,"is_disabled":false,"rental_uris":{"android":"levelo://app?vid=d7f14f08-66d3-42a5-9c51-7afcaa567af4","ios":"levelo://app?vid=d7f14f08-66d3-42a5-9c51-7afcaa567af4"},"vehicle_type_id":"4","last_reported":1773337247,"current_range_meters":36800,"station_id":"ce4bh0h2rcd13ifvqd50","pricing_plan_id":"cebpf4jnsgd1na2vs0mg"},{"bike_id":"36783179-3a82-4a14-9cda-7125b7752171","system_id":"levelo_inurba_marseille","lat":43.26561,"lon":5.37283,"is_reserved":false,"is_disabled":false,"rental_uris":{"android":"levelo://app?vid=36783179-3a82-4a14-9cda-7125b7752171","ios":"levelo://app?vid=36783179-3a82-4a14-9cda-7125b7752171"},"vehicle_type_id":"4","last_reported":1773337247,"current_range_meters":20800,"station_id":"ce4bhg12rcd13ifvqf70","pricing_plan_id":"cebpf4jnsgd1na2vs0mg"},{"bike_id":"317f4797-49c5-4ace-8aa7-83c30a86c8d2","system_id":"levelo_inurba_marseille","lat":43.29295,"lon":5.37459,"is_reserved":false,"is_disabled":false,"rental_uris":{"android":"levelo://app?vid=317f4797-49c5-4ace-8aa7-83c30a86c8d2","ios":"levelo://app?vid=317f4797-49c5-4ace-8aa7-83c30a86c8d2"},"vehicle_type_id":"4","last_reported":1773337247,"current_range_meters":29600,"station_id":"ce4bgi12rcd13ifvqb70","pricing_plan_id":"cebpf4jnsgd1na2vs0mg"},{"bike_id":"e23765f9-8671-4e23-8ef0-c59ff0dbe9bb","system_id":"levelo_inurba_marseille","lat":43.29266,"lon":5.40171,"is_reserved":false,"is_disabled":true,"rental_uris":{"android":"levelo://app?vid=e23765f9-8671-4e23-8ef0-c59ff0dbe9bb","ios":"levelo://app?vid=e23765f9-8671-4e23-8ef0-c59ff0dbe9bb"},"vehicle_type_id":"4","last_reported":1773337247,"current_range_meters":1200,"station_id":"ce4bh312rcd13ifvqdk0","pricing_plan_id":"cebpf4jnsgd1na2vs0mg"},{"bike_id":"92fb41fe-7603-49ec-a816-3eeb022f29fc","system_id":"levelo_inurba_marseille","lat":43.23193,"lon":5.39982,"is_reserved":false,"is_disabled":false,"rental_uris":{"android":"levelo://app?vid=92fb41fe-7603-49ec-a816-3eeb022f29fc","ios":"levelo://app?vid=92fb41fe-7603-49ec-a816-3eeb022f29fc"},"vehicle_type_id":"4","last_reported":1773337247,"current_range_meters":23200,"station_id":"ce4bhn12rcd13ifvqgqg","pricing_plan_id":"cebpf4jnsgd1na2vs0mg"},{"bike_id":"501ac3ce-4e32-4f11-9ff0-40917641f71f","system_id":"levelo_inurba_marseille","lat":43.32981,"lon":5.38996,"is_reserved":false,"is_disabled":false,"rental_uris":{"android":"levelo://app?vid=501ac3ce-4e32-4f11-9ff0-40917641f71f","ios":"levelo://app?vid=501ac3ce-4e32-4f11-9ff0-40917641f71f"},"vehicle_type_id":"4","last_reported":1773337247,"current_range_meters":36000,"station_id":"ce4bhr92rcd13ifvqhrg","pricing_plan_id":"cebpf4jnsgd1na2vs0mg"},{"bike_id":"9faea34b-1c48-4a1b-8f51-2bafe5184a50","system_id":"levelo_inurba_marseille","lat":43.28484,"lon":5.48404,"is_reserved":false,"is_disabled":false,"rental_uris":{"android":"levelo://app?vid=9faea34b-1c48-4a1b-8f51-2bafe5184a50","ios":"levelo://app?vid=9faea34b-1c48-4a1b-8f51-2bafe5184a50"},"vehicle_type_id":"4","last_reported":1773337247,"current_range_meters":30400,"station_id":"","pricing_plan_id":"cebpf4jnsgd1na2vs0mg"},{"bike_id":"bd0135ea-2cde-4c88-9947-7d16e31861df","system_id":"levelo_inurba_marseille","lat":43.30723,"lon":5.36825,"is_reserved":false,"is_disabled":false,"rental_uris":{"android":"levelo://app?vid=bd0135ea-2cde-4c88-9947-7d16e31861df","ios":"levelo://app?vid=bd0135ea-2cde-4c88-9947-7d16e31861df"},"vehicle_type_id":"4","last_reported":1773337247,"current_range_meters":28000,"station_id":"","pricing_plan_id":"cebpf4jnsgd1na2vs0mg"},{"bike_id":"18f81ce4-9bbb-4d55-bc01-0a994616daa1","system_id":"levelo_inurba_marseille","lat":43.33159,"lon":5.37702,"is_reserved":false,"is_disabled":false,"rental_uris":{"android":"levelo://app?vid=18f81ce4-9bbb-4d55-bc01-0a994616daa1","ios":"levelo://app?vid=18f81ce4-9bbb-4d55-bc01-0a994616daa1"},"vehicle_type_id":"4","last_reported":1773337247,"current_range_meters":18000,"station_id":"st_d46cu089ee8s73dldbu0","pricing_plan_id":"cebpf4jnsgd1na2vs0mg"},{"bike_id":"c943c8f2-fd97-497f-b02c-47e60712859d","system_id":"levelo_inurba_marseille","lat":43.25831,"lon":5.39434,"is_reserved":false,"is_disabled":false,"rental_uris":{"android":"levelo://app?vid=c943c8f2-fd97-497f-b02c-47e60712859d","ios":"levelo://app?vid=c943c8f2-fd97-497f-b02c-47e60712859d"},"vehicle_type_id":"4","last_reported":1773337247,"current_range_meters":22800,"station_id":"ce4bhip2rcd13ifvqft0","pricing_plan_id":"cebpf4jnsgd1na2vs0mg"},{"bike_id":"311cd375-88a1-4176-9219-fa828099384a","system_id":"levelo_inurba_marseille","lat":43.30343,"lon":5.36902,"is_reserved":false,"is_disabled":false,"rental_uris":{"android":"levelo://app?vid=311cd375-88a1-4176-9219-fa828099384a","ios":"levelo://app?vid=311cd375-88a1-4176-9219-fa828099384a"},"vehicle_type_id":"4","last_reported":1773337247,"current_range_meters":12800,"station_id":"ce4bgqh2rcd13ifvqc5g","pricing_plan_id":"cebpf4jnsgd1na2vs0mg"},{"bike_id":"cf72e95f-e7b5-47c4-a026-c2a6b5601fec","system_id":"levelo_inurba_marseille","lat":43.29542,"lon":5.38548,"is_reserved":false,"is_disabled":false,"rental_uris":{"android":"levelo://app?vid=cf72e95f-e7b5-47c4-a026-c2a6b5601fec","ios":"levelo://app?vid=cf72e95f-e7b5-47c4-a026-c2a6b5601fec"},"vehicle_type_id":"4","last_reported":1773337247,"current_range_meters":18000,"station_id":"ce4bgih2rcd13ifvqba0","pricing_plan_id":"cebpf4jnsgd1na2vs0mg"},{"bike_id":"b5a70d44-6cd2-4596-a9b3-e82e9858ce0d","system_id":"levelo_inurba_marseille","lat":43.3054,"lon":5.36664,"is_reserved":false,"is_disabled":false,"rental_uris":{"android":"levelo://app?vid=b5a70d44-6cd2-4596-a9b3-e82e9858ce0d","ios":"levelo://app?vid=b5a70d44-6cd2-4596-a9b3-e82e9858ce0d"},"vehicle_type_id":"4","last_reported":1773337247,"current_range_meters":38400,"station_id":"","pricing_plan_id":"cebpf4jnsgd1na2vs0mg"},{"bike_id":"fee06328-0848-48be-bb8b-947aae963eba","system_id":"levelo_inurba_marseille","lat":43.30526,"lon":5.36729,"is_reserved":false,"is_disabled":false,"rental_uris":{"android":"levelo://app?vid=fee06328-0848-48be-bb8b-947aae963eba","ios":"levelo://app?vid=fee06328-0848-48be-bb8b-947aae963eba"},"vehicle_type_id":"4","last_reported":1773337247,"current_range_meters":39200,"station_id":"ce4bgrp2rcd13ifvqc9g","pricing_plan_id":"cebpf4jnsgd1na2vs0mg"},{"bike_id":"4734ea8e-e44a-4f99-bc93-023efcbf703c","system_id":"levelo_inurba_marseille","lat":43.33607,"lon":5.41035,"is_reserved":false,"is_disabled":false,"rental_uris":{"android":"levelo://app?vid=4734ea8e-e44a-4f99-bc93-023efcbf703c","ios":"levelo://app?vid=4734ea8e-e44a-4f99-bc93-023efcbf703c"},"vehicle_type_id":"4","last_reported":1773337247,"current_range_meters":32400,"station_id":"ce4bhqh2rcd13ifvqhmg","pricing_plan_id":"cebpf4jnsgd1na2vs0mg"},{"bike_id":"c0e778de-76d2-4d92-a7f7-3c777a27001a","system_id":"levelo_inurba_marseille","lat":43.29598,"lon":5.38101,"is_reserved":false,"is_disabled":true,"rental_uris":{"android":"levelo://app?vid=c0e778de-76d2-4d92-a7f7-3c777a27001a","ios":"levelo://app?vid=c0e778de-76d2-4d92-a7f7-3c777a27001a"},"vehicle_type_id":"4","last_reported":1773337247,"current_range_meters":16400,"station_id":"ce4bgl12rcd13ifvqbo0","pricing_plan_id":"cebpf4jnsgd1na2vs0mg"},{"bike_id":"20bf681e-dd28-42a1-94f9-defeb2767863","system_id":"levelo_inurba_marseille","lat":43.25864,"lon":5.39895,"is_reserved":false,"is_disabled":false,"rental_uris":{"android":"levelo://app?vid=20bf681e-dd28-42a1-94f9-defeb2767863","ios":"levelo://app?vid=20bf681e-dd28-42a1-94f9-defeb2767863"},"vehicle_type_id":"4","last_reported":1773337247,"current_range_meters":25200,"station_id":"ce4bhl92rcd13ifvqghg","pricing_plan_id":"cebpf4jnsgd1na2vs0mg"},{"bike_id":"8dec6864-cf1d-4d01-9727-e7d95887b07b","system_id":"levelo_inurba_marseille","lat":43.28424,"lon":5.34998,"is_reserved":false,"is_disabled":false,"rental_uris":{"android":"levelo://app?vid=8dec6864-cf1d-4d01-9727-e7d95887b07b","ios":"levelo://app?vid=8dec6864-cf1d-4d01-9727-e7d95887b07b"},"vehicle_type_id":"4","last_reported":1773337247,"current_range_meters":25200,"station_id":"ce4bhbh2rcd13ifvqepg","pricing_plan_id":"cebpf4jnsgd1na2vs0mg"},{"bike_id":"463c9dfb-55cb-4643-98a9-63f734d95af1","system_id":"levelo_inurba_marseille","lat":43.28531,"lon":5.44105,"is_reserved":false,"is_disabled":false,"rental_uris":{"android":"levelo://app?vid=463c9dfb-55cb-4643-98a9-63f734d95af1","ios":"levelo://app?vid=463c9dfb-55cb-4643-98a9-63f734d95af1"},"vehicle_type_id":"4","last_reported":1773337247,"current_range_meters":35200,"station_id":"st_d3j3df2ikq2c7380ej80","pricing_plan_id":"cebpf4jnsgd1na2vs0mg"},{"bike_id":"1be54c69-6d2c-4415-ba9e-c9ead353d966","system_id":"levelo_inurba_marseille","lat":43.24154,"lon":5.36426,"is_reserved":false,"is_disabled":false,"rental_uris":{"android":"levelo://app?vid=1be54c69-6d2c-4415-ba9e-c9ead353d966","ios":"levelo://app?vid=1be54c69-6d2c-4415-ba9e-c9ead353d966"},"vehicle_type_id":"4","last_reported":1773337247,"current_range_meters":28800,"station_id":"cpo36qri1sfpv3e86is0","pricing_plan_id":"cebpf4jnsgd1na2vs0mg"},{"bike_id":"59f1a9ad-a5c5-48a5-819e-e9f957006558","system_id":"levelo_inurba_marseille","lat":43.26951,"lon":5.38634,"is_reserved":false,"is_disabled":false,"rental_uris":{"android":"levelo://app?vid=59f1a9ad-a5c5-48a5-819e-e9f957006558","ios":"levelo://app?vid=59f1a9ad-a5c5-48a5-819e-e9f957006558"},"vehicle_type_id":"4","last_reported":1773337247,"current_range_meters":28800,"station_id":"ce4bhh92rcd13ifvqfh0","pricing_plan_id":"cebpf4jnsgd1na2vs0mg"},{"bike_id":"8b010353-2360-4a8a-9b76-14130d745a42","system_id":"levelo_inurba_marseille","lat":43.27814,"lon":5.40715,"is_reserved":false,"is_disabled":false,"rental_uris":{"android":"levelo://app?vid=8b010353-2360-4a8a-9b76-14130d745a42","ios":"levelo://app?vid=8b010353-2360-4a8a-9b76-14130d745a42"},"vehicle_type_id":"4","last_reported":1773337247,"current_range_meters":6400,"station_id":"ce4bhnh2rcd13ifvqgtg","pricing_plan_id":"cebpf4jnsgd1na2vs0mg"},{"bike_id":"e5992785-f891-4eb7-b8cf-ab9dacd9c960","system_id":"levelo_inurba_marseille","lat":43.23061,"lon":5.35486,"is_reserved":false,"is_disabled":false,"rental_uris":{"android":"levelo://app?vid=e5992785-f891-4eb7-b8cf-ab9dacd9c960","ios":"levelo://app?vid=e5992785-f891-4eb7-b8cf-ab9dacd9c960"},"vehicle_type_id":"4","last_reported":1773337247,"current_range_meters":38400,"station_id":"cpo3342slgdg3j2ifvpg","pricing_plan_id":"cebpf4jnsgd1na2vs0mg"},{"bike_id":"748502a6-ebda-492b-9758-aa3915e37546","system_id":"levelo_inurba_marseille","lat":43.30217,"lon":5.39757,"is_reserved":false,"is_disabled":false,"rental_uris":{"android":"levelo://app?vid=748502a6-ebda-492b-9758-aa3915e37546","ios":"levelo://app?vid=748502a6-ebda-492b-9758-aa3915e37546"},"vehicle_type_id":"4","last_reported":1773337247,"current_range_meters":32000,"station_id":"","pricing_plan_id":"cebpf4jnsgd1na2vs0mg"},{"bike_id":"b6e38367-5bb5-4e25-8c85-83694ffa2882","system_id":"levelo_inurba_marseille","lat":43.2649,"lon":5.39551,"is_reserved":false,"is_disabled":false,"rental_uris":{"android":"levelo://app?vid=b6e38367-5bb5-4e25-8c85-83694ffa2882","ios":"levelo://app?vid=b6e38367-5bb5-4e25-8c85-83694ffa2882"},"vehicle_type_id":"4","last_reported":1773337247,"current_range_meters":39200,"station_id":"ce4bhi12rcd13ifvqfq0","pricing_plan_id":"cebpf4jnsgd1na2vs0mg"},{"bike_id":"34774aad-23db-4978-b1f4-dbbef5dcced6","system_id":"levelo_inurba_marseille","lat":43.24811,"lon":5.37455,"is_reserved":false,"is_disabled":false,"rental_uris":{"android":"levelo://app?vid=34774aad-23db-4978-b1f4-dbbef5dcced6","ios":"levelo://app?vid=34774aad-23db-4978-b1f4-dbbef5dcced6"},"vehicle_type_id":"4","last_reported":1773337247,"current_range_meters":19600,"station_id":"ce4bhgh2rcd13ifvqfb0","pricing_plan_id":"cebpf4jnsgd1na2vs0mg"},{"bike_id":"c8ca76cf-c15f-4d80-8ecc-3230dd8c2ca2","system_id":"levelo_inurba_marseille","lat":43.26217,"lon":5.37923,"is_reserved":false,"is_disabled":false,"rental_uris":{"android":"levelo://app?vid=c8ca76cf-c15f-4d80-8ecc-3230dd8c2ca2","ios":"levelo://app?vid=c8ca76cf-c15f-4d80-8ecc-3230dd8c2ca2"},"vehicle_type_id":"4","last_reported":1773337247,"current_range_meters":39200,"station_id":"ce4bhjp2rcd13ifvqg90","pricing_plan_id":"cebpf4jnsgd1na2vs0mg"},{"bike_id":"a3e9461e-c7c8-464e-829b-21261967042e","system_id":"levelo_inurba_marseille","lat":43.2903,"lon":5.39981,"is_reserved":false,"is_disabled":false,"rental_uris":{"android":"levelo://app?vid=a3e9461e-c7c8-464e-829b-21261967042e","ios":"levelo://app?vid=a3e9461e-c7c8-464e-829b-21261967042e"},"vehicle_type_id":"4","last_reported":1773337247,"current_range_meters":36400,"station_id":"ce4bh392rcd13ifvqdm0","pricing_plan_id":"cebpf4jnsgd1na2vs0mg"},{"bike_id":"2d139dbe-4a51-46ac-bf7e-5e630dc6608b","system_id":"levelo_inurba_marseille","lat":43.30921,"lon":5.38256,"is_reserved":false,"is_disabled":false,"rental_uris":{"android":"levelo://app?vid=2d139dbe-4a51-46ac-bf7e-5e630dc6608b","ios":"levelo://app?vid=2d139dbe-4a51-46ac-bf7e-5e630dc6608b"},"vehicle_type_id":"4","last_reported":1773337247,"current_range_meters":14000,"station_id":"","pricing_plan_id":"cebpf4jnsgd1na2vs0mg"},{"bike_id":"f283c710-9bcb-4e19-8eea-6c929eb07878","system_id":"levelo_inurba_marseille","lat":43.29512,"lon":5.3752,"is_reserved":false,"is_disabled":true,"rental_uris":{"android":"levelo://app?vid=f283c710-9bcb-4e19-8eea-6c929eb07878","ios":"levelo://app?vid=f283c710-9bcb-4e19-8eea-6c929eb07878"},"vehicle_type_id":"4","last_reported":1773337247,"current_range_meters":40000,"station_id":"ce4bgkp2rcd13ifvqbmg","pricing_plan_id":"cebpf4jnsgd1na2vs0mg"},{"bike_id":"b3982b51-c330-4a92-8307-b379b4c8ce54","system_id":"levelo_inurba_marseille","lat":43.31372,"lon":5.38496,"is_reserved":false,"is_disabled":false,"rental_uris":{"android":"levelo://app?vid=b3982b51-c330-4a92-8307-b379b4c8ce54","ios":"levelo://app?vid=b3982b51-c330-4a92-8307-b379b4c8ce54"},"vehicle_type_id":"4","last_reported":1773337247,"current_range_meters":7200,"station_id":"ce4bgt92rcd13ifvqcf0","pricing_plan_id":"cebpf4jnsgd1na2vs0mg"},{"bike_id":"17ce7070-d813-4eaf-a544-6259968aa271","system_id":"levelo_inurba_marseille","lat":43.31077,"lon":5.36928,"is_reserved":false,"is_disabled":false,"rental_uris":{"android":"levelo://app?vid=17ce7070-d813-4eaf-a544-6259968aa271","ios":"levelo://app?vid=17ce7070-d813-4eaf-a544-6259968aa271"},"vehicle_type_id":"4","last_reported":1773337247,"current_range_meters":4800,"station_id":"","pricing_plan_id":"cebpf4jnsgd1na2vs0mg"},{"bike_id":"bdea4757-afc1-44db-84f1-7dc81ac4fac4","system_id":"levelo_inurba_marseille","lat":43.29199,"lon":5.35776,"is_reserved":false,"is_disabled":true,"rental_uris":{"android":"levelo://app?vid=bdea4757-afc1-44db-84f1-7dc81ac4fac4","ios":"levelo://app?vid=bdea4757-afc1-44db-84f1-7dc81ac4fac4"},"vehicle_type_id":"4","last_reported":1773337247,"current_range_meters":25600,"station_id":"ce4bhb12rcd13ifvqel0","pricing_plan_id":"cebpf4jnsgd1na2vs0mg"},{"bike_id":"d646ab8d-a255-4e2a-b97b-aeed33e0a1a1","system_id":"levelo_inurba_marseille","lat":43.29194,"lon":5.35802,"is_reserved":false,"is_disabled":false,"rental_uris":{"android":"levelo://app?vid=d646ab8d-a255-4e2a-b97b-aeed33e0a1a1","ios":"levelo://app?vid=d646ab8d-a255-4e2a-b97b-aeed33e0a1a1"},"vehicle_type_id":"4","last_reported":1773337247,"current_range_meters":37600,"station_id":"ce4bhb12rcd13ifvqel0","pricing_plan_id":"cebpf4jnsgd1na2vs0mg"},{"bike_id":"566d1d1a-0852-4e0d-907b-e1334e0d6bf9","system_id":"levelo_inurba_marseille","lat":43.23784,"lon":5.36645,"is_reserved":false,"is_disabled":false,"rental_uris":{"android":"levelo://app?vid=566d1d1a-0852-4e0d-907b-e1334e0d6bf9","ios":"levelo://app?vid=566d1d1a-0852-4e0d-907b-e1334e0d6bf9"},"vehicle_type_id":"4","last_reported":1773337247,"current_range_meters":38800,"station_id":"st_d3nk18o9ro0c73en2l3g","pricing_plan_id":"cebpf4jnsgd1na2vs0mg"},{"bike_id":"244f66e9-0261-42d6-853e-ac479a182d4f","system_id":"levelo_inurba_marseille","lat":43.28432,"lon":5.35026,"is_reserved":false,"is_disabled":false,"rental_uris":{"android":"levelo://app?vid=244f66e9-0261-42d6-853e-ac479a182d4f","ios":"levelo://app?vid=244f66e9-0261-42d6-853e-ac479a182d4f"},"vehicle_type_id":"4","last_reported":1773337247,"current_range_meters":22400,"station_id":"ce4bhbh2rcd13ifvqepg","pricing_plan_id":"cebpf4jnsgd1na2vs0mg"},{"bike_id":"f96117d6-7d22-4b57-9564-78f617580e63","system_id":"levelo_inurba_marseille","lat":43.29199,"lon":5.35827,"is_reserved":false,"is_disabled":false,"rental_uris":{"android":"levelo://app?vid=f96117d6-7d22-4b57-9564-78f617580e63","ios":"levelo://app?vid=f96117d6-7d22-4b57-9564-78f617580e63"},"vehicle_type_id":"4","last_reported":1773337247,"current_range_meters":12800,"station_id":"ce4bhb12rcd13ifvqel0","pricing_plan_id":"cebpf4jnsgd1na2vs0mg"},{"bike_id":"de5143d5-3b76-4be9-9cc1-e796e6740ba3","system_id":"levelo_inurba_marseille","lat":43.29532,"lon":5.38545,"is_reserved":false,"is_disabled":false,"rental_uris":{"android":"levelo://app?vid=de5143d5-3b76-4be9-9cc1-e796e6740ba3","ios":"levelo://app?vid=de5143d5-3b76-4be9-9cc1-e796e6740ba3"},"vehicle_type_id":"4","last_reported":1773337247,"current_range_meters":28800,"station_id":"ce4bgih2rcd13ifvqba0","pricing_plan_id":"cebpf4jnsgd1na2vs0mg"},{"bike_id":"1c573354-cf53-44d3-9111-eb37080df88e","system_id":"levelo_inurba_marseille","lat":43.31569,"lon":5.37392,"is_reserved":false,"is_disabled":false,"rental_uris":{"android":"levelo://app?vid=1c573354-cf53-44d3-9111-eb37080df88e","ios":"levelo://app?vid=1c573354-cf53-44d3-9111-eb37080df88e"},"vehicle_type_id":"4","last_reported":1773337247,"current_range_meters":12000,"station_id":"","pricing_plan_id":"cebpf4jnsgd1na2vs0mg"},{"bike_id":"d46de948-bb4e-4a70-b911-cfc6e7243df5","system_id":"levelo_inurba_marseille","lat":43.25501,"lon":5.37663,"is_reserved":false,"is_disabled":false,"rental_uris":{"android":"levelo://app?vid=d46de948-bb4e-4a70-b911-cfc6e7243df5","ios":"levelo://app?vid=d46de948-bb4e-4a70-b911-cfc6e7243df5"},"vehicle_type_id":"4","last_reported":1773337247,"current_range_meters":38400,"station_id":"ce4bhh12rcd13ifvqff0","pricing_plan_id":"cebpf4jnsgd1na2vs0mg"},{"bike_id":"118f5c39-8aaa-4ebf-955d-12443e27feef","system_id":"levelo_inurba_marseille","lat":43.3055,"lon":5.36512,"is_reserved":false,"is_disabled":false,"rental_uris":{"android":"levelo://app?vid=118f5c39-8aaa-4ebf-955d-12443e27feef","ios":"levelo://app?vid=118f5c39-8aaa-4ebf-955d-12443e27feef"},"vehicle_type_id":"4","last_reported":1773337247,"current_range_meters":39200,"station_id":"ce4bgs12rcd13ifvqcag","pricing_plan_id":"cebpf4jnsgd1na2vs0mg"},{"bike_id":"290affd8-9a09-4ca7-8cc6-b1a8e5ea56f6","system_id":"levelo_inurba_marseille","lat":43.28841,"lon":5.35874,"is_reserved":false,"is_disabled":false,"rental_uris":{"android":"levelo://app?vid=290affd8-9a09-4ca7-8cc6-b1a8e5ea56f6","ios":"levelo://app?vid=290affd8-9a09-4ca7-8cc6-b1a8e5ea56f6"},"vehicle_type_id":"4","last_reported":1773337247,"current_range_meters":16800,"station_id":"ce4bhb12rcd13ifvqem0","pricing_plan_id":"cebpf4jnsgd1na2vs0mg"},{"bike_id":"b62add41-0067-43d2-b5e8-fba7c777a7a9","system_id":"levelo_inurba_marseille","lat":43.29914,"lon":5.38133,"is_reserved":false,"is_disabled":false,"rental_uris":{"android":"levelo://app?vid=b62add41-0067-43d2-b5e8-fba7c777a7a9","ios":"levelo://app?vid=b62add41-0067-43d2-b5e8-fba7c777a7a9"},"vehicle_type_id":"4","last_reported":1773337247,"current_range_meters":28800,"station_id":"ce4bgj12rcd13ifvqbc0","pricing_plan_id":"cebpf4jnsgd1na2vs0mg"},{"bike_id":"98a69b82-3426-4662-b314-8ddb62a05de5","system_id":"levelo_inurba_marseille","lat":43.30082,"lon":5.43719,"is_reserved":false,"is_disabled":false,"rental_uris":{"android":"levelo://app?vid=98a69b82-3426-4662-b314-8ddb62a05de5","ios":"levelo://app?vid=98a69b82-3426-4662-b314-8ddb62a05de5"},"vehicle_type_id":"4","last_reported":1773337247,"current_range_meters":12000,"station_id":"","pricing_plan_id":"cebpf4jnsgd1na2vs0mg"},{"bike_id":"a0758522-0d2e-4a8c-8a3b-9a02faec8c48","system_id":"levelo_inurba_marseille","lat":43.29887,"lon":5.39723,"is_reserved":false,"is_disabled":false,"rental_uris":{"android":"levelo://app?vid=a0758522-0d2e-4a8c-8a3b-9a02faec8c48","ios":"levelo://app?vid=a0758522-0d2e-4a8c-8a3b-9a02faec8c48"},"vehicle_type_id":"4","last_reported":1773337247,"current_range_meters":10000,"station_id":"ce4bh0h2rcd13ifvqd50","pricing_plan_id":"cebpf4jnsgd1na2vs0mg"},{"bike_id":"bd312d91-531c-40dc-bbfb-43191c0caff1","system_id":"levelo_inurba_marseille","lat":43.29033,"lon":5.35941,"is_reserved":false,"is_disabled":false,"rental_uris":{"android":"levelo://app?vid=bd312d91-531c-40dc-bbfb-43191c0caff1","ios":"levelo://app?vid=bd312d91-531c-40dc-bbfb-43191c0caff1"},"vehicle_type_id":"4","last_reported":1773337247,"current_range_meters":40000,"station_id":"ce4bha92rcd13ifvqeg0","pricing_plan_id":"cebpf4jnsgd1na2vs0mg"},{"bike_id":"a5eb7e2e-f45f-42c7-8ba3-bf76c2472338","system_id":"levelo_inurba_marseille","lat":43.30207,"lon":5.39438,"is_reserved":false,"is_disabled":false,"rental_uris":{"android":"levelo://app?vid=a5eb7e2e-f45f-42c7-8ba3-bf76c2472338","ios":"levelo://app?vid=a5eb7e2e-f45f-42c7-8ba3-bf76c2472338"},"vehicle_type_id":"4","last_reported":1773337247,"current_range_meters":18800,"station_id":"ce4bh0p2rcd13ifvqd70","pricing_plan_id":"cebpf4jnsgd1na2vs0mg"},{"bike_id":"3d12e3f4-6b13-4168-b577-adf07acbef79","system_id":"levelo_inurba_marseille","lat":43.29234,"lon":5.36052,"is_reserved":false,"is_disabled":false,"rental_uris":{"android":"levelo://app?vid=3d12e3f4-6b13-4168-b577-adf07acbef79","ios":"levelo://app?vid=3d12e3f4-6b13-4168-b577-adf07acbef79"},"vehicle_type_id":"4","last_reported":1773337247,"current_range_meters":38000,"station_id":"ce4bhbh2rcd13ifvqeqg","pricing_plan_id":"cebpf4jnsgd1na2vs0mg"},{"bike_id":"d4f86dd1-7803-495b-a2bf-79e281f49f4c","system_id":"levelo_inurba_marseille","lat":43.27669,"lon":5.38881,"is_reserved":false,"is_disabled":false,"rental_uris":{"android":"levelo://app?vid=d4f86dd1-7803-495b-a2bf-79e281f49f4c","ios":"levelo://app?vid=d4f86dd1-7803-495b-a2bf-79e281f49f4c"},"vehicle_type_id":"4","last_reported":1773337247,"current_range_meters":27200,"station_id":"ce4bhi12rcd13ifvqfo0","pricing_plan_id":"cebpf4jnsgd1na2vs0mg"},{"bike_id":"c2f40725-1ed9-4d1d-87ac-56a67ffd2ae7","system_id":"levelo_inurba_marseille","lat":43.26071,"lon":5.39429,"is_reserved":false,"is_disabled":false,"rental_uris":{"android":"levelo://app?vid=c2f40725-1ed9-4d1d-87ac-56a67ffd2ae7","ios":"levelo://app?vid=c2f40725-1ed9-4d1d-87ac-56a67ffd2ae7"},"vehicle_type_id":"4","last_reported":1773337247,"current_range_meters":16800,"station_id":"ce4bhh92rcd13ifvqfj0","pricing_plan_id":"cebpf4jnsgd1na2vs0mg"},{"bike_id":"caff2fe0-6dec-4b83-be73-6a8e7875a7ba","system_id":"levelo_inurba_marseille","lat":43.27326,"lon":5.39095,"is_reserved":false,"is_disabled":false,"rental_uris":{"android":"levelo://app?vid=caff2fe0-6dec-4b83-be73-6a8e7875a7ba","ios":"levelo://app?vid=caff2fe0-6dec-4b83-be73-6a8e7875a7ba"},"vehicle_type_id":"4","last_reported":1773337247,"current_range_meters":12000,"station_id":"ce4bhgp2rcd13ifvqfe0","pricing_plan_id":"cebpf4jnsgd1na2vs0mg"},{"bike_id":"e89f4a2a-fc0d-495d-8db2-11f8bd8a97c8","system_id":"levelo_inurba_marseille","lat":43.26228,"lon":5.37448,"is_reserved":false,"is_disabled":false,"rental_uris":{"android":"levelo://app?vid=e89f4a2a-fc0d-495d-8db2-11f8bd8a97c8","ios":"levelo://app?vid=e89f4a2a-fc0d-495d-8db2-11f8bd8a97c8"},"vehicle_type_id":"4","last_reported":1773337247,"current_range_meters":27600,"station_id":"","pricing_plan_id":"cebpf4jnsgd1na2vs0mg"},{"bike_id":"3d7b1bec-2a06-47da-a7d0-796cda99d14f","system_id":"levelo_inurba_marseille","lat":43.27072,"lon":5.38303,"is_reserved":false,"is_disabled":false,"rental_uris":{"android":"levelo://app?vid=3d7b1bec-2a06-47da-a7d0-796cda99d14f","ios":"levelo://app?vid=3d7b1bec-2a06-47da-a7d0-796cda99d14f"},"vehicle_type_id":"4","last_reported":1773337247,"current_range_meters":16800,"station_id":"st_d3n2fo6cfp8s73cte1j0","pricing_plan_id":"cebpf4jnsgd1na2vs0mg"},{"bike_id":"c4df1a61-e01d-45f1-8a2c-1b9372fc7a1b","system_id":"levelo_inurba_marseille","lat":43.30316,"lon":5.3689,"is_reserved":false,"is_disabled":false,"rental_uris":{"android":"levelo://app?vid=c4df1a61-e01d-45f1-8a2c-1b9372fc7a1b","ios":"levelo://app?vid=c4df1a61-e01d-45f1-8a2c-1b9372fc7a1b"},"vehicle_type_id":"4","last_reported":1773337247,"current_range_meters":19200,"station_id":"ce4bgqh2rcd13ifvqc5g","pricing_plan_id":"cebpf4jnsgd1na2vs0mg"},{"bike_id":"58050a15-c5ad-4992-9d53-ca68c740d72b","system_id":"levelo_inurba_marseille","lat":43.30303,"lon":5.39216,"is_reserved":false,"is_disabled":true,"rental_uris":{"android":"levelo://app?vid=58050a15-c5ad-4992-9d53-ca68c740d72b","ios":"levelo://app?vid=58050a15-c5ad-4992-9d53-ca68c740d72b"},"vehicle_type_id":"4","last_reported":1773337247,"current_range_meters":22000,"station_id":"ce4bgkh2rcd13ifvqbk0","pricing_plan_id":"cebpf4jnsgd1na2vs0mg"},{"bike_id":"988db3b8-861f-418c-a7ec-7ae78131696e","system_id":"levelo_inurba_marseille","lat":43.24669,"lon":5.4334,"is_reserved":false,"is_disabled":false,"rental_uris":{"android":"levelo://app?vid=988db3b8-861f-418c-a7ec-7ae78131696e","ios":"levelo://app?vid=988db3b8-861f-418c-a7ec-7ae78131696e"},"vehicle_type_id":"4","last_reported":1773337247,"current_range_meters":25600,"station_id":"","pricing_plan_id":"cebpf4jnsgd1na2vs0mg"},{"bike_id":"6ff7462e-3b3e-469a-94fb-7de30aee7d3d","system_id":"levelo_inurba_marseille","lat":43.29982,"lon":5.37168,"is_reserved":false,"is_disabled":false,"rental_uris":{"android":"levelo://app?vid=6ff7462e-3b3e-469a-94fb-7de30aee7d3d","ios":"levelo://app?vid=6ff7462e-3b3e-469a-94fb-7de30aee7d3d"},"vehicle_type_id":"4","last_reported":1773337247,"current_range_meters":30400,"station_id":"ce4bgr92rcd13ifvqc7g","pricing_plan_id":"cebpf4jnsgd1na2vs0mg"},{"bike_id":"dd854777-f378-4132-94e6-63027cc18b82","system_id":"levelo_inurba_marseille","lat":43.29727,"lon":5.41059,"is_reserved":false,"is_disabled":false,"rental_uris":{"android":"levelo://app?vid=dd854777-f378-4132-94e6-63027cc18b82","ios":"levelo://app?vid=dd854777-f378-4132-94e6-63027cc18b82"},"vehicle_type_id":"4","last_reported":1773337247,"current_range_meters":23200,"station_id":"","pricing_plan_id":"cebpf4jnsgd1na2vs0mg"},{"bike_id":"8834cff0-6eb6-47a0-89df-f92f2d188784","system_id":"levelo_inurba_marseille","lat":43.29643,"lon":5.38786,"is_reserved":false,"is_disabled":false,"rental_uris":{"android":"levelo://app?vid=8834cff0-6eb6-47a0-89df-f92f2d188784","ios":"levelo://app?vid=8834cff0-6eb6-47a0-89df-f92f2d188784"},"vehicle_type_id":"4","last_reported":1773337247,"current_range_meters":27200,"station_id":"","pricing_plan_id":"cebpf4jnsgd1na2vs0mg"},{"bike_id":"35a82536-c165-4433-a2e7-59ec0df78006","system_id":"levelo_inurba_marseille","lat":43.32371,"lon":5.3887,"is_reserved":false,"is_disabled":false,"rental_uris":{"android":"levelo://app?vid=35a82536-c165-4433-a2e7-59ec0df78006","ios":"levelo://app?vid=35a82536-c165-4433-a2e7-59ec0df78006"},"vehicle_type_id":"4","last_reported":1773337247,"current_range_meters":4000,"station_id":"ce4bhqp2rcd13ifvqhog","pricing_plan_id":"cebpf4jnsgd1na2vs0mg"},{"bike_id":"85b5b118-e47b-4adc-aa0c-e9bbc2d708e9","system_id":"levelo_inurba_marseille","lat":43.27402,"lon":5.4247,"is_reserved":false,"is_disabled":false,"rental_uris":{"android":"levelo://app?vid=85b5b118-e47b-4adc-aa0c-e9bbc2d708e9","ios":"levelo://app?vid=85b5b118-e47b-4adc-aa0c-e9bbc2d708e9"},"vehicle_type_id":"4","last_reported":1773337247,"current_range_meters":17600,"station_id":"","pricing_plan_id":"cebpf4jnsgd1na2vs0mg"},{"bike_id":"a91e0931-a2a2-4627-a6e4-e0e5fe1ad6b0","system_id":"levelo_inurba_marseille","lat":43.29283,"lon":5.36832,"is_reserved":false,"is_disabled":false,"rental_uris":{"android":"levelo://app?vid=a91e0931-a2a2-4627-a6e4-e0e5fe1ad6b0","ios":"levelo://app?vid=a91e0931-a2a2-4627-a6e4-e0e5fe1ad6b0"},"vehicle_type_id":"4","last_reported":1773337247,"current_range_meters":13600,"station_id":"ce4bhbp2rcd13ifvqesg","pricing_plan_id":"cebpf4jnsgd1na2vs0mg"},{"bike_id":"532f1fe9-6384-4056-88f3-ddfdd084688a","system_id":"levelo_inurba_marseille","lat":43.28979,"lon":5.42582,"is_reserved":false,"is_disabled":false,"rental_uris":{"android":"levelo://app?vid=532f1fe9-6384-4056-88f3-ddfdd084688a","ios":"levelo://app?vid=532f1fe9-6384-4056-88f3-ddfdd084688a"},"vehicle_type_id":"4","last_reported":1773337247,"current_range_meters":30000,"station_id":"","pricing_plan_id":"cebpf4jnsgd1na2vs0mg"},{"bike_id":"08506998-8ae7-4962-89f3-6ccd37448f52","system_id":"levelo_inurba_marseille","lat":43.29284,"lon":5.36843,"is_reserved":false,"is_disabled":false,"rental_uris":{"android":"levelo://app?vid=08506998-8ae7-4962-89f3-6ccd37448f52","ios":"levelo://app?vid=08506998-8ae7-4962-89f3-6ccd37448f52"},"vehicle_type_id":"4","last_reported":1773337247,"current_range_meters":8800,"station_id":"ce4bhbp2rcd13ifvqesg","pricing_plan_id":"cebpf4jnsgd1na2vs0mg"},{"bike_id":"fc4795bd-7fd3-4c14-9a9b-bcc5f999d4b0","system_id":"levelo_inurba_marseille","lat":43.23962,"lon":5.36629,"is_reserved":false,"is_disabled":false,"rental_uris":{"android":"levelo://app?vid=fc4795bd-7fd3-4c14-9a9b-bcc5f999d4b0","ios":"levelo://app?vid=fc4795bd-7fd3-4c14-9a9b-bcc5f999d4b0"},"vehicle_type_id":"4","last_reported":1773337247,"current_range_meters":32400,"station_id":"ce4bhi12rcd13ifvqfp0","pricing_plan_id":"cebpf4jnsgd1na2vs0mg"},{"bike_id":"99597b66-6151-4f1b-a235-41d837241238","system_id":"levelo_inurba_marseille","lat":43.29294,"lon":5.37456,"is_reserved":false,"is_disabled":false,"rental_uris":{"android":"levelo://app?vid=99597b66-6151-4f1b-a235-41d837241238","ios":"levelo://app?vid=99597b66-6151-4f1b-a235-41d837241238"},"vehicle_type_id":"4","last_reported":1773337247,"current_range_meters":22800,"station_id":"ce4bgi12rcd13ifvqb70","pricing_plan_id":"cebpf4jnsgd1na2vs0mg"},{"bike_id":"087bf67e-da99-4e0f-bc65-642b2288c7a5","system_id":"levelo_inurba_marseille","lat":43.25501,"lon":5.37659,"is_reserved":false,"is_disabled":false,"rental_uris":{"android":"levelo://app?vid=087bf67e-da99-4e0f-bc65-642b2288c7a5","ios":"levelo://app?vid=087bf67e-da99-4e0f-bc65-642b2288c7a5"},"vehicle_type_id":"4","last_reported":1773337247,"current_range_meters":39200,"station_id":"ce4bhh12rcd13ifvqff0","pricing_plan_id":"cebpf4jnsgd1na2vs0mg"},{"bike_id":"714b8057-ec12-4240-acd3-7f97fc6b2ebc","system_id":"levelo_inurba_marseille","lat":43.29783,"lon":5.37114,"is_reserved":false,"is_disabled":false,"rental_uris":{"android":"levelo://app?vid=714b8057-ec12-4240-acd3-7f97fc6b2ebc","ios":"levelo://app?vid=714b8057-ec12-4240-acd3-7f97fc6b2ebc"},"vehicle_type_id":"4","last_reported":1773337247,"current_range_meters":16000,"station_id":"ce4bgop2rcd13ifvqc1g","pricing_plan_id":"cebpf4jnsgd1na2vs0mg"},{"bike_id":"937425a6-6b1f-4d7a-a720-58bd8c05238c","system_id":"levelo_inurba_marseille","lat":43.29392,"lon":5.37907,"is_reserved":false,"is_disabled":false,"rental_uris":{"android":"levelo://app?vid=937425a6-6b1f-4d7a-a720-58bd8c05238c","ios":"levelo://app?vid=937425a6-6b1f-4d7a-a720-58bd8c05238c"},"vehicle_type_id":"4","last_reported":1773337247,"current_range_meters":35200,"station_id":"","pricing_plan_id":"cebpf4jnsgd1na2vs0mg"},{"bike_id":"64987c27-f305-4d9c-82ad-26bef65383d9","system_id":"levelo_inurba_marseille","lat":43.27991,"lon":5.41682,"is_reserved":false,"is_disabled":false,"rental_uris":{"android":"levelo://app?vid=64987c27-f305-4d9c-82ad-26bef65383d9","ios":"levelo://app?vid=64987c27-f305-4d9c-82ad-26bef65383d9"},"vehicle_type_id":"4","last_reported":1773337247,"current_range_meters":12800,"station_id":"ce4bho12rcd13ifvqh1g","pricing_plan_id":"cebpf4jnsgd1na2vs0mg"},{"bike_id":"6cf69a24-5ec7-4b17-89bc-6270fd471c23","system_id":"levelo_inurba_marseille","lat":43.29023,"lon":5.35632,"is_reserved":false,"is_disabled":false,"rental_uris":{"android":"levelo://app?vid=6cf69a24-5ec7-4b17-89bc-6270fd471c23","ios":"levelo://app?vid=6cf69a24-5ec7-4b17-89bc-6270fd471c23"},"vehicle_type_id":"4","last_reported":1773337247,"current_range_meters":22400,"station_id":"ce4bhb92rcd13ifvqen0","pricing_plan_id":"cebpf4jnsgd1na2vs0mg"},{"bike_id":"9ef5200f-9014-497d-be16-41d4d67c6e84","system_id":"levelo_inurba_marseille","lat":43.30551,"lon":5.36728,"is_reserved":false,"is_disabled":false,"rental_uris":{"android":"levelo://app?vid=9ef5200f-9014-497d-be16-41d4d67c6e84","ios":"levelo://app?vid=9ef5200f-9014-497d-be16-41d4d67c6e84"},"vehicle_type_id":"4","last_reported":1773337247,"current_range_meters":29600,"station_id":"ce4bgrp2rcd13ifvqc9g","pricing_plan_id":"cebpf4jnsgd1na2vs0mg"},{"bike_id":"b94c3b6d-7912-4bb7-bd16-b874ff101a3d","system_id":"levelo_inurba_marseille","lat":43.24805,"lon":5.37454,"is_reserved":false,"is_disabled":false,"rental_uris":{"android":"levelo://app?vid=b94c3b6d-7912-4bb7-bd16-b874ff101a3d","ios":"levelo://app?vid=b94c3b6d-7912-4bb7-bd16-b874ff101a3d"},"vehicle_type_id":"4","last_reported":1773337247,"current_range_meters":25200,"station_id":"ce4bhgh2rcd13ifvqfb0","pricing_plan_id":"cebpf4jnsgd1na2vs0mg"},{"bike_id":"54afb379-a9b4-4af3-8a9e-239b9433228c","system_id":"levelo_inurba_marseille","lat":43.29901,"lon":5.43681,"is_reserved":false,"is_disabled":false,"rental_uris":{"android":"levelo://app?vid=54afb379-a9b4-4af3-8a9e-239b9433228c","ios":"levelo://app?vid=54afb379-a9b4-4af3-8a9e-239b9433228c"},"vehicle_type_id":"4","last_reported":1773337247,"current_range_meters":28400,"station_id":"ce4bhpp2rcd13ifvqhfg","pricing_plan_id":"cebpf4jnsgd1na2vs0mg"},{"bike_id":"1866c223-50ab-4283-b8a6-28a247e511e9","system_id":"levelo_inurba_marseille","lat":43.32756,"lon":5.36736,"is_reserved":false,"is_disabled":false,"rental_uris":{"android":"levelo://app?vid=1866c223-50ab-4283-b8a6-28a247e511e9","ios":"levelo://app?vid=1866c223-50ab-4283-b8a6-28a247e511e9"},"vehicle_type_id":"4","last_reported":1773337247,"current_range_meters":38400,"station_id":"","pricing_plan_id":"cebpf4jnsgd1na2vs0mg"},{"bike_id":"df0164ff-f266-403f-b83d-541cde209531","system_id":"levelo_inurba_marseille","lat":43.29048,"lon":5.35932,"is_reserved":false,"is_disabled":false,"rental_uris":{"android":"levelo://app?vid=df0164ff-f266-403f-b83d-541cde209531","ios":"levelo://app?vid=df0164ff-f266-403f-b83d-541cde209531"},"vehicle_type_id":"4","last_reported":1773337247,"current_range_meters":6000,"station_id":"ce4bha92rcd13ifvqeg0","pricing_plan_id":"cebpf4jnsgd1na2vs0mg"},{"bike_id":"2ef971ec-57ba-430a-9e3f-a5cf23d46119","system_id":"levelo_inurba_marseille","lat":43.29576,"lon":5.39966,"is_reserved":false,"is_disabled":false,"rental_uris":{"android":"levelo://app?vid=2ef971ec-57ba-430a-9e3f-a5cf23d46119","ios":"levelo://app?vid=2ef971ec-57ba-430a-9e3f-a5cf23d46119"},"vehicle_type_id":"4","last_reported":1773337247,"current_range_meters":11600,"station_id":"ce4bh312rcd13ifvqdj0","pricing_plan_id":"cebpf4jnsgd1na2vs0mg"},{"bike_id":"74cb2b6f-9305-47f1-bb68-6c880d035389","system_id":"levelo_inurba_marseille","lat":43.29644,"lon":5.37151,"is_reserved":false,"is_disabled":false,"rental_uris":{"android":"levelo://app?vid=74cb2b6f-9305-47f1-bb68-6c880d035389","ios":"levelo://app?vid=74cb2b6f-9305-47f1-bb68-6c880d035389"},"vehicle_type_id":"4","last_reported":1773337247,"current_range_meters":39200,"station_id":"ce4bgnh2rcd13ifvqc0g","pricing_plan_id":"cebpf4jnsgd1na2vs0mg"},{"bike_id":"85027943-df55-416f-9da1-ea4ca84b0bd0","system_id":"levelo_inurba_marseille","lat":43.29189,"lon":5.37159,"is_reserved":false,"is_disabled":false,"rental_uris":{"android":"levelo://app?vid=85027943-df55-416f-9da1-ea4ca84b0bd0","ios":"levelo://app?vid=85027943-df55-416f-9da1-ea4ca84b0bd0"},"vehicle_type_id":"4","last_reported":1773337247,"current_range_meters":36000,"station_id":"ce4bha92rcd13ifvqeh0","pricing_plan_id":"cebpf4jnsgd1na2vs0mg"},{"bike_id":"d0eebcb7-9745-4c49-a9e4-a6e32a030f1c","system_id":"levelo_inurba_marseille","lat":43.25574,"lon":5.38244,"is_reserved":false,"is_disabled":false,"rental_uris":{"android":"levelo://app?vid=d0eebcb7-9745-4c49-a9e4-a6e32a030f1c","ios":"levelo://app?vid=d0eebcb7-9745-4c49-a9e4-a6e32a030f1c"},"vehicle_type_id":"4","last_reported":1773337247,"current_range_meters":30000,"station_id":"ce4bhih2rcd13ifvqfs0","pricing_plan_id":"cebpf4jnsgd1na2vs0mg"},{"bike_id":"d2bcd2b3-b9c0-44b8-b65e-328220c5307e","system_id":"levelo_inurba_marseille","lat":43.29116,"lon":5.43276,"is_reserved":false,"is_disabled":false,"rental_uris":{"android":"levelo://app?vid=d2bcd2b3-b9c0-44b8-b65e-328220c5307e","ios":"levelo://app?vid=d2bcd2b3-b9c0-44b8-b65e-328220c5307e"},"vehicle_type_id":"4","last_reported":1773337247,"current_range_meters":39200,"station_id":"","pricing_plan_id":"cebpf4jnsgd1na2vs0mg"},{"bike_id":"801e310e-d83e-452a-827b-f0f43a0c1cca","system_id":"levelo_inurba_marseille","lat":43.28183,"lon":5.42618,"is_reserved":false,"is_disabled":false,"rental_uris":{"android":"levelo://app?vid=801e310e-d83e-452a-827b-f0f43a0c1cca","ios":"levelo://app?vid=801e310e-d83e-452a-827b-f0f43a0c1cca"},"vehicle_type_id":"4","last_reported":1773337247,"current_range_meters":23200,"station_id":"ce4bhnh2rcd13ifvqgug","pricing_plan_id":"cebpf4jnsgd1na2vs0mg"},{"bike_id":"a50db47c-b4f2-4a58-ae7d-0a4f7384612e","system_id":"levelo_inurba_marseille","lat":43.29894,"lon":5.37549,"is_reserved":false,"is_disabled":false,"rental_uris":{"android":"levelo://app?vid=a50db47c-b4f2-4a58-ae7d-0a4f7384612e","ios":"levelo://app?vid=a50db47c-b4f2-4a58-ae7d-0a4f7384612e"},"vehicle_type_id":"4","last_reported":1773337247,"current_range_meters":32000,"station_id":"","pricing_plan_id":"cebpf4jnsgd1na2vs0mg"},{"bike_id":"896440e6-cef8-4268-bb86-ac2c6e2de747","system_id":"levelo_inurba_marseille","lat":43.28484,"lon":5.48398,"is_reserved":false,"is_disabled":false,"rental_uris":{"android":"levelo://app?vid=896440e6-cef8-4268-bb86-ac2c6e2de747","ios":"levelo://app?vid=896440e6-cef8-4268-bb86-ac2c6e2de747"},"vehicle_type_id":"4","last_reported":1773337247,"current_range_meters":29600,"station_id":"","pricing_plan_id":"cebpf4jnsgd1na2vs0mg"},{"bike_id":"2c1215f2-9624-4e50-bbbb-a53264cdd31e","system_id":"levelo_inurba_marseille","lat":43.28476,"lon":5.48394,"is_reserved":false,"is_disabled":false,"rental_uris":{"android":"levelo://app?vid=2c1215f2-9624-4e50-bbbb-a53264cdd31e","ios":"levelo://app?vid=2c1215f2-9624-4e50-bbbb-a53264cdd31e"},"vehicle_type_id":"4","last_reported":1773337247,"current_range_meters":16800,"station_id":"","pricing_plan_id":"cebpf4jnsgd1na2vs0mg"},{"bike_id":"c1db54c2-038e-4f3d-a503-c0e3fc6c96ed","system_id":"levelo_inurba_marseille","lat":43.33539,"lon":5.37474,"is_reserved":false,"is_disabled":false,"rental_uris":{"android":"levelo://app?vid=c1db54c2-038e-4f3d-a503-c0e3fc6c96ed","ios":"levelo://app?vid=c1db54c2-038e-4f3d-a503-c0e3fc6c96ed"},"vehicle_type_id":"4","last_reported":1773337247,"current_range_meters":14800,"station_id":"st_d46tts09ee8s73dlu43g","pricing_plan_id":"cebpf4jnsgd1na2vs0mg"},{"bike_id":"a0ab89fd-d4e3-4039-8377-577b0acf001d","system_id":"levelo_inurba_marseille","lat":43.2437,"lon":5.44102,"is_reserved":false,"is_disabled":true,"rental_uris":{"android":"levelo://app?vid=a0ab89fd-d4e3-4039-8377-577b0acf001d","ios":"levelo://app?vid=a0ab89fd-d4e3-4039-8377-577b0acf001d"},"vehicle_type_id":"4","last_reported":1773337247,"current_range_meters":8400,"station_id":"","pricing_plan_id":"cebpf4jnsgd1na2vs0mg"},{"bike_id":"a5f0fcf2-4428-466f-8d7e-9ffbba7bbbc4","system_id":"levelo_inurba_marseille","lat":43.29877,"lon":5.3976,"is_reserved":false,"is_disabled":false,"rental_uris":{"android":"levelo://app?vid=a5f0fcf2-4428-466f-8d7e-9ffbba7bbbc4","ios":"levelo://app?vid=a5f0fcf2-4428-466f-8d7e-9ffbba7bbbc4"},"vehicle_type_id":"4","last_reported":1773337247,"current_range_meters":17200,"station_id":"ce4bh0h2rcd13ifvqd50","pricing_plan_id":"cebpf4jnsgd1na2vs0mg"},{"bike_id":"48095d59-6ef5-49df-85b8-b58fde43fb8e","system_id":"levelo_inurba_marseille","lat":43.29062,"lon":5.35883,"is_reserved":false,"is_disabled":false,"rental_uris":{"android":"levelo://app?vid=48095d59-6ef5-49df-85b8-b58fde43fb8e","ios":"levelo://app?vid=48095d59-6ef5-49df-85b8-b58fde43fb8e"},"vehicle_type_id":"4","last_reported":1773337247,"current_range_meters":38400,"station_id":"ce4bha92rcd13ifvqeg0","pricing_plan_id":"cebpf4jnsgd1na2vs0mg"},{"bike_id":"074abf32-ac3f-4657-8880-be02438a7ff0","system_id":"levelo_inurba_marseille","lat":43.23192,"lon":5.40097,"is_reserved":false,"is_disabled":false,"rental_uris":{"android":"levelo://app?vid=074abf32-ac3f-4657-8880-be02438a7ff0","ios":"levelo://app?vid=074abf32-ac3f-4657-8880-be02438a7ff0"},"vehicle_type_id":"4","last_reported":1773337247,"current_range_meters":39200,"station_id":"ce4bhn12rcd13ifvqgqg","pricing_plan_id":"cebpf4jnsgd1na2vs0mg"},{"bike_id":"1d76b193-80b6-44cd-abfe-591258883bf0","system_id":"levelo_inurba_marseille","lat":43.265685,"lon":5.40331,"is_reserved":false,"is_disabled":false,"rental_uris":{"android":"levelo://app?vid=1d76b193-80b6-44cd-abfe-591258883bf0","ios":"levelo://app?vid=1d76b193-80b6-44cd-abfe-591258883bf0"},"vehicle_type_id":"4","last_reported":1773337247,"current_range_meters":35200,"station_id":"ce4bhmp2rcd13ifvqgng","pricing_plan_id":"cebpf4jnsgd1na2vs0mg"},{"bike_id":"e8b7d766-9ece-4870-a1b8-5b316a1b8e67","system_id":"levelo_inurba_marseille","lat":43.2257,"lon":5.41619,"is_reserved":false,"is_disabled":false,"rental_uris":{"android":"levelo://app?vid=e8b7d766-9ece-4870-a1b8-5b316a1b8e67","ios":"levelo://app?vid=e8b7d766-9ece-4870-a1b8-5b316a1b8e67"},"vehicle_type_id":"4","last_reported":1773337247,"current_range_meters":14000,"station_id":"st_d2o4gvlbi1j2169b742g","pricing_plan_id":"cebpf4jnsgd1na2vs0mg"},{"bike_id":"d6e33741-be01-4184-a659-f0a031ff17ef","system_id":"levelo_inurba_marseille","lat":43.28233,"lon":5.39102,"is_reserved":false,"is_disabled":true,"rental_uris":{"android":"levelo://app?vid=d6e33741-be01-4184-a659-f0a031ff17ef","ios":"levelo://app?vid=d6e33741-be01-4184-a659-f0a031ff17ef"},"vehicle_type_id":"4","last_reported":1773337247,"current_range_meters":38000,"station_id":"ce4bhn92rcd13ifvqgsg","pricing_plan_id":"cebpf4jnsgd1na2vs0mg"},{"bike_id":"b79e1074-e7ce-41aa-b737-6997a6dd9930","system_id":"levelo_inurba_marseille","lat":43.28489,"lon":5.38422,"is_reserved":false,"is_disabled":true,"rental_uris":{"android":"levelo://app?vid=b79e1074-e7ce-41aa-b737-6997a6dd9930","ios":"levelo://app?vid=b79e1074-e7ce-41aa-b737-6997a6dd9930"},"vehicle_type_id":"4","last_reported":1773337247,"current_range_meters":0,"station_id":"ce4bh512rcd13ifvqe3g","pricing_plan_id":"cebpf4jnsgd1na2vs0mg"},{"bike_id":"e6d387b1-5b56-40d8-ac0f-550762b993ef","system_id":"levelo_inurba_marseille","lat":43.28422,"lon":5.34987,"is_reserved":false,"is_disabled":false,"rental_uris":{"android":"levelo://app?vid=e6d387b1-5b56-40d8-ac0f-550762b993ef","ios":"levelo://app?vid=e6d387b1-5b56-40d8-ac0f-550762b993ef"},"vehicle_type_id":"4","last_reported":1773337247,"current_range_meters":16400,"station_id":"ce4bhbh2rcd13ifvqepg","pricing_plan_id":"cebpf4jnsgd1na2vs0mg"},{"bike_id":"24e39cc1-8412-47be-81a7-dccf2b449598","system_id":"levelo_inurba_marseille","lat":43.26493,"lon":5.39551,"is_reserved":false,"is_disabled":false,"rental_uris":{"android":"levelo://app?vid=24e39cc1-8412-47be-81a7-dccf2b449598","ios":"levelo://app?vid=24e39cc1-8412-47be-81a7-dccf2b449598"},"vehicle_type_id":"4","last_reported":1773337247,"current_range_meters":13600,"station_id":"ce4bhi12rcd13ifvqfq0","pricing_plan_id":"cebpf4jnsgd1na2vs0mg"},{"bike_id":"aebc5f94-38dd-4a35-9828-a488d8c95747","system_id":"levelo_inurba_marseille","lat":43.31109,"lon":5.37775,"is_reserved":false,"is_disabled":false,"rental_uris":{"android":"levelo://app?vid=aebc5f94-38dd-4a35-9828-a488d8c95747","ios":"levelo://app?vid=aebc5f94-38dd-4a35-9828-a488d8c95747"},"vehicle_type_id":"4","last_reported":1773337247,"current_range_meters":8000,"station_id":"ce4bgt92rcd13ifvqcg0","pricing_plan_id":"cebpf4jnsgd1na2vs0mg"},{"bike_id":"e50c6797-fb66-441b-97d0-c7fbbc3eb9c6","system_id":"levelo_inurba_marseille","lat":43.31712,"lon":5.43706,"is_reserved":false,"is_disabled":false,"rental_uris":{"android":"levelo://app?vid=e50c6797-fb66-441b-97d0-c7fbbc3eb9c6","ios":"levelo://app?vid=e50c6797-fb66-441b-97d0-c7fbbc3eb9c6"},"vehicle_type_id":"4","last_reported":1773337247,"current_range_meters":25200,"station_id":"ce4bhp92rcd13ifvqhcg","pricing_plan_id":"cebpf4jnsgd1na2vs0mg"},{"bike_id":"d936ee88-e6c5-41eb-94c9-c0f089a32b91","system_id":"levelo_inurba_marseille","lat":43.31201,"lon":5.37713,"is_reserved":false,"is_disabled":false,"rental_uris":{"android":"levelo://app?vid=d936ee88-e6c5-41eb-94c9-c0f089a32b91","ios":"levelo://app?vid=d936ee88-e6c5-41eb-94c9-c0f089a32b91"},"vehicle_type_id":"4","last_reported":1773337247,"current_range_meters":28400,"station_id":"","pricing_plan_id":"cebpf4jnsgd1na2vs0mg"},{"bike_id":"6f0a3cc3-6813-4500-a3c6-047f7386dff2","system_id":"levelo_inurba_marseille","lat":43.27191,"lon":5.40985,"is_reserved":false,"is_disabled":false,"rental_uris":{"android":"levelo://app?vid=6f0a3cc3-6813-4500-a3c6-047f7386dff2","ios":"levelo://app?vid=6f0a3cc3-6813-4500-a3c6-047f7386dff2"},"vehicle_type_id":"4","last_reported":1773337247,"current_range_meters":39200,"station_id":"ce4bhl12rcd13ifvqgf0","pricing_plan_id":"cebpf4jnsgd1na2vs0mg"},{"bike_id":"32b684b7-3640-47f9-bfce-a76662d6b72a","system_id":"levelo_inurba_marseille","lat":43.28971,"lon":5.37848,"is_reserved":false,"is_disabled":false,"rental_uris":{"android":"levelo://app?vid=32b684b7-3640-47f9-bfce-a76662d6b72a","ios":"levelo://app?vid=32b684b7-3640-47f9-bfce-a76662d6b72a"},"vehicle_type_id":"4","last_reported":1773337247,"current_range_meters":6400,"station_id":"ce4bh9p2rcd13ifvqed0","pricing_plan_id":"cebpf4jnsgd1na2vs0mg"},{"bike_id":"7c5d90d1-8ba7-4d11-a859-9263fa5d367b","system_id":"levelo_inurba_marseille","lat":43.337444,"lon":5.374475,"is_reserved":false,"is_disabled":true,"rental_uris":{"android":"levelo://app?vid=7c5d90d1-8ba7-4d11-a859-9263fa5d367b","ios":"levelo://app?vid=7c5d90d1-8ba7-4d11-a859-9263fa5d367b"},"vehicle_type_id":"4","last_reported":1773337247,"current_range_meters":6400,"station_id":"","pricing_plan_id":"cebpf4jnsgd1na2vs0mg"},{"bike_id":"1fdc5e31-482d-45cd-b868-48b238ba2e13","system_id":"levelo_inurba_marseille","lat":43.29449,"lon":5.39737,"is_reserved":false,"is_disabled":false,"rental_uris":{"android":"levelo://app?vid=1fdc5e31-482d-45cd-b868-48b238ba2e13","ios":"levelo://app?vid=1fdc5e31-482d-45cd-b868-48b238ba2e13"},"vehicle_type_id":"4","last_reported":1773337247,"current_range_meters":22400,"station_id":"ce4bh3h2rcd13ifvqdo0","pricing_plan_id":"cebpf4jnsgd1na2vs0mg"},{"bike_id":"e039f144-1df4-4a8b-8eff-9d9c89994020","system_id":"levelo_inurba_marseille","lat":43.29973,"lon":5.38493,"is_reserved":false,"is_disabled":true,"rental_uris":{"android":"levelo://app?vid=e039f144-1df4-4a8b-8eff-9d9c89994020","ios":"levelo://app?vid=e039f144-1df4-4a8b-8eff-9d9c89994020"},"vehicle_type_id":"4","last_reported":1773337247,"current_range_meters":0,"station_id":"ce4bgj92rcd13ifvqbd0","pricing_plan_id":"cebpf4jnsgd1na2vs0mg"},{"bike_id":"9554f1d0-5d82-4f78-b38d-fedeeced7d79","system_id":"levelo_inurba_marseille","lat":43.2993,"lon":5.36553,"is_reserved":false,"is_disabled":false,"rental_uris":{"android":"levelo://app?vid=9554f1d0-5d82-4f78-b38d-fedeeced7d79","ios":"levelo://app?vid=9554f1d0-5d82-4f78-b38d-fedeeced7d79"},"vehicle_type_id":"4","last_reported":1773337247,"current_range_meters":22000,"station_id":"ce4bgm92rcd13ifvqbr0","pricing_plan_id":"cebpf4jnsgd1na2vs0mg"},{"bike_id":"f62cbee2-12e5-4cdd-bfbc-04088f9f32fa","system_id":"levelo_inurba_marseille","lat":43.28488,"lon":5.48392,"is_reserved":false,"is_disabled":false,"rental_uris":{"android":"levelo://app?vid=f62cbee2-12e5-4cdd-bfbc-04088f9f32fa","ios":"levelo://app?vid=f62cbee2-12e5-4cdd-bfbc-04088f9f32fa"},"vehicle_type_id":"4","last_reported":1773337247,"current_range_meters":15200,"station_id":"","pricing_plan_id":"cebpf4jnsgd1na2vs0mg"},{"bike_id":"417f56ab-a693-48a1-9a01-08fefab7c6bf","system_id":"levelo_inurba_marseille","lat":43.2889,"lon":5.3802,"is_reserved":false,"is_disabled":false,"rental_uris":{"android":"levelo://app?vid=417f56ab-a693-48a1-9a01-08fefab7c6bf","ios":"levelo://app?vid=417f56ab-a693-48a1-9a01-08fefab7c6bf"},"vehicle_type_id":"4","last_reported":1773337247,"current_range_meters":8000,"station_id":"","pricing_plan_id":"cebpf4jnsgd1na2vs0mg"},{"bike_id":"d2bea801-28aa-4b1a-a07b-00a4fc8e33d4","system_id":"levelo_inurba_marseille","lat":43.26067,"lon":5.39384,"is_reserved":false,"is_disabled":false,"rental_uris":{"android":"levelo://app?vid=d2bea801-28aa-4b1a-a07b-00a4fc8e33d4","ios":"levelo://app?vid=d2bea801-28aa-4b1a-a07b-00a4fc8e33d4"},"vehicle_type_id":"4","last_reported":1773337247,"current_range_meters":16000,"station_id":"ce4bhh92rcd13ifvqfj0","pricing_plan_id":"cebpf4jnsgd1na2vs0mg"},{"bike_id":"8a1abf3f-cc2b-42bf-b1b6-ce8af145558d","system_id":"levelo_inurba_marseille","lat":43.30938,"lon":5.41081,"is_reserved":false,"is_disabled":false,"rental_uris":{"android":"levelo://app?vid=8a1abf3f-cc2b-42bf-b1b6-ce8af145558d","ios":"levelo://app?vid=8a1abf3f-cc2b-42bf-b1b6-ce8af145558d"},"vehicle_type_id":"4","last_reported":1773337247,"current_range_meters":35200,"station_id":"","pricing_plan_id":"cebpf4jnsgd1na2vs0mg"},{"bike_id":"4cfdf33d-163c-4b72-910a-a432fa45a4d9","system_id":"levelo_inurba_marseille","lat":43.29035,"lon":5.39972,"is_reserved":false,"is_disabled":false,"rental_uris":{"android":"levelo://app?vid=4cfdf33d-163c-4b72-910a-a432fa45a4d9","ios":"levelo://app?vid=4cfdf33d-163c-4b72-910a-a432fa45a4d9"},"vehicle_type_id":"4","last_reported":1773337247,"current_range_meters":22400,"station_id":"ce4bh392rcd13ifvqdm0","pricing_plan_id":"cebpf4jnsgd1na2vs0mg"},{"bike_id":"e824a880-56b7-440e-8a54-db91d8597347","system_id":"levelo_inurba_marseille","lat":43.23182,"lon":5.35574,"is_reserved":false,"is_disabled":false,"rental_uris":{"android":"levelo://app?vid=e824a880-56b7-440e-8a54-db91d8597347","ios":"levelo://app?vid=e824a880-56b7-440e-8a54-db91d8597347"},"vehicle_type_id":"4","last_reported":1773337247,"current_range_meters":15200,"station_id":"ce4bhu92rcd13ifvqi70","pricing_plan_id":"cebpf4jnsgd1na2vs0mg"},{"bike_id":"ba3a231f-10a0-4302-b0e7-08f11861cd04","system_id":"levelo_inurba_marseille","lat":43.28476,"lon":5.48386,"is_reserved":false,"is_disabled":false,"rental_uris":{"android":"levelo://app?vid=ba3a231f-10a0-4302-b0e7-08f11861cd04","ios":"levelo://app?vid=ba3a231f-10a0-4302-b0e7-08f11861cd04"},"vehicle_type_id":"4","last_reported":1773337247,"current_range_meters":36400,"station_id":"","pricing_plan_id":"cebpf4jnsgd1na2vs0mg"},{"bike_id":"be671c5b-fb45-47d4-8232-4da9e39592ca","system_id":"levelo_inurba_marseille","lat":43.2621,"lon":5.37443,"is_reserved":false,"is_disabled":false,"rental_uris":{"android":"levelo://app?vid=be671c5b-fb45-47d4-8232-4da9e39592ca","ios":"levelo://app?vid=be671c5b-fb45-47d4-8232-4da9e39592ca"},"vehicle_type_id":"4","last_reported":1773337247,"current_range_meters":16000,"station_id":"ce4bhgp2rcd13ifvqfc0","pricing_plan_id":"cebpf4jnsgd1na2vs0mg"},{"bike_id":"352c9f7d-89b4-42e5-9e2e-76d972a274bd","system_id":"levelo_inurba_marseille","lat":43.28899,"lon":5.42906,"is_reserved":false,"is_disabled":false,"rental_uris":{"android":"levelo://app?vid=352c9f7d-89b4-42e5-9e2e-76d972a274bd","ios":"levelo://app?vid=352c9f7d-89b4-42e5-9e2e-76d972a274bd"},"vehicle_type_id":"4","last_reported":1773337247,"current_range_meters":6800,"station_id":"","pricing_plan_id":"cebpf4jnsgd1na2vs0mg"},{"bike_id":"c59a5209-1b70-42df-8250-859beecf23e1","system_id":"levelo_inurba_marseille","lat":43.23208,"lon":5.35549,"is_reserved":false,"is_disabled":false,"rental_uris":{"android":"levelo://app?vid=c59a5209-1b70-42df-8250-859beecf23e1","ios":"levelo://app?vid=c59a5209-1b70-42df-8250-859beecf23e1"},"vehicle_type_id":"4","last_reported":1773337247,"current_range_meters":35200,"station_id":"ce4bhu92rcd13ifvqi70","pricing_plan_id":"cebpf4jnsgd1na2vs0mg"},{"bike_id":"e96914ea-9f49-45f4-990f-f623d343ff11","system_id":"levelo_inurba_marseille","lat":43.29217,"lon":5.36037,"is_reserved":false,"is_disabled":true,"rental_uris":{"android":"levelo://app?vid=e96914ea-9f49-45f4-990f-f623d343ff11","ios":"levelo://app?vid=e96914ea-9f49-45f4-990f-f623d343ff11"},"vehicle_type_id":"4","last_reported":1773337247,"current_range_meters":1200,"station_id":"ce4bhbh2rcd13ifvqeqg","pricing_plan_id":"cebpf4jnsgd1na2vs0mg"},{"bike_id":"fed428a6-a508-4132-94d7-783075e10fe3","system_id":"levelo_inurba_marseille","lat":43.32362,"lon":5.36733,"is_reserved":false,"is_disabled":false,"rental_uris":{"android":"levelo://app?vid=fed428a6-a508-4132-94d7-783075e10fe3","ios":"levelo://app?vid=fed428a6-a508-4132-94d7-783075e10fe3"},"vehicle_type_id":"4","last_reported":1773337247,"current_range_meters":37600,"station_id":"ce4bhsh2rcd13ifvqi2g","pricing_plan_id":"cebpf4jnsgd1na2vs0mg"},{"bike_id":"ea00e583-ef30-402a-aac4-1bed2c6ab8e2","system_id":"levelo_inurba_marseille","lat":43.21754,"lon":5.34595,"is_reserved":false,"is_disabled":false,"rental_uris":{"android":"levelo://app?vid=ea00e583-ef30-402a-aac4-1bed2c6ab8e2","ios":"levelo://app?vid=ea00e583-ef30-402a-aac4-1bed2c6ab8e2"},"vehicle_type_id":"4","last_reported":1773337247,"current_range_meters":28000,"station_id":"","pricing_plan_id":"cebpf4jnsgd1na2vs0mg"},{"bike_id":"f4daf014-e5a7-4663-9eef-4dad91aff2e0","system_id":"levelo_inurba_marseille","lat":43.24171,"lon":5.36399,"is_reserved":false,"is_disabled":false,"rental_uris":{"android":"levelo://app?vid=f4daf014-e5a7-4663-9eef-4dad91aff2e0","ios":"levelo://app?vid=f4daf014-e5a7-4663-9eef-4dad91aff2e0"},"vehicle_type_id":"4","last_reported":1773337247,"current_range_meters":14800,"station_id":"cpo36qri1sfpv3e86is0","pricing_plan_id":"cebpf4jnsgd1na2vs0mg"},{"bike_id":"3c3d5b25-bd00-4aeb-9577-8f4270b32ddd","system_id":"levelo_inurba_marseille","lat":43.269571,"lon":5.386311,"is_reserved":false,"is_disabled":false,"rental_uris":{"android":"levelo://app?vid=3c3d5b25-bd00-4aeb-9577-8f4270b32ddd","ios":"levelo://app?vid=3c3d5b25-bd00-4aeb-9577-8f4270b32ddd"},"vehicle_type_id":"4","last_reported":1773337247,"current_range_meters":7200,"station_id":"ce4bhh92rcd13ifvqfh0","pricing_plan_id":"cebpf4jnsgd1na2vs0mg"},{"bike_id":"035b30d5-a74b-4e35-8731-fb649d854586","system_id":"levelo_inurba_marseille","lat":43.29234,"lon":5.36105,"is_reserved":false,"is_disabled":false,"rental_uris":{"android":"levelo://app?vid=035b30d5-a74b-4e35-8731-fb649d854586","ios":"levelo://app?vid=035b30d5-a74b-4e35-8731-fb649d854586"},"vehicle_type_id":"4","last_reported":1773337247,"current_range_meters":25200,"station_id":"ce4bhbh2rcd13ifvqeqg","pricing_plan_id":"cebpf4jnsgd1na2vs0mg"},{"bike_id":"e8e891cf-164b-4375-8667-e5eaa1ef09df","system_id":"levelo_inurba_marseille","lat":43.31749,"lon":5.39004,"is_reserved":false,"is_disabled":false,"rental_uris":{"android":"levelo://app?vid=e8e891cf-164b-4375-8667-e5eaa1ef09df","ios":"levelo://app?vid=e8e891cf-164b-4375-8667-e5eaa1ef09df"},"vehicle_type_id":"4","last_reported":1773337247,"current_range_meters":34800,"station_id":"ce4bhqp2rcd13ifvqhng","pricing_plan_id":"cebpf4jnsgd1na2vs0mg"},{"bike_id":"47d455b9-0a82-4b67-88e9-ac7ea285d75c","system_id":"levelo_inurba_marseille","lat":43.29979,"lon":5.38488,"is_reserved":false,"is_disabled":false,"rental_uris":{"android":"levelo://app?vid=47d455b9-0a82-4b67-88e9-ac7ea285d75c","ios":"levelo://app?vid=47d455b9-0a82-4b67-88e9-ac7ea285d75c"},"vehicle_type_id":"4","last_reported":1773337247,"current_range_meters":32000,"station_id":"ce4bgj92rcd13ifvqbd0","pricing_plan_id":"cebpf4jnsgd1na2vs0mg"},{"bike_id":"a540b441-3928-4042-84dc-78cbd8de6fd0","system_id":"levelo_inurba_marseille","lat":43.24399,"lon":5.37072,"is_reserved":false,"is_disabled":false,"rental_uris":{"android":"levelo://app?vid=a540b441-3928-4042-84dc-78cbd8de6fd0","ios":"levelo://app?vid=a540b441-3928-4042-84dc-78cbd8de6fd0"},"vehicle_type_id":"4","last_reported":1773337247,"current_range_meters":30000,"station_id":"ce4bhhh2rcd13ifvqfk0","pricing_plan_id":"cebpf4jnsgd1na2vs0mg"},{"bike_id":"080c7843-bf7c-4ab5-b523-05ba7bdd1fd5","system_id":"levelo_inurba_marseille","lat":43.313244,"lon":5.396923,"is_reserved":false,"is_disabled":false,"rental_uris":{"android":"levelo://app?vid=080c7843-bf7c-4ab5-b523-05ba7bdd1fd5","ios":"levelo://app?vid=080c7843-bf7c-4ab5-b523-05ba7bdd1fd5"},"vehicle_type_id":"4","last_reported":1773337247,"current_range_meters":17600,"station_id":"ce4bgvp2rcd13ifvqcu0","pricing_plan_id":"cebpf4jnsgd1na2vs0mg"},{"bike_id":"ae26fcee-038c-4171-b445-2c994c69a2f8","system_id":"levelo_inurba_marseille","lat":43.29369,"lon":5.3788,"is_reserved":false,"is_disabled":false,"rental_uris":{"android":"levelo://app?vid=ae26fcee-038c-4171-b445-2c994c69a2f8","ios":"levelo://app?vid=ae26fcee-038c-4171-b445-2c994c69a2f8"},"vehicle_type_id":"4","last_reported":1773337247,"current_range_meters":39200,"station_id":"ce4bgjh2rcd13ifvqbf0","pricing_plan_id":"cebpf4jnsgd1na2vs0mg"},{"bike_id":"0623d3e8-8e06-48f4-9ba1-80d3579a4110","system_id":"levelo_inurba_marseille","lat":43.28113,"lon":5.3783,"is_reserved":false,"is_disabled":false,"rental_uris":{"android":"levelo://app?vid=0623d3e8-8e06-48f4-9ba1-80d3579a4110","ios":"levelo://app?vid=0623d3e8-8e06-48f4-9ba1-80d3579a4110"},"vehicle_type_id":"4","last_reported":1773337247,"current_range_meters":3600,"station_id":"ce4bha12rcd13ifvqee0","pricing_plan_id":"cebpf4jnsgd1na2vs0mg"},{"bike_id":"eb7402b0-d2c7-4043-aa11-cd75870274a3","system_id":"levelo_inurba_marseille","lat":43.26805,"lon":5.40261,"is_reserved":false,"is_disabled":false,"rental_uris":{"android":"levelo://app?vid=eb7402b0-d2c7-4043-aa11-cd75870274a3","ios":"levelo://app?vid=eb7402b0-d2c7-4043-aa11-cd75870274a3"},"vehicle_type_id":"4","last_reported":1773337247,"current_range_meters":38400,"station_id":"ce501612rcd8frsf0b60","pricing_plan_id":"cebpf4jnsgd1na2vs0mg"},{"bike_id":"09c22fbe-38de-4244-bd88-c1926dd23ed8","system_id":"levelo_inurba_marseille","lat":43.25146,"lon":5.40313,"is_reserved":false,"is_disabled":false,"rental_uris":{"android":"levelo://app?vid=09c22fbe-38de-4244-bd88-c1926dd23ed8","ios":"levelo://app?vid=09c22fbe-38de-4244-bd88-c1926dd23ed8"},"vehicle_type_id":"4","last_reported":1773337247,"current_range_meters":40000,"station_id":"ce4bhlh2rcd13ifvqgig","pricing_plan_id":"cebpf4jnsgd1na2vs0mg"},{"bike_id":"cadb7f92-fd00-47b7-bb8a-b7f1f3d5d7d0","system_id":"levelo_inurba_marseille","lat":43.26035,"lon":5.37566,"is_reserved":false,"is_disabled":false,"rental_uris":{"android":"levelo://app?vid=cadb7f92-fd00-47b7-bb8a-b7f1f3d5d7d0","ios":"levelo://app?vid=cadb7f92-fd00-47b7-bb8a-b7f1f3d5d7d0"},"vehicle_type_id":"4","last_reported":1773337247,"current_range_meters":26800,"station_id":"ce4bhgh2rcd13ifvqfa0","pricing_plan_id":"cebpf4jnsgd1na2vs0mg"},{"bike_id":"17092a17-ecc2-4869-9543-a7b9eb4bf6ef","system_id":"levelo_inurba_marseille","lat":43.2119,"lon":5.35069,"is_reserved":false,"is_disabled":false,"rental_uris":{"android":"levelo://app?vid=17092a17-ecc2-4869-9543-a7b9eb4bf6ef","ios":"levelo://app?vid=17092a17-ecc2-4869-9543-a7b9eb4bf6ef"},"vehicle_type_id":"4","last_reported":1773337247,"current_range_meters":11600,"station_id":"st_cvj6sg6p6f1abm77japg","pricing_plan_id":"cebpf4jnsgd1na2vs0mg"},{"bike_id":"0a2f9b28-6219-4106-b011-3026133a767c","system_id":"levelo_inurba_marseille","lat":43.29559,"lon":5.38162,"is_reserved":false,"is_disabled":true,"rental_uris":{"android":"levelo://app?vid=0a2f9b28-6219-4106-b011-3026133a767c","ios":"levelo://app?vid=0a2f9b28-6219-4106-b011-3026133a767c"},"vehicle_type_id":"4","last_reported":1773337247,"current_range_meters":33600,"station_id":"","pricing_plan_id":"cebpf4jnsgd1na2vs0mg"},{"bike_id":"a1f09277-e6a5-4fd5-b342-fa86eaa2b051","system_id":"levelo_inurba_marseille","lat":43.29819,"lon":5.44071,"is_reserved":false,"is_disabled":false,"rental_uris":{"android":"levelo://app?vid=a1f09277-e6a5-4fd5-b342-fa86eaa2b051","ios":"levelo://app?vid=a1f09277-e6a5-4fd5-b342-fa86eaa2b051"},"vehicle_type_id":"4","last_reported":1773337247,"current_range_meters":20000,"station_id":"st_d3jp68qikq2c7381ktn0","pricing_plan_id":"cebpf4jnsgd1na2vs0mg"},{"bike_id":"cc18ab96-ca5d-4373-a7ba-87da37ebe5bc","system_id":"levelo_inurba_marseille","lat":43.29004,"lon":5.35935,"is_reserved":false,"is_disabled":false,"rental_uris":{"android":"levelo://app?vid=cc18ab96-ca5d-4373-a7ba-87da37ebe5bc","ios":"levelo://app?vid=cc18ab96-ca5d-4373-a7ba-87da37ebe5bc"},"vehicle_type_id":"4","last_reported":1773337247,"current_range_meters":27200,"station_id":"ce4bha92rcd13ifvqeg0","pricing_plan_id":"cebpf4jnsgd1na2vs0mg"},{"bike_id":"97bcfeac-2126-494f-9ed9-6b67f1b064a2","system_id":"levelo_inurba_marseille","lat":43.27428,"lon":5.39394,"is_reserved":false,"is_disabled":true,"rental_uris":{"android":"levelo://app?vid=97bcfeac-2126-494f-9ed9-6b67f1b064a2","ios":"levelo://app?vid=97bcfeac-2126-494f-9ed9-6b67f1b064a2"},"vehicle_type_id":"4","last_reported":1773337247,"current_range_meters":16800,"station_id":"ce4bhdp2rcd13ifvqf20","pricing_plan_id":"cebpf4jnsgd1na2vs0mg"},{"bike_id":"6e0b0aa5-87a1-4737-820e-285f6efc96ee","system_id":"levelo_inurba_marseille","lat":43.28618,"lon":5.35109,"is_reserved":false,"is_disabled":false,"rental_uris":{"android":"levelo://app?vid=6e0b0aa5-87a1-4737-820e-285f6efc96ee","ios":"levelo://app?vid=6e0b0aa5-87a1-4737-820e-285f6efc96ee"},"vehicle_type_id":"4","last_reported":1773337247,"current_range_meters":16400,"station_id":"ce4bhch2rcd13ifvqeug","pricing_plan_id":"cebpf4jnsgd1na2vs0mg"},{"bike_id":"c73dc152-9938-46ce-972e-77003c30697b","system_id":"levelo_inurba_marseille","lat":43.25838,"lon":5.39446,"is_reserved":false,"is_disabled":false,"rental_uris":{"android":"levelo://app?vid=c73dc152-9938-46ce-972e-77003c30697b","ios":"levelo://app?vid=c73dc152-9938-46ce-972e-77003c30697b"},"vehicle_type_id":"4","last_reported":1773337247,"current_range_meters":36400,"station_id":"ce4bhip2rcd13ifvqft0","pricing_plan_id":"cebpf4jnsgd1na2vs0mg"},{"bike_id":"4171710b-994b-4f9c-adaa-f57aeb9a8175","system_id":"levelo_inurba_marseille","lat":43.28001,"lon":5.40015,"is_reserved":false,"is_disabled":false,"rental_uris":{"android":"levelo://app?vid=4171710b-994b-4f9c-adaa-f57aeb9a8175","ios":"levelo://app?vid=4171710b-994b-4f9c-adaa-f57aeb9a8175"},"vehicle_type_id":"4","last_reported":1773337247,"current_range_meters":28400,"station_id":"ce4bho92rcd13ifvqh4g","pricing_plan_id":"cebpf4jnsgd1na2vs0mg"},{"bike_id":"e58a0337-ccee-4dc0-b528-1696aeec6127","system_id":"levelo_inurba_marseille","lat":43.27838,"lon":5.39202,"is_reserved":false,"is_disabled":false,"rental_uris":{"android":"levelo://app?vid=e58a0337-ccee-4dc0-b528-1696aeec6127","ios":"levelo://app?vid=e58a0337-ccee-4dc0-b528-1696aeec6127"},"vehicle_type_id":"4","last_reported":1773337247,"current_range_meters":38400,"station_id":"ce4bhjp2rcd13ifvqga0","pricing_plan_id":"cebpf4jnsgd1na2vs0mg"},{"bike_id":"a975d39d-4a14-4e0c-8235-9aa6495c9757","system_id":"levelo_inurba_marseille","lat":43.27402,"lon":5.42488,"is_reserved":false,"is_disabled":true,"rental_uris":{"android":"levelo://app?vid=a975d39d-4a14-4e0c-8235-9aa6495c9757","ios":"levelo://app?vid=a975d39d-4a14-4e0c-8235-9aa6495c9757"},"vehicle_type_id":"4","last_reported":1773337247,"current_range_meters":29600,"station_id":"","pricing_plan_id":"cebpf4jnsgd1na2vs0mg"},{"bike_id":"39ef7689-e4c1-4fb3-8d84-1b74c63b59f1","system_id":"levelo_inurba_marseille","lat":43.26207,"lon":5.37927,"is_reserved":false,"is_disabled":false,"rental_uris":{"android":"levelo://app?vid=39ef7689-e4c1-4fb3-8d84-1b74c63b59f1","ios":"levelo://app?vid=39ef7689-e4c1-4fb3-8d84-1b74c63b59f1"},"vehicle_type_id":"4","last_reported":1773337247,"current_range_meters":18800,"station_id":"ce4bhjp2rcd13ifvqg90","pricing_plan_id":"cebpf4jnsgd1na2vs0mg"},{"bike_id":"aa81096f-0238-4da5-9bb1-19ffb49b251d","system_id":"levelo_inurba_marseille","lat":43.29257,"lon":5.38449,"is_reserved":false,"is_disabled":false,"rental_uris":{"android":"levelo://app?vid=aa81096f-0238-4da5-9bb1-19ffb49b251d","ios":"levelo://app?vid=aa81096f-0238-4da5-9bb1-19ffb49b251d"},"vehicle_type_id":"4","last_reported":1773337247,"current_range_meters":28800,"station_id":"ce4bh692rcd13ifvqea0","pricing_plan_id":"cebpf4jnsgd1na2vs0mg"},{"bike_id":"84cb9c1b-a75d-4164-a6c5-aae43dd42fc4","system_id":"levelo_inurba_marseille","lat":43.313326,"lon":5.3969,"is_reserved":false,"is_disabled":false,"rental_uris":{"android":"levelo://app?vid=84cb9c1b-a75d-4164-a6c5-aae43dd42fc4","ios":"levelo://app?vid=84cb9c1b-a75d-4164-a6c5-aae43dd42fc4"},"vehicle_type_id":"4","last_reported":1773337247,"current_range_meters":35600,"station_id":"ce4bgvp2rcd13ifvqcu0","pricing_plan_id":"cebpf4jnsgd1na2vs0mg"},{"bike_id":"540113ab-cd8e-4187-baf3-a8118e00f918","system_id":"levelo_inurba_marseille","lat":43.33606,"lon":5.41029,"is_reserved":false,"is_disabled":false,"rental_uris":{"android":"levelo://app?vid=540113ab-cd8e-4187-baf3-a8118e00f918","ios":"levelo://app?vid=540113ab-cd8e-4187-baf3-a8118e00f918"},"vehicle_type_id":"4","last_reported":1773337247,"current_range_meters":36800,"station_id":"ce4bhqh2rcd13ifvqhmg","pricing_plan_id":"cebpf4jnsgd1na2vs0mg"},{"bike_id":"8353becb-09ec-45b5-a24b-8f6218c436aa","system_id":"levelo_inurba_marseille","lat":43.2418,"lon":5.39675,"is_reserved":false,"is_disabled":true,"rental_uris":{"android":"levelo://app?vid=8353becb-09ec-45b5-a24b-8f6218c436aa","ios":"levelo://app?vid=8353becb-09ec-45b5-a24b-8f6218c436aa"},"vehicle_type_id":"4","last_reported":1773337247,"current_range_meters":6800,"station_id":"ce4bhn12rcd13ifvqgpg","pricing_plan_id":"cebpf4jnsgd1na2vs0mg"},{"bike_id":"6b93fa97-390d-4f96-89fc-13710356aee0","system_id":"levelo_inurba_marseille","lat":43.29525,"lon":5.39402,"is_reserved":false,"is_disabled":false,"rental_uris":{"android":"levelo://app?vid=6b93fa97-390d-4f96-89fc-13710356aee0","ios":"levelo://app?vid=6b93fa97-390d-4f96-89fc-13710356aee0"},"vehicle_type_id":"4","last_reported":1773337247,"current_range_meters":25200,"station_id":"ce4bh292rcd13ifvqdf0","pricing_plan_id":"cebpf4jnsgd1na2vs0mg"},{"bike_id":"360a0b65-dbcc-456e-8507-13fb354257b5","system_id":"levelo_inurba_marseille","lat":43.29281,"lon":5.36849,"is_reserved":false,"is_disabled":false,"rental_uris":{"android":"levelo://app?vid=360a0b65-dbcc-456e-8507-13fb354257b5","ios":"levelo://app?vid=360a0b65-dbcc-456e-8507-13fb354257b5"},"vehicle_type_id":"4","last_reported":1773337247,"current_range_meters":32800,"station_id":"ce4bhbp2rcd13ifvqesg","pricing_plan_id":"cebpf4jnsgd1na2vs0mg"},{"bike_id":"071bbebe-54e0-456d-8928-c8b60c0700b6","system_id":"levelo_inurba_marseille","lat":43.27545,"lon":5.38439,"is_reserved":false,"is_disabled":false,"rental_uris":{"android":"levelo://app?vid=071bbebe-54e0-456d-8928-c8b60c0700b6","ios":"levelo://app?vid=071bbebe-54e0-456d-8928-c8b60c0700b6"},"vehicle_type_id":"4","last_reported":1773337247,"current_range_meters":30400,"station_id":"ce4bhh92rcd13ifvqfi0","pricing_plan_id":"cebpf4jnsgd1na2vs0mg"},{"bike_id":"c6e41b0e-a7f4-4243-a48f-6e68bec7d728","system_id":"levelo_inurba_marseille","lat":43.28957,"lon":5.36376,"is_reserved":false,"is_disabled":true,"rental_uris":{"android":"levelo://app?vid=c6e41b0e-a7f4-4243-a48f-6e68bec7d728","ios":"levelo://app?vid=c6e41b0e-a7f4-4243-a48f-6e68bec7d728"},"vehicle_type_id":"4","last_reported":1773337247,"current_range_meters":35600,"station_id":"ce4bhc92rcd13ifvqetg","pricing_plan_id":"cebpf4jnsgd1na2vs0mg"},{"bike_id":"32ac5d0e-ae28-4478-ad22-93086f84b7a9","system_id":"levelo_inurba_marseille","lat":43.28414,"lon":5.34989,"is_reserved":false,"is_disabled":false,"rental_uris":{"android":"levelo://app?vid=32ac5d0e-ae28-4478-ad22-93086f84b7a9","ios":"levelo://app?vid=32ac5d0e-ae28-4478-ad22-93086f84b7a9"},"vehicle_type_id":"4","last_reported":1773337247,"current_range_meters":16800,"station_id":"ce4bhbh2rcd13ifvqepg","pricing_plan_id":"cebpf4jnsgd1na2vs0mg"},{"bike_id":"a63d22a1-9803-47da-97c5-9eb5069b8019","system_id":"levelo_inurba_marseille","lat":43.25815,"lon":5.39414,"is_reserved":false,"is_disabled":false,"rental_uris":{"android":"levelo://app?vid=a63d22a1-9803-47da-97c5-9eb5069b8019","ios":"levelo://app?vid=a63d22a1-9803-47da-97c5-9eb5069b8019"},"vehicle_type_id":"4","last_reported":1773337247,"current_range_meters":36400,"station_id":"ce4bhip2rcd13ifvqft0","pricing_plan_id":"cebpf4jnsgd1na2vs0mg"},{"bike_id":"c078c584-a5b0-48bb-938b-ff9b4a11c886","system_id":"levelo_inurba_marseille","lat":43.27945,"lon":5.41053,"is_reserved":false,"is_disabled":false,"rental_uris":{"android":"levelo://app?vid=c078c584-a5b0-48bb-938b-ff9b4a11c886","ios":"levelo://app?vid=c078c584-a5b0-48bb-938b-ff9b4a11c886"},"vehicle_type_id":"4","last_reported":1773337247,"current_range_meters":40000,"station_id":"ce4bhnp2rcd13ifvqh0g","pricing_plan_id":"cebpf4jnsgd1na2vs0mg"},{"bike_id":"82451975-68fc-4735-a647-12ad73617286","system_id":"levelo_inurba_marseille","lat":43.30597,"lon":5.37209,"is_reserved":false,"is_disabled":false,"rental_uris":{"android":"levelo://app?vid=82451975-68fc-4735-a647-12ad73617286","ios":"levelo://app?vid=82451975-68fc-4735-a647-12ad73617286"},"vehicle_type_id":"4","last_reported":1773337247,"current_range_meters":35600,"station_id":"ce4bgqh2rcd13ifvqc4g","pricing_plan_id":"cebpf4jnsgd1na2vs0mg"},{"bike_id":"8b2e521b-1101-44fe-9d4a-0344f080c81c","system_id":"levelo_inurba_marseille","lat":43.28489,"lon":5.48394,"is_reserved":false,"is_disabled":false,"rental_uris":{"android":"levelo://app?vid=8b2e521b-1101-44fe-9d4a-0344f080c81c","ios":"levelo://app?vid=8b2e521b-1101-44fe-9d4a-0344f080c81c"},"vehicle_type_id":"4","last_reported":1773337247,"current_range_meters":32800,"station_id":"","pricing_plan_id":"cebpf4jnsgd1na2vs0mg"},{"bike_id":"1697678c-c8a4-4c47-ade7-901915c540a8","system_id":"levelo_inurba_marseille","lat":43.29595,"lon":5.38094,"is_reserved":false,"is_disabled":true,"rental_uris":{"android":"levelo://app?vid=1697678c-c8a4-4c47-ade7-901915c540a8","ios":"levelo://app?vid=1697678c-c8a4-4c47-ade7-901915c540a8"},"vehicle_type_id":"4","last_reported":1773337247,"current_range_meters":38400,"station_id":"ce4bgl12rcd13ifvqbo0","pricing_plan_id":"cebpf4jnsgd1na2vs0mg"},{"bike_id":"1651aaf9-b8ea-4546-9ef9-f69c1b888e88","system_id":"levelo_inurba_marseille","lat":43.28624,"lon":5.35097,"is_reserved":false,"is_disabled":false,"rental_uris":{"android":"levelo://app?vid=1651aaf9-b8ea-4546-9ef9-f69c1b888e88","ios":"levelo://app?vid=1651aaf9-b8ea-4546-9ef9-f69c1b888e88"},"vehicle_type_id":"4","last_reported":1773337247,"current_range_meters":10000,"station_id":"ce4bhch2rcd13ifvqeug","pricing_plan_id":"cebpf4jnsgd1na2vs0mg"},{"bike_id":"928ede9f-d7b3-4b92-b54e-1233891752ff","system_id":"levelo_inurba_marseille","lat":43.33033,"lon":5.39029,"is_reserved":false,"is_disabled":false,"rental_uris":{"android":"levelo://app?vid=928ede9f-d7b3-4b92-b54e-1233891752ff","ios":"levelo://app?vid=928ede9f-d7b3-4b92-b54e-1233891752ff"},"vehicle_type_id":"4","last_reported":1773337247,"current_range_meters":10800,"station_id":"ce4bhr92rcd13ifvqhrg","pricing_plan_id":"cebpf4jnsgd1na2vs0mg"},{"bike_id":"4aa8ce64-af55-469d-a714-3c8ba61609f2","system_id":"levelo_inurba_marseille","lat":43.27176,"lon":5.41005,"is_reserved":false,"is_disabled":true,"rental_uris":{"android":"levelo://app?vid=4aa8ce64-af55-469d-a714-3c8ba61609f2","ios":"levelo://app?vid=4aa8ce64-af55-469d-a714-3c8ba61609f2"},"vehicle_type_id":"4","last_reported":1773337247,"current_range_meters":1200,"station_id":"ce4bhl12rcd13ifvqgf0","pricing_plan_id":"cebpf4jnsgd1na2vs0mg"},{"bike_id":"279b31e6-f012-4d9c-a7c8-086a36e72b5f","system_id":"levelo_inurba_marseille","lat":43.2951,"lon":5.3859,"is_reserved":false,"is_disabled":true,"rental_uris":{"android":"levelo://app?vid=279b31e6-f012-4d9c-a7c8-086a36e72b5f","ios":"levelo://app?vid=279b31e6-f012-4d9c-a7c8-086a36e72b5f"},"vehicle_type_id":"4","last_reported":1773337247,"current_range_meters":19200,"station_id":"ce4bgih2rcd13ifvqba0","pricing_plan_id":"cebpf4jnsgd1na2vs0mg"},{"bike_id":"6e510986-3b9d-4a3e-8c14-6b73a268cd26","system_id":"levelo_inurba_marseille","lat":43.26216,"lon":5.37445,"is_reserved":false,"is_disabled":false,"rental_uris":{"android":"levelo://app?vid=6e510986-3b9d-4a3e-8c14-6b73a268cd26","ios":"levelo://app?vid=6e510986-3b9d-4a3e-8c14-6b73a268cd26"},"vehicle_type_id":"4","last_reported":1773337247,"current_range_meters":21600,"station_id":"ce4bhgp2rcd13ifvqfc0","pricing_plan_id":"cebpf4jnsgd1na2vs0mg"},{"bike_id":"8cb18c02-9074-4f7e-83f0-8e5266c7a460","system_id":"levelo_inurba_marseille","lat":43.24672,"lon":5.3818,"is_reserved":false,"is_disabled":false,"rental_uris":{"android":"levelo://app?vid=8cb18c02-9074-4f7e-83f0-8e5266c7a460","ios":"levelo://app?vid=8cb18c02-9074-4f7e-83f0-8e5266c7a460"},"vehicle_type_id":"4","last_reported":1773337247,"current_range_meters":16400,"station_id":"ce4bhih2rcd13ifvqfr0","pricing_plan_id":"cebpf4jnsgd1na2vs0mg"},{"bike_id":"d02665ab-d65f-47fa-a858-71c81c1727d7","system_id":"levelo_inurba_marseille","lat":43.28427,"lon":5.34994,"is_reserved":false,"is_disabled":false,"rental_uris":{"android":"levelo://app?vid=d02665ab-d65f-47fa-a858-71c81c1727d7","ios":"levelo://app?vid=d02665ab-d65f-47fa-a858-71c81c1727d7"},"vehicle_type_id":"4","last_reported":1773337247,"current_range_meters":39200,"station_id":"ce4bhbh2rcd13ifvqepg","pricing_plan_id":"cebpf4jnsgd1na2vs0mg"},{"bike_id":"c2390bbc-ed39-45c5-9f2a-b8a83a668278","system_id":"levelo_inurba_marseille","lat":43.27614,"lon":5.3612,"is_reserved":false,"is_disabled":false,"rental_uris":{"android":"levelo://app?vid=c2390bbc-ed39-45c5-9f2a-b8a83a668278","ios":"levelo://app?vid=c2390bbc-ed39-45c5-9f2a-b8a83a668278"},"vehicle_type_id":"4","last_reported":1773337247,"current_range_meters":32400,"station_id":"ce4bgj92rcd13ifvqbe0","pricing_plan_id":"cebpf4jnsgd1na2vs0mg"},{"bike_id":"c8605d01-f739-409b-b7bf-dfb8e1cb0084","system_id":"levelo_inurba_marseille","lat":43.29283,"lon":5.37412,"is_reserved":false,"is_disabled":false,"rental_uris":{"android":"levelo://app?vid=c8605d01-f739-409b-b7bf-dfb8e1cb0084","ios":"levelo://app?vid=c8605d01-f739-409b-b7bf-dfb8e1cb0084"},"vehicle_type_id":"4","last_reported":1773337247,"current_range_meters":24800,"station_id":"ce4bgi12rcd13ifvqb70","pricing_plan_id":"cebpf4jnsgd1na2vs0mg"},{"bike_id":"ae788f02-8960-4e13-a74e-35f2396669bb","system_id":"levelo_inurba_marseille","lat":43.29174,"lon":5.3713,"is_reserved":false,"is_disabled":false,"rental_uris":{"android":"levelo://app?vid=ae788f02-8960-4e13-a74e-35f2396669bb","ios":"levelo://app?vid=ae788f02-8960-4e13-a74e-35f2396669bb"},"vehicle_type_id":"4","last_reported":1773337247,"current_range_meters":36800,"station_id":"ce4bha92rcd13ifvqeh0","pricing_plan_id":"cebpf4jnsgd1na2vs0mg"},{"bike_id":"26a6b2e2-002a-4072-a1a2-b594f4e8b66c","system_id":"levelo_inurba_marseille","lat":43.30895,"lon":5.37329,"is_reserved":false,"is_disabled":false,"rental_uris":{"android":"levelo://app?vid=26a6b2e2-002a-4072-a1a2-b594f4e8b66c","ios":"levelo://app?vid=26a6b2e2-002a-4072-a1a2-b594f4e8b66c"},"vehicle_type_id":"4","last_reported":1773337247,"current_range_meters":28400,"station_id":"","pricing_plan_id":"cebpf4jnsgd1na2vs0mg"},{"bike_id":"34da4a33-43be-4234-816f-fdd3330c4484","system_id":"levelo_inurba_marseille","lat":43.23966,"lon":5.36641,"is_reserved":false,"is_disabled":false,"rental_uris":{"android":"levelo://app?vid=34da4a33-43be-4234-816f-fdd3330c4484","ios":"levelo://app?vid=34da4a33-43be-4234-816f-fdd3330c4484"},"vehicle_type_id":"4","last_reported":1773337247,"current_range_meters":39200,"station_id":"ce4bhi12rcd13ifvqfp0","pricing_plan_id":"cebpf4jnsgd1na2vs0mg"},{"bike_id":"967753f2-948e-4661-b98b-0497b88334a5","system_id":"levelo_inurba_marseille","lat":43.2952,"lon":5.39409,"is_reserved":false,"is_disabled":false,"rental_uris":{"android":"levelo://app?vid=967753f2-948e-4661-b98b-0497b88334a5","ios":"levelo://app?vid=967753f2-948e-4661-b98b-0497b88334a5"},"vehicle_type_id":"4","last_reported":1773337247,"current_range_meters":39200,"station_id":"ce4bh292rcd13ifvqdf0","pricing_plan_id":"cebpf4jnsgd1na2vs0mg"},{"bike_id":"df608bc1-596d-4999-8ab7-7ccc722b52ef","system_id":"levelo_inurba_marseille","lat":43.28619,"lon":5.37087,"is_reserved":false,"is_disabled":false,"rental_uris":{"android":"levelo://app?vid=df608bc1-596d-4999-8ab7-7ccc722b52ef","ios":"levelo://app?vid=df608bc1-596d-4999-8ab7-7ccc722b52ef"},"vehicle_type_id":"4","last_reported":1773337247,"current_range_meters":22800,"station_id":"ce4bht12rcd13ifvqi60","pricing_plan_id":"cebpf4jnsgd1na2vs0mg"},{"bike_id":"30beae18-3cf0-414c-9b33-f9980d26ad49","system_id":"levelo_inurba_marseille","lat":43.29037,"lon":5.35918,"is_reserved":false,"is_disabled":false,"rental_uris":{"android":"levelo://app?vid=30beae18-3cf0-414c-9b33-f9980d26ad49","ios":"levelo://app?vid=30beae18-3cf0-414c-9b33-f9980d26ad49"},"vehicle_type_id":"4","last_reported":1773337247,"current_range_meters":10000,"station_id":"ce4bha92rcd13ifvqeg0","pricing_plan_id":"cebpf4jnsgd1na2vs0mg"},{"bike_id":"40fdc4a1-c92b-41e7-a951-6638077ea30c","system_id":"levelo_inurba_marseille","lat":43.2902,"lon":5.35633,"is_reserved":false,"is_disabled":false,"rental_uris":{"android":"levelo://app?vid=40fdc4a1-c92b-41e7-a951-6638077ea30c","ios":"levelo://app?vid=40fdc4a1-c92b-41e7-a951-6638077ea30c"},"vehicle_type_id":"4","last_reported":1773337247,"current_range_meters":19200,"station_id":"ce4bhb92rcd13ifvqen0","pricing_plan_id":"cebpf4jnsgd1na2vs0mg"},{"bike_id":"b3ec3554-eb1f-4735-9561-8fa9053610e4","system_id":"levelo_inurba_marseille","lat":43.24398,"lon":5.37051,"is_reserved":false,"is_disabled":false,"rental_uris":{"android":"levelo://app?vid=b3ec3554-eb1f-4735-9561-8fa9053610e4","ios":"levelo://app?vid=b3ec3554-eb1f-4735-9561-8fa9053610e4"},"vehicle_type_id":"4","last_reported":1773337247,"current_range_meters":39200,"station_id":"ce4bhhh2rcd13ifvqfk0","pricing_plan_id":"cebpf4jnsgd1na2vs0mg"},{"bike_id":"019b6904-c7d7-4f12-80e0-6c355f613b51","system_id":"levelo_inurba_marseille","lat":43.24816,"lon":5.37454,"is_reserved":false,"is_disabled":false,"rental_uris":{"android":"levelo://app?vid=019b6904-c7d7-4f12-80e0-6c355f613b51","ios":"levelo://app?vid=019b6904-c7d7-4f12-80e0-6c355f613b51"},"vehicle_type_id":"4","last_reported":1773337247,"current_range_meters":36000,"station_id":"ce4bhgh2rcd13ifvqfb0","pricing_plan_id":"cebpf4jnsgd1na2vs0mg"},{"bike_id":"cf206972-ff37-4502-9db3-c77ad5e939f4","system_id":"levelo_inurba_marseille","lat":43.30099,"lon":5.39081,"is_reserved":false,"is_disabled":false,"rental_uris":{"android":"levelo://app?vid=cf206972-ff37-4502-9db3-c77ad5e939f4","ios":"levelo://app?vid=cf206972-ff37-4502-9db3-c77ad5e939f4"},"vehicle_type_id":"4","last_reported":1773337247,"current_range_meters":4800,"station_id":"ce4bh192rcd13ifvqdb0","pricing_plan_id":"cebpf4jnsgd1na2vs0mg"},{"bike_id":"6787b157-e04b-48db-b386-adb5689d1a8e","system_id":"levelo_inurba_marseille","lat":43.28415,"lon":5.37515,"is_reserved":false,"is_disabled":false,"rental_uris":{"android":"levelo://app?vid=6787b157-e04b-48db-b386-adb5689d1a8e","ios":"levelo://app?vid=6787b157-e04b-48db-b386-adb5689d1a8e"},"vehicle_type_id":"4","last_reported":1773337247,"current_range_meters":34000,"station_id":"ce4bh412rcd13ifvqds0","pricing_plan_id":"cebpf4jnsgd1na2vs0mg"},{"bike_id":"5331bf44-13b3-42fb-aad1-9b7895a1f20e","system_id":"levelo_inurba_marseille","lat":43.29925,"lon":5.39746,"is_reserved":false,"is_disabled":false,"rental_uris":{"android":"levelo://app?vid=5331bf44-13b3-42fb-aad1-9b7895a1f20e","ios":"levelo://app?vid=5331bf44-13b3-42fb-aad1-9b7895a1f20e"},"vehicle_type_id":"4","last_reported":1773337247,"current_range_meters":39200,"station_id":"","pricing_plan_id":"cebpf4jnsgd1na2vs0mg"},{"bike_id":"003d4be6-c37b-4aa4-9c84-f0d8c631491b","system_id":"levelo_inurba_marseille","lat":43.29007,"lon":5.38617,"is_reserved":false,"is_disabled":true,"rental_uris":{"android":"levelo://app?vid=003d4be6-c37b-4aa4-9c84-f0d8c631491b","ios":"levelo://app?vid=003d4be6-c37b-4aa4-9c84-f0d8c631491b"},"vehicle_type_id":"4","last_reported":1773337247,"current_range_meters":25200,"station_id":"ce4bh4p2rcd13ifvqe0g","pricing_plan_id":"cebpf4jnsgd1na2vs0mg"},{"bike_id":"9da6ea9c-6693-4dbd-ad35-ababb5eaee14","system_id":"levelo_inurba_marseille","lat":43.30316,"lon":5.40434,"is_reserved":false,"is_disabled":false,"rental_uris":{"android":"levelo://app?vid=9da6ea9c-6693-4dbd-ad35-ababb5eaee14","ios":"levelo://app?vid=9da6ea9c-6693-4dbd-ad35-ababb5eaee14"},"vehicle_type_id":"4","last_reported":1773337247,"current_range_meters":18800,"station_id":"ce4bh012rcd13ifvqd10","pricing_plan_id":"cebpf4jnsgd1na2vs0mg"},{"bike_id":"8b5ea9e0-5f92-45df-93b8-24de0c729645","system_id":"levelo_inurba_marseille","lat":43.30375,"lon":5.42485,"is_reserved":false,"is_disabled":false,"rental_uris":{"android":"levelo://app?vid=8b5ea9e0-5f92-45df-93b8-24de0c729645","ios":"levelo://app?vid=8b5ea9e0-5f92-45df-93b8-24de0c729645"},"vehicle_type_id":"4","last_reported":1773337247,"current_range_meters":35600,"station_id":"ce4bhoh2rcd13ifvqh6g","pricing_plan_id":"cebpf4jnsgd1na2vs0mg"},{"bike_id":"9cb895f9-0b5c-455a-b99a-e83a132cadb4","system_id":"levelo_inurba_marseille","lat":43.28996,"lon":5.35549,"is_reserved":false,"is_disabled":false,"rental_uris":{"android":"levelo://app?vid=9cb895f9-0b5c-455a-b99a-e83a132cadb4","ios":"levelo://app?vid=9cb895f9-0b5c-455a-b99a-e83a132cadb4"},"vehicle_type_id":"4","last_reported":1773337247,"current_range_meters":29600,"station_id":"ce4bhb92rcd13ifvqen0","pricing_plan_id":"cebpf4jnsgd1na2vs0mg"},{"bike_id":"05e28071-265b-4d5c-bcaf-12dc4f5c6740","system_id":"levelo_inurba_marseille","lat":43.27383,"lon":5.36268,"is_reserved":false,"is_disabled":false,"rental_uris":{"android":"levelo://app?vid=05e28071-265b-4d5c-bcaf-12dc4f5c6740","ios":"levelo://app?vid=05e28071-265b-4d5c-bcaf-12dc4f5c6740"},"vehicle_type_id":"4","last_reported":1773337247,"current_range_meters":39200,"station_id":"ce4bhbh2rcd13ifvqeo0","pricing_plan_id":"cebpf4jnsgd1na2vs0mg"},{"bike_id":"e0d3800f-b03e-442e-a8e1-8c4ff7bcaab6","system_id":"levelo_inurba_marseille","lat":43.296,"lon":5.37725,"is_reserved":false,"is_disabled":false,"rental_uris":{"android":"levelo://app?vid=e0d3800f-b03e-442e-a8e1-8c4ff7bcaab6","ios":"levelo://app?vid=e0d3800f-b03e-442e-a8e1-8c4ff7bcaab6"},"vehicle_type_id":"4","last_reported":1773337247,"current_range_meters":38400,"station_id":"ce4bgi92rcd13ifvqb90","pricing_plan_id":"cebpf4jnsgd1na2vs0mg"},{"bike_id":"a2d8e7cd-d923-448d-bccc-b7ce9806d26c","system_id":"levelo_inurba_marseille","lat":43.29303,"lon":5.3746,"is_reserved":false,"is_disabled":false,"rental_uris":{"android":"levelo://app?vid=a2d8e7cd-d923-448d-bccc-b7ce9806d26c","ios":"levelo://app?vid=a2d8e7cd-d923-448d-bccc-b7ce9806d26c"},"vehicle_type_id":"4","last_reported":1773337247,"current_range_meters":36400,"station_id":"ce4bgi12rcd13ifvqb70","pricing_plan_id":"cebpf4jnsgd1na2vs0mg"},{"bike_id":"bd836131-4bd4-47c4-88ad-fdd13afbcc08","system_id":"levelo_inurba_marseille","lat":43.33612,"lon":5.41035,"is_reserved":false,"is_disabled":false,"rental_uris":{"android":"levelo://app?vid=bd836131-4bd4-47c4-88ad-fdd13afbcc08","ios":"levelo://app?vid=bd836131-4bd4-47c4-88ad-fdd13afbcc08"},"vehicle_type_id":"4","last_reported":1773337247,"current_range_meters":22000,"station_id":"ce4bhqh2rcd13ifvqhmg","pricing_plan_id":"cebpf4jnsgd1na2vs0mg"},{"bike_id":"939bc398-41d9-4727-8f5c-fd660530a23f","system_id":"levelo_inurba_marseille","lat":43.28149,"lon":5.42639,"is_reserved":false,"is_disabled":false,"rental_uris":{"android":"levelo://app?vid=939bc398-41d9-4727-8f5c-fd660530a23f","ios":"levelo://app?vid=939bc398-41d9-4727-8f5c-fd660530a23f"},"vehicle_type_id":"4","last_reported":1773337247,"current_range_meters":6000,"station_id":"ce4bhnh2rcd13ifvqgug","pricing_plan_id":"cebpf4jnsgd1na2vs0mg"},{"bike_id":"67454919-4897-4496-ac02-5ba276c6faca","system_id":"levelo_inurba_marseille","lat":43.28147,"lon":5.37892,"is_reserved":false,"is_disabled":false,"rental_uris":{"android":"levelo://app?vid=67454919-4897-4496-ac02-5ba276c6faca","ios":"levelo://app?vid=67454919-4897-4496-ac02-5ba276c6faca"},"vehicle_type_id":"4","last_reported":1773337247,"current_range_meters":9600,"station_id":"","pricing_plan_id":"cebpf4jnsgd1na2vs0mg"},{"bike_id":"eee030f9-7359-435a-8db7-cd8193b34512","system_id":"levelo_inurba_marseille","lat":43.26062,"lon":5.394,"is_reserved":false,"is_disabled":false,"rental_uris":{"android":"levelo://app?vid=eee030f9-7359-435a-8db7-cd8193b34512","ios":"levelo://app?vid=eee030f9-7359-435a-8db7-cd8193b34512"},"vehicle_type_id":"4","last_reported":1773337247,"current_range_meters":27600,"station_id":"ce4bhh92rcd13ifvqfj0","pricing_plan_id":"cebpf4jnsgd1na2vs0mg"},{"bike_id":"54d4f9e4-068b-4c2d-b5c3-e6b11d286961","system_id":"levelo_inurba_marseille","lat":43.27619,"lon":5.3612,"is_reserved":false,"is_disabled":false,"rental_uris":{"android":"levelo://app?vid=54d4f9e4-068b-4c2d-b5c3-e6b11d286961","ios":"levelo://app?vid=54d4f9e4-068b-4c2d-b5c3-e6b11d286961"},"vehicle_type_id":"4","last_reported":1773337247,"current_range_meters":37600,"station_id":"ce4bgj92rcd13ifvqbe0","pricing_plan_id":"cebpf4jnsgd1na2vs0mg"},{"bike_id":"e1953514-6bba-4fb4-94e4-40c57b362e06","system_id":"levelo_inurba_marseille","lat":43.27994,"lon":5.40015,"is_reserved":false,"is_disabled":false,"rental_uris":{"android":"levelo://app?vid=e1953514-6bba-4fb4-94e4-40c57b362e06","ios":"levelo://app?vid=e1953514-6bba-4fb4-94e4-40c57b362e06"},"vehicle_type_id":"4","last_reported":1773337247,"current_range_meters":15200,"station_id":"ce4bho92rcd13ifvqh4g","pricing_plan_id":"cebpf4jnsgd1na2vs0mg"},{"bike_id":"8bab3c98-f12f-4ed1-95ff-898ae6e5d7cb","system_id":"levelo_inurba_marseille","lat":43.28851,"lon":5.35887,"is_reserved":false,"is_disabled":false,"rental_uris":{"android":"levelo://app?vid=8bab3c98-f12f-4ed1-95ff-898ae6e5d7cb","ios":"levelo://app?vid=8bab3c98-f12f-4ed1-95ff-898ae6e5d7cb"},"vehicle_type_id":"4","last_reported":1773337247,"current_range_meters":6000,"station_id":"ce4bhb12rcd13ifvqem0","pricing_plan_id":"cebpf4jnsgd1na2vs0mg"},{"bike_id":"238929cf-87db-4b8d-8cba-0300ed95835f","system_id":"levelo_inurba_marseille","lat":43.24399,"lon":5.37046,"is_reserved":false,"is_disabled":false,"rental_uris":{"android":"levelo://app?vid=238929cf-87db-4b8d-8cba-0300ed95835f","ios":"levelo://app?vid=238929cf-87db-4b8d-8cba-0300ed95835f"},"vehicle_type_id":"4","last_reported":1773337247,"current_range_meters":34800,"station_id":"ce4bhhh2rcd13ifvqfk0","pricing_plan_id":"cebpf4jnsgd1na2vs0mg"},{"bike_id":"a1955bf3-14c7-4872-b5c1-6accbfbc0f11","system_id":"levelo_inurba_marseille","lat":43.26962,"lon":5.40303,"is_reserved":false,"is_disabled":false,"rental_uris":{"android":"levelo://app?vid=a1955bf3-14c7-4872-b5c1-6accbfbc0f11","ios":"levelo://app?vid=a1955bf3-14c7-4872-b5c1-6accbfbc0f11"},"vehicle_type_id":"4","last_reported":1773337247,"current_range_meters":38000,"station_id":"cjm6bp8fraef2m0cb0m0","pricing_plan_id":"cebpf4jnsgd1na2vs0mg"},{"bike_id":"cc65e37b-52e3-443f-ad9e-df8eed7f28c5","system_id":"levelo_inurba_marseille","lat":43.28618,"lon":5.35098,"is_reserved":false,"is_disabled":false,"rental_uris":{"android":"levelo://app?vid=cc65e37b-52e3-443f-ad9e-df8eed7f28c5","ios":"levelo://app?vid=cc65e37b-52e3-443f-ad9e-df8eed7f28c5"},"vehicle_type_id":"4","last_reported":1773337247,"current_range_meters":28000,"station_id":"ce4bhch2rcd13ifvqeug","pricing_plan_id":"cebpf4jnsgd1na2vs0mg"},{"bike_id":"cfddeb10-c9ff-448f-97eb-6409f85502c3","system_id":"levelo_inurba_marseille","lat":43.2861,"lon":5.37065,"is_reserved":false,"is_disabled":false,"rental_uris":{"android":"levelo://app?vid=cfddeb10-c9ff-448f-97eb-6409f85502c3","ios":"levelo://app?vid=cfddeb10-c9ff-448f-97eb-6409f85502c3"},"vehicle_type_id":"4","last_reported":1773337247,"current_range_meters":18800,"station_id":"ce4bht12rcd13ifvqi60","pricing_plan_id":"cebpf4jnsgd1na2vs0mg"},{"bike_id":"e7a13aa0-fae4-42c0-8e52-63ae1fa4bbe3","system_id":"levelo_inurba_marseille","lat":43.27379,"lon":5.36259,"is_reserved":false,"is_disabled":false,"rental_uris":{"android":"levelo://app?vid=e7a13aa0-fae4-42c0-8e52-63ae1fa4bbe3","ios":"levelo://app?vid=e7a13aa0-fae4-42c0-8e52-63ae1fa4bbe3"},"vehicle_type_id":"4","last_reported":1773337247,"current_range_meters":23200,"station_id":"ce4bhbh2rcd13ifvqeo0","pricing_plan_id":"cebpf4jnsgd1na2vs0mg"},{"bike_id":"cba60e58-48d2-4695-a218-c3d3f13631d8","system_id":"levelo_inurba_marseille","lat":43.29277,"lon":5.36847,"is_reserved":false,"is_disabled":false,"rental_uris":{"android":"levelo://app?vid=cba60e58-48d2-4695-a218-c3d3f13631d8","ios":"levelo://app?vid=cba60e58-48d2-4695-a218-c3d3f13631d8"},"vehicle_type_id":"4","last_reported":1773337247,"current_range_meters":11200,"station_id":"ce4bhbp2rcd13ifvqesg","pricing_plan_id":"cebpf4jnsgd1na2vs0mg"},{"bike_id":"0864731d-e776-49ce-ac1e-bf70a52eb48d","system_id":"levelo_inurba_marseille","lat":43.29527,"lon":5.39403,"is_reserved":false,"is_disabled":true,"rental_uris":{"android":"levelo://app?vid=0864731d-e776-49ce-ac1e-bf70a52eb48d","ios":"levelo://app?vid=0864731d-e776-49ce-ac1e-bf70a52eb48d"},"vehicle_type_id":"4","last_reported":1773337247,"current_range_meters":18000,"station_id":"ce4bh292rcd13ifvqdf0","pricing_plan_id":"cebpf4jnsgd1na2vs0mg"},{"bike_id":"e77d702c-6e9d-4250-820b-3ce09f62e0dd","system_id":"levelo_inurba_marseille","lat":43.225326,"lon":5.348355,"is_reserved":false,"is_disabled":false,"rental_uris":{"android":"levelo://app?vid=e77d702c-6e9d-4250-820b-3ce09f62e0dd","ios":"levelo://app?vid=e77d702c-6e9d-4250-820b-3ce09f62e0dd"},"vehicle_type_id":"4","last_reported":1773337247,"current_range_meters":17200,"station_id":"","pricing_plan_id":"cebpf4jnsgd1na2vs0mg"},{"bike_id":"26ef4377-4d70-4719-8ea2-f8aacba3a0ff","system_id":"levelo_inurba_marseille","lat":43.30295,"lon":5.39211,"is_reserved":false,"is_disabled":false,"rental_uris":{"android":"levelo://app?vid=26ef4377-4d70-4719-8ea2-f8aacba3a0ff","ios":"levelo://app?vid=26ef4377-4d70-4719-8ea2-f8aacba3a0ff"},"vehicle_type_id":"4","last_reported":1773337247,"current_range_meters":38400,"station_id":"ce4bgkh2rcd13ifvqbk0","pricing_plan_id":"cebpf4jnsgd1na2vs0mg"},{"bike_id":"f9bf9855-884b-4f5c-9764-ed018b713ea0","system_id":"levelo_inurba_marseille","lat":43.30248,"lon":5.40062,"is_reserved":false,"is_disabled":false,"rental_uris":{"android":"levelo://app?vid=f9bf9855-884b-4f5c-9764-ed018b713ea0","ios":"levelo://app?vid=f9bf9855-884b-4f5c-9764-ed018b713ea0"},"vehicle_type_id":"4","last_reported":1773337247,"current_range_meters":27200,"station_id":"ce4bgvh2rcd13ifvqcs0","pricing_plan_id":"cebpf4jnsgd1na2vs0mg"},{"bike_id":"682da1a2-9992-42a0-a763-7ba6525cc044","system_id":"levelo_inurba_marseille","lat":43.3157,"lon":5.38042,"is_reserved":false,"is_disabled":false,"rental_uris":{"android":"levelo://app?vid=682da1a2-9992-42a0-a763-7ba6525cc044","ios":"levelo://app?vid=682da1a2-9992-42a0-a763-7ba6525cc044"},"vehicle_type_id":"4","last_reported":1773337247,"current_range_meters":27600,"station_id":"ce4bhsp2rcd13ifvqi50","pricing_plan_id":"cebpf4jnsgd1na2vs0mg"},{"bike_id":"27538746-56d0-4be5-853e-86ae52dd0a53","system_id":"levelo_inurba_marseille","lat":43.24079,"lon":5.37755,"is_reserved":false,"is_disabled":true,"rental_uris":{"android":"levelo://app?vid=27538746-56d0-4be5-853e-86ae52dd0a53","ios":"levelo://app?vid=27538746-56d0-4be5-853e-86ae52dd0a53"},"vehicle_type_id":"4","last_reported":1773337247,"current_range_meters":36400,"station_id":"ce4bhnp2rcd13ifvqgvg","pricing_plan_id":"cebpf4jnsgd1na2vs0mg"},{"bike_id":"238a3d2c-4029-40ec-a953-4eb5b2fc41cc","system_id":"levelo_inurba_marseille","lat":43.29005,"lon":5.35594,"is_reserved":false,"is_disabled":false,"rental_uris":{"android":"levelo://app?vid=238a3d2c-4029-40ec-a953-4eb5b2fc41cc","ios":"levelo://app?vid=238a3d2c-4029-40ec-a953-4eb5b2fc41cc"},"vehicle_type_id":"4","last_reported":1773337247,"current_range_meters":17600,"station_id":"ce4bhb92rcd13ifvqen0","pricing_plan_id":"cebpf4jnsgd1na2vs0mg"},{"bike_id":"a707dda2-38e0-4399-93e5-3d670c363d77","system_id":"levelo_inurba_marseille","lat":43.30513,"lon":5.36636,"is_reserved":false,"is_disabled":false,"rental_uris":{"android":"levelo://app?vid=a707dda2-38e0-4399-93e5-3d670c363d77","ios":"levelo://app?vid=a707dda2-38e0-4399-93e5-3d670c363d77"},"vehicle_type_id":"4","last_reported":1773337247,"current_range_meters":18000,"station_id":"","pricing_plan_id":"cebpf4jnsgd1na2vs0mg"},{"bike_id":"e9828655-3e9f-4bf1-900b-4524602dc318","system_id":"levelo_inurba_marseille","lat":43.23967,"lon":5.36633,"is_reserved":false,"is_disabled":false,"rental_uris":{"android":"levelo://app?vid=e9828655-3e9f-4bf1-900b-4524602dc318","ios":"levelo://app?vid=e9828655-3e9f-4bf1-900b-4524602dc318"},"vehicle_type_id":"4","last_reported":1773337247,"current_range_meters":4800,"station_id":"ce4bhi12rcd13ifvqfp0","pricing_plan_id":"cebpf4jnsgd1na2vs0mg"},{"bike_id":"15774bab-5193-4899-b81e-faca4fe9541b","system_id":"levelo_inurba_marseille","lat":43.29617,"lon":5.3811,"is_reserved":false,"is_disabled":false,"rental_uris":{"android":"levelo://app?vid=15774bab-5193-4899-b81e-faca4fe9541b","ios":"levelo://app?vid=15774bab-5193-4899-b81e-faca4fe9541b"},"vehicle_type_id":"4","last_reported":1773337247,"current_range_meters":36800,"station_id":"ce4bgl12rcd13ifvqbo0","pricing_plan_id":"cebpf4jnsgd1na2vs0mg"},{"bike_id":"c5a9002e-9ed9-4827-90b3-f3f6803216da","system_id":"levelo_inurba_marseille","lat":43.33026,"lon":5.39043,"is_reserved":false,"is_disabled":false,"rental_uris":{"android":"levelo://app?vid=c5a9002e-9ed9-4827-90b3-f3f6803216da","ios":"levelo://app?vid=c5a9002e-9ed9-4827-90b3-f3f6803216da"},"vehicle_type_id":"4","last_reported":1773337247,"current_range_meters":39200,"station_id":"ce4bhr92rcd13ifvqhrg","pricing_plan_id":"cebpf4jnsgd1na2vs0mg"},{"bike_id":"6573c181-239b-471a-b8b0-12e7aa35eaa0","system_id":"levelo_inurba_marseille","lat":43.31202,"lon":5.39966,"is_reserved":false,"is_disabled":false,"rental_uris":{"android":"levelo://app?vid=6573c181-239b-471a-b8b0-12e7aa35eaa0","ios":"levelo://app?vid=6573c181-239b-471a-b8b0-12e7aa35eaa0"},"vehicle_type_id":"4","last_reported":1773337247,"current_range_meters":30400,"station_id":"","pricing_plan_id":"cebpf4jnsgd1na2vs0mg"},{"bike_id":"f94158ca-d226-441b-8a81-c5dcdcaec34d","system_id":"levelo_inurba_marseille","lat":43.33161,"lon":5.37689,"is_reserved":false,"is_disabled":false,"rental_uris":{"android":"levelo://app?vid=f94158ca-d226-441b-8a81-c5dcdcaec34d","ios":"levelo://app?vid=f94158ca-d226-441b-8a81-c5dcdcaec34d"},"vehicle_type_id":"4","last_reported":1773337247,"current_range_meters":24800,"station_id":"st_d46cu089ee8s73dldbu0","pricing_plan_id":"cebpf4jnsgd1na2vs0mg"},{"bike_id":"3faa3955-fc91-4d7b-bafd-bc8fda72019b","system_id":"levelo_inurba_marseille","lat":43.32045,"lon":5.41513,"is_reserved":false,"is_disabled":false,"rental_uris":{"android":"levelo://app?vid=3faa3955-fc91-4d7b-bafd-bc8fda72019b","ios":"levelo://app?vid=3faa3955-fc91-4d7b-bafd-bc8fda72019b"},"vehicle_type_id":"4","last_reported":1773337247,"current_range_meters":39200,"station_id":"ce4bhq92rcd13ifvqhkg","pricing_plan_id":"cebpf4jnsgd1na2vs0mg"},{"bike_id":"b37f67f1-89d6-4385-9bac-63826e0bd8fa","system_id":"levelo_inurba_marseille","lat":43.31759,"lon":5.39017,"is_reserved":false,"is_disabled":false,"rental_uris":{"android":"levelo://app?vid=b37f67f1-89d6-4385-9bac-63826e0bd8fa","ios":"levelo://app?vid=b37f67f1-89d6-4385-9bac-63826e0bd8fa"},"vehicle_type_id":"4","last_reported":1773337247,"current_range_meters":28400,"station_id":"ce4bhqp2rcd13ifvqhng","pricing_plan_id":"cebpf4jnsgd1na2vs0mg"},{"bike_id":"6714984a-530c-415c-8cef-eb6afdbf6bde","system_id":"levelo_inurba_marseille","lat":43.3014,"lon":5.38774,"is_reserved":false,"is_disabled":false,"rental_uris":{"android":"levelo://app?vid=6714984a-530c-415c-8cef-eb6afdbf6bde","ios":"levelo://app?vid=6714984a-530c-415c-8cef-eb6afdbf6bde"},"vehicle_type_id":"4","last_reported":1773337247,"current_range_meters":26800,"station_id":"ce4bghh2rcd13ifvqb60","pricing_plan_id":"cebpf4jnsgd1na2vs0mg"},{"bike_id":"93ac3ef9-2dcd-456c-80a9-ca9972d8bda2","system_id":"levelo_inurba_marseille","lat":43.2762,"lon":5.36134,"is_reserved":false,"is_disabled":false,"rental_uris":{"android":"levelo://app?vid=93ac3ef9-2dcd-456c-80a9-ca9972d8bda2","ios":"levelo://app?vid=93ac3ef9-2dcd-456c-80a9-ca9972d8bda2"},"vehicle_type_id":"4","last_reported":1773337247,"current_range_meters":11200,"station_id":"ce4bgj92rcd13ifvqbe0","pricing_plan_id":"cebpf4jnsgd1na2vs0mg"},{"bike_id":"a7d30a07-543b-4fc2-9801-4af71686f0bc","system_id":"levelo_inurba_marseille","lat":43.295353,"lon":5.385482,"is_reserved":false,"is_disabled":false,"rental_uris":{"android":"levelo://app?vid=a7d30a07-543b-4fc2-9801-4af71686f0bc","ios":"levelo://app?vid=a7d30a07-543b-4fc2-9801-4af71686f0bc"},"vehicle_type_id":"4","last_reported":1773337247,"current_range_meters":11200,"station_id":"ce4bgih2rcd13ifvqba0","pricing_plan_id":"cebpf4jnsgd1na2vs0mg"},{"bike_id":"951e03d5-b1cb-4399-8726-90cf0881bc92","system_id":"levelo_inurba_marseille","lat":43.30926,"lon":5.36842,"is_reserved":false,"is_disabled":false,"rental_uris":{"android":"levelo://app?vid=951e03d5-b1cb-4399-8726-90cf0881bc92","ios":"levelo://app?vid=951e03d5-b1cb-4399-8726-90cf0881bc92"},"vehicle_type_id":"4","last_reported":1773337247,"current_range_meters":18800,"station_id":"ce4bgn92rcd13ifvqbvg","pricing_plan_id":"cebpf4jnsgd1na2vs0mg"},{"bike_id":"91e2ec13-9c0c-48a8-ae2c-22b314a7abc8","system_id":"levelo_inurba_marseille","lat":43.29037,"lon":5.40022,"is_reserved":false,"is_disabled":false,"rental_uris":{"android":"levelo://app?vid=91e2ec13-9c0c-48a8-ae2c-22b314a7abc8","ios":"levelo://app?vid=91e2ec13-9c0c-48a8-ae2c-22b314a7abc8"},"vehicle_type_id":"4","last_reported":1773337247,"current_range_meters":20000,"station_id":"ce4bh392rcd13ifvqdm0","pricing_plan_id":"cebpf4jnsgd1na2vs0mg"},{"bike_id":"3bb81ae2-39fa-44c9-90f3-8f1e56842db6","system_id":"levelo_inurba_marseille","lat":43.25096,"lon":5.40341,"is_reserved":false,"is_disabled":false,"rental_uris":{"android":"levelo://app?vid=3bb81ae2-39fa-44c9-90f3-8f1e56842db6","ios":"levelo://app?vid=3bb81ae2-39fa-44c9-90f3-8f1e56842db6"},"vehicle_type_id":"4","last_reported":1773337247,"current_range_meters":27200,"station_id":"ce4bhlh2rcd13ifvqgig","pricing_plan_id":"cebpf4jnsgd1na2vs0mg"},