{"last_updated":1713701573,"ttl":30,"version":"2.2","data":{"bikes":[{"bike_id":"ebde9dcf-6276-4a8f-8e6d-11e75a243ac8","system_id":"levelo_inurba_marseille","lat":43.31341,"lon":5.367098,"is_reserved":false,"is_disabled":false,"rental_uris":{"android":"levelo://app?vid=ebde9dcf-6276-4a8f-8e6d-11e75a243ac8","ios":"levelo://app?vid=ebde9dcf-6276-4a8f-8e6d-11e75a243ac8"},"vehicle_type_id":"4","last_reported":1713701573,"current_range_meters":18400,"station_id":"ce4bgr92rcd13ifvqc6g","pricing_plan_id":"cebpf4jnsgd1na2vs0mg"},{"bike_id":"e7460428-06b7-4b93-aafb-430017128529","system_id":"levelo_inurba_marseille","lat":43.313391,"lon":5.36706,"is_reserved":false,"is_disabled":false,"rental_uris":{"android":"levelo://app?vid=e7460428-06b7-4b93-aafb-430017128529","ios":"levelo://app?vid=e7460428-06b7-4b93-aafb-430017128529"},"vehicle_type_id":"4","last_reported":1713701573,"current_range_meters":30400,"station_id":"ce4bgr92rcd13ifvqc6g","pricing_plan_id":"cebpf4jnsgd1na2vs0mg"},{"bike_id":"422f432d-ee62-48b7-8f92-d99a00bac35a","system_id":"levelo_inurba_marseille","lat":43.313391,"lon":5.36706,"is_reserved":false,"is_disabled":false,"rental_uris":{"android":"levelo://app?vid=422f432d-ee62-48b7-8f92-d99a00bac35a","ios":"levelo://app?vid=422f432d-ee62-48b7-8f92-d99a00bac35a"},"vehicle_type_id":"4","last_reported":1713701573,"current_range_meters":12800,"station_id":"ce4bgr92rcd13ifvqc6g","pricing_plan_id":"cebpf4jnsgd1na2vs0mg"},{"bike_id":"90ed8635-4ab1-456e-99ef-a5c07dcc1b11","system_id":"levelo_inurba_marseille","lat":43.312239,"lon":5.368562,"is_reserved":false,"is_disabled":false,"rental_uris":{"android":"levelo://app?vid=90ed8635-4ab1-456e-99ef-a5c07dcc1b11","ios":"levelo://app?vid=90ed8635-4ab1-456e-99ef-a5c07dcc1b11"},"vehicle_type_id":"4","last_reported":1713701573,"current_range_meters":22400,"station_id":"ce4bgl92rcd13ifvqbq0","pricing_plan_id":"cebpf4jnsgd1na2vs0mg"},{"bike_id":"ca4a51c4-3ddd-4f37-a19c-7eb455bee9d1","system_id":"levelo_inurba_marseille","lat":43.312239,"lon":5.368562,"is_reserved":false,"is_disabled":false,"rental_uris":{"android":"levelo://app?vid=ca4a51c4-3ddd-4f37-a19c-7eb455bee9d1","ios":"levelo://app?vid=ca4a51c4-3ddd-4f37-a19c-7eb455bee9d1"},"vehicle_type_id":"4","last_reported":1713701573,"current_range_meters":21200,"station_id":"ce4bgl92rcd13ifvqbq0","pricing_plan_id":"cebpf4jnsgd1na2vs0mg"},{"bike_id":"0a40c872-a16e-4ede-893c-0a20322cc132","system_id":"levelo_inurba_marseille","lat":43.309585,"lon":5.370645,"is_reserved":false,"is_disabled":false,"rental_uris":{"android":"levelo://app?vid=0a40c872-a16e-4ede-893c-0a20322cc132","ios":"levelo://app?vid=0a40c872-a16e-4ede-893c-0a20322cc132"},"vehicle_type_id":"4","last_reported":1713701573,"current_range_meters":400,"station_id":"","pricing_plan_id":"cebpf4jnsgd1na2vs0mg"},{"bike_id":"616564ea-5146-40b8-8c20-a68a35df50c7","system_id":"levelo_inurba_marseille","lat":43.314811,"lon":5.373103,"is_reserved":false,"is_disabled":false,"rental_uris":{"android":"levelo://app?vid=616564ea-5146-40b8-8c20-a68a35df50c7","ios":"levelo://app?vid=616564ea-5146-40b8-8c20-a68a35df50c7"},"vehicle_type_id":"4","last_reported":1713701573,"current_range_meters":26800,"station_id":"ce4bgt12rcd13ifvqcd0","pricing_plan_id":"cebpf4jnsgd1na2vs0mg"},{"bike_id":"f6354518-7dab-4a30-8ce5-08eb8cbef774","system_id":"levelo_inurba_marseille","lat":43.31495,"lon":5.37313,"is_reserved":false,"is_disabled":false,"rental_uris":{"android":"levelo://app?vid=f6354518-7dab-4a30-8ce5-08eb8cbef774","ios":"levelo://app?vid=f6354518-7dab-4a30-8ce5-08eb8cbef774"},"vehicle_type_id":"4","last_reported":1713701573,"current_range_meters":18000,"station_id":"ce4bgt12rcd13ifvqcd0","pricing_plan_id":"cebpf4jnsgd1na2vs0mg"},{"bike_id":"8b3c8d72-8890-4090-8fc0-c3dc26f225a8","system_id":"levelo_inurba_marseille","lat":43.305712,"lon":5.365641,"is_reserved":false,"is_disabled":false,"rental_uris":{"android":"levelo://app?vid=8b3c8d72-8890-4090-8fc0-c3dc26f225a8","ios":"levelo://app?vid=8b3c8d72-8890-4090-8fc0-c3dc26f225a8"},"vehicle_type_id":"4","last_reported":1713701573,"current_range_meters":9600,"station_id":"ce4bgs12rcd13ifvqcag","pricing_plan_id":"cebpf4jnsgd1na2vs0mg"},{"bike_id":"b8c9d7e9-af6d-44d4-befc-1601a3024513","system_id":"levelo_inurba_marseille","lat":43.305706,"lon":5.365654,"is_reserved":false,"is_disabled":false,"rental_uris":{"android":"levelo://app?vid=b8c9d7e9-af6d-44d4-befc-1601a3024513","ios":"levelo://app?vid=b8c9d7e9-af6d-44d4-befc-1601a3024513"},"vehicle_type_id":"4","last_reported":1713701573,"current_range_meters":22400,"station_id":"ce4bgs12rcd13ifvqcag","pricing_plan_id":"cebpf4jnsgd1na2vs0mg"},{"bike_id":"ba65c028-ff3d-47c8-a5a5-d4dd810ee20c","system_id":"levelo_inurba_marseille","lat":43.305706,"lon":5.365654,"is_reserved":false,"is_disabled":false,"rental_uris":{"android":"levelo://app?vid=ba65c028-ff3d-47c8-a5a5-d4dd810ee20c","ios":"levelo://app?vid=ba65c028-ff3d-47c8-a5a5-d4dd810ee20c"},"vehicle_type_id":"4","last_reported":1713701573,"current_range_meters":4400,"station_id":"ce4bgs12rcd13ifvqcag","pricing_plan_id":"cebpf4jnsgd1na2vs0mg"},{"bike_id":"7809e715-7b0e-421e-9105-610ff49d441d","system_id":"levelo_inurba_marseille","lat":43.305706,"lon":5.365654,"is_reserved":false,"is_disabled":false,"rental_uris":{"android":"levelo://app?vid=7809e715-7b0e-421e-9105-610ff49d441d","ios":"levelo://app?vid=7809e715-7b0e-421e-9105-610ff49d441d"},"vehicle_type_id":"4","last_reported":1713701573,"current_range_meters":4000,"station_id":"ce4bgs12rcd13ifvqcag","pricing_plan_id":"cebpf4jnsgd1na2vs0mg"},{"bike_id":"60396f4e-9ba3-479e-8243-f13db636f61c","system_id":"levelo_inurba_marseille","lat":43.305706,"lon":5.365654,"is_reserved":false,"is_disabled":false,"rental_uris":{"android":"levelo://app?vid=60396f4e-9ba3-479e-8243-f13db636f61c","ios":"levelo://app?vid=60396f4e-9ba3-479e-8243-f13db636f61c"},"vehicle_type_id":"4","last_reported":1713701573,"current_range_meters":17200,"station_id":"ce4bgs12rcd13ifvqcag","pricing_plan_id":"cebpf4jnsgd1na2vs0mg"},{"bike_id":"b8ebfc58-b4d3-4e66-89f0-fe8b76b0a4ad","system_id":"levelo_inurba_marseille","lat":43.305706,"lon":5.365654,"is_reserved":false,"is_disabled":false,"rental_uris":{"android":"levelo://app?vid=b8ebfc58-b4d3-4e66-89f0-fe8b76b0a4ad","ios":"levelo://app?vid=b8ebfc58-b4d3-4e66-89f0-fe8b76b0a4ad"},"vehicle_type_id":"4","last_reported":1713701573,"current_range_meters":8000,"station_id":"ce4bgs12rcd13ifvqcag","pricing_plan_id":"cebpf4jnsgd1na2vs0mg"},{"bike_id":"59b06297-04d9-4503-be14-91e0d1585ecb","system_id":"levelo_inurba_marseille","lat":43.305989,"lon":5.37225,"is_reserved":false,"is_disabled":false,"rental_uris":{"android":"levelo://app?vid=59b06297-04d9-4503-be14-91e0d1585ecb","ios":"levelo://app?vid=59b06297-04d9-4503-be14-91e0d1585ecb"},"vehicle_type_id":"4","last_reported":1713701573,"current_range_meters":21200,"station_id":"ce4bgqh2rcd13ifvqc4g","pricing_plan_id":"cebpf4jnsgd1na2vs0mg"},{"bike_id":"1f768fe8-526d-4144-b5a3-e5353ca25e4a","system_id":"levelo_inurba_marseille","lat":43.31119,"lon":5.37776,"is_reserved":false,"is_disabled":false,"rental_uris":{"android":"levelo://app?vid=1f768fe8-526d-4144-b5a3-e5353ca25e4a","ios":"levelo://app?vid=1f768fe8-526d-4144-b5a3-e5353ca25e4a"},"vehicle_type_id":"4","last_reported":1713701573,"current_range_meters":12800,"station_id":"ce4bgt92rcd13ifvqcg0","pricing_plan_id":"cebpf4jnsgd1na2vs0mg"},{"bike_id":"beac37af-53ca-4d20-b080-9f0f537be47f","system_id":"levelo_inurba_marseille","lat":43.311131,"lon":5.377651,"is_reserved":false,"is_disabled":false,"rental_uris":{"android":"levelo://app?vid=beac37af-53ca-4d20-b080-9f0f537be47f","ios":"levelo://app?vid=beac37af-53ca-4d20-b080-9f0f537be47f"},"vehicle_type_id":"4","last_reported":1713701573,"current_range_meters":16800,"station_id":"ce4bgt92rcd13ifvqcg0","pricing_plan_id":"cebpf4jnsgd1na2vs0mg"},{"bike_id":"bf9ae891-e63c-43f9-b6d2-5ea846293a5d","system_id":"levelo_inurba_marseille","lat":43.303046,"lon":5.368981,"is_reserved":false,"is_disabled":false,"rental_uris":{"android":"levelo://app?vid=bf9ae891-e63c-43f9-b6d2-5ea846293a5d","ios":"levelo://app?vid=bf9ae891-e63c-43f9-b6d2-5ea846293a5d"},"vehicle_type_id":"4","last_reported":1713701573,"current_range_meters":22800,"station_id":"ce4bgqh2rcd13ifvqc5g","pricing_plan_id":"cebpf4jnsgd1na2vs0mg"},{"bike_id":"46a66a10-bcdd-438d-9640-980fcf20c290","system_id":"levelo_inurba_marseille","lat":43.303046,"lon":5.368981,"is_reserved":false,"is_disabled":false,"rental_uris":{"android":"levelo://app?vid=46a66a10-bcdd-438d-9640-980fcf20c290","ios":"levelo://app?vid=46a66a10-bcdd-438d-9640-980fcf20c290"},"vehicle_type_id":"4","last_reported":1713701573,"current_range_meters":22400,"station_id":"ce4bgqh2rcd13ifvqc5g","pricing_plan_id":"cebpf4jnsgd1na2vs0mg"},{"bike_id":"d95ed618-4d91-4d05-b9f0-e51864a0dce0","system_id":"levelo_inurba_marseille","lat":43.315293,"lon":5.380349,"is_reserved":false,"is_disabled":false,"rental_uris":{"android":"levelo://app?vid=d95ed618-4d91-4d05-b9f0-e51864a0dce0","ios":"levelo://app?vid=d95ed618-4d91-4d05-b9f0-e51864a0dce0"},"vehicle_type_id":"4","last_reported":1713701573,"current_range_meters":9600,"station_id":"ce4bhsp2rcd13ifvqi50","pricing_plan_id":"cebpf4jnsgd1na2vs0mg"},{"bike_id":"71e0ebcc-1046-46d4-93d2-d0e0d9f5c31c","system_id":"levelo_inurba_marseille","lat":43.301939,"lon":5.366286,"is_reserved":false,"is_disabled":false,"rental_uris":{"android":"levelo://app?vid=71e0ebcc-1046-46d4-93d2-d0e0d9f5c31c","ios":"levelo://app?vid=71e0ebcc-1046-46d4-93d2-d0e0d9f5c31c"},"vehicle_type_id":"4","last_reported":1713701573,"current_range_meters":23200,"station_id":"ce4bgrh2rcd13ifvqc8g","pricing_plan_id":"cebpf4jnsgd1na2vs0mg"},{"bike_id":"7239767d-2515-4596-95f9-751ebeb1f324","system_id":"levelo_inurba_marseille","lat":43.308012,"lon":5.381511,"is_reserved":false,"is_disabled":false,"rental_uris":{"android":"levelo://app?vid=7239767d-2515-4596-95f9-751ebeb1f324","ios":"levelo://app?vid=7239767d-2515-4596-95f9-751ebeb1f324"},"vehicle_type_id":"4","last_reported":1713701573,"current_range_meters":0,"station_id":"ce4bgt12rcd13ifvqce0","pricing_plan_id":"cebpf4jnsgd1na2vs0mg"},{"bike_id":"b9426e60-ed17-445d-905c-5ddfbf6f4ba7","system_id":"levelo_inurba_marseille","lat":43.304606,"lon":5.379026,"is_reserved":false,"is_disabled":false,"rental_uris":{"android":"levelo://app?vid=b9426e60-ed17-445d-905c-5ddfbf6f4ba7","ios":"levelo://app?vid=b9426e60-ed17-445d-905c-5ddfbf6f4ba7"},"vehicle_type_id":"4","last_reported":1713701573,"current_range_meters":14000,"station_id":"ce4bgup2rcd13ifvqcn0","pricing_plan_id":"cebpf4jnsgd1na2vs0mg"},{"bike_id":"1ab6da94-fcad-4748-8d32-a0a46f0dc1d8","system_id":"levelo_inurba_marseille","lat":43.304063,"lon":5.378172,"is_reserved":false,"is_disabled":false,"rental_uris":{"android":"levelo://app?vid=1ab6da94-fcad-4748-8d32-a0a46f0dc1d8","ios":"levelo://app?vid=1ab6da94-fcad-4748-8d32-a0a46f0dc1d8"},"vehicle_type_id":"4","last_reported":1713701573,"current_range_meters":0,"station_id":"","pricing_plan_id":"cebpf4jnsgd1na2vs0mg"},{"bike_id":"0f377889-8653-4f5d-9fec-8ef6b1d1b381","system_id":"levelo_inurba_marseille","lat":43.324771,"lon":5.36557,"is_reserved":false,"is_disabled":false,"rental_uris":{"android":"levelo://app?vid=0f377889-8653-4f5d-9fec-8ef6b1d1b381","ios":"levelo://app?vid=0f377889-8653-4f5d-9fec-8ef6b1d1b381"},"vehicle_type_id":"4","last_reported":1713701573,"current_range_meters":18400,"station_id":"ce4bhs12rcd13ifvqhvg","pricing_plan_id":"cebpf4jnsgd1na2vs0mg"},{"bike_id":"42a738e5-6187-458e-bf13-8b6c8fc648fc","system_id":"levelo_inurba_marseille","lat":43.32469,"lon":5.36555,"is_reserved":false,"is_disabled":false,"rental_uris":{"android":"levelo://app?vid=42a738e5-6187-458e-bf13-8b6c8fc648fc","ios":"levelo://app?vid=42a738e5-6187-458e-bf13-8b6c8fc648fc"},"vehicle_type_id":"4","last_reported":1713701573,"current_range_meters":13200,"station_id":"ce4bhs12rcd13ifvqhvg","pricing_plan_id":"cebpf4jnsgd1na2vs0mg"},{"bike_id":"df167c0d-50d7-4701-b8a8-ab66122b2fa2","system_id":"levelo_inurba_marseille","lat":43.32475,"lon":5.365506,"is_reserved":false,"is_disabled":false,"rental_uris":{"android":"levelo://app?vid=df167c0d-50d7-4701-b8a8-ab66122b2fa2","ios":"levelo://app?vid=df167c0d-50d7-4701-b8a8-ab66122b2fa2"},"vehicle_type_id":"4","last_reported":1713701573,"current_range_meters":30400,"station_id":"ce4bhs12rcd13ifvqhvg","pricing_plan_id":"cebpf4jnsgd1na2vs0mg"},{"bike_id":"80dacc88-f9a5-4b5f-80f4-57bd33108ecb","system_id":"levelo_inurba_marseille","lat":43.324771,"lon":5.36557,"is_reserved":false,"is_disabled":false,"rental_uris":{"android":"levelo://app?vid=80dacc88-f9a5-4b5f-80f4-57bd33108ecb","ios":"levelo://app?vid=80dacc88-f9a5-4b5f-80f4-57bd33108ecb"},"vehicle_type_id":"4","last_reported":1713701573,"current_range_meters":24000,"station_id":"ce4bhs12rcd13ifvqhvg","pricing_plan_id":"cebpf4jnsgd1na2vs0mg"},{"bike_id":"2e28a25f-4989-49ec-9ebb-f023c8c7a903","system_id":"levelo_inurba_marseille","lat":43.324771,"lon":5.36557,"is_reserved":false,"is_disabled":false,"rental_uris":{"android":"levelo://app?vid=2e28a25f-4989-49ec-9ebb-f023c8c7a903","ios":"levelo://app?vid=2e28a25f-4989-49ec-9ebb-f023c8c7a903"},"vehicle_type_id":"4","last_reported":1713701573,"current_range_meters":29600,"station_id":"ce4bhs12rcd13ifvqhvg","pricing_plan_id":"cebpf4jnsgd1na2vs0mg"},{"bike_id":"37762814-e009-4aaa-b8dd-d33fe4f189f9","system_id":"levelo_inurba_marseille","lat":43.324792,"lon":5.365608,"is_reserved":false,"is_disabled":false,"rental_uris":{"android":"levelo://app?vid=37762814-e009-4aaa-b8dd-d33fe4f189f9","ios":"levelo://app?vid=37762814-e009-4aaa-b8dd-d33fe4f189f9"},"vehicle_type_id":"4","last_reported":1713701573,"current_range_meters":25200,"station_id":"ce4bhs12rcd13ifvqhvg","pricing_plan_id":"cebpf4jnsgd1na2vs0mg"},{"bike_id":"bc5923e4-da5e-40a6-a0e4-145afe68b8b7","system_id":"levelo_inurba_marseille","lat":43.32481,"lon":5.36578,"is_reserved":false,"is_disabled":false,"rental_uris":{"android":"levelo://app?vid=bc5923e4-da5e-40a6-a0e4-145afe68b8b7","ios":"levelo://app?vid=bc5923e4-da5e-40a6-a0e4-145afe68b8b7"},"vehicle_type_id":"4","last_reported":1713701573,"current_range_meters":16400,"station_id":"ce4bhs12rcd13ifvqhvg","pricing_plan_id":"cebpf4jnsgd1na2vs0mg"},{"bike_id":"6da657ab-00d6-4606-bb0a-fdc1f8bc0b21","system_id":"levelo_inurba_marseille","lat":43.324805,"lon":5.365574,"is_reserved":false,"is_disabled":false,"rental_uris":{"android":"levelo://app?vid=6da657ab-00d6-4606-bb0a-fdc1f8bc0b21","ios":"levelo://app?vid=6da657ab-00d6-4606-bb0a-fdc1f8bc0b21"},"vehicle_type_id":"4","last_reported":1713701573,"current_range_meters":26400,"station_id":"ce4bhs12rcd13ifvqhvg","pricing_plan_id":"cebpf4jnsgd1na2vs0mg"},{"bike_id":"2f3747f3-3e25-4f26-9df6-940acba002ed","system_id":"levelo_inurba_marseille","lat":43.324771,"lon":5.36557,"is_reserved":false,"is_disabled":false,"rental_uris":{"android":"levelo://app?vid=2f3747f3-3e25-4f26-9df6-940acba002ed","ios":"levelo://app?vid=2f3747f3-3e25-4f26-9df6-940acba002ed"},"vehicle_type_id":"4","last_reported":1713701573,"current_range_meters":12400,"station_id":"ce4bhs12rcd13ifvqhvg","pricing_plan_id":"cebpf4jnsgd1na2vs0mg"},{"bike_id":"e6b74ebe-a29c-4f3e-b240-3eaccee45a9c","system_id":"levelo_inurba_marseille","lat":43.32483,"lon":5.365665,"is_reserved":false,"is_disabled":false,"rental_uris":{"android":"levelo://app?vid=e6b74ebe-a29c-4f3e-b240-3eaccee45a9c","ios":"levelo://app?vid=e6b74ebe-a29c-4f3e-b240-3eaccee45a9c"},"vehicle_type_id":"4","last_reported":1713701573,"current_range_meters":26800,"station_id":"ce4bhu92rcd13ifvqi70","pricing_plan_id":"cebpf4jnsgd1na2vs0mg"},{"bike_id":"a0855b4c-e86e-4dfc-87a1-69946c1c1304","system_id":"levelo_inurba_marseille","lat":43.32486,"lon":5.36569,"is_reserved":false,"is_disabled":false,"rental_uris":{"android":"levelo://app?vid=a0855b4c-e86e-4dfc-87a1-69946c1c1304","ios":"levelo://app?vid=a0855b4c-e86e-4dfc-87a1-69946c1c1304"},"vehicle_type_id":"4","last_reported":1713701573,"current_range_meters":24800,"station_id":"ce4bhs12rcd13ifvqhvg","pricing_plan_id":"cebpf4jnsgd1na2vs0mg"},{"bike_id":"5b76192b-fc46-4948-80c5-6c37ae23cfca","system_id":"levelo_inurba_marseille","lat":43.324858,"lon":5.365628,"is_reserved":false,"is_disabled":false,"rental_uris":{"android":"levelo://app?vid=5b76192b-fc46-4948-80c5-6c37ae23cfca","ios":"levelo://app?vid=5b76192b-fc46-4948-80c5-6c37ae23cfca"},"vehicle_type_id":"4","last_reported":1713701573,"current_range_meters":28400,"station_id":"ce4bhs12rcd13ifvqhvg","pricing_plan_id":"cebpf4jnsgd1na2vs0mg"},{"bike_id":"c17751bf-4b1e-4ed5-8ec6-1aa8f0f5ee16","system_id":"levelo_inurba_marseille","lat":43.324864,"lon":5.36562,"is_reserved":false,"is_disabled":false,"rental_uris":{"android":"levelo://app?vid=c17751bf-4b1e-4ed5-8ec6-1aa8f0f5ee16","ios":"levelo://app?vid=c17751bf-4b1e-4ed5-8ec6-1aa8f0f5ee16"},"vehicle_type_id":"4","last_reported":1713701573,"current_range_meters":26400,"station_id":"ce4bhs12rcd13ifvqhvg","pricing_plan_id":"cebpf4jnsgd1na2vs0mg"},{"bike_id":"36cd2b59-d320-4de4-9281-906a0aeb1688","system_id":"levelo_inurba_marseille","lat":43.302862,"lon":5.377072,"is_reserved":false,"is_disabled":false,"rental_uris":{"android":"levelo://app?vid=36cd2b59-d320-4de4-9281-906a0aeb1688","ios":"levelo://app?vid=36cd2b59-d320-4de4-9281-906a0aeb1688"},"vehicle_type_id":"4","last_reported":1713701573,"current_range_meters":22400,"station_id":"ce4bhi12rcd13ifvqfp0","pricing_plan_id":"cebpf4jnsgd1na2vs0mg"},{"bike_id":"69a31bea-8aaa-4377-bf76-4a4d4aca060c","system_id":"levelo_inurba_marseille","lat":43.310804,"lon":5.38359,"is_reserved":false,"is_disabled":false,"rental_uris":{"android":"levelo://app?vid=69a31bea-8aaa-4377-bf76-4a4d4aca060c","ios":"levelo://app?vid=69a31bea-8aaa-4377-bf76-4a4d4aca060c"},"vehicle_type_id":"4","last_reported":1713701573,"current_range_meters":6400,"station_id":"ce4bgv92rcd13ifvqcr0","pricing_plan_id":"cebpf4jnsgd1na2vs0mg"},{"bike_id":"f33eba30-b885-4f09-9101-f3b801eba386","system_id":"levelo_inurba_marseille","lat":43.30143,"lon":5.37413,"is_reserved":false,"is_disabled":false,"rental_uris":{"android":"levelo://app?vid=f33eba30-b885-4f09-9101-f3b801eba386","ios":"levelo://app?vid=f33eba30-b885-4f09-9101-f3b801eba386"},"vehicle_type_id":"4","last_reported":1713701573,"current_range_meters":2000,"station_id":"ce4bgs92rcd13ifvqcc0","pricing_plan_id":"cebpf4jnsgd1na2vs0mg"},{"bike_id":"3028574b-331f-4cb6-b53f-6a081a794598","system_id":"levelo_inurba_marseille","lat":43.30143,"lon":5.37413,"is_reserved":false,"is_disabled":false,"rental_uris":{"android":"levelo://app?vid=3028574b-331f-4cb6-b53f-6a081a794598","ios":"levelo://app?vid=3028574b-331f-4cb6-b53f-6a081a794598"},"vehicle_type_id":"4","last_reported":1713701573,"current_range_meters":6000,"station_id":"ce4bgs92rcd13ifvqcc0","pricing_plan_id":"cebpf4jnsgd1na2vs0mg"},{"bike_id":"71cf26d6-2800-48dd-ae6e-8eda1eae26de","system_id":"levelo_inurba_marseille","lat":43.305395,"lon":5.380968,"is_reserved":false,"is_disabled":false,"rental_uris":{"android":"levelo://app?vid=71cf26d6-2800-48dd-ae6e-8eda1eae26de","ios":"levelo://app?vid=71cf26d6-2800-48dd-ae6e-8eda1eae26de"},"vehicle_type_id":"4","last_reported":1713701573,"current_range_meters":13600,"station_id":"","pricing_plan_id":"cebpf4jnsgd1na2vs0mg"},{"bike_id":"eee8b037-fb1b-443a-938d-c73de6735829","system_id":"levelo_inurba_marseille","lat":43.301429,"lon":5.37413,"is_reserved":false,"is_disabled":false,"rental_uris":{"android":"levelo://app?vid=eee8b037-fb1b-443a-938d-c73de6735829","ios":"levelo://app?vid=eee8b037-fb1b-443a-938d-c73de6735829"},"vehicle_type_id":"4","last_reported":1713701573,"current_range_meters":0,"station_id":"ce4bgs92rcd13ifvqcc0","pricing_plan_id":"cebpf4jnsgd1na2vs0mg"},{"bike_id":"095a0416-3820-484a-b73c-ce98b0f8928d","system_id":"levelo_inurba_marseille","lat":43.309371,"lon":5.401449,"is_reserved":false,"is_disabled":false,"rental_uris":{"android":"levelo://app?vid=095a0416-3820-484a-b73c-ce98b0f8928d","ios":"levelo://app?vid=095a0416-3820-484a-b73c-ce98b0f8928d"},"vehicle_type_id":"4","last_reported":1713701573,"current_range_meters":15600,"station_id":"ce4bgvp2rcd13ifvqct0","pricing_plan_id":"cebpf4jnsgd1na2vs0mg"},{"bike_id":"d556af53-f0f5-46dc-9ca6-ae45af10a5b0","system_id":"levelo_inurba_marseille","lat":43.319935,"lon":5.381699,"is_reserved":false,"is_disabled":false,"rental_uris":{"android":"levelo://app?vid=d556af53-f0f5-46dc-9ca6-ae45af10a5b0","ios":"levelo://app?vid=d556af53-f0f5-46dc-9ca6-ae45af10a5b0"},"vehicle_type_id":"4","last_reported":1713701573,"current_range_meters":29600,"station_id":"ce4bhr12rcd13ifvqhpg","pricing_plan_id":"cebpf4jnsgd1na2vs0mg"},{"bike_id":"7b4ad446-2855-4f99-aa9c-bfb370297360","system_id":"levelo_inurba_marseille","lat":43.319935,"lon":5.381699,"is_reserved":false,"is_disabled":false,"rental_uris":{"android":"levelo://app?vid=7b4ad446-2855-4f99-aa9c-bfb370297360","ios":"levelo://app?vid=7b4ad446-2855-4f99-aa9c-bfb370297360"},"vehicle_type_id":"4","last_reported":1713701573,"current_range_meters":25600,"station_id":"ce4bhr12rcd13ifvqhpg","pricing_plan_id":"cebpf4jnsgd1na2vs0mg"},{"bike_id":"f5e7986e-9896-4ba6-bcd7-564314e28783","system_id":"levelo_inurba_marseille","lat":43.319935,"lon":5.381699,"is_reserved":false,"is_disabled":false,"rental_uris":{"android":"levelo://app?vid=f5e7986e-9896-4ba6-bcd7-564314e28783","ios":"levelo://app?vid=f5e7986e-9896-4ba6-bcd7-564314e28783"},"vehicle_type_id":"4","last_reported":1713701573,"current_range_meters":7200,"station_id":"ce4bhr12rcd13ifvqhpg","pricing_plan_id":"cebpf4jnsgd1na2vs0mg"},{"bike_id":"f4b79354-8b98-4101-bf0a-c05d49197684","system_id":"levelo_inurba_marseille","lat":43.319935,"lon":5.381699,"is_reserved":false,"is_disabled":false,"rental_uris":{"android":"levelo://app?vid=f4b79354-8b98-4101-bf0a-c05d49197684","ios":"levelo://app?vid=f4b79354-8b98-4101-bf0a-c05d49197684"},"vehicle_type_id":"4","last_reported":1713701573,"current_range_meters":12000,"station_id":"ce4bhr12rcd13ifvqhpg","pricing_plan_id":"cebpf4jnsgd1na2vs0mg"},{"bike_id":"b265aba0-4cfb-44bd-8ef5-9b88c5912563","system_id":"levelo_inurba_marseille","lat":43.319935,"lon":5.381699,"is_reserved":false,"is_disabled":false,"rental_uris":{"android":"levelo://app?vid=b265aba0-4cfb-44bd-8ef5-9b88c5912563","ios":"levelo://app?vid=b265aba0-4cfb-44bd-8ef5-9b88c5912563"},"vehicle_type_id":"4","last_reported":1713701573,"current_range_meters":29600,"station_id":"ce4bhr12rcd13ifvqhpg","pricing_plan_id":"cebpf4jnsgd1na2vs0mg"},{"bike_id":"d212c281-3522-420a-b06f-b80966290c73","system_id":"levelo_inurba_marseille","lat":43.319931,"lon":5.381476,"is_reserved":false,"is_disabled":false,"rental_uris":{"android":"levelo://app?vid=d212c281-3522-420a-b06f-b80966290c73","ios":"levelo://app?vid=d212c281-3522-420a-b06f-b80966290c73"},"vehicle_type_id":"4","last_reported":1713701573,"current_range_meters":7200,"station_id":"ce4bhr12rcd13ifvqhpg","pricing_plan_id":"cebpf4jnsgd1na2vs0mg"},{"bike_id":"76ca3e78-4823-447c-8103-c63b6851f107","system_id":"levelo_inurba_marseille","lat":43.31993,"lon":5.38149,"is_reserved":false,"is_disabled":false,"rental_uris":{"android":"levelo://app?vid=76ca3e78-4823-447c-8103-c63b6851f107","ios":"levelo://app?vid=76ca3e78-4823-447c-8103-c63b6851f107"},"vehicle_type_id":"4","last_reported":1713701573,"current_range_meters":9200,"station_id":"ce4bhr12rcd13ifvqhpg","pricing_plan_id":"cebpf4jnsgd1na2vs0mg"},{"bike_id":"334e3407-4f9b-4b57-a5ef-39033f25d948","system_id":"levelo_inurba_marseille","lat":43.31996,"lon":5.38152,"is_reserved":false,"is_disabled":false,"rental_uris":{"android":"levelo://app?vid=334e3407-4f9b-4b57-a5ef-39033f25d948","ios":"levelo://app?vid=334e3407-4f9b-4b57-a5ef-39033f25d948"},"vehicle_type_id":"4","last_reported":1713701573,"current_range_meters":29600,"station_id":"ce4bhr12rcd13ifvqhpg","pricing_plan_id":"cebpf4jnsgd1na2vs0mg"},{"bike_id":"fc35b83a-f355-4ebd-97ef-f35d9b876a9d","system_id":"levelo_inurba_marseille","lat":43.319935,"lon":5.381699,"is_reserved":false,"is_disabled":false,"rental_uris":{"android":"levelo://app?vid=fc35b83a-f355-4ebd-97ef-f35d9b876a9d","ios":"levelo://app?vid=fc35b83a-f355-4ebd-97ef-f35d9b876a9d"},"vehicle_type_id":"4","last_reported":1713701573,"current_range_meters":21600,"station_id":"ce4bhr12rcd13ifvqhpg","pricing_plan_id":"cebpf4jnsgd1na2vs0mg"},{"bike_id":"14d44599-ab51-4852-ad81-4865cbede440","system_id":"levelo_inurba_marseille","lat":43.319935,"lon":5.381699,"is_reserved":false,"is_disabled":false,"rental_uris":{"android":"levelo://app?vid=14d44599-ab51-4852-ad81-4865cbede440","ios":"levelo://app?vid=14d44599-ab51-4852-ad81-4865cbede440"},"vehicle_type_id":"4","last_reported":1713701573,"current_range_meters":16000,"station_id":"ce4bhr12rcd13ifvqhpg","pricing_plan_id":"cebpf4jnsgd1na2vs0mg"},{"bike_id":"3594365e-d984-49df-a64e-1b28e894251a","system_id":"levelo_inurba_marseille","lat":43.319935,"lon":5.381699,"is_reserved":false,"is_disabled":false,"rental_uris":{"android":"levelo://app?vid=3594365e-d984-49df-a64e-1b28e894251a","ios":"levelo://app?vid=3594365e-d984-49df-a64e-1b28e894251a"},"vehicle_type_id":"4","last_reported":1713701573,"current_range_meters":27200,"station_id":"ce4bhr12rcd13ifvqhpg","pricing_plan_id":"cebpf4jnsgd1na2vs0mg"},{"bike_id":"ae41ac60-4963-46f0-9e11-16fe87928ca9","system_id":"levelo_inurba_marseille","lat":43.319935,"lon":5.381699,"is_reserved":false,"is_disabled":false,"rental_uris":{"android":"levelo://app?vid=ae41ac60-4963-46f0-9e11-16fe87928ca9","ios":"levelo://app?vid=ae41ac60-4963-46f0-9e11-16fe87928ca9"},"vehicle_type_id":"4","last_reported":1713701573,"current_range_meters":15600,"station_id":"ce4bhr12rcd13ifvqhpg","pricing_plan_id":"cebpf4jnsgd1na2vs0mg"},{"bike_id":"bfcf5e56-4ddd-4506-b5e5-7596786ed251","system_id":"levelo_inurba_marseille","lat":43.313571,"lon":5.384829,"is_reserved":false,"is_disabled":false,"rental_uris":{"android":"levelo://app?vid=bfcf5e56-4ddd-4506-b5e5-7596786ed251","ios":"levelo://app?vid=bfcf5e56-4ddd-4506-b5e5-7596786ed251"},"vehicle_type_id":"4","last_reported":1713701573,"current_range_meters":0,"station_id":"ce4bgt92rcd13ifvqcf0","pricing_plan_id":"cebpf4jnsgd1na2vs0mg"},{"bike_id":"5ef52f5f-0fa1-492b-85f1-2347e9a9ef89","system_id":"levelo_inurba_marseille","lat":43.31359,"lon":5.38504,"is_reserved":false,"is_disabled":false,"rental_uris":{"android":"levelo://app?vid=5ef52f5f-0fa1-492b-85f1-2347e9a9ef89","ios":"levelo://app?vid=5ef52f5f-0fa1-492b-85f1-2347e9a9ef89"},"vehicle_type_id":"4","last_reported":1713701573,"current_range_meters":0,"station_id":"ce4bgt92rcd13ifvqcf0","pricing_plan_id":"cebpf4jnsgd1na2vs0mg"},{"bike_id":"0a3f42e5-af2d-414f-bef8-882380b858d2","system_id":"levelo_inurba_marseille","lat":43.299222,"lon":5.365554,"is_reserved":false,"is_disabled":false,"rental_uris":{"android":"levelo://app?vid=0a3f42e5-af2d-414f-bef8-882380b858d2","ios":"levelo://app?vid=0a3f42e5-af2d-414f-bef8-882380b858d2"},"vehicle_type_id":"4","last_reported":1713701573,"current_range_meters":12800,"station_id":"ce4bgm92rcd13ifvqbr0","pricing_plan_id":"cebpf4jnsgd1na2vs0mg"},{"bike_id":"3b812a10-0648-4305-b97b-db106ebd4933","system_id":"levelo_inurba_marseille","lat":43.298433,"lon":5.362774,"is_reserved":false,"is_disabled":false,"rental_uris":{"android":"levelo://app?vid=3b812a10-0648-4305-b97b-db106ebd4933","ios":"levelo://app?vid=3b812a10-0648-4305-b97b-db106ebd4933"},"vehicle_type_id":"4","last_reported":1713701573,"current_range_meters":28400,"station_id":"ce4bgpp2rcd13ifvqc3g","pricing_plan_id":"cebpf4jnsgd1na2vs0mg"},{"bike_id":"b86e842f-740e-4fc3-bbef-2d08266d1bf3","system_id":"levelo_inurba_marseille","lat":43.298433,"lon":5.362774,"is_reserved":false,"is_disabled":false,"rental_uris":{"android":"levelo://app?vid=b86e842f-740e-4fc3-bbef-2d08266d1bf3","ios":"levelo://app?vid=b86e842f-740e-4fc3-bbef-2d08266d1bf3"},"vehicle_type_id":"4","last_reported":1713701573,"current_range_meters":8000,"station_id":"ce4bgpp2rcd13ifvqc3g","pricing_plan_id":"cebpf4jnsgd1na2vs0mg"},{"bike_id":"db708505-b945-4a61-a7ad-1427e72ec3c8","system_id":"levelo_inurba_marseille","lat":43.298433,"lon":5.362774,"is_reserved":false,"is_disabled":false,"rental_uris":{"android":"levelo://app?vid=db708505-b945-4a61-a7ad-1427e72ec3c8","ios":"levelo://app?vid=db708505-b945-4a61-a7ad-1427e72ec3c8"},"vehicle_type_id":"4","last_reported":1713701573,"current_range_meters":14000,"station_id":"ce4bgpp2rcd13ifvqc3g","pricing_plan_id":"cebpf4jnsgd1na2vs0mg"},{"bike_id":"a8c7b9dd-a9a1-4329-9d0b-871b794e3f20","system_id":"levelo_inurba_marseille","lat":43.298433,"lon":5.362774,"is_reserved":false,"is_disabled":false,"rental_uris":{"android":"levelo://app?vid=a8c7b9dd-a9a1-4329-9d0b-871b794e3f20","ios":"levelo://app?vid=a8c7b9dd-a9a1-4329-9d0b-871b794e3f20"},"vehicle_type_id":"4","last_reported":1713701573,"current_range_meters":31200,"station_id":"ce4bgpp2rcd13ifvqc3g","pricing_plan_id":"cebpf4jnsgd1na2vs0mg"},{"bike_id":"48ac7dd0-83cf-4d42-a48b-36baff09eaf0","system_id":"levelo_inurba_marseille","lat":43.297794,"lon":5.370888,"is_reserved":false,"is_disabled":false,"rental_uris":{"android":"levelo://app?vid=48ac7dd0-83cf-4d42-a48b-36baff09eaf0","ios":"levelo://app?vid=48ac7dd0-83cf-4d42-a48b-36baff09eaf0"},"vehicle_type_id":"4","last_reported":1713701573,"current_range_meters":26400,"station_id":"ce4bgop2rcd13ifvqc1g","pricing_plan_id":"cebpf4jnsgd1na2vs0mg"},{"bike_id":"026fb638-d892-43bb-ae77-73ee0f612e1f","system_id":"levelo_inurba_marseille","lat":43.3229,"lon":5.38258,"is_reserved":false,"is_disabled":false,"rental_uris":{"android":"levelo://app?vid=026fb638-d892-43bb-ae77-73ee0f612e1f","ios":"levelo://app?vid=026fb638-d892-43bb-ae77-73ee0f612e1f"},"vehicle_type_id":"4","last_reported":1713701573,"current_range_meters":7600,"station_id":"ce4bhr12rcd13ifvqhqg","pricing_plan_id":"cebpf4jnsgd1na2vs0mg"},{"bike_id":"1db02aab-65af-4d38-8223-af6cbfeb63a2","system_id":"levelo_inurba_marseille","lat":43.322846,"lon":5.382647,"is_reserved":false,"is_disabled":false,"rental_uris":{"android":"levelo://app?vid=1db02aab-65af-4d38-8223-af6cbfeb63a2","ios":"levelo://app?vid=1db02aab-65af-4d38-8223-af6cbfeb63a2"},"vehicle_type_id":"4","last_reported":1713701573,"current_range_meters":4400,"station_id":"ce4bhr12rcd13ifvqhqg","pricing_plan_id":"cebpf4jnsgd1na2vs0mg"},{"bike_id":"6a9bcf40-c5f9-44a4-a58e-664576d7b299","system_id":"levelo_inurba_marseille","lat":43.32289,"lon":5.38261,"is_reserved":false,"is_disabled":false,"rental_uris":{"android":"levelo://app?vid=6a9bcf40-c5f9-44a4-a58e-664576d7b299","ios":"levelo://app?vid=6a9bcf40-c5f9-44a4-a58e-664576d7b299"},"vehicle_type_id":"4","last_reported":1713701573,"current_range_meters":12800,"station_id":"ce4bhr12rcd13ifvqhqg","pricing_plan_id":"cebpf4jnsgd1na2vs0mg"},{"bike_id":"aa38acc2-91cb-407c-ac8c-05b08cc96e3e","system_id":"levelo_inurba_marseille","lat":43.322872,"lon":5.382756,"is_reserved":false,"is_disabled":false,"rental_uris":{"android":"levelo://app?vid=aa38acc2-91cb-407c-ac8c-05b08cc96e3e","ios":"levelo://app?vid=aa38acc2-91cb-407c-ac8c-05b08cc96e3e"},"vehicle_type_id":"4","last_reported":1713701573,"current_range_meters":27600,"station_id":"ce4bhr12rcd13ifvqhqg","pricing_plan_id":"cebpf4jnsgd1na2vs0mg"},{"bike_id":"59c296c1-c1af-4a71-9e20-fa9c7f8757f9","system_id":"levelo_inurba_marseille","lat":43.322872,"lon":5.382756,"is_reserved":false,"is_disabled":false,"rental_uris":{"android":"levelo://app?vid=59c296c1-c1af-4a71-9e20-fa9c7f8757f9","ios":"levelo://app?vid=59c296c1-c1af-4a71-9e20-fa9c7f8757f9"},"vehicle_type_id":"4","last_reported":1713701573,"current_range_meters":27600,"station_id":"ce4bhr12rcd13ifvqhqg","pricing_plan_id":"cebpf4jnsgd1na2vs0mg"},{"bike_id":"78a5faf2-cf51-4af7-a1f8-fc1f093b1e3a","system_id":"levelo_inurba_marseille","lat":43.322872,"lon":5.382756,"is_reserved":false,"is_disabled":false,"rental_uris":{"android":"levelo://app?vid=78a5faf2-cf51-4af7-a1f8-fc1f093b1e3a","ios":"levelo://app?vid=78a5faf2-cf51-4af7-a1f8-fc1f093b1e3a"},"vehicle_type_id":"4","last_reported":1713701573,"current_range_meters":28000,"station_id":"ce4bhr12rcd13ifvqhqg","pricing_plan_id":"cebpf4jnsgd1na2vs0mg"},{"bike_id":"b1c9170a-6a31-47d1-8e62-5b624c342910","system_id":"levelo_inurba_marseille","lat":43.32292,"lon":5.38267,"is_reserved":false,"is_disabled":false,"rental_uris":{"android":"levelo://app?vid=b1c9170a-6a31-47d1-8e62-5b624c342910","ios":"levelo://app?vid=b1c9170a-6a31-47d1-8e62-5b624c342910"},"vehicle_type_id":"4","last_reported":1713701573,"current_range_meters":24800,"station_id":"ce4bhr12rcd13ifvqhqg","pricing_plan_id":"cebpf4jnsgd1na2vs0mg"},{"bike_id":"2abc776a-4edc-4c84-a3c8-24ee9489103b","system_id":"levelo_inurba_marseille","lat":43.322872,"lon":5.382756,"is_reserved":false,"is_disabled":false,"rental_uris":{"android":"levelo://app?vid=2abc776a-4edc-4c84-a3c8-24ee9489103b","ios":"levelo://app?vid=2abc776a-4edc-4c84-a3c8-24ee9489103b"},"vehicle_type_id":"4","last_reported":1713701573,"current_range_meters":25600,"station_id":"ce4bhr12rcd13ifvqhqg","pricing_plan_id":"cebpf4jnsgd1na2vs0mg"},{"bike_id":"f4658287-0f7b-459c-89b6-7f8f93bb39ea","system_id":"levelo_inurba_marseille","lat":43.322872,"lon":5.382756,"is_reserved":false,"is_disabled":false,"rental_uris":{"android":"levelo://app?vid=f4658287-0f7b-459c-89b6-7f8f93bb39ea","ios":"levelo://app?vid=f4658287-0f7b-459c-89b6-7f8f93bb39ea"},"vehicle_type_id":"4","last_reported":1713701573,"current_range_meters":10000,"station_id":"ce4bhr12rcd13ifvqhqg","pricing_plan_id":"cebpf4jnsgd1na2vs0mg"},{"bike_id":"3a777aae-0d2a-4638-8c09-6f1de81534e0","system_id":"levelo_inurba_marseille","lat":43.322872,"lon":5.382756,"is_reserved":false,"is_disabled":false,"rental_uris":{"android":"levelo://app?vid=3a777aae-0d2a-4638-8c09-6f1de81534e0","ios":"levelo://app?vid=3a777aae-0d2a-4638-8c09-6f1de81534e0"},"vehicle_type_id":"4","last_reported":1713701573,"current_range_meters":28000,"station_id":"ce4bhr12rcd13ifvqhqg","pricing_plan_id":"cebpf4jnsgd1na2vs0mg"},{"bike_id":"c1c913df-b844-406e-83f7-dff5f43f7dc5","system_id":"levelo_inurba_marseille","lat":43.322872,"lon":5.382756,"is_reserved":false,"is_disabled":false,"rental_uris":{"android":"levelo://app?vid=c1c913df-b844-406e-83f7-dff5f43f7dc5","ios":"levelo://app?vid=c1c913df-b844-406e-83f7-dff5f43f7dc5"},"vehicle_type_id":"4","last_reported":1713701573,"current_range_meters":31600,"station_id":"ce4bhr12rcd13ifvqhqg","pricing_plan_id":"cebpf4jnsgd1na2vs0mg"},{"bike_id":"e5df68f6-b1ff-4d0a-b7e9-c02ca9b8210e","system_id":"levelo_inurba_marseille","lat":43.322872,"lon":5.382756,"is_reserved":false,"is_disabled":false,"rental_uris":{"android":"levelo://app?vid=e5df68f6-b1ff-4d0a-b7e9-c02ca9b8210e","ios":"levelo://app?vid=e5df68f6-b1ff-4d0a-b7e9-c02ca9b8210e"},"vehicle_type_id":"4","last_reported":1713701573,"current_range_meters":31600,"station_id":"ce4bhr12rcd13ifvqhqg","pricing_plan_id":"cebpf4jnsgd1na2vs0mg"},{"bike_id":"5210ca6d-30ea-4232-a93f-26c84ecf6bd8","system_id":"levelo_inurba_marseille","lat":43.297163,"lon":5.365866,"is_reserved":false,"is_disabled":false,"rental_uris":{"android":"levelo://app?vid=5210ca6d-30ea-4232-a93f-26c84ecf6bd8","ios":"levelo://app?vid=5210ca6d-30ea-4232-a93f-26c84ecf6bd8"},"vehicle_type_id":"4","last_reported":1713701573,"current_range_meters":26800,"station_id":"ce4bgn12rcd13ifvqbt0","pricing_plan_id":"cebpf4jnsgd1na2vs0mg"},{"bike_id":"49630d7f-3153-449b-b983-5b0d9d31f082","system_id":"levelo_inurba_marseille","lat":43.297163,"lon":5.365866,"is_reserved":false,"is_disabled":false,"rental_uris":{"android":"levelo://app?vid=49630d7f-3153-449b-b983-5b0d9d31f082","ios":"levelo://app?vid=49630d7f-3153-449b-b983-5b0d9d31f082"},"vehicle_type_id":"4","last_reported":1713701573,"current_range_meters":3200,"station_id":"ce4bgn12rcd13ifvqbt0","pricing_plan_id":"cebpf4jnsgd1na2vs0mg"},{"bike_id":"9ea16f43-703f-42c3-b7b0-4800b2912831","system_id":"levelo_inurba_marseille","lat":43.29687,"lon":5.373,"is_reserved":false,"is_disabled":false,"rental_uris":{"android":"levelo://app?vid=9ea16f43-703f-42c3-b7b0-4800b2912831","ios":"levelo://app?vid=9ea16f43-703f-42c3-b7b0-4800b2912831"},"vehicle_type_id":"4","last_reported":1713701573,"current_range_meters":2800,"station_id":"ce4bgk12rcd13ifvqbj0","pricing_plan_id":"cebpf4jnsgd1na2vs0mg"},{"bike_id":"5475d7eb-9457-47b0-b611-692a5a37f95b","system_id":"levelo_inurba_marseille","lat":43.2968,"lon":5.37291,"is_reserved":false,"is_disabled":false,"rental_uris":{"android":"levelo://app?vid=5475d7eb-9457-47b0-b611-692a5a37f95b","ios":"levelo://app?vid=5475d7eb-9457-47b0-b611-692a5a37f95b"},"vehicle_type_id":"4","last_reported":1713701573,"current_range_meters":27200,"station_id":"ce4bgk12rcd13ifvqbj0","pricing_plan_id":"cebpf4jnsgd1na2vs0mg"},{"bike_id":"933b821f-53ea-47f3-8558-36fa2113f77c","system_id":"levelo_inurba_marseille","lat":43.276179,"lon":5.361009,"is_reserved":false,"is_disabled":false,"rental_uris":{"android":"levelo://app?vid=933b821f-53ea-47f3-8558-36fa2113f77c","ios":"levelo://app?vid=933b821f-53ea-47f3-8558-36fa2113f77c"},"vehicle_type_id":"4","last_reported":1713701573,"current_range_meters":13600,"station_id":"ce4bgj92rcd13ifvqbe0","pricing_plan_id":"cebpf4jnsgd1na2vs0mg"},{"bike_id":"4946d9f5-1ae7-4f7a-a411-a7ff780bca49","system_id":"levelo_inurba_marseille","lat":43.29913,"lon":5.38125,"is_reserved":false,"is_disabled":false,"rental_uris":{"android":"levelo://app?vid=4946d9f5-1ae7-4f7a-a411-a7ff780bca49","ios":"levelo://app?vid=4946d9f5-1ae7-4f7a-a411-a7ff780bca49"},"vehicle_type_id":"4","last_reported":1713701573,"current_range_meters":0,"station_id":"ce4bgj12rcd13ifvqbc0","pricing_plan_id":"cebpf4jnsgd1na2vs0mg"},{"bike_id":"85440a93-f4e5-4537-afe3-abe8c2c72f9b","system_id":"levelo_inurba_marseille","lat":43.299028,"lon":5.381509,"is_reserved":false,"is_disabled":false,"rental_uris":{"android":"levelo://app?vid=85440a93-f4e5-4537-afe3-abe8c2c72f9b","ios":"levelo://app?vid=85440a93-f4e5-4537-afe3-abe8c2c72f9b"},"vehicle_type_id":"4","last_reported":1713701573,"current_range_meters":2400,"station_id":"ce4bgj12rcd13ifvqbc0","pricing_plan_id":"cebpf4jnsgd1na2vs0mg"},{"bike_id":"f4116a8e-bc68-4ea3-819a-2fb796d25e2d","system_id":"levelo_inurba_marseille","lat":43.299028,"lon":5.381509,"is_reserved":false,"is_disabled":false,"rental_uris":{"android":"levelo://app?vid=f4116a8e-bc68-4ea3-819a-2fb796d25e2d","ios":"levelo://app?vid=f4116a8e-bc68-4ea3-819a-2fb796d25e2d"},"vehicle_type_id":"4","last_reported":1713701573,"current_range_meters":5600,"station_id":"ce4bgj12rcd13ifvqbc0","pricing_plan_id":"cebpf4jnsgd1na2vs0mg"},{"bike_id":"9c59159f-0d7f-4a36-a988-296c29502b17","system_id":"levelo_inurba_marseille","lat":43.309589,"lon":5.390258,"is_reserved":false,"is_disabled":false,"rental_uris":{"android":"levelo://app?vid=9c59159f-0d7f-4a36-a988-296c29502b17","ios":"levelo://app?vid=9c59159f-0d7f-4a36-a988-296c29502b17"},"vehicle_type_id":"4","last_reported":1713701573,"current_range_meters":20800,"station_id":"ce4bgup2rcd13ifvqco0","pricing_plan_id":"cebpf4jnsgd1na2vs0mg"},{"bike_id":"60e4355f-1981-4631-8d68-1a01e5fa3dfe","system_id":"levelo_inurba_marseille","lat":43.317557,"lon":5.390173,"is_reserved":false,"is_disabled":false,"rental_uris":{"android":"levelo://app?vid=60e4355f-1981-4631-8d68-1a01e5fa3dfe","ios":"levelo://app?vid=60e4355f-1981-4631-8d68-1a01e5fa3dfe"},"vehicle_type_id":"4","last_reported":1713701573,"current_range_meters":30000,"station_id":"ce4bhqp2rcd13ifvqhng","pricing_plan_id":"cebpf4jnsgd1na2vs0mg"},{"bike_id":"e771bf5e-f187-4f61-86e5-46b2dcf520e2","system_id":"levelo_inurba_marseille","lat":43.317557,"lon":5.390173,"is_reserved":false,"is_disabled":false,"rental_uris":{"android":"levelo://app?vid=e771bf5e-f187-4f61-86e5-46b2dcf520e2","ios":"levelo://app?vid=e771bf5e-f187-4f61-86e5-46b2dcf520e2"},"vehicle_type_id":"4","last_reported":1713701573,"current_range_meters":0,"station_id":"ce4bhqp2rcd13ifvqhng","pricing_plan_id":"cebpf4jnsgd1na2vs0mg"},{"bike_id":"aee8f16b-ed35-46cd-849e-863154464d2c","system_id":"levelo_inurba_marseille","lat":43.317557,"lon":5.390173,"is_reserved":false,"is_disabled":false,"rental_uris":{"android":"levelo://app?vid=aee8f16b-ed35-46cd-849e-863154464d2c","ios":"levelo://app?vid=aee8f16b-ed35-46cd-849e-863154464d2c"},"vehicle_type_id":"4","last_reported":1713701573,"current_range_meters":18000,"station_id":"ce4bhqp2rcd13ifvqhng","pricing_plan_id":"cebpf4jnsgd1na2vs0mg"},{"bike_id":"6326eb21-c943-44fa-90b8-68f9ba2e8848","system_id":"levelo_inurba_marseille","lat":43.317557,"lon":5.390173,"is_reserved":false,"is_disabled":false,"rental_uris":{"android":"levelo://app?vid=6326eb21-c943-44fa-90b8-68f9ba2e8848","ios":"levelo://app?vid=6326eb21-c943-44fa-90b8-68f9ba2e8848"},"vehicle_type_id":"4","last_reported":1713701573,"current_range_meters":18400,"station_id":"ce4bhqp2rcd13ifvqhng","pricing_plan_id":"cebpf4jnsgd1na2vs0mg"},{"bike_id":"289454df-b6fb-4f1f-8c94-c39c1ca8da26","system_id":"levelo_inurba_marseille","lat":43.29804,"lon":5.38093,"is_reserved":false,"is_disabled":false,"rental_uris":{"android":"levelo://app?vid=289454df-b6fb-4f1f-8c94-c39c1ca8da26","ios":"levelo://app?vid=289454df-b6fb-4f1f-8c94-c39c1ca8da26"},"vehicle_type_id":"4","last_reported":1713701573,"current_range_meters":29600,"station_id":"ce4bhbp2rcd13ifvqesg","pricing_plan_id":"cebpf4jnsgd1na2vs0mg"},{"bike_id":"4b84f25b-811a-4274-9fb9-cd18093168d5","system_id":"levelo_inurba_marseille","lat":43.298037,"lon":5.381066,"is_reserved":false,"is_disabled":false,"rental_uris":{"android":"levelo://app?vid=4b84f25b-811a-4274-9fb9-cd18093168d5","ios":"levelo://app?vid=4b84f25b-811a-4274-9fb9-cd18093168d5"},"vehicle_type_id":"4","last_reported":1713701573,"current_range_meters":400,"station_id":"ce4bgip2rcd13ifvqbb0","pricing_plan_id":"cebpf4jnsgd1na2vs0mg"},{"bike_id":"b3469f36-b630-48e0-bb65-ca91ae31eb37","system_id":"levelo_inurba_marseille","lat":43.295748,"lon":5.37522,"is_reserved":false,"is_disabled":false,"rental_uris":{"android":"levelo://app?vid=b3469f36-b630-48e0-bb65-ca91ae31eb37","ios":"levelo://app?vid=b3469f36-b630-48e0-bb65-ca91ae31eb37"},"vehicle_type_id":"4","last_reported":1713701573,"current_range_meters":26800,"station_id":"ce4bgh92rcd13ifvqb50","pricing_plan_id":"cebpf4jnsgd1na2vs0mg"},{"bike_id":"193e5c08-0bb8-4209-879b-360c57536432","system_id":"levelo_inurba_marseille","lat":43.301939,"lon":5.366286,"is_reserved":false,"is_disabled":false,"rental_uris":{"android":"levelo://app?vid=193e5c08-0bb8-4209-879b-360c57536432","ios":"levelo://app?vid=193e5c08-0bb8-4209-879b-360c57536432"},"vehicle_type_id":"4","last_reported":1713701573,"current_range_meters":26000,"station_id":"ce4bgrh2rcd13ifvqc8g","pricing_plan_id":"cebpf4jnsgd1na2vs0mg"},{"bike_id":"17cfaee6-6db9-42a9-8fa1-ed05a50ef309","system_id":"levelo_inurba_marseille","lat":43.26202,"lon":5.379299,"is_reserved":false,"is_disabled":false,"rental_uris":{"android":"levelo://app?vid=17cfaee6-6db9-42a9-8fa1-ed05a50ef309","ios":"levelo://app?vid=17cfaee6-6db9-42a9-8fa1-ed05a50ef309"},"vehicle_type_id":"4","last_reported":1713701573,"current_range_meters":4800,"station_id":"ce4bhjp2rcd13ifvqg90","pricing_plan_id":"cebpf4jnsgd1na2vs0mg"},{"bike_id":"8aebe0ca-3827-47b1-aabf-43645c5298d7","system_id":"levelo_inurba_marseille","lat":43.29533,"lon":5.37507,"is_reserved":false,"is_disabled":false,"rental_uris":{"android":"levelo://app?vid=8aebe0ca-3827-47b1-aabf-43645c5298d7","ios":"levelo://app?vid=8aebe0ca-3827-47b1-aabf-43645c5298d7"},"vehicle_type_id":"4","last_reported":1713701573,"current_range_meters":22800,"station_id":"ce4bgkp2rcd13ifvqbmg","pricing_plan_id":"cebpf4jnsgd1na2vs0mg"},{"bike_id":"9306a4c5-d975-4d7d-8b95-35c1d7af8fba","system_id":"levelo_inurba_marseille","lat":43.29531,"lon":5.37508,"is_reserved":false,"is_disabled":false,"rental_uris":{"android":"levelo://app?vid=9306a4c5-d975-4d7d-8b95-35c1d7af8fba","ios":"levelo://app?vid=9306a4c5-d975-4d7d-8b95-35c1d7af8fba"},"vehicle_type_id":"4","last_reported":1713701573,"current_range_meters":0,"station_id":"ce4bgkp2rcd13ifvqbmg","pricing_plan_id":"cebpf4jnsgd1na2vs0mg"},{"bike_id":"101d8204-9230-46b7-8d5c-1853b901238c","system_id":"levelo_inurba_marseille","lat":43.33043,"lon":5.35877,"is_reserved":false,"is_disabled":false,"rental_uris":{"android":"levelo://app?vid=101d8204-9230-46b7-8d5c-1853b901238c","ios":"levelo://app?vid=101d8204-9230-46b7-8d5c-1853b901238c"},"vehicle_type_id":"4","last_reported":1713701573,"current_range_meters":5600,"station_id":"","pricing_plan_id":"cebpf4jnsgd1na2vs0mg"},{"bike_id":"3896c664-50fa-42db-9a2c-2d55be44e9c6","system_id":"levelo_inurba_marseille","lat":43.32365,"lon":5.38867,"is_reserved":false,"is_disabled":false,"rental_uris":{"android":"levelo://app?vid=3896c664-50fa-42db-9a2c-2d55be44e9c6","ios":"levelo://app?vid=3896c664-50fa-42db-9a2c-2d55be44e9c6"},"vehicle_type_id":"4","last_reported":1713701573,"current_range_meters":6800,"station_id":"ce4bhqp2rcd13ifvqhog","pricing_plan_id":"cebpf4jnsgd1na2vs0mg"},{"bike_id":"ee7e4b44-23ea-4839-8618-6c9cc97ded10","system_id":"levelo_inurba_marseille","lat":43.32368,"lon":5.38877,"is_reserved":false,"is_disabled":false,"rental_uris":{"android":"levelo://app?vid=ee7e4b44-23ea-4839-8618-6c9cc97ded10","ios":"levelo://app?vid=ee7e4b44-23ea-4839-8618-6c9cc97ded10"},"vehicle_type_id":"4","last_reported":1713701573,"current_range_meters":10000,"station_id":"ce4bhqp2rcd13ifvqhog","pricing_plan_id":"cebpf4jnsgd1na2vs0mg"},{"bike_id":"301b96d5-9b08-4069-93b3-5bb5ca5db37f","system_id":"levelo_inurba_marseille","lat":43.32369,"lon":5.38878,"is_reserved":false,"is_disabled":false,"rental_uris":{"android":"levelo://app?vid=301b96d5-9b08-4069-93b3-5bb5ca5db37f","ios":"levelo://app?vid=301b96d5-9b08-4069-93b3-5bb5ca5db37f"},"vehicle_type_id":"4","last_reported":1713701573,"current_range_meters":29600,"station_id":"ce4bhqp2rcd13ifvqhog","pricing_plan_id":"cebpf4jnsgd1na2vs0mg"},{"bike_id":"f72f7d16-f76f-47d8-a4bf-2dceff832f41","system_id":"levelo_inurba_marseille","lat":43.32366,"lon":5.38884,"is_reserved":false,"is_disabled":false,"rental_uris":{"android":"levelo://app?vid=f72f7d16-f76f-47d8-a4bf-2dceff832f41","ios":"levelo://app?vid=f72f7d16-f76f-47d8-a4bf-2dceff832f41"},"vehicle_type_id":"4","last_reported":1713701573,"current_range_meters":26800,"station_id":"ce4bhqp2rcd13ifvqhog","pricing_plan_id":"cebpf4jnsgd1na2vs0mg"},{"bike_id":"a0db72da-125f-48bb-83fe-ed3381eba2e4","system_id":"levelo_inurba_marseille","lat":43.32365,"lon":5.38886,"is_reserved":false,"is_disabled":false,"rental_uris":{"android":"levelo://app?vid=a0db72da-125f-48bb-83fe-ed3381eba2e4","ios":"levelo://app?vid=a0db72da-125f-48bb-83fe-ed3381eba2e4"},"vehicle_type_id":"4","last_reported":1713701573,"current_range_meters":18400,"station_id":"ce4bhqp2rcd13ifvqhog","pricing_plan_id":"cebpf4jnsgd1na2vs0mg"},{"bike_id":"32b7bba8-6d97-4857-85eb-58d603f49243","system_id":"levelo_inurba_marseille","lat":43.323655,"lon":5.38887,"is_reserved":false,"is_disabled":false,"rental_uris":{"android":"levelo://app?vid=32b7bba8-6d97-4857-85eb-58d603f49243","ios":"levelo://app?vid=32b7bba8-6d97-4857-85eb-58d603f49243"},"vehicle_type_id":"4","last_reported":1713701573,"current_range_meters":24400,"station_id":"ce4bhqp2rcd13ifvqhog","pricing_plan_id":"cebpf4jnsgd1na2vs0mg"},{"bike_id":"6ae1b144-e50b-4f65-874f-a7e89b565180","system_id":"levelo_inurba_marseille","lat":43.32367,"lon":5.38886,"is_reserved":false,"is_disabled":false,"rental_uris":{"android":"levelo://app?vid=6ae1b144-e50b-4f65-874f-a7e89b565180","ios":"levelo://app?vid=6ae1b144-e50b-4f65-874f-a7e89b565180"},"vehicle_type_id":"4","last_reported":1713701573,"current_range_meters":22800,"station_id":"ce4bhqp2rcd13ifvqhog","pricing_plan_id":"cebpf4jnsgd1na2vs0mg"},{"bike_id":"e21e3e1f-0a3e-4608-8b79-3dc06f921a69","system_id":"levelo_inurba_marseille","lat":43.323708,"lon":5.388825,"is_reserved":false,"is_disabled":false,"rental_uris":{"android":"levelo://app?vid=e21e3e1f-0a3e-4608-8b79-3dc06f921a69","ios":"levelo://app?vid=e21e3e1f-0a3e-4608-8b79-3dc06f921a69"},"vehicle_type_id":"4","last_reported":1713701573,"current_range_meters":23600,"station_id":"ce4bhqp2rcd13ifvqhog","pricing_plan_id":"cebpf4jnsgd1na2vs0mg"},{"bike_id":"0ef44390-9d1a-4948-a995-c8cc84c873c5","system_id":"levelo_inurba_marseille","lat":43.3237,"lon":5.3889,"is_reserved":false,"is_disabled":false,"rental_uris":{"android":"levelo://app?vid=0ef44390-9d1a-4948-a995-c8cc84c873c5","ios":"levelo://app?vid=0ef44390-9d1a-4948-a995-c8cc84c873c5"},"vehicle_type_id":"4","last_reported":1713701573,"current_range_meters":18000,"station_id":"ce4bhqp2rcd13ifvqhog","pricing_plan_id":"cebpf4jnsgd1na2vs0mg"},{"bike_id":"5caceea8-af1f-42a5-9f54-fbd64a91ce84","system_id":"levelo_inurba_marseille","lat":43.32374,"lon":5.38889,"is_reserved":false,"is_disabled":false,"rental_uris":{"android":"levelo://app?vid=5caceea8-af1f-42a5-9f54-fbd64a91ce84","ios":"levelo://app?vid=5caceea8-af1f-42a5-9f54-fbd64a91ce84"},"vehicle_type_id":"4","last_reported":1713701573,"current_range_meters":30800,"station_id":"ce4bhqp2rcd13ifvqhog","pricing_plan_id":"cebpf4jnsgd1na2vs0mg"},{"bike_id":"0f27724f-e7a9-4bfe-af75-826bce3540fa","system_id":"levelo_inurba_marseille","lat":43.32375,"lon":5.38891,"is_reserved":false,"is_disabled":false,"rental_uris":{"android":"levelo://app?vid=0f27724f-e7a9-4bfe-af75-826bce3540fa","ios":"levelo://app?vid=0f27724f-e7a9-4bfe-af75-826bce3540fa"},"vehicle_type_id":"4","last_reported":1713701573,"current_range_meters":16800,"station_id":"ce4bhqp2rcd13ifvqhog","pricing_plan_id":"cebpf4jnsgd1na2vs0mg"},{"bike_id":"dd11d5cd-5042-41e6-b7dc-e9db6b91bbca","system_id":"levelo_inurba_marseille","lat":43.31426,"lon":5.39372,"is_reserved":false,"is_disabled":false,"rental_uris":{"android":"levelo://app?vid=dd11d5cd-5042-41e6-b7dc-e9db6b91bbca","ios":"levelo://app?vid=dd11d5cd-5042-41e6-b7dc-e9db6b91bbca"},"vehicle_type_id":"4","last_reported":1713701573,"current_range_meters":2000,"station_id":"","pricing_plan_id":"cebpf4jnsgd1na2vs0mg"},{"bike_id":"84601acf-0cd5-4bf9-a58d-d27d7fe22a40","system_id":"levelo_inurba_marseille","lat":43.292749,"lon":5.368402,"is_reserved":false,"is_disabled":false,"rental_uris":{"android":"levelo://app?vid=84601acf-0cd5-4bf9-a58d-d27d7fe22a40","ios":"levelo://app?vid=84601acf-0cd5-4bf9-a58d-d27d7fe22a40"},"vehicle_type_id":"4","last_reported":1713701573,"current_range_meters":6800,"station_id":"ce4bhbp2rcd13ifvqesg","pricing_plan_id":"cebpf4jnsgd1na2vs0mg"},{"bike_id":"71d60eac-e762-433d-a7b4-6052683289fa","system_id":"levelo_inurba_marseille","lat":43.293009,"lon":5.374584,"is_reserved":false,"is_disabled":false,"rental_uris":{"android":"levelo://app?vid=71d60eac-e762-433d-a7b4-6052683289fa","ios":"levelo://app?vid=71d60eac-e762-433d-a7b4-6052683289fa"},"vehicle_type_id":"4","last_reported":1713701573,"current_range_meters":0,"station_id":"ce4bgi12rcd13ifvqb70","pricing_plan_id":"cebpf4jnsgd1na2vs0mg"},{"bike_id":"55022709-b45b-40f3-a025-64b582ba2a58","system_id":"levelo_inurba_marseille","lat":43.293009,"lon":5.374584,"is_reserved":false,"is_disabled":false,"rental_uris":{"android":"levelo://app?vid=55022709-b45b-40f3-a025-64b582ba2a58","ios":"levelo://app?vid=55022709-b45b-40f3-a025-64b582ba2a58"},"vehicle_type_id":"4","last_reported":1713701573,"current_range_meters":0,"station_id":"ce4bgi12rcd13ifvqb70","pricing_plan_id":"cebpf4jnsgd1na2vs0mg"},{"bike_id":"a2af4805-06a3-449c-b850-6e3ec3163885","system_id":"levelo_inurba_marseille","lat":43.29301,"lon":5.37466,"is_reserved":false,"is_disabled":false,"rental_uris":{"android":"levelo://app?vid=a2af4805-06a3-449c-b850-6e3ec3163885","ios":"levelo://app?vid=a2af4805-06a3-449c-b850-6e3ec3163885"},"vehicle_type_id":"4","last_reported":1713701573,"current_range_meters":15600,"station_id":"ce4bgi12rcd13ifvqb70","pricing_plan_id":"cebpf4jnsgd1na2vs0mg"},{"bike_id":"caa7df37-3f7b-4615-9690-c2c355a7fc15","system_id":"levelo_inurba_marseille","lat":43.2936,"lon":5.37835,"is_reserved":false,"is_disabled":false,"rental_uris":{"android":"levelo://app?vid=caa7df37-3f7b-4615-9690-c2c355a7fc15","ios":"levelo://app?vid=caa7df37-3f7b-4615-9690-c2c355a7fc15"},"vehicle_type_id":"4","last_reported":1713701573,"current_range_meters":24400,"station_id":"ce4bgjh2rcd13ifvqbf0","pricing_plan_id":"cebpf4jnsgd1na2vs0mg"},{"bike_id":"69819f41-73a6-4712-a4cd-d6636f9ed46b","system_id":"levelo_inurba_marseille","lat":43.29228,"lon":5.36073,"is_reserved":false,"is_disabled":false,"rental_uris":{"android":"levelo://app?vid=69819f41-73a6-4712-a4cd-d6636f9ed46b","ios":"levelo://app?vid=69819f41-73a6-4712-a4cd-d6636f9ed46b"},"vehicle_type_id":"4","last_reported":1713701573,"current_range_meters":0,"station_id":"ce4bhbh2rcd13ifvqeqg","pricing_plan_id":"cebpf4jnsgd1na2vs0mg"},{"bike_id":"f74e34fe-c162-4cdc-bdfb-5cdc35741802","system_id":"levelo_inurba_marseille","lat":43.296131,"lon":5.370791,"is_reserved":false,"is_disabled":false,"rental_uris":{"android":"levelo://app?vid=f74e34fe-c162-4cdc-bdfb-5cdc35741802","ios":"levelo://app?vid=f74e34fe-c162-4cdc-bdfb-5cdc35741802"},"vehicle_type_id":"4","last_reported":1713701573,"current_range_meters":11600,"station_id":"ce4bgnh2rcd13ifvqc0g","pricing_plan_id":"cebpf4jnsgd1na2vs0mg"},{"bike_id":"b85558a4-7633-434a-baf0-e86d3a05da93","system_id":"levelo_inurba_marseille","lat":43.292311,"lon":5.360731,"is_reserved":false,"is_disabled":false,"rental_uris":{"android":"levelo://app?vid=b85558a4-7633-434a-baf0-e86d3a05da93","ios":"levelo://app?vid=b85558a4-7633-434a-baf0-e86d3a05da93"},"vehicle_type_id":"4","last_reported":1713701573,"current_range_meters":4400,"station_id":"ce4bhbh2rcd13ifvqeqg","pricing_plan_id":"cebpf4jnsgd1na2vs0mg"},{"bike_id":"cbece497-d567-4f59-8060-127a7cb3752c","system_id":"levelo_inurba_marseille","lat":43.292311,"lon":5.360731,"is_reserved":false,"is_disabled":false,"rental_uris":{"android":"levelo://app?vid=cbece497-d567-4f59-8060-127a7cb3752c","ios":"levelo://app?vid=cbece497-d567-4f59-8060-127a7cb3752c"},"vehicle_type_id":"4","last_reported":1713701573,"current_range_meters":17600,"station_id":"ce4bhbh2rcd13ifvqeqg","pricing_plan_id":"cebpf4jnsgd1na2vs0mg"},{"bike_id":"a2291bc7-840d-487e-b274-1895afef821d","system_id":"levelo_inurba_marseille","lat":43.29215,"lon":5.36053,"is_reserved":false,"is_disabled":false,"rental_uris":{"android":"levelo://app?vid=a2291bc7-840d-487e-b274-1895afef821d","ios":"levelo://app?vid=a2291bc7-840d-487e-b274-1895afef821d"},"vehicle_type_id":"4","last_reported":1713701573,"current_range_meters":28800,"station_id":"","pricing_plan_id":"cebpf4jnsgd1na2vs0mg"},{"bike_id":"ba19777b-9aeb-4ba3-8460-615401ec819d","system_id":"levelo_inurba_marseille","lat":43.29529,"lon":5.385581,"is_reserved":false,"is_disabled":false,"rental_uris":{"android":"levelo://app?vid=ba19777b-9aeb-4ba3-8460-615401ec819d","ios":"levelo://app?vid=ba19777b-9aeb-4ba3-8460-615401ec819d"},"vehicle_type_id":"4","last_reported":1713701573,"current_range_meters":7200,"station_id":"ce4bgih2rcd13ifvqba0","pricing_plan_id":"cebpf4jnsgd1na2vs0mg"},{"bike_id":"57b89a5c-863c-45b5-914a-55a64f306a5e","system_id":"levelo_inurba_marseille","lat":43.291675,"lon":5.371583,"is_reserved":false,"is_disabled":false,"rental_uris":{"android":"levelo://app?vid=57b89a5c-863c-45b5-914a-55a64f306a5e","ios":"levelo://app?vid=57b89a5c-863c-45b5-914a-55a64f306a5e"},"vehicle_type_id":"4","last_reported":1713701573,"current_range_meters":8800,"station_id":"ce4bha92rcd13ifvqeh0","pricing_plan_id":"cebpf4jnsgd1na2vs0mg"},{"bike_id":"c0e60c27-1a1b-48bf-8653-3fa023ea769c","system_id":"levelo_inurba_marseille","lat":43.291671,"lon":5.371575,"is_reserved":false,"is_disabled":false,"rental_uris":{"android":"levelo://app?vid=c0e60c27-1a1b-48bf-8653-3fa023ea769c","ios":"levelo://app?vid=c0e60c27-1a1b-48bf-8653-3fa023ea769c"},"vehicle_type_id":"4","last_reported":1713701573,"current_range_meters":21600,"station_id":"ce4bha92rcd13ifvqeh0","pricing_plan_id":"cebpf4jnsgd1na2vs0mg"},{"bike_id":"ac2ab074-eb09-423a-a4ae-53348e7c57a1","system_id":"levelo_inurba_marseille","lat":43.29188,"lon":5.35809,"is_reserved":false,"is_disabled":false,"rental_uris":{"android":"levelo://app?vid=ac2ab074-eb09-423a-a4ae-53348e7c57a1","ios":"levelo://app?vid=ac2ab074-eb09-423a-a4ae-53348e7c57a1"},"vehicle_type_id":"4","last_reported":1713701573,"current_range_meters":31200,"station_id":"ce4bhb12rcd13ifvqel0","pricing_plan_id":"cebpf4jnsgd1na2vs0mg"},{"bike_id":"5dd8599b-183c-4085-8f02-07d8745982ee","system_id":"levelo_inurba_marseille","lat":43.29184,"lon":5.35799,"is_reserved":false,"is_disabled":false,"rental_uris":{"android":"levelo://app?vid=5dd8599b-183c-4085-8f02-07d8745982ee","ios":"levelo://app?vid=5dd8599b-183c-4085-8f02-07d8745982ee"},"vehicle_type_id":"4","last_reported":1713701573,"current_range_meters":18400,"station_id":"ce4bhb12rcd13ifvqel0","pricing_plan_id":"cebpf4jnsgd1na2vs0mg"},{"bike_id":"66c5c312-223b-44c8-a26d-2826cddfc1c9","system_id":"levelo_inurba_marseille","lat":43.29529,"lon":5.385581,"is_reserved":false,"is_disabled":false,"rental_uris":{"android":"levelo://app?vid=66c5c312-223b-44c8-a26d-2826cddfc1c9","ios":"levelo://app?vid=66c5c312-223b-44c8-a26d-2826cddfc1c9"},"vehicle_type_id":"4","last_reported":1713701573,"current_range_meters":27200,"station_id":"ce4bgih2rcd13ifvqba0","pricing_plan_id":"cebpf4jnsgd1na2vs0mg"},{"bike_id":"d58aa74e-71ba-49d4-b2f2-de523d967118","system_id":"levelo_inurba_marseille","lat":43.290779,"lon":5.371482,"is_reserved":false,"is_disabled":false,"rental_uris":{"android":"levelo://app?vid=d58aa74e-71ba-49d4-b2f2-de523d967118","ios":"levelo://app?vid=d58aa74e-71ba-49d4-b2f2-de523d967118"},"vehicle_type_id":"4","last_reported":1713701573,"current_range_meters":11200,"station_id":"ce4bh5p2rcd13ifvqe4g","pricing_plan_id":"cebpf4jnsgd1na2vs0mg"},{"bike_id":"9d2af414-303a-4e16-a3f5-0be67b554124","system_id":"levelo_inurba_marseille","lat":43.2943,"lon":5.3862,"is_reserved":false,"is_disabled":false,"rental_uris":{"android":"levelo://app?vid=9d2af414-303a-4e16-a3f5-0be67b554124","ios":"levelo://app?vid=9d2af414-303a-4e16-a3f5-0be67b554124"},"vehicle_type_id":"4","last_reported":1713701573,"current_range_meters":2400,"station_id":"","pricing_plan_id":"cebpf4jnsgd1na2vs0mg"},{"bike_id":"3d42703c-6736-4637-bae3-1039a8b0f20d","system_id":"levelo_inurba_marseille","lat":43.29039,"lon":5.37575,"is_reserved":false,"is_disabled":false,"rental_uris":{"android":"levelo://app?vid=3d42703c-6736-4637-bae3-1039a8b0f20d","ios":"levelo://app?vid=3d42703c-6736-4637-bae3-1039a8b0f20d"},"vehicle_type_id":"4","last_reported":1713701573,"current_range_meters":19200,"station_id":"ce4bh692rcd13ifvqe90","pricing_plan_id":"cebpf4jnsgd1na2vs0mg"},{"bike_id":"873efca3-b0b0-4531-8434-fc622844eeca","system_id":"levelo_inurba_marseille","lat":43.28945,"lon":5.36642,"is_reserved":false,"is_disabled":false,"rental_uris":{"android":"levelo://app?vid=873efca3-b0b0-4531-8434-fc622844eeca","ios":"levelo://app?vid=873efca3-b0b0-4531-8434-fc622844eeca"},"vehicle_type_id":"4","last_reported":1713701573,"current_range_meters":0,"station_id":"ce4bhap2rcd13ifvqek0","pricing_plan_id":"cebpf4jnsgd1na2vs0mg"},{"bike_id":"c220cad7-3aa2-44e7-b4e7-99d40f51d062","system_id":"levelo_inurba_marseille","lat":43.29529,"lon":5.385581,"is_reserved":false,"is_disabled":false,"rental_uris":{"android":"levelo://app?vid=c220cad7-3aa2-44e7-b4e7-99d40f51d062","ios":"levelo://app?vid=c220cad7-3aa2-44e7-b4e7-99d40f51d062"},"vehicle_type_id":"4","last_reported":1713701573,"current_range_meters":7600,"station_id":"ce4bgih2rcd13ifvqba0","pricing_plan_id":"cebpf4jnsgd1na2vs0mg"},{"bike_id":"757b8582-5a91-4d59-bacc-5fee9d7777fa","system_id":"levelo_inurba_marseille","lat":43.28939,"lon":5.36629,"is_reserved":false,"is_disabled":false,"rental_uris":{"android":"levelo://app?vid=757b8582-5a91-4d59-bacc-5fee9d7777fa","ios":"levelo://app?vid=757b8582-5a91-4d59-bacc-5fee9d7777fa"},"vehicle_type_id":"4","last_reported":1713701573,"current_range_meters":21200,"station_id":"ce4bhap2rcd13ifvqek0","pricing_plan_id":"cebpf4jnsgd1na2vs0mg"},{"bike_id":"8343f907-b9de-47b3-b0ad-ea4e545afaae","system_id":"levelo_inurba_marseille","lat":43.289468,"lon":5.363719,"is_reserved":false,"is_disabled":false,"rental_uris":{"android":"levelo://app?vid=8343f907-b9de-47b3-b0ad-ea4e545afaae","ios":"levelo://app?vid=8343f907-b9de-47b3-b0ad-ea4e545afaae"},"vehicle_type_id":"4","last_reported":1713701573,"current_range_meters":4400,"station_id":"ce4bhc92rcd13ifvqetg","pricing_plan_id":"cebpf4jnsgd1na2vs0mg"},{"bike_id":"abe4e66c-5742-447c-b517-7ef50fe061f1","system_id":"levelo_inurba_marseille","lat":43.28936,"lon":5.36644,"is_reserved":false,"is_disabled":false,"rental_uris":{"android":"levelo://app?vid=abe4e66c-5742-447c-b517-7ef50fe061f1","ios":"levelo://app?vid=abe4e66c-5742-447c-b517-7ef50fe061f1"},"vehicle_type_id":"4","last_reported":1713701573,"current_range_meters":2000,"station_id":"ce4bhap2rcd13ifvqek0","pricing_plan_id":"cebpf4jnsgd1na2vs0mg"},{"bike_id":"d831baf5-d3b9-4eb0-812f-41ca69abeb6d","system_id":"levelo_inurba_marseille","lat":43.28934,"lon":5.36638,"is_reserved":false,"is_disabled":false,"rental_uris":{"android":"levelo://app?vid=d831baf5-d3b9-4eb0-812f-41ca69abeb6d","ios":"levelo://app?vid=d831baf5-d3b9-4eb0-812f-41ca69abeb6d"},"vehicle_type_id":"4","last_reported":1713701573,"current_range_meters":14800,"station_id":"ce4bhap2rcd13ifvqek0","pricing_plan_id":"cebpf4jnsgd1na2vs0mg"},{"bike_id":"b78ba598-e0e2-427d-892c-a68be918e543","system_id":"levelo_inurba_marseille","lat":43.292644,"lon":5.384257,"is_reserved":false,"is_disabled":false,"rental_uris":{"android":"levelo://app?vid=b78ba598-e0e2-427d-892c-a68be918e543","ios":"levelo://app?vid=b78ba598-e0e2-427d-892c-a68be918e543"},"vehicle_type_id":"4","last_reported":1713701573,"current_range_meters":0,"station_id":"ce4bh692rcd13ifvqea0","pricing_plan_id":"cebpf4jnsgd1na2vs0mg"},{"bike_id":"ed00d587-7ade-4a27-a33b-60361f836792","system_id":"levelo_inurba_marseille","lat":43.290103,"lon":5.356114,"is_reserved":false,"is_disabled":false,"rental_uris":{"android":"levelo://app?vid=ed00d587-7ade-4a27-a33b-60361f836792","ios":"levelo://app?vid=ed00d587-7ade-4a27-a33b-60361f836792"},"vehicle_type_id":"4","last_reported":1713701573,"current_range_meters":21600,"station_id":"ce4bhb92rcd13ifvqen0","pricing_plan_id":"cebpf4jnsgd1na2vs0mg"},{"bike_id":"556e94bb-a8ac-488b-9a96-9c3a910da376","system_id":"levelo_inurba_marseille","lat":43.29009,"lon":5.35618,"is_reserved":false,"is_disabled":false,"rental_uris":{"android":"levelo://app?vid=556e94bb-a8ac-488b-9a96-9c3a910da376","ios":"levelo://app?vid=556e94bb-a8ac-488b-9a96-9c3a910da376"},"vehicle_type_id":"4","last_reported":1713701573,"current_range_meters":8000,"station_id":"ce4bhb92rcd13ifvqen0","pricing_plan_id":"cebpf4jnsgd1na2vs0mg"},{"bike_id":"c0156177-9f95-43e9-be50-1b338b317b41","system_id":"levelo_inurba_marseille","lat":43.290104,"lon":5.356111,"is_reserved":false,"is_disabled":false,"rental_uris":{"android":"levelo://app?vid=c0156177-9f95-43e9-be50-1b338b317b41","ios":"levelo://app?vid=c0156177-9f95-43e9-be50-1b338b317b41"},"vehicle_type_id":"4","last_reported":1713701573,"current_range_meters":0,"station_id":"ce4bhb92rcd13ifvqen0","pricing_plan_id":"cebpf4jnsgd1na2vs0mg"},{"bike_id":"4c961377-f984-4868-8f45-4293a00bec1c","system_id":"levelo_inurba_marseille","lat":43.330442,"lon":5.389148,"is_reserved":false,"is_disabled":false,"rental_uris":{"android":"levelo://app?vid=4c961377-f984-4868-8f45-4293a00bec1c","ios":"levelo://app?vid=4c961377-f984-4868-8f45-4293a00bec1c"},"vehicle_type_id":"4","last_reported":1713701573,"current_range_meters":17200,"station_id":"ce4bhr92rcd13ifvqhrg","pricing_plan_id":"cebpf4jnsgd1na2vs0mg"},{"bike_id":"54ff743f-4feb-4662-8ecd-c21268846692","system_id":"levelo_inurba_marseille","lat":43.330442,"lon":5.389148,"is_reserved":false,"is_disabled":false,"rental_uris":{"android":"levelo://app?vid=54ff743f-4feb-4662-8ecd-c21268846692","ios":"levelo://app?vid=54ff743f-4feb-4662-8ecd-c21268846692"},"vehicle_type_id":"4","last_reported":1713701573,"current_range_meters":29600,"station_id":"ce4bhr92rcd13ifvqhrg","pricing_plan_id":"cebpf4jnsgd1na2vs0mg"},{"bike_id":"29c66e8e-ad35-428e-994a-166171ef10c0","system_id":"levelo_inurba_marseille","lat":43.330442,"lon":5.389148,"is_reserved":false,"is_disabled":false,"rental_uris":{"android":"levelo://app?vid=29c66e8e-ad35-428e-994a-166171ef10c0","ios":"levelo://app?vid=29c66e8e-ad35-428e-994a-166171ef10c0"},"vehicle_type_id":"4","last_reported":1713701573,"current_range_meters":31200,"station_id":"ce4bhr92rcd13ifvqhrg","pricing_plan_id":"cebpf4jnsgd1na2vs0mg"},{"bike_id":"9cd2cd89-ac73-4f95-8640-c0d4f13e5110","system_id":"levelo_inurba_marseille","lat":43.330442,"lon":5.389148,"is_reserved":false,"is_disabled":false,"rental_uris":{"android":"levelo://app?vid=9cd2cd89-ac73-4f95-8640-c0d4f13e5110","ios":"levelo://app?vid=9cd2cd89-ac73-4f95-8640-c0d4f13e5110"},"vehicle_type_id":"4","last_reported":1713701573,"current_range_meters":7600,"station_id":"ce4bhr92rcd13ifvqhrg","pricing_plan_id":"cebpf4jnsgd1na2vs0mg"},{"bike_id":"d5e27a9c-a534-4a8d-a74d-b1857c630e19","system_id":"levelo_inurba_marseille","lat":43.289743,"lon":5.378304,"is_reserved":false,"is_disabled":false,"rental_uris":{"android":"levelo://app?vid=d5e27a9c-a534-4a8d-a74d-b1857c630e19","ios":"levelo://app?vid=d5e27a9c-a534-4a8d-a74d-b1857c630e19"},"vehicle_type_id":"4","last_reported":1713701573,"current_range_meters":25600,"station_id":"ce4bh9p2rcd13ifvqed0","pricing_plan_id":"cebpf4jnsgd1na2vs0mg"},{"bike_id":"3a8b7401-f062-44c8-8945-ca4bc62da38b","system_id":"levelo_inurba_marseille","lat":43.33091,"lon":5.39034,"is_reserved":false,"is_disabled":false,"rental_uris":{"android":"levelo://app?vid=3a8b7401-f062-44c8-8945-ca4bc62da38b","ios":"levelo://app?vid=3a8b7401-f062-44c8-8945-ca4bc62da38b"},"vehicle_type_id":"4","last_reported":1713701573,"current_range_meters":30000,"station_id":"","pricing_plan_id":"cebpf4jnsgd1na2vs0mg"},{"bike_id":"8e83423c-0641-4e6d-a26b-b545ede31611","system_id":"levelo_inurba_marseille","lat":43.28856,"lon":5.358371,"is_reserved":false,"is_disabled":false,"rental_uris":{"android":"levelo://app?vid=8e83423c-0641-4e6d-a26b-b545ede31611","ios":"levelo://app?vid=8e83423c-0641-4e6d-a26b-b545ede31611"},"vehicle_type_id":"4","last_reported":1713701573,"current_range_meters":2400,"station_id":"ce4bhb12rcd13ifvqem0","pricing_plan_id":"cebpf4jnsgd1na2vs0mg"},{"bike_id":"f4324003-aaaf-4eed-8355-1073f2d37801","system_id":"levelo_inurba_marseille","lat":43.297815,"lon":5.393548,"is_reserved":false,"is_disabled":false,"rental_uris":{"android":"levelo://app?vid=f4324003-aaaf-4eed-8355-1073f2d37801","ios":"levelo://app?vid=f4324003-aaaf-4eed-8355-1073f2d37801"},"vehicle_type_id":"4","last_reported":1713701573,"current_range_meters":800,"station_id":"chh1huq6cuj3fo74tm60","pricing_plan_id":"cebpf4jnsgd1na2vs0mg"},{"bike_id":"2eb9c371-99e7-4a39-886b-5602ff7936d2","system_id":"levelo_inurba_marseille","lat":43.28856,"lon":5.358371,"is_reserved":false,"is_disabled":false,"rental_uris":{"android":"levelo://app?vid=2eb9c371-99e7-4a39-886b-5602ff7936d2","ios":"levelo://app?vid=2eb9c371-99e7-4a39-886b-5602ff7936d2"},"vehicle_type_id":"4","last_reported":1713701573,"current_range_meters":24800,"station_id":"ce4bhb12rcd13ifvqem0","pricing_plan_id":"cebpf4jnsgd1na2vs0mg"},{"bike_id":"4e03fccd-dbbf-4dbc-9ccc-03e8f48f99e2","system_id":"levelo_inurba_marseille","lat":43.337507,"lon":5.37455,"is_reserved":false,"is_disabled":false,"rental_uris":{"android":"levelo://app?vid=4e03fccd-dbbf-4dbc-9ccc-03e8f48f99e2","ios":"levelo://app?vid=4e03fccd-dbbf-4dbc-9ccc-03e8f48f99e2"},"vehicle_type_id":"4","last_reported":1713701573,"current_range_meters":21200,"station_id":"","pricing_plan_id":"cebpf4jnsgd1na2vs0mg"},{"bike_id":"0fed2848-e162-4bd0-8e8f-d18a2ad76d03","system_id":"levelo_inurba_marseille","lat":43.337489,"lon":5.374734,"is_reserved":false,"is_disabled":false,"rental_uris":{"android":"levelo://app?vid=0fed2848-e162-4bd0-8e8f-d18a2ad76d03","ios":"levelo://app?vid=0fed2848-e162-4bd0-8e8f-d18a2ad76d03"},"vehicle_type_id":"4","last_reported":1713701573,"current_range_meters":6400,"station_id":"","pricing_plan_id":"cebpf4jnsgd1na2vs0mg"},{"bike_id":"6ecc9ba7-ecb0-4b79-a999-4623f5aa9fe0","system_id":"levelo_inurba_marseille","lat":43.337568,"lon":5.374557,"is_reserved":false,"is_disabled":false,"rental_uris":{"android":"levelo://app?vid=6ecc9ba7-ecb0-4b79-a999-4623f5aa9fe0","ios":"levelo://app?vid=6ecc9ba7-ecb0-4b79-a999-4623f5aa9fe0"},"vehicle_type_id":"4","last_reported":1713701573,"current_range_meters":1600,"station_id":"","pricing_plan_id":"cebpf4jnsgd1na2vs0mg"},{"bike_id":"5dea1bd0-dd82-4ba6-ac3e-69045e71b142","system_id":"levelo_inurba_marseille","lat":43.306412,"lon":5.401035,"is_reserved":false,"is_disabled":false,"rental_uris":{"android":"levelo://app?vid=5dea1bd0-dd82-4ba6-ac3e-69045e71b142","ios":"levelo://app?vid=5dea1bd0-dd82-4ba6-ac3e-69045e71b142"},"vehicle_type_id":"4","last_reported":1713701573,"current_range_meters":10800,"station_id":"ce4bh112rcd13ifvqda0","pricing_plan_id":"cebpf4jnsgd1na2vs0mg"},{"bike_id":"5d22563e-a1f1-4ffe-b88c-3f215b583f19","system_id":"levelo_inurba_marseille","lat":43.301117,"lon":5.398795,"is_reserved":false,"is_disabled":false,"rental_uris":{"android":"levelo://app?vid=5d22563e-a1f1-4ffe-b88c-3f215b583f19","ios":"levelo://app?vid=5d22563e-a1f1-4ffe-b88c-3f215b583f19"},"vehicle_type_id":"4","last_reported":1713701573,"current_range_meters":12000,"station_id":"ce4bh0h2rcd13ifvqd40","pricing_plan_id":"cebpf4jnsgd1na2vs0mg"},{"bike_id":"ea0d41d7-18ce-4bcd-9af9-7de770e9cfad","system_id":"levelo_inurba_marseille","lat":43.295196,"lon":5.39397,"is_reserved":false,"is_disabled":false,"rental_uris":{"android":"levelo://app?vid=ea0d41d7-18ce-4bcd-9af9-7de770e9cfad","ios":"levelo://app?vid=ea0d41d7-18ce-4bcd-9af9-7de770e9cfad"},"vehicle_type_id":"4","last_reported":1713701573,"current_range_meters":30000,"station_id":"ce4bh292rcd13ifvqdf0","pricing_plan_id":"cebpf4jnsgd1na2vs0mg"},{"bike_id":"898d03ea-6a0a-4fd4-8221-4156acd94091","system_id":"levelo_inurba_marseille","lat":43.290336,"lon":5.386425,"is_reserved":false,"is_disabled":false,"rental_uris":{"android":"levelo://app?vid=898d03ea-6a0a-4fd4-8221-4156acd94091","ios":"levelo://app?vid=898d03ea-6a0a-4fd4-8221-4156acd94091"},"vehicle_type_id":"4","last_reported":1713701573,"current_range_meters":2400,"station_id":"ce4bh4p2rcd13ifvqe0g","pricing_plan_id":"cebpf4jnsgd1na2vs0mg"},{"bike_id":"74d32105-2abe-4182-aadf-61d87c44cf45","system_id":"levelo_inurba_marseille","lat":43.286039,"lon":5.370681,"is_reserved":false,"is_disabled":false,"rental_uris":{"android":"levelo://app?vid=74d32105-2abe-4182-aadf-61d87c44cf45","ios":"levelo://app?vid=74d32105-2abe-4182-aadf-61d87c44cf45"},"vehicle_type_id":"4","last_reported":1713701573,"current_range_meters":22800,"station_id":"ce4bht12rcd13ifvqi60","pricing_plan_id":"cebpf4jnsgd1na2vs0mg"},{"bike_id":"c4c638e6-4c20-4bcb-9327-33ce9098048c","system_id":"levelo_inurba_marseille","lat":43.286039,"lon":5.370681,"is_reserved":false,"is_disabled":false,"rental_uris":{"android":"levelo://app?vid=c4c638e6-4c20-4bcb-9327-33ce9098048c","ios":"levelo://app?vid=c4c638e6-4c20-4bcb-9327-33ce9098048c"},"vehicle_type_id":"4","last_reported":1713701573,"current_range_meters":20000,"station_id":"ce4bht12rcd13ifvqi60","pricing_plan_id":"cebpf4jnsgd1na2vs0mg"},{"bike_id":"1a720215-f548-4e24-8f7e-0a22d72346af","system_id":"levelo_inurba_marseille","lat":43.286039,"lon":5.370681,"is_reserved":false,"is_disabled":false,"rental_uris":{"android":"levelo://app?vid=1a720215-f548-4e24-8f7e-0a22d72346af","ios":"levelo://app?vid=1a720215-f548-4e24-8f7e-0a22d72346af"},"vehicle_type_id":"4","last_reported":1713701573,"current_range_meters":7200,"station_id":"ce4bht12rcd13ifvqi60","pricing_plan_id":"cebpf4jnsgd1na2vs0mg"},{"bike_id":"1735b175-f2d3-4928-b0a4-726bb2095bd5","system_id":"levelo_inurba_marseille","lat":43.333871,"lon":5.389576,"is_reserved":false,"is_disabled":false,"rental_uris":{"android":"levelo://app?vid=1735b175-f2d3-4928-b0a4-726bb2095bd5","ios":"levelo://app?vid=1735b175-f2d3-4928-b0a4-726bb2095bd5"},"vehicle_type_id":"4","last_reported":1713701573,"current_range_meters":4000,"station_id":"","pricing_plan_id":"cebpf4jnsgd1na2vs0mg"},{"bike_id":"b5f54ef8-75f4-49ef-a81c-ac072e6a4767","system_id":"levelo_inurba_marseille","lat":43.291994,"lon":5.392907,"is_reserved":false,"is_disabled":false,"rental_uris":{"android":"levelo://app?vid=b5f54ef8-75f4-49ef-a81c-ac072e6a4767","ios":"levelo://app?vid=b5f54ef8-75f4-49ef-a81c-ac072e6a4767"},"vehicle_type_id":"4","last_reported":1713701573,"current_range_meters":15600,"station_id":"ce4bh192rcd13ifvqdd0","pricing_plan_id":"cebpf4jnsgd1na2vs0mg"},{"bike_id":"015879dd-d0f4-4ea0-9dcd-4e06421cd5e4","system_id":"levelo_inurba_marseille","lat":43.291994,"lon":5.392907,"is_reserved":false,"is_disabled":false,"rental_uris":{"android":"levelo://app?vid=015879dd-d0f4-4ea0-9dcd-4e06421cd5e4","ios":"levelo://app?vid=015879dd-d0f4-4ea0-9dcd-4e06421cd5e4"},"vehicle_type_id":"4","last_reported":1713701573,"current_range_meters":10800,"station_id":"ce4bh192rcd13ifvqdd0","pricing_plan_id":"cebpf4jnsgd1na2vs0mg"},{"bike_id":"0bb6c2e5-9472-4982-a683-db9c19a1e208","system_id":"levelo_inurba_marseille","lat":43.28619,"lon":5.3511,"is_reserved":false,"is_disabled":false,"rental_uris":{"android":"levelo://app?vid=0bb6c2e5-9472-4982-a683-db9c19a1e208","ios":"levelo://app?vid=0bb6c2e5-9472-4982-a683-db9c19a1e208"},"vehicle_type_id":"4","last_reported":1713701573,"current_range_meters":0,"station_id":"ce4bhch2rcd13ifvqeug","pricing_plan_id":"cebpf4jnsgd1na2vs0mg"},{"bike_id":"27c5ad64-d114-44c8-bb8c-ba4de7166791","system_id":"levelo_inurba_marseille","lat":43.28619,"lon":5.35109,"is_reserved":false,"is_disabled":false,"rental_uris":{"android":"levelo://app?vid=27c5ad64-d114-44c8-bb8c-ba4de7166791","ios":"levelo://app?vid=27c5ad64-d114-44c8-bb8c-ba4de7166791"},"vehicle_type_id":"4","last_reported":1713701573,"current_range_meters":22000,"station_id":"ce4bhch2rcd13ifvqeug","pricing_plan_id":"cebpf4jnsgd1na2vs0mg"},{"bike_id":"05604eac-29ef-4a7c-ace6-be5fb28bb4a3","system_id":"levelo_inurba_marseille","lat":43.285848,"lon":5.350787,"is_reserved":false,"is_disabled":false,"rental_uris":{"android":"levelo://app?vid=05604eac-29ef-4a7c-ace6-be5fb28bb4a3","ios":"levelo://app?vid=05604eac-29ef-4a7c-ace6-be5fb28bb4a3"},"vehicle_type_id":"4","last_reported":1713701573,"current_range_meters":0,"station_id":"ce4bhch2rcd13ifvqeug","pricing_plan_id":"cebpf4jnsgd1na2vs0mg"},{"bike_id":"b495c38b-b80d-4eb0-b16d-e788f2bdd87a","system_id":"levelo_inurba_marseille","lat":43.28618,"lon":5.35106,"is_reserved":false,"is_disabled":false,"rental_uris":{"android":"levelo://app?vid=b495c38b-b80d-4eb0-b16d-e788f2bdd87a","ios":"levelo://app?vid=b495c38b-b80d-4eb0-b16d-e788f2bdd87a"},"vehicle_type_id":"4","last_reported":1713701573,"current_range_meters":20400,"station_id":"ce4bhch2rcd13ifvqeug","pricing_plan_id":"cebpf4jnsgd1na2vs0mg"},{"bike_id":"bfa1e5b2-55a7-41f4-a195-d4cca65eb9f2","system_id":"levelo_inurba_marseille","lat":43.285848,"lon":5.350787,"is_reserved":false,"is_disabled":false,"rental_uris":{"android":"levelo://app?vid=bfa1e5b2-55a7-41f4-a195-d4cca65eb9f2","ios":"levelo://app?vid=bfa1e5b2-55a7-41f4-a195-d4cca65eb9f2"},"vehicle_type_id":"4","last_reported":1713701573,"current_range_meters":25200,"station_id":"ce4bhch2rcd13ifvqeug","pricing_plan_id":"cebpf4jnsgd1na2vs0mg"},{"bike_id":"343a737b-18c2-42de-8860-b706ba0a5151","system_id":"levelo_inurba_marseille","lat":43.285856,"lon":5.350771,"is_reserved":false,"is_disabled":false,"rental_uris":{"android":"levelo://app?vid=343a737b-18c2-42de-8860-b706ba0a5151","ios":"levelo://app?vid=343a737b-18c2-42de-8860-b706ba0a5151"},"vehicle_type_id":"4","last_reported":1713701573,"current_range_meters":12000,"station_id":"ce4bhch2rcd13ifvqeug","pricing_plan_id":"cebpf4jnsgd1na2vs0mg"},{"bike_id":"ff54f9aa-0610-4409-92ef-a8b8369a63bf","system_id":"levelo_inurba_marseille","lat":43.28616,"lon":5.35107,"is_reserved":false,"is_disabled":false,"rental_uris":{"android":"levelo://app?vid=ff54f9aa-0610-4409-92ef-a8b8369a63bf","ios":"levelo://app?vid=ff54f9aa-0610-4409-92ef-a8b8369a63bf"},"vehicle_type_id":"4","last_reported":1713701573,"current_range_meters":18800,"station_id":"ce4bhch2rcd13ifvqeug","pricing_plan_id":"cebpf4jnsgd1na2vs0mg"},{"bike_id":"ceaac125-74cb-4057-a2f4-7db4f5bd4443","system_id":"levelo_inurba_marseille","lat":43.28617,"lon":5.35102,"is_reserved":false,"is_disabled":false,"rental_uris":{"android":"levelo://app?vid=ceaac125-74cb-4057-a2f4-7db4f5bd4443","ios":"levelo://app?vid=ceaac125-74cb-4057-a2f4-7db4f5bd4443"},"vehicle_type_id":"4","last_reported":1713701573,"current_range_meters":0,"station_id":"ce4bhch2rcd13ifvqeug","pricing_plan_id":"cebpf4jnsgd1na2vs0mg"},{"bike_id":"d79d3949-1b09-4b8e-b6ba-fde5157c3abf","system_id":"levelo_inurba_marseille","lat":43.28617,"lon":5.35102,"is_reserved":false,"is_disabled":false,"rental_uris":{"android":"levelo://app?vid=d79d3949-1b09-4b8e-b6ba-fde5157c3abf","ios":"levelo://app?vid=d79d3949-1b09-4b8e-b6ba-fde5157c3abf"},"vehicle_type_id":"4","last_reported":1713701573,"current_range_meters":12000,"station_id":"ce4bhch2rcd13ifvqeug","pricing_plan_id":"cebpf4jnsgd1na2vs0mg"},{"bike_id":"b2662939-63a2-4848-b945-011918b0bbbd","system_id":"levelo_inurba_marseille","lat":43.28616,"lon":5.35104,"is_reserved":false,"is_disabled":false,"rental_uris":{"android":"levelo://app?vid=b2662939-63a2-4848-b945-011918b0bbbd","ios":"levelo://app?vid=b2662939-63a2-4848-b945-011918b0bbbd"},"vehicle_type_id":"4","last_reported":1713701573,"current_range_meters":18000,"station_id":"ce4bhch2rcd13ifvqeug","pricing_plan_id":"cebpf4jnsgd1na2vs0mg"},{"bike_id":"66239863-eb23-4355-b55b-e52c91d1ec5f","system_id":"levelo_inurba_marseille","lat":43.28616,"lon":5.35102,"is_reserved":false,"is_disabled":false,"rental_uris":{"android":"levelo://app?vid=66239863-eb23-4355-b55b-e52c91d1ec5f","ios":"levelo://app?vid=66239863-eb23-4355-b55b-e52c91d1ec5f"},"vehicle_type_id":"4","last_reported":1713701573,"current_range_meters":23200,"station_id":"ce4bhch2rcd13ifvqeug","pricing_plan_id":"cebpf4jnsgd1na2vs0mg"},{"bike_id":"f309d9ec-f4d9-4cd0-8198-267068c802d0","system_id":"levelo_inurba_marseille","lat":43.28615,"lon":5.35104,"is_reserved":false,"is_disabled":false,"rental_uris":{"android":"levelo://app?vid=f309d9ec-f4d9-4cd0-8198-267068c802d0","ios":"levelo://app?vid=f309d9ec-f4d9-4cd0-8198-267068c802d0"},"vehicle_type_id":"4","last_reported":1713701573,"current_range_meters":18000,"station_id":"ce4bhch2rcd13ifvqeug","pricing_plan_id":"cebpf4jnsgd1na2vs0mg"},{"bike_id":"17566c3e-3ed4-4de6-9e99-ab3655d29d31","system_id":"levelo_inurba_marseille","lat":43.293009,"lon":5.374584,"is_reserved":false,"is_disabled":false,"rental_uris":{"android":"levelo://app?vid=17566c3e-3ed4-4de6-9e99-ab3655d29d31","ios":"levelo://app?vid=17566c3e-3ed4-4de6-9e99-ab3655d29d31"},"vehicle_type_id":"4","last_reported":1713701573,"current_range_meters":9600,"station_id":"ce4bgi12rcd13ifvqb70","pricing_plan_id":"cebpf4jnsgd1na2vs0mg"},{"bike_id":"1051b2be-81df-4b2f-a226-46415ed947cd","system_id":"levelo_inurba_marseille","lat":43.286595,"lon":5.386795,"is_reserved":false,"is_disabled":false,"rental_uris":{"android":"levelo://app?vid=1051b2be-81df-4b2f-a226-46415ed947cd","ios":"levelo://app?vid=1051b2be-81df-4b2f-a226-46415ed947cd"},"vehicle_type_id":"4","last_reported":1713701573,"current_range_meters":4800,"station_id":"ce4bh492rcd13ifvqdug","pricing_plan_id":"cebpf4jnsgd1na2vs0mg"},{"bike_id":"aed9dfc7-896a-48a3-a971-366470fa51db","system_id":"levelo_inurba_marseille","lat":43.323464,"lon":5.406297,"is_reserved":false,"is_disabled":false,"rental_uris":{"android":"levelo://app?vid=aed9dfc7-896a-48a3-a971-366470fa51db","ios":"levelo://app?vid=aed9dfc7-896a-48a3-a971-366470fa51db"},"vehicle_type_id":"4","last_reported":1713701573,"current_range_meters":31200,"station_id":"ce4bhq92rcd13ifvqhjg","pricing_plan_id":"cebpf4jnsgd1na2vs0mg"},{"bike_id":"5c2b5d84-59f0-4bfe-a03f-5d2f3db05385","system_id":"levelo_inurba_marseille","lat":43.323464,"lon":5.406297,"is_reserved":false,"is_disabled":false,"rental_uris":{"android":"levelo://app?vid=5c2b5d84-59f0-4bfe-a03f-5d2f3db05385","ios":"levelo://app?vid=5c2b5d84-59f0-4bfe-a03f-5d2f3db05385"},"vehicle_type_id":"4","last_reported":1713701573,"current_range_meters":12000,"station_id":"ce4bhq92rcd13ifvqhjg","pricing_plan_id":"cebpf4jnsgd1na2vs0mg"},{"bike_id":"353d92ea-18f8-41b4-9d40-742e2b2c54d3","system_id":"levelo_inurba_marseille","lat":43.32523,"lon":5.40576,"is_reserved":false,"is_disabled":false,"rental_uris":{"android":"levelo://app?vid=353d92ea-18f8-41b4-9d40-742e2b2c54d3","ios":"levelo://app?vid=353d92ea-18f8-41b4-9d40-742e2b2c54d3"},"vehicle_type_id":"4","last_reported":1713701573,"current_range_meters":7200,"station_id":"","pricing_plan_id":"cebpf4jnsgd1na2vs0mg"},{"bike_id":"c606089d-f7ee-436b-b376-05043a6ebf7f","system_id":"levelo_inurba_marseille","lat":43.32526,"lon":5.405792,"is_reserved":false,"is_disabled":false,"rental_uris":{"android":"levelo://app?vid=c606089d-f7ee-436b-b376-05043a6ebf7f","ios":"levelo://app?vid=c606089d-f7ee-436b-b376-05043a6ebf7f"},"vehicle_type_id":"4","last_reported":1713701573,"current_range_meters":4000,"station_id":"","pricing_plan_id":"cebpf4jnsgd1na2vs0mg"},{"bike_id":"dd5518ff-8612-4040-b532-ee88f5baae2e","system_id":"levelo_inurba_marseille","lat":43.286591,"lon":5.363346,"is_reserved":false,"is_disabled":false,"rental_uris":{"android":"levelo://app?vid=dd5518ff-8612-4040-b532-ee88f5baae2e","ios":"levelo://app?vid=dd5518ff-8612-4040-b532-ee88f5baae2e"},"vehicle_type_id":"4","last_reported":1713701573,"current_range_meters":3200,"station_id":"ce4bhah2rcd13ifvqej0","pricing_plan_id":"cebpf4jnsgd1na2vs0mg"},{"bike_id":"48b4493e-1e8e-4843-8afd-7b0d8c7f403c","system_id":"levelo_inurba_marseille","lat":43.288497,"lon":5.393089,"is_reserved":false,"is_disabled":false,"rental_uris":{"android":"levelo://app?vid=48b4493e-1e8e-4843-8afd-7b0d8c7f403c","ios":"levelo://app?vid=48b4493e-1e8e-4843-8afd-7b0d8c7f403c"},"vehicle_type_id":"4","last_reported":1713701573,"current_range_meters":24400,"station_id":"ce4bh2p2rcd13ifvqdi0","pricing_plan_id":"cebpf4jnsgd1na2vs0mg"},{"bike_id":"2fa02d4a-9158-46a9-989f-0dd58fb5443b","system_id":"levelo_inurba_marseille","lat":43.284217,"lon":5.349697,"is_reserved":false,"is_disabled":false,"rental_uris":{"android":"levelo://app?vid=2fa02d4a-9158-46a9-989f-0dd58fb5443b","ios":"levelo://app?vid=2fa02d4a-9158-46a9-989f-0dd58fb5443b"},"vehicle_type_id":"4","last_reported":1713701573,"current_range_meters":31600,"station_id":"ce4bhbh2rcd13ifvqepg","pricing_plan_id":"cebpf4jnsgd1na2vs0mg"},{"bike_id":"32647cb8-594a-41c2-a8d2-21d26342625b","system_id":"levelo_inurba_marseille","lat":43.28426,"lon":5.34987,"is_reserved":false,"is_disabled":false,"rental_uris":{"android":"levelo://app?vid=32647cb8-594a-41c2-a8d2-21d26342625b","ios":"levelo://app?vid=32647cb8-594a-41c2-a8d2-21d26342625b"},"vehicle_type_id":"4","last_reported":1713701573,"current_range_meters":23600,"station_id":"ce4bhbh2rcd13ifvqepg","pricing_plan_id":"cebpf4jnsgd1na2vs0mg"},{"bike_id":"139d6be4-31fe-41bc-bdac-47ed5be6b6a7","system_id":"levelo_inurba_marseille","lat":43.284214,"lon":5.349706,"is_reserved":false,"is_disabled":false,"rental_uris":{"android":"levelo://app?vid=139d6be4-31fe-41bc-bdac-47ed5be6b6a7","ios":"levelo://app?vid=139d6be4-31fe-41bc-bdac-47ed5be6b6a7"},"vehicle_type_id":"4","last_reported":1713701573,"current_range_meters":3600,"station_id":"ce4bhbh2rcd13ifvqepg","pricing_plan_id":"cebpf4jnsgd1na2vs0mg"},{"bike_id":"f031f153-d845-4824-b46f-fd8dd4533181","system_id":"levelo_inurba_marseille","lat":43.284217,"lon":5.349697,"is_reserved":false,"is_disabled":false,"rental_uris":{"android":"levelo://app?vid=f031f153-d845-4824-b46f-fd8dd4533181","ios":"levelo://app?vid=f031f153-d845-4824-b46f-fd8dd4533181"},"vehicle_type_id":"4","last_reported":1713701573,"current_range_meters":24400,"station_id":"ce4bhbh2rcd13ifvqepg","pricing_plan_id":"cebpf4jnsgd1na2vs0mg"},{"bike_id":"d06593bd-2254-4fd1-a990-419c2e896d49","system_id":"levelo_inurba_marseille","lat":43.284214,"lon":5.349706,"is_reserved":false,"is_disabled":false,"rental_uris":{"android":"levelo://app?vid=d06593bd-2254-4fd1-a990-419c2e896d49","ios":"levelo://app?vid=d06593bd-2254-4fd1-a990-419c2e896d49"},"vehicle_type_id":"4","last_reported":1713701573,"current_range_meters":8800,"station_id":"ce4bhbh2rcd13ifvqepg","pricing_plan_id":"cebpf4jnsgd1na2vs0mg"},{"bike_id":"4f25935a-da63-4ef3-9b08-1796e46179e6","system_id":"levelo_inurba_marseille","lat":43.28422,"lon":5.34989,"is_reserved":false,"is_disabled":false,"rental_uris":{"android":"levelo://app?vid=4f25935a-da63-4ef3-9b08-1796e46179e6","ios":"levelo://app?vid=4f25935a-da63-4ef3-9b08-1796e46179e6"},"vehicle_type_id":"4","last_reported":1713701573,"current_range_meters":16800,"station_id":"ce4bhbh2rcd13ifvqepg","pricing_plan_id":"cebpf4jnsgd1na2vs0mg"},{"bike_id":"f324760f-a9b7-420b-8d7f-b1aa0d05a1ec","system_id":"levelo_inurba_marseille","lat":43.28422,"lon":5.349887,"is_reserved":false,"is_disabled":false,"rental_uris":{"android":"levelo://app?vid=f324760f-a9b7-420b-8d7f-b1aa0d05a1ec","ios":"levelo://app?vid=f324760f-a9b7-420b-8d7f-b1aa0d05a1ec"},"vehicle_type_id":"4","last_reported":1713701573,"current_range_meters":22000,"station_id":"ce4bhbh2rcd13ifvqepg","pricing_plan_id":"cebpf4jnsgd1na2vs0mg"},{"bike_id":"ee89d195-9416-4a0c-86a9-f091dbf0a6c7","system_id":"levelo_inurba_marseille","lat":43.284219,"lon":5.3497,"is_reserved":false,"is_disabled":false,"rental_uris":{"android":"levelo://app?vid=ee89d195-9416-4a0c-86a9-f091dbf0a6c7","ios":"levelo://app?vid=ee89d195-9416-4a0c-86a9-f091dbf0a6c7"},"vehicle_type_id":"4","last_reported":1713701573,"current_range_meters":14400,"station_id":"ce4bhbh2rcd13ifvqepg","pricing_plan_id":"cebpf4jnsgd1na2vs0mg"},{"bike_id":"b803293b-d1cb-48d4-af8f-705191de9c78","system_id":"levelo_inurba_marseille","lat":43.28424,"lon":5.34982,"is_reserved":false,"is_disabled":false,"rental_uris":{"android":"levelo://app?vid=b803293b-d1cb-48d4-af8f-705191de9c78","ios":"levelo://app?vid=b803293b-d1cb-48d4-af8f-705191de9c78"},"vehicle_type_id":"4","last_reported":1713701573,"current_range_meters":11600,"station_id":"ce4bhbh2rcd13ifvqepg","pricing_plan_id":"cebpf4jnsgd1na2vs0mg"},{"bike_id":"3d331aa3-9677-4cc1-9db9-d43d415d789f","system_id":"levelo_inurba_marseille","lat":43.284214,"lon":5.349706,"is_reserved":false,"is_disabled":false,"rental_uris":{"android":"levelo://app?vid=3d331aa3-9677-4cc1-9db9-d43d415d789f","ios":"levelo://app?vid=3d331aa3-9677-4cc1-9db9-d43d415d789f"},"vehicle_type_id":"4","last_reported":1713701573,"current_range_meters":8400,"station_id":"ce4bhbh2rcd13ifvqepg","pricing_plan_id":"cebpf4jnsgd1na2vs0mg"},{"bike_id":"08098f40-7f43-4b96-93e5-421e2c4a38d5","system_id":"levelo_inurba_marseille","lat":43.284214,"lon":5.349706,"is_reserved":false,"is_disabled":false,"rental_uris":{"android":"levelo://app?vid=08098f40-7f43-4b96-93e5-421e2c4a38d5","ios":"levelo://app?vid=08098f40-7f43-4b96-93e5-421e2c4a38d5"},"vehicle_type_id":"4","last_reported":1713701573,"current_range_meters":22800,"station_id":"ce4bhbh2rcd13ifvqepg","pricing_plan_id":"cebpf4jnsgd1na2vs0mg"},{"bike_id":"39ea1ed7-63ff-4bb1-9167-5c52fd09e395","system_id":"levelo_inurba_marseille","lat":43.284219,"lon":5.3497,"is_reserved":false,"is_disabled":false,"rental_uris":{"android":"levelo://app?vid=39ea1ed7-63ff-4bb1-9167-5c52fd09e395","ios":"levelo://app?vid=39ea1ed7-63ff-4bb1-9167-5c52fd09e395"},"vehicle_type_id":"4","last_reported":1713701573,"current_range_meters":21200,"station_id":"ce4bhbh2rcd13ifvqepg","pricing_plan_id":"cebpf4jnsgd1na2vs0mg"},{"bike_id":"5c6278b7-f6fb-4e72-845d-e934a6a6a342","system_id":"levelo_inurba_marseille","lat":43.284214,"lon":5.349706,"is_reserved":false,"is_disabled":false,"rental_uris":{"android":"levelo://app?vid=5c6278b7-f6fb-4e72-845d-e934a6a6a342","ios":"levelo://app?vid=5c6278b7-f6fb-4e72-845d-e934a6a6a342"},"vehicle_type_id":"4","last_reported":1713701573,"current_range_meters":28000,"station_id":"ce4bhbh2rcd13ifvqepg","pricing_plan_id":"cebpf4jnsgd1na2vs0mg"},{"bike_id":"cb845176-643f-41ec-bb7e-6e6eb9cc9861","system_id":"levelo_inurba_marseille","lat":43.284193,"lon":5.34984,"is_reserved":false,"is_disabled":false,"rental_uris":{"android":"levelo://app?vid=cb845176-643f-41ec-bb7e-6e6eb9cc9861","ios":"levelo://app?vid=cb845176-643f-41ec-bb7e-6e6eb9cc9861"},"vehicle_type_id":"4","last_reported":1713701573,"current_range_meters":8400,"station_id":"ce4bhbh2rcd13ifvqepg","pricing_plan_id":"cebpf4jnsgd1na2vs0mg"},{"bike_id":"e6fab30b-4f72-4b60-a634-08fefc2efb9e","system_id":"levelo_inurba_marseille","lat":43.284228,"lon":5.349725,"is_reserved":false,"is_disabled":false,"rental_uris":{"android":"levelo://app?vid=e6fab30b-4f72-4b60-a634-08fefc2efb9e","ios":"levelo://app?vid=e6fab30b-4f72-4b60-a634-08fefc2efb9e"},"vehicle_type_id":"4","last_reported":1713701573,"current_range_meters":7200,"station_id":"ce4bhbh2rcd13ifvqepg","pricing_plan_id":"cebpf4jnsgd1na2vs0mg"},{"bike_id":"1233e84b-5f80-4f2f-8e44-0e93ee32ce4c","system_id":"levelo_inurba_marseille","lat":43.284179,"lon":5.349871,"is_reserved":false,"is_disabled":false,"rental_uris":{"android":"levelo://app?vid=1233e84b-5f80-4f2f-8e44-0e93ee32ce4c","ios":"levelo://app?vid=1233e84b-5f80-4f2f-8e44-0e93ee32ce4c"},"vehicle_type_id":"4","last_reported":1713701573,"current_range_meters":4400,"station_id":"ce4bhbh2rcd13ifvqepg","pricing_plan_id":"cebpf4jnsgd1na2vs0mg"},{"bike_id":"cac209c6-39db-4bfb-9df7-a86d4165389d","system_id":"levelo_inurba_marseille","lat":43.28419,"lon":5.34982,"is_reserved":false,"is_disabled":false,"rental_uris":{"android":"levelo://app?vid=cac209c6-39db-4bfb-9df7-a86d4165389d","ios":"levelo://app?vid=cac209c6-39db-4bfb-9df7-a86d4165389d"},"vehicle_type_id":"4","last_reported":1713701573,"current_range_meters":16400,"station_id":"ce4bhbh2rcd13ifvqepg","pricing_plan_id":"cebpf4jnsgd1na2vs0mg"},{"bike_id":"be9f0b05-f842-46a1-8710-652098a2b38a","system_id":"levelo_inurba_marseille","lat":43.284219,"lon":5.3497,"is_reserved":false,"is_disabled":false,"rental_uris":{"android":"levelo://app?vid=be9f0b05-f842-46a1-8710-652098a2b38a","ios":"levelo://app?vid=be9f0b05-f842-46a1-8710-652098a2b38a"},"vehicle_type_id":"4","last_reported":1713701573,"current_range_meters":12800,"station_id":"ce4bhbh2rcd13ifvqepg","pricing_plan_id":"cebpf4jnsgd1na2vs0mg"},{"bike_id":"3b9615f0-1448-4fdf-b887-d5d1c1c462cf","system_id":"levelo_inurba_marseille","lat":43.28418,"lon":5.34976,"is_reserved":false,"is_disabled":false,"rental_uris":{"android":"levelo://app?vid=3b9615f0-1448-4fdf-b887-d5d1c1c462cf","ios":"levelo://app?vid=3b9615f0-1448-4fdf-b887-d5d1c1c462cf"},"vehicle_type_id":"4","last_reported":1713701573,"current_range_meters":8000,"station_id":"ce4bhbh2rcd13ifvqepg","pricing_plan_id":"cebpf4jnsgd1na2vs0mg"},{"bike_id":"920bbde1-55f6-4df8-b037-9f477bf1ea98","system_id":"levelo_inurba_marseille","lat":43.28416,"lon":5.34982,"is_reserved":false,"is_disabled":false,"rental_uris":{"android":"levelo://app?vid=920bbde1-55f6-4df8-b037-9f477bf1ea98","ios":"levelo://app?vid=920bbde1-55f6-4df8-b037-9f477bf1ea98"},"vehicle_type_id":"4","last_reported":1713701573,"current_range_meters":18000,"station_id":"ce4bhbh2rcd13ifvqepg","pricing_plan_id":"cebpf4jnsgd1na2vs0mg"},{"bike_id":"5dca6343-0b9d-4d2d-b7fa-5ead58cf42cb","system_id":"levelo_inurba_marseille","lat":43.284219,"lon":5.3497,"is_reserved":false,"is_disabled":false,"rental_uris":{"android":"levelo://app?vid=5dca6343-0b9d-4d2d-b7fa-5ead58cf42cb","ios":"levelo://app?vid=5dca6343-0b9d-4d2d-b7fa-5ead58cf42cb"},"vehicle_type_id":"4","last_reported":1713701573,"current_range_meters":6000,"station_id":"ce4bhbh2rcd13ifvqepg","pricing_plan_id":"cebpf4jnsgd1na2vs0mg"},{"bike_id":"40e147a9-3692-4199-9c2f-89c0cdbfd0eb","system_id":"levelo_inurba_marseille","lat":43.28416,"lon":5.34979,"is_reserved":false,"is_disabled":false,"rental_uris":{"android":"levelo://app?vid=40e147a9-3692-4199-9c2f-89c0cdbfd0eb","ios":"levelo://app?vid=40e147a9-3692-4199-9c2f-89c0cdbfd0eb"},"vehicle_type_id":"4","last_reported":1713701573,"current_range_meters":1600,"station_id":"ce4bhbh2rcd13ifvqepg","pricing_plan_id":"cebpf4jnsgd1na2vs0mg"},{"bike_id":"b64c5955-1ac6-4570-826b-601c4ae7ee8a","system_id":"levelo_inurba_marseille","lat":43.284214,"lon":5.349706,"is_reserved":false,"is_disabled":false,"rental_uris":{"android":"levelo://app?vid=b64c5955-1ac6-4570-826b-601c4ae7ee8a","ios":"levelo://app?vid=b64c5955-1ac6-4570-826b-601c4ae7ee8a"},"vehicle_type_id":"4","last_reported":1713701573,"current_range_meters":23600,"station_id":"ce4bhbh2rcd13ifvqepg","pricing_plan_id":"cebpf4jnsgd1na2vs0mg"},{"bike_id":"4b2c5a9a-c5b7-4a72-898b-709fb3156bbe","system_id":"levelo_inurba_marseille","lat":43.284214,"lon":5.349706,"is_reserved":false,"is_disabled":false,"rental_uris":{"android":"levelo://app?vid=4b2c5a9a-c5b7-4a72-898b-709fb3156bbe","ios":"levelo://app?vid=4b2c5a9a-c5b7-4a72-898b-709fb3156bbe"},"vehicle_type_id":"4","last_reported":1713701573,"current_range_meters":17200,"station_id":"ce4bhbh2rcd13ifvqepg","pricing_plan_id":"cebpf4jnsgd1na2vs0mg"},{"bike_id":"8104d8e0-0ee5-4a50-8d94-5b7f2c9d9f4a","system_id":"levelo_inurba_marseille","lat":43.28417,"lon":5.34971,"is_reserved":false,"is_disabled":false,"rental_uris":{"android":"levelo://app?vid=8104d8e0-0ee5-4a50-8d94-5b7f2c9d9f4a","ios":"levelo://app?vid=8104d8e0-0ee5-4a50-8d94-5b7f2c9d9f4a"},"vehicle_type_id":"4","last_reported":1713701573,"current_range_meters":20000,"station_id":"ce4bhbh2rcd13ifvqepg","pricing_plan_id":"cebpf4jnsgd1na2vs0mg"},{"bike_id":"2dfe7560-2a3b-4a8c-9922-50cc0aab674f","system_id":"levelo_inurba_marseille","lat":43.284214,"lon":5.349706,"is_reserved":false,"is_disabled":false,"rental_uris":{"android":"levelo://app?vid=2dfe7560-2a3b-4a8c-9922-50cc0aab674f","ios":"levelo://app?vid=2dfe7560-2a3b-4a8c-9922-50cc0aab674f"},"vehicle_type_id":"4","last_reported":1713701573,"current_range_meters":15200,"station_id":"ce4bhbh2rcd13ifvqepg","pricing_plan_id":"cebpf4jnsgd1na2vs0mg"},{"bike_id":"f03678f5-ff58-4235-a9bd-f67ca52b7230","system_id":"levelo_inurba_marseille","lat":43.284214,"lon":5.349706,"is_reserved":false,"is_disabled":false,"rental_uris":{"android":"levelo://app?vid=f03678f5-ff58-4235-a9bd-f67ca52b7230","ios":"levelo://app?vid=f03678f5-ff58-4235-a9bd-f67ca52b7230"},"vehicle_type_id":"4","last_reported":1713701573,"current_range_meters":14400,"station_id":"ce4bhbh2rcd13ifvqepg","pricing_plan_id":"cebpf4jnsgd1na2vs0mg"},{"bike_id":"72394bee-7440-4953-a620-f04443fd92b6","system_id":"levelo_inurba_marseille","lat":43.284214,"lon":5.349706,"is_reserved":false,"is_disabled":false,"rental_uris":{"android":"levelo://app?vid=72394bee-7440-4953-a620-f04443fd92b6","ios":"levelo://app?vid=72394bee-7440-4953-a620-f04443fd92b6"},"vehicle_type_id":"4","last_reported":1713701573,"current_range_meters":22800,"station_id":"ce4bhbh2rcd13ifvqepg","pricing_plan_id":"cebpf4jnsgd1na2vs0mg"},{"bike_id":"eda4b416-5723-451b-898a-84aafeffdcf7","system_id":"levelo_inurba_marseille","lat":43.284214,"lon":5.349706,"is_reserved":false,"is_disabled":false,"rental_uris":{"android":"levelo://app?vid=eda4b416-5723-451b-898a-84aafeffdcf7","ios":"levelo://app?vid=eda4b416-5723-451b-898a-84aafeffdcf7"},"vehicle_type_id":"4","last_reported":1713701573,"current_range_meters":31200,"station_id":"ce4bhbh2rcd13ifvqepg","pricing_plan_id":"cebpf4jnsgd1na2vs0mg"},{"bike_id":"32bbb407-2a70-46b2-a803-739e553d0dc3","system_id":"levelo_inurba_marseille","lat":43.284214,"lon":5.349706,"is_reserved":false,"is_disabled":false,"rental_uris":{"android":"levelo://app?vid=32bbb407-2a70-46b2-a803-739e553d0dc3","ios":"levelo://app?vid=32bbb407-2a70-46b2-a803-739e553d0dc3"},"vehicle_type_id":"4","last_reported":1713701573,"current_range_meters":24400,"station_id":"ce4bhbh2rcd13ifvqepg","pricing_plan_id":"cebpf4jnsgd1na2vs0mg"},{"bike_id":"5651fee9-2d2b-45be-a369-a4dffe12e7d6","system_id":"levelo_inurba_marseille","lat":43.28413,"lon":5.3497,"is_reserved":false,"is_disabled":false,"rental_uris":{"android":"levelo://app?vid=5651fee9-2d2b-45be-a369-a4dffe12e7d6","ios":"levelo://app?vid=5651fee9-2d2b-45be-a369-a4dffe12e7d6"},"vehicle_type_id":"4","last_reported":1713701573,"current_range_meters":6800,"station_id":"ce4bhbh2rcd13ifvqepg","pricing_plan_id":"cebpf4jnsgd1na2vs0mg"},{"bike_id":"0a5b8cb9-92af-4097-81aa-a16688dba32f","system_id":"levelo_inurba_marseille","lat":43.284214,"lon":5.349706,"is_reserved":false,"is_disabled":false,"rental_uris":{"android":"levelo://app?vid=0a5b8cb9-92af-4097-81aa-a16688dba32f","ios":"levelo://app?vid=0a5b8cb9-92af-4097-81aa-a16688dba32f"},"vehicle_type_id":"4","last_reported":1713701573,"current_range_meters":31600,"station_id":"ce4bhbh2rcd13ifvqepg","pricing_plan_id":"cebpf4jnsgd1na2vs0mg"},{"bike_id":"4e430c2a-dd6d-4792-a91f-e43e317c2707","system_id":"levelo_inurba_marseille","lat":43.28411,"lon":5.34974,"is_reserved":false,"is_disabled":false,"rental_uris":{"android":"levelo://app?vid=4e430c2a-dd6d-4792-a91f-e43e317c2707","ios":"levelo://app?vid=4e430c2a-dd6d-4792-a91f-e43e317c2707"},"vehicle_type_id":"4","last_reported":1713701573,"current_range_meters":20400,"station_id":"ce4bhbh2rcd13ifvqepg","pricing_plan_id":"cebpf4jnsgd1na2vs0mg"},{"bike_id":"53e82124-1944-4efa-8e87-c24fd8da4c18","system_id":"levelo_inurba_marseille","lat":43.282754,"lon":5.350519,"is_reserved":false,"is_disabled":false,"rental_uris":{"android":"levelo://app?vid=53e82124-1944-4efa-8e87-c24fd8da4c18","ios":"levelo://app?vid=53e82124-1944-4efa-8e87-c24fd8da4c18"},"vehicle_type_id":"4","last_reported":1713701573,"current_range_meters":29200,"station_id":"ce4bhbp2rcd13ifvqerg","pricing_plan_id":"cebpf4jnsgd1na2vs0mg"},{"bike_id":"655d1d01-ece3-4912-9481-336aa79f8301","system_id":"levelo_inurba_marseille","lat":43.282744,"lon":5.350533,"is_reserved":false,"is_disabled":false,"rental_uris":{"android":"levelo://app?vid=655d1d01-ece3-4912-9481-336aa79f8301","ios":"levelo://app?vid=655d1d01-ece3-4912-9481-336aa79f8301"},"vehicle_type_id":"4","last_reported":1713701573,"current_range_meters":27600,"station_id":"ce4bhbp2rcd13ifvqerg","pricing_plan_id":"cebpf4jnsgd1na2vs0mg"},{"bike_id":"d2a912a5-87a2-4c0c-b4c6-db60c54c61e0","system_id":"levelo_inurba_marseille","lat":43.282754,"lon":5.350519,"is_reserved":false,"is_disabled":false,"rental_uris":{"android":"levelo://app?vid=d2a912a5-87a2-4c0c-b4c6-db60c54c61e0","ios":"levelo://app?vid=d2a912a5-87a2-4c0c-b4c6-db60c54c61e0"},"vehicle_type_id":"4","last_reported":1713701573,"current_range_meters":31600,"station_id":"ce4bhbp2rcd13ifvqerg","pricing_plan_id":"cebpf4jnsgd1na2vs0mg"},{"bike_id":"a2db796d-3afa-4c4f-b71e-d5f610736a2c","system_id":"levelo_inurba_marseille","lat":43.282754,"lon":5.350519,"is_reserved":false,"is_disabled":false,"rental_uris":{"android":"levelo://app?vid=a2db796d-3afa-4c4f-b71e-d5f610736a2c","ios":"levelo://app?vid=a2db796d-3afa-4c4f-b71e-d5f610736a2c"},"vehicle_type_id":"4","last_reported":1713701573,"current_range_meters":28800,"station_id":"ce4bhbp2rcd13ifvqerg","pricing_plan_id":"cebpf4jnsgd1na2vs0mg"},{"bike_id":"183dea4c-d4db-44c3-9dfe-b77bad0b092b","system_id":"levelo_inurba_marseille","lat":43.282754,"lon":5.350519,"is_reserved":false,"is_disabled":false,"rental_uris":{"android":"levelo://app?vid=183dea4c-d4db-44c3-9dfe-b77bad0b092b","ios":"levelo://app?vid=183dea4c-d4db-44c3-9dfe-b77bad0b092b"},"vehicle_type_id":"4","last_reported":1713701573,"current_range_meters":28000,"station_id":"ce4bhbp2rcd13ifvqerg","pricing_plan_id":"cebpf4jnsgd1na2vs0mg"},{"bike_id":"d1c810f9-4800-4890-b0a6-cae4f5722d40","system_id":"levelo_inurba_marseille","lat":43.282744,"lon":5.350533,"is_reserved":false,"is_disabled":false,"rental_uris":{"android":"levelo://app?vid=d1c810f9-4800-4890-b0a6-cae4f5722d40","ios":"levelo://app?vid=d1c810f9-4800-4890-b0a6-cae4f5722d40"},