{"last_updated":1719410855,"ttl":30,"version":"2.2","data":{"bikes":[{"bike_id":"f90d30bd-d10b-45e3-95a4-ea4d6aba0382","system_id":"levelo_inurba_marseille","lat":43.312239,"lon":5.368562,"is_reserved":false,"is_disabled":false,"rental_uris":{"android":"levelo://app?vid=f90d30bd-d10b-45e3-95a4-ea4d6aba0382","ios":"levelo://app?vid=f90d30bd-d10b-45e3-95a4-ea4d6aba0382"},"vehicle_type_id":"4","last_reported":1719410855,"current_range_meters":20000,"station_id":"ce4bgl92rcd13ifvqbq0","pricing_plan_id":"cebpf4jnsgd1na2vs0mg"},{"bike_id":"bcc3e4e7-49ad-4827-ad72-a8aac5cd29e6","system_id":"levelo_inurba_marseille","lat":43.31509,"lon":5.37089,"is_reserved":false,"is_disabled":false,"rental_uris":{"android":"levelo://app?vid=bcc3e4e7-49ad-4827-ad72-a8aac5cd29e6","ios":"levelo://app?vid=bcc3e4e7-49ad-4827-ad72-a8aac5cd29e6"},"vehicle_type_id":"4","last_reported":1719410855,"current_range_meters":15600,"station_id":"","pricing_plan_id":"cebpf4jnsgd1na2vs0mg"},{"bike_id":"d3064dd1-5b22-46bd-92ec-b56bf5e5726e","system_id":"levelo_inurba_marseille","lat":43.309076,"lon":5.368465,"is_reserved":false,"is_disabled":false,"rental_uris":{"android":"levelo://app?vid=d3064dd1-5b22-46bd-92ec-b56bf5e5726e","ios":"levelo://app?vid=d3064dd1-5b22-46bd-92ec-b56bf5e5726e"},"vehicle_type_id":"4","last_reported":1719410855,"current_range_meters":23600,"station_id":"ce4bgn92rcd13ifvqbvg","pricing_plan_id":"cebpf4jnsgd1na2vs0mg"},{"bike_id":"b81e1594-6854-4d5b-9179-0b7504aec750","system_id":"levelo_inurba_marseille","lat":43.309076,"lon":5.368465,"is_reserved":false,"is_disabled":false,"rental_uris":{"android":"levelo://app?vid=b81e1594-6854-4d5b-9179-0b7504aec750","ios":"levelo://app?vid=b81e1594-6854-4d5b-9179-0b7504aec750"},"vehicle_type_id":"4","last_reported":1719410855,"current_range_meters":31600,"station_id":"ce4bgn92rcd13ifvqbvg","pricing_plan_id":"cebpf4jnsgd1na2vs0mg"},{"bike_id":"f09504e4-c6a4-4f7f-8ae9-666c2727448f","system_id":"levelo_inurba_marseille","lat":43.309076,"lon":5.368465,"is_reserved":false,"is_disabled":false,"rental_uris":{"android":"levelo://app?vid=f09504e4-c6a4-4f7f-8ae9-666c2727448f","ios":"levelo://app?vid=f09504e4-c6a4-4f7f-8ae9-666c2727448f"},"vehicle_type_id":"4","last_reported":1719410855,"current_range_meters":31600,"station_id":"ce4bgn92rcd13ifvqbvg","pricing_plan_id":"cebpf4jnsgd1na2vs0mg"},{"bike_id":"fbd37a69-1e63-4a18-acf7-e19ec07a2591","system_id":"levelo_inurba_marseille","lat":43.309076,"lon":5.368465,"is_reserved":false,"is_disabled":false,"rental_uris":{"android":"levelo://app?vid=fbd37a69-1e63-4a18-acf7-e19ec07a2591","ios":"levelo://app?vid=fbd37a69-1e63-4a18-acf7-e19ec07a2591"},"vehicle_type_id":"4","last_reported":1719410855,"current_range_meters":26800,"station_id":"ce4bgn92rcd13ifvqbvg","pricing_plan_id":"cebpf4jnsgd1na2vs0mg"},{"bike_id":"e83b26ee-9ccf-4082-87b2-4a0e36650769","system_id":"levelo_inurba_marseille","lat":43.309076,"lon":5.368465,"is_reserved":false,"is_disabled":false,"rental_uris":{"android":"levelo://app?vid=e83b26ee-9ccf-4082-87b2-4a0e36650769","ios":"levelo://app?vid=e83b26ee-9ccf-4082-87b2-4a0e36650769"},"vehicle_type_id":"4","last_reported":1719410855,"current_range_meters":24400,"station_id":"ce4bgn92rcd13ifvqbvg","pricing_plan_id":"cebpf4jnsgd1na2vs0mg"},{"bike_id":"5c8e6b55-5578-4f48-b435-e37a4c39405b","system_id":"levelo_inurba_marseille","lat":43.309039,"lon":5.371797,"is_reserved":false,"is_disabled":false,"rental_uris":{"android":"levelo://app?vid=5c8e6b55-5578-4f48-b435-e37a4c39405b","ios":"levelo://app?vid=5c8e6b55-5578-4f48-b435-e37a4c39405b"},"vehicle_type_id":"4","last_reported":1719410855,"current_range_meters":9600,"station_id":"ce4bguh2rcd13ifvqckg","pricing_plan_id":"cebpf4jnsgd1na2vs0mg"},{"bike_id":"a1dd199e-ac8a-4394-9c4a-334740d4831d","system_id":"levelo_inurba_marseille","lat":43.30613,"lon":5.36582,"is_reserved":false,"is_disabled":false,"rental_uris":{"android":"levelo://app?vid=a1dd199e-ac8a-4394-9c4a-334740d4831d","ios":"levelo://app?vid=a1dd199e-ac8a-4394-9c4a-334740d4831d"},"vehicle_type_id":"4","last_reported":1719410855,"current_range_meters":23600,"station_id":"","pricing_plan_id":"cebpf4jnsgd1na2vs0mg"},{"bike_id":"dabf13e9-5c8b-4d00-a52a-654e4cb66bc0","system_id":"levelo_inurba_marseille","lat":43.30584,"lon":5.36727,"is_reserved":false,"is_disabled":false,"rental_uris":{"android":"levelo://app?vid=dabf13e9-5c8b-4d00-a52a-654e4cb66bc0","ios":"levelo://app?vid=dabf13e9-5c8b-4d00-a52a-654e4cb66bc0"},"vehicle_type_id":"4","last_reported":1719410855,"current_range_meters":2400,"station_id":"ce4bgrp2rcd13ifvqc9g","pricing_plan_id":"cebpf4jnsgd1na2vs0mg"},{"bike_id":"9de02eca-b3d5-4118-8c58-95d741bb2cdb","system_id":"levelo_inurba_marseille","lat":43.30589,"lon":5.36557,"is_reserved":false,"is_disabled":false,"rental_uris":{"android":"levelo://app?vid=9de02eca-b3d5-4118-8c58-95d741bb2cdb","ios":"levelo://app?vid=9de02eca-b3d5-4118-8c58-95d741bb2cdb"},"vehicle_type_id":"4","last_reported":1719410855,"current_range_meters":31200,"station_id":"ce4bgs12rcd13ifvqcag","pricing_plan_id":"cebpf4jnsgd1na2vs0mg"},{"bike_id":"ed3d96f9-8d12-4645-91f4-aa7502f510bd","system_id":"levelo_inurba_marseille","lat":43.305712,"lon":5.365641,"is_reserved":false,"is_disabled":false,"rental_uris":{"android":"levelo://app?vid=ed3d96f9-8d12-4645-91f4-aa7502f510bd","ios":"levelo://app?vid=ed3d96f9-8d12-4645-91f4-aa7502f510bd"},"vehicle_type_id":"4","last_reported":1719410855,"current_range_meters":2400,"station_id":"ce4bgs12rcd13ifvqcag","pricing_plan_id":"cebpf4jnsgd1na2vs0mg"},{"bike_id":"b0b6adb6-8546-40ca-b717-426bd572bcdc","system_id":"levelo_inurba_marseille","lat":43.305712,"lon":5.365641,"is_reserved":false,"is_disabled":false,"rental_uris":{"android":"levelo://app?vid=b0b6adb6-8546-40ca-b717-426bd572bcdc","ios":"levelo://app?vid=b0b6adb6-8546-40ca-b717-426bd572bcdc"},"vehicle_type_id":"4","last_reported":1719410855,"current_range_meters":27200,"station_id":"ce4bgs12rcd13ifvqcag","pricing_plan_id":"cebpf4jnsgd1na2vs0mg"},{"bike_id":"50c10502-f7eb-43e2-8941-3cdf95eb0dd2","system_id":"levelo_inurba_marseille","lat":43.305712,"lon":5.365641,"is_reserved":false,"is_disabled":false,"rental_uris":{"android":"levelo://app?vid=50c10502-f7eb-43e2-8941-3cdf95eb0dd2","ios":"levelo://app?vid=50c10502-f7eb-43e2-8941-3cdf95eb0dd2"},"vehicle_type_id":"4","last_reported":1719410855,"current_range_meters":25600,"station_id":"ce4bgs12rcd13ifvqcag","pricing_plan_id":"cebpf4jnsgd1na2vs0mg"},{"bike_id":"1d086f26-49b5-4141-93cd-c98726d33857","system_id":"levelo_inurba_marseille","lat":43.305714,"lon":5.365633,"is_reserved":false,"is_disabled":false,"rental_uris":{"android":"levelo://app?vid=1d086f26-49b5-4141-93cd-c98726d33857","ios":"levelo://app?vid=1d086f26-49b5-4141-93cd-c98726d33857"},"vehicle_type_id":"4","last_reported":1719410855,"current_range_meters":30400,"station_id":"ce4bgs12rcd13ifvqcag","pricing_plan_id":"cebpf4jnsgd1na2vs0mg"},{"bike_id":"8ef461fc-f991-490c-b8ea-c98dcfa5ba7e","system_id":"levelo_inurba_marseille","lat":43.305368,"lon":5.367343,"is_reserved":false,"is_disabled":false,"rental_uris":{"android":"levelo://app?vid=8ef461fc-f991-490c-b8ea-c98dcfa5ba7e","ios":"levelo://app?vid=8ef461fc-f991-490c-b8ea-c98dcfa5ba7e"},"vehicle_type_id":"4","last_reported":1719410855,"current_range_meters":27200,"station_id":"ce4bgrp2rcd13ifvqc9g","pricing_plan_id":"cebpf4jnsgd1na2vs0mg"},{"bike_id":"76be2d81-8150-4162-9384-8a304114a303","system_id":"levelo_inurba_marseille","lat":43.305439,"lon":5.367061,"is_reserved":false,"is_disabled":false,"rental_uris":{"android":"levelo://app?vid=76be2d81-8150-4162-9384-8a304114a303","ios":"levelo://app?vid=76be2d81-8150-4162-9384-8a304114a303"},"vehicle_type_id":"4","last_reported":1719410855,"current_range_meters":12000,"station_id":"ce4bgrp2rcd13ifvqc9g","pricing_plan_id":"cebpf4jnsgd1na2vs0mg"},{"bike_id":"cb37ed36-f671-4b72-b511-46ff95ed6169","system_id":"levelo_inurba_marseille","lat":43.305714,"lon":5.365633,"is_reserved":false,"is_disabled":false,"rental_uris":{"android":"levelo://app?vid=cb37ed36-f671-4b72-b511-46ff95ed6169","ios":"levelo://app?vid=cb37ed36-f671-4b72-b511-46ff95ed6169"},"vehicle_type_id":"4","last_reported":1719410855,"current_range_meters":3200,"station_id":"ce4bgs12rcd13ifvqcag","pricing_plan_id":"cebpf4jnsgd1na2vs0mg"},{"bike_id":"8fcebb6f-e525-41f9-ba74-b4a03cf0a26a","system_id":"levelo_inurba_marseille","lat":43.30537,"lon":5.367345,"is_reserved":false,"is_disabled":false,"rental_uris":{"android":"levelo://app?vid=8fcebb6f-e525-41f9-ba74-b4a03cf0a26a","ios":"levelo://app?vid=8fcebb6f-e525-41f9-ba74-b4a03cf0a26a"},"vehicle_type_id":"4","last_reported":1719410855,"current_range_meters":17600,"station_id":"ce4bgrp2rcd13ifvqc9g","pricing_plan_id":"cebpf4jnsgd1na2vs0mg"},{"bike_id":"2b761083-157c-48f6-9a41-d8a3b5cd2421","system_id":"levelo_inurba_marseille","lat":43.305712,"lon":5.365641,"is_reserved":false,"is_disabled":false,"rental_uris":{"android":"levelo://app?vid=2b761083-157c-48f6-9a41-d8a3b5cd2421","ios":"levelo://app?vid=2b761083-157c-48f6-9a41-d8a3b5cd2421"},"vehicle_type_id":"4","last_reported":1719410855,"current_range_meters":21200,"station_id":"ce4bgs12rcd13ifvqcag","pricing_plan_id":"cebpf4jnsgd1na2vs0mg"},{"bike_id":"77f37bdd-10ef-4f46-8920-d4fc97050236","system_id":"levelo_inurba_marseille","lat":43.305368,"lon":5.367343,"is_reserved":false,"is_disabled":false,"rental_uris":{"android":"levelo://app?vid=77f37bdd-10ef-4f46-8920-d4fc97050236","ios":"levelo://app?vid=77f37bdd-10ef-4f46-8920-d4fc97050236"},"vehicle_type_id":"4","last_reported":1719410855,"current_range_meters":18800,"station_id":"ce4bgrp2rcd13ifvqc9g","pricing_plan_id":"cebpf4jnsgd1na2vs0mg"},{"bike_id":"10202304-7f67-4ffc-93a2-5276f202bf1e","system_id":"levelo_inurba_marseille","lat":43.305368,"lon":5.367343,"is_reserved":false,"is_disabled":false,"rental_uris":{"android":"levelo://app?vid=10202304-7f67-4ffc-93a2-5276f202bf1e","ios":"levelo://app?vid=10202304-7f67-4ffc-93a2-5276f202bf1e"},"vehicle_type_id":"4","last_reported":1719410855,"current_range_meters":1200,"station_id":"ce4bgrp2rcd13ifvqc9g","pricing_plan_id":"cebpf4jnsgd1na2vs0mg"},{"bike_id":"efc7615d-30bb-4754-a9dd-645c7db295a4","system_id":"levelo_inurba_marseille","lat":43.305275,"lon":5.36661,"is_reserved":false,"is_disabled":false,"rental_uris":{"android":"levelo://app?vid=efc7615d-30bb-4754-a9dd-645c7db295a4","ios":"levelo://app?vid=efc7615d-30bb-4754-a9dd-645c7db295a4"},"vehicle_type_id":"4","last_reported":1719410855,"current_range_meters":31200,"station_id":"","pricing_plan_id":"cebpf4jnsgd1na2vs0mg"},{"bike_id":"4605086e-6bf6-47c9-b923-0a89e611b05e","system_id":"levelo_inurba_marseille","lat":43.30537,"lon":5.367345,"is_reserved":false,"is_disabled":false,"rental_uris":{"android":"levelo://app?vid=4605086e-6bf6-47c9-b923-0a89e611b05e","ios":"levelo://app?vid=4605086e-6bf6-47c9-b923-0a89e611b05e"},"vehicle_type_id":"4","last_reported":1719410855,"current_range_meters":10800,"station_id":"ce4bgrp2rcd13ifvqc9g","pricing_plan_id":"cebpf4jnsgd1na2vs0mg"},{"bike_id":"920d06ba-4233-4821-a1be-1b14c9b16a88","system_id":"levelo_inurba_marseille","lat":43.311125,"lon":5.377624,"is_reserved":false,"is_disabled":false,"rental_uris":{"android":"levelo://app?vid=920d06ba-4233-4821-a1be-1b14c9b16a88","ios":"levelo://app?vid=920d06ba-4233-4821-a1be-1b14c9b16a88"},"vehicle_type_id":"4","last_reported":1719410855,"current_range_meters":4800,"station_id":"ce4bgt92rcd13ifvqcg0","pricing_plan_id":"cebpf4jnsgd1na2vs0mg"},{"bike_id":"01d053b0-8978-4a66-b929-5e6d8fcb97c9","system_id":"levelo_inurba_marseille","lat":43.311125,"lon":5.377624,"is_reserved":false,"is_disabled":false,"rental_uris":{"android":"levelo://app?vid=01d053b0-8978-4a66-b929-5e6d8fcb97c9","ios":"levelo://app?vid=01d053b0-8978-4a66-b929-5e6d8fcb97c9"},"vehicle_type_id":"4","last_reported":1719410855,"current_range_meters":14400,"station_id":"ce4bgt92rcd13ifvqcg0","pricing_plan_id":"cebpf4jnsgd1na2vs0mg"},{"bike_id":"36c140fe-d18f-4ff5-be8f-386de33eddf0","system_id":"levelo_inurba_marseille","lat":43.311178,"lon":5.377647,"is_reserved":false,"is_disabled":false,"rental_uris":{"android":"levelo://app?vid=36c140fe-d18f-4ff5-be8f-386de33eddf0","ios":"levelo://app?vid=36c140fe-d18f-4ff5-be8f-386de33eddf0"},"vehicle_type_id":"4","last_reported":1719410855,"current_range_meters":25600,"station_id":"ce4bgt92rcd13ifvqcg0","pricing_plan_id":"cebpf4jnsgd1na2vs0mg"},{"bike_id":"b16d550e-f592-42c2-bedf-01e35b47c097","system_id":"levelo_inurba_marseille","lat":43.307945,"lon":5.376487,"is_reserved":false,"is_disabled":false,"rental_uris":{"android":"levelo://app?vid=b16d550e-f592-42c2-bedf-01e35b47c097","ios":"levelo://app?vid=b16d550e-f592-42c2-bedf-01e35b47c097"},"vehicle_type_id":"4","last_reported":1719410855,"current_range_meters":10400,"station_id":"ce4bgv92rcd13ifvqcq0","pricing_plan_id":"cebpf4jnsgd1na2vs0mg"},{"bike_id":"b7906314-ef14-4704-9f5a-d3972dd91192","system_id":"levelo_inurba_marseille","lat":43.303046,"lon":5.368981,"is_reserved":false,"is_disabled":false,"rental_uris":{"android":"levelo://app?vid=b7906314-ef14-4704-9f5a-d3972dd91192","ios":"levelo://app?vid=b7906314-ef14-4704-9f5a-d3972dd91192"},"vehicle_type_id":"4","last_reported":1719410855,"current_range_meters":17600,"station_id":"ce4bgqh2rcd13ifvqc5g","pricing_plan_id":"cebpf4jnsgd1na2vs0mg"},{"bike_id":"da31ca1b-5d4d-49da-81a5-828d371d0950","system_id":"levelo_inurba_marseille","lat":43.30304,"lon":5.368987,"is_reserved":false,"is_disabled":false,"rental_uris":{"android":"levelo://app?vid=da31ca1b-5d4d-49da-81a5-828d371d0950","ios":"levelo://app?vid=da31ca1b-5d4d-49da-81a5-828d371d0950"},"vehicle_type_id":"4","last_reported":1719410855,"current_range_meters":27600,"station_id":"ce4bgqh2rcd13ifvqc5g","pricing_plan_id":"cebpf4jnsgd1na2vs0mg"},{"bike_id":"52bb56b6-1e4f-403b-b3da-04bf4488906a","system_id":"levelo_inurba_marseille","lat":43.315289,"lon":5.380349,"is_reserved":false,"is_disabled":false,"rental_uris":{"android":"levelo://app?vid=52bb56b6-1e4f-403b-b3da-04bf4488906a","ios":"levelo://app?vid=52bb56b6-1e4f-403b-b3da-04bf4488906a"},"vehicle_type_id":"4","last_reported":1719410855,"current_range_meters":21600,"station_id":"ce4bhsp2rcd13ifvqi50","pricing_plan_id":"cebpf4jnsgd1na2vs0mg"},{"bike_id":"7c39eb2b-b7c9-4c68-8c85-740a50d91aaa","system_id":"levelo_inurba_marseille","lat":43.301939,"lon":5.366286,"is_reserved":false,"is_disabled":false,"rental_uris":{"android":"levelo://app?vid=7c39eb2b-b7c9-4c68-8c85-740a50d91aaa","ios":"levelo://app?vid=7c39eb2b-b7c9-4c68-8c85-740a50d91aaa"},"vehicle_type_id":"4","last_reported":1719410855,"current_range_meters":22800,"station_id":"ce4bgrh2rcd13ifvqc8g","pricing_plan_id":"cebpf4jnsgd1na2vs0mg"},{"bike_id":"9ba803a2-1f0e-4536-9fed-759d2a09873c","system_id":"levelo_inurba_marseille","lat":43.301939,"lon":5.366286,"is_reserved":false,"is_disabled":false,"rental_uris":{"android":"levelo://app?vid=9ba803a2-1f0e-4536-9fed-759d2a09873c","ios":"levelo://app?vid=9ba803a2-1f0e-4536-9fed-759d2a09873c"},"vehicle_type_id":"4","last_reported":1719410855,"current_range_meters":20800,"station_id":"ce4bgrh2rcd13ifvqc8g","pricing_plan_id":"cebpf4jnsgd1na2vs0mg"},{"bike_id":"dcbe83b3-5f04-4625-a831-8ff10926fd77","system_id":"levelo_inurba_marseille","lat":43.308012,"lon":5.381511,"is_reserved":false,"is_disabled":false,"rental_uris":{"android":"levelo://app?vid=dcbe83b3-5f04-4625-a831-8ff10926fd77","ios":"levelo://app?vid=dcbe83b3-5f04-4625-a831-8ff10926fd77"},"vehicle_type_id":"4","last_reported":1719410855,"current_range_meters":10000,"station_id":"ce4bgt12rcd13ifvqce0","pricing_plan_id":"cebpf4jnsgd1na2vs0mg"},{"bike_id":"d3f54b9d-7a5e-4b83-9550-46b71d5f273b","system_id":"levelo_inurba_marseille","lat":43.308012,"lon":5.381511,"is_reserved":false,"is_disabled":false,"rental_uris":{"android":"levelo://app?vid=d3f54b9d-7a5e-4b83-9550-46b71d5f273b","ios":"levelo://app?vid=d3f54b9d-7a5e-4b83-9550-46b71d5f273b"},"vehicle_type_id":"4","last_reported":1719410855,"current_range_meters":6400,"station_id":"ce4bgt12rcd13ifvqce0","pricing_plan_id":"cebpf4jnsgd1na2vs0mg"},{"bike_id":"70b9d30d-075e-4d30-9db0-7cf29857cbbe","system_id":"levelo_inurba_marseille","lat":43.32469,"lon":5.36578,"is_reserved":false,"is_disabled":false,"rental_uris":{"android":"levelo://app?vid=70b9d30d-075e-4d30-9db0-7cf29857cbbe","ios":"levelo://app?vid=70b9d30d-075e-4d30-9db0-7cf29857cbbe"},"vehicle_type_id":"4","last_reported":1719410855,"current_range_meters":5200,"station_id":"ce4bhs12rcd13ifvqhvg","pricing_plan_id":"cebpf4jnsgd1na2vs0mg"},{"bike_id":"9545c3a7-fcef-49d2-bc7d-f475a8f46799","system_id":"levelo_inurba_marseille","lat":43.324771,"lon":5.36557,"is_reserved":false,"is_disabled":false,"rental_uris":{"android":"levelo://app?vid=9545c3a7-fcef-49d2-bc7d-f475a8f46799","ios":"levelo://app?vid=9545c3a7-fcef-49d2-bc7d-f475a8f46799"},"vehicle_type_id":"4","last_reported":1719410855,"current_range_meters":6400,"station_id":"ce4bhs12rcd13ifvqhvg","pricing_plan_id":"cebpf4jnsgd1na2vs0mg"},{"bike_id":"59468a49-ff5a-4083-8c91-005f7a15a8d4","system_id":"levelo_inurba_marseille","lat":43.324771,"lon":5.36557,"is_reserved":false,"is_disabled":false,"rental_uris":{"android":"levelo://app?vid=59468a49-ff5a-4083-8c91-005f7a15a8d4","ios":"levelo://app?vid=59468a49-ff5a-4083-8c91-005f7a15a8d4"},"vehicle_type_id":"4","last_reported":1719410855,"current_range_meters":14400,"station_id":"ce4bhs12rcd13ifvqhvg","pricing_plan_id":"cebpf4jnsgd1na2vs0mg"},{"bike_id":"9adf7468-414a-4a66-84e8-af426c7e0d6c","system_id":"levelo_inurba_marseille","lat":43.324771,"lon":5.36557,"is_reserved":false,"is_disabled":false,"rental_uris":{"android":"levelo://app?vid=9adf7468-414a-4a66-84e8-af426c7e0d6c","ios":"levelo://app?vid=9adf7468-414a-4a66-84e8-af426c7e0d6c"},"vehicle_type_id":"4","last_reported":1719410855,"current_range_meters":26000,"station_id":"ce4bhs12rcd13ifvqhvg","pricing_plan_id":"cebpf4jnsgd1na2vs0mg"},{"bike_id":"c8170bb6-a2e2-4e02-b09e-8929f05ef0b6","system_id":"levelo_inurba_marseille","lat":43.324771,"lon":5.36557,"is_reserved":false,"is_disabled":false,"rental_uris":{"android":"levelo://app?vid=c8170bb6-a2e2-4e02-b09e-8929f05ef0b6","ios":"levelo://app?vid=c8170bb6-a2e2-4e02-b09e-8929f05ef0b6"},"vehicle_type_id":"4","last_reported":1719410855,"current_range_meters":2400,"station_id":"ce4bhs12rcd13ifvqhvg","pricing_plan_id":"cebpf4jnsgd1na2vs0mg"},{"bike_id":"b5775679-4ca6-4cce-8295-031cf4e3a3d5","system_id":"levelo_inurba_marseille","lat":43.324771,"lon":5.36557,"is_reserved":false,"is_disabled":false,"rental_uris":{"android":"levelo://app?vid=b5775679-4ca6-4cce-8295-031cf4e3a3d5","ios":"levelo://app?vid=b5775679-4ca6-4cce-8295-031cf4e3a3d5"},"vehicle_type_id":"4","last_reported":1719410855,"current_range_meters":20800,"station_id":"ce4bhs12rcd13ifvqhvg","pricing_plan_id":"cebpf4jnsgd1na2vs0mg"},{"bike_id":"60a11d50-0e0f-425d-8f45-dbbd75bc8f01","system_id":"levelo_inurba_marseille","lat":43.324856,"lon":5.365801,"is_reserved":false,"is_disabled":false,"rental_uris":{"android":"levelo://app?vid=60a11d50-0e0f-425d-8f45-dbbd75bc8f01","ios":"levelo://app?vid=60a11d50-0e0f-425d-8f45-dbbd75bc8f01"},"vehicle_type_id":"4","last_reported":1719410855,"current_range_meters":23600,"station_id":"ce4bhs12rcd13ifvqhvg","pricing_plan_id":"cebpf4jnsgd1na2vs0mg"},{"bike_id":"ef58f710-d75c-428a-a216-ccae836a40f3","system_id":"levelo_inurba_marseille","lat":43.32485,"lon":5.36562,"is_reserved":false,"is_disabled":false,"rental_uris":{"android":"levelo://app?vid=ef58f710-d75c-428a-a216-ccae836a40f3","ios":"levelo://app?vid=ef58f710-d75c-428a-a216-ccae836a40f3"},"vehicle_type_id":"4","last_reported":1719410855,"current_range_meters":24400,"station_id":"ce4bhs12rcd13ifvqhvg","pricing_plan_id":"cebpf4jnsgd1na2vs0mg"},{"bike_id":"46a60a86-cf99-40d3-bee4-82be7cc111a2","system_id":"levelo_inurba_marseille","lat":43.32486,"lon":5.36557,"is_reserved":false,"is_disabled":false,"rental_uris":{"android":"levelo://app?vid=46a60a86-cf99-40d3-bee4-82be7cc111a2","ios":"levelo://app?vid=46a60a86-cf99-40d3-bee4-82be7cc111a2"},"vehicle_type_id":"4","last_reported":1719410855,"current_range_meters":22000,"station_id":"ce4bhs12rcd13ifvqhvg","pricing_plan_id":"cebpf4jnsgd1na2vs0mg"},{"bike_id":"7d29847f-daf0-47a0-bcbd-0e931d171891","system_id":"levelo_inurba_marseille","lat":43.324771,"lon":5.36557,"is_reserved":false,"is_disabled":false,"rental_uris":{"android":"levelo://app?vid=7d29847f-daf0-47a0-bcbd-0e931d171891","ios":"levelo://app?vid=7d29847f-daf0-47a0-bcbd-0e931d171891"},"vehicle_type_id":"4","last_reported":1719410855,"current_range_meters":20800,"station_id":"ce4bhs12rcd13ifvqhvg","pricing_plan_id":"cebpf4jnsgd1na2vs0mg"},{"bike_id":"cd7a8215-677a-437f-b7f3-43bdffbcf350","system_id":"levelo_inurba_marseille","lat":43.324771,"lon":5.36557,"is_reserved":false,"is_disabled":false,"rental_uris":{"android":"levelo://app?vid=cd7a8215-677a-437f-b7f3-43bdffbcf350","ios":"levelo://app?vid=cd7a8215-677a-437f-b7f3-43bdffbcf350"},"vehicle_type_id":"4","last_reported":1719410855,"current_range_meters":8400,"station_id":"ce4bhs12rcd13ifvqhvg","pricing_plan_id":"cebpf4jnsgd1na2vs0mg"},{"bike_id":"72bafb86-d841-44a2-ac16-6d9373c7a7ae","system_id":"levelo_inurba_marseille","lat":43.31061,"lon":5.3834,"is_reserved":false,"is_disabled":false,"rental_uris":{"android":"levelo://app?vid=72bafb86-d841-44a2-ac16-6d9373c7a7ae","ios":"levelo://app?vid=72bafb86-d841-44a2-ac16-6d9373c7a7ae"},"vehicle_type_id":"4","last_reported":1719410855,"current_range_meters":0,"station_id":"ce4bgv92rcd13ifvqcr0","pricing_plan_id":"cebpf4jnsgd1na2vs0mg"},{"bike_id":"a6562901-acc6-45c4-ba11-8105449a79d1","system_id":"levelo_inurba_marseille","lat":43.310804,"lon":5.38359,"is_reserved":false,"is_disabled":false,"rental_uris":{"android":"levelo://app?vid=a6562901-acc6-45c4-ba11-8105449a79d1","ios":"levelo://app?vid=a6562901-acc6-45c4-ba11-8105449a79d1"},"vehicle_type_id":"4","last_reported":1719410855,"current_range_meters":24400,"station_id":"ce4bgv92rcd13ifvqcr0","pricing_plan_id":"cebpf4jnsgd1na2vs0mg"},{"bike_id":"0c313afb-aeed-464f-88de-c24b16ca1f75","system_id":"levelo_inurba_marseille","lat":43.3015,"lon":5.37421,"is_reserved":false,"is_disabled":false,"rental_uris":{"android":"levelo://app?vid=0c313afb-aeed-464f-88de-c24b16ca1f75","ios":"levelo://app?vid=0c313afb-aeed-464f-88de-c24b16ca1f75"},"vehicle_type_id":"4","last_reported":1719410855,"current_range_meters":4400,"station_id":"ce4bgs92rcd13ifvqcc0","pricing_plan_id":"cebpf4jnsgd1na2vs0mg"},{"bike_id":"5a6327b7-385a-42db-9b3d-2bc20ae170d1","system_id":"levelo_inurba_marseille","lat":43.302784,"lon":5.377158,"is_reserved":false,"is_disabled":false,"rental_uris":{"android":"levelo://app?vid=5a6327b7-385a-42db-9b3d-2bc20ae170d1","ios":"levelo://app?vid=5a6327b7-385a-42db-9b3d-2bc20ae170d1"},"vehicle_type_id":"4","last_reported":1719410855,"current_range_meters":16000,"station_id":"ce4bguh2rcd13ifvqcj0","pricing_plan_id":"cebpf4jnsgd1na2vs0mg"},{"bike_id":"64e62d40-642f-40c2-9fce-fd40dcb06ce1","system_id":"levelo_inurba_marseille","lat":43.302784,"lon":5.377158,"is_reserved":false,"is_disabled":false,"rental_uris":{"android":"levelo://app?vid=64e62d40-642f-40c2-9fce-fd40dcb06ce1","ios":"levelo://app?vid=64e62d40-642f-40c2-9fce-fd40dcb06ce1"},"vehicle_type_id":"4","last_reported":1719410855,"current_range_meters":8400,"station_id":"ce4bguh2rcd13ifvqcj0","pricing_plan_id":"cebpf4jnsgd1na2vs0mg"},{"bike_id":"935297c3-826f-44e2-9df5-4a1587892834","system_id":"levelo_inurba_marseille","lat":43.303204,"lon":5.37877,"is_reserved":false,"is_disabled":false,"rental_uris":{"android":"levelo://app?vid=935297c3-826f-44e2-9df5-4a1587892834","ios":"levelo://app?vid=935297c3-826f-44e2-9df5-4a1587892834"},"vehicle_type_id":"4","last_reported":1719410855,"current_range_meters":25600,"station_id":"","pricing_plan_id":"cebpf4jnsgd1na2vs0mg"},{"bike_id":"cc88f3fe-a518-4f1d-9520-a85aee44e65e","system_id":"levelo_inurba_marseille","lat":43.299222,"lon":5.365554,"is_reserved":false,"is_disabled":false,"rental_uris":{"android":"levelo://app?vid=cc88f3fe-a518-4f1d-9520-a85aee44e65e","ios":"levelo://app?vid=cc88f3fe-a518-4f1d-9520-a85aee44e65e"},"vehicle_type_id":"4","last_reported":1719410855,"current_range_meters":28800,"station_id":"ce4bgm92rcd13ifvqbr0","pricing_plan_id":"cebpf4jnsgd1na2vs0mg"},{"bike_id":"60236563-afc3-428a-8f5c-120cc3bf6693","system_id":"levelo_inurba_marseille","lat":43.299724,"lon":5.371829,"is_reserved":false,"is_disabled":false,"rental_uris":{"android":"levelo://app?vid=60236563-afc3-428a-8f5c-120cc3bf6693","ios":"levelo://app?vid=60236563-afc3-428a-8f5c-120cc3bf6693"},"vehicle_type_id":"4","last_reported":1719410855,"current_range_meters":23200,"station_id":"ce4bgr92rcd13ifvqc7g","pricing_plan_id":"cebpf4jnsgd1na2vs0mg"},{"bike_id":"4b16838e-92db-478e-a8cf-f02a33cc7748","system_id":"levelo_inurba_marseille","lat":43.299724,"lon":5.371829,"is_reserved":false,"is_disabled":false,"rental_uris":{"android":"levelo://app?vid=4b16838e-92db-478e-a8cf-f02a33cc7748","ios":"levelo://app?vid=4b16838e-92db-478e-a8cf-f02a33cc7748"},"vehicle_type_id":"4","last_reported":1719410855,"current_range_meters":28800,"station_id":"ce4bgr92rcd13ifvqc7g","pricing_plan_id":"cebpf4jnsgd1na2vs0mg"},{"bike_id":"de06df26-eb28-416a-a1d3-e70e9070e0e7","system_id":"levelo_inurba_marseille","lat":43.298433,"lon":5.362774,"is_reserved":false,"is_disabled":false,"rental_uris":{"android":"levelo://app?vid=de06df26-eb28-416a-a1d3-e70e9070e0e7","ios":"levelo://app?vid=de06df26-eb28-416a-a1d3-e70e9070e0e7"},"vehicle_type_id":"4","last_reported":1719410855,"current_range_meters":4800,"station_id":"ce4bgpp2rcd13ifvqc3g","pricing_plan_id":"cebpf4jnsgd1na2vs0mg"},{"bike_id":"b4e90371-b51b-4bb3-9f26-7d543acd8573","system_id":"levelo_inurba_marseille","lat":43.30934,"lon":5.3864,"is_reserved":false,"is_disabled":false,"rental_uris":{"android":"levelo://app?vid=b4e90371-b51b-4bb3-9f26-7d543acd8573","ios":"levelo://app?vid=b4e90371-b51b-4bb3-9f26-7d543acd8573"},"vehicle_type_id":"4","last_reported":1719410855,"current_range_meters":20000,"station_id":"","pricing_plan_id":"cebpf4jnsgd1na2vs0mg"},{"bike_id":"470916e3-66cd-4d8b-ab39-dd5687109057","system_id":"levelo_inurba_marseille","lat":43.298433,"lon":5.362774,"is_reserved":false,"is_disabled":false,"rental_uris":{"android":"levelo://app?vid=470916e3-66cd-4d8b-ab39-dd5687109057","ios":"levelo://app?vid=470916e3-66cd-4d8b-ab39-dd5687109057"},"vehicle_type_id":"4","last_reported":1719410855,"current_range_meters":2800,"station_id":"ce4bgpp2rcd13ifvqc3g","pricing_plan_id":"cebpf4jnsgd1na2vs0mg"},{"bike_id":"07b3d7d5-54b2-43d3-8aaa-14f2e9c3a977","system_id":"levelo_inurba_marseille","lat":43.298433,"lon":5.362774,"is_reserved":false,"is_disabled":false,"rental_uris":{"android":"levelo://app?vid=07b3d7d5-54b2-43d3-8aaa-14f2e9c3a977","ios":"levelo://app?vid=07b3d7d5-54b2-43d3-8aaa-14f2e9c3a977"},"vehicle_type_id":"4","last_reported":1719410855,"current_range_meters":31600,"station_id":"ce4bgpp2rcd13ifvqc3g","pricing_plan_id":"cebpf4jnsgd1na2vs0mg"},{"bike_id":"97c63506-05ec-43b9-8c50-c5fe585621e7","system_id":"levelo_inurba_marseille","lat":43.299243,"lon":5.374807,"is_reserved":false,"is_disabled":false,"rental_uris":{"android":"levelo://app?vid=97c63506-05ec-43b9-8c50-c5fe585621e7","ios":"levelo://app?vid=97c63506-05ec-43b9-8c50-c5fe585621e7"},"vehicle_type_id":"4","last_reported":1719410855,"current_range_meters":400,"station_id":"ce4bgjh2rcd13ifvqbg0","pricing_plan_id":"cebpf4jnsgd1na2vs0mg"},{"bike_id":"df27ffef-1398-46a7-831f-e0a59d29e452","system_id":"levelo_inurba_marseille","lat":43.319179,"lon":5.407725,"is_reserved":false,"is_disabled":false,"rental_uris":{"android":"levelo://app?vid=df27ffef-1398-46a7-831f-e0a59d29e452","ios":"levelo://app?vid=df27ffef-1398-46a7-831f-e0a59d29e452"},"vehicle_type_id":"4","last_reported":1719410855,"current_range_meters":14000,"station_id":"ce4bhq12rcd13ifvqhig","pricing_plan_id":"cebpf4jnsgd1na2vs0mg"},{"bike_id":"011918c2-fc62-4719-a1cd-45064cd4963c","system_id":"levelo_inurba_marseille","lat":43.322872,"lon":5.382756,"is_reserved":false,"is_disabled":false,"rental_uris":{"android":"levelo://app?vid=011918c2-fc62-4719-a1cd-45064cd4963c","ios":"levelo://app?vid=011918c2-fc62-4719-a1cd-45064cd4963c"},"vehicle_type_id":"4","last_reported":1719410855,"current_range_meters":4000,"station_id":"ce4bhr12rcd13ifvqhqg","pricing_plan_id":"cebpf4jnsgd1na2vs0mg"},{"bike_id":"8a3dee68-befb-495c-8c53-779d24084da1","system_id":"levelo_inurba_marseille","lat":43.297076,"lon":5.36555,"is_reserved":false,"is_disabled":false,"rental_uris":{"android":"levelo://app?vid=8a3dee68-befb-495c-8c53-779d24084da1","ios":"levelo://app?vid=8a3dee68-befb-495c-8c53-779d24084da1"},"vehicle_type_id":"4","last_reported":1719410855,"current_range_meters":22800,"station_id":"","pricing_plan_id":"cebpf4jnsgd1na2vs0mg"},{"bike_id":"18af5eea-8b09-49f3-a8fc-f6ecb650ba0d","system_id":"levelo_inurba_marseille","lat":43.313291,"lon":5.396838,"is_reserved":false,"is_disabled":false,"rental_uris":{"android":"levelo://app?vid=18af5eea-8b09-49f3-a8fc-f6ecb650ba0d","ios":"levelo://app?vid=18af5eea-8b09-49f3-a8fc-f6ecb650ba0d"},"vehicle_type_id":"4","last_reported":1719410855,"current_range_meters":20400,"station_id":"ce4bgvp2rcd13ifvqcu0","pricing_plan_id":"cebpf4jnsgd1na2vs0mg"},{"bike_id":"c85d31e3-0e33-46ec-aba3-f61ed6d311b9","system_id":"levelo_inurba_marseille","lat":43.32788,"lon":5.359792,"is_reserved":false,"is_disabled":false,"rental_uris":{"android":"levelo://app?vid=c85d31e3-0e33-46ec-aba3-f61ed6d311b9","ios":"levelo://app?vid=c85d31e3-0e33-46ec-aba3-f61ed6d311b9"},"vehicle_type_id":"4","last_reported":1719410855,"current_range_meters":25600,"station_id":"","pricing_plan_id":"cebpf4jnsgd1na2vs0mg"},{"bike_id":"0a716e3e-728e-4819-9c30-799fab780503","system_id":"levelo_inurba_marseille","lat":43.296129,"lon":5.370777,"is_reserved":false,"is_disabled":false,"rental_uris":{"android":"levelo://app?vid=0a716e3e-728e-4819-9c30-799fab780503","ios":"levelo://app?vid=0a716e3e-728e-4819-9c30-799fab780503"},"vehicle_type_id":"4","last_reported":1719410855,"current_range_meters":8400,"station_id":"ce4bgnh2rcd13ifvqc0g","pricing_plan_id":"cebpf4jnsgd1na2vs0mg"},{"bike_id":"7b68bba3-e5cc-48cb-9238-11e17506baed","system_id":"levelo_inurba_marseille","lat":43.296921,"lon":5.376579,"is_reserved":false,"is_disabled":false,"rental_uris":{"android":"levelo://app?vid=7b68bba3-e5cc-48cb-9238-11e17506baed","ios":"levelo://app?vid=7b68bba3-e5cc-48cb-9238-11e17506baed"},"vehicle_type_id":"4","last_reported":1719410855,"current_range_meters":26000,"station_id":"ce4bgkh2rcd13ifvqbl0","pricing_plan_id":"cebpf4jnsgd1na2vs0mg"},{"bike_id":"e66ce851-b770-456b-b4aa-0dda8e9472f9","system_id":"levelo_inurba_marseille","lat":43.296921,"lon":5.376579,"is_reserved":false,"is_disabled":false,"rental_uris":{"android":"levelo://app?vid=e66ce851-b770-456b-b4aa-0dda8e9472f9","ios":"levelo://app?vid=e66ce851-b770-456b-b4aa-0dda8e9472f9"},"vehicle_type_id":"4","last_reported":1719410855,"current_range_meters":25600,"station_id":"ce4bgkh2rcd13ifvqbl0","pricing_plan_id":"cebpf4jnsgd1na2vs0mg"},{"bike_id":"d466f304-3cd6-42aa-a3b7-c589eaad96f1","system_id":"levelo_inurba_marseille","lat":43.317557,"lon":5.390173,"is_reserved":false,"is_disabled":false,"rental_uris":{"android":"levelo://app?vid=d466f304-3cd6-42aa-a3b7-c589eaad96f1","ios":"levelo://app?vid=d466f304-3cd6-42aa-a3b7-c589eaad96f1"},"vehicle_type_id":"4","last_reported":1719410855,"current_range_meters":19200,"station_id":"ce4bhqp2rcd13ifvqhng","pricing_plan_id":"cebpf4jnsgd1na2vs0mg"},{"bike_id":"f0290325-e2ce-4cd0-af3d-93d5ab1acbdd","system_id":"levelo_inurba_marseille","lat":43.317557,"lon":5.390173,"is_reserved":false,"is_disabled":false,"rental_uris":{"android":"levelo://app?vid=f0290325-e2ce-4cd0-af3d-93d5ab1acbdd","ios":"levelo://app?vid=f0290325-e2ce-4cd0-af3d-93d5ab1acbdd"},"vehicle_type_id":"4","last_reported":1719410855,"current_range_meters":27200,"station_id":"ce4bhqp2rcd13ifvqhng","pricing_plan_id":"cebpf4jnsgd1na2vs0mg"},{"bike_id":"565bdb2c-0ae6-49a0-8799-b23f3d6d2ea5","system_id":"levelo_inurba_marseille","lat":43.317647,"lon":5.390187,"is_reserved":false,"is_disabled":false,"rental_uris":{"android":"levelo://app?vid=565bdb2c-0ae6-49a0-8799-b23f3d6d2ea5","ios":"levelo://app?vid=565bdb2c-0ae6-49a0-8799-b23f3d6d2ea5"},"vehicle_type_id":"4","last_reported":1719410855,"current_range_meters":6400,"station_id":"ce4bhqp2rcd13ifvqhng","pricing_plan_id":"cebpf4jnsgd1na2vs0mg"},{"bike_id":"495522a8-2734-4786-80d6-1be04fc04da0","system_id":"levelo_inurba_marseille","lat":43.295748,"lon":5.37522,"is_reserved":false,"is_disabled":false,"rental_uris":{"android":"levelo://app?vid=495522a8-2734-4786-80d6-1be04fc04da0","ios":"levelo://app?vid=495522a8-2734-4786-80d6-1be04fc04da0"},"vehicle_type_id":"4","last_reported":1719410855,"current_range_meters":16800,"station_id":"ce4bgh92rcd13ifvqb50","pricing_plan_id":"cebpf4jnsgd1na2vs0mg"},{"bike_id":"9ee6325f-5d69-4810-9748-2e34945d2b48","system_id":"levelo_inurba_marseille","lat":43.295748,"lon":5.37522,"is_reserved":false,"is_disabled":false,"rental_uris":{"android":"levelo://app?vid=9ee6325f-5d69-4810-9748-2e34945d2b48","ios":"levelo://app?vid=9ee6325f-5d69-4810-9748-2e34945d2b48"},"vehicle_type_id":"4","last_reported":1719410855,"current_range_meters":5200,"station_id":"ce4bgh92rcd13ifvqb50","pricing_plan_id":"cebpf4jnsgd1na2vs0mg"},{"bike_id":"15fd89f2-e15d-462a-ae95-f7d3f84aa89d","system_id":"levelo_inurba_marseille","lat":43.295748,"lon":5.37522,"is_reserved":false,"is_disabled":false,"rental_uris":{"android":"levelo://app?vid=15fd89f2-e15d-462a-ae95-f7d3f84aa89d","ios":"levelo://app?vid=15fd89f2-e15d-462a-ae95-f7d3f84aa89d"},"vehicle_type_id":"4","last_reported":1719410855,"current_range_meters":18400,"station_id":"ce4bgh92rcd13ifvqb50","pricing_plan_id":"cebpf4jnsgd1na2vs0mg"},{"bike_id":"e136b0e7-6e6f-483b-951f-e3fa44275147","system_id":"levelo_inurba_marseille","lat":43.304274,"lon":5.388873,"is_reserved":false,"is_disabled":false,"rental_uris":{"android":"levelo://app?vid=e136b0e7-6e6f-483b-951f-e3fa44275147","ios":"levelo://app?vid=e136b0e7-6e6f-483b-951f-e3fa44275147"},"vehicle_type_id":"4","last_reported":1719410855,"current_range_meters":20400,"station_id":"ce4bgk12rcd13ifvqbi0","pricing_plan_id":"cebpf4jnsgd1na2vs0mg"},{"bike_id":"93b047ac-39a3-4347-b19a-69137448d16a","system_id":"levelo_inurba_marseille","lat":43.296277,"lon":5.377108,"is_reserved":false,"is_disabled":false,"rental_uris":{"android":"levelo://app?vid=93b047ac-39a3-4347-b19a-69137448d16a","ios":"levelo://app?vid=93b047ac-39a3-4347-b19a-69137448d16a"},"vehicle_type_id":"4","last_reported":1719410855,"current_range_meters":24400,"station_id":"ce4bgi92rcd13ifvqb90","pricing_plan_id":"cebpf4jnsgd1na2vs0mg"},{"bike_id":"91ed7086-9e01-40f6-9a10-83e09b680445","system_id":"levelo_inurba_marseille","lat":43.299724,"lon":5.384848,"is_reserved":false,"is_disabled":false,"rental_uris":{"android":"levelo://app?vid=91ed7086-9e01-40f6-9a10-83e09b680445","ios":"levelo://app?vid=91ed7086-9e01-40f6-9a10-83e09b680445"},"vehicle_type_id":"4","last_reported":1719410855,"current_range_meters":9200,"station_id":"ce4bgj92rcd13ifvqbd0","pricing_plan_id":"cebpf4jnsgd1na2vs0mg"},{"bike_id":"ec955683-394c-4f44-ba6f-ad6194681791","system_id":"levelo_inurba_marseille","lat":43.32365,"lon":5.38875,"is_reserved":false,"is_disabled":false,"rental_uris":{"android":"levelo://app?vid=ec955683-394c-4f44-ba6f-ad6194681791","ios":"levelo://app?vid=ec955683-394c-4f44-ba6f-ad6194681791"},"vehicle_type_id":"4","last_reported":1719410855,"current_range_meters":22800,"station_id":"ce4bhqp2rcd13ifvqhog","pricing_plan_id":"cebpf4jnsgd1na2vs0mg"},{"bike_id":"2e7f297e-9a88-4eb6-8b17-a1b9b047bedc","system_id":"levelo_inurba_marseille","lat":43.292749,"lon":5.368398,"is_reserved":false,"is_disabled":false,"rental_uris":{"android":"levelo://app?vid=2e7f297e-9a88-4eb6-8b17-a1b9b047bedc","ios":"levelo://app?vid=2e7f297e-9a88-4eb6-8b17-a1b9b047bedc"},"vehicle_type_id":"4","last_reported":1719410855,"current_range_meters":23200,"station_id":"ce4bhbp2rcd13ifvqesg","pricing_plan_id":"cebpf4jnsgd1na2vs0mg"},{"bike_id":"fa484f63-e6b1-4d8c-add1-732db6645cbe","system_id":"levelo_inurba_marseille","lat":43.292749,"lon":5.368398,"is_reserved":false,"is_disabled":false,"rental_uris":{"android":"levelo://app?vid=fa484f63-e6b1-4d8c-add1-732db6645cbe","ios":"levelo://app?vid=fa484f63-e6b1-4d8c-add1-732db6645cbe"},"vehicle_type_id":"4","last_reported":1719410855,"current_range_meters":29600,"station_id":"ce4bhbp2rcd13ifvqesg","pricing_plan_id":"cebpf4jnsgd1na2vs0mg"},{"bike_id":"c71e3be9-5544-456b-ae07-f513682ef92a","system_id":"levelo_inurba_marseille","lat":43.29308,"lon":5.37176,"is_reserved":false,"is_disabled":false,"rental_uris":{"android":"levelo://app?vid=c71e3be9-5544-456b-ae07-f513682ef92a","ios":"levelo://app?vid=c71e3be9-5544-456b-ae07-f513682ef92a"},"vehicle_type_id":"4","last_reported":1719410855,"current_range_meters":19200,"station_id":"ce4bgh92rcd13ifvqb40","pricing_plan_id":"cebpf4jnsgd1na2vs0mg"},{"bike_id":"31258697-43aa-4c61-8469-3f76164bdf7e","system_id":"levelo_inurba_marseille","lat":43.292749,"lon":5.368398,"is_reserved":false,"is_disabled":false,"rental_uris":{"android":"levelo://app?vid=31258697-43aa-4c61-8469-3f76164bdf7e","ios":"levelo://app?vid=31258697-43aa-4c61-8469-3f76164bdf7e"},"vehicle_type_id":"4","last_reported":1719410855,"current_range_meters":23200,"station_id":"ce4bhbp2rcd13ifvqesg","pricing_plan_id":"cebpf4jnsgd1na2vs0mg"},{"bike_id":"513ad87a-4a1d-4601-a6b8-396b29ad0ad4","system_id":"levelo_inurba_marseille","lat":43.29307,"lon":5.3718,"is_reserved":false,"is_disabled":false,"rental_uris":{"android":"levelo://app?vid=513ad87a-4a1d-4601-a6b8-396b29ad0ad4","ios":"levelo://app?vid=513ad87a-4a1d-4601-a6b8-396b29ad0ad4"},"vehicle_type_id":"4","last_reported":1719410855,"current_range_meters":24400,"station_id":"ce4bgh92rcd13ifvqb40","pricing_plan_id":"cebpf4jnsgd1na2vs0mg"},{"bike_id":"685ce58b-888f-4834-9928-b823de9d932f","system_id":"levelo_inurba_marseille","lat":43.292749,"lon":5.368398,"is_reserved":false,"is_disabled":false,"rental_uris":{"android":"levelo://app?vid=685ce58b-888f-4834-9928-b823de9d932f","ios":"levelo://app?vid=685ce58b-888f-4834-9928-b823de9d932f"},"vehicle_type_id":"4","last_reported":1719410855,"current_range_meters":24400,"station_id":"ce4bhbp2rcd13ifvqesg","pricing_plan_id":"cebpf4jnsgd1na2vs0mg"},{"bike_id":"cf855569-07ab-400c-ae0a-4cb9c5b3e156","system_id":"levelo_inurba_marseille","lat":43.292749,"lon":5.368398,"is_reserved":false,"is_disabled":false,"rental_uris":{"android":"levelo://app?vid=cf855569-07ab-400c-ae0a-4cb9c5b3e156","ios":"levelo://app?vid=cf855569-07ab-400c-ae0a-4cb9c5b3e156"},"vehicle_type_id":"4","last_reported":1719410855,"current_range_meters":26800,"station_id":"ce4bhbp2rcd13ifvqesg","pricing_plan_id":"cebpf4jnsgd1na2vs0mg"},{"bike_id":"09912d1b-1326-40a3-a818-70f9f16f8be6","system_id":"levelo_inurba_marseille","lat":43.29304,"lon":5.37175,"is_reserved":false,"is_disabled":false,"rental_uris":{"android":"levelo://app?vid=09912d1b-1326-40a3-a818-70f9f16f8be6","ios":"levelo://app?vid=09912d1b-1326-40a3-a818-70f9f16f8be6"},"vehicle_type_id":"4","last_reported":1719410855,"current_range_meters":3200,"station_id":"ce4bgh92rcd13ifvqb40","pricing_plan_id":"cebpf4jnsgd1na2vs0mg"},{"bike_id":"05c27933-6c98-4790-86ca-4fbbd19b9692","system_id":"levelo_inurba_marseille","lat":43.293249,"lon":5.371578,"is_reserved":false,"is_disabled":false,"rental_uris":{"android":"levelo://app?vid=05c27933-6c98-4790-86ca-4fbbd19b9692","ios":"levelo://app?vid=05c27933-6c98-4790-86ca-4fbbd19b9692"},"vehicle_type_id":"4","last_reported":1719410855,"current_range_meters":0,"station_id":"ce4bgh92rcd13ifvqb40","pricing_plan_id":"cebpf4jnsgd1na2vs0mg"},{"bike_id":"2d193b66-f9c9-4ca6-b4cf-6f2c0f207f02","system_id":"levelo_inurba_marseille","lat":43.292749,"lon":5.368398,"is_reserved":false,"is_disabled":false,"rental_uris":{"android":"levelo://app?vid=2d193b66-f9c9-4ca6-b4cf-6f2c0f207f02","ios":"levelo://app?vid=2d193b66-f9c9-4ca6-b4cf-6f2c0f207f02"},"vehicle_type_id":"4","last_reported":1719410855,"current_range_meters":15600,"station_id":"ce4bhbp2rcd13ifvqesg","pricing_plan_id":"cebpf4jnsgd1na2vs0mg"},{"bike_id":"c2488a51-80db-4178-b3e2-353f17abfe7b","system_id":"levelo_inurba_marseille","lat":43.292749,"lon":5.368398,"is_reserved":false,"is_disabled":false,"rental_uris":{"android":"levelo://app?vid=c2488a51-80db-4178-b3e2-353f17abfe7b","ios":"levelo://app?vid=c2488a51-80db-4178-b3e2-353f17abfe7b"},"vehicle_type_id":"4","last_reported":1719410855,"current_range_meters":14000,"station_id":"ce4bhbp2rcd13ifvqesg","pricing_plan_id":"cebpf4jnsgd1na2vs0mg"},{"bike_id":"414721c6-a40e-4930-9230-9faf0da0ed42","system_id":"levelo_inurba_marseille","lat":43.292749,"lon":5.368402,"is_reserved":false,"is_disabled":false,"rental_uris":{"android":"levelo://app?vid=414721c6-a40e-4930-9230-9faf0da0ed42","ios":"levelo://app?vid=414721c6-a40e-4930-9230-9faf0da0ed42"},"vehicle_type_id":"4","last_reported":1719410855,"current_range_meters":30800,"station_id":"ce4bhbp2rcd13ifvqesg","pricing_plan_id":"cebpf4jnsgd1na2vs0mg"},{"bike_id":"7c2b6073-761f-4fe8-a744-5ceb08cffd8e","system_id":"levelo_inurba_marseille","lat":43.292311,"lon":5.360731,"is_reserved":false,"is_disabled":false,"rental_uris":{"android":"levelo://app?vid=7c2b6073-761f-4fe8-a744-5ceb08cffd8e","ios":"levelo://app?vid=7c2b6073-761f-4fe8-a744-5ceb08cffd8e"},"vehicle_type_id":"4","last_reported":1719410855,"current_range_meters":19200,"station_id":"ce4bhbh2rcd13ifvqeqg","pricing_plan_id":"cebpf4jnsgd1na2vs0mg"},{"bike_id":"19b658c4-fbd3-41d0-a771-4b79f18124a7","system_id":"levelo_inurba_marseille","lat":43.293009,"lon":5.374584,"is_reserved":false,"is_disabled":false,"rental_uris":{"android":"levelo://app?vid=19b658c4-fbd3-41d0-a771-4b79f18124a7","ios":"levelo://app?vid=19b658c4-fbd3-41d0-a771-4b79f18124a7"},"vehicle_type_id":"4","last_reported":1719410855,"current_range_meters":1200,"station_id":"ce4bgi12rcd13ifvqb70","pricing_plan_id":"cebpf4jnsgd1na2vs0mg"},{"bike_id":"9a5c58b5-0479-42e6-a76d-4fe8d7d39703","system_id":"levelo_inurba_marseille","lat":43.302992,"lon":5.392136,"is_reserved":false,"is_disabled":false,"rental_uris":{"android":"levelo://app?vid=9a5c58b5-0479-42e6-a76d-4fe8d7d39703","ios":"levelo://app?vid=9a5c58b5-0479-42e6-a76d-4fe8d7d39703"},"vehicle_type_id":"4","last_reported":1719410855,"current_range_meters":4000,"station_id":"ce4bgkh2rcd13ifvqbk0","pricing_plan_id":"cebpf4jnsgd1na2vs0mg"},{"bike_id":"bf327cb4-48b4-46a3-94d1-98e799ff62e2","system_id":"levelo_inurba_marseille","lat":43.302992,"lon":5.392136,"is_reserved":false,"is_disabled":false,"rental_uris":{"android":"levelo://app?vid=bf327cb4-48b4-46a3-94d1-98e799ff62e2","ios":"levelo://app?vid=bf327cb4-48b4-46a3-94d1-98e799ff62e2"},"vehicle_type_id":"4","last_reported":1719410855,"current_range_meters":16000,"station_id":"ce4bgkh2rcd13ifvqbk0","pricing_plan_id":"cebpf4jnsgd1na2vs0mg"},{"bike_id":"2b95eda8-40c8-4ba8-a999-cbb7f30c3aa8","system_id":"levelo_inurba_marseille","lat":43.2936,"lon":5.37835,"is_reserved":false,"is_disabled":false,"rental_uris":{"android":"levelo://app?vid=2b95eda8-40c8-4ba8-a999-cbb7f30c3aa8","ios":"levelo://app?vid=2b95eda8-40c8-4ba8-a999-cbb7f30c3aa8"},"vehicle_type_id":"4","last_reported":1719410855,"current_range_meters":400,"station_id":"ce4bgjh2rcd13ifvqbf0","pricing_plan_id":"cebpf4jnsgd1na2vs0mg"},{"bike_id":"696289da-86df-4cda-a98a-d2718bda30c5","system_id":"levelo_inurba_marseille","lat":43.292311,"lon":5.360731,"is_reserved":false,"is_disabled":false,"rental_uris":{"android":"levelo://app?vid=696289da-86df-4cda-a98a-d2718bda30c5","ios":"levelo://app?vid=696289da-86df-4cda-a98a-d2718bda30c5"},"vehicle_type_id":"4","last_reported":1719410855,"current_range_meters":5600,"station_id":"ce4bhbh2rcd13ifvqeqg","pricing_plan_id":"cebpf4jnsgd1na2vs0mg"},{"bike_id":"080f71f0-de5a-4ba9-8251-acf402665a45","system_id":"levelo_inurba_marseille","lat":43.292311,"lon":5.360731,"is_reserved":false,"is_disabled":false,"rental_uris":{"android":"levelo://app?vid=080f71f0-de5a-4ba9-8251-acf402665a45","ios":"levelo://app?vid=080f71f0-de5a-4ba9-8251-acf402665a45"},"vehicle_type_id":"4","last_reported":1719410855,"current_range_meters":1600,"station_id":"ce4bhbh2rcd13ifvqeqg","pricing_plan_id":"cebpf4jnsgd1na2vs0mg"},{"bike_id":"bd090a07-92b9-4bed-a273-b8453376b1e4","system_id":"levelo_inurba_marseille","lat":43.292311,"lon":5.360731,"is_reserved":false,"is_disabled":false,"rental_uris":{"android":"levelo://app?vid=bd090a07-92b9-4bed-a273-b8453376b1e4","ios":"levelo://app?vid=bd090a07-92b9-4bed-a273-b8453376b1e4"},"vehicle_type_id":"4","last_reported":1719410855,"current_range_meters":13200,"station_id":"ce4bhbh2rcd13ifvqeqg","pricing_plan_id":"cebpf4jnsgd1na2vs0mg"},{"bike_id":"c5b4a5bb-f148-4e53-8526-79b5cac1d1d6","system_id":"levelo_inurba_marseille","lat":43.292311,"lon":5.360731,"is_reserved":false,"is_disabled":false,"rental_uris":{"android":"levelo://app?vid=c5b4a5bb-f148-4e53-8526-79b5cac1d1d6","ios":"levelo://app?vid=c5b4a5bb-f148-4e53-8526-79b5cac1d1d6"},"vehicle_type_id":"4","last_reported":1719410855,"current_range_meters":23600,"station_id":"ce4bhbh2rcd13ifvqeqg","pricing_plan_id":"cebpf4jnsgd1na2vs0mg"},{"bike_id":"32d4f99b-386b-4dfb-a559-ef73e37d910c","system_id":"levelo_inurba_marseille","lat":43.292311,"lon":5.360731,"is_reserved":false,"is_disabled":false,"rental_uris":{"android":"levelo://app?vid=32d4f99b-386b-4dfb-a559-ef73e37d910c","ios":"levelo://app?vid=32d4f99b-386b-4dfb-a559-ef73e37d910c"},"vehicle_type_id":"4","last_reported":1719410855,"current_range_meters":17200,"station_id":"ce4bhbh2rcd13ifvqeqg","pricing_plan_id":"cebpf4jnsgd1na2vs0mg"},{"bike_id":"8bc68be2-303d-475e-b8d6-9e1e0acca21b","system_id":"levelo_inurba_marseille","lat":43.297005,"lon":5.386455,"is_reserved":false,"is_disabled":false,"rental_uris":{"android":"levelo://app?vid=8bc68be2-303d-475e-b8d6-9e1e0acca21b","ios":"levelo://app?vid=8bc68be2-303d-475e-b8d6-9e1e0acca21b"},"vehicle_type_id":"4","last_reported":1719410855,"current_range_meters":7200,"station_id":"","pricing_plan_id":"cebpf4jnsgd1na2vs0mg"},{"bike_id":"82d45d67-5ca1-4918-8895-62bae001f5b8","system_id":"levelo_inurba_marseille","lat":43.291671,"lon":5.371575,"is_reserved":false,"is_disabled":false,"rental_uris":{"android":"levelo://app?vid=82d45d67-5ca1-4918-8895-62bae001f5b8","ios":"levelo://app?vid=82d45d67-5ca1-4918-8895-62bae001f5b8"},"vehicle_type_id":"4","last_reported":1719410855,"current_range_meters":25600,"station_id":"ce4bha92rcd13ifvqeh0","pricing_plan_id":"cebpf4jnsgd1na2vs0mg"},{"bike_id":"b0842bb7-8d32-45fc-afcd-eb3de78c7fce","system_id":"levelo_inurba_marseille","lat":43.291671,"lon":5.371575,"is_reserved":false,"is_disabled":false,"rental_uris":{"android":"levelo://app?vid=b0842bb7-8d32-45fc-afcd-eb3de78c7fce","ios":"levelo://app?vid=b0842bb7-8d32-45fc-afcd-eb3de78c7fce"},"vehicle_type_id":"4","last_reported":1719410855,"current_range_meters":8000,"station_id":"ce4bha92rcd13ifvqeh0","pricing_plan_id":"cebpf4jnsgd1na2vs0mg"},{"bike_id":"b4b208ca-82f1-4931-9291-de2090a667d3","system_id":"levelo_inurba_marseille","lat":43.309038,"lon":5.396546,"is_reserved":false,"is_disabled":false,"rental_uris":{"android":"levelo://app?vid=b4b208ca-82f1-4931-9291-de2090a667d3","ios":"levelo://app?vid=b4b208ca-82f1-4931-9291-de2090a667d3"},"vehicle_type_id":"4","last_reported":1719410855,"current_range_meters":19200,"station_id":"ce4bh012rcd13ifvqcv0","pricing_plan_id":"cebpf4jnsgd1na2vs0mg"},{"bike_id":"20211d1d-4b78-4a91-9b8f-16dc13f3621f","system_id":"levelo_inurba_marseille","lat":43.309047,"lon":5.396551,"is_reserved":false,"is_disabled":false,"rental_uris":{"android":"levelo://app?vid=20211d1d-4b78-4a91-9b8f-16dc13f3621f","ios":"levelo://app?vid=20211d1d-4b78-4a91-9b8f-16dc13f3621f"},"vehicle_type_id":"4","last_reported":1719410855,"current_range_meters":26000,"station_id":"ce4bh012rcd13ifvqcv0","pricing_plan_id":"cebpf4jnsgd1na2vs0mg"},{"bike_id":"62c76621-66ab-408b-bee6-974e751dff6b","system_id":"levelo_inurba_marseille","lat":43.309047,"lon":5.396551,"is_reserved":false,"is_disabled":false,"rental_uris":{"android":"levelo://app?vid=62c76621-66ab-408b-bee6-974e751dff6b","ios":"levelo://app?vid=62c76621-66ab-408b-bee6-974e751dff6b"},"vehicle_type_id":"4","last_reported":1719410855,"current_range_meters":30000,"station_id":"ce4bh012rcd13ifvqcv0","pricing_plan_id":"cebpf4jnsgd1na2vs0mg"},{"bike_id":"f5d70648-c3ee-4d50-b300-1ab1077694df","system_id":"levelo_inurba_marseille","lat":43.3089,"lon":5.39661,"is_reserved":false,"is_disabled":false,"rental_uris":{"android":"levelo://app?vid=f5d70648-c3ee-4d50-b300-1ab1077694df","ios":"levelo://app?vid=f5d70648-c3ee-4d50-b300-1ab1077694df"},"vehicle_type_id":"4","last_reported":1719410855,"current_range_meters":10400,"station_id":"ce4bh012rcd13ifvqcv0","pricing_plan_id":"cebpf4jnsgd1na2vs0mg"},{"bike_id":"aaf9e040-e632-4070-8d5b-71771bc3ccea","system_id":"levelo_inurba_marseille","lat":43.309038,"lon":5.396546,"is_reserved":false,"is_disabled":false,"rental_uris":{"android":"levelo://app?vid=aaf9e040-e632-4070-8d5b-71771bc3ccea","ios":"levelo://app?vid=aaf9e040-e632-4070-8d5b-71771bc3ccea"},"vehicle_type_id":"4","last_reported":1719410855,"current_range_meters":15600,"station_id":"ce4bh012rcd13ifvqcv0","pricing_plan_id":"cebpf4jnsgd1na2vs0mg"},{"bike_id":"574e34db-5c00-4608-896a-a778774bfc15","system_id":"levelo_inurba_marseille","lat":43.309047,"lon":5.396551,"is_reserved":false,"is_disabled":false,"rental_uris":{"android":"levelo://app?vid=574e34db-5c00-4608-896a-a778774bfc15","ios":"levelo://app?vid=574e34db-5c00-4608-896a-a778774bfc15"},"vehicle_type_id":"4","last_reported":1719410855,"current_range_meters":800,"station_id":"ce4bh012rcd13ifvqcv0","pricing_plan_id":"cebpf4jnsgd1na2vs0mg"},{"bike_id":"35ac0c9c-703d-4c84-97c3-1d2a1c7aca68","system_id":"levelo_inurba_marseille","lat":43.29529,"lon":5.385581,"is_reserved":false,"is_disabled":false,"rental_uris":{"android":"levelo://app?vid=35ac0c9c-703d-4c84-97c3-1d2a1c7aca68","ios":"levelo://app?vid=35ac0c9c-703d-4c84-97c3-1d2a1c7aca68"},"vehicle_type_id":"4","last_reported":1719410855,"current_range_meters":6000,"station_id":"ce4bgih2rcd13ifvqba0","pricing_plan_id":"cebpf4jnsgd1na2vs0mg"},{"bike_id":"f5c0d33a-ccfe-40ee-85e0-7c5019067e25","system_id":"levelo_inurba_marseille","lat":43.290779,"lon":5.371482,"is_reserved":false,"is_disabled":false,"rental_uris":{"android":"levelo://app?vid=f5c0d33a-ccfe-40ee-85e0-7c5019067e25","ios":"levelo://app?vid=f5c0d33a-ccfe-40ee-85e0-7c5019067e25"},"vehicle_type_id":"4","last_reported":1719410855,"current_range_meters":11600,"station_id":"ce4bh5p2rcd13ifvqe4g","pricing_plan_id":"cebpf4jnsgd1na2vs0mg"},{"bike_id":"0b5c7434-fead-4dbb-8f7d-6a9225824ec3","system_id":"levelo_inurba_marseille","lat":43.290779,"lon":5.371482,"is_reserved":false,"is_disabled":false,"rental_uris":{"android":"levelo://app?vid=0b5c7434-fead-4dbb-8f7d-6a9225824ec3","ios":"levelo://app?vid=0b5c7434-fead-4dbb-8f7d-6a9225824ec3"},"vehicle_type_id":"4","last_reported":1719410855,"current_range_meters":0,"station_id":"ce4bh5p2rcd13ifvqe4g","pricing_plan_id":"cebpf4jnsgd1na2vs0mg"},{"bike_id":"0812eabc-4896-4577-b43b-ee9085e4dd33","system_id":"levelo_inurba_marseille","lat":43.290631,"lon":5.359244,"is_reserved":false,"is_disabled":false,"rental_uris":{"android":"levelo://app?vid=0812eabc-4896-4577-b43b-ee9085e4dd33","ios":"levelo://app?vid=0812eabc-4896-4577-b43b-ee9085e4dd33"},"vehicle_type_id":"4","last_reported":1719410855,"current_range_meters":11600,"station_id":"ce4bha92rcd13ifvqeg0","pricing_plan_id":"cebpf4jnsgd1na2vs0mg"},{"bike_id":"cbae31c0-b5da-40dd-8cf6-358ea691c064","system_id":"levelo_inurba_marseille","lat":43.290319,"lon":5.375732,"is_reserved":false,"is_disabled":false,"rental_uris":{"android":"levelo://app?vid=cbae31c0-b5da-40dd-8cf6-358ea691c064","ios":"levelo://app?vid=cbae31c0-b5da-40dd-8cf6-358ea691c064"},"vehicle_type_id":"4","last_reported":1719410855,"current_range_meters":19200,"station_id":"ce4bh692rcd13ifvqe90","pricing_plan_id":"cebpf4jnsgd1na2vs0mg"},{"bike_id":"4c1d3b9c-68c4-4415-9bde-965229c122c4","system_id":"levelo_inurba_marseille","lat":43.294153,"lon":5.386305,"is_reserved":false,"is_disabled":false,"rental_uris":{"android":"levelo://app?vid=4c1d3b9c-68c4-4415-9bde-965229c122c4","ios":"levelo://app?vid=4c1d3b9c-68c4-4415-9bde-965229c122c4"},"vehicle_type_id":"4","last_reported":1719410855,"current_range_meters":0,"station_id":"ce4bh2h2rcd13ifvqdh0","pricing_plan_id":"cebpf4jnsgd1na2vs0mg"},{"bike_id":"fb026ec4-3a8a-4efb-ace8-bc25178edfbe","system_id":"levelo_inurba_marseille","lat":43.290327,"lon":5.375711,"is_reserved":false,"is_disabled":false,"rental_uris":{"android":"levelo://app?vid=fb026ec4-3a8a-4efb-ace8-bc25178edfbe","ios":"levelo://app?vid=fb026ec4-3a8a-4efb-ace8-bc25178edfbe"},"vehicle_type_id":"4","last_reported":1719410855,"current_range_meters":5200,"station_id":"ce4bh692rcd13ifvqe90","pricing_plan_id":"cebpf4jnsgd1na2vs0mg"},{"bike_id":"81100fe6-3c62-4601-a904-b7521a539de8","system_id":"levelo_inurba_marseille","lat":43.29027,"lon":5.37554,"is_reserved":false,"is_disabled":false,"rental_uris":{"android":"levelo://app?vid=81100fe6-3c62-4601-a904-b7521a539de8","ios":"levelo://app?vid=81100fe6-3c62-4601-a904-b7521a539de8"},"vehicle_type_id":"4","last_reported":1719410855,"current_range_meters":0,"station_id":"ce4bh692rcd13ifvqe90","pricing_plan_id":"cebpf4jnsgd1na2vs0mg"},{"bike_id":"a99729ac-cc4b-45d2-8cec-64ae85c4acfa","system_id":"levelo_inurba_marseille","lat":43.289184,"lon":5.366408,"is_reserved":false,"is_disabled":false,"rental_uris":{"android":"levelo://app?vid=a99729ac-cc4b-45d2-8cec-64ae85c4acfa","ios":"levelo://app?vid=a99729ac-cc4b-45d2-8cec-64ae85c4acfa"},"vehicle_type_id":"4","last_reported":1719410855,"current_range_meters":23600,"station_id":"ce4bhap2rcd13ifvqek0","pricing_plan_id":"cebpf4jnsgd1na2vs0mg"},{"bike_id":"2067547f-a626-4aa1-b8a6-2d61b36b7e08","system_id":"levelo_inurba_marseille","lat":43.289184,"lon":5.366408,"is_reserved":false,"is_disabled":false,"rental_uris":{"android":"levelo://app?vid=2067547f-a626-4aa1-b8a6-2d61b36b7e08","ios":"levelo://app?vid=2067547f-a626-4aa1-b8a6-2d61b36b7e08"},"vehicle_type_id":"4","last_reported":1719410855,"current_range_meters":400,"station_id":"ce4bhap2rcd13ifvqek0","pricing_plan_id":"cebpf4jnsgd1na2vs0mg"},{"bike_id":"68d481c1-8b37-42ea-8bdd-624f15c7d0ce","system_id":"levelo_inurba_marseille","lat":43.289468,"lon":5.363719,"is_reserved":false,"is_disabled":false,"rental_uris":{"android":"levelo://app?vid=68d481c1-8b37-42ea-8bdd-624f15c7d0ce","ios":"levelo://app?vid=68d481c1-8b37-42ea-8bdd-624f15c7d0ce"},"vehicle_type_id":"4","last_reported":1719410855,"current_range_meters":16000,"station_id":"ce4bhc92rcd13ifvqetg","pricing_plan_id":"cebpf4jnsgd1na2vs0mg"},{"bike_id":"c21b2dce-31f3-4159-83ee-4013d4c1219f","system_id":"levelo_inurba_marseille","lat":43.292642,"lon":5.384254,"is_reserved":false,"is_disabled":false,"rental_uris":{"android":"levelo://app?vid=c21b2dce-31f3-4159-83ee-4013d4c1219f","ios":"levelo://app?vid=c21b2dce-31f3-4159-83ee-4013d4c1219f"},"vehicle_type_id":"4","last_reported":1719410855,"current_range_meters":12400,"station_id":"ce4bh692rcd13ifvqea0","pricing_plan_id":"cebpf4jnsgd1na2vs0mg"},{"bike_id":"a3f54a2f-d531-49dc-b443-94c5449ef984","system_id":"levelo_inurba_marseille","lat":43.292644,"lon":5.384257,"is_reserved":false,"is_disabled":false,"rental_uris":{"android":"levelo://app?vid=a3f54a2f-d531-49dc-b443-94c5449ef984","ios":"levelo://app?vid=a3f54a2f-d531-49dc-b443-94c5449ef984"},"vehicle_type_id":"4","last_reported":1719410855,"current_range_meters":0,"station_id":"ce4bh692rcd13ifvqea0","pricing_plan_id":"cebpf4jnsgd1na2vs0mg"},{"bike_id":"09cb2e08-f54d-430a-b99f-6640bc581ad0","system_id":"levelo_inurba_marseille","lat":43.304296,"lon":5.397513,"is_reserved":false,"is_disabled":false,"rental_uris":{"android":"levelo://app?vid=09cb2e08-f54d-430a-b99f-6640bc581ad0","ios":"levelo://app?vid=09cb2e08-f54d-430a-b99f-6640bc581ad0"},"vehicle_type_id":"4","last_reported":1719410855,"current_range_meters":30800,"station_id":"ce4bh092rcd13ifvqd20","pricing_plan_id":"cebpf4jnsgd1na2vs0mg"},{"bike_id":"e31342e6-8223-40e5-83c3-48dfc1b2de65","system_id":"levelo_inurba_marseille","lat":43.29264,"lon":5.38458,"is_reserved":false,"is_disabled":false,"rental_uris":{"android":"levelo://app?vid=e31342e6-8223-40e5-83c3-48dfc1b2de65","ios":"levelo://app?vid=e31342e6-8223-40e5-83c3-48dfc1b2de65"},"vehicle_type_id":"4","last_reported":1719410855,"current_range_meters":0,"station_id":"ce4bh692rcd13ifvqea0","pricing_plan_id":"cebpf4jnsgd1na2vs0mg"},{"bike_id":"faa78dbe-afbc-424b-b643-580f65b23dc4","system_id":"levelo_inurba_marseille","lat":43.304274,"lon":5.397513,"is_reserved":false,"is_disabled":false,"rental_uris":{"android":"levelo://app?vid=faa78dbe-afbc-424b-b643-580f65b23dc4","ios":"levelo://app?vid=faa78dbe-afbc-424b-b643-580f65b23dc4"},"vehicle_type_id":"4","last_reported":1719410855,"current_range_meters":21600,"station_id":"ce4bh092rcd13ifvqd20","pricing_plan_id":"cebpf4jnsgd1na2vs0mg"},{"bike_id":"fd2e8a13-5d39-4a34-94dc-1fa67f89d7ac","system_id":"levelo_inurba_marseille","lat":43.289743,"lon":5.378304,"is_reserved":false,"is_disabled":false,"rental_uris":{"android":"levelo://app?vid=fd2e8a13-5d39-4a34-94dc-1fa67f89d7ac","ios":"levelo://app?vid=fd2e8a13-5d39-4a34-94dc-1fa67f89d7ac"},"vehicle_type_id":"4","last_reported":1719410855,"current_range_meters":13200,"station_id":"ce4bh9p2rcd13ifvqed0","pricing_plan_id":"cebpf4jnsgd1na2vs0mg"},{"bike_id":"726311c7-3c39-4b1a-8b40-73395bfbf4c3","system_id":"levelo_inurba_marseille","lat":43.297815,"lon":5.393548,"is_reserved":false,"is_disabled":false,"rental_uris":{"android":"levelo://app?vid=726311c7-3c39-4b1a-8b40-73395bfbf4c3","ios":"levelo://app?vid=726311c7-3c39-4b1a-8b40-73395bfbf4c3"},"vehicle_type_id":"4","last_reported":1719410855,"current_range_meters":12800,"station_id":"chh1huq6cuj3fo74tm60","pricing_plan_id":"cebpf4jnsgd1na2vs0mg"},{"bike_id":"06067b65-6558-41df-a861-e88e3ce5e751","system_id":"levelo_inurba_marseille","lat":43.330245,"lon":5.39037,"is_reserved":false,"is_disabled":false,"rental_uris":{"android":"levelo://app?vid=06067b65-6558-41df-a861-e88e3ce5e751","ios":"levelo://app?vid=06067b65-6558-41df-a861-e88e3ce5e751"},"vehicle_type_id":"4","last_reported":1719410855,"current_range_meters":30400,"station_id":"ce4bhr92rcd13ifvqhrg","pricing_plan_id":"cebpf4jnsgd1na2vs0mg"},{"bike_id":"69d08519-9477-4d71-927d-e0954bd9c669","system_id":"levelo_inurba_marseille","lat":43.330442,"lon":5.389148,"is_reserved":false,"is_disabled":false,"rental_uris":{"android":"levelo://app?vid=69d08519-9477-4d71-927d-e0954bd9c669","ios":"levelo://app?vid=69d08519-9477-4d71-927d-e0954bd9c669"},"vehicle_type_id":"4","last_reported":1719410855,"current_range_meters":13600,"station_id":"ce4bhr92rcd13ifvqhrg","pricing_plan_id":"cebpf4jnsgd1na2vs0mg"},{"bike_id":"77960cb1-00d7-4217-870e-d07de5e52fbc","system_id":"levelo_inurba_marseille","lat":43.330442,"lon":5.389148,"is_reserved":false,"is_disabled":false,"rental_uris":{"android":"levelo://app?vid=77960cb1-00d7-4217-870e-d07de5e52fbc","ios":"levelo://app?vid=77960cb1-00d7-4217-870e-d07de5e52fbc"},"vehicle_type_id":"4","last_reported":1719410855,"current_range_meters":22800,"station_id":"ce4bhr92rcd13ifvqhrg","pricing_plan_id":"cebpf4jnsgd1na2vs0mg"},{"bike_id":"91a547bb-9759-44e6-8775-2ac69d601a5a","system_id":"levelo_inurba_marseille","lat":43.330442,"lon":5.389148,"is_reserved":false,"is_disabled":false,"rental_uris":{"android":"levelo://app?vid=91a547bb-9759-44e6-8775-2ac69d601a5a","ios":"levelo://app?vid=91a547bb-9759-44e6-8775-2ac69d601a5a"},"vehicle_type_id":"4","last_reported":1719410855,"current_range_meters":29200,"station_id":"ce4bhr92rcd13ifvqhrg","pricing_plan_id":"cebpf4jnsgd1na2vs0mg"},{"bike_id":"70069d47-338d-4db9-9432-8de35d69c45a","system_id":"levelo_inurba_marseille","lat":43.31123,"lon":5.40104,"is_reserved":false,"is_disabled":false,"rental_uris":{"android":"levelo://app?vid=70069d47-338d-4db9-9432-8de35d69c45a","ios":"levelo://app?vid=70069d47-338d-4db9-9432-8de35d69c45a"},"vehicle_type_id":"4","last_reported":1719410855,"current_range_meters":8000,"station_id":"","pricing_plan_id":"cebpf4jnsgd1na2vs0mg"},{"bike_id":"e6524452-db32-447e-bd38-301572362076","system_id":"levelo_inurba_marseille","lat":43.28856,"lon":5.358371,"is_reserved":false,"is_disabled":false,"rental_uris":{"android":"levelo://app?vid=e6524452-db32-447e-bd38-301572362076","ios":"levelo://app?vid=e6524452-db32-447e-bd38-301572362076"},"vehicle_type_id":"4","last_reported":1719410855,"current_range_meters":10400,"station_id":"ce4bhb12rcd13ifvqem0","pricing_plan_id":"cebpf4jnsgd1na2vs0mg"},{"bike_id":"c3ddbe4a-157d-4893-acf1-f1f626a65d21","system_id":"levelo_inurba_marseille","lat":43.33715,"lon":5.37426,"is_reserved":false,"is_disabled":false,"rental_uris":{"android":"levelo://app?vid=c3ddbe4a-157d-4893-acf1-f1f626a65d21","ios":"levelo://app?vid=c3ddbe4a-157d-4893-acf1-f1f626a65d21"},"vehicle_type_id":"0","last_reported":1719410855,"current_range_meters":19200,"station_id":"","pricing_plan_id":"cebpf4jnsgd1na2vs0mg"},{"bike_id":"bb65fb70-df82-47d8-b27f-438620895501","system_id":"levelo_inurba_marseille","lat":43.33736,"lon":5.374573,"is_reserved":false,"is_disabled":false,"rental_uris":{"android":"levelo://app?vid=bb65fb70-df82-47d8-b27f-438620895501","ios":"levelo://app?vid=bb65fb70-df82-47d8-b27f-438620895501"},"vehicle_type_id":"4","last_reported":1719410855,"current_range_meters":12400,"station_id":"","pricing_plan_id":"cebpf4jnsgd1na2vs0mg"},{"bike_id":"11da98ef-d0c3-43c2-a7e4-890f2c23ccbc","system_id":"levelo_inurba_marseille","lat":43.33739,"lon":5.374623,"is_reserved":false,"is_disabled":false,"rental_uris":{"android":"levelo://app?vid=11da98ef-d0c3-43c2-a7e4-890f2c23ccbc","ios":"levelo://app?vid=11da98ef-d0c3-43c2-a7e4-890f2c23ccbc"},"vehicle_type_id":"4","last_reported":1719410855,"current_range_meters":12800,"station_id":"","pricing_plan_id":"cebpf4jnsgd1na2vs0mg"},{"bike_id":"bd9a6c26-2db3-4e30-92c7-c85ae97147aa","system_id":"levelo_inurba_marseille","lat":43.3374,"lon":5.3746,"is_reserved":false,"is_disabled":false,"rental_uris":{"android":"levelo://app?vid=bd9a6c26-2db3-4e30-92c7-c85ae97147aa","ios":"levelo://app?vid=bd9a6c26-2db3-4e30-92c7-c85ae97147aa"},"vehicle_type_id":"0","last_reported":1719410855,"current_range_meters":21600,"station_id":"","pricing_plan_id":"cebpf4jnsgd1na2vs0mg"},{"bike_id":"9b81675f-44cd-4cbe-9733-2d36a516d8f7","system_id":"levelo_inurba_marseille","lat":43.3374,"lon":5.3746,"is_reserved":false,"is_disabled":false,"rental_uris":{"android":"levelo://app?vid=9b81675f-44cd-4cbe-9733-2d36a516d8f7","ios":"levelo://app?vid=9b81675f-44cd-4cbe-9733-2d36a516d8f7"},"vehicle_type_id":"0","last_reported":1719410855,"current_range_meters":20400,"station_id":"","pricing_plan_id":"cebpf4jnsgd1na2vs0mg"},{"bike_id":"c25a3696-e1cc-43ba-8656-23d4a118ee2e","system_id":"levelo_inurba_marseille","lat":43.337388,"lon":5.374716,"is_reserved":false,"is_disabled":false,"rental_uris":{"android":"levelo://app?vid=c25a3696-e1cc-43ba-8656-23d4a118ee2e","ios":"levelo://app?vid=c25a3696-e1cc-43ba-8656-23d4a118ee2e"},"vehicle_type_id":"4","last_reported":1719410855,"current_range_meters":18800,"station_id":"","pricing_plan_id":"cebpf4jnsgd1na2vs0mg"},{"bike_id":"cdba7398-38d4-46c1-ab97-e50387a0dd94","system_id":"levelo_inurba_marseille","lat":43.312609,"lon":5.401662,"is_reserved":false,"is_disabled":false,"rental_uris":{"android":"levelo://app?vid=cdba7398-38d4-46c1-ab97-e50387a0dd94","ios":"levelo://app?vid=cdba7398-38d4-46c1-ab97-e50387a0dd94"},"vehicle_type_id":"4","last_reported":1719410855,"current_range_meters":5200,"station_id":"ce4bh092rcd13ifvqd30","pricing_plan_id":"cebpf4jnsgd1na2vs0mg"},{"bike_id":"2a0fb516-a307-4861-b129-104556c40f00","system_id":"levelo_inurba_marseille","lat":43.337407,"lon":5.3747,"is_reserved":false,"is_disabled":false,"rental_uris":{"android":"levelo://app?vid=2a0fb516-a307-4861-b129-104556c40f00","ios":"levelo://app?vid=2a0fb516-a307-4861-b129-104556c40f00"},"vehicle_type_id":"0","last_reported":1719410855,"current_range_meters":10400,"station_id":"","pricing_plan_id":"cebpf4jnsgd1na2vs0mg"},{"bike_id":"70df0eff-7892-4d64-8b33-f9b25d3cdb77","system_id":"levelo_inurba_marseille","lat":43.337423,"lon":5.374693,"is_reserved":false,"is_disabled":false,"rental_uris":{"android":"levelo://app?vid=70df0eff-7892-4d64-8b33-f9b25d3cdb77","ios":"levelo://app?vid=70df0eff-7892-4d64-8b33-f9b25d3cdb77"},"vehicle_type_id":"4","last_reported":1719410855,"current_range_meters":18800,"station_id":"","pricing_plan_id":"cebpf4jnsgd1na2vs0mg"},{"bike_id":"cbff8e2e-87ad-4d9e-a09d-9b1fba1c0aeb","system_id":"levelo_inurba_marseille","lat":43.337424,"lon":5.374709,"is_reserved":false,"is_disabled":false,"rental_uris":{"android":"levelo://app?vid=cbff8e2e-87ad-4d9e-a09d-9b1fba1c0aeb","ios":"levelo://app?vid=cbff8e2e-87ad-4d9e-a09d-9b1fba1c0aeb"},"vehicle_type_id":"0","last_reported":1719410855,"current_range_meters":18400,"station_id":"","pricing_plan_id":"cebpf4jnsgd1na2vs0mg"},{"bike_id":"985eda3a-8205-4c72-8b0d-a44593dd15b5","system_id":"levelo_inurba_marseille","lat":43.337437,"lon":5.37465,"is_reserved":false,"is_disabled":false,"rental_uris":{"android":"levelo://app?vid=985eda3a-8205-4c72-8b0d-a44593dd15b5","ios":"levelo://app?vid=985eda3a-8205-4c72-8b0d-a44593dd15b5"},"vehicle_type_id":"0","last_reported":1719410855,"current_range_meters":11600,"station_id":"","pricing_plan_id":"cebpf4jnsgd1na2vs0mg"},{"bike_id":"aa527c2c-31a5-479b-bfbe-daae0d9bb514","system_id":"levelo_inurba_marseille","lat":43.337447,"lon":5.374633,"is_reserved":false,"is_disabled":false,"rental_uris":{"android":"levelo://app?vid=aa527c2c-31a5-479b-bfbe-daae0d9bb514","ios":"levelo://app?vid=aa527c2c-31a5-479b-bfbe-daae0d9bb514"},"vehicle_type_id":"0","last_reported":1719410855,"current_range_meters":8000,"station_id":"","pricing_plan_id":"cebpf4jnsgd1na2vs0mg"},{"bike_id":"8043cc8a-f702-4e45-9523-d56dfd7ee432","system_id":"levelo_inurba_marseille","lat":43.33746,"lon":5.37471,"is_reserved":false,"is_disabled":false,"rental_uris":{"android":"levelo://app?vid=8043cc8a-f702-4e45-9523-d56dfd7ee432","ios":"levelo://app?vid=8043cc8a-f702-4e45-9523-d56dfd7ee432"},"vehicle_type_id":"0","last_reported":1719410855,"current_range_meters":17600,"station_id":"","pricing_plan_id":"cebpf4jnsgd1na2vs0mg"},{"bike_id":"bf709b1a-1e81-4c69-a36a-dfef45d67fee","system_id":"levelo_inurba_marseille","lat":43.33748,"lon":5.37474,"is_reserved":false,"is_disabled":false,"rental_uris":{"android":"levelo://app?vid=bf709b1a-1e81-4c69-a36a-dfef45d67fee","ios":"levelo://app?vid=bf709b1a-1e81-4c69-a36a-dfef45d67fee"},"vehicle_type_id":"4","last_reported":1719410855,"current_range_meters":18800,"station_id":"","pricing_plan_id":"cebpf4jnsgd1na2vs0mg"},{"bike_id":"19c239d3-5a4b-4aff-8085-66266dba085d","system_id":"levelo_inurba_marseille","lat":43.33758,"lon":5.37428,"is_reserved":false,"is_disabled":false,"rental_uris":{"android":"levelo://app?vid=19c239d3-5a4b-4aff-8085-66266dba085d","ios":"levelo://app?vid=19c239d3-5a4b-4aff-8085-66266dba085d"},"vehicle_type_id":"4","last_reported":1719410855,"current_range_meters":22800,"station_id":"","pricing_plan_id":"cebpf4jnsgd1na2vs0mg"},{"bike_id":"9c212851-943a-4b41-a824-e19458f60cad","system_id":"levelo_inurba_marseille","lat":43.33777,"lon":5.37438,"is_reserved":false,"is_disabled":false,"rental_uris":{"android":"levelo://app?vid=9c212851-943a-4b41-a824-e19458f60cad","ios":"levelo://app?vid=9c212851-943a-4b41-a824-e19458f60cad"},"vehicle_type_id":"4","last_reported":1719410855,"current_range_meters":20000,"station_id":"","pricing_plan_id":"cebpf4jnsgd1na2vs0mg"},{"bike_id":"c1fe3a54-2d9d-4689-bc06-b2ceb4d68097","system_id":"levelo_inurba_marseille","lat":43.301117,"lon":5.398795,"is_reserved":false,"is_disabled":false,"rental_uris":{"android":"levelo://app?vid=c1fe3a54-2d9d-4689-bc06-b2ceb4d68097","ios":"levelo://app?vid=c1fe3a54-2d9d-4689-bc06-b2ceb4d68097"},"vehicle_type_id":"4","last_reported":1719410855,"current_range_meters":400,"station_id":"ce4bh0h2rcd13ifvqd40","pricing_plan_id":"cebpf4jnsgd1na2vs0mg"},{"bike_id":"a4c7063e-e46c-41c0-9777-647811774978","system_id":"levelo_inurba_marseille","lat":43.286961,"lon":5.373785,"is_reserved":false,"is_disabled":false,"rental_uris":{"android":"levelo://app?vid=a4c7063e-e46c-41c0-9777-647811774978","ios":"levelo://app?vid=a4c7063e-e46c-41c0-9777-647811774978"},"vehicle_type_id":"4","last_reported":1719410855,"current_range_meters":2000,"station_id":"ce4bh3p2rcd13ifvqdq0","pricing_plan_id":"cebpf4jnsgd1na2vs0mg"},{"bike_id":"acb0ff16-fa0a-4776-a8c0-378de7959288","system_id":"levelo_inurba_marseille","lat":43.286961,"lon":5.373785,"is_reserved":false,"is_disabled":false,"rental_uris":{"android":"levelo://app?vid=acb0ff16-fa0a-4776-a8c0-378de7959288","ios":"levelo://app?vid=acb0ff16-fa0a-4776-a8c0-378de7959288"},"vehicle_type_id":"4","last_reported":1719410855,"current_range_meters":27600,"station_id":"ce4bh3p2rcd13ifvqdq0","pricing_plan_id":"cebpf4jnsgd1na2vs0mg"},{"bike_id":"12a61d3f-b08a-42a7-9553-c4c21eb0dd1f","system_id":"levelo_inurba_marseille","lat":43.286961,"lon":5.373785,"is_reserved":false,"is_disabled":false,"rental_uris":{"android":"levelo://app?vid=12a61d3f-b08a-42a7-9553-c4c21eb0dd1f","ios":"levelo://app?vid=12a61d3f-b08a-42a7-9553-c4c21eb0dd1f"},"vehicle_type_id":"4","last_reported":1719410855,"current_range_meters":5200,"station_id":"ce4bh3p2rcd13ifvqdq0","pricing_plan_id":"cebpf4jnsgd1na2vs0mg"},{"bike_id":"ddaf4901-61f8-4627-8273-71e88eea8df7","system_id":"levelo_inurba_marseille","lat":43.28696,"lon":5.37391,"is_reserved":false,"is_disabled":false,"rental_uris":{"android":"levelo://app?vid=ddaf4901-61f8-4627-8273-71e88eea8df7","ios":"levelo://app?vid=ddaf4901-61f8-4627-8273-71e88eea8df7"},"vehicle_type_id":"4","last_reported":1719410855,"current_range_meters":0,"station_id":"ce4bh3p2rcd13ifvqdq0","pricing_plan_id":"cebpf4jnsgd1na2vs0mg"},{"bike_id":"2767cded-0948-4dad-85bc-3b6a9d253bdb","system_id":"levelo_inurba_marseille","lat":43.295194,"lon":5.39397,"is_reserved":false,"is_disabled":false,"rental_uris":{"android":"levelo://app?vid=2767cded-0948-4dad-85bc-3b6a9d253bdb","ios":"levelo://app?vid=2767cded-0948-4dad-85bc-3b6a9d253bdb"},"vehicle_type_id":"4","last_reported":1719410855,"current_range_meters":22800,"station_id":"ce4bh292rcd13ifvqdf0","pricing_plan_id":"cebpf4jnsgd1na2vs0mg"},{"bike_id":"a30128ab-ef1d-4c9d-a593-26af5a99184b","system_id":"levelo_inurba_marseille","lat":43.29514,"lon":5.39402,"is_reserved":false,"is_disabled":false,"rental_uris":{"android":"levelo://app?vid=a30128ab-ef1d-4c9d-a593-26af5a99184b","ios":"levelo://app?vid=a30128ab-ef1d-4c9d-a593-26af5a99184b"},"vehicle_type_id":"4","last_reported":1719410855,"current_range_meters":0,"station_id":"ce4bh292rcd13ifvqdf0","pricing_plan_id":"cebpf4jnsgd1na2vs0mg"},{"bike_id":"062604bf-52b1-409d-9698-b67cfe2969e7","system_id":"levelo_inurba_marseille","lat":43.302759,"lon":5.400793,"is_reserved":false,"is_disabled":false,"rental_uris":{"android":"levelo://app?vid=062604bf-52b1-409d-9698-b67cfe2969e7","ios":"levelo://app?vid=062604bf-52b1-409d-9698-b67cfe2969e7"},"vehicle_type_id":"4","last_reported":1719410855,"current_range_meters":400,"station_id":"ce4bgvh2rcd13ifvqcs0","pricing_plan_id":"cebpf4jnsgd1na2vs0mg"},{"bike_id":"6cd98870-feee-492c-8272-cfe3fca5585a","system_id":"levelo_inurba_marseille","lat":43.286039,"lon":5.370679,"is_reserved":false,"is_disabled":false,"rental_uris":{"android":"levelo://app?vid=6cd98870-feee-492c-8272-cfe3fca5585a","ios":"levelo://app?vid=6cd98870-feee-492c-8272-cfe3fca5585a"},"vehicle_type_id":"4","last_reported":1719410855,"current_range_meters":31600,"station_id":"ce4bht12rcd13ifvqi60","pricing_plan_id":"cebpf4jnsgd1na2vs0mg"},{"bike_id":"593b791c-b8a4-41f9-afff-cbb3b085e0b9","system_id":"levelo_inurba_marseille","lat":43.286039,"lon":5.370679,"is_reserved":false,"is_disabled":false,"rental_uris":{"android":"levelo://app?vid=593b791c-b8a4-41f9-afff-cbb3b085e0b9","ios":"levelo://app?vid=593b791c-b8a4-41f9-afff-cbb3b085e0b9"},"vehicle_type_id":"4","last_reported":1719410855,"current_range_meters":0,"station_id":"ce4bht12rcd13ifvqi60","pricing_plan_id":"cebpf4jnsgd1na2vs0mg"},{"bike_id":"61f128bc-537f-4d31-89c5-563d6dcc3fa3","system_id":"levelo_inurba_marseille","lat":43.286039,"lon":5.370679,"is_reserved":false,"is_disabled":false,"rental_uris":{"android":"levelo://app?vid=61f128bc-537f-4d31-89c5-563d6dcc3fa3","ios":"levelo://app?vid=61f128bc-537f-4d31-89c5-563d6dcc3fa3"},"vehicle_type_id":"4","last_reported":1719410855,"current_range_meters":28800,"station_id":"ce4bht12rcd13ifvqi60","pricing_plan_id":"cebpf4jnsgd1na2vs0mg"},{"bike_id":"ee29dc34-fc6d-43cd-a7bf-ef42884d9b1b","system_id":"levelo_inurba_marseille","lat":43.316828,"lon":5.404723,"is_reserved":false,"is_disabled":false,"rental_uris":{"android":"levelo://app?vid=ee29dc34-fc6d-43cd-a7bf-ef42884d9b1b","ios":"levelo://app?vid=ee29dc34-fc6d-43cd-a7bf-ef42884d9b1b"},"vehicle_type_id":"4","last_reported":1719410855,"current_range_meters":24000,"station_id":"ce4bh012rcd13ifvqd00","pricing_plan_id":"cebpf4jnsgd1na2vs0mg"},{"bike_id":"fadcaf03-a13f-45ab-af5b-5718fbe5aad9","system_id":"levelo_inurba_marseille","lat":43.316828,"lon":5.404723,"is_reserved":false,"is_disabled":false,"rental_uris":{"android":"levelo://app?vid=fadcaf03-a13f-45ab-af5b-5718fbe5aad9","ios":"levelo://app?vid=fadcaf03-a13f-45ab-af5b-5718fbe5aad9"},"vehicle_type_id":"4","last_reported":1719410855,"current_range_meters":14000,"station_id":"ce4bh012rcd13ifvqd00","pricing_plan_id":"cebpf4jnsgd1na2vs0mg"},{"bike_id":"5d359051-db24-4113-ae26-eba6e99d0fe9","system_id":"levelo_inurba_marseille","lat":43.316828,"lon":5.404723,"is_reserved":false,"is_disabled":false,"rental_uris":{"android":"levelo://app?vid=5d359051-db24-4113-ae26-eba6e99d0fe9","ios":"levelo://app?vid=5d359051-db24-4113-ae26-eba6e99d0fe9"},"vehicle_type_id":"4","last_reported":1719410855,"current_range_meters":18000,"station_id":"ce4bh012rcd13ifvqd00","pricing_plan_id":"cebpf4jnsgd1na2vs0mg"},{"bike_id":"aa78e2e2-3232-4b63-a510-0252c9e5ec8f","system_id":"levelo_inurba_marseille","lat":43.31691,"lon":5.40477,"is_reserved":false,"is_disabled":false,"rental_uris":{"android":"levelo://app?vid=aa78e2e2-3232-4b63-a510-0252c9e5ec8f","ios":"levelo://app?vid=aa78e2e2-3232-4b63-a510-0252c9e5ec8f"},"vehicle_type_id":"4","last_reported":1719410855,"current_range_meters":0,"station_id":"ce4bh012rcd13ifvqd00","pricing_plan_id":"cebpf4jnsgd1na2vs0mg"},{"bike_id":"dd7e344e-1860-4467-8635-77133bf35488","system_id":"levelo_inurba_marseille","lat":43.2845,"lon":5.37168,"is_reserved":false,"is_disabled":false,"rental_uris":{"android":"levelo://app?vid=dd7e344e-1860-4467-8635-77133bf35488","ios":"levelo://app?vid=dd7e344e-1860-4467-8635-77133bf35488"},"vehicle_type_id":"4","last_reported":1719410855,"current_range_meters":23600,"station_id":"","pricing_plan_id":"cebpf4jnsgd1na2vs0mg"},{"bike_id":"cd173f84-8122-47cc-a34e-03039e00b250","system_id":"levelo_inurba_marseille","lat":43.284538,"lon":5.358657,"is_reserved":false,"is_disabled":false,"rental_uris":{"android":"levelo://app?vid=cd173f84-8122-47cc-a34e-03039e00b250","ios":"levelo://app?vid=cd173f84-8122-47cc-a34e-03039e00b250"},"vehicle_type_id":"4","last_reported":1719410855,"current_range_meters":22400,"station_id":"ce4bhah2rcd13ifvqei0","pricing_plan_id":"cebpf4jnsgd1na2vs0mg"},{"bike_id":"5fa82a04-bda9-440a-8bb8-e1ea7ea4829c","system_id":"levelo_inurba_marseille","lat":43.284534,"lon":5.358662,"is_reserved":false,"is_disabled":false,"rental_uris":{"android":"levelo://app?vid=5fa82a04-bda9-440a-8bb8-e1ea7ea4829c","ios":"levelo://app?vid=5fa82a04-bda9-440a-8bb8-e1ea7ea4829c"},"vehicle_type_id":"4","last_reported":1719410855,"current_range_meters":2800,"station_id":"ce4bhah2rcd13ifvqei0","pricing_plan_id":"cebpf4jnsgd1na2vs0mg"},{"bike_id":"9b555f41-dd62-423a-9700-68d33ed87437","system_id":"levelo_inurba_marseille","lat":43.28623,"lon":5.35102,"is_reserved":false,"is_disabled":false,"rental_uris":{"android":"levelo://app?vid=9b555f41-dd62-423a-9700-68d33ed87437","ios":"levelo://app?vid=9b555f41-dd62-423a-9700-68d33ed87437"},"vehicle_type_id":"4","last_reported":1719410855,"current_range_meters":23600,"station_id":"ce4bhch2rcd13ifvqeug","pricing_plan_id":"cebpf4jnsgd1na2vs0mg"},{"bike_id":"1c37b8f4-a9c1-4d54-a64b-5a72b2876817","system_id":"levelo_inurba_marseille","lat":43.286193,"lon":5.351025,"is_reserved":false,"is_disabled":false,"rental_uris":{"android":"levelo://app?vid=1c37b8f4-a9c1-4d54-a64b-5a72b2876817","ios":"levelo://app?vid=1c37b8f4-a9c1-4d54-a64b-5a72b2876817"},"vehicle_type_id":"4","last_reported":1719410855,"current_range_meters":26400,"station_id":"ce4bhch2rcd13ifvqeug","pricing_plan_id":"cebpf4jnsgd1na2vs0mg"},{"bike_id":"5a7717f1-030e-482f-a25a-6fe624ae48f9","system_id":"levelo_inurba_marseille","lat":43.28617,"lon":5.351053,"is_reserved":false,"is_disabled":false,"rental_uris":{"android":"levelo://app?vid=5a7717f1-030e-482f-a25a-6fe624ae48f9","ios":"levelo://app?vid=5a7717f1-030e-482f-a25a-6fe624ae48f9"},"vehicle_type_id":"4","last_reported":1719410855,"current_range_meters":31200,"station_id":"ce4bhch2rcd13ifvqeug","pricing_plan_id":"cebpf4jnsgd1na2vs0mg"},{"bike_id":"29c4ac14-42ad-4236-9d37-cd561f6aab3c","system_id":"levelo_inurba_marseille","lat":43.28616,"lon":5.35106,"is_reserved":false,"is_disabled":false,"rental_uris":{"android":"levelo://app?vid=29c4ac14-42ad-4236-9d37-cd561f6aab3c","ios":"levelo://app?vid=29c4ac14-42ad-4236-9d37-cd561f6aab3c"},"vehicle_type_id":"4","last_reported":1719410855,"current_range_meters":12000,"station_id":"ce4bhch2rcd13ifvqeug","pricing_plan_id":"cebpf4jnsgd1na2vs0mg"},{"bike_id":"7b8338a5-6df6-4a08-82c8-cdc7b463e006","system_id":"levelo_inurba_marseille","lat":43.28613,"lon":5.35103,"is_reserved":false,"is_disabled":false,"rental_uris":{"android":"levelo://app?vid=7b8338a5-6df6-4a08-82c8-cdc7b463e006","ios":"levelo://app?vid=7b8338a5-6df6-4a08-82c8-cdc7b463e006"},"vehicle_type_id":"4","last_reported":1719410855,"current_range_meters":30000,"station_id":"ce4bhch2rcd13ifvqeug","pricing_plan_id":"cebpf4jnsgd1na2vs0mg"},{"bike_id":"a7c76dda-eb68-4fd5-a311-67f02109d140","system_id":"levelo_inurba_marseille","lat":43.28613,"lon":5.351,"is_reserved":false,"is_disabled":false,"rental_uris":{"android":"levelo://app?vid=a7c76dda-eb68-4fd5-a311-67f02109d140","ios":"levelo://app?vid=a7c76dda-eb68-4fd5-a311-67f02109d140"},"vehicle_type_id":"4","last_reported":1719410855,"current_range_meters":0,"station_id":"ce4bhgh2rcd13ifvqfb0","pricing_plan_id":"cebpf4jnsgd1na2vs0mg"},{"bike_id":"4a85c7bb-f7ea-414f-bf0d-107a9816be0f","system_id":"levelo_inurba_marseille","lat":43.283998,"lon":5.375062,"is_reserved":false,"is_disabled":false,"rental_uris":{"android":"levelo://app?vid=4a85c7bb-f7ea-414f-bf0d-107a9816be0f","ios":"levelo://app?vid=4a85c7bb-f7ea-414f-bf0d-107a9816be0f"},"vehicle_type_id":"4","last_reported":1719410855,"current_range_meters":16000,"station_id":"ce4bh412rcd13ifvqds0","pricing_plan_id":"cebpf4jnsgd1na2vs0mg"},{"bike_id":"1eb0fea8-5860-4e69-ba11-725be530465b","system_id":"levelo_inurba_marseille","lat":43.283998,"lon":5.375062,"is_reserved":false,"is_disabled":false,"rental_uris":{"android":"levelo://app?vid=1eb0fea8-5860-4e69-ba11-725be530465b","ios":"levelo://app?vid=1eb0fea8-5860-4e69-ba11-725be530465b"},"vehicle_type_id":"4","last_reported":1719410855,"current_range_meters":10400,"station_id":"ce4bh412rcd13ifvqds0","pricing_plan_id":"cebpf4jnsgd1na2vs0mg"},{"bike_id":"c56425b5-d81d-4d0a-9ade-d5e9599e3e94","system_id":"levelo_inurba_marseille","lat":43.28401,"lon":5.37501,"is_reserved":false,"is_disabled":false,"rental_uris":{"android":"levelo://app?vid=c56425b5-d81d-4d0a-9ade-d5e9599e3e94","ios":"levelo://app?vid=c56425b5-d81d-4d0a-9ade-d5e9599e3e94"},"vehicle_type_id":"4","last_reported":1719410855,"current_range_meters":19200,"station_id":"ce4bh412rcd13ifvqds0","pricing_plan_id":"cebpf4jnsgd1na2vs0mg"},{"bike_id":"4f0bad62-555d-4263-ae87-5f4c70e399b8","system_id":"levelo_inurba_marseille","lat":43.286595,"lon":5.386795,"is_reserved":false,"is_disabled":false,"rental_uris":{"android":"levelo://app?vid=4f0bad62-555d-4263-ae87-5f4c70e399b8","ios":"levelo://app?vid=4f0bad62-555d-4263-ae87-5f4c70e399b8"},"vehicle_type_id":"4","last_reported":1719410855,"current_range_meters":5200,"station_id":"ce4bh492rcd13ifvqdug","pricing_plan_id":"cebpf4jnsgd1na2vs0mg"},{"bike_id":"a05365c2-b8ad-4227-8d47-ee05f28c370b","system_id":"levelo_inurba_marseille","lat":43.319179,"lon":5.407725,"is_reserved":false,"is_disabled":false,"rental_uris":{"android":"levelo://app?vid=a05365c2-b8ad-4227-8d47-ee05f28c370b","ios":"levelo://app?vid=a05365c2-b8ad-4227-8d47-ee05f28c370b"},"vehicle_type_id":"4","last_reported":1719410855,"current_range_meters":31200,"station_id":"ce4bhq12rcd13ifvqhig","pricing_plan_id":"cebpf4jnsgd1na2vs0mg"},{"bike_id":"ff5796c7-b213-47a6-947b-2049e57c89f5","system_id":"levelo_inurba_marseille","lat":43.319179,"lon":5.407725,"is_reserved":false,"is_disabled":false,"rental_uris":{"android":"levelo://app?vid=ff5796c7-b213-47a6-947b-2049e57c89f5","ios":"levelo://app?vid=ff5796c7-b213-47a6-947b-2049e57c89f5"},"vehicle_type_id":"4","last_reported":1719410855,"current_range_meters":22400,"station_id":"ce4bhq12rcd13ifvqhig","pricing_plan_id":"cebpf4jnsgd1na2vs0mg"},{"bike_id":"e39137e7-ac4b-40d2-876d-3dcdc7707937","system_id":"levelo_inurba_marseille","lat":43.337168,"lon":5.391825,"is_reserved":false,"is_disabled":false,"rental_uris":{"android":"levelo://app?vid=e39137e7-ac4b-40d2-876d-3dcdc7707937","ios":"levelo://app?vid=e39137e7-ac4b-40d2-876d-3dcdc7707937"},"vehicle_type_id":"4","last_reported":1719410855,"current_range_meters":31200,"station_id":"ce4bhr92rcd13ifvqhsg","pricing_plan_id":"cebpf4jnsgd1na2vs0mg"},{"bike_id":"311c3a7d-ed26-4e20-b696-f702ef51dba3","system_id":"levelo_inurba_marseille","lat":43.32344,"lon":5.40614,"is_reserved":false,"is_disabled":false,"rental_uris":{"android":"levelo://app?vid=311c3a7d-ed26-4e20-b696-f702ef51dba3","ios":"levelo://app?vid=311c3a7d-ed26-4e20-b696-f702ef51dba3"},"vehicle_type_id":"4","last_reported":1719410855,"current_range_meters":2400,"station_id":"ce4bhq92rcd13ifvqhjg","pricing_plan_id":"cebpf4jnsgd1na2vs0mg"},{"bike_id":"844cce4e-ec17-4fc7-bc1e-ed33c5d2dc49","system_id":"levelo_inurba_marseille","lat":43.323464,"lon":5.406297,"is_reserved":false,"is_disabled":false,"rental_uris":{"android":"levelo://app?vid=844cce4e-ec17-4fc7-bc1e-ed33c5d2dc49","ios":"levelo://app?vid=844cce4e-ec17-4fc7-bc1e-ed33c5d2dc49"},"vehicle_type_id":"4","last_reported":1719410855,"current_range_meters":2800,"station_id":"ce4bhq92rcd13ifvqhjg","pricing_plan_id":"cebpf4jnsgd1na2vs0mg"},{"bike_id":"e42d5e98-cbd1-4db8-b7e4-2a6bdc3526b0","system_id":"levelo_inurba_marseille","lat":43.284793,"lon":5.384113,"is_reserved":false,"is_disabled":false,"rental_uris":{"android":"levelo://app?vid=e42d5e98-cbd1-4db8-b7e4-2a6bdc3526b0","ios":"levelo://app?vid=e42d5e98-cbd1-4db8-b7e4-2a6bdc3526b0"},"vehicle_type_id":"4","last_reported":1719410855,"current_range_meters":25600,"station_id":"ce4bh512rcd13ifvqe3g","pricing_plan_id":"cebpf4jnsgd1na2vs0mg"},{"bike_id":"5c269dcf-aeeb-4ab3-8b8d-3f65d61428c4","system_id":"levelo_inurba_marseille","lat":43.28482,"lon":5.38433,"is_reserved":false,"is_disabled":false,"rental_uris":{"android":"levelo://app?vid=5c269dcf-aeeb-4ab3-8b8d-3f65d61428c4","ios":"levelo://app?vid=5c269dcf-aeeb-4ab3-8b8d-3f65d61428c4"},"vehicle_type_id":"4","last_reported":1719410855,"current_range_meters":0,"station_id":"ce4bh512rcd13ifvqe3g","pricing_plan_id":"cebpf4jnsgd1na2vs0mg"},{"bike_id":"feeb07c5-dc6c-4f46-8fe7-bffdb06899cb","system_id":"levelo_inurba_marseille","lat":43.283494,"lon":5.380945,"is_reserved":false,"is_disabled":false,"rental_uris":{"android":"levelo://app?vid=feeb07c5-dc6c-4f46-8fe7-bffdb06899cb","ios":"levelo://app?vid=feeb07c5-dc6c-4f46-8fe7-bffdb06899cb"},"vehicle_type_id":"4","last_reported":1719410855,"current_range_meters":22000,"station_id":"ce4bh412rcd13ifvqdr0","pricing_plan_id":"cebpf4jnsgd1na2vs0mg"},{"bike_id":"d3a8b539-f55c-4389-a298-e5f62af9e07d","system_id":"levelo_inurba_marseille","lat":43.28431,"lon":5.35001,"is_reserved":false,"is_disabled":false,"rental_uris":{"android":"levelo://app?vid=d3a8b539-f55c-4389-a298-e5f62af9e07d","ios":"levelo://app?vid=d3a8b539-f55c-4389-a298-e5f62af9e07d"},"vehicle_type_id":"4","last_reported":1719410855,"current_range_meters":31200,"station_id":"ce4bhbh2rcd13ifvqepg","pricing_plan_id":"cebpf4jnsgd1na2vs0mg"},{"bike_id":"64d96309-1d55-4110-9bdf-165839f809eb","system_id":"levelo_inurba_marseille","lat":43.284303,"lon":5.35,"is_reserved":false,"is_disabled":false,"rental_uris":{"android":"levelo://app?vid=64d96309-1d55-4110-9bdf-165839f809eb","ios":"levelo://app?vid=64d96309-1d55-4110-9bdf-165839f809eb"},"vehicle_type_id":"4","last_reported":1719410855,"current_range_meters":21600,"station_id":"ce4bhbh2rcd13ifvqepg","pricing_plan_id":"cebpf4jnsgd1na2vs0mg"},{"bike_id":"622f8d49-709b-44f2-a688-9fd8b9c99480","system_id":"levelo_inurba_marseille","lat":43.284214,"lon":5.349706,"is_reserved":false,"is_disabled":false,"rental_uris":{"android":"levelo://app?vid=622f8d49-709b-44f2-a688-9fd8b9c99480","ios":"levelo://app?vid=622f8d49-709b-44f2-a688-9fd8b9c99480"},"vehicle_type_id":"4","last_reported":1719410855,"current_range_meters":22400,"station_id":"ce4bhbh2rcd13ifvqepg","pricing_plan_id":"cebpf4jnsgd1na2vs0mg"},{"bike_id":"085cfe41-f67a-4728-97df-db7dc9b6772c","system_id":"levelo_inurba_marseille","lat":43.28427,"lon":5.35002,"is_reserved":false,"is_disabled":false,"rental_uris":{"android":"levelo://app?vid=085cfe41-f67a-4728-97df-db7dc9b6772c","ios":"levelo://app?vid=085cfe41-f67a-4728-97df-db7dc9b6772c"},"vehicle_type_id":"4","last_reported":1719410855,"current_range_meters":21600,"station_id":"ce4bhbh2rcd13ifvqepg","pricing_plan_id":"cebpf4jnsgd1na2vs0mg"},{"bike_id":"4a3a8386-2d07-4b84-bbad-116d19ca1dfa","system_id":"levelo_inurba_marseille","lat":43.284214,"lon":5.349706,"is_reserved":false,"is_disabled":false,"rental_uris":{"android":"levelo://app?vid=4a3a8386-2d07-4b84-bbad-116d19ca1dfa","ios":"levelo://app?vid=4a3a8386-2d07-4b84-bbad-116d19ca1dfa"},"vehicle_type_id":"4","last_reported":1719410855,"current_range_meters":12800,"station_id":"ce4bhbh2rcd13ifvqepg","pricing_plan_id":"cebpf4jnsgd1na2vs0mg"},{"bike_id":"bf5f6f5d-0eb3-44e9-9152-6912a6786bb0","system_id":"levelo_inurba_marseille","lat":43.284253,"lon":5.349923,"is_reserved":false,"is_disabled":false,"rental_uris":{"android":"levelo://app?vid=bf5f6f5d-0eb3-44e9-9152-6912a6786bb0","ios":"levelo://app?vid=bf5f6f5d-0eb3-44e9-9152-6912a6786bb0"},"vehicle_type_id":"4","last_reported":1719410855,"current_range_meters":25200,"station_id":"ce4bhbh2rcd13ifvqepg","pricing_plan_id":"cebpf4jnsgd1na2vs0mg"},{"bike_id":"81bda769-794e-403a-918d-83084f216af0","system_id":"levelo_inurba_marseille","lat":43.284217,"lon":5.349697,"is_reserved":false,"is_disabled":false,"rental_uris":{"android":"levelo://app?vid=81bda769-794e-403a-918d-83084f216af0","ios":"levelo://app?vid=81bda769-794e-403a-918d-83084f216af0"},"vehicle_type_id":"4","last_reported":1719410855,"current_range_meters":28000,"station_id":"ce4bhbh2rcd13ifvqepg","pricing_plan_id":"cebpf4jnsgd1na2vs0mg"},{"bike_id":"1da88b6e-45c4-4362-8ed8-43178fe03958","system_id":"levelo_inurba_marseille","lat":43.284214,"lon":5.349706,"is_reserved":false,"is_disabled":false,"rental_uris":{"android":"levelo://app?vid=1da88b6e-45c4-4362-8ed8-43178fe03958","ios":"levelo://app?vid=1da88b6e-45c4-4362-8ed8-43178fe03958"},"vehicle_type_id":"4","last_reported":1719410855,"current_range_meters":8800,"station_id":"ce4bhbh2rcd13ifvqepg","pricing_plan_id":"cebpf4jnsgd1na2vs0mg"},{"bike_id":"c9fc29ab-4796-4176-b680-9fa57e54c939","system_id":"levelo_inurba_marseille","lat":43.28423,"lon":5.34997,"is_reserved":false,"is_disabled":false,"rental_uris":{"android":"levelo://app?vid=c9fc29ab-4796-4176-b680-9fa57e54c939","ios":"levelo://app?vid=c9fc29ab-4796-4176-b680-9fa57e54c939"},"vehicle_type_id":"4","last_reported":1719410855,"current_range_meters":31200,"station_id":"ce4bhbh2rcd13ifvqepg","pricing_plan_id":"cebpf4jnsgd1na2vs0mg"},{"bike_id":"0064b865-5a78-4a5d-b1da-f09dfef854bb","system_id":"levelo_inurba_marseille","lat":43.28424,"lon":5.349923,"is_reserved":false,"is_disabled":false,"rental_uris":{"android":"levelo://app?vid=0064b865-5a78-4a5d-b1da-f09dfef854bb","ios":"levelo://app?vid=0064b865-5a78-4a5d-b1da-f09dfef854bb"},"vehicle_type_id":"4","last_reported":1719410855,"current_range_meters":18000,"station_id":"ce4bhbh2rcd13ifvqepg","pricing_plan_id":"cebpf4jnsgd1na2vs0mg"},{"bike_id":"e240b56b-52ca-4a3f-8fe5-3674f4677072","system_id":"levelo_inurba_marseille","lat":43.284213,"lon":5.350007,"is_reserved":false,"is_disabled":false,"rental_uris":{"android":"levelo://app?vid=e240b56b-52ca-4a3f-8fe5-3674f4677072","ios":"levelo://app?vid=e240b56b-52ca-4a3f-8fe5-3674f4677072"},"vehicle_type_id":"4","last_reported":1719410855,"current_range_meters":17200,"station_id":"ce4bhbh2rcd13ifvqepg","pricing_plan_id":"cebpf4jnsgd1na2vs0mg"},{"bike_id":"3822a727-738a-4239-a2ae-1463d79a8912","system_id":"levelo_inurba_marseille","lat":43.284235,"lon":5.34993,"is_reserved":false,"is_disabled":false,"rental_uris":{"android":"levelo://app?vid=3822a727-738a-4239-a2ae-1463d79a8912","ios":"levelo://app?vid=3822a727-738a-4239-a2ae-1463d79a8912"},"vehicle_type_id":"4","last_reported":1719410855,"current_range_meters":31200,"station_id":"ce4bhbh2rcd13ifvqepg","pricing_plan_id":"cebpf4jnsgd1na2vs0mg"},{"bike_id":"47847bfd-3189-4acd-819d-2d49eb035bcf","system_id":"levelo_inurba_marseille","lat":43.284219,"lon":5.3497,"is_reserved":false,"is_disabled":false,"rental_uris":{"android":"levelo://app?vid=47847bfd-3189-4acd-819d-2d49eb035bcf","ios":"levelo://app?vid=47847bfd-3189-4acd-819d-2d49eb035bcf"},"vehicle_type_id":"4","last_reported":1719410855,"current_range_meters":18400,"station_id":"ce4bhbh2rcd13ifvqepg","pricing_plan_id":"cebpf4jnsgd1na2vs0mg"},{"bike_id":"178e0465-14b3-4998-87c3-551e8b1bf948","system_id":"levelo_inurba_marseille","lat":43.284219,"lon":5.3497,"is_reserved":false,"is_disabled":false,"rental_uris":{"android":"levelo://app?vid=178e0465-14b3-4998-87c3-551e8b1bf948","ios":"levelo://app?vid=178e0465-14b3-4998-87c3-551e8b1bf948"},"vehicle_type_id":"4","last_reported":1719410855,"current_range_meters":24800,"station_id":"ce4bhbh2rcd13ifvqepg","pricing_plan_id":"cebpf4jnsgd1na2vs0mg"},{"bike_id":"b9af0a29-4379-4a95-9339-b1bcc814c746","system_id":"levelo_inurba_marseille","lat":43.284233,"lon":5.349815,"is_reserved":false,"is_disabled":false,"rental_uris":{"android":"levelo://app?vid=b9af0a29-4379-4a95-9339-b1bcc814c746","ios":"levelo://app?vid=b9af0a29-4379-4a95-9339-b1bcc814c746"},"vehicle_type_id":"4","last_reported":1719410855,"current_range_meters":8800,"station_id":"ce4bhbh2rcd13ifvqepg","pricing_plan_id":"cebpf4jnsgd1na2vs0mg"},{"bike_id":"e80c03f2-4fe1-4e2e-aef3-60c2b988c983","system_id":"levelo_inurba_marseille","lat":43.28419,"lon":5.34989,"is_reserved":false,"is_disabled":false,"rental_uris":{"android":"levelo://app?vid=e80c03f2-4fe1-4e2e-aef3-60c2b988c983","ios":"levelo://app?vid=e80c03f2-4fe1-4e2e-aef3-60c2b988c983"},"vehicle_type_id":"4","last_reported":1719410855,"current_range_meters":29600,"station_id":"ce4bhbh2rcd13ifvqepg","pricing_plan_id":"cebpf4jnsgd1na2vs0mg"},{"bike_id":"738a00dd-8c77-41b8-8f27-c51b9d85133d","system_id":"levelo_inurba_marseille","lat":43.28417,"lon":5.349916,"is_reserved":false,"is_disabled":false,"rental_uris":{"android":"levelo://app?vid=738a00dd-8c77-41b8-8f27-c51b9d85133d","ios":"levelo://app?vid=738a00dd-8c77-41b8-8f27-c51b9d85133d"},"vehicle_type_id":"4","last_reported":1719410855,"current_range_meters":31200,"station_id":"ce4bhbh2rcd13ifvqepg","pricing_plan_id":"cebpf4jnsgd1na2vs0mg"},{"bike_id":"042ac064-fcb2-4779-a890-526d22378b44","system_id":"levelo_inurba_marseille","lat":43.28422,"lon":5.34975,"is_reserved":false,"is_disabled":false,"rental_uris":{"android":"levelo://app?vid=042ac064-fcb2-4779-a890-526d22378b44","ios":"levelo://app?vid=042ac064-fcb2-4779-a890-526d22378b44"},"vehicle_type_id":"4","last_reported":1719410855,"current_range_meters":21200,"station_id":"ce4bhbh2rcd13ifvqepg","pricing_plan_id":"cebpf4jnsgd1na2vs0mg"},{"bike_id":"203bcb7a-ed85-4ab4-ad59-2eb334aa743c","system_id":"levelo_inurba_marseille","lat":43.28421,"lon":5.34977,"is_reserved":false,"is_disabled":false,"rental_uris":{"android":"levelo://app?vid=203bcb7a-ed85-4ab4-ad59-2eb334aa743c","ios":"levelo://app?vid=203bcb7a-ed85-4ab4-ad59-2eb334aa743c"},"vehicle_type_id":"4","last_reported":1719410855,"current_range_meters":23200,"station_id":"ce4bhbh2rcd13ifvqepg","pricing_plan_id":"cebpf4jnsgd1na2vs0mg"},{"bike_id":"bba49e63-275e-49c6-8bf8-11daa4491504","system_id":"levelo_inurba_marseille","lat":43.284195,"lon":5.349808,"is_reserved":false,"is_disabled":false,"rental_uris":{"android":"levelo://app?vid=bba49e63-275e-49c6-8bf8-11daa4491504","ios":"levelo://app?vid=bba49e63-275e-49c6-8bf8-11daa4491504"},"vehicle_type_id":"4","last_reported":1719410855,"current_range_meters":24400,"station_id":"ce4bhbh2rcd13ifvqepg","pricing_plan_id":"cebpf4jnsgd1na2vs0mg"},{"bike_id":"c97c17e7-0158-45d0-aec1-a028e7aac2e8","system_id":"levelo_inurba_marseille","lat":43.28415,"lon":5.34995,"is_reserved":false,"is_disabled":false,"rental_uris":{"android":"levelo://app?vid=c97c17e7-0158-45d0-aec1-a028e7aac2e8","ios":"levelo://app?vid=c97c17e7-0158-45d0-aec1-a028e7aac2e8"},"vehicle_type_id":"4","last_reported":1719410855,"current_range_meters":23600,"station_id":"ce4bhbh2rcd13ifvqepg","pricing_plan_id":"cebpf4jnsgd1na2vs0mg"},{"bike_id":"a0ff3554-7fd3-45ce-9104-5b199e73880b","system_id":"levelo_inurba_marseille","lat":43.28419,"lon":5.3498,"is_reserved":false,"is_disabled":false,"rental_uris":{"android":"levelo://app?vid=a0ff3554-7fd3-45ce-9104-5b199e73880b","ios":"levelo://app?vid=a0ff3554-7fd3-45ce-9104-5b199e73880b"},"vehicle_type_id":"4","last_reported":1719410855,"current_range_meters":22000,"station_id":"ce4bhbh2rcd13ifvqepg","pricing_plan_id":"cebpf4jnsgd1na2vs0mg"},{"bike_id":"52ac580f-cab0-4b38-88d5-edc0d88e838a","system_id":"levelo_inurba_marseille","lat":43.284138,"lon":5.349899,"is_reserved":false,"is_disabled":false,"rental_uris":{"android":"levelo://app?vid=52ac580f-cab0-4b38-88d5-edc0d88e838a","ios":"levelo://app?vid=52ac580f-cab0-4b38-88d5-edc0d88e838a"},"vehicle_type_id":"4","last_reported":1719410855,"current_range_meters":31200,"station_id":"ce4bhbh2rcd13ifvqepg","pricing_plan_id":"cebpf4jnsgd1na2vs0mg"},{"bike_id":"f868c77f-5548-4040-bb03-0a5f2ea81fd5","system_id":"levelo_inurba_marseille","lat":43.284161,"lon":5.349824,"is_reserved":false,"is_disabled":false,"rental_uris":{"android":"levelo://app?vid=f868c77f-5548-4040-bb03-0a5f2ea81fd5","ios":"levelo://app?vid=f868c77f-5548-4040-bb03-0a5f2ea81fd5"},"vehicle_type_id":"4","last_reported":1719410855,"current_range_meters":24400,"station_id":"ce4bhbh2rcd13ifvqepg","pricing_plan_id":"cebpf4jnsgd1na2vs0mg"},{"bike_id":"ffd2231d-3caa-4a2d-b545-d955a79a96e7","system_id":"levelo_inurba_marseille","lat":43.28419,"lon":5.349732,"is_reserved":false,"is_disabled":false,"rental_uris":{"android":"levelo://app?vid=ffd2231d-3caa-4a2d-b545-d955a79a96e7","ios":"levelo://app?vid=ffd2231d-3caa-4a2d-b545-d955a79a96e7"},"vehicle_type_id":"4","last_reported":1719410855,"current_range_meters":31200,"station_id":"ce4bhbh2rcd13ifvqepg","pricing_plan_id":"cebpf4jnsgd1na2vs0mg"},{"bike_id":"5d79c3cb-16f0-4c09-bf2b-e379fb3917f1","system_id":"levelo_inurba_marseille","lat":43.28416,"lon":5.34982,"is_reserved":false,"is_disabled":false,"rental_uris":{"android":"levelo://app?vid=5d79c3cb-16f0-4c09-bf2b-e379fb3917f1","ios":"levelo://app?vid=5d79c3cb-16f0-4c09-bf2b-e379fb3917f1"},"vehicle_type_id":"4","last_reported":1719410855,"current_range_meters":19200,"station_id":"ce4bhbh2rcd13ifvqepg","pricing_plan_id":"cebpf4jnsgd1na2vs0mg"},{"bike_id":"447afc32-b4f0-4bdb-845b-dc3fa5a253f9","system_id":"levelo_inurba_marseille","lat":43.284166,"lon":5.3498,"is_reserved":false,"is_disabled":false,"rental_uris":{"android":"levelo://app?vid=447afc32-b4f0-4bdb-845b-dc3fa5a253f9","ios":"levelo://app?vid=447afc32-b4f0-4bdb-845b-dc3fa5a253f9"},"vehicle_type_id":"4","last_reported":1719410855,"current_range_meters":30000,"station_id":"ce4bhbh2rcd13ifvqepg","pricing_plan_id":"cebpf4jnsgd1na2vs0mg"},{"bike_id":"1c40322f-4b40-4463-80e9-5420e4175981","system_id":"levelo_inurba_marseille","lat":43.284177,"lon":5.349747,"is_reserved":false,"is_disabled":false,"rental_uris":{"android":"levelo://app?vid=1c40322f-4b40-4463-80e9-5420e4175981","ios":"levelo://app?vid=1c40322f-4b40-4463-80e9-5420e4175981"},"vehicle_type_id":"4","last_reported":1719410855,"current_range_meters":31200,"station_id":"ce4bhbh2rcd13ifvqepg","pricing_plan_id":"cebpf4jnsgd1na2vs0mg"},{"bike_id":"c19beebd-43a1-4c13-82ea-230c82f03342","system_id":"levelo_inurba_marseille","lat":43.28414,"lon":5.349846,"is_reserved":false,"is_disabled":false,"rental_uris":{"android":"levelo://app?vid=c19beebd-43a1-4c13-82ea-230c82f03342","ios":"levelo://app?vid=c19beebd-43a1-4c13-82ea-230c82f03342"},"vehicle_type_id":"4","last_reported":1719410855,"current_range_meters":14400,"station_id":"ce4bhbh2rcd13ifvqepg","pricing_plan_id":"cebpf4jnsgd1na2vs0mg"},{"bike_id":"0bcb9193-0ed1-44ae-ab28-b527f0ad5a95","system_id":"levelo_inurba_marseille","lat":43.284161,"lon":5.34977,"is_reserved":false,"is_disabled":false,"rental_uris":{"android":"levelo://app?vid=0bcb9193-0ed1-44ae-ab28-b527f0ad5a95","ios":"levelo://app?vid=0bcb9193-0ed1-44ae-ab28-b527f0ad5a95"},"vehicle_type_id":"4","last_reported":1719410855,"current_range_meters":2400,"station_id":"ce4bhbh2rcd13ifvqepg","pricing_plan_id":"cebpf4jnsgd1na2vs0mg"},{"bike_id":"63c04391-bae9-4864-8a25-c3f7c3e0c73a","system_id":"levelo_inurba_marseille","lat":43.284118,"lon":5.349859,"is_reserved":false,"is_disabled":false,"rental_uris":{"android":"levelo://app?vid=63c04391-bae9-4864-8a25-c3f7c3e0c73a","ios":"levelo://app?vid=63c04391-bae9-4864-8a25-c3f7c3e0c73a"},"vehicle_type_id":"4","last_reported":1719410855,"current_range_meters":25200,"station_id":"ce4bhbh2rcd13ifvqepg","pricing_plan_id":"cebpf4jnsgd1na2vs0mg"},{"bike_id":"002de1b3-cc83-4bf1-a1cb-b85968c95dd2","system_id":"levelo_inurba_marseille","lat":43.28414,"lon":5.34977,"is_reserved":false,"is_disabled":false,"rental_uris":{"android":"levelo://app?vid=002de1b3-cc83-4bf1-a1cb-b85968c95dd2","ios":"levelo://app?vid=002de1b3-cc83-4bf1-a1cb-b85968c95dd2"},"vehicle_type_id":"4","last_reported":1719410855,"current_range_meters":20000,"station_id":"ce4bhbh2rcd13ifvqepg","pricing_plan_id":"cebpf4jnsgd1na2vs0mg"},{"bike_id":"574a9fd5-4626-4da2-a037-84860122b7f8","system_id":"levelo_inurba_marseille","lat":43.28411,"lon":5.34978,"is_reserved":false,"is_disabled":false,"rental_uris":{"android":"levelo://app?vid=574a9fd5-4626-4da2-a037-84860122b7f8","ios":"levelo://app?vid=574a9fd5-4626-4da2-a037-84860122b7f8"},"vehicle_type_id":"4","last_reported":1719410855,"current_range_meters":31200,"station_id":"ce4bhbh2rcd13ifvqepg","pricing_plan_id":"cebpf4jnsgd1na2vs0mg"},{"bike_id":"ae8e9265-1bc3-4be9-9a97-1e660c01b441","system_id":"levelo_inurba_marseille","lat":43.28405,"lon":5.34968,"is_reserved":false,"is_disabled":false,"rental_uris":{"android":"levelo://app?vid=ae8e9265-1bc3-4be9-9a97-1e660c01b441","ios":"levelo://app?vid=ae8e9265-1bc3-4be9-9a97-1e660c01b441"},"vehicle_type_id":"4","last_reported":1719410855,"current_range_meters":21200,"station_id":"ce4bhbh2rcd13ifvqepg","pricing_plan_id":"cebpf4jnsgd1na2vs0mg"},