{"last_updated":1724526368,"ttl":30,"version":"2.2","data":{"bikes":[{"bike_id":"bcfad5cc-16ba-4fb4-b4a8-4c0d6eaf12e2","system_id":"levelo_inurba_marseille","lat":43.31341,"lon":5.367098,"is_reserved":false,"is_disabled":false,"rental_uris":{"android":"levelo://app?vid=bcfad5cc-16ba-4fb4-b4a8-4c0d6eaf12e2","ios":"levelo://app?vid=bcfad5cc-16ba-4fb4-b4a8-4c0d6eaf12e2"},"vehicle_type_id":"4","last_reported":1724526368,"current_range_meters":1200,"station_id":"ce4bgr92rcd13ifvqc6g","pricing_plan_id":"cebpf4jnsgd1na2vs0mg"},{"bike_id":"9a8d4df2-45b2-4441-9724-c824d8a03336","system_id":"levelo_inurba_marseille","lat":43.31341,"lon":5.367098,"is_reserved":false,"is_disabled":false,"rental_uris":{"android":"levelo://app?vid=9a8d4df2-45b2-4441-9724-c824d8a03336","ios":"levelo://app?vid=9a8d4df2-45b2-4441-9724-c824d8a03336"},"vehicle_type_id":"4","last_reported":1724526368,"current_range_meters":10800,"station_id":"ce4bgr92rcd13ifvqc6g","pricing_plan_id":"cebpf4jnsgd1na2vs0mg"},{"bike_id":"5c7bb2af-0abf-4fd4-9521-42fb22198447","system_id":"levelo_inurba_marseille","lat":43.31222,"lon":5.36854,"is_reserved":false,"is_disabled":false,"rental_uris":{"android":"levelo://app?vid=5c7bb2af-0abf-4fd4-9521-42fb22198447","ios":"levelo://app?vid=5c7bb2af-0abf-4fd4-9521-42fb22198447"},"vehicle_type_id":"4","last_reported":1724526368,"current_range_meters":0,"station_id":"ce4bgl92rcd13ifvqbq0","pricing_plan_id":"cebpf4jnsgd1na2vs0mg"},{"bike_id":"5c9ae235-d279-41de-9dcf-ec50fc9a12eb","system_id":"levelo_inurba_marseille","lat":43.312239,"lon":5.368562,"is_reserved":false,"is_disabled":false,"rental_uris":{"android":"levelo://app?vid=5c9ae235-d279-41de-9dcf-ec50fc9a12eb","ios":"levelo://app?vid=5c9ae235-d279-41de-9dcf-ec50fc9a12eb"},"vehicle_type_id":"4","last_reported":1724526368,"current_range_meters":27200,"station_id":"ce4bgl92rcd13ifvqbq0","pricing_plan_id":"cebpf4jnsgd1na2vs0mg"},{"bike_id":"54920fb4-b790-4f0f-88fb-e8d6b72c2f02","system_id":"levelo_inurba_marseille","lat":43.312239,"lon":5.368562,"is_reserved":false,"is_disabled":false,"rental_uris":{"android":"levelo://app?vid=54920fb4-b790-4f0f-88fb-e8d6b72c2f02","ios":"levelo://app?vid=54920fb4-b790-4f0f-88fb-e8d6b72c2f02"},"vehicle_type_id":"4","last_reported":1724526368,"current_range_meters":10000,"station_id":"ce4bgl92rcd13ifvqbq0","pricing_plan_id":"cebpf4jnsgd1na2vs0mg"},{"bike_id":"b90beb5b-a837-4193-9662-72cb75f65f4b","system_id":"levelo_inurba_marseille","lat":43.31195,"lon":5.36874,"is_reserved":false,"is_disabled":false,"rental_uris":{"android":"levelo://app?vid=b90beb5b-a837-4193-9662-72cb75f65f4b","ios":"levelo://app?vid=b90beb5b-a837-4193-9662-72cb75f65f4b"},"vehicle_type_id":"4","last_reported":1724526368,"current_range_meters":20400,"station_id":"ce4bgl92rcd13ifvqbq0","pricing_plan_id":"cebpf4jnsgd1na2vs0mg"},{"bike_id":"d72e6ac3-0213-4313-bf07-8f6d23647800","system_id":"levelo_inurba_marseille","lat":43.305989,"lon":5.37225,"is_reserved":false,"is_disabled":false,"rental_uris":{"android":"levelo://app?vid=d72e6ac3-0213-4313-bf07-8f6d23647800","ios":"levelo://app?vid=d72e6ac3-0213-4313-bf07-8f6d23647800"},"vehicle_type_id":"4","last_reported":1724526368,"current_range_meters":31200,"station_id":"ce4bgqh2rcd13ifvqc4g","pricing_plan_id":"cebpf4jnsgd1na2vs0mg"},{"bike_id":"d7e05646-3394-484e-bbae-33ba1bf01438","system_id":"levelo_inurba_marseille","lat":43.305989,"lon":5.37225,"is_reserved":false,"is_disabled":false,"rental_uris":{"android":"levelo://app?vid=d7e05646-3394-484e-bbae-33ba1bf01438","ios":"levelo://app?vid=d7e05646-3394-484e-bbae-33ba1bf01438"},"vehicle_type_id":"4","last_reported":1724526368,"current_range_meters":30400,"station_id":"ce4bgqh2rcd13ifvqc4g","pricing_plan_id":"cebpf4jnsgd1na2vs0mg"},{"bike_id":"7ddad72c-8548-4157-b9f9-74324a903512","system_id":"levelo_inurba_marseille","lat":43.311125,"lon":5.377624,"is_reserved":false,"is_disabled":false,"rental_uris":{"android":"levelo://app?vid=7ddad72c-8548-4157-b9f9-74324a903512","ios":"levelo://app?vid=7ddad72c-8548-4157-b9f9-74324a903512"},"vehicle_type_id":"4","last_reported":1724526368,"current_range_meters":5200,"station_id":"ce4bgt92rcd13ifvqcg0","pricing_plan_id":"cebpf4jnsgd1na2vs0mg"},{"bike_id":"0bd22c95-0f2f-4c7f-ac36-18dfd996b835","system_id":"levelo_inurba_marseille","lat":43.31118,"lon":5.37774,"is_reserved":false,"is_disabled":false,"rental_uris":{"android":"levelo://app?vid=0bd22c95-0f2f-4c7f-ac36-18dfd996b835","ios":"levelo://app?vid=0bd22c95-0f2f-4c7f-ac36-18dfd996b835"},"vehicle_type_id":"4","last_reported":1724526368,"current_range_meters":19600,"station_id":"ce4bgt92rcd13ifvqcg0","pricing_plan_id":"cebpf4jnsgd1na2vs0mg"},{"bike_id":"87a8a2c9-7bf2-408d-afe9-0a2acc0cd79b","system_id":"levelo_inurba_marseille","lat":43.307945,"lon":5.376487,"is_reserved":false,"is_disabled":false,"rental_uris":{"android":"levelo://app?vid=87a8a2c9-7bf2-408d-afe9-0a2acc0cd79b","ios":"levelo://app?vid=87a8a2c9-7bf2-408d-afe9-0a2acc0cd79b"},"vehicle_type_id":"4","last_reported":1724526368,"current_range_meters":16800,"station_id":"ce4bgv92rcd13ifvqcq0","pricing_plan_id":"cebpf4jnsgd1na2vs0mg"},{"bike_id":"f7c27631-8c06-4b77-b756-a54b23bef336","system_id":"levelo_inurba_marseille","lat":43.315289,"lon":5.380349,"is_reserved":false,"is_disabled":false,"rental_uris":{"android":"levelo://app?vid=f7c27631-8c06-4b77-b756-a54b23bef336","ios":"levelo://app?vid=f7c27631-8c06-4b77-b756-a54b23bef336"},"vehicle_type_id":"4","last_reported":1724526368,"current_range_meters":6800,"station_id":"ce4bhsp2rcd13ifvqi50","pricing_plan_id":"cebpf4jnsgd1na2vs0mg"},{"bike_id":"0e26d99a-4f42-4b22-ae7f-20ed6317b1b1","system_id":"levelo_inurba_marseille","lat":43.30192,"lon":5.36623,"is_reserved":false,"is_disabled":false,"rental_uris":{"android":"levelo://app?vid=0e26d99a-4f42-4b22-ae7f-20ed6317b1b1","ios":"levelo://app?vid=0e26d99a-4f42-4b22-ae7f-20ed6317b1b1"},"vehicle_type_id":"4","last_reported":1724526368,"current_range_meters":4400,"station_id":"ce4bgrh2rcd13ifvqc8g","pricing_plan_id":"cebpf4jnsgd1na2vs0mg"},{"bike_id":"e37383f2-2b81-4900-822c-59f7ab7e170e","system_id":"levelo_inurba_marseille","lat":43.30187,"lon":5.36605,"is_reserved":false,"is_disabled":false,"rental_uris":{"android":"levelo://app?vid=e37383f2-2b81-4900-822c-59f7ab7e170e","ios":"levelo://app?vid=e37383f2-2b81-4900-822c-59f7ab7e170e"},"vehicle_type_id":"4","last_reported":1724526368,"current_range_meters":18800,"station_id":"ce4bgrh2rcd13ifvqc8g","pricing_plan_id":"cebpf4jnsgd1na2vs0mg"},{"bike_id":"edb654ea-bf4d-443f-b8b2-9b312a3dcea0","system_id":"levelo_inurba_marseille","lat":43.304606,"lon":5.379026,"is_reserved":false,"is_disabled":false,"rental_uris":{"android":"levelo://app?vid=edb654ea-bf4d-443f-b8b2-9b312a3dcea0","ios":"levelo://app?vid=edb654ea-bf4d-443f-b8b2-9b312a3dcea0"},"vehicle_type_id":"4","last_reported":1724526368,"current_range_meters":6800,"station_id":"ce4bgup2rcd13ifvqcn0","pricing_plan_id":"cebpf4jnsgd1na2vs0mg"},{"bike_id":"73800c39-090d-4b7e-935a-fdb88ea93340","system_id":"levelo_inurba_marseille","lat":43.304606,"lon":5.379026,"is_reserved":false,"is_disabled":false,"rental_uris":{"android":"levelo://app?vid=73800c39-090d-4b7e-935a-fdb88ea93340","ios":"levelo://app?vid=73800c39-090d-4b7e-935a-fdb88ea93340"},"vehicle_type_id":"4","last_reported":1724526368,"current_range_meters":3600,"station_id":"ce4bgup2rcd13ifvqcn0","pricing_plan_id":"cebpf4jnsgd1na2vs0mg"},{"bike_id":"083b3054-8cfa-4a29-a21d-bbb094fed3bb","system_id":"levelo_inurba_marseille","lat":43.304606,"lon":5.379026,"is_reserved":false,"is_disabled":false,"rental_uris":{"android":"levelo://app?vid=083b3054-8cfa-4a29-a21d-bbb094fed3bb","ios":"levelo://app?vid=083b3054-8cfa-4a29-a21d-bbb094fed3bb"},"vehicle_type_id":"4","last_reported":1724526368,"current_range_meters":11600,"station_id":"ce4bgup2rcd13ifvqcn0","pricing_plan_id":"cebpf4jnsgd1na2vs0mg"},{"bike_id":"6e9cbc81-2ef5-429a-aff8-eaba2cadb388","system_id":"levelo_inurba_marseille","lat":43.324771,"lon":5.36557,"is_reserved":false,"is_disabled":false,"rental_uris":{"android":"levelo://app?vid=6e9cbc81-2ef5-429a-aff8-eaba2cadb388","ios":"levelo://app?vid=6e9cbc81-2ef5-429a-aff8-eaba2cadb388"},"vehicle_type_id":"4","last_reported":1724526368,"current_range_meters":19200,"station_id":"ce4bhs12rcd13ifvqhvg","pricing_plan_id":"cebpf4jnsgd1na2vs0mg"},{"bike_id":"cd559adb-b794-457c-9a93-f8258234a5cf","system_id":"levelo_inurba_marseille","lat":43.324771,"lon":5.36557,"is_reserved":false,"is_disabled":false,"rental_uris":{"android":"levelo://app?vid=cd559adb-b794-457c-9a93-f8258234a5cf","ios":"levelo://app?vid=cd559adb-b794-457c-9a93-f8258234a5cf"},"vehicle_type_id":"4","last_reported":1724526368,"current_range_meters":4400,"station_id":"ce4bhs12rcd13ifvqhvg","pricing_plan_id":"cebpf4jnsgd1na2vs0mg"},{"bike_id":"5cde11d7-fe63-4a2e-a31f-9919d248a0b8","system_id":"levelo_inurba_marseille","lat":43.324771,"lon":5.36557,"is_reserved":false,"is_disabled":false,"rental_uris":{"android":"levelo://app?vid=5cde11d7-fe63-4a2e-a31f-9919d248a0b8","ios":"levelo://app?vid=5cde11d7-fe63-4a2e-a31f-9919d248a0b8"},"vehicle_type_id":"4","last_reported":1724526368,"current_range_meters":3200,"station_id":"ce4bhs12rcd13ifvqhvg","pricing_plan_id":"cebpf4jnsgd1na2vs0mg"},{"bike_id":"cb096356-8429-4445-a401-e5c7178b121f","system_id":"levelo_inurba_marseille","lat":43.324771,"lon":5.36557,"is_reserved":false,"is_disabled":false,"rental_uris":{"android":"levelo://app?vid=cb096356-8429-4445-a401-e5c7178b121f","ios":"levelo://app?vid=cb096356-8429-4445-a401-e5c7178b121f"},"vehicle_type_id":"4","last_reported":1724526368,"current_range_meters":3200,"station_id":"ce4bhs12rcd13ifvqhvg","pricing_plan_id":"cebpf4jnsgd1na2vs0mg"},{"bike_id":"063842fb-6bf4-4b40-b5de-1668cdfb4ba0","system_id":"levelo_inurba_marseille","lat":43.324771,"lon":5.36557,"is_reserved":false,"is_disabled":false,"rental_uris":{"android":"levelo://app?vid=063842fb-6bf4-4b40-b5de-1668cdfb4ba0","ios":"levelo://app?vid=063842fb-6bf4-4b40-b5de-1668cdfb4ba0"},"vehicle_type_id":"4","last_reported":1724526368,"current_range_meters":8400,"station_id":"ce4bhs12rcd13ifvqhvg","pricing_plan_id":"cebpf4jnsgd1na2vs0mg"},{"bike_id":"082603b6-1be1-4233-a739-e5eef1a563fe","system_id":"levelo_inurba_marseille","lat":43.324771,"lon":5.36557,"is_reserved":false,"is_disabled":false,"rental_uris":{"android":"levelo://app?vid=082603b6-1be1-4233-a739-e5eef1a563fe","ios":"levelo://app?vid=082603b6-1be1-4233-a739-e5eef1a563fe"},"vehicle_type_id":"4","last_reported":1724526368,"current_range_meters":7200,"station_id":"ce4bhs12rcd13ifvqhvg","pricing_plan_id":"cebpf4jnsgd1na2vs0mg"},{"bike_id":"e11d5f1d-dbdc-4125-b5eb-ce911fc770a0","system_id":"levelo_inurba_marseille","lat":43.302784,"lon":5.377158,"is_reserved":false,"is_disabled":false,"rental_uris":{"android":"levelo://app?vid=e11d5f1d-dbdc-4125-b5eb-ce911fc770a0","ios":"levelo://app?vid=e11d5f1d-dbdc-4125-b5eb-ce911fc770a0"},"vehicle_type_id":"4","last_reported":1724526368,"current_range_meters":31200,"station_id":"ce4bguh2rcd13ifvqcj0","pricing_plan_id":"cebpf4jnsgd1na2vs0mg"},{"bike_id":"4b068ad2-1221-4476-9487-2b7eb5619d8a","system_id":"levelo_inurba_marseille","lat":43.31366,"lon":5.38364,"is_reserved":false,"is_disabled":false,"rental_uris":{"android":"levelo://app?vid=4b068ad2-1221-4476-9487-2b7eb5619d8a","ios":"levelo://app?vid=4b068ad2-1221-4476-9487-2b7eb5619d8a"},"vehicle_type_id":"4","last_reported":1724526368,"current_range_meters":4400,"station_id":"","pricing_plan_id":"cebpf4jnsgd1na2vs0mg"},{"bike_id":"70796eb5-cd1d-45c9-94d6-24f7671e5475","system_id":"levelo_inurba_marseille","lat":43.310804,"lon":5.38359,"is_reserved":false,"is_disabled":false,"rental_uris":{"android":"levelo://app?vid=70796eb5-cd1d-45c9-94d6-24f7671e5475","ios":"levelo://app?vid=70796eb5-cd1d-45c9-94d6-24f7671e5475"},"vehicle_type_id":"4","last_reported":1724526368,"current_range_meters":0,"station_id":"ce4bgv92rcd13ifvqcr0","pricing_plan_id":"cebpf4jnsgd1na2vs0mg"},{"bike_id":"ad397876-474e-4b79-9cad-eb8b0cd24a5e","system_id":"levelo_inurba_marseille","lat":43.310804,"lon":5.38359,"is_reserved":false,"is_disabled":false,"rental_uris":{"android":"levelo://app?vid=ad397876-474e-4b79-9cad-eb8b0cd24a5e","ios":"levelo://app?vid=ad397876-474e-4b79-9cad-eb8b0cd24a5e"},"vehicle_type_id":"4","last_reported":1724526368,"current_range_meters":20000,"station_id":"ce4bgv92rcd13ifvqcr0","pricing_plan_id":"cebpf4jnsgd1na2vs0mg"},{"bike_id":"067b77c9-19f6-4658-b84e-4f68cd5835de","system_id":"levelo_inurba_marseille","lat":43.324771,"lon":5.36557,"is_reserved":false,"is_disabled":false,"rental_uris":{"android":"levelo://app?vid=067b77c9-19f6-4658-b84e-4f68cd5835de","ios":"levelo://app?vid=067b77c9-19f6-4658-b84e-4f68cd5835de"},"vehicle_type_id":"4","last_reported":1724526368,"current_range_meters":3200,"station_id":"ce4bhs12rcd13ifvqhvg","pricing_plan_id":"cebpf4jnsgd1na2vs0mg"},{"bike_id":"855d7106-2dad-403b-90dc-49d87e0ead17","system_id":"levelo_inurba_marseille","lat":43.310804,"lon":5.38359,"is_reserved":false,"is_disabled":false,"rental_uris":{"android":"levelo://app?vid=855d7106-2dad-403b-90dc-49d87e0ead17","ios":"levelo://app?vid=855d7106-2dad-403b-90dc-49d87e0ead17"},"vehicle_type_id":"4","last_reported":1724526368,"current_range_meters":0,"station_id":"ce4bgv92rcd13ifvqcr0","pricing_plan_id":"cebpf4jnsgd1na2vs0mg"},{"bike_id":"79fbd216-07cf-44fe-961a-9fbb1ca6ed67","system_id":"levelo_inurba_marseille","lat":43.310804,"lon":5.38359,"is_reserved":false,"is_disabled":false,"rental_uris":{"android":"levelo://app?vid=79fbd216-07cf-44fe-961a-9fbb1ca6ed67","ios":"levelo://app?vid=79fbd216-07cf-44fe-961a-9fbb1ca6ed67"},"vehicle_type_id":"4","last_reported":1724526368,"current_range_meters":27200,"station_id":"ce4bgv92rcd13ifvqcr0","pricing_plan_id":"cebpf4jnsgd1na2vs0mg"},{"bike_id":"5b60d5ac-0eef-4133-ad1e-ec7895a93cd7","system_id":"levelo_inurba_marseille","lat":43.310804,"lon":5.38359,"is_reserved":false,"is_disabled":false,"rental_uris":{"android":"levelo://app?vid=5b60d5ac-0eef-4133-ad1e-ec7895a93cd7","ios":"levelo://app?vid=5b60d5ac-0eef-4133-ad1e-ec7895a93cd7"},"vehicle_type_id":"4","last_reported":1724526368,"current_range_meters":400,"station_id":"ce4bgv92rcd13ifvqcr0","pricing_plan_id":"cebpf4jnsgd1na2vs0mg"},{"bike_id":"b6504d31-62a6-4c48-822f-fee7e7fbf5d4","system_id":"levelo_inurba_marseille","lat":43.301429,"lon":5.37413,"is_reserved":false,"is_disabled":false,"rental_uris":{"android":"levelo://app?vid=b6504d31-62a6-4c48-822f-fee7e7fbf5d4","ios":"levelo://app?vid=b6504d31-62a6-4c48-822f-fee7e7fbf5d4"},"vehicle_type_id":"4","last_reported":1724526368,"current_range_meters":11200,"station_id":"ce4bgs92rcd13ifvqcc0","pricing_plan_id":"cebpf4jnsgd1na2vs0mg"},{"bike_id":"94341550-eb5c-48f2-a447-9d836975306a","system_id":"levelo_inurba_marseille","lat":43.302784,"lon":5.377158,"is_reserved":false,"is_disabled":false,"rental_uris":{"android":"levelo://app?vid=94341550-eb5c-48f2-a447-9d836975306a","ios":"levelo://app?vid=94341550-eb5c-48f2-a447-9d836975306a"},"vehicle_type_id":"4","last_reported":1724526368,"current_range_meters":31200,"station_id":"ce4bguh2rcd13ifvqcj0","pricing_plan_id":"cebpf4jnsgd1na2vs0mg"},{"bike_id":"84cfede5-06d8-43c1-86c5-99ae6519722e","system_id":"levelo_inurba_marseille","lat":43.302784,"lon":5.377158,"is_reserved":false,"is_disabled":false,"rental_uris":{"android":"levelo://app?vid=84cfede5-06d8-43c1-86c5-99ae6519722e","ios":"levelo://app?vid=84cfede5-06d8-43c1-86c5-99ae6519722e"},"vehicle_type_id":"4","last_reported":1724526368,"current_range_meters":26400,"station_id":"ce4bguh2rcd13ifvqcj0","pricing_plan_id":"cebpf4jnsgd1na2vs0mg"},{"bike_id":"d01bc122-078a-447a-a199-6d3e911c55d6","system_id":"levelo_inurba_marseille","lat":43.301429,"lon":5.37413,"is_reserved":false,"is_disabled":false,"rental_uris":{"android":"levelo://app?vid=d01bc122-078a-447a-a199-6d3e911c55d6","ios":"levelo://app?vid=d01bc122-078a-447a-a199-6d3e911c55d6"},"vehicle_type_id":"4","last_reported":1724526368,"current_range_meters":27600,"station_id":"ce4bgs92rcd13ifvqcc0","pricing_plan_id":"cebpf4jnsgd1na2vs0mg"},{"bike_id":"d72c0f7f-8841-429c-8e7c-9b50f118cf0e","system_id":"levelo_inurba_marseille","lat":43.302784,"lon":5.377158,"is_reserved":false,"is_disabled":false,"rental_uris":{"android":"levelo://app?vid=d72c0f7f-8841-429c-8e7c-9b50f118cf0e","ios":"levelo://app?vid=d72c0f7f-8841-429c-8e7c-9b50f118cf0e"},"vehicle_type_id":"4","last_reported":1724526368,"current_range_meters":16000,"station_id":"ce4bguh2rcd13ifvqcj0","pricing_plan_id":"cebpf4jnsgd1na2vs0mg"},{"bike_id":"ddfbc639-14ae-43dc-8520-c245e087cb07","system_id":"levelo_inurba_marseille","lat":43.319935,"lon":5.381699,"is_reserved":false,"is_disabled":false,"rental_uris":{"android":"levelo://app?vid=ddfbc639-14ae-43dc-8520-c245e087cb07","ios":"levelo://app?vid=ddfbc639-14ae-43dc-8520-c245e087cb07"},"vehicle_type_id":"4","last_reported":1724526368,"current_range_meters":18000,"station_id":"ce4bhr12rcd13ifvqhpg","pricing_plan_id":"cebpf4jnsgd1na2vs0mg"},{"bike_id":"f309dd1c-6e41-452c-8c89-fa03f468dd88","system_id":"levelo_inurba_marseille","lat":43.31997,"lon":5.38168,"is_reserved":false,"is_disabled":false,"rental_uris":{"android":"levelo://app?vid=f309dd1c-6e41-452c-8c89-fa03f468dd88","ios":"levelo://app?vid=f309dd1c-6e41-452c-8c89-fa03f468dd88"},"vehicle_type_id":"4","last_reported":1724526368,"current_range_meters":12000,"station_id":"ce4bhr12rcd13ifvqhpg","pricing_plan_id":"cebpf4jnsgd1na2vs0mg"},{"bike_id":"95391129-92ee-458e-9268-cc1f0c6a1c32","system_id":"levelo_inurba_marseille","lat":43.313571,"lon":5.384829,"is_reserved":false,"is_disabled":false,"rental_uris":{"android":"levelo://app?vid=95391129-92ee-458e-9268-cc1f0c6a1c32","ios":"levelo://app?vid=95391129-92ee-458e-9268-cc1f0c6a1c32"},"vehicle_type_id":"4","last_reported":1724526368,"current_range_meters":12000,"station_id":"ce4bgt92rcd13ifvqcf0","pricing_plan_id":"cebpf4jnsgd1na2vs0mg"},{"bike_id":"fe5ae110-a7f1-47b8-81e0-7e9d9cf52750","system_id":"levelo_inurba_marseille","lat":43.313571,"lon":5.384829,"is_reserved":false,"is_disabled":false,"rental_uris":{"android":"levelo://app?vid=fe5ae110-a7f1-47b8-81e0-7e9d9cf52750","ios":"levelo://app?vid=fe5ae110-a7f1-47b8-81e0-7e9d9cf52750"},"vehicle_type_id":"4","last_reported":1724526368,"current_range_meters":11200,"station_id":"ce4bgt92rcd13ifvqcf0","pricing_plan_id":"cebpf4jnsgd1na2vs0mg"},{"bike_id":"04f77849-0064-44ca-9f64-17645b884d38","system_id":"levelo_inurba_marseille","lat":43.313571,"lon":5.384829,"is_reserved":false,"is_disabled":false,"rental_uris":{"android":"levelo://app?vid=04f77849-0064-44ca-9f64-17645b884d38","ios":"levelo://app?vid=04f77849-0064-44ca-9f64-17645b884d38"},"vehicle_type_id":"4","last_reported":1724526368,"current_range_meters":28400,"station_id":"ce4bgt92rcd13ifvqcf0","pricing_plan_id":"cebpf4jnsgd1na2vs0mg"},{"bike_id":"bcbf6e5c-03ac-40d0-9d3d-f6f57c8f64a2","system_id":"levelo_inurba_marseille","lat":43.313571,"lon":5.384829,"is_reserved":false,"is_disabled":false,"rental_uris":{"android":"levelo://app?vid=bcbf6e5c-03ac-40d0-9d3d-f6f57c8f64a2","ios":"levelo://app?vid=bcbf6e5c-03ac-40d0-9d3d-f6f57c8f64a2"},"vehicle_type_id":"4","last_reported":1724526368,"current_range_meters":24800,"station_id":"ce4bgt92rcd13ifvqcf0","pricing_plan_id":"cebpf4jnsgd1na2vs0mg"},{"bike_id":"f8c95336-1c9a-418c-9922-5a5d9caad4f2","system_id":"levelo_inurba_marseille","lat":43.313571,"lon":5.384829,"is_reserved":false,"is_disabled":false,"rental_uris":{"android":"levelo://app?vid=f8c95336-1c9a-418c-9922-5a5d9caad4f2","ios":"levelo://app?vid=f8c95336-1c9a-418c-9922-5a5d9caad4f2"},"vehicle_type_id":"4","last_reported":1724526368,"current_range_meters":7200,"station_id":"ce4bgt92rcd13ifvqcf0","pricing_plan_id":"cebpf4jnsgd1na2vs0mg"},{"bike_id":"8ebb43ee-b5b7-4a4e-9d42-85b159c50b66","system_id":"levelo_inurba_marseille","lat":43.313571,"lon":5.384829,"is_reserved":false,"is_disabled":false,"rental_uris":{"android":"levelo://app?vid=8ebb43ee-b5b7-4a4e-9d42-85b159c50b66","ios":"levelo://app?vid=8ebb43ee-b5b7-4a4e-9d42-85b159c50b66"},"vehicle_type_id":"4","last_reported":1724526368,"current_range_meters":10400,"station_id":"ce4bgt92rcd13ifvqcf0","pricing_plan_id":"cebpf4jnsgd1na2vs0mg"},{"bike_id":"d66026fb-b466-454e-a939-1edc0c7b801b","system_id":"levelo_inurba_marseille","lat":43.313571,"lon":5.384829,"is_reserved":false,"is_disabled":false,"rental_uris":{"android":"levelo://app?vid=d66026fb-b466-454e-a939-1edc0c7b801b","ios":"levelo://app?vid=d66026fb-b466-454e-a939-1edc0c7b801b"},"vehicle_type_id":"4","last_reported":1724526368,"current_range_meters":21200,"station_id":"ce4bgt92rcd13ifvqcf0","pricing_plan_id":"cebpf4jnsgd1na2vs0mg"},{"bike_id":"e91955a7-a14e-478a-a783-9eb44e496600","system_id":"levelo_inurba_marseille","lat":43.299724,"lon":5.371829,"is_reserved":false,"is_disabled":false,"rental_uris":{"android":"levelo://app?vid=e91955a7-a14e-478a-a783-9eb44e496600","ios":"levelo://app?vid=e91955a7-a14e-478a-a783-9eb44e496600"},"vehicle_type_id":"4","last_reported":1724526368,"current_range_meters":0,"station_id":"ce4bgr92rcd13ifvqc7g","pricing_plan_id":"cebpf4jnsgd1na2vs0mg"},{"bike_id":"01390925-153d-4519-b750-ad24c8af957f","system_id":"levelo_inurba_marseille","lat":43.29855,"lon":5.36278,"is_reserved":false,"is_disabled":false,"rental_uris":{"android":"levelo://app?vid=01390925-153d-4519-b750-ad24c8af957f","ios":"levelo://app?vid=01390925-153d-4519-b750-ad24c8af957f"},"vehicle_type_id":"4","last_reported":1724526368,"current_range_meters":8400,"station_id":"ce4bgpp2rcd13ifvqc3g","pricing_plan_id":"cebpf4jnsgd1na2vs0mg"},{"bike_id":"30e7f3d6-75e1-4e2f-90b1-7e537a6cc313","system_id":"levelo_inurba_marseille","lat":43.305398,"lon":5.384202,"is_reserved":false,"is_disabled":false,"rental_uris":{"android":"levelo://app?vid=30e7f3d6-75e1-4e2f-90b1-7e537a6cc313","ios":"levelo://app?vid=30e7f3d6-75e1-4e2f-90b1-7e537a6cc313"},"vehicle_type_id":"4","last_reported":1724526368,"current_range_meters":8400,"station_id":"ce4bgg92rcd13ifvqb30","pricing_plan_id":"cebpf4jnsgd1na2vs0mg"},{"bike_id":"706a27e6-1275-4e21-bb0f-314446823e67","system_id":"levelo_inurba_marseille","lat":43.298433,"lon":5.362774,"is_reserved":false,"is_disabled":false,"rental_uris":{"android":"levelo://app?vid=706a27e6-1275-4e21-bb0f-314446823e67","ios":"levelo://app?vid=706a27e6-1275-4e21-bb0f-314446823e67"},"vehicle_type_id":"4","last_reported":1724526368,"current_range_meters":6800,"station_id":"ce4bgpp2rcd13ifvqc3g","pricing_plan_id":"cebpf4jnsgd1na2vs0mg"},{"bike_id":"604c6947-9470-4e9a-8941-1dc887567b5f","system_id":"levelo_inurba_marseille","lat":43.298433,"lon":5.362774,"is_reserved":false,"is_disabled":false,"rental_uris":{"android":"levelo://app?vid=604c6947-9470-4e9a-8941-1dc887567b5f","ios":"levelo://app?vid=604c6947-9470-4e9a-8941-1dc887567b5f"},"vehicle_type_id":"4","last_reported":1724526368,"current_range_meters":28800,"station_id":"ce4bgpp2rcd13ifvqc3g","pricing_plan_id":"cebpf4jnsgd1na2vs0mg"},{"bike_id":"251c3c86-fbff-4715-b37a-6e2b30673852","system_id":"levelo_inurba_marseille","lat":43.298433,"lon":5.362774,"is_reserved":false,"is_disabled":false,"rental_uris":{"android":"levelo://app?vid=251c3c86-fbff-4715-b37a-6e2b30673852","ios":"levelo://app?vid=251c3c86-fbff-4715-b37a-6e2b30673852"},"vehicle_type_id":"4","last_reported":1724526368,"current_range_meters":28800,"station_id":"ce4bgpp2rcd13ifvqc3g","pricing_plan_id":"cebpf4jnsgd1na2vs0mg"},{"bike_id":"5d142ac5-3db5-4a0b-9875-b7c6a4758e60","system_id":"levelo_inurba_marseille","lat":43.298433,"lon":5.362774,"is_reserved":false,"is_disabled":false,"rental_uris":{"android":"levelo://app?vid=5d142ac5-3db5-4a0b-9875-b7c6a4758e60","ios":"levelo://app?vid=5d142ac5-3db5-4a0b-9875-b7c6a4758e60"},"vehicle_type_id":"4","last_reported":1724526368,"current_range_meters":800,"station_id":"ce4bgpp2rcd13ifvqc3g","pricing_plan_id":"cebpf4jnsgd1na2vs0mg"},{"bike_id":"554727fd-adfb-404a-bc6d-784387f06521","system_id":"levelo_inurba_marseille","lat":43.298433,"lon":5.362774,"is_reserved":false,"is_disabled":false,"rental_uris":{"android":"levelo://app?vid=554727fd-adfb-404a-bc6d-784387f06521","ios":"levelo://app?vid=554727fd-adfb-404a-bc6d-784387f06521"},"vehicle_type_id":"4","last_reported":1724526368,"current_range_meters":17600,"station_id":"ce4bgpp2rcd13ifvqc3g","pricing_plan_id":"cebpf4jnsgd1na2vs0mg"},{"bike_id":"eccc8ebd-5122-468f-8f08-2e21ac2fb9b2","system_id":"levelo_inurba_marseille","lat":43.30536,"lon":5.3843,"is_reserved":false,"is_disabled":false,"rental_uris":{"android":"levelo://app?vid=eccc8ebd-5122-468f-8f08-2e21ac2fb9b2","ios":"levelo://app?vid=eccc8ebd-5122-468f-8f08-2e21ac2fb9b2"},"vehicle_type_id":"4","last_reported":1724526368,"current_range_meters":0,"station_id":"ce4bgg92rcd13ifvqb30","pricing_plan_id":"cebpf4jnsgd1na2vs0mg"},{"bike_id":"a67b53ef-e04d-4262-9a3a-4e61b49c86f4","system_id":"levelo_inurba_marseille","lat":43.305364,"lon":5.384119,"is_reserved":false,"is_disabled":false,"rental_uris":{"android":"levelo://app?vid=a67b53ef-e04d-4262-9a3a-4e61b49c86f4","ios":"levelo://app?vid=a67b53ef-e04d-4262-9a3a-4e61b49c86f4"},"vehicle_type_id":"4","last_reported":1724526368,"current_range_meters":4000,"station_id":"ce4bgg92rcd13ifvqb30","pricing_plan_id":"cebpf4jnsgd1na2vs0mg"},{"bike_id":"9438510e-cba9-4865-aa7b-211874c7ccad","system_id":"levelo_inurba_marseille","lat":43.30539,"lon":5.38435,"is_reserved":false,"is_disabled":false,"rental_uris":{"android":"levelo://app?vid=9438510e-cba9-4865-aa7b-211874c7ccad","ios":"levelo://app?vid=9438510e-cba9-4865-aa7b-211874c7ccad"},"vehicle_type_id":"4","last_reported":1724526368,"current_range_meters":0,"station_id":"ce4bgg92rcd13ifvqb30","pricing_plan_id":"cebpf4jnsgd1na2vs0mg"},{"bike_id":"d9b14cb6-9cb9-43e2-b491-c4593251d9d1","system_id":"levelo_inurba_marseille","lat":43.311722,"lon":5.387247,"is_reserved":false,"is_disabled":false,"rental_uris":{"android":"levelo://app?vid=d9b14cb6-9cb9-43e2-b491-c4593251d9d1","ios":"levelo://app?vid=d9b14cb6-9cb9-43e2-b491-c4593251d9d1"},"vehicle_type_id":"4","last_reported":1724526368,"current_range_meters":26800,"station_id":"ce4bgv12rcd13ifvqcp0","pricing_plan_id":"cebpf4jnsgd1na2vs0mg"},{"bike_id":"b88187cf-c3cd-4e97-9110-ef2f2e56af31","system_id":"levelo_inurba_marseille","lat":43.299243,"lon":5.37481,"is_reserved":false,"is_disabled":false,"rental_uris":{"android":"levelo://app?vid=b88187cf-c3cd-4e97-9110-ef2f2e56af31","ios":"levelo://app?vid=b88187cf-c3cd-4e97-9110-ef2f2e56af31"},"vehicle_type_id":"4","last_reported":1724526368,"current_range_meters":25200,"station_id":"ce4bgjh2rcd13ifvqbg0","pricing_plan_id":"cebpf4jnsgd1na2vs0mg"},{"bike_id":"2b8fa156-d55c-42a3-9c2a-3d049aa4d8f9","system_id":"levelo_inurba_marseille","lat":43.299243,"lon":5.374807,"is_reserved":false,"is_disabled":false,"rental_uris":{"android":"levelo://app?vid=2b8fa156-d55c-42a3-9c2a-3d049aa4d8f9","ios":"levelo://app?vid=2b8fa156-d55c-42a3-9c2a-3d049aa4d8f9"},"vehicle_type_id":"4","last_reported":1724526368,"current_range_meters":19200,"station_id":"ce4bgjh2rcd13ifvqbg0","pricing_plan_id":"cebpf4jnsgd1na2vs0mg"},{"bike_id":"3ba84c1a-4b45-4a0d-84a1-f1c2df5e0590","system_id":"levelo_inurba_marseille","lat":43.311722,"lon":5.387247,"is_reserved":false,"is_disabled":false,"rental_uris":{"android":"levelo://app?vid=3ba84c1a-4b45-4a0d-84a1-f1c2df5e0590","ios":"levelo://app?vid=3ba84c1a-4b45-4a0d-84a1-f1c2df5e0590"},"vehicle_type_id":"4","last_reported":1724526368,"current_range_meters":30400,"station_id":"ce4bgv12rcd13ifvqcp0","pricing_plan_id":"cebpf4jnsgd1na2vs0mg"},{"bike_id":"db98018d-846b-40b8-9dca-b8fde960d572","system_id":"levelo_inurba_marseille","lat":43.311722,"lon":5.387247,"is_reserved":false,"is_disabled":false,"rental_uris":{"android":"levelo://app?vid=db98018d-846b-40b8-9dca-b8fde960d572","ios":"levelo://app?vid=db98018d-846b-40b8-9dca-b8fde960d572"},"vehicle_type_id":"4","last_reported":1724526368,"current_range_meters":8800,"station_id":"ce4bgv12rcd13ifvqcp0","pricing_plan_id":"cebpf4jnsgd1na2vs0mg"},{"bike_id":"4727fd31-7470-46e6-84a6-ab61d4ed7c09","system_id":"levelo_inurba_marseille","lat":43.311722,"lon":5.387247,"is_reserved":false,"is_disabled":false,"rental_uris":{"android":"levelo://app?vid=4727fd31-7470-46e6-84a6-ab61d4ed7c09","ios":"levelo://app?vid=4727fd31-7470-46e6-84a6-ab61d4ed7c09"},"vehicle_type_id":"4","last_reported":1724526368,"current_range_meters":12400,"station_id":"ce4bgv12rcd13ifvqcp0","pricing_plan_id":"cebpf4jnsgd1na2vs0mg"},{"bike_id":"abf567f1-a64d-42a4-897e-667d01ecd1d0","system_id":"levelo_inurba_marseille","lat":43.299243,"lon":5.374807,"is_reserved":false,"is_disabled":false,"rental_uris":{"android":"levelo://app?vid=abf567f1-a64d-42a4-897e-667d01ecd1d0","ios":"levelo://app?vid=abf567f1-a64d-42a4-897e-667d01ecd1d0"},"vehicle_type_id":"4","last_reported":1724526368,"current_range_meters":31200,"station_id":"ce4bgjh2rcd13ifvqbg0","pricing_plan_id":"cebpf4jnsgd1na2vs0mg"},{"bike_id":"e613932c-6b58-4913-b095-4f2227bfbeff","system_id":"levelo_inurba_marseille","lat":43.301417,"lon":5.3809,"is_reserved":false,"is_disabled":false,"rental_uris":{"android":"levelo://app?vid=e613932c-6b58-4913-b095-4f2227bfbeff","ios":"levelo://app?vid=e613932c-6b58-4913-b095-4f2227bfbeff"},"vehicle_type_id":"4","last_reported":1724526368,"current_range_meters":18000,"station_id":"ce4bgjp2rcd13ifvqbh0","pricing_plan_id":"cebpf4jnsgd1na2vs0mg"},{"bike_id":"95ee88c0-1afa-444d-bc27-bbdca6d6d054","system_id":"levelo_inurba_marseille","lat":43.301417,"lon":5.3809,"is_reserved":false,"is_disabled":false,"rental_uris":{"android":"levelo://app?vid=95ee88c0-1afa-444d-bc27-bbdca6d6d054","ios":"levelo://app?vid=95ee88c0-1afa-444d-bc27-bbdca6d6d054"},"vehicle_type_id":"4","last_reported":1724526368,"current_range_meters":24400,"station_id":"ce4bgjp2rcd13ifvqbh0","pricing_plan_id":"cebpf4jnsgd1na2vs0mg"},{"bike_id":"2bc09519-f7fd-4cef-b1eb-768d9c68dd8e","system_id":"levelo_inurba_marseille","lat":43.297774,"lon":5.370875,"is_reserved":false,"is_disabled":false,"rental_uris":{"android":"levelo://app?vid=2bc09519-f7fd-4cef-b1eb-768d9c68dd8e","ios":"levelo://app?vid=2bc09519-f7fd-4cef-b1eb-768d9c68dd8e"},"vehicle_type_id":"4","last_reported":1724526368,"current_range_meters":18400,"station_id":"ce4bgop2rcd13ifvqc1g","pricing_plan_id":"cebpf4jnsgd1na2vs0mg"},{"bike_id":"f879cfd5-887b-4e4f-ae81-369a70abc595","system_id":"levelo_inurba_marseille","lat":43.29783,"lon":5.371113,"is_reserved":false,"is_disabled":false,"rental_uris":{"android":"levelo://app?vid=f879cfd5-887b-4e4f-ae81-369a70abc595","ios":"levelo://app?vid=f879cfd5-887b-4e4f-ae81-369a70abc595"},"vehicle_type_id":"4","last_reported":1724526368,"current_range_meters":25200,"station_id":"ce4bgop2rcd13ifvqc1g","pricing_plan_id":"cebpf4jnsgd1na2vs0mg"},{"bike_id":"43637faa-bc57-4af9-9031-ccf7137dafc6","system_id":"levelo_inurba_marseille","lat":43.32292,"lon":5.38258,"is_reserved":false,"is_disabled":false,"rental_uris":{"android":"levelo://app?vid=43637faa-bc57-4af9-9031-ccf7137dafc6","ios":"levelo://app?vid=43637faa-bc57-4af9-9031-ccf7137dafc6"},"vehicle_type_id":"4","last_reported":1724526368,"current_range_meters":22800,"station_id":"ce4bhr12rcd13ifvqhqg","pricing_plan_id":"cebpf4jnsgd1na2vs0mg"},{"bike_id":"304aa661-24c6-4756-9672-d9099b8d5d52","system_id":"levelo_inurba_marseille","lat":43.297794,"lon":5.370888,"is_reserved":false,"is_disabled":false,"rental_uris":{"android":"levelo://app?vid=304aa661-24c6-4756-9672-d9099b8d5d52","ios":"levelo://app?vid=304aa661-24c6-4756-9672-d9099b8d5d52"},"vehicle_type_id":"4","last_reported":1724526368,"current_range_meters":30400,"station_id":"ce4bgop2rcd13ifvqc1g","pricing_plan_id":"cebpf4jnsgd1na2vs0mg"},{"bike_id":"85b0b83e-eb6a-4cf1-9e3e-ea3b2ba69389","system_id":"levelo_inurba_marseille","lat":43.297774,"lon":5.370875,"is_reserved":false,"is_disabled":false,"rental_uris":{"android":"levelo://app?vid=85b0b83e-eb6a-4cf1-9e3e-ea3b2ba69389","ios":"levelo://app?vid=85b0b83e-eb6a-4cf1-9e3e-ea3b2ba69389"},"vehicle_type_id":"4","last_reported":1724526368,"current_range_meters":6000,"station_id":"ce4bgop2rcd13ifvqc1g","pricing_plan_id":"cebpf4jnsgd1na2vs0mg"},{"bike_id":"52f2b856-abe3-4152-ae66-afd8a6aeab43","system_id":"levelo_inurba_marseille","lat":43.322872,"lon":5.382756,"is_reserved":false,"is_disabled":false,"rental_uris":{"android":"levelo://app?vid=52f2b856-abe3-4152-ae66-afd8a6aeab43","ios":"levelo://app?vid=52f2b856-abe3-4152-ae66-afd8a6aeab43"},"vehicle_type_id":"4","last_reported":1724526368,"current_range_meters":15200,"station_id":"ce4bhr12rcd13ifvqhqg","pricing_plan_id":"cebpf4jnsgd1na2vs0mg"},{"bike_id":"925db455-f6f3-49ae-b5b7-47b73e879937","system_id":"levelo_inurba_marseille","lat":43.322872,"lon":5.382756,"is_reserved":false,"is_disabled":false,"rental_uris":{"android":"levelo://app?vid=925db455-f6f3-49ae-b5b7-47b73e879937","ios":"levelo://app?vid=925db455-f6f3-49ae-b5b7-47b73e879937"},"vehicle_type_id":"4","last_reported":1724526368,"current_range_meters":14000,"station_id":"ce4bhr12rcd13ifvqhqg","pricing_plan_id":"cebpf4jnsgd1na2vs0mg"},{"bike_id":"d0ee7c70-c676-4621-8b82-947a41d5653d","system_id":"levelo_inurba_marseille","lat":43.309589,"lon":5.390258,"is_reserved":false,"is_disabled":false,"rental_uris":{"android":"levelo://app?vid=d0ee7c70-c676-4621-8b82-947a41d5653d","ios":"levelo://app?vid=d0ee7c70-c676-4621-8b82-947a41d5653d"},"vehicle_type_id":"4","last_reported":1724526368,"current_range_meters":30000,"station_id":"ce4bgup2rcd13ifvqco0","pricing_plan_id":"cebpf4jnsgd1na2vs0mg"},{"bike_id":"8b4f9df5-a0ab-4be3-b4c2-26baf353f190","system_id":"levelo_inurba_marseille","lat":43.297163,"lon":5.365866,"is_reserved":false,"is_disabled":false,"rental_uris":{"android":"levelo://app?vid=8b4f9df5-a0ab-4be3-b4c2-26baf353f190","ios":"levelo://app?vid=8b4f9df5-a0ab-4be3-b4c2-26baf353f190"},"vehicle_type_id":"4","last_reported":1724526368,"current_range_meters":4000,"station_id":"ce4bgn12rcd13ifvqbt0","pricing_plan_id":"cebpf4jnsgd1na2vs0mg"},{"bike_id":"561f7e58-5590-48f0-87b0-af6a03ca848d","system_id":"levelo_inurba_marseille","lat":43.297163,"lon":5.365866,"is_reserved":false,"is_disabled":false,"rental_uris":{"android":"levelo://app?vid=561f7e58-5590-48f0-87b0-af6a03ca848d","ios":"levelo://app?vid=561f7e58-5590-48f0-87b0-af6a03ca848d"},"vehicle_type_id":"4","last_reported":1724526368,"current_range_meters":16400,"station_id":"ce4bgn12rcd13ifvqbt0","pricing_plan_id":"cebpf4jnsgd1na2vs0mg"},{"bike_id":"5bf913ba-f871-41af-8437-f19db011fe9b","system_id":"levelo_inurba_marseille","lat":43.297163,"lon":5.365866,"is_reserved":false,"is_disabled":false,"rental_uris":{"android":"levelo://app?vid=5bf913ba-f871-41af-8437-f19db011fe9b","ios":"levelo://app?vid=5bf913ba-f871-41af-8437-f19db011fe9b"},"vehicle_type_id":"4","last_reported":1724526368,"current_range_meters":9200,"station_id":"ce4bgn12rcd13ifvqbt0","pricing_plan_id":"cebpf4jnsgd1na2vs0mg"},{"bike_id":"b1fc11cb-d27e-4dac-919f-8ebd5b2a2439","system_id":"levelo_inurba_marseille","lat":43.297163,"lon":5.365866,"is_reserved":false,"is_disabled":false,"rental_uris":{"android":"levelo://app?vid=b1fc11cb-d27e-4dac-919f-8ebd5b2a2439","ios":"levelo://app?vid=b1fc11cb-d27e-4dac-919f-8ebd5b2a2439"},"vehicle_type_id":"4","last_reported":1724526368,"current_range_meters":18000,"station_id":"ce4bgn12rcd13ifvqbt0","pricing_plan_id":"cebpf4jnsgd1na2vs0mg"},{"bike_id":"da1d067f-b5a8-4bbe-8ec6-c77dc6d0e13e","system_id":"levelo_inurba_marseille","lat":43.297163,"lon":5.365866,"is_reserved":false,"is_disabled":false,"rental_uris":{"android":"levelo://app?vid=da1d067f-b5a8-4bbe-8ec6-c77dc6d0e13e","ios":"levelo://app?vid=da1d067f-b5a8-4bbe-8ec6-c77dc6d0e13e"},"vehicle_type_id":"4","last_reported":1724526368,"current_range_meters":8400,"station_id":"ce4bgn12rcd13ifvqbt0","pricing_plan_id":"cebpf4jnsgd1na2vs0mg"},{"bike_id":"6cef0845-1195-4735-8c9c-fee2141cd4ae","system_id":"levelo_inurba_marseille","lat":43.297163,"lon":5.365866,"is_reserved":false,"is_disabled":false,"rental_uris":{"android":"levelo://app?vid=6cef0845-1195-4735-8c9c-fee2141cd4ae","ios":"levelo://app?vid=6cef0845-1195-4735-8c9c-fee2141cd4ae"},"vehicle_type_id":"4","last_reported":1724526368,"current_range_meters":20400,"station_id":"ce4bgn12rcd13ifvqbt0","pricing_plan_id":"cebpf4jnsgd1na2vs0mg"},{"bike_id":"7ca58f7a-8880-4571-b596-21105ad2208e","system_id":"levelo_inurba_marseille","lat":43.297163,"lon":5.365866,"is_reserved":false,"is_disabled":false,"rental_uris":{"android":"levelo://app?vid=7ca58f7a-8880-4571-b596-21105ad2208e","ios":"levelo://app?vid=7ca58f7a-8880-4571-b596-21105ad2208e"},"vehicle_type_id":"4","last_reported":1724526368,"current_range_meters":27200,"station_id":"ce4bgn12rcd13ifvqbt0","pricing_plan_id":"cebpf4jnsgd1na2vs0mg"},{"bike_id":"2e0b61a2-82e1-420d-9735-4b91f55acc33","system_id":"levelo_inurba_marseille","lat":43.2968,"lon":5.37291,"is_reserved":false,"is_disabled":false,"rental_uris":{"android":"levelo://app?vid=2e0b61a2-82e1-420d-9735-4b91f55acc33","ios":"levelo://app?vid=2e0b61a2-82e1-420d-9735-4b91f55acc33"},"vehicle_type_id":"4","last_reported":1724526368,"current_range_meters":6000,"station_id":"ce4bgk12rcd13ifvqbj0","pricing_plan_id":"cebpf4jnsgd1na2vs0mg"},{"bike_id":"61c02bb4-0360-44e1-bf3f-db1f1fba7204","system_id":"levelo_inurba_marseille","lat":43.29679,"lon":5.3729,"is_reserved":false,"is_disabled":false,"rental_uris":{"android":"levelo://app?vid=61c02bb4-0360-44e1-bf3f-db1f1fba7204","ios":"levelo://app?vid=61c02bb4-0360-44e1-bf3f-db1f1fba7204"},"vehicle_type_id":"4","last_reported":1724526368,"current_range_meters":11200,"station_id":"ce4bgk12rcd13ifvqbj0","pricing_plan_id":"cebpf4jnsgd1na2vs0mg"},{"bike_id":"901e0549-ed4e-4a99-a1ce-0b02eaedca9d","system_id":"levelo_inurba_marseille","lat":43.29679,"lon":5.373,"is_reserved":false,"is_disabled":false,"rental_uris":{"android":"levelo://app?vid=901e0549-ed4e-4a99-a1ce-0b02eaedca9d","ios":"levelo://app?vid=901e0549-ed4e-4a99-a1ce-0b02eaedca9d"},"vehicle_type_id":"4","last_reported":1724526368,"current_range_meters":15600,"station_id":"ce4bgk12rcd13ifvqbj0","pricing_plan_id":"cebpf4jnsgd1na2vs0mg"},{"bike_id":"d800735a-9bfd-456b-8e43-a30b7c0f0036","system_id":"levelo_inurba_marseille","lat":43.2968,"lon":5.37291,"is_reserved":false,"is_disabled":false,"rental_uris":{"android":"levelo://app?vid=d800735a-9bfd-456b-8e43-a30b7c0f0036","ios":"levelo://app?vid=d800735a-9bfd-456b-8e43-a30b7c0f0036"},"vehicle_type_id":"4","last_reported":1724526368,"current_range_meters":23600,"station_id":"ce4bgk12rcd13ifvqbj0","pricing_plan_id":"cebpf4jnsgd1na2vs0mg"},{"bike_id":"8963e8f1-6fda-4488-9658-dd2ec0c22103","system_id":"levelo_inurba_marseille","lat":43.2968,"lon":5.37291,"is_reserved":false,"is_disabled":false,"rental_uris":{"android":"levelo://app?vid=8963e8f1-6fda-4488-9658-dd2ec0c22103","ios":"levelo://app?vid=8963e8f1-6fda-4488-9658-dd2ec0c22103"},"vehicle_type_id":"4","last_reported":1724526368,"current_range_meters":25600,"station_id":"ce4bgk12rcd13ifvqbj0","pricing_plan_id":"cebpf4jnsgd1na2vs0mg"},{"bike_id":"c1599da8-0ff5-49c9-9340-467721d6b87c","system_id":"levelo_inurba_marseille","lat":43.296131,"lon":5.370773,"is_reserved":false,"is_disabled":false,"rental_uris":{"android":"levelo://app?vid=c1599da8-0ff5-49c9-9340-467721d6b87c","ios":"levelo://app?vid=c1599da8-0ff5-49c9-9340-467721d6b87c"},"vehicle_type_id":"4","last_reported":1724526368,"current_range_meters":800,"station_id":"ce4bgnh2rcd13ifvqc0g","pricing_plan_id":"cebpf4jnsgd1na2vs0mg"},{"bike_id":"10676daa-a922-4c48-9f3c-75095084cfd4","system_id":"levelo_inurba_marseille","lat":43.29584,"lon":5.36742,"is_reserved":false,"is_disabled":false,"rental_uris":{"android":"levelo://app?vid=10676daa-a922-4c48-9f3c-75095084cfd4","ios":"levelo://app?vid=10676daa-a922-4c48-9f3c-75095084cfd4"},"vehicle_type_id":"4","last_reported":1724526368,"current_range_meters":21600,"station_id":"ce4bgph2rcd13ifvqc2g","pricing_plan_id":"cebpf4jnsgd1na2vs0mg"},{"bike_id":"c596a3d3-2719-45ff-85ac-e99446c02fde","system_id":"levelo_inurba_marseille","lat":43.29584,"lon":5.36748,"is_reserved":false,"is_disabled":false,"rental_uris":{"android":"levelo://app?vid=c596a3d3-2719-45ff-85ac-e99446c02fde","ios":"levelo://app?vid=c596a3d3-2719-45ff-85ac-e99446c02fde"},"vehicle_type_id":"4","last_reported":1724526368,"current_range_meters":400,"station_id":"ce4bgph2rcd13ifvqc2g","pricing_plan_id":"cebpf4jnsgd1na2vs0mg"},{"bike_id":"58c64f24-57a1-43a8-be1d-2b726371d95a","system_id":"levelo_inurba_marseille","lat":43.29582,"lon":5.36744,"is_reserved":false,"is_disabled":false,"rental_uris":{"android":"levelo://app?vid=58c64f24-57a1-43a8-be1d-2b726371d95a","ios":"levelo://app?vid=58c64f24-57a1-43a8-be1d-2b726371d95a"},"vehicle_type_id":"4","last_reported":1724526368,"current_range_meters":3600,"station_id":"ce4bgph2rcd13ifvqc2g","pricing_plan_id":"cebpf4jnsgd1na2vs0mg"},{"bike_id":"c2cbdd9a-2704-40e4-878a-3f7c618bc175","system_id":"levelo_inurba_marseille","lat":43.29582,"lon":5.36749,"is_reserved":false,"is_disabled":false,"rental_uris":{"android":"levelo://app?vid=c2cbdd9a-2704-40e4-878a-3f7c618bc175","ios":"levelo://app?vid=c2cbdd9a-2704-40e4-878a-3f7c618bc175"},"vehicle_type_id":"4","last_reported":1724526368,"current_range_meters":6800,"station_id":"ce4bgph2rcd13ifvqc2g","pricing_plan_id":"cebpf4jnsgd1na2vs0mg"},{"bike_id":"d9e83148-5673-4b1e-b4d5-9deb4cfc501d","system_id":"levelo_inurba_marseille","lat":43.29573,"lon":5.367355,"is_reserved":false,"is_disabled":false,"rental_uris":{"android":"levelo://app?vid=d9e83148-5673-4b1e-b4d5-9deb4cfc501d","ios":"levelo://app?vid=d9e83148-5673-4b1e-b4d5-9deb4cfc501d"},"vehicle_type_id":"4","last_reported":1724526368,"current_range_meters":13200,"station_id":"ce4bgph2rcd13ifvqc2g","pricing_plan_id":"cebpf4jnsgd1na2vs0mg"},{"bike_id":"5172b585-472e-4d6c-b8a2-ed005a390b83","system_id":"levelo_inurba_marseille","lat":43.29581,"lon":5.36748,"is_reserved":false,"is_disabled":false,"rental_uris":{"android":"levelo://app?vid=5172b585-472e-4d6c-b8a2-ed005a390b83","ios":"levelo://app?vid=5172b585-472e-4d6c-b8a2-ed005a390b83"},"vehicle_type_id":"4","last_reported":1724526368,"current_range_meters":2000,"station_id":"ce4bgph2rcd13ifvqc2g","pricing_plan_id":"cebpf4jnsgd1na2vs0mg"},{"bike_id":"180b412e-f43c-46c4-841d-dc9792ae1cf3","system_id":"levelo_inurba_marseille","lat":43.2958,"lon":5.36748,"is_reserved":false,"is_disabled":false,"rental_uris":{"android":"levelo://app?vid=180b412e-f43c-46c4-841d-dc9792ae1cf3","ios":"levelo://app?vid=180b412e-f43c-46c4-841d-dc9792ae1cf3"},"vehicle_type_id":"4","last_reported":1724526368,"current_range_meters":13200,"station_id":"ce4bgph2rcd13ifvqc2g","pricing_plan_id":"cebpf4jnsgd1na2vs0mg"},{"bike_id":"c86cf25f-cdb7-4f01-b950-32b4f54a4cf6","system_id":"levelo_inurba_marseille","lat":43.2958,"lon":5.36748,"is_reserved":false,"is_disabled":false,"rental_uris":{"android":"levelo://app?vid=c86cf25f-cdb7-4f01-b950-32b4f54a4cf6","ios":"levelo://app?vid=c86cf25f-cdb7-4f01-b950-32b4f54a4cf6"},"vehicle_type_id":"4","last_reported":1724526368,"current_range_meters":18000,"station_id":"ce4bgph2rcd13ifvqc2g","pricing_plan_id":"cebpf4jnsgd1na2vs0mg"},{"bike_id":"f27aa495-64e6-4292-9999-5c71e6900231","system_id":"levelo_inurba_marseille","lat":43.29573,"lon":5.367355,"is_reserved":false,"is_disabled":false,"rental_uris":{"android":"levelo://app?vid=f27aa495-64e6-4292-9999-5c71e6900231","ios":"levelo://app?vid=f27aa495-64e6-4292-9999-5c71e6900231"},"vehicle_type_id":"4","last_reported":1724526368,"current_range_meters":11600,"station_id":"ce4bgph2rcd13ifvqc2g","pricing_plan_id":"cebpf4jnsgd1na2vs0mg"},{"bike_id":"651413ca-8bc5-43ee-9948-7dd077daa843","system_id":"levelo_inurba_marseille","lat":43.29578,"lon":5.36742,"is_reserved":false,"is_disabled":false,"rental_uris":{"android":"levelo://app?vid=651413ca-8bc5-43ee-9948-7dd077daa843","ios":"levelo://app?vid=651413ca-8bc5-43ee-9948-7dd077daa843"},"vehicle_type_id":"4","last_reported":1724526368,"current_range_meters":21600,"station_id":"ce4bgph2rcd13ifvqc2g","pricing_plan_id":"cebpf4jnsgd1na2vs0mg"},{"bike_id":"4b2ab397-9542-4f90-9541-0c4cf77ddf80","system_id":"levelo_inurba_marseille","lat":43.29573,"lon":5.367355,"is_reserved":false,"is_disabled":false,"rental_uris":{"android":"levelo://app?vid=4b2ab397-9542-4f90-9541-0c4cf77ddf80","ios":"levelo://app?vid=4b2ab397-9542-4f90-9541-0c4cf77ddf80"},"vehicle_type_id":"4","last_reported":1724526368,"current_range_meters":22000,"station_id":"ce4bgph2rcd13ifvqc2g","pricing_plan_id":"cebpf4jnsgd1na2vs0mg"},{"bike_id":"7380d4f1-2716-4836-a560-415a2d65456e","system_id":"levelo_inurba_marseille","lat":43.29577,"lon":5.36748,"is_reserved":false,"is_disabled":false,"rental_uris":{"android":"levelo://app?vid=7380d4f1-2716-4836-a560-415a2d65456e","ios":"levelo://app?vid=7380d4f1-2716-4836-a560-415a2d65456e"},"vehicle_type_id":"4","last_reported":1724526368,"current_range_meters":0,"station_id":"ce4bgph2rcd13ifvqc2g","pricing_plan_id":"cebpf4jnsgd1na2vs0mg"},{"bike_id":"0f80e4a7-dd24-4bcb-898e-d82ea20cfec9","system_id":"levelo_inurba_marseille","lat":43.2963,"lon":5.36031,"is_reserved":false,"is_disabled":false,"rental_uris":{"android":"levelo://app?vid=0f80e4a7-dd24-4bcb-898e-d82ea20cfec9","ios":"levelo://app?vid=0f80e4a7-dd24-4bcb-898e-d82ea20cfec9"},"vehicle_type_id":"4","last_reported":1724526368,"current_range_meters":3200,"station_id":"","pricing_plan_id":"cebpf4jnsgd1na2vs0mg"},{"bike_id":"efe9d10c-3bc7-4549-934e-a7fa2a8172a8","system_id":"levelo_inurba_marseille","lat":43.296935,"lon":5.376544,"is_reserved":false,"is_disabled":false,"rental_uris":{"android":"levelo://app?vid=efe9d10c-3bc7-4549-934e-a7fa2a8172a8","ios":"levelo://app?vid=efe9d10c-3bc7-4549-934e-a7fa2a8172a8"},"vehicle_type_id":"4","last_reported":1724526368,"current_range_meters":27600,"station_id":"ce4bgkh2rcd13ifvqbl0","pricing_plan_id":"cebpf4jnsgd1na2vs0mg"},{"bike_id":"de3e5d22-acc8-4a36-afc4-8b09bbf6d179","system_id":"levelo_inurba_marseille","lat":43.309529,"lon":5.390096,"is_reserved":false,"is_disabled":false,"rental_uris":{"android":"levelo://app?vid=de3e5d22-acc8-4a36-afc4-8b09bbf6d179","ios":"levelo://app?vid=de3e5d22-acc8-4a36-afc4-8b09bbf6d179"},"vehicle_type_id":"4","last_reported":1724526368,"current_range_meters":17600,"station_id":"ce4bgup2rcd13ifvqco0","pricing_plan_id":"cebpf4jnsgd1na2vs0mg"},{"bike_id":"60945535-1301-4e98-b34f-6a97b247b33e","system_id":"levelo_inurba_marseille","lat":43.309521,"lon":5.390137,"is_reserved":false,"is_disabled":false,"rental_uris":{"android":"levelo://app?vid=60945535-1301-4e98-b34f-6a97b247b33e","ios":"levelo://app?vid=60945535-1301-4e98-b34f-6a97b247b33e"},"vehicle_type_id":"4","last_reported":1724526368,"current_range_meters":30800,"station_id":"ce4bgup2rcd13ifvqco0","pricing_plan_id":"cebpf4jnsgd1na2vs0mg"},{"bike_id":"bb75b799-510a-4385-bc27-8150f3ecb136","system_id":"levelo_inurba_marseille","lat":43.30954,"lon":5.39019,"is_reserved":false,"is_disabled":false,"rental_uris":{"android":"levelo://app?vid=bb75b799-510a-4385-bc27-8150f3ecb136","ios":"levelo://app?vid=bb75b799-510a-4385-bc27-8150f3ecb136"},"vehicle_type_id":"4","last_reported":1724526368,"current_range_meters":26400,"station_id":"ce4bgup2rcd13ifvqco0","pricing_plan_id":"cebpf4jnsgd1na2vs0mg"},{"bike_id":"f6bc5cb4-1017-40ba-8f86-c68d50d7114b","system_id":"levelo_inurba_marseille","lat":43.299028,"lon":5.381509,"is_reserved":false,"is_disabled":false,"rental_uris":{"android":"levelo://app?vid=f6bc5cb4-1017-40ba-8f86-c68d50d7114b","ios":"levelo://app?vid=f6bc5cb4-1017-40ba-8f86-c68d50d7114b"},"vehicle_type_id":"4","last_reported":1724526368,"current_range_meters":0,"station_id":"ce4bgj12rcd13ifvqbc0","pricing_plan_id":"cebpf4jnsgd1na2vs0mg"},{"bike_id":"77c4ebd4-0496-4192-ad02-dd0852535265","system_id":"levelo_inurba_marseille","lat":43.296921,"lon":5.376579,"is_reserved":false,"is_disabled":false,"rental_uris":{"android":"levelo://app?vid=77c4ebd4-0496-4192-ad02-dd0852535265","ios":"levelo://app?vid=77c4ebd4-0496-4192-ad02-dd0852535265"},"vehicle_type_id":"4","last_reported":1724526368,"current_range_meters":0,"station_id":"ce4bgkh2rcd13ifvqbl0","pricing_plan_id":"cebpf4jnsgd1na2vs0mg"},{"bike_id":"454e6194-cc2d-411b-b4d1-54707573f027","system_id":"levelo_inurba_marseille","lat":43.296935,"lon":5.376544,"is_reserved":false,"is_disabled":false,"rental_uris":{"android":"levelo://app?vid=454e6194-cc2d-411b-b4d1-54707573f027","ios":"levelo://app?vid=454e6194-cc2d-411b-b4d1-54707573f027"},"vehicle_type_id":"4","last_reported":1724526368,"current_range_meters":20800,"station_id":"ce4bgkh2rcd13ifvqbl0","pricing_plan_id":"cebpf4jnsgd1na2vs0mg"},{"bike_id":"aa131f65-d306-4260-9ae4-a0d2a9bb0c31","system_id":"levelo_inurba_marseille","lat":43.3096,"lon":5.39026,"is_reserved":false,"is_disabled":false,"rental_uris":{"android":"levelo://app?vid=aa131f65-d306-4260-9ae4-a0d2a9bb0c31","ios":"levelo://app?vid=aa131f65-d306-4260-9ae4-a0d2a9bb0c31"},"vehicle_type_id":"4","last_reported":1724526368,"current_range_meters":31200,"station_id":"ce4bgup2rcd13ifvqco0","pricing_plan_id":"cebpf4jnsgd1na2vs0mg"},{"bike_id":"ba262169-342d-4d62-9c84-8dc6b5e7a0bd","system_id":"levelo_inurba_marseille","lat":43.30953,"lon":5.39025,"is_reserved":false,"is_disabled":false,"rental_uris":{"android":"levelo://app?vid=ba262169-342d-4d62-9c84-8dc6b5e7a0bd","ios":"levelo://app?vid=ba262169-342d-4d62-9c84-8dc6b5e7a0bd"},"vehicle_type_id":"4","last_reported":1724526368,"current_range_meters":22800,"station_id":"ce4bgup2rcd13ifvqco0","pricing_plan_id":"cebpf4jnsgd1na2vs0mg"},{"bike_id":"6f009f1d-88f9-4bc5-8d68-5511f7a1e04a","system_id":"levelo_inurba_marseille","lat":43.309589,"lon":5.390258,"is_reserved":false,"is_disabled":false,"rental_uris":{"android":"levelo://app?vid=6f009f1d-88f9-4bc5-8d68-5511f7a1e04a","ios":"levelo://app?vid=6f009f1d-88f9-4bc5-8d68-5511f7a1e04a"},"vehicle_type_id":"4","last_reported":1724526368,"current_range_meters":11200,"station_id":"ce4bgup2rcd13ifvqco0","pricing_plan_id":"cebpf4jnsgd1na2vs0mg"},{"bike_id":"033c0ca1-d2ac-41d4-b371-02ed914b6370","system_id":"levelo_inurba_marseille","lat":43.30948,"lon":5.39024,"is_reserved":false,"is_disabled":false,"rental_uris":{"android":"levelo://app?vid=033c0ca1-d2ac-41d4-b371-02ed914b6370","ios":"levelo://app?vid=033c0ca1-d2ac-41d4-b371-02ed914b6370"},"vehicle_type_id":"4","last_reported":1724526368,"current_range_meters":0,"station_id":"ce4bgup2rcd13ifvqco0","pricing_plan_id":"cebpf4jnsgd1na2vs0mg"},{"bike_id":"5bb56f33-e157-4dbc-be8a-bee12ece0b61","system_id":"levelo_inurba_marseille","lat":43.30954,"lon":5.39026,"is_reserved":false,"is_disabled":false,"rental_uris":{"android":"levelo://app?vid=5bb56f33-e157-4dbc-be8a-bee12ece0b61","ios":"levelo://app?vid=5bb56f33-e157-4dbc-be8a-bee12ece0b61"},"vehicle_type_id":"4","last_reported":1724526368,"current_range_meters":13600,"station_id":"ce4bgup2rcd13ifvqco0","pricing_plan_id":"cebpf4jnsgd1na2vs0mg"},{"bike_id":"2d913890-3986-4534-9724-5214f942172e","system_id":"levelo_inurba_marseille","lat":43.309589,"lon":5.390258,"is_reserved":false,"is_disabled":false,"rental_uris":{"android":"levelo://app?vid=2d913890-3986-4534-9724-5214f942172e","ios":"levelo://app?vid=2d913890-3986-4534-9724-5214f942172e"},"vehicle_type_id":"4","last_reported":1724526368,"current_range_meters":12000,"station_id":"ce4bgup2rcd13ifvqco0","pricing_plan_id":"cebpf4jnsgd1na2vs0mg"},{"bike_id":"287d51a3-6713-4187-8ee3-2e455dbdf2a1","system_id":"levelo_inurba_marseille","lat":43.309589,"lon":5.390258,"is_reserved":false,"is_disabled":false,"rental_uris":{"android":"levelo://app?vid=287d51a3-6713-4187-8ee3-2e455dbdf2a1","ios":"levelo://app?vid=287d51a3-6713-4187-8ee3-2e455dbdf2a1"},"vehicle_type_id":"4","last_reported":1724526368,"current_range_meters":16800,"station_id":"ce4bgup2rcd13ifvqco0","pricing_plan_id":"cebpf4jnsgd1na2vs0mg"},{"bike_id":"d995e59f-8565-4798-b703-025c4f18eca8","system_id":"levelo_inurba_marseille","lat":43.309524,"lon":5.390278,"is_reserved":false,"is_disabled":false,"rental_uris":{"android":"levelo://app?vid=d995e59f-8565-4798-b703-025c4f18eca8","ios":"levelo://app?vid=d995e59f-8565-4798-b703-025c4f18eca8"},"vehicle_type_id":"4","last_reported":1724526368,"current_range_meters":12400,"station_id":"ce4bgup2rcd13ifvqco0","pricing_plan_id":"cebpf4jnsgd1na2vs0mg"},{"bike_id":"52b2d7d6-4790-4d38-88b0-7b5fb1289055","system_id":"levelo_inurba_marseille","lat":43.30954,"lon":5.3903,"is_reserved":false,"is_disabled":false,"rental_uris":{"android":"levelo://app?vid=52b2d7d6-4790-4d38-88b0-7b5fb1289055","ios":"levelo://app?vid=52b2d7d6-4790-4d38-88b0-7b5fb1289055"},"vehicle_type_id":"4","last_reported":1724526368,"current_range_meters":2400,"station_id":"ce4bgup2rcd13ifvqco0","pricing_plan_id":"cebpf4jnsgd1na2vs0mg"},{"bike_id":"622af5a7-cba4-4031-8515-b7f20b474804","system_id":"levelo_inurba_marseille","lat":43.309589,"lon":5.390258,"is_reserved":false,"is_disabled":false,"rental_uris":{"android":"levelo://app?vid=622af5a7-cba4-4031-8515-b7f20b474804","ios":"levelo://app?vid=622af5a7-cba4-4031-8515-b7f20b474804"},"vehicle_type_id":"4","last_reported":1724526368,"current_range_meters":28400,"station_id":"ce4bgup2rcd13ifvqco0","pricing_plan_id":"cebpf4jnsgd1na2vs0mg"},{"bike_id":"1262eb1e-037e-42a2-b7c8-075c41b853c9","system_id":"levelo_inurba_marseille","lat":43.30948,"lon":5.39029,"is_reserved":false,"is_disabled":false,"rental_uris":{"android":"levelo://app?vid=1262eb1e-037e-42a2-b7c8-075c41b853c9","ios":"levelo://app?vid=1262eb1e-037e-42a2-b7c8-075c41b853c9"},"vehicle_type_id":"4","last_reported":1724526368,"current_range_meters":8800,"station_id":"ce4bgup2rcd13ifvqco0","pricing_plan_id":"cebpf4jnsgd1na2vs0mg"},{"bike_id":"92ea1144-8ded-49dc-a4c7-fb8bf73188ce","system_id":"levelo_inurba_marseille","lat":43.309589,"lon":5.390258,"is_reserved":false,"is_disabled":false,"rental_uris":{"android":"levelo://app?vid=92ea1144-8ded-49dc-a4c7-fb8bf73188ce","ios":"levelo://app?vid=92ea1144-8ded-49dc-a4c7-fb8bf73188ce"},"vehicle_type_id":"4","last_reported":1724526368,"current_range_meters":24000,"station_id":"ce4bgup2rcd13ifvqco0","pricing_plan_id":"cebpf4jnsgd1na2vs0mg"},{"bike_id":"989bfe0b-d354-422f-aeae-7ed0f54b147a","system_id":"levelo_inurba_marseille","lat":43.309589,"lon":5.390258,"is_reserved":false,"is_disabled":false,"rental_uris":{"android":"levelo://app?vid=989bfe0b-d354-422f-aeae-7ed0f54b147a","ios":"levelo://app?vid=989bfe0b-d354-422f-aeae-7ed0f54b147a"},"vehicle_type_id":"4","last_reported":1724526368,"current_range_meters":21600,"station_id":"ce4bgup2rcd13ifvqco0","pricing_plan_id":"cebpf4jnsgd1na2vs0mg"},{"bike_id":"b6695ec0-3a40-4364-bfe0-1c8418a10eae","system_id":"levelo_inurba_marseille","lat":43.309507,"lon":5.3903,"is_reserved":false,"is_disabled":false,"rental_uris":{"android":"levelo://app?vid=b6695ec0-3a40-4364-bfe0-1c8418a10eae","ios":"levelo://app?vid=b6695ec0-3a40-4364-bfe0-1c8418a10eae"},"vehicle_type_id":"4","last_reported":1724526368,"current_range_meters":28000,"station_id":"ce4bgup2rcd13ifvqco0","pricing_plan_id":"cebpf4jnsgd1na2vs0mg"},{"bike_id":"9a2eb46f-5ae9-4159-a154-e656f0b844d0","system_id":"levelo_inurba_marseille","lat":43.30953,"lon":5.39031,"is_reserved":false,"is_disabled":false,"rental_uris":{"android":"levelo://app?vid=9a2eb46f-5ae9-4159-a154-e656f0b844d0","ios":"levelo://app?vid=9a2eb46f-5ae9-4159-a154-e656f0b844d0"},"vehicle_type_id":"4","last_reported":1724526368,"current_range_meters":0,"station_id":"ce4bgup2rcd13ifvqco0","pricing_plan_id":"cebpf4jnsgd1na2vs0mg"},{"bike_id":"24e60863-f82c-47d3-8c58-25d942be02ce","system_id":"levelo_inurba_marseille","lat":43.309589,"lon":5.390258,"is_reserved":false,"is_disabled":false,"rental_uris":{"android":"levelo://app?vid=24e60863-f82c-47d3-8c58-25d942be02ce","ios":"levelo://app?vid=24e60863-f82c-47d3-8c58-25d942be02ce"},"vehicle_type_id":"4","last_reported":1724526368,"current_range_meters":17600,"station_id":"ce4bgup2rcd13ifvqco0","pricing_plan_id":"cebpf4jnsgd1na2vs0mg"},{"bike_id":"470f6c6b-0b49-4f37-a3a4-37a5beb2b8be","system_id":"levelo_inurba_marseille","lat":43.30952,"lon":5.39031,"is_reserved":false,"is_disabled":false,"rental_uris":{"android":"levelo://app?vid=470f6c6b-0b49-4f37-a3a4-37a5beb2b8be","ios":"levelo://app?vid=470f6c6b-0b49-4f37-a3a4-37a5beb2b8be"},"vehicle_type_id":"4","last_reported":1724526368,"current_range_meters":8800,"station_id":"ce4bgup2rcd13ifvqco0","pricing_plan_id":"cebpf4jnsgd1na2vs0mg"},{"bike_id":"35e48a9a-0152-49ad-8051-5e63fd284b38","system_id":"levelo_inurba_marseille","lat":43.309589,"lon":5.390258,"is_reserved":false,"is_disabled":false,"rental_uris":{"android":"levelo://app?vid=35e48a9a-0152-49ad-8051-5e63fd284b38","ios":"levelo://app?vid=35e48a9a-0152-49ad-8051-5e63fd284b38"},"vehicle_type_id":"4","last_reported":1724526368,"current_range_meters":0,"station_id":"ce4bgup2rcd13ifvqco0","pricing_plan_id":"cebpf4jnsgd1na2vs0mg"},{"bike_id":"5dd8dfef-bf27-4a0e-87de-dd53d43d090e","system_id":"levelo_inurba_marseille","lat":43.309589,"lon":5.390258,"is_reserved":false,"is_disabled":false,"rental_uris":{"android":"levelo://app?vid=5dd8dfef-bf27-4a0e-87de-dd53d43d090e","ios":"levelo://app?vid=5dd8dfef-bf27-4a0e-87de-dd53d43d090e"},"vehicle_type_id":"4","last_reported":1724526368,"current_range_meters":10000,"station_id":"ce4bgup2rcd13ifvqco0","pricing_plan_id":"cebpf4jnsgd1na2vs0mg"},{"bike_id":"8042725f-4bb2-41a7-87ed-6986cc736c43","system_id":"levelo_inurba_marseille","lat":43.30949,"lon":5.39031,"is_reserved":false,"is_disabled":false,"rental_uris":{"android":"levelo://app?vid=8042725f-4bb2-41a7-87ed-6986cc736c43","ios":"levelo://app?vid=8042725f-4bb2-41a7-87ed-6986cc736c43"},"vehicle_type_id":"4","last_reported":1724526368,"current_range_meters":20000,"station_id":"ce4bgup2rcd13ifvqco0","pricing_plan_id":"cebpf4jnsgd1na2vs0mg"},{"bike_id":"6fb85fc5-8215-4242-a89f-1e86d5325de3","system_id":"levelo_inurba_marseille","lat":43.309589,"lon":5.390258,"is_reserved":false,"is_disabled":false,"rental_uris":{"android":"levelo://app?vid=6fb85fc5-8215-4242-a89f-1e86d5325de3","ios":"levelo://app?vid=6fb85fc5-8215-4242-a89f-1e86d5325de3"},"vehicle_type_id":"4","last_reported":1724526368,"current_range_meters":2800,"station_id":"ce4bgup2rcd13ifvqco0","pricing_plan_id":"cebpf4jnsgd1na2vs0mg"},{"bike_id":"b61c134e-ec20-47e8-b3ba-aafecdec5d8d","system_id":"levelo_inurba_marseille","lat":43.309589,"lon":5.390258,"is_reserved":false,"is_disabled":false,"rental_uris":{"android":"levelo://app?vid=b61c134e-ec20-47e8-b3ba-aafecdec5d8d","ios":"levelo://app?vid=b61c134e-ec20-47e8-b3ba-aafecdec5d8d"},"vehicle_type_id":"4","last_reported":1724526368,"current_range_meters":800,"station_id":"ce4bgup2rcd13ifvqco0","pricing_plan_id":"cebpf4jnsgd1na2vs0mg"},{"bike_id":"4735e798-061a-4583-8e86-ad45c8a48554","system_id":"levelo_inurba_marseille","lat":43.309589,"lon":5.390258,"is_reserved":false,"is_disabled":false,"rental_uris":{"android":"levelo://app?vid=4735e798-061a-4583-8e86-ad45c8a48554","ios":"levelo://app?vid=4735e798-061a-4583-8e86-ad45c8a48554"},"vehicle_type_id":"4","last_reported":1724526368,"current_range_meters":28400,"station_id":"ce4bgup2rcd13ifvqco0","pricing_plan_id":"cebpf4jnsgd1na2vs0mg"},{"bike_id":"ed1f3f57-afc1-4926-8206-d70e34b59a2c","system_id":"levelo_inurba_marseille","lat":43.309589,"lon":5.390258,"is_reserved":false,"is_disabled":false,"rental_uris":{"android":"levelo://app?vid=ed1f3f57-afc1-4926-8206-d70e34b59a2c","ios":"levelo://app?vid=ed1f3f57-afc1-4926-8206-d70e34b59a2c"},"vehicle_type_id":"4","last_reported":1724526368,"current_range_meters":26800,"station_id":"ce4bgup2rcd13ifvqco0","pricing_plan_id":"cebpf4jnsgd1na2vs0mg"},{"bike_id":"1f364877-8a8f-423d-ae4d-d5b25ad90739","system_id":"levelo_inurba_marseille","lat":43.309589,"lon":5.390258,"is_reserved":false,"is_disabled":false,"rental_uris":{"android":"levelo://app?vid=1f364877-8a8f-423d-ae4d-d5b25ad90739","ios":"levelo://app?vid=1f364877-8a8f-423d-ae4d-d5b25ad90739"},"vehicle_type_id":"4","last_reported":1724526368,"current_range_meters":800,"station_id":"ce4bgup2rcd13ifvqco0","pricing_plan_id":"cebpf4jnsgd1na2vs0mg"},{"bike_id":"41b34938-9c7a-4a05-bbe8-c8b64182c776","system_id":"levelo_inurba_marseille","lat":43.309589,"lon":5.390258,"is_reserved":false,"is_disabled":false,"rental_uris":{"android":"levelo://app?vid=41b34938-9c7a-4a05-bbe8-c8b64182c776","ios":"levelo://app?vid=41b34938-9c7a-4a05-bbe8-c8b64182c776"},"vehicle_type_id":"4","last_reported":1724526368,"current_range_meters":12000,"station_id":"ce4bgup2rcd13ifvqco0","pricing_plan_id":"cebpf4jnsgd1na2vs0mg"},{"bike_id":"050850e2-6ff8-4312-bc99-683ef83b6768","system_id":"levelo_inurba_marseille","lat":43.30952,"lon":5.39035,"is_reserved":false,"is_disabled":false,"rental_uris":{"android":"levelo://app?vid=050850e2-6ff8-4312-bc99-683ef83b6768","ios":"levelo://app?vid=050850e2-6ff8-4312-bc99-683ef83b6768"},"vehicle_type_id":"4","last_reported":1724526368,"current_range_meters":5600,"station_id":"ce4bgup2rcd13ifvqco0","pricing_plan_id":"cebpf4jnsgd1na2vs0mg"},{"bike_id":"e0c522ff-da09-4e78-9d93-6ccb956ec04d","system_id":"levelo_inurba_marseille","lat":43.309589,"lon":5.390258,"is_reserved":false,"is_disabled":false,"rental_uris":{"android":"levelo://app?vid=e0c522ff-da09-4e78-9d93-6ccb956ec04d","ios":"levelo://app?vid=e0c522ff-da09-4e78-9d93-6ccb956ec04d"},"vehicle_type_id":"4","last_reported":1724526368,"current_range_meters":30400,"station_id":"ce4bgup2rcd13ifvqco0","pricing_plan_id":"cebpf4jnsgd1na2vs0mg"},{"bike_id":"88c9ef06-d40f-4442-986f-bbe9023b307d","system_id":"levelo_inurba_marseille","lat":43.309589,"lon":5.390258,"is_reserved":false,"is_disabled":false,"rental_uris":{"android":"levelo://app?vid=88c9ef06-d40f-4442-986f-bbe9023b307d","ios":"levelo://app?vid=88c9ef06-d40f-4442-986f-bbe9023b307d"},"vehicle_type_id":"4","last_reported":1724526368,"current_range_meters":3200,"station_id":"ce4bgup2rcd13ifvqco0","pricing_plan_id":"cebpf4jnsgd1na2vs0mg"},{"bike_id":"66f794da-c2a1-4d2e-8515-f13937689b11","system_id":"levelo_inurba_marseille","lat":43.309589,"lon":5.390258,"is_reserved":false,"is_disabled":false,"rental_uris":{"android":"levelo://app?vid=66f794da-c2a1-4d2e-8515-f13937689b11","ios":"levelo://app?vid=66f794da-c2a1-4d2e-8515-f13937689b11"},"vehicle_type_id":"4","last_reported":1724526368,"current_range_meters":27200,"station_id":"ce4bgup2rcd13ifvqco0","pricing_plan_id":"cebpf4jnsgd1na2vs0mg"},{"bike_id":"4f4986e3-a20c-4fee-8fa1-130da3c2a2f6","system_id":"levelo_inurba_marseille","lat":43.309589,"lon":5.390258,"is_reserved":false,"is_disabled":false,"rental_uris":{"android":"levelo://app?vid=4f4986e3-a20c-4fee-8fa1-130da3c2a2f6","ios":"levelo://app?vid=4f4986e3-a20c-4fee-8fa1-130da3c2a2f6"},"vehicle_type_id":"4","last_reported":1724526368,"current_range_meters":19200,"station_id":"ce4bgup2rcd13ifvqco0","pricing_plan_id":"cebpf4jnsgd1na2vs0mg"},{"bike_id":"1f3f2a48-722c-4808-8dd1-c32c1d6fadf2","system_id":"levelo_inurba_marseille","lat":43.30951,"lon":5.39039,"is_reserved":false,"is_disabled":false,"rental_uris":{"android":"levelo://app?vid=1f3f2a48-722c-4808-8dd1-c32c1d6fadf2","ios":"levelo://app?vid=1f3f2a48-722c-4808-8dd1-c32c1d6fadf2"},"vehicle_type_id":"4","last_reported":1724526368,"current_range_meters":23600,"station_id":"ce4bgup2rcd13ifvqco0","pricing_plan_id":"cebpf4jnsgd1na2vs0mg"},{"bike_id":"b122fe4b-6a28-4985-bd85-dbb895b6fad1","system_id":"levelo_inurba_marseille","lat":43.309589,"lon":5.390258,"is_reserved":false,"is_disabled":false,"rental_uris":{"android":"levelo://app?vid=b122fe4b-6a28-4985-bd85-dbb895b6fad1","ios":"levelo://app?vid=b122fe4b-6a28-4985-bd85-dbb895b6fad1"},"vehicle_type_id":"4","last_reported":1724526368,"current_range_meters":7200,"station_id":"ce4bgup2rcd13ifvqco0","pricing_plan_id":"cebpf4jnsgd1na2vs0mg"},{"bike_id":"1708a3d8-1a68-4dca-b3e0-dbfcfe42bb75","system_id":"levelo_inurba_marseille","lat":43.30949,"lon":5.3904,"is_reserved":false,"is_disabled":false,"rental_uris":{"android":"levelo://app?vid=1708a3d8-1a68-4dca-b3e0-dbfcfe42bb75","ios":"levelo://app?vid=1708a3d8-1a68-4dca-b3e0-dbfcfe42bb75"},"vehicle_type_id":"4","last_reported":1724526368,"current_range_meters":24400,"station_id":"ce4bgup2rcd13ifvqco0","pricing_plan_id":"cebpf4jnsgd1na2vs0mg"},{"bike_id":"46ee0dec-0485-4ab7-8cb2-e0c4127406bb","system_id":"levelo_inurba_marseille","lat":43.30952,"lon":5.39042,"is_reserved":false,"is_disabled":false,"rental_uris":{"android":"levelo://app?vid=46ee0dec-0485-4ab7-8cb2-e0c4127406bb","ios":"levelo://app?vid=46ee0dec-0485-4ab7-8cb2-e0c4127406bb"},"vehicle_type_id":"4","last_reported":1724526368,"current_range_meters":8000,"station_id":"ce4bgup2rcd13ifvqco0","pricing_plan_id":"cebpf4jnsgd1na2vs0mg"},{"bike_id":"7279b04a-37fa-4d7b-883b-296b5256b4ee","system_id":"levelo_inurba_marseille","lat":43.309589,"lon":5.390258,"is_reserved":false,"is_disabled":false,"rental_uris":{"android":"levelo://app?vid=7279b04a-37fa-4d7b-883b-296b5256b4ee","ios":"levelo://app?vid=7279b04a-37fa-4d7b-883b-296b5256b4ee"},"vehicle_type_id":"4","last_reported":1724526368,"current_range_meters":18000,"station_id":"ce4bgup2rcd13ifvqco0","pricing_plan_id":"cebpf4jnsgd1na2vs0mg"},{"bike_id":"b489bf1f-fee7-4963-af90-1a4f9b3af33d","system_id":"levelo_inurba_marseille","lat":43.309589,"lon":5.390258,"is_reserved":false,"is_disabled":false,"rental_uris":{"android":"levelo://app?vid=b489bf1f-fee7-4963-af90-1a4f9b3af33d","ios":"levelo://app?vid=b489bf1f-fee7-4963-af90-1a4f9b3af33d"},"vehicle_type_id":"4","last_reported":1724526368,"current_range_meters":4400,"station_id":"ce4bgup2rcd13ifvqco0","pricing_plan_id":"cebpf4jnsgd1na2vs0mg"},{"bike_id":"fcae7e7c-ee0d-482e-9622-822491cbd944","system_id":"levelo_inurba_marseille","lat":43.309589,"lon":5.390258,"is_reserved":false,"is_disabled":false,"rental_uris":{"android":"levelo://app?vid=fcae7e7c-ee0d-482e-9622-822491cbd944","ios":"levelo://app?vid=fcae7e7c-ee0d-482e-9622-822491cbd944"},"vehicle_type_id":"4","last_reported":1724526368,"current_range_meters":23600,"station_id":"ce4bgup2rcd13ifvqco0","pricing_plan_id":"cebpf4jnsgd1na2vs0mg"},{"bike_id":"efd9a2b9-3c4f-47a1-8f42-67ff6a525b75","system_id":"levelo_inurba_marseille","lat":43.309589,"lon":5.390258,"is_reserved":false,"is_disabled":false,"rental_uris":{"android":"levelo://app?vid=efd9a2b9-3c4f-47a1-8f42-67ff6a525b75","ios":"levelo://app?vid=efd9a2b9-3c4f-47a1-8f42-67ff6a525b75"},"vehicle_type_id":"4","last_reported":1724526368,"current_range_meters":29600,"station_id":"ce4bgup2rcd13ifvqco0","pricing_plan_id":"cebpf4jnsgd1na2vs0mg"},{"bike_id":"0ad1760d-d859-4780-b833-4721ae04fc80","system_id":"levelo_inurba_marseille","lat":43.317557,"lon":5.390173,"is_reserved":false,"is_disabled":false,"rental_uris":{"android":"levelo://app?vid=0ad1760d-d859-4780-b833-4721ae04fc80","ios":"levelo://app?vid=0ad1760d-d859-4780-b833-4721ae04fc80"},"vehicle_type_id":"4","last_reported":1724526368,"current_range_meters":11600,"station_id":"ce4bhqp2rcd13ifvqhng","pricing_plan_id":"cebpf4jnsgd1na2vs0mg"},{"bike_id":"80ea3ef3-f9dd-4fb6-906e-e039bc6fce90","system_id":"levelo_inurba_marseille","lat":43.317557,"lon":5.390173,"is_reserved":false,"is_disabled":false,"rental_uris":{"android":"levelo://app?vid=80ea3ef3-f9dd-4fb6-906e-e039bc6fce90","ios":"levelo://app?vid=80ea3ef3-f9dd-4fb6-906e-e039bc6fce90"},"vehicle_type_id":"4","last_reported":1724526368,"current_range_meters":17200,"station_id":"ce4bhqp2rcd13ifvqhng","pricing_plan_id":"cebpf4jnsgd1na2vs0mg"},{"bike_id":"681258e1-bcb6-4492-b715-bf9b04802ff5","system_id":"levelo_inurba_marseille","lat":43.309589,"lon":5.390258,"is_reserved":false,"is_disabled":false,"rental_uris":{"android":"levelo://app?vid=681258e1-bcb6-4492-b715-bf9b04802ff5","ios":"levelo://app?vid=681258e1-bcb6-4492-b715-bf9b04802ff5"},"vehicle_type_id":"4","last_reported":1724526368,"current_range_meters":11200,"station_id":"ce4bgup2rcd13ifvqco0","pricing_plan_id":"cebpf4jnsgd1na2vs0mg"},{"bike_id":"5008b4d7-87c5-41bd-9a7e-cc3967941a3c","system_id":"levelo_inurba_marseille","lat":43.317557,"lon":5.390173,"is_reserved":false,"is_disabled":false,"rental_uris":{"android":"levelo://app?vid=5008b4d7-87c5-41bd-9a7e-cc3967941a3c","ios":"levelo://app?vid=5008b4d7-87c5-41bd-9a7e-cc3967941a3c"},"vehicle_type_id":"4","last_reported":1724526368,"current_range_meters":10400,"station_id":"ce4bhqp2rcd13ifvqhng","pricing_plan_id":"cebpf4jnsgd1na2vs0mg"},{"bike_id":"b28c1eb0-88f9-4a6f-9d0a-75be174f97cc","system_id":"levelo_inurba_marseille","lat":43.317557,"lon":5.390173,"is_reserved":false,"is_disabled":false,"rental_uris":{"android":"levelo://app?vid=b28c1eb0-88f9-4a6f-9d0a-75be174f97cc","ios":"levelo://app?vid=b28c1eb0-88f9-4a6f-9d0a-75be174f97cc"},"vehicle_type_id":"4","last_reported":1724526368,"current_range_meters":6400,"station_id":"ce4bhqp2rcd13ifvqhng","pricing_plan_id":"cebpf4jnsgd1na2vs0mg"},{"bike_id":"1ac463eb-bcb8-49d1-8b5d-3e30332d0c08","system_id":"levelo_inurba_marseille","lat":43.317557,"lon":5.390173,"is_reserved":false,"is_disabled":false,"rental_uris":{"android":"levelo://app?vid=1ac463eb-bcb8-49d1-8b5d-3e30332d0c08","ios":"levelo://app?vid=1ac463eb-bcb8-49d1-8b5d-3e30332d0c08"},"vehicle_type_id":"4","last_reported":1724526368,"current_range_meters":25200,"station_id":"ce4bhqp2rcd13ifvqhng","pricing_plan_id":"cebpf4jnsgd1na2vs0mg"},{"bike_id":"3fcc5583-433c-4f0e-ae13-015eb81fafbb","system_id":"levelo_inurba_marseille","lat":43.309589,"lon":5.390258,"is_reserved":false,"is_disabled":false,"rental_uris":{"android":"levelo://app?vid=3fcc5583-433c-4f0e-ae13-015eb81fafbb","ios":"levelo://app?vid=3fcc5583-433c-4f0e-ae13-015eb81fafbb"},"vehicle_type_id":"4","last_reported":1724526368,"current_range_meters":25200,"station_id":"ce4bgup2rcd13ifvqco0","pricing_plan_id":"cebpf4jnsgd1na2vs0mg"},{"bike_id":"5546039b-b132-46a4-a125-611a2130ad27","system_id":"levelo_inurba_marseille","lat":43.29807,"lon":5.38081,"is_reserved":false,"is_disabled":false,"rental_uris":{"android":"levelo://app?vid=5546039b-b132-46a4-a125-611a2130ad27","ios":"levelo://app?vid=5546039b-b132-46a4-a125-611a2130ad27"},"vehicle_type_id":"4","last_reported":1724526368,"current_range_meters":0,"station_id":"ce4bgip2rcd13ifvqbb0","pricing_plan_id":"cebpf4jnsgd1na2vs0mg"},{"bike_id":"4e93fcf5-02c3-4093-9056-ee33a2b79305","system_id":"levelo_inurba_marseille","lat":43.295736,"lon":5.375135,"is_reserved":false,"is_disabled":false,"rental_uris":{"android":"levelo://app?vid=4e93fcf5-02c3-4093-9056-ee33a2b79305","ios":"levelo://app?vid=4e93fcf5-02c3-4093-9056-ee33a2b79305"},"vehicle_type_id":"4","last_reported":1724526368,"current_range_meters":4400,"station_id":"","pricing_plan_id":"cebpf4jnsgd1na2vs0mg"},{"bike_id":"3a686073-bc11-4ffe-be36-efcaf570fd47","system_id":"levelo_inurba_marseille","lat":43.304278,"lon":5.388868,"is_reserved":false,"is_disabled":false,"rental_uris":{"android":"levelo://app?vid=3a686073-bc11-4ffe-be36-efcaf570fd47","ios":"levelo://app?vid=3a686073-bc11-4ffe-be36-efcaf570fd47"},"vehicle_type_id":"4","last_reported":1724526368,"current_range_meters":2800,"station_id":"ce4bgk12rcd13ifvqbi0","pricing_plan_id":"cebpf4jnsgd1na2vs0mg"},{"bike_id":"35cd3d58-400a-4771-9853-ad39a8b51c60","system_id":"levelo_inurba_marseille","lat":43.298037,"lon":5.381066,"is_reserved":false,"is_disabled":false,"rental_uris":{"android":"levelo://app?vid=35cd3d58-400a-4771-9853-ad39a8b51c60","ios":"levelo://app?vid=35cd3d58-400a-4771-9853-ad39a8b51c60"},"vehicle_type_id":"4","last_reported":1724526368,"current_range_meters":1600,"station_id":"ce4bgip2rcd13ifvqbb0","pricing_plan_id":"cebpf4jnsgd1na2vs0mg"},{"bike_id":"505ddd81-c457-4c56-8d4a-fe94eb8bd300","system_id":"levelo_inurba_marseille","lat":43.296263,"lon":5.377094,"is_reserved":false,"is_disabled":false,"rental_uris":{"android":"levelo://app?vid=505ddd81-c457-4c56-8d4a-fe94eb8bd300","ios":"levelo://app?vid=505ddd81-c457-4c56-8d4a-fe94eb8bd300"},"vehicle_type_id":"4","last_reported":1724526368,"current_range_meters":19600,"station_id":"ce4bgi92rcd13ifvqb90","pricing_plan_id":"cebpf4jnsgd1na2vs0mg"},{"bike_id":"0b8bb0cc-5b91-4574-aa02-1365eaf063b8","system_id":"levelo_inurba_marseille","lat":43.295748,"lon":5.37522,"is_reserved":false,"is_disabled":false,"rental_uris":{"android":"levelo://app?vid=0b8bb0cc-5b91-4574-aa02-1365eaf063b8","ios":"levelo://app?vid=0b8bb0cc-5b91-4574-aa02-1365eaf063b8"},"vehicle_type_id":"4","last_reported":1724526368,"current_range_meters":28800,"station_id":"ce4bgh92rcd13ifvqb50","pricing_plan_id":"cebpf4jnsgd1na2vs0mg"},{"bike_id":"edcb3c41-0abe-4162-8009-a4d7b12427df","system_id":"levelo_inurba_marseille","lat":43.29571,"lon":5.375278,"is_reserved":false,"is_disabled":false,"rental_uris":{"android":"levelo://app?vid=edcb3c41-0abe-4162-8009-a4d7b12427df","ios":"levelo://app?vid=edcb3c41-0abe-4162-8009-a4d7b12427df"},"vehicle_type_id":"4","last_reported":1724526368,"current_range_meters":0,"station_id":"","pricing_plan_id":"cebpf4jnsgd1na2vs0mg"},{"bike_id":"72931a30-ace9-445e-b047-82d8af6e8f72","system_id":"levelo_inurba_marseille","lat":43.29569,"lon":5.37524,"is_reserved":false,"is_disabled":false,"rental_uris":{"android":"levelo://app?vid=72931a30-ace9-445e-b047-82d8af6e8f72","ios":"levelo://app?vid=72931a30-ace9-445e-b047-82d8af6e8f72"},"vehicle_type_id":"4","last_reported":1724526368,"current_range_meters":12000,"station_id":"ce4bgh92rcd13ifvqb50","pricing_plan_id":"cebpf4jnsgd1na2vs0mg"},{"bike_id":"4f1ce666-9678-4bfa-818d-9de7499a2a4d","system_id":"levelo_inurba_marseille","lat":43.298037,"lon":5.381066,"is_reserved":false,"is_disabled":false,"rental_uris":{"android":"levelo://app?vid=4f1ce666-9678-4bfa-818d-9de7499a2a4d","ios":"levelo://app?vid=4f1ce666-9678-4bfa-818d-9de7499a2a4d"},"vehicle_type_id":"4","last_reported":1724526368,"current_range_meters":6000,"station_id":"ce4bgip2rcd13ifvqbb0","pricing_plan_id":"cebpf4jnsgd1na2vs0mg"},{"bike_id":"139461e5-827a-4aab-a069-65623850c574","system_id":"levelo_inurba_marseille","lat":43.296263,"lon":5.377094,"is_reserved":false,"is_disabled":false,"rental_uris":{"android":"levelo://app?vid=139461e5-827a-4aab-a069-65623850c574","ios":"levelo://app?vid=139461e5-827a-4aab-a069-65623850c574"},"vehicle_type_id":"4","last_reported":1724526368,"current_range_meters":20400,"station_id":"ce4bgi92rcd13ifvqb90","pricing_plan_id":"cebpf4jnsgd1na2vs0mg"},{"bike_id":"bd47e5e5-1073-46d9-886d-244cdf9a1569","system_id":"levelo_inurba_marseille","lat":43.295279,"lon":5.375048,"is_reserved":false,"is_disabled":false,"rental_uris":{"android":"levelo://app?vid=bd47e5e5-1073-46d9-886d-244cdf9a1569","ios":"levelo://app?vid=bd47e5e5-1073-46d9-886d-244cdf9a1569"},"vehicle_type_id":"4","last_reported":1724526368,"current_range_meters":2400,"station_id":"ce4bgkp2rcd13ifvqbmg","pricing_plan_id":"cebpf4jnsgd1na2vs0mg"},{"bike_id":"190be481-ac54-4604-b78b-213a6a1245de","system_id":"levelo_inurba_marseille","lat":43.295279,"lon":5.375048,"is_reserved":false,"is_disabled":false,"rental_uris":{"android":"levelo://app?vid=190be481-ac54-4604-b78b-213a6a1245de","ios":"levelo://app?vid=190be481-ac54-4604-b78b-213a6a1245de"},"vehicle_type_id":"4","last_reported":1724526368,"current_range_meters":30000,"station_id":"ce4bgkp2rcd13ifvqbmg","pricing_plan_id":"cebpf4jnsgd1na2vs0mg"},{"bike_id":"3c15aa75-8166-40bf-a04b-1215b6fc3c69","system_id":"levelo_inurba_marseille","lat":43.299717,"lon":5.384845,"is_reserved":false,"is_disabled":false,"rental_uris":{"android":"levelo://app?vid=3c15aa75-8166-40bf-a04b-1215b6fc3c69","ios":"levelo://app?vid=3c15aa75-8166-40bf-a04b-1215b6fc3c69"},"vehicle_type_id":"4","last_reported":1724526368,"current_range_meters":0,"station_id":"ce4bgj92rcd13ifvqbd0","pricing_plan_id":"cebpf4jnsgd1na2vs0mg"},{"bike_id":"d2a84695-7b77-46f0-82a3-fd6d01cf4839","system_id":"levelo_inurba_marseille","lat":43.299717,"lon":5.384845,"is_reserved":false,"is_disabled":false,"rental_uris":{"android":"levelo://app?vid=d2a84695-7b77-46f0-82a3-fd6d01cf4839","ios":"levelo://app?vid=d2a84695-7b77-46f0-82a3-fd6d01cf4839"},"vehicle_type_id":"4","last_reported":1724526368,"current_range_meters":4800,"station_id":"ce4bgj92rcd13ifvqbd0","pricing_plan_id":"cebpf4jnsgd1na2vs0mg"},{"bike_id":"73198454-7efd-419e-84c2-c514fd65bf0c","system_id":"levelo_inurba_marseille","lat":43.299717,"lon":5.384845,"is_reserved":false,"is_disabled":false,"rental_uris":{"android":"levelo://app?vid=73198454-7efd-419e-84c2-c514fd65bf0c","ios":"levelo://app?vid=73198454-7efd-419e-84c2-c514fd65bf0c"},"vehicle_type_id":"4","last_reported":1724526368,"current_range_meters":17200,"station_id":"ce4bgj92rcd13ifvqbd0","pricing_plan_id":"cebpf4jnsgd1na2vs0mg"},{"bike_id":"dfb9da47-0975-4f86-a4f2-1fb93e112905","system_id":"levelo_inurba_marseille","lat":43.301396,"lon":5.387812,"is_reserved":false,"is_disabled":false,"rental_uris":{"android":"levelo://app?vid=dfb9da47-0975-4f86-a4f2-1fb93e112905","ios":"levelo://app?vid=dfb9da47-0975-4f86-a4f2-1fb93e112905"},"vehicle_type_id":"4","last_reported":1724526368,"current_range_meters":10400,"station_id":"ce4bghh2rcd13ifvqb60","pricing_plan_id":"cebpf4jnsgd1na2vs0mg"},{"bike_id":"df850a44-191c-4fbc-9507-290798c73a1c","system_id":"levelo_inurba_marseille","lat":43.309589,"lon":5.390258,"is_reserved":false,"is_disabled":false,"rental_uris":{"android":"levelo://app?vid=df850a44-191c-4fbc-9507-290798c73a1c","ios":"levelo://app?vid=df850a44-191c-4fbc-9507-290798c73a1c"},"vehicle_type_id":"4","last_reported":1724526368,"current_range_meters":2000,"station_id":"ce4bgup2rcd13ifvqco0","pricing_plan_id":"cebpf4jnsgd1na2vs0mg"},{"bike_id":"1595b4b9-ae48-4cf5-b18f-d21b42e3cd97","system_id":"levelo_inurba_marseille","lat":43.32367,"lon":5.388836,"is_reserved":false,"is_disabled":false,"rental_uris":{"android":"levelo://app?vid=1595b4b9-ae48-4cf5-b18f-d21b42e3cd97","ios":"levelo://app?vid=1595b4b9-ae48-4cf5-b18f-d21b42e3cd97"},"vehicle_type_id":"4","last_reported":1724526368,"current_range_meters":21200,"station_id":"ce4bhqp2rcd13ifvqhog","pricing_plan_id":"cebpf4jnsgd1na2vs0mg"},{"bike_id":"b8347240-d429-4877-86b0-6972b0460517","system_id":"levelo_inurba_marseille","lat":43.32367,"lon":5.388836,"is_reserved":false,"is_disabled":false,"rental_uris":{"android":"levelo://app?vid=b8347240-d429-4877-86b0-6972b0460517","ios":"levelo://app?vid=b8347240-d429-4877-86b0-6972b0460517"},"vehicle_type_id":"4","last_reported":1724526368,"current_range_meters":8400,"station_id":"ce4bhqp2rcd13ifvqhog","pricing_plan_id":"cebpf4jnsgd1na2vs0mg"},{"bike_id":"cb4fed20-3052-4b67-8709-b4bb27212fe0","system_id":"levelo_inurba_marseille","lat":43.32367,"lon":5.388836,"is_reserved":false,"is_disabled":false,"rental_uris":{"android":"levelo://app?vid=cb4fed20-3052-4b67-8709-b4bb27212fe0","ios":"levelo://app?vid=cb4fed20-3052-4b67-8709-b4bb27212fe0"},"vehicle_type_id":"4","last_reported":1724526368,"current_range_meters":22000,"station_id":"ce4bhqp2rcd13ifvqhog","pricing_plan_id":"cebpf4jnsgd1na2vs0mg"},{"bike_id":"acff9f54-2471-4ae7-b866-7ddc6175db9a","system_id":"levelo_inurba_marseille","lat":43.29602,"lon":5.381084,"is_reserved":false,"is_disabled":false,"rental_uris":{"android":"levelo://app?vid=acff9f54-2471-4ae7-b866-7ddc6175db9a","ios":"levelo://app?vid=acff9f54-2471-4ae7-b866-7ddc6175db9a"},"vehicle_type_id":"4","last_reported":1724526368,"current_range_meters":21600,"station_id":"ce4bgl12rcd13ifvqbo0","pricing_plan_id":"cebpf4jnsgd1na2vs0mg"},{"bike_id":"3055b993-3d5a-4aae-8559-9a3be594b2e4","system_id":"levelo_inurba_marseille","lat":43.29602,"lon":5.381084,"is_reserved":false,"is_disabled":false,"rental_uris":{"android":"levelo://app?vid=3055b993-3d5a-4aae-8559-9a3be594b2e4","ios":"levelo://app?vid=3055b993-3d5a-4aae-8559-9a3be594b2e4"},"vehicle_type_id":"4","last_reported":1724526368,"current_range_meters":8000,"station_id":"ce4bgl12rcd13ifvqbo0","pricing_plan_id":"cebpf4jnsgd1na2vs0mg"},{"bike_id":"dfe3ed19-d084-41a6-b155-8bf63d15e458","system_id":"levelo_inurba_marseille","lat":43.29602,"lon":5.381084,"is_reserved":false,"is_disabled":false,"rental_uris":{"android":"levelo://app?vid=dfe3ed19-d084-41a6-b155-8bf63d15e458","ios":"levelo://app?vid=dfe3ed19-d084-41a6-b155-8bf63d15e458"},"vehicle_type_id":"4","last_reported":1724526368,"current_range_meters":24800,"station_id":"ce4bgl12rcd13ifvqbo0","pricing_plan_id":"cebpf4jnsgd1na2vs0mg"},{"bike_id":"3815cea5-6ead-4dc6-a045-3ababb6d0c8e","system_id":"levelo_inurba_marseille","lat":43.29602,"lon":5.381084,"is_reserved":false,"is_disabled":false,"rental_uris":{"android":"levelo://app?vid=3815cea5-6ead-4dc6-a045-3ababb6d0c8e","ios":"levelo://app?vid=3815cea5-6ead-4dc6-a045-3ababb6d0c8e"},"vehicle_type_id":"4","last_reported":1724526368,"current_range_meters":24000,"station_id":"ce4bgl12rcd13ifvqbo0","pricing_plan_id":"cebpf4jnsgd1na2vs0mg"},{"bike_id":"ecea9a7e-2d19-4650-8295-e9fd9495aa18","system_id":"levelo_inurba_marseille","lat":43.29604,"lon":5.38099,"is_reserved":false,"is_disabled":false,"rental_uris":{"android":"levelo://app?vid=ecea9a7e-2d19-4650-8295-e9fd9495aa18","ios":"levelo://app?vid=ecea9a7e-2d19-4650-8295-e9fd9495aa18"},"vehicle_type_id":"4","last_reported":1724526368,"current_range_meters":20000,"station_id":"","pricing_plan_id":"cebpf4jnsgd1na2vs0mg"},{"bike_id":"d57d7b9e-61d9-4fc1-beb0-d5ed7207cac2","system_id":"levelo_inurba_marseille","lat":43.29602,"lon":5.381084,"is_reserved":false,"is_disabled":false,"rental_uris":{"android":"levelo://app?vid=d57d7b9e-61d9-4fc1-beb0-d5ed7207cac2","ios":"levelo://app?vid=d57d7b9e-61d9-4fc1-beb0-d5ed7207cac2"},"vehicle_type_id":"4","last_reported":1724526368,"current_range_meters":6800,"station_id":"ce4bgl12rcd13ifvqbo0","pricing_plan_id":"cebpf4jnsgd1na2vs0mg"},{"bike_id":"aa8cf428-93d1-436f-8910-84d5c0da3194","system_id":"levelo_inurba_marseille","lat":43.29602,"lon":5.381084,"is_reserved":false,"is_disabled":false,"rental_uris":{"android":"levelo://app?vid=aa8cf428-93d1-436f-8910-84d5c0da3194","ios":"levelo://app?vid=aa8cf428-93d1-436f-8910-84d5c0da3194"},"vehicle_type_id":"4","last_reported":1724526368,"current_range_meters":5600,"station_id":"ce4bgl12rcd13ifvqbo0","pricing_plan_id":"cebpf4jnsgd1na2vs0mg"},{"bike_id":"821965ad-6091-4cc6-81c8-2e8135c73e40","system_id":"levelo_inurba_marseille","lat":43.29287,"lon":5.36831,"is_reserved":false,"is_disabled":false,"rental_uris":{"android":"levelo://app?vid=821965ad-6091-4cc6-81c8-2e8135c73e40","ios":"levelo://app?vid=821965ad-6091-4cc6-81c8-2e8135c73e40"},"vehicle_type_id":"4","last_reported":1724526368,"current_range_meters":9600,"station_id":"ce4bhbp2rcd13ifvqesg","pricing_plan_id":"cebpf4jnsgd1na2vs0mg"},{"bike_id":"5ad5c5bb-573e-461e-b43c-28353d79d83e","system_id":"levelo_inurba_marseille","lat":43.292749,"lon":5.368402,"is_reserved":false,"is_disabled":false,"rental_uris":{"android":"levelo://app?vid=5ad5c5bb-573e-461e-b43c-28353d79d83e","ios":"levelo://app?vid=5ad5c5bb-573e-461e-b43c-28353d79d83e"},"vehicle_type_id":"4","last_reported":1724526368,"current_range_meters":23600,"station_id":"ce4bhbp2rcd13ifvqesg","pricing_plan_id":"cebpf4jnsgd1na2vs0mg"},{"bike_id":"94669c2d-9591-4e6d-8652-8c53a41c16f9","system_id":"levelo_inurba_marseille","lat":43.293259,"lon":5.371586,"is_reserved":false,"is_disabled":false,"rental_uris":{"android":"levelo://app?vid=94669c2d-9591-4e6d-8652-8c53a41c16f9","ios":"levelo://app?vid=94669c2d-9591-4e6d-8652-8c53a41c16f9"},"vehicle_type_id":"4","last_reported":1724526368,"current_range_meters":8800,"station_id":"ce4bgh92rcd13ifvqb40","pricing_plan_id":"cebpf4jnsgd1na2vs0mg"},{"bike_id":"10d44872-1632-41ad-8975-af74dd3f4067","system_id":"levelo_inurba_marseille","lat":43.29277,"lon":5.36846,"is_reserved":false,"is_disabled":false,"rental_uris":{"android":"levelo://app?vid=10d44872-1632-41ad-8975-af74dd3f4067","ios":"levelo://app?vid=10d44872-1632-41ad-8975-af74dd3f4067"},"vehicle_type_id":"4","last_reported":1724526368,"current_range_meters":22000,"station_id":"ce4bhbp2rcd13ifvqesg","pricing_plan_id":"cebpf4jnsgd1na2vs0mg"},{"bike_id":"b5597ca1-db0c-4a50-a513-9b9fad2d3681","system_id":"levelo_inurba_marseille","lat":43.292749,"lon":5.368402,"is_reserved":false,"is_disabled":false,"rental_uris":{"android":"levelo://app?vid=b5597ca1-db0c-4a50-a513-9b9fad2d3681","ios":"levelo://app?vid=b5597ca1-db0c-4a50-a513-9b9fad2d3681"},"vehicle_type_id":"4","last_reported":1724526368,"current_range_meters":1200,"station_id":"ce4bhbp2rcd13ifvqesg","pricing_plan_id":"cebpf4jnsgd1na2vs0mg"},{"bike_id":"26c47aaa-c26d-4f13-a83a-1413d2b97b26","system_id":"levelo_inurba_marseille","lat":43.292947,"lon":5.37174,"is_reserved":false,"is_disabled":false,"rental_uris":{"android":"levelo://app?vid=26c47aaa-c26d-4f13-a83a-1413d2b97b26","ios":"levelo://app?vid=26c47aaa-c26d-4f13-a83a-1413d2b97b26"},"vehicle_type_id":"4","last_reported":1724526368,"current_range_meters":0,"station_id":"ce4bgh92rcd13ifvqb40","pricing_plan_id":"cebpf4jnsgd1na2vs0mg"},{"bike_id":"56e00d9b-e8cd-4b10-bed4-acfa165bd660","system_id":"levelo_inurba_marseille","lat":43.293009,"lon":5.374584,"is_reserved":false,"is_disabled":false,"rental_uris":{"android":"levelo://app?vid=56e00d9b-e8cd-4b10-bed4-acfa165bd660","ios":"levelo://app?vid=56e00d9b-e8cd-4b10-bed4-acfa165bd660"},"vehicle_type_id":"4","last_reported":1724526368,"current_range_meters":12000,"station_id":"ce4bgi12rcd13ifvqb70","pricing_plan_id":"cebpf4jnsgd1na2vs0mg"},{"bike_id":"347af2b1-f174-40cb-ab97-b0287a47d1c8","system_id":"levelo_inurba_marseille","lat":43.293009,"lon":5.374584,"is_reserved":false,"is_disabled":false,"rental_uris":{"android":"levelo://app?vid=347af2b1-f174-40cb-ab97-b0287a47d1c8","ios":"levelo://app?vid=347af2b1-f174-40cb-ab97-b0287a47d1c8"},"vehicle_type_id":"4","last_reported":1724526368,"current_range_meters":8400,"station_id":"ce4bgi12rcd13ifvqb70","pricing_plan_id":"cebpf4jnsgd1na2vs0mg"},{"bike_id":"85f04faa-8955-431d-a179-6fadba1a2f52","system_id":"levelo_inurba_marseille","lat":43.293009,"lon":5.374584,"is_reserved":false,"is_disabled":false,"rental_uris":{"android":"levelo://app?vid=85f04faa-8955-431d-a179-6fadba1a2f52","ios":"levelo://app?vid=85f04faa-8955-431d-a179-6fadba1a2f52"},"vehicle_type_id":"4","last_reported":1724526368,"current_range_meters":3600,"station_id":"ce4bgi12rcd13ifvqb70","pricing_plan_id":"cebpf4jnsgd1na2vs0mg"},{"bike_id":"0779ac34-e5c6-4710-8784-81e9cfe68a37","system_id":"levelo_inurba_marseille","lat":43.293009,"lon":5.374584,"is_reserved":false,"is_disabled":false,"rental_uris":{"android":"levelo://app?vid=0779ac34-e5c6-4710-8784-81e9cfe68a37","ios":"levelo://app?vid=0779ac34-e5c6-4710-8784-81e9cfe68a37"},"vehicle_type_id":"4","last_reported":1724526368,"current_range_meters":18400,"station_id":"ce4bgi12rcd13ifvqb70","pricing_plan_id":"cebpf4jnsgd1na2vs0mg"},{"bike_id":"2519a7e2-4094-4161-b371-4d2f9ce8afaf","system_id":"levelo_inurba_marseille","lat":43.305994,"lon":5.393687,"is_reserved":false,"is_disabled":false,"rental_uris":{"android":"levelo://app?vid=2519a7e2-4094-4161-b371-4d2f9ce8afaf","ios":"levelo://app?vid=2519a7e2-4094-4161-b371-4d2f9ce8afaf"},"vehicle_type_id":"4","last_reported":1724526368,"current_range_meters":31200,"station_id":"ce4bh0p2rcd13ifvqd80","pricing_plan_id":"cebpf4jnsgd1na2vs0mg"},{"bike_id":"30f0d7b3-34d7-4f0c-921f-32c4261a90fc","system_id":"levelo_inurba_marseille","lat":43.293009,"lon":5.374584,"is_reserved":false,"is_disabled":false,"rental_uris":{"android":"levelo://app?vid=30f0d7b3-34d7-4f0c-921f-32c4261a90fc","ios":"levelo://app?vid=30f0d7b3-34d7-4f0c-921f-32c4261a90fc"},"vehicle_type_id":"4","last_reported":1724526368,"current_range_meters":23200,"station_id":"ce4bgi12rcd13ifvqb70","pricing_plan_id":"cebpf4jnsgd1na2vs0mg"},{"bike_id":"318a3dd3-6f60-4619-b4c5-f1c133b7a5da","system_id":"levelo_inurba_marseille","lat":43.293009,"lon":5.374584,"is_reserved":false,"is_disabled":false,"rental_uris":{"android":"levelo://app?vid=318a3dd3-6f60-4619-b4c5-f1c133b7a5da","ios":"levelo://app?vid=318a3dd3-6f60-4619-b4c5-f1c133b7a5da"},"vehicle_type_id":"4","last_reported":1724526368,"current_range_meters":8400,"station_id":"ce4bgi12rcd13ifvqb70","pricing_plan_id":"cebpf4jnsgd1na2vs0mg"},{"bike_id":"825baf86-5cfa-42a5-ab42-6a56bf2f733a","system_id":"levelo_inurba_marseille","lat":43.293009,"lon":5.374584,"is_reserved":false,"is_disabled":false,"rental_uris":{"android":"levelo://app?vid=825baf86-5cfa-42a5-ab42-6a56bf2f733a","ios":"levelo://app?vid=825baf86-5cfa-42a5-ab42-6a56bf2f733a"},"vehicle_type_id":"4","last_reported":1724526368,"current_range_meters":20800,"station_id":"ce4bgi12rcd13ifvqb70","pricing_plan_id":"cebpf4jnsgd1na2vs0mg"},{"bike_id":"25d327e5-204a-4bc2-a0d1-0b3a8821edde","system_id":"levelo_inurba_marseille","lat":43.29294,"lon":5.3746,"is_reserved":false,"is_disabled":false,"rental_uris":{"android":"levelo://app?vid=25d327e5-204a-4bc2-a0d1-0b3a8821edde","ios":"levelo://app?vid=25d327e5-204a-4bc2-a0d1-0b3a8821edde"},"vehicle_type_id":"4","last_reported":1724526368,"current_range_meters":25600,"station_id":"ce4bgi12rcd13ifvqb70","pricing_plan_id":"cebpf4jnsgd1na2vs0mg"},{"bike_id":"6af1b641-d92a-48b5-beea-92bd654c851f","system_id":"levelo_inurba_marseille","lat":43.293009,"lon":5.374584,"is_reserved":false,"is_disabled":false,"rental_uris":{"android":"levelo://app?vid=6af1b641-d92a-48b5-beea-92bd654c851f","ios":"levelo://app?vid=6af1b641-d92a-48b5-beea-92bd654c851f"},"vehicle_type_id":"4","last_reported":1724526368,"current_range_meters":6800,"station_id":"ce4bgi12rcd13ifvqb70","pricing_plan_id":"cebpf4jnsgd1na2vs0mg"},{"bike_id":"0c9e3681-105d-400e-be64-85a766f2d42b","system_id":"levelo_inurba_marseille","lat":43.293009,"lon":5.374584,"is_reserved":false,"is_disabled":false,"rental_uris":{"android":"levelo://app?vid=0c9e3681-105d-400e-be64-85a766f2d42b","ios":"levelo://app?vid=0c9e3681-105d-400e-be64-85a766f2d42b"},"vehicle_type_id":"4","last_reported":1724526368,"current_range_meters":19200,"station_id":"ce4bgi12rcd13ifvqb70","pricing_plan_id":"cebpf4jnsgd1na2vs0mg"},{"bike_id":"87382040-c605-45c4-9c82-fb2e3e1b0625","system_id":"levelo_inurba_marseille","lat":43.29285,"lon":5.37461,"is_reserved":false,"is_disabled":false,"rental_uris":{"android":"levelo://app?vid=87382040-c605-45c4-9c82-fb2e3e1b0625","ios":"levelo://app?vid=87382040-c605-45c4-9c82-fb2e3e1b0625"},"vehicle_type_id":"4","last_reported":1724526368,"current_range_meters":18000,"station_id":"ce4bgi12rcd13ifvqb70","pricing_plan_id":"cebpf4jnsgd1na2vs0mg"},{"bike_id":"005560f9-7efa-452e-8803-215c978c518c","system_id":"levelo_inurba_marseille","lat":43.303002,"lon":5.392142,"is_reserved":false,"is_disabled":false,"rental_uris":{"android":"levelo://app?vid=005560f9-7efa-452e-8803-215c978c518c","ios":"levelo://app?vid=005560f9-7efa-452e-8803-215c978c518c"},"vehicle_type_id":"4","last_reported":1724526368,"current_range_meters":24800,"station_id":"ce4bgkh2rcd13ifvqbk0","pricing_plan_id":"cebpf4jnsgd1na2vs0mg"},{"bike_id":"2a168217-a243-457f-8bfc-07ee87703c28","system_id":"levelo_inurba_marseille","lat":43.303002,"lon":5.392142,"is_reserved":false,"is_disabled":false,"rental_uris":{"android":"levelo://app?vid=2a168217-a243-457f-8bfc-07ee87703c28","ios":"levelo://app?vid=2a168217-a243-457f-8bfc-07ee87703c28"},"vehicle_type_id":"4","last_reported":1724526368,"current_range_meters":0,"station_id":"ce4bgkh2rcd13ifvqbk0","pricing_plan_id":"cebpf4jnsgd1na2vs0mg"},{"bike_id":"1b3db434-3899-4acc-a740-73ba5430d9a6","system_id":"levelo_inurba_marseille","lat":43.2936,"lon":5.37835,"is_reserved":false,"is_disabled":false,"rental_uris":{"android":"levelo://app?vid=1b3db434-3899-4acc-a740-73ba5430d9a6","ios":"levelo://app?vid=1b3db434-3899-4acc-a740-73ba5430d9a6"},"vehicle_type_id":"4","last_reported":1724526368,"current_range_meters":0,"station_id":"ce4bgjh2rcd13ifvqbf0","pricing_plan_id":"cebpf4jnsgd1na2vs0mg"},{"bike_id":"d86c8e52-b7ee-4e2f-9199-415d791c8b40","system_id":"levelo_inurba_marseille","lat":43.2936,"lon":5.37835,"is_reserved":false,"is_disabled":false,"rental_uris":{"android":"levelo://app?vid=d86c8e52-b7ee-4e2f-9199-415d791c8b40","ios":"levelo://app?vid=d86c8e52-b7ee-4e2f-9199-415d791c8b40"},"vehicle_type_id":"4","last_reported":1724526368,"current_range_meters":0,"station_id":"ce4bgjh2rcd13ifvqbf0","pricing_plan_id":"cebpf4jnsgd1na2vs0mg"},{"bike_id":"6b866ef8-f76b-42b1-b4c9-b43836683b54","system_id":"levelo_inurba_marseille","lat":43.302995,"lon":5.392178,"is_reserved":false,"is_disabled":false,"rental_uris":{"android":"levelo://app?vid=6b866ef8-f76b-42b1-b4c9-b43836683b54","ios":"levelo://app?vid=6b866ef8-f76b-42b1-b4c9-b43836683b54"},"vehicle_type_id":"4","last_reported":1724526368,"current_range_meters":4000,"station_id":"","pricing_plan_id":"cebpf4jnsgd1na2vs0mg"},{"bike_id":"d9f40c14-4b53-4d3c-b088-d69b81d1a694","system_id":"levelo_inurba_marseille","lat":43.293644,"lon":5.37856,"is_reserved":false,"is_disabled":false,"rental_uris":{"android":"levelo://app?vid=d9f40c14-4b53-4d3c-b088-d69b81d1a694","ios":"levelo://app?vid=d9f40c14-4b53-4d3c-b088-d69b81d1a694"},"vehicle_type_id":"4","last_reported":1724526368,"current_range_meters":6400,"station_id":"ce4bgjh2rcd13ifvqbf0","pricing_plan_id":"cebpf4jnsgd1na2vs0mg"},{"bike_id":"ac719c67-b08e-4d98-98db-cc49de4b5737","system_id":"levelo_inurba_marseille","lat":43.292313,"lon":5.360717,"is_reserved":false,"is_disabled":false,"rental_uris":{"android":"levelo://app?vid=ac719c67-b08e-4d98-98db-cc49de4b5737","ios":"levelo://app?vid=ac719c67-b08e-4d98-98db-cc49de4b5737"},"vehicle_type_id":"4","last_reported":1724526368,"current_range_meters":0,"station_id":"ce4bhbh2rcd13ifvqeqg","pricing_plan_id":"cebpf4jnsgd1na2vs0mg"},{"bike_id":"e2af8481-e7fe-4391-baae-6069d097d6d3","system_id":"levelo_inurba_marseille","lat":43.29227,"lon":5.36072,"is_reserved":false,"is_disabled":false,"rental_uris":{"android":"levelo://app?vid=e2af8481-e7fe-4391-baae-6069d097d6d3","ios":"levelo://app?vid=e2af8481-e7fe-4391-baae-6069d097d6d3"},"vehicle_type_id":"4","last_reported":1724526368,"current_range_meters":24400,"station_id":"","pricing_plan_id":"cebpf4jnsgd1na2vs0mg"},{"bike_id":"a98ee6de-3dad-4cbf-a0fc-e49d69c0e8c1","system_id":"levelo_inurba_marseille","lat":43.30085,"lon":5.390856,"is_reserved":false,"is_disabled":false,"rental_uris":{"android":"levelo://app?vid=a98ee6de-3dad-4cbf-a0fc-e49d69c0e8c1","ios":"levelo://app?vid=a98ee6de-3dad-4cbf-a0fc-e49d69c0e8c1"},"vehicle_type_id":"4","last_reported":1724526368,"current_range_meters":7200,"station_id":"ce4bh192rcd13ifvqdb0","pricing_plan_id":"cebpf4jnsgd1na2vs0mg"},{"bike_id":"b20c7712-b1b8-4f3b-bd9b-c568718eb72e","system_id":"levelo_inurba_marseille","lat":43.292311,"lon":5.360731,"is_reserved":false,"is_disabled":false,"rental_uris":{"android":"levelo://app?vid=b20c7712-b1b8-4f3b-bd9b-c568718eb72e","ios":"levelo://app?vid=b20c7712-b1b8-4f3b-bd9b-c568718eb72e"},"vehicle_type_id":"4","last_reported":1724526368,"current_range_meters":27200,"station_id":"ce4bhbh2rcd13ifvqeqg","pricing_plan_id":"cebpf4jnsgd1na2vs0mg"},{"bike_id":"988ceb80-2bc5-4d3d-9ebc-6c4bf66a0792","system_id":"levelo_inurba_marseille","lat":43.292311,"lon":5.360731,"is_reserved":false,"is_disabled":false,"rental_uris":{"android":"levelo://app?vid=988ceb80-2bc5-4d3d-9ebc-6c4bf66a0792","ios":"levelo://app?vid=988ceb80-2bc5-4d3d-9ebc-6c4bf66a0792"},"vehicle_type_id":"4","last_reported":1724526368,"current_range_meters":31200,"station_id":"ce4bhbh2rcd13ifvqeqg","pricing_plan_id":"cebpf4jnsgd1na2vs0mg"},{"bike_id":"4ea0015e-29d6-4601-9278-17717527a6db","system_id":"levelo_inurba_marseille","lat":43.292311,"lon":5.360731,"is_reserved":false,"is_disabled":false,"rental_uris":{"android":"levelo://app?vid=4ea0015e-29d6-4601-9278-17717527a6db","ios":"levelo://app?vid=4ea0015e-29d6-4601-9278-17717527a6db"},"vehicle_type_id":"4","last_reported":1724526368,"current_range_meters":0,"station_id":"ce4bhbh2rcd13ifvqeqg","pricing_plan_id":"cebpf4jnsgd1na2vs0mg"},{"bike_id":"ce49daa7-87e4-4749-85e7-6dab91519271","system_id":"levelo_inurba_marseille","lat":43.292311,"lon":5.360731,"is_reserved":false,"is_disabled":false,"rental_uris":{"android":"levelo://app?vid=ce49daa7-87e4-4749-85e7-6dab91519271","ios":"levelo://app?vid=ce49daa7-87e4-4749-85e7-6dab91519271"},"vehicle_type_id":"4","last_reported":1724526368,"current_range_meters":25200,"station_id":"ce4bhbh2rcd13ifvqeqg","pricing_plan_id":"cebpf4jnsgd1na2vs0mg"},{"bike_id":"e9919a79-8041-4346-9b42-59dc322dd97f","system_id":"levelo_inurba_marseille","lat":43.292311,"lon":5.360731,"is_reserved":false,"is_disabled":false,"rental_uris":{"android":"levelo://app?vid=e9919a79-8041-4346-9b42-59dc322dd97f","ios":"levelo://app?vid=e9919a79-8041-4346-9b42-59dc322dd97f"},"vehicle_type_id":"4","last_reported":1724526368,"current_range_meters":20800,"station_id":"ce4bhbh2rcd13ifvqeqg","pricing_plan_id":"cebpf4jnsgd1na2vs0mg"},{"bike_id":"432952f8-a584-4060-92d3-06a896032a6c","system_id":"levelo_inurba_marseille","lat":43.29886,"lon":5.38887,"is_reserved":false,"is_disabled":false,"rental_uris":{"android":"levelo://app?vid=432952f8-a584-4060-92d3-06a896032a6c","ios":"levelo://app?vid=432952f8-a584-4060-92d3-06a896032a6c"},"vehicle_type_id":"4","last_reported":1724526368,"current_range_meters":16400,"station_id":"ce4bh392rcd13ifvqdl0","pricing_plan_id":"cebpf4jnsgd1na2vs0mg"},{"bike_id":"4bcd2a6b-57d0-4a14-a9b3-b078c219bf66","system_id":"levelo_inurba_marseille","lat":43.298764,"lon":5.388973,"is_reserved":false,"is_disabled":false,"rental_uris":{"android":"levelo://app?vid=4bcd2a6b-57d0-4a14-a9b3-b078c219bf66","ios":"levelo://app?vid=4bcd2a6b-57d0-4a14-a9b3-b078c219bf66"},"vehicle_type_id":"4","last_reported":1724526368,"current_range_meters":0,"station_id":"ce4bh392rcd13ifvqdl0","pricing_plan_id":"cebpf4jnsgd1na2vs0mg"},{"bike_id":"73e9182e-df9e-402b-931f-94a13dae169b","system_id":"levelo_inurba_marseille","lat":43.29888,"lon":5.38899,"is_reserved":false,"is_disabled":false,"rental_uris":{"android":"levelo://app?vid=73e9182e-df9e-402b-931f-94a13dae169b","ios":"levelo://app?vid=73e9182e-df9e-402b-931f-94a13dae169b"},"vehicle_type_id":"4","last_reported":1724526368,"current_range_meters":26000,"station_id":"ce4bh392rcd13ifvqdl0","pricing_plan_id":"cebpf4jnsgd1na2vs0mg"},{"bike_id":"77be7fdb-178a-44fa-a55c-9a9619b27eda","system_id":"levelo_inurba_marseille","lat":43.298919,"lon":5.389064,"is_reserved":false,"is_disabled":false,"rental_uris":{"android":"levelo://app?vid=77be7fdb-178a-44fa-a55c-9a9619b27eda","ios":"levelo://app?vid=77be7fdb-178a-44fa-a55c-9a9619b27eda"},"vehicle_type_id":"4","last_reported":1724526368,"current_range_meters":8800,"station_id":"ce4bh392rcd13ifvqdl0","pricing_plan_id":"cebpf4jnsgd1na2vs0mg"},{"bike_id":"4df76d4a-7ca5-4cb4-af6b-3d4b1a8226c6","system_id":"levelo_inurba_marseille","lat":43.29881,"lon":5.38902,"is_reserved":false,"is_disabled":false,"rental_uris":{"android":"levelo://app?vid=4df76d4a-7ca5-4cb4-af6b-3d4b1a8226c6","ios":"levelo://app?vid=4df76d4a-7ca5-4cb4-af6b-3d4b1a8226c6"},"vehicle_type_id":"4","last_reported":1724526368,"current_range_meters":400,"station_id":"ce4bh392rcd13ifvqdl0","pricing_plan_id":"cebpf4jnsgd1na2vs0mg"},{"bike_id":"aac7fbad-b4d7-4f18-b293-06775ff8a4b6","system_id":"levelo_inurba_marseille","lat":43.29876,"lon":5.38903,"is_reserved":false,"is_disabled":false,"rental_uris":{"android":"levelo://app?vid=aac7fbad-b4d7-4f18-b293-06775ff8a4b6","ios":"levelo://app?vid=aac7fbad-b4d7-4f18-b293-06775ff8a4b6"},"vehicle_type_id":"4","last_reported":1724526368,"current_range_meters":24800,"station_id":"ce4bh392rcd13ifvqdl0","pricing_plan_id":"cebpf4jnsgd1na2vs0mg"},{"bike_id":"43646e59-7b65-44f0-964a-cf0e442e8a7f","system_id":"levelo_inurba_marseille","lat":43.29873,"lon":5.38904,"is_reserved":false,"is_disabled":false,"rental_uris":{"android":"levelo://app?vid=43646e59-7b65-44f0-964a-cf0e442e8a7f","ios":"levelo://app?vid=43646e59-7b65-44f0-964a-cf0e442e8a7f"},"vehicle_type_id":"4","last_reported":1724526368,"current_range_meters":16400,"station_id":"ce4bh392rcd13ifvqdl0","pricing_plan_id":"cebpf4jnsgd1na2vs0mg"},{"bike_id":"edcaeaaf-b491-491f-99a7-b7bc4446fec5","system_id":"levelo_inurba_marseille","lat":43.291675,"lon":5.371583,"is_reserved":false,"is_disabled":false,"rental_uris":{"android":"levelo://app?vid=edcaeaaf-b491-491f-99a7-b7bc4446fec5","ios":"levelo://app?vid=edcaeaaf-b491-491f-99a7-b7bc4446fec5"},