{"last_updated":1739653654,"ttl":60,"version":"2.2","data":{"bikes":[{"bike_id":"07f58983-6258-4a7e-b3e1-a023b84e70e2","system_id":"levelo_inurba_marseille","lat":43.31367,"lon":5.38517,"is_reserved":false,"is_disabled":false,"rental_uris":{"android":"levelo://app?vid=07f58983-6258-4a7e-b3e1-a023b84e70e2","ios":"levelo://app?vid=07f58983-6258-4a7e-b3e1-a023b84e70e2"},"vehicle_type_id":"4","last_reported":1739653654,"current_range_meters":38800,"station_id":"ce4bgt92rcd13ifvqcf0","pricing_plan_id":"cebpf4jnsgd1na2vs0mg"},{"bike_id":"b1589c62-efb6-4964-ade1-e2ad8e9b6ead","system_id":"levelo_inurba_marseille","lat":43.23163,"lon":5.43699,"is_reserved":false,"is_disabled":true,"rental_uris":{"android":"levelo://app?vid=b1589c62-efb6-4964-ade1-e2ad8e9b6ead","ios":"levelo://app?vid=b1589c62-efb6-4964-ade1-e2ad8e9b6ead"},"vehicle_type_id":"4","last_reported":1739653654,"current_range_meters":400,"station_id":"ce4bhmp2rcd13ifvqgog","pricing_plan_id":"cebpf4jnsgd1na2vs0mg"},{"bike_id":"36afe8ad-90c7-46c3-931b-44b8cd5ad9d4","system_id":"levelo_inurba_marseille","lat":43.29248,"lon":5.38426,"is_reserved":false,"is_disabled":true,"rental_uris":{"android":"levelo://app?vid=36afe8ad-90c7-46c3-931b-44b8cd5ad9d4","ios":"levelo://app?vid=36afe8ad-90c7-46c3-931b-44b8cd5ad9d4"},"vehicle_type_id":"4","last_reported":1739653654,"current_range_meters":38400,"station_id":"ce4bh692rcd13ifvqea0","pricing_plan_id":"cebpf4jnsgd1na2vs0mg"},{"bike_id":"314ecb77-8b90-4fdb-aaf3-bbba8b437b8a","system_id":"levelo_inurba_marseille","lat":43.29114,"lon":5.38073,"is_reserved":false,"is_disabled":false,"rental_uris":{"android":"levelo://app?vid=314ecb77-8b90-4fdb-aaf3-bbba8b437b8a","ios":"levelo://app?vid=314ecb77-8b90-4fdb-aaf3-bbba8b437b8a"},"vehicle_type_id":"4","last_reported":1739653654,"current_range_meters":7200,"station_id":"","pricing_plan_id":"cebpf4jnsgd1na2vs0mg"},{"bike_id":"de18bf9c-c1d4-438e-bfbf-1ca093a74621","system_id":"levelo_inurba_marseille","lat":43.24808,"lon":5.3746,"is_reserved":false,"is_disabled":false,"rental_uris":{"android":"levelo://app?vid=de18bf9c-c1d4-438e-bfbf-1ca093a74621","ios":"levelo://app?vid=de18bf9c-c1d4-438e-bfbf-1ca093a74621"},"vehicle_type_id":"4","last_reported":1739653654,"current_range_meters":38800,"station_id":"ce4bhgh2rcd13ifvqfb0","pricing_plan_id":"cebpf4jnsgd1na2vs0mg"},{"bike_id":"30554a3a-8978-4b9e-a987-d43e6f7a0274","system_id":"levelo_inurba_marseille","lat":43.29802,"lon":5.38089,"is_reserved":false,"is_disabled":false,"rental_uris":{"android":"levelo://app?vid=30554a3a-8978-4b9e-a987-d43e6f7a0274","ios":"levelo://app?vid=30554a3a-8978-4b9e-a987-d43e6f7a0274"},"vehicle_type_id":"4","last_reported":1739653654,"current_range_meters":37600,"station_id":"ce4bgip2rcd13ifvqbb0","pricing_plan_id":"cebpf4jnsgd1na2vs0mg"},{"bike_id":"ebf8377f-c311-4825-9b97-c6280c2187cb","system_id":"levelo_inurba_marseille","lat":43.25862,"lon":5.39909,"is_reserved":false,"is_disabled":false,"rental_uris":{"android":"levelo://app?vid=ebf8377f-c311-4825-9b97-c6280c2187cb","ios":"levelo://app?vid=ebf8377f-c311-4825-9b97-c6280c2187cb"},"vehicle_type_id":"4","last_reported":1739653654,"current_range_meters":38800,"station_id":"ce4bhl92rcd13ifvqghg","pricing_plan_id":"cebpf4jnsgd1na2vs0mg"},{"bike_id":"4f45f8e9-0c7b-4084-8dd3-4de8e3df7577","system_id":"levelo_inurba_marseille","lat":43.25105,"lon":5.40335,"is_reserved":false,"is_disabled":false,"rental_uris":{"android":"levelo://app?vid=4f45f8e9-0c7b-4084-8dd3-4de8e3df7577","ios":"levelo://app?vid=4f45f8e9-0c7b-4084-8dd3-4de8e3df7577"},"vehicle_type_id":"4","last_reported":1739653654,"current_range_meters":29600,"station_id":"ce4bhlh2rcd13ifvqgig","pricing_plan_id":"cebpf4jnsgd1na2vs0mg"},{"bike_id":"2d5e6c71-8cff-4036-be2f-b66461f9e1e0","system_id":"levelo_inurba_marseille","lat":43.29301,"lon":5.37418,"is_reserved":false,"is_disabled":false,"rental_uris":{"android":"levelo://app?vid=2d5e6c71-8cff-4036-be2f-b66461f9e1e0","ios":"levelo://app?vid=2d5e6c71-8cff-4036-be2f-b66461f9e1e0"},"vehicle_type_id":"4","last_reported":1739653654,"current_range_meters":10000,"station_id":"ce4bgi12rcd13ifvqb70","pricing_plan_id":"cebpf4jnsgd1na2vs0mg"},{"bike_id":"5d658326-ae0e-4562-a2ca-c365e02ebbba","system_id":"levelo_inurba_marseille","lat":43.27813,"lon":5.40716,"is_reserved":false,"is_disabled":false,"rental_uris":{"android":"levelo://app?vid=5d658326-ae0e-4562-a2ca-c365e02ebbba","ios":"levelo://app?vid=5d658326-ae0e-4562-a2ca-c365e02ebbba"},"vehicle_type_id":"4","last_reported":1739653654,"current_range_meters":30800,"station_id":"ce4bhnh2rcd13ifvqgtg","pricing_plan_id":"cebpf4jnsgd1na2vs0mg"},{"bike_id":"f32a1416-2509-450a-8ee3-26d32f197979","system_id":"levelo_inurba_marseille","lat":43.29045,"lon":5.37145,"is_reserved":false,"is_disabled":false,"rental_uris":{"android":"levelo://app?vid=f32a1416-2509-450a-8ee3-26d32f197979","ios":"levelo://app?vid=f32a1416-2509-450a-8ee3-26d32f197979"},"vehicle_type_id":"4","last_reported":1739653654,"current_range_meters":10800,"station_id":"ce4bh5p2rcd13ifvqe4g","pricing_plan_id":"cebpf4jnsgd1na2vs0mg"},{"bike_id":"458e2b21-f985-4ff5-aadf-7c976c6dac6e","system_id":"levelo_inurba_marseille","lat":43.29283,"lon":5.3842,"is_reserved":false,"is_disabled":false,"rental_uris":{"android":"levelo://app?vid=458e2b21-f985-4ff5-aadf-7c976c6dac6e","ios":"levelo://app?vid=458e2b21-f985-4ff5-aadf-7c976c6dac6e"},"vehicle_type_id":"4","last_reported":1739653654,"current_range_meters":14000,"station_id":"ce4bh692rcd13ifvqea0","pricing_plan_id":"cebpf4jnsgd1na2vs0mg"},{"bike_id":"9e5d1817-d04d-47c5-a25d-19f702979da2","system_id":"levelo_inurba_marseille","lat":43.2942,"lon":5.38656,"is_reserved":false,"is_disabled":false,"rental_uris":{"android":"levelo://app?vid=9e5d1817-d04d-47c5-a25d-19f702979da2","ios":"levelo://app?vid=9e5d1817-d04d-47c5-a25d-19f702979da2"},"vehicle_type_id":"4","last_reported":1739653654,"current_range_meters":30800,"station_id":"ce4bh2h2rcd13ifvqdh0","pricing_plan_id":"cebpf4jnsgd1na2vs0mg"},{"bike_id":"e97dc3a6-640a-45d6-a69e-3879f3f2b0c7","system_id":"levelo_inurba_marseille","lat":43.26953,"lon":5.38631,"is_reserved":false,"is_disabled":false,"rental_uris":{"android":"levelo://app?vid=e97dc3a6-640a-45d6-a69e-3879f3f2b0c7","ios":"levelo://app?vid=e97dc3a6-640a-45d6-a69e-3879f3f2b0c7"},"vehicle_type_id":"4","last_reported":1739653654,"current_range_meters":25600,"station_id":"ce4bhh92rcd13ifvqfh0","pricing_plan_id":"cebpf4jnsgd1na2vs0mg"},{"bike_id":"d28c441a-e7b8-4a49-82c6-7e06c95faa0c","system_id":"levelo_inurba_marseille","lat":43.29804,"lon":5.38077,"is_reserved":false,"is_disabled":false,"rental_uris":{"android":"levelo://app?vid=d28c441a-e7b8-4a49-82c6-7e06c95faa0c","ios":"levelo://app?vid=d28c441a-e7b8-4a49-82c6-7e06c95faa0c"},"vehicle_type_id":"4","last_reported":1739653654,"current_range_meters":28800,"station_id":"ce4bgip2rcd13ifvqbb0","pricing_plan_id":"cebpf4jnsgd1na2vs0mg"},{"bike_id":"f5f8dc66-64c5-4881-82b1-6414e53b43d4","system_id":"levelo_inurba_marseille","lat":43.2861,"lon":5.35099,"is_reserved":false,"is_disabled":false,"rental_uris":{"android":"levelo://app?vid=f5f8dc66-64c5-4881-82b1-6414e53b43d4","ios":"levelo://app?vid=f5f8dc66-64c5-4881-82b1-6414e53b43d4"},"vehicle_type_id":"4","last_reported":1739653654,"current_range_meters":10000,"station_id":"ce4bhch2rcd13ifvqeug","pricing_plan_id":"cebpf4jnsgd1na2vs0mg"},{"bike_id":"c7322498-81a4-46c8-b4c9-ec796bfac1e6","system_id":"levelo_inurba_marseille","lat":43.24166,"lon":5.36404,"is_reserved":false,"is_disabled":false,"rental_uris":{"android":"levelo://app?vid=c7322498-81a4-46c8-b4c9-ec796bfac1e6","ios":"levelo://app?vid=c7322498-81a4-46c8-b4c9-ec796bfac1e6"},"vehicle_type_id":"4","last_reported":1739653654,"current_range_meters":38000,"station_id":"cpo36qri1sfpv3e86is0","pricing_plan_id":"cebpf4jnsgd1na2vs0mg"},{"bike_id":"5d664a04-c872-462e-ac57-e351fc33f08a","system_id":"levelo_inurba_marseille","lat":43.29425,"lon":5.38641,"is_reserved":false,"is_disabled":false,"rental_uris":{"android":"levelo://app?vid=5d664a04-c872-462e-ac57-e351fc33f08a","ios":"levelo://app?vid=5d664a04-c872-462e-ac57-e351fc33f08a"},"vehicle_type_id":"4","last_reported":1739653654,"current_range_meters":36000,"station_id":"ce4bh2h2rcd13ifvqdh0","pricing_plan_id":"cebpf4jnsgd1na2vs0mg"},{"bike_id":"283ef2ea-71e5-42e2-84e8-df36c056a617","system_id":"levelo_inurba_marseille","lat":43.29803,"lon":5.38094,"is_reserved":false,"is_disabled":false,"rental_uris":{"android":"levelo://app?vid=283ef2ea-71e5-42e2-84e8-df36c056a617","ios":"levelo://app?vid=283ef2ea-71e5-42e2-84e8-df36c056a617"},"vehicle_type_id":"4","last_reported":1739653654,"current_range_meters":18000,"station_id":"ce4bgip2rcd13ifvqbb0","pricing_plan_id":"cebpf4jnsgd1na2vs0mg"},{"bike_id":"02630035-cdec-43a6-9ae2-ad6d4f3c1996","system_id":"levelo_inurba_marseille","lat":43.30607,"lon":5.37239,"is_reserved":false,"is_disabled":false,"rental_uris":{"android":"levelo://app?vid=02630035-cdec-43a6-9ae2-ad6d4f3c1996","ios":"levelo://app?vid=02630035-cdec-43a6-9ae2-ad6d4f3c1996"},"vehicle_type_id":"4","last_reported":1739653654,"current_range_meters":22400,"station_id":"ce4bgqh2rcd13ifvqc4g","pricing_plan_id":"cebpf4jnsgd1na2vs0mg"},{"bike_id":"8d88a18c-9e9f-4c18-90cc-9460249467a5","system_id":"levelo_inurba_marseille","lat":43.26034,"lon":5.3755,"is_reserved":false,"is_disabled":false,"rental_uris":{"android":"levelo://app?vid=8d88a18c-9e9f-4c18-90cc-9460249467a5","ios":"levelo://app?vid=8d88a18c-9e9f-4c18-90cc-9460249467a5"},"vehicle_type_id":"4","last_reported":1739653654,"current_range_meters":39200,"station_id":"ce4bhgh2rcd13ifvqfa0","pricing_plan_id":"cebpf4jnsgd1na2vs0mg"},{"bike_id":"535c2beb-f240-4c65-b159-9bc48228c01d","system_id":"levelo_inurba_marseille","lat":43.28722,"lon":5.37937,"is_reserved":false,"is_disabled":false,"rental_uris":{"android":"levelo://app?vid=535c2beb-f240-4c65-b159-9bc48228c01d","ios":"levelo://app?vid=535c2beb-f240-4c65-b159-9bc48228c01d"},"vehicle_type_id":"4","last_reported":1739653654,"current_range_meters":9600,"station_id":"ce4bh9p2rcd13ifvqec0","pricing_plan_id":"cebpf4jnsgd1na2vs0mg"},{"bike_id":"b4bea8c7-5363-473e-95a4-109440460f32","system_id":"levelo_inurba_marseille","lat":43.29418,"lon":5.38644,"is_reserved":false,"is_disabled":false,"rental_uris":{"android":"levelo://app?vid=b4bea8c7-5363-473e-95a4-109440460f32","ios":"levelo://app?vid=b4bea8c7-5363-473e-95a4-109440460f32"},"vehicle_type_id":"4","last_reported":1739653654,"current_range_meters":34000,"station_id":"ce4bh2h2rcd13ifvqdh0","pricing_plan_id":"cebpf4jnsgd1na2vs0mg"},{"bike_id":"b34c6303-752a-46a1-93ad-ddbc991e20b6","system_id":"levelo_inurba_marseille","lat":43.23044,"lon":5.35436,"is_reserved":false,"is_disabled":false,"rental_uris":{"android":"levelo://app?vid=b34c6303-752a-46a1-93ad-ddbc991e20b6","ios":"levelo://app?vid=b34c6303-752a-46a1-93ad-ddbc991e20b6"},"vehicle_type_id":"4","last_reported":1739653654,"current_range_meters":36800,"station_id":"cpo3342slgdg3j2ifvpg","pricing_plan_id":"cebpf4jnsgd1na2vs0mg"},{"bike_id":"bb6542e1-35e4-43b9-83bb-1a7ebe972a05","system_id":"levelo_inurba_marseille","lat":43.27063,"lon":5.40255,"is_reserved":false,"is_disabled":true,"rental_uris":{"android":"levelo://app?vid=bb6542e1-35e4-43b9-83bb-1a7ebe972a05","ios":"levelo://app?vid=bb6542e1-35e4-43b9-83bb-1a7ebe972a05"},"vehicle_type_id":"4","last_reported":1739653654,"current_range_meters":400,"station_id":"ce4bhk92rcd13ifvqgc0","pricing_plan_id":"cebpf4jnsgd1na2vs0mg"},{"bike_id":"58f90898-7499-443b-a458-e2c59058430b","system_id":"levelo_inurba_marseille","lat":43.24088,"lon":5.37757,"is_reserved":false,"is_disabled":false,"rental_uris":{"android":"levelo://app?vid=58f90898-7499-443b-a458-e2c59058430b","ios":"levelo://app?vid=58f90898-7499-443b-a458-e2c59058430b"},"vehicle_type_id":"4","last_reported":1739653654,"current_range_meters":32800,"station_id":"ce4bhnp2rcd13ifvqgvg","pricing_plan_id":"cebpf4jnsgd1na2vs0mg"},{"bike_id":"2821d2ff-3fc8-480e-81a3-1928b04e4a1d","system_id":"levelo_inurba_marseille","lat":43.308,"lon":5.3735,"is_reserved":false,"is_disabled":false,"rental_uris":{"android":"levelo://app?vid=2821d2ff-3fc8-480e-81a3-1928b04e4a1d","ios":"levelo://app?vid=2821d2ff-3fc8-480e-81a3-1928b04e4a1d"},"vehicle_type_id":"4","last_reported":1739653654,"current_range_meters":7200,"station_id":"","pricing_plan_id":"cebpf4jnsgd1na2vs0mg"},{"bike_id":"d6d3cd30-9135-47d1-a016-c7a4c33810df","system_id":"levelo_inurba_marseille","lat":43.30196,"lon":5.38293,"is_reserved":false,"is_disabled":false,"rental_uris":{"android":"levelo://app?vid=d6d3cd30-9135-47d1-a016-c7a4c33810df","ios":"levelo://app?vid=d6d3cd30-9135-47d1-a016-c7a4c33810df"},"vehicle_type_id":"4","last_reported":1739653654,"current_range_meters":35600,"station_id":"ce4bgj92rcd13ifvqbd0","pricing_plan_id":"cebpf4jnsgd1na2vs0mg"},{"bike_id":"9c5f3c2a-14a2-4948-86b1-16897111a0ed","system_id":"levelo_inurba_marseille","lat":43.27921,"lon":5.39612,"is_reserved":false,"is_disabled":false,"rental_uris":{"android":"levelo://app?vid=9c5f3c2a-14a2-4948-86b1-16897111a0ed","ios":"levelo://app?vid=9c5f3c2a-14a2-4948-86b1-16897111a0ed"},"vehicle_type_id":"4","last_reported":1739653654,"current_range_meters":25200,"station_id":"ce4bhf92rcd13ifvqf40","pricing_plan_id":"cebpf4jnsgd1na2vs0mg"},{"bike_id":"9baa6850-2ef8-4607-b32a-e49a4bc72845","system_id":"levelo_inurba_marseille","lat":43.29801,"lon":5.38095,"is_reserved":false,"is_disabled":false,"rental_uris":{"android":"levelo://app?vid=9baa6850-2ef8-4607-b32a-e49a4bc72845","ios":"levelo://app?vid=9baa6850-2ef8-4607-b32a-e49a4bc72845"},"vehicle_type_id":"4","last_reported":1739653654,"current_range_meters":8400,"station_id":"ce4bgip2rcd13ifvqbb0","pricing_plan_id":"cebpf4jnsgd1na2vs0mg"},{"bike_id":"c404a456-1151-4e3d-b29f-498c98814d25","system_id":"levelo_inurba_marseille","lat":43.29031,"lon":5.38647,"is_reserved":false,"is_disabled":false,"rental_uris":{"android":"levelo://app?vid=c404a456-1151-4e3d-b29f-498c98814d25","ios":"levelo://app?vid=c404a456-1151-4e3d-b29f-498c98814d25"},"vehicle_type_id":"4","last_reported":1739653654,"current_range_meters":38800,"station_id":"ce4bh4p2rcd13ifvqe0g","pricing_plan_id":"cebpf4jnsgd1na2vs0mg"},{"bike_id":"bcaf8af6-c642-49c0-a3a2-1964c4eaa3d3","system_id":"levelo_inurba_marseille","lat":43.25116,"lon":5.40327,"is_reserved":false,"is_disabled":false,"rental_uris":{"android":"levelo://app?vid=bcaf8af6-c642-49c0-a3a2-1964c4eaa3d3","ios":"levelo://app?vid=bcaf8af6-c642-49c0-a3a2-1964c4eaa3d3"},"vehicle_type_id":"4","last_reported":1739653654,"current_range_meters":11600,"station_id":"ce4bhlh2rcd13ifvqgig","pricing_plan_id":"cebpf4jnsgd1na2vs0mg"},{"bike_id":"ad2b6339-5ecd-41a3-8555-0741bc90fb50","system_id":"levelo_inurba_marseille","lat":43.30466,"lon":5.37911,"is_reserved":false,"is_disabled":false,"rental_uris":{"android":"levelo://app?vid=ad2b6339-5ecd-41a3-8555-0741bc90fb50","ios":"levelo://app?vid=ad2b6339-5ecd-41a3-8555-0741bc90fb50"},"vehicle_type_id":"4","last_reported":1739653654,"current_range_meters":32800,"station_id":"ce4bgup2rcd13ifvqcn0","pricing_plan_id":"cebpf4jnsgd1na2vs0mg"},{"bike_id":"940ffad1-8d03-466c-a361-1bdb8859eb0e","system_id":"levelo_inurba_marseille","lat":43.28615,"lon":5.35104,"is_reserved":false,"is_disabled":true,"rental_uris":{"android":"levelo://app?vid=940ffad1-8d03-466c-a361-1bdb8859eb0e","ios":"levelo://app?vid=940ffad1-8d03-466c-a361-1bdb8859eb0e"},"vehicle_type_id":"4","last_reported":1739653654,"current_range_meters":1200,"station_id":"ce4bhch2rcd13ifvqeug","pricing_plan_id":"cebpf4jnsgd1na2vs0mg"},{"bike_id":"dfad9087-1d64-4ed6-822a-e6070547a138","system_id":"levelo_inurba_marseille","lat":43.30125,"lon":5.39856,"is_reserved":false,"is_disabled":false,"rental_uris":{"android":"levelo://app?vid=dfad9087-1d64-4ed6-822a-e6070547a138","ios":"levelo://app?vid=dfad9087-1d64-4ed6-822a-e6070547a138"},"vehicle_type_id":"4","last_reported":1739653654,"current_range_meters":26000,"station_id":"ce4bh0h2rcd13ifvqd40","pricing_plan_id":"cebpf4jnsgd1na2vs0mg"},{"bike_id":"5b358b41-232b-42fc-9926-5fafcd2f1bef","system_id":"levelo_inurba_marseille","lat":43.29308,"lon":5.3718,"is_reserved":false,"is_disabled":false,"rental_uris":{"android":"levelo://app?vid=5b358b41-232b-42fc-9926-5fafcd2f1bef","ios":"levelo://app?vid=5b358b41-232b-42fc-9926-5fafcd2f1bef"},"vehicle_type_id":"4","last_reported":1739653654,"current_range_meters":36800,"station_id":"ce4bgh92rcd13ifvqb40","pricing_plan_id":"cebpf4jnsgd1na2vs0mg"},{"bike_id":"1f0657bb-7196-41de-84fc-c834bbf90b28","system_id":"levelo_inurba_marseille","lat":43.28083,"lon":5.39615,"is_reserved":false,"is_disabled":true,"rental_uris":{"android":"levelo://app?vid=1f0657bb-7196-41de-84fc-c834bbf90b28","ios":"levelo://app?vid=1f0657bb-7196-41de-84fc-c834bbf90b28"},"vehicle_type_id":"4","last_reported":1739653654,"current_range_meters":39200,"station_id":"ce4bho12rcd13ifvqh2g","pricing_plan_id":"cebpf4jnsgd1na2vs0mg"},{"bike_id":"4085957e-a34f-48ec-8023-d0e7a9e56b71","system_id":"levelo_inurba_marseille","lat":43.23062,"lon":5.35487,"is_reserved":false,"is_disabled":false,"rental_uris":{"android":"levelo://app?vid=4085957e-a34f-48ec-8023-d0e7a9e56b71","ios":"levelo://app?vid=4085957e-a34f-48ec-8023-d0e7a9e56b71"},"vehicle_type_id":"4","last_reported":1739653654,"current_range_meters":38800,"station_id":"cpo3342slgdg3j2ifvpg","pricing_plan_id":"cebpf4jnsgd1na2vs0mg"},{"bike_id":"a04b81e7-7169-4f33-adbc-36dd68595899","system_id":"levelo_inurba_marseille","lat":43.29418,"lon":5.38619,"is_reserved":false,"is_disabled":false,"rental_uris":{"android":"levelo://app?vid=a04b81e7-7169-4f33-adbc-36dd68595899","ios":"levelo://app?vid=a04b81e7-7169-4f33-adbc-36dd68595899"},"vehicle_type_id":"4","last_reported":1739653654,"current_range_meters":28400,"station_id":"ce4bh2h2rcd13ifvqdh0","pricing_plan_id":"cebpf4jnsgd1na2vs0mg"},{"bike_id":"56d0c07c-c1d9-4373-9a5e-6881f51b3262","system_id":"levelo_inurba_marseille","lat":43.29623,"lon":5.40611,"is_reserved":false,"is_disabled":false,"rental_uris":{"android":"levelo://app?vid=56d0c07c-c1d9-4373-9a5e-6881f51b3262","ios":"levelo://app?vid=56d0c07c-c1d9-4373-9a5e-6881f51b3262"},"vehicle_type_id":"4","last_reported":1739653654,"current_range_meters":38400,"station_id":"ce4bh0h2rcd13ifvqd60","pricing_plan_id":"cebpf4jnsgd1na2vs0mg"},{"bike_id":"8172451f-620b-4bb8-91b1-1e4678991019","system_id":"levelo_inurba_marseille","lat":43.28165,"lon":5.42626,"is_reserved":false,"is_disabled":false,"rental_uris":{"android":"levelo://app?vid=8172451f-620b-4bb8-91b1-1e4678991019","ios":"levelo://app?vid=8172451f-620b-4bb8-91b1-1e4678991019"},"vehicle_type_id":"4","last_reported":1739653654,"current_range_meters":38800,"station_id":"ce4bhnh2rcd13ifvqgug","pricing_plan_id":"cebpf4jnsgd1na2vs0mg"},{"bike_id":"5b1640a0-eafc-4118-a129-fe727f187041","system_id":"levelo_inurba_marseille","lat":43.31075,"lon":5.38358,"is_reserved":false,"is_disabled":false,"rental_uris":{"android":"levelo://app?vid=5b1640a0-eafc-4118-a129-fe727f187041","ios":"levelo://app?vid=5b1640a0-eafc-4118-a129-fe727f187041"},"vehicle_type_id":"4","last_reported":1739653654,"current_range_meters":28000,"station_id":"ce4bgv92rcd13ifvqcr0","pricing_plan_id":"cebpf4jnsgd1na2vs0mg"},{"bike_id":"b4501870-b8ed-41e7-9c02-cfe959070884","system_id":"levelo_inurba_marseille","lat":43.24065,"lon":5.37759,"is_reserved":false,"is_disabled":false,"rental_uris":{"android":"levelo://app?vid=b4501870-b8ed-41e7-9c02-cfe959070884","ios":"levelo://app?vid=b4501870-b8ed-41e7-9c02-cfe959070884"},"vehicle_type_id":"4","last_reported":1739653654,"current_range_meters":30800,"station_id":"ce4bhnp2rcd13ifvqgvg","pricing_plan_id":"cebpf4jnsgd1na2vs0mg"},{"bike_id":"6135ad3a-c92a-4be6-b656-e75122be538c","system_id":"levelo_inurba_marseille","lat":43.29723,"lon":5.36568,"is_reserved":false,"is_disabled":false,"rental_uris":{"android":"levelo://app?vid=6135ad3a-c92a-4be6-b656-e75122be538c","ios":"levelo://app?vid=6135ad3a-c92a-4be6-b656-e75122be538c"},"vehicle_type_id":"4","last_reported":1739653654,"current_range_meters":38800,"station_id":"ce4bgn12rcd13ifvqbt0","pricing_plan_id":"cebpf4jnsgd1na2vs0mg"},{"bike_id":"e60ad64c-d354-4cc9-b4c4-430dc10bce79","system_id":"levelo_inurba_marseille","lat":43.28465,"lon":5.35895,"is_reserved":false,"is_disabled":false,"rental_uris":{"android":"levelo://app?vid=e60ad64c-d354-4cc9-b4c4-430dc10bce79","ios":"levelo://app?vid=e60ad64c-d354-4cc9-b4c4-430dc10bce79"},"vehicle_type_id":"4","last_reported":1739653654,"current_range_meters":4800,"station_id":"ce4bhah2rcd13ifvqei0","pricing_plan_id":"cebpf4jnsgd1na2vs0mg"},{"bike_id":"f92e748a-9f9b-4e54-8084-07e33515f3d5","system_id":"levelo_inurba_marseille","lat":43.27071,"lon":5.39347,"is_reserved":false,"is_disabled":true,"rental_uris":{"android":"levelo://app?vid=f92e748a-9f9b-4e54-8084-07e33515f3d5","ios":"levelo://app?vid=f92e748a-9f9b-4e54-8084-07e33515f3d5"},"vehicle_type_id":"4","last_reported":1739653654,"current_range_meters":0,"station_id":"","pricing_plan_id":"cebpf4jnsgd1na2vs0mg"},{"bike_id":"01c83cc4-cdc0-431f-8a94-c3c3623996a4","system_id":"levelo_inurba_marseille","lat":43.29261,"lon":5.38456,"is_reserved":false,"is_disabled":false,"rental_uris":{"android":"levelo://app?vid=01c83cc4-cdc0-431f-8a94-c3c3623996a4","ios":"levelo://app?vid=01c83cc4-cdc0-431f-8a94-c3c3623996a4"},"vehicle_type_id":"4","last_reported":1739653654,"current_range_meters":30000,"station_id":"ce4bh692rcd13ifvqea0","pricing_plan_id":"cebpf4jnsgd1na2vs0mg"},{"bike_id":"19388144-0dd5-4ead-94fb-9bd26884db19","system_id":"levelo_inurba_marseille","lat":43.31173,"lon":5.38717,"is_reserved":false,"is_disabled":false,"rental_uris":{"android":"levelo://app?vid=19388144-0dd5-4ead-94fb-9bd26884db19","ios":"levelo://app?vid=19388144-0dd5-4ead-94fb-9bd26884db19"},"vehicle_type_id":"4","last_reported":1739653654,"current_range_meters":30800,"station_id":"ce4bgv12rcd13ifvqcp0","pricing_plan_id":"cebpf4jnsgd1na2vs0mg"},{"bike_id":"7d2c6b44-c07d-4471-a0d9-0984b6537cc7","system_id":"levelo_inurba_marseille","lat":43.28716,"lon":5.37936,"is_reserved":false,"is_disabled":false,"rental_uris":{"android":"levelo://app?vid=7d2c6b44-c07d-4471-a0d9-0984b6537cc7","ios":"levelo://app?vid=7d2c6b44-c07d-4471-a0d9-0984b6537cc7"},"vehicle_type_id":"4","last_reported":1739653654,"current_range_meters":33600,"station_id":"ce4bh9p2rcd13ifvqec0","pricing_plan_id":"cebpf4jnsgd1na2vs0mg"},{"bike_id":"9ee58b59-2c26-4302-b4b4-8948a98685a3","system_id":"levelo_inurba_marseille","lat":43.29316,"lon":5.37434,"is_reserved":false,"is_disabled":false,"rental_uris":{"android":"levelo://app?vid=9ee58b59-2c26-4302-b4b4-8948a98685a3","ios":"levelo://app?vid=9ee58b59-2c26-4302-b4b4-8948a98685a3"},"vehicle_type_id":"4","last_reported":1739653654,"current_range_meters":38800,"station_id":"ce4bgi12rcd13ifvqb70","pricing_plan_id":"cebpf4jnsgd1na2vs0mg"},{"bike_id":"bbf61ba2-9a30-4f5a-adfe-4249783a75be","system_id":"levelo_inurba_marseille","lat":43.27988,"lon":5.41663,"is_reserved":false,"is_disabled":false,"rental_uris":{"android":"levelo://app?vid=bbf61ba2-9a30-4f5a-adfe-4249783a75be","ios":"levelo://app?vid=bbf61ba2-9a30-4f5a-adfe-4249783a75be"},"vehicle_type_id":"4","last_reported":1739653654,"current_range_meters":27600,"station_id":"ce4bho12rcd13ifvqh1g","pricing_plan_id":"cebpf4jnsgd1na2vs0mg"},{"bike_id":"bac3f7f1-ad42-490a-9597-d9247fa16831","system_id":"levelo_inurba_marseille","lat":43.29263,"lon":5.38442,"is_reserved":false,"is_disabled":false,"rental_uris":{"android":"levelo://app?vid=bac3f7f1-ad42-490a-9597-d9247fa16831","ios":"levelo://app?vid=bac3f7f1-ad42-490a-9597-d9247fa16831"},"vehicle_type_id":"4","last_reported":1739653654,"current_range_meters":10000,"station_id":"ce4bh692rcd13ifvqea0","pricing_plan_id":"cebpf4jnsgd1na2vs0mg"},{"bike_id":"4dd9a4e0-c137-4560-8761-8f56d3f447a7","system_id":"levelo_inurba_marseille","lat":43.30886,"lon":5.39664,"is_reserved":false,"is_disabled":false,"rental_uris":{"android":"levelo://app?vid=4dd9a4e0-c137-4560-8761-8f56d3f447a7","ios":"levelo://app?vid=4dd9a4e0-c137-4560-8761-8f56d3f447a7"},"vehicle_type_id":"4","last_reported":1739653654,"current_range_meters":24000,"station_id":"ce4bh012rcd13ifvqcv0","pricing_plan_id":"cebpf4jnsgd1na2vs0mg"},{"bike_id":"9cf8e6d9-67b8-441b-8ab4-08ef8560d2b0","system_id":"levelo_inurba_marseille","lat":43.33514,"lon":5.35585,"is_reserved":false,"is_disabled":true,"rental_uris":{"android":"levelo://app?vid=9cf8e6d9-67b8-441b-8ab4-08ef8560d2b0","ios":"levelo://app?vid=9cf8e6d9-67b8-441b-8ab4-08ef8560d2b0"},"vehicle_type_id":"4","last_reported":1739653654,"current_range_meters":0,"station_id":"","pricing_plan_id":"cebpf4jnsgd1na2vs0mg"},{"bike_id":"71b46a90-9b81-495b-a1f5-60057e156260","system_id":"levelo_inurba_marseille","lat":43.26938,"lon":5.4026,"is_reserved":false,"is_disabled":false,"rental_uris":{"android":"levelo://app?vid=71b46a90-9b81-495b-a1f5-60057e156260","ios":"levelo://app?vid=71b46a90-9b81-495b-a1f5-60057e156260"},"vehicle_type_id":"4","last_reported":1739653654,"current_range_meters":28800,"station_id":"cjm6bp8fraef2m0cb0m0","pricing_plan_id":"cebpf4jnsgd1na2vs0mg"},{"bike_id":"0320464c-5b17-4256-8b5d-cfc4f7d52238","system_id":"levelo_inurba_marseille","lat":43.27996,"lon":5.41652,"is_reserved":false,"is_disabled":false,"rental_uris":{"android":"levelo://app?vid=0320464c-5b17-4256-8b5d-cfc4f7d52238","ios":"levelo://app?vid=0320464c-5b17-4256-8b5d-cfc4f7d52238"},"vehicle_type_id":"4","last_reported":1739653654,"current_range_meters":30800,"station_id":"ce4bho12rcd13ifvqh1g","pricing_plan_id":"cebpf4jnsgd1na2vs0mg"},{"bike_id":"843c1cdc-a175-42b5-be19-e1b9d6757ae2","system_id":"levelo_inurba_marseille","lat":43.24646,"lon":5.38899,"is_reserved":false,"is_disabled":false,"rental_uris":{"android":"levelo://app?vid=843c1cdc-a175-42b5-be19-e1b9d6757ae2","ios":"levelo://app?vid=843c1cdc-a175-42b5-be19-e1b9d6757ae2"},"vehicle_type_id":"4","last_reported":1739653654,"current_range_meters":39200,"station_id":"ce4bhg12rcd13ifvqf60","pricing_plan_id":"cebpf4jnsgd1na2vs0mg"},{"bike_id":"a47a49ff-3d8c-459e-91ff-bddc8c1b5078","system_id":"levelo_inurba_marseille","lat":43.29583,"lon":5.39924,"is_reserved":false,"is_disabled":false,"rental_uris":{"android":"levelo://app?vid=a47a49ff-3d8c-459e-91ff-bddc8c1b5078","ios":"levelo://app?vid=a47a49ff-3d8c-459e-91ff-bddc8c1b5078"},"vehicle_type_id":"4","last_reported":1739653654,"current_range_meters":36400,"station_id":"ce4bh312rcd13ifvqdj0","pricing_plan_id":"cebpf4jnsgd1na2vs0mg"},{"bike_id":"46252e49-398c-407a-8202-f65c1512c035","system_id":"levelo_inurba_marseille","lat":43.284116,"lon":5.375194,"is_reserved":false,"is_disabled":false,"rental_uris":{"android":"levelo://app?vid=46252e49-398c-407a-8202-f65c1512c035","ios":"levelo://app?vid=46252e49-398c-407a-8202-f65c1512c035"},"vehicle_type_id":"4","last_reported":1739653654,"current_range_meters":6800,"station_id":"ce4bh412rcd13ifvqds0","pricing_plan_id":"cebpf4jnsgd1na2vs0mg"},{"bike_id":"540bf5a8-5786-4431-b160-b1b1e0ba365f","system_id":"levelo_inurba_marseille","lat":43.29956,"lon":5.40078,"is_reserved":false,"is_disabled":false,"rental_uris":{"android":"levelo://app?vid=540bf5a8-5786-4431-b160-b1b1e0ba365f","ios":"levelo://app?vid=540bf5a8-5786-4431-b160-b1b1e0ba365f"},"vehicle_type_id":"4","last_reported":1739653654,"current_range_meters":38000,"station_id":"","pricing_plan_id":"cebpf4jnsgd1na2vs0mg"},{"bike_id":"98cda1ee-64ab-4524-be3c-951477745525","system_id":"levelo_inurba_marseille","lat":43.28845,"lon":5.39303,"is_reserved":false,"is_disabled":false,"rental_uris":{"android":"levelo://app?vid=98cda1ee-64ab-4524-be3c-951477745525","ios":"levelo://app?vid=98cda1ee-64ab-4524-be3c-951477745525"},"vehicle_type_id":"4","last_reported":1739653654,"current_range_meters":22800,"station_id":"ce4bh2p2rcd13ifvqdi0","pricing_plan_id":"cebpf4jnsgd1na2vs0mg"},{"bike_id":"51ab7186-5043-4bed-baca-73708608a302","system_id":"levelo_inurba_marseille","lat":43.29584,"lon":5.37026,"is_reserved":false,"is_disabled":true,"rental_uris":{"android":"levelo://app?vid=51ab7186-5043-4bed-baca-73708608a302","ios":"levelo://app?vid=51ab7186-5043-4bed-baca-73708608a302"},"vehicle_type_id":"4","last_reported":1739653654,"current_range_meters":0,"station_id":"","pricing_plan_id":"cebpf4jnsgd1na2vs0mg"},{"bike_id":"d1d1b801-8df2-494f-9c39-1149e6c6b79f","system_id":"levelo_inurba_marseille","lat":43.310685,"lon":5.383545,"is_reserved":false,"is_disabled":false,"rental_uris":{"android":"levelo://app?vid=d1d1b801-8df2-494f-9c39-1149e6c6b79f","ios":"levelo://app?vid=d1d1b801-8df2-494f-9c39-1149e6c6b79f"},"vehicle_type_id":"4","last_reported":1739653654,"current_range_meters":23200,"station_id":"ce4bgv92rcd13ifvqcr0","pricing_plan_id":"cebpf4jnsgd1na2vs0mg"},{"bike_id":"9fdb08b8-1ceb-474a-abf2-04c699884b4a","system_id":"levelo_inurba_marseille","lat":43.23199,"lon":5.35558,"is_reserved":false,"is_disabled":false,"rental_uris":{"android":"levelo://app?vid=9fdb08b8-1ceb-474a-abf2-04c699884b4a","ios":"levelo://app?vid=9fdb08b8-1ceb-474a-abf2-04c699884b4a"},"vehicle_type_id":"4","last_reported":1739653654,"current_range_meters":38800,"station_id":"ce4bhu92rcd13ifvqi70","pricing_plan_id":"cebpf4jnsgd1na2vs0mg"},{"bike_id":"485502f3-3b80-4687-aac8-10dc57118684","system_id":"levelo_inurba_marseille","lat":43.26234,"lon":5.40426,"is_reserved":false,"is_disabled":false,"rental_uris":{"android":"levelo://app?vid=485502f3-3b80-4687-aac8-10dc57118684","ios":"levelo://app?vid=485502f3-3b80-4687-aac8-10dc57118684"},"vehicle_type_id":"4","last_reported":1739653654,"current_range_meters":12400,"station_id":"ce4bhmh2rcd13ifvqgmg","pricing_plan_id":"cebpf4jnsgd1na2vs0mg"},{"bike_id":"9ba95524-6463-4695-a2c7-5a3b538233c8","system_id":"levelo_inurba_marseille","lat":43.25113,"lon":5.40347,"is_reserved":false,"is_disabled":false,"rental_uris":{"android":"levelo://app?vid=9ba95524-6463-4695-a2c7-5a3b538233c8","ios":"levelo://app?vid=9ba95524-6463-4695-a2c7-5a3b538233c8"},"vehicle_type_id":"4","last_reported":1739653654,"current_range_meters":37600,"station_id":"ce4bhlh2rcd13ifvqgig","pricing_plan_id":"cebpf4jnsgd1na2vs0mg"},{"bike_id":"8691c17d-836c-47cd-9e2a-09cf1406b8ec","system_id":"levelo_inurba_marseille","lat":43.24069,"lon":5.37717,"is_reserved":false,"is_disabled":false,"rental_uris":{"android":"levelo://app?vid=8691c17d-836c-47cd-9e2a-09cf1406b8ec","ios":"levelo://app?vid=8691c17d-836c-47cd-9e2a-09cf1406b8ec"},"vehicle_type_id":"4","last_reported":1739653654,"current_range_meters":38000,"station_id":"ce4bhnp2rcd13ifvqgvg","pricing_plan_id":"cebpf4jnsgd1na2vs0mg"},{"bike_id":"5d50e017-47ab-4b09-a566-274c2dc0f4c0","system_id":"levelo_inurba_marseille","lat":43.29783,"lon":5.40434,"is_reserved":false,"is_disabled":false,"rental_uris":{"android":"levelo://app?vid=5d50e017-47ab-4b09-a566-274c2dc0f4c0","ios":"levelo://app?vid=5d50e017-47ab-4b09-a566-274c2dc0f4c0"},"vehicle_type_id":"4","last_reported":1739653654,"current_range_meters":39200,"station_id":"ce4bh112rcd13ifvqd90","pricing_plan_id":"cebpf4jnsgd1na2vs0mg"},{"bike_id":"fde08985-9213-4554-a6da-b9a528fa6b6d","system_id":"levelo_inurba_marseille","lat":43.30419,"lon":5.39751,"is_reserved":false,"is_disabled":false,"rental_uris":{"android":"levelo://app?vid=fde08985-9213-4554-a6da-b9a528fa6b6d","ios":"levelo://app?vid=fde08985-9213-4554-a6da-b9a528fa6b6d"},"vehicle_type_id":"4","last_reported":1739653654,"current_range_meters":28400,"station_id":"ce4bh092rcd13ifvqd20","pricing_plan_id":"cebpf4jnsgd1na2vs0mg"},{"bike_id":"c40e2cb9-b89c-4dbd-956b-535ef79f1d37","system_id":"levelo_inurba_marseille","lat":43.248098,"lon":5.374568,"is_reserved":false,"is_disabled":false,"rental_uris":{"android":"levelo://app?vid=c40e2cb9-b89c-4dbd-956b-535ef79f1d37","ios":"levelo://app?vid=c40e2cb9-b89c-4dbd-956b-535ef79f1d37"},"vehicle_type_id":"4","last_reported":1739653654,"current_range_meters":22800,"station_id":"ce4bhgh2rcd13ifvqfb0","pricing_plan_id":"cebpf4jnsgd1na2vs0mg"},{"bike_id":"621aa48b-6d99-46c4-b886-2c6eb903854e","system_id":"levelo_inurba_marseille","lat":43.29277,"lon":5.36843,"is_reserved":false,"is_disabled":true,"rental_uris":{"android":"levelo://app?vid=621aa48b-6d99-46c4-b886-2c6eb903854e","ios":"levelo://app?vid=621aa48b-6d99-46c4-b886-2c6eb903854e"},"vehicle_type_id":"4","last_reported":1739653654,"current_range_meters":30800,"station_id":"ce4bhbp2rcd13ifvqesg","pricing_plan_id":"cebpf4jnsgd1na2vs0mg"},{"bike_id":"5845f6fb-b0ab-494c-b8cc-fd7051cdefc6","system_id":"levelo_inurba_marseille","lat":43.2837,"lon":5.3862,"is_reserved":false,"is_disabled":false,"rental_uris":{"android":"levelo://app?vid=5845f6fb-b0ab-494c-b8cc-fd7051cdefc6","ios":"levelo://app?vid=5845f6fb-b0ab-494c-b8cc-fd7051cdefc6"},"vehicle_type_id":"4","last_reported":1739653654,"current_range_meters":16400,"station_id":"ce4bh492rcd13ifvqdvg","pricing_plan_id":"cebpf4jnsgd1na2vs0mg"},{"bike_id":"52f0172c-5485-4234-ab72-828fe4e1e6ea","system_id":"levelo_inurba_marseille","lat":43.32663,"lon":5.4099,"is_reserved":false,"is_disabled":false,"rental_uris":{"android":"levelo://app?vid=52f0172c-5485-4234-ab72-828fe4e1e6ea","ios":"levelo://app?vid=52f0172c-5485-4234-ab72-828fe4e1e6ea"},"vehicle_type_id":"4","last_reported":1739653654,"current_range_meters":38800,"station_id":"ce4bhpp2rcd13ifvqhgg","pricing_plan_id":"cebpf4jnsgd1na2vs0mg"},{"bike_id":"15bc22af-888b-4479-af29-641c9a0722b3","system_id":"levelo_inurba_marseille","lat":43.29078,"lon":5.37166,"is_reserved":false,"is_disabled":false,"rental_uris":{"android":"levelo://app?vid=15bc22af-888b-4479-af29-641c9a0722b3","ios":"levelo://app?vid=15bc22af-888b-4479-af29-641c9a0722b3"},"vehicle_type_id":"4","last_reported":1739653654,"current_range_meters":32000,"station_id":"ce4bh5p2rcd13ifvqe4g","pricing_plan_id":"cebpf4jnsgd1na2vs0mg"},{"bike_id":"4afd05b5-41e1-4012-b907-304d88773920","system_id":"levelo_inurba_marseille","lat":43.23955,"lon":5.36669,"is_reserved":false,"is_disabled":false,"rental_uris":{"android":"levelo://app?vid=4afd05b5-41e1-4012-b907-304d88773920","ios":"levelo://app?vid=4afd05b5-41e1-4012-b907-304d88773920"},"vehicle_type_id":"4","last_reported":1739653654,"current_range_meters":38000,"station_id":"ce4bhi12rcd13ifvqfp0","pricing_plan_id":"cebpf4jnsgd1na2vs0mg"},{"bike_id":"04a7b60c-4dde-46e7-a1b8-1c4789b39990","system_id":"levelo_inurba_marseille","lat":43.29301,"lon":5.37436,"is_reserved":false,"is_disabled":false,"rental_uris":{"android":"levelo://app?vid=04a7b60c-4dde-46e7-a1b8-1c4789b39990","ios":"levelo://app?vid=04a7b60c-4dde-46e7-a1b8-1c4789b39990"},"vehicle_type_id":"4","last_reported":1739653654,"current_range_meters":38800,"station_id":"ce4bgi12rcd13ifvqb70","pricing_plan_id":"cebpf4jnsgd1na2vs0mg"},{"bike_id":"af02ac68-734a-4337-a76f-2d6f15936fdf","system_id":"levelo_inurba_marseille","lat":43.28153,"lon":5.42659,"is_reserved":false,"is_disabled":false,"rental_uris":{"android":"levelo://app?vid=af02ac68-734a-4337-a76f-2d6f15936fdf","ios":"levelo://app?vid=af02ac68-734a-4337-a76f-2d6f15936fdf"},"vehicle_type_id":"4","last_reported":1739653654,"current_range_meters":38800,"station_id":"ce4bhnh2rcd13ifvqgug","pricing_plan_id":"cebpf4jnsgd1na2vs0mg"},{"bike_id":"4b100c66-b148-466e-9d40-f9fa299e8282","system_id":"levelo_inurba_marseille","lat":43.27827,"lon":5.39203,"is_reserved":false,"is_disabled":false,"rental_uris":{"android":"levelo://app?vid=4b100c66-b148-466e-9d40-f9fa299e8282","ios":"levelo://app?vid=4b100c66-b148-466e-9d40-f9fa299e8282"},"vehicle_type_id":"4","last_reported":1739653654,"current_range_meters":23200,"station_id":"ce4bhjp2rcd13ifvqga0","pricing_plan_id":"cebpf4jnsgd1na2vs0mg"},{"bike_id":"27ca0e2c-050e-45fc-ba69-4e99735ad910","system_id":"levelo_inurba_marseille","lat":43.24541,"lon":5.39525,"is_reserved":false,"is_disabled":false,"rental_uris":{"android":"levelo://app?vid=27ca0e2c-050e-45fc-ba69-4e99735ad910","ios":"levelo://app?vid=27ca0e2c-050e-45fc-ba69-4e99735ad910"},"vehicle_type_id":"4","last_reported":1739653654,"current_range_meters":6400,"station_id":"ce4bhlp2rcd13ifvqgjg","pricing_plan_id":"cebpf4jnsgd1na2vs0mg"},{"bike_id":"7fec5611-bf4a-49fa-af85-f0a09a0aac64","system_id":"levelo_inurba_marseille","lat":43.29795,"lon":5.38098,"is_reserved":false,"is_disabled":false,"rental_uris":{"android":"levelo://app?vid=7fec5611-bf4a-49fa-af85-f0a09a0aac64","ios":"levelo://app?vid=7fec5611-bf4a-49fa-af85-f0a09a0aac64"},"vehicle_type_id":"4","last_reported":1739653654,"current_range_meters":27600,"station_id":"ce4bgip2rcd13ifvqbb0","pricing_plan_id":"cebpf4jnsgd1na2vs0mg"},{"bike_id":"51a813d0-d44a-4b32-bd12-92e5137c38bb","system_id":"levelo_inurba_marseille","lat":43.29364,"lon":5.3784,"is_reserved":false,"is_disabled":false,"rental_uris":{"android":"levelo://app?vid=51a813d0-d44a-4b32-bd12-92e5137c38bb","ios":"levelo://app?vid=51a813d0-d44a-4b32-bd12-92e5137c38bb"},"vehicle_type_id":"4","last_reported":1739653654,"current_range_meters":38000,"station_id":"ce4bgjh2rcd13ifvqbf0","pricing_plan_id":"cebpf4jnsgd1na2vs0mg"},{"bike_id":"3ce3dae2-ed5f-43cb-bad9-b317ce2471d9","system_id":"levelo_inurba_marseille","lat":43.2481,"lon":5.37457,"is_reserved":false,"is_disabled":false,"rental_uris":{"android":"levelo://app?vid=3ce3dae2-ed5f-43cb-bad9-b317ce2471d9","ios":"levelo://app?vid=3ce3dae2-ed5f-43cb-bad9-b317ce2471d9"},"vehicle_type_id":"4","last_reported":1739653654,"current_range_meters":38800,"station_id":"ce4bhgh2rcd13ifvqfb0","pricing_plan_id":"cebpf4jnsgd1na2vs0mg"},{"bike_id":"80aa7a46-2fb8-432d-8904-bd3e9d34e788","system_id":"levelo_inurba_marseille","lat":43.29529,"lon":5.39261,"is_reserved":false,"is_disabled":false,"rental_uris":{"android":"levelo://app?vid=80aa7a46-2fb8-432d-8904-bd3e9d34e788","ios":"levelo://app?vid=80aa7a46-2fb8-432d-8904-bd3e9d34e788"},"vehicle_type_id":"4","last_reported":1739653654,"current_range_meters":30000,"station_id":"ce4bh292rcd13ifvqdf0","pricing_plan_id":"cebpf4jnsgd1na2vs0mg"},{"bike_id":"397f7144-3e20-4f61-9149-2720265fc375","system_id":"levelo_inurba_marseille","lat":43.24104,"lon":5.3772,"is_reserved":false,"is_disabled":false,"rental_uris":{"android":"levelo://app?vid=397f7144-3e20-4f61-9149-2720265fc375","ios":"levelo://app?vid=397f7144-3e20-4f61-9149-2720265fc375"},"vehicle_type_id":"4","last_reported":1739653654,"current_range_meters":36800,"station_id":"ce4bhnp2rcd13ifvqgvg","pricing_plan_id":"cebpf4jnsgd1na2vs0mg"},{"bike_id":"93769704-c715-4594-9440-514b2b83cfe6","system_id":"levelo_inurba_marseille","lat":43.30322,"lon":5.40437,"is_reserved":false,"is_disabled":false,"rental_uris":{"android":"levelo://app?vid=93769704-c715-4594-9440-514b2b83cfe6","ios":"levelo://app?vid=93769704-c715-4594-9440-514b2b83cfe6"},"vehicle_type_id":"4","last_reported":1739653654,"current_range_meters":32400,"station_id":"ce4bh012rcd13ifvqd10","pricing_plan_id":"cebpf4jnsgd1na2vs0mg"},{"bike_id":"f54aab78-5c08-496c-ab19-331392cf12cc","system_id":"levelo_inurba_marseille","lat":43.29789,"lon":5.38093,"is_reserved":false,"is_disabled":false,"rental_uris":{"android":"levelo://app?vid=f54aab78-5c08-496c-ab19-331392cf12cc","ios":"levelo://app?vid=f54aab78-5c08-496c-ab19-331392cf12cc"},"vehicle_type_id":"4","last_reported":1739653654,"current_range_meters":30400,"station_id":"ce4bgip2rcd13ifvqbb0","pricing_plan_id":"cebpf4jnsgd1na2vs0mg"},{"bike_id":"391408fa-4661-4fa3-8f76-e7bcc0045315","system_id":"levelo_inurba_marseille","lat":43.28157,"lon":5.42644,"is_reserved":false,"is_disabled":false,"rental_uris":{"android":"levelo://app?vid=391408fa-4661-4fa3-8f76-e7bcc0045315","ios":"levelo://app?vid=391408fa-4661-4fa3-8f76-e7bcc0045315"},"vehicle_type_id":"4","last_reported":1739653654,"current_range_meters":2800,"station_id":"ce4bhnh2rcd13ifvqgug","pricing_plan_id":"cebpf4jnsgd1na2vs0mg"},{"bike_id":"9d7c84b1-5e85-40b5-9214-0ea5f354ecac","system_id":"levelo_inurba_marseille","lat":43.28615,"lon":5.3847,"is_reserved":false,"is_disabled":false,"rental_uris":{"android":"levelo://app?vid=9d7c84b1-5e85-40b5-9214-0ea5f354ecac","ios":"levelo://app?vid=9d7c84b1-5e85-40b5-9214-0ea5f354ecac"},"vehicle_type_id":"4","last_reported":1739653654,"current_range_meters":12800,"station_id":"","pricing_plan_id":"cebpf4jnsgd1na2vs0mg"},{"bike_id":"a708d251-3400-47a3-9e2a-21ab61f1680d","system_id":"levelo_inurba_marseille","lat":43.29435,"lon":5.38644,"is_reserved":false,"is_disabled":false,"rental_uris":{"android":"levelo://app?vid=a708d251-3400-47a3-9e2a-21ab61f1680d","ios":"levelo://app?vid=a708d251-3400-47a3-9e2a-21ab61f1680d"},"vehicle_type_id":"4","last_reported":1739653654,"current_range_meters":17600,"station_id":"ce4bh2h2rcd13ifvqdh0","pricing_plan_id":"cebpf4jnsgd1na2vs0mg"},{"bike_id":"e1fc261d-6991-4bab-90e3-fd7b29550219","system_id":"levelo_inurba_marseille","lat":43.29429,"lon":5.38662,"is_reserved":false,"is_disabled":false,"rental_uris":{"android":"levelo://app?vid=e1fc261d-6991-4bab-90e3-fd7b29550219","ios":"levelo://app?vid=e1fc261d-6991-4bab-90e3-fd7b29550219"},"vehicle_type_id":"4","last_reported":1739653654,"current_range_meters":16800,"station_id":"ce4bh2h2rcd13ifvqdh0","pricing_plan_id":"cebpf4jnsgd1na2vs0mg"},{"bike_id":"d4d36247-2aab-4add-8265-c91892033971","system_id":"levelo_inurba_marseille","lat":43.27811,"lon":5.4071,"is_reserved":false,"is_disabled":false,"rental_uris":{"android":"levelo://app?vid=d4d36247-2aab-4add-8265-c91892033971","ios":"levelo://app?vid=d4d36247-2aab-4add-8265-c91892033971"},"vehicle_type_id":"4","last_reported":1739653654,"current_range_meters":16000,"station_id":"ce4bhnh2rcd13ifvqgtg","pricing_plan_id":"cebpf4jnsgd1na2vs0mg"},{"bike_id":"6408b994-ae56-4e32-95b9-cb0502299b0f","system_id":"levelo_inurba_marseille","lat":43.29549,"lon":5.42282,"is_reserved":false,"is_disabled":false,"rental_uris":{"android":"levelo://app?vid=6408b994-ae56-4e32-95b9-cb0502299b0f","ios":"levelo://app?vid=6408b994-ae56-4e32-95b9-cb0502299b0f"},"vehicle_type_id":"4","last_reported":1739653654,"current_range_meters":39200,"station_id":"ce4bhph2rcd13ifvqhdg","pricing_plan_id":"cebpf4jnsgd1na2vs0mg"},{"bike_id":"6e99a79f-6cd4-45d4-a549-50146c8606c5","system_id":"levelo_inurba_marseille","lat":43.2929,"lon":5.37161,"is_reserved":false,"is_disabled":false,"rental_uris":{"android":"levelo://app?vid=6e99a79f-6cd4-45d4-a549-50146c8606c5","ios":"levelo://app?vid=6e99a79f-6cd4-45d4-a549-50146c8606c5"},"vehicle_type_id":"4","last_reported":1739653654,"current_range_meters":26000,"station_id":"ce4bgh92rcd13ifvqb40","pricing_plan_id":"cebpf4jnsgd1na2vs0mg"},{"bike_id":"65d3bc66-1b75-492c-9134-904e320fa556","system_id":"levelo_inurba_marseille","lat":43.29275,"lon":5.38426,"is_reserved":false,"is_disabled":false,"rental_uris":{"android":"levelo://app?vid=65d3bc66-1b75-492c-9134-904e320fa556","ios":"levelo://app?vid=65d3bc66-1b75-492c-9134-904e320fa556"},"vehicle_type_id":"4","last_reported":1739653654,"current_range_meters":5600,"station_id":"ce4bh692rcd13ifvqea0","pricing_plan_id":"cebpf4jnsgd1na2vs0mg"},{"bike_id":"98f62326-8a26-4889-8233-3fa661e57e03","system_id":"levelo_inurba_marseille","lat":43.25107,"lon":5.40303,"is_reserved":false,"is_disabled":false,"rental_uris":{"android":"levelo://app?vid=98f62326-8a26-4889-8233-3fa661e57e03","ios":"levelo://app?vid=98f62326-8a26-4889-8233-3fa661e57e03"},"vehicle_type_id":"4","last_reported":1739653654,"current_range_meters":9600,"station_id":"ce4bhlh2rcd13ifvqgig","pricing_plan_id":"cebpf4jnsgd1na2vs0mg"},{"bike_id":"dc5e7f5d-f37a-4b24-9b26-e2cf0a346d6e","system_id":"levelo_inurba_marseille","lat":43.30896,"lon":5.39643,"is_reserved":false,"is_disabled":false,"rental_uris":{"android":"levelo://app?vid=dc5e7f5d-f37a-4b24-9b26-e2cf0a346d6e","ios":"levelo://app?vid=dc5e7f5d-f37a-4b24-9b26-e2cf0a346d6e"},"vehicle_type_id":"4","last_reported":1739653654,"current_range_meters":26800,"station_id":"ce4bh012rcd13ifvqcv0","pricing_plan_id":"cebpf4jnsgd1na2vs0mg"},{"bike_id":"94407563-d689-4684-a69f-e6b31b2ddba5","system_id":"levelo_inurba_marseille","lat":43.29217,"lon":5.39354,"is_reserved":false,"is_disabled":false,"rental_uris":{"android":"levelo://app?vid=94407563-d689-4684-a69f-e6b31b2ddba5","ios":"levelo://app?vid=94407563-d689-4684-a69f-e6b31b2ddba5"},"vehicle_type_id":"4","last_reported":1739653654,"current_range_meters":36800,"station_id":"","pricing_plan_id":"cebpf4jnsgd1na2vs0mg"},{"bike_id":"90f42989-e278-4189-9955-55d00043d338","system_id":"levelo_inurba_marseille","lat":43.29432,"lon":5.38626,"is_reserved":false,"is_disabled":false,"rental_uris":{"android":"levelo://app?vid=90f42989-e278-4189-9955-55d00043d338","ios":"levelo://app?vid=90f42989-e278-4189-9955-55d00043d338"},"vehicle_type_id":"4","last_reported":1739653654,"current_range_meters":22400,"station_id":"ce4bh2h2rcd13ifvqdh0","pricing_plan_id":"cebpf4jnsgd1na2vs0mg"},{"bike_id":"648a673e-8640-4d52-96f1-449e842d6f99","system_id":"levelo_inurba_marseille","lat":43.28409,"lon":5.34984,"is_reserved":false,"is_disabled":false,"rental_uris":{"android":"levelo://app?vid=648a673e-8640-4d52-96f1-449e842d6f99","ios":"levelo://app?vid=648a673e-8640-4d52-96f1-449e842d6f99"},"vehicle_type_id":"4","last_reported":1739653654,"current_range_meters":35600,"station_id":"ce4bhbh2rcd13ifvqepg","pricing_plan_id":"cebpf4jnsgd1na2vs0mg"},{"bike_id":"4e1f36bf-920b-407f-bd8e-e12200457304","system_id":"levelo_inurba_marseille","lat":43.27843,"lon":5.40714,"is_reserved":false,"is_disabled":false,"rental_uris":{"android":"levelo://app?vid=4e1f36bf-920b-407f-bd8e-e12200457304","ios":"levelo://app?vid=4e1f36bf-920b-407f-bd8e-e12200457304"},"vehicle_type_id":"4","last_reported":1739653654,"current_range_meters":39200,"station_id":"ce4bhnh2rcd13ifvqgtg","pricing_plan_id":"cebpf4jnsgd1na2vs0mg"},{"bike_id":"7df33989-9cd1-4583-a90f-25c190f648b5","system_id":"levelo_inurba_marseille","lat":43.29369,"lon":5.38626,"is_reserved":false,"is_disabled":false,"rental_uris":{"android":"levelo://app?vid=7df33989-9cd1-4583-a90f-25c190f648b5","ios":"levelo://app?vid=7df33989-9cd1-4583-a90f-25c190f648b5"},"vehicle_type_id":"4","last_reported":1739653654,"current_range_meters":32000,"station_id":"","pricing_plan_id":"cebpf4jnsgd1na2vs0mg"},{"bike_id":"04215455-05a1-44f2-b378-d57a8034bb86","system_id":"levelo_inurba_marseille","lat":43.29313,"lon":5.37174,"is_reserved":false,"is_disabled":false,"rental_uris":{"android":"levelo://app?vid=04215455-05a1-44f2-b378-d57a8034bb86","ios":"levelo://app?vid=04215455-05a1-44f2-b378-d57a8034bb86"},"vehicle_type_id":"4","last_reported":1739653654,"current_range_meters":34800,"station_id":"ce4bgh92rcd13ifvqb40","pricing_plan_id":"cebpf4jnsgd1na2vs0mg"},{"bike_id":"e07eb8ea-68b6-49f8-98dc-0c81618f22f8","system_id":"levelo_inurba_marseille","lat":43.246854,"lon":5.381778,"is_reserved":false,"is_disabled":false,"rental_uris":{"android":"levelo://app?vid=e07eb8ea-68b6-49f8-98dc-0c81618f22f8","ios":"levelo://app?vid=e07eb8ea-68b6-49f8-98dc-0c81618f22f8"},"vehicle_type_id":"4","last_reported":1739653654,"current_range_meters":36800,"station_id":"ce4bhih2rcd13ifvqfr0","pricing_plan_id":"cebpf4jnsgd1na2vs0mg"},{"bike_id":"3d1a536f-25df-4558-adac-2acd527a301f","system_id":"levelo_inurba_marseille","lat":43.290503,"lon":5.376012,"is_reserved":false,"is_disabled":false,"rental_uris":{"android":"levelo://app?vid=3d1a536f-25df-4558-adac-2acd527a301f","ios":"levelo://app?vid=3d1a536f-25df-4558-adac-2acd527a301f"},"vehicle_type_id":"4","last_reported":1739653654,"current_range_meters":6800,"station_id":"ce4bhah2rcd13ifvqei0","pricing_plan_id":"cebpf4jnsgd1na2vs0mg"},{"bike_id":"9f83a04a-e991-4498-a744-e0b7b2cda958","system_id":"levelo_inurba_marseille","lat":43.29262,"lon":5.38469,"is_reserved":false,"is_disabled":false,"rental_uris":{"android":"levelo://app?vid=9f83a04a-e991-4498-a744-e0b7b2cda958","ios":"levelo://app?vid=9f83a04a-e991-4498-a744-e0b7b2cda958"},"vehicle_type_id":"4","last_reported":1739653654,"current_range_meters":12000,"station_id":"ce4bh692rcd13ifvqea0","pricing_plan_id":"cebpf4jnsgd1na2vs0mg"},{"bike_id":"c7181c01-5767-4206-a2d3-43368915c75f","system_id":"levelo_inurba_marseille","lat":43.29786,"lon":5.39341,"is_reserved":false,"is_disabled":false,"rental_uris":{"android":"levelo://app?vid=c7181c01-5767-4206-a2d3-43368915c75f","ios":"levelo://app?vid=c7181c01-5767-4206-a2d3-43368915c75f"},"vehicle_type_id":"4","last_reported":1739653654,"current_range_meters":20800,"station_id":"chh1huq6cuj3fo74tm60","pricing_plan_id":"cebpf4jnsgd1na2vs0mg"},{"bike_id":"a7d3b66f-8be4-41fa-a853-1dd05f4c9fb3","system_id":"levelo_inurba_marseille","lat":43.29044,"lon":5.37551,"is_reserved":false,"is_disabled":false,"rental_uris":{"android":"levelo://app?vid=a7d3b66f-8be4-41fa-a853-1dd05f4c9fb3","ios":"levelo://app?vid=a7d3b66f-8be4-41fa-a853-1dd05f4c9fb3"},"vehicle_type_id":"4","last_reported":1739653654,"current_range_meters":37600,"station_id":"ce4bh692rcd13ifvqe90","pricing_plan_id":"cebpf4jnsgd1na2vs0mg"},{"bike_id":"7ed8e48f-d577-4271-af08-371957dffd30","system_id":"levelo_inurba_marseille","lat":43.31165,"lon":5.38704,"is_reserved":false,"is_disabled":false,"rental_uris":{"android":"levelo://app?vid=7ed8e48f-d577-4271-af08-371957dffd30","ios":"levelo://app?vid=7ed8e48f-d577-4271-af08-371957dffd30"},"vehicle_type_id":"4","last_reported":1739653654,"current_range_meters":39200,"station_id":"ce4bgv12rcd13ifvqcp0","pricing_plan_id":"cebpf4jnsgd1na2vs0mg"},{"bike_id":"6e0303df-e5eb-4c03-9281-05e4a07f1b81","system_id":"levelo_inurba_marseille","lat":43.29516,"lon":5.39049,"is_reserved":false,"is_disabled":false,"rental_uris":{"android":"levelo://app?vid=6e0303df-e5eb-4c03-9281-05e4a07f1b81","ios":"levelo://app?vid=6e0303df-e5eb-4c03-9281-05e4a07f1b81"},"vehicle_type_id":"4","last_reported":1739653654,"current_range_meters":26800,"station_id":"ce4bh3p2rcd13ifvqdp0","pricing_plan_id":"cebpf4jnsgd1na2vs0mg"},{"bike_id":"72526c7a-bad2-48be-9eb5-30027376ec95","system_id":"levelo_inurba_marseille","lat":43.23205,"lon":5.35523,"is_reserved":false,"is_disabled":false,"rental_uris":{"android":"levelo://app?vid=72526c7a-bad2-48be-9eb5-30027376ec95","ios":"levelo://app?vid=72526c7a-bad2-48be-9eb5-30027376ec95"},"vehicle_type_id":"4","last_reported":1739653654,"current_range_meters":38800,"station_id":"ce4bhu92rcd13ifvqi70","pricing_plan_id":"cebpf4jnsgd1na2vs0mg"},{"bike_id":"556c1d6d-667a-404b-9e60-1953c9298af3","system_id":"levelo_inurba_marseille","lat":43.28632,"lon":5.351,"is_reserved":false,"is_disabled":false,"rental_uris":{"android":"levelo://app?vid=556c1d6d-667a-404b-9e60-1953c9298af3","ios":"levelo://app?vid=556c1d6d-667a-404b-9e60-1953c9298af3"},"vehicle_type_id":"4","last_reported":1739653654,"current_range_meters":9200,"station_id":"ce4bhch2rcd13ifvqeug","pricing_plan_id":"cebpf4jnsgd1na2vs0mg"},{"bike_id":"208f6fa9-d018-4d26-9e12-c220cc22c78a","system_id":"levelo_inurba_marseille","lat":43.29792,"lon":5.39352,"is_reserved":false,"is_disabled":false,"rental_uris":{"android":"levelo://app?vid=208f6fa9-d018-4d26-9e12-c220cc22c78a","ios":"levelo://app?vid=208f6fa9-d018-4d26-9e12-c220cc22c78a"},"vehicle_type_id":"4","last_reported":1739653654,"current_range_meters":26000,"station_id":"chh1huq6cuj3fo74tm60","pricing_plan_id":"cebpf4jnsgd1na2vs0mg"},{"bike_id":"3a029882-9888-4e4f-a670-8e87d78d0aec","system_id":"levelo_inurba_marseille","lat":43.24539,"lon":5.39537,"is_reserved":false,"is_disabled":false,"rental_uris":{"android":"levelo://app?vid=3a029882-9888-4e4f-a670-8e87d78d0aec","ios":"levelo://app?vid=3a029882-9888-4e4f-a670-8e87d78d0aec"},"vehicle_type_id":"4","last_reported":1739653654,"current_range_meters":38800,"station_id":"ce4bhlp2rcd13ifvqgjg","pricing_plan_id":"cebpf4jnsgd1na2vs0mg"},{"bike_id":"b8d25ce7-1da2-4303-a91f-bf4df7dad575","system_id":"levelo_inurba_marseille","lat":43.29621,"lon":5.37709,"is_reserved":false,"is_disabled":false,"rental_uris":{"android":"levelo://app?vid=b8d25ce7-1da2-4303-a91f-bf4df7dad575","ios":"levelo://app?vid=b8d25ce7-1da2-4303-a91f-bf4df7dad575"},"vehicle_type_id":"4","last_reported":1739653654,"current_range_meters":28000,"station_id":"ce4bgi92rcd13ifvqb90","pricing_plan_id":"cebpf4jnsgd1na2vs0mg"},{"bike_id":"e4bb4fb0-d1bb-4912-907a-4fedfccf3c76","system_id":"levelo_inurba_marseille","lat":43.29258,"lon":5.38443,"is_reserved":false,"is_disabled":false,"rental_uris":{"android":"levelo://app?vid=e4bb4fb0-d1bb-4912-907a-4fedfccf3c76","ios":"levelo://app?vid=e4bb4fb0-d1bb-4912-907a-4fedfccf3c76"},"vehicle_type_id":"4","last_reported":1739653654,"current_range_meters":20400,"station_id":"ce4bh692rcd13ifvqea0","pricing_plan_id":"cebpf4jnsgd1na2vs0mg"},{"bike_id":"03eba1d0-92c1-4e6e-a4d0-7c546f2439c0","system_id":"levelo_inurba_marseille","lat":43.337444,"lon":5.374475,"is_reserved":false,"is_disabled":true,"rental_uris":{"android":"levelo://app?vid=03eba1d0-92c1-4e6e-a4d0-7c546f2439c0","ios":"levelo://app?vid=03eba1d0-92c1-4e6e-a4d0-7c546f2439c0"},"vehicle_type_id":"4","last_reported":1739653654,"current_range_meters":0,"station_id":"","pricing_plan_id":"cebpf4jnsgd1na2vs0mg"},{"bike_id":"2b51a041-a600-4f69-92f9-b5941fc7c79e","system_id":"levelo_inurba_marseille","lat":43.28413,"lon":5.3925,"is_reserved":false,"is_disabled":true,"rental_uris":{"android":"levelo://app?vid=2b51a041-a600-4f69-92f9-b5941fc7c79e","ios":"levelo://app?vid=2b51a041-a600-4f69-92f9-b5941fc7c79e"},"vehicle_type_id":"4","last_reported":1739653654,"current_range_meters":30800,"station_id":"ce4bhoh2rcd13ifvqh5g","pricing_plan_id":"cebpf4jnsgd1na2vs0mg"},{"bike_id":"653b3681-8d49-4063-97bd-177fe11162f9","system_id":"levelo_inurba_marseille","lat":43.25495,"lon":5.37643,"is_reserved":false,"is_disabled":true,"rental_uris":{"android":"levelo://app?vid=653b3681-8d49-4063-97bd-177fe11162f9","ios":"levelo://app?vid=653b3681-8d49-4063-97bd-177fe11162f9"},"vehicle_type_id":"4","last_reported":1739653654,"current_range_meters":36000,"station_id":"ce4bhh12rcd13ifvqff0","pricing_plan_id":"cebpf4jnsgd1na2vs0mg"},{"bike_id":"b73f0361-8288-4cbd-a4d6-cf04f2116866","system_id":"levelo_inurba_marseille","lat":43.29164,"lon":5.37155,"is_reserved":false,"is_disabled":false,"rental_uris":{"android":"levelo://app?vid=b73f0361-8288-4cbd-a4d6-cf04f2116866","ios":"levelo://app?vid=b73f0361-8288-4cbd-a4d6-cf04f2116866"},"vehicle_type_id":"4","last_reported":1739653654,"current_range_meters":38000,"station_id":"ce4bha92rcd13ifvqeh0","pricing_plan_id":"cebpf4jnsgd1na2vs0mg"},{"bike_id":"51dc1c8b-290d-4146-93d2-4afe1542e5b0","system_id":"levelo_inurba_marseille","lat":43.29537,"lon":5.38509,"is_reserved":false,"is_disabled":false,"rental_uris":{"android":"levelo://app?vid=51dc1c8b-290d-4146-93d2-4afe1542e5b0","ios":"levelo://app?vid=51dc1c8b-290d-4146-93d2-4afe1542e5b0"},"vehicle_type_id":"4","last_reported":1739653654,"current_range_meters":22800,"station_id":"ce4bgih2rcd13ifvqba0","pricing_plan_id":"cebpf4jnsgd1na2vs0mg"},{"bike_id":"3341758d-d181-4d02-b02c-6161e8816e88","system_id":"levelo_inurba_marseille","lat":43.31903,"lon":5.40743,"is_reserved":false,"is_disabled":false,"rental_uris":{"android":"levelo://app?vid=3341758d-d181-4d02-b02c-6161e8816e88","ios":"levelo://app?vid=3341758d-d181-4d02-b02c-6161e8816e88"},"vehicle_type_id":"4","last_reported":1739653654,"current_range_meters":20800,"station_id":"ce4bhq12rcd13ifvqhig","pricing_plan_id":"cebpf4jnsgd1na2vs0mg"},{"bike_id":"dbf220bb-131a-4509-b32e-690ce6030049","system_id":"levelo_inurba_marseille","lat":43.32417,"lon":5.40661,"is_reserved":false,"is_disabled":false,"rental_uris":{"android":"levelo://app?vid=dbf220bb-131a-4509-b32e-690ce6030049","ios":"levelo://app?vid=dbf220bb-131a-4509-b32e-690ce6030049"},"vehicle_type_id":"4","last_reported":1739653654,"current_range_meters":28400,"station_id":"","pricing_plan_id":"cebpf4jnsgd1na2vs0mg"},{"bike_id":"d7bb91c7-1e6c-4011-85a2-08678dbfba66","system_id":"levelo_inurba_marseille","lat":43.24409,"lon":5.37048,"is_reserved":false,"is_disabled":false,"rental_uris":{"android":"levelo://app?vid=d7bb91c7-1e6c-4011-85a2-08678dbfba66","ios":"levelo://app?vid=d7bb91c7-1e6c-4011-85a2-08678dbfba66"},"vehicle_type_id":"4","last_reported":1739653654,"current_range_meters":38800,"station_id":"ce4bhhh2rcd13ifvqfk0","pricing_plan_id":"cebpf4jnsgd1na2vs0mg"},{"bike_id":"637aa819-2e48-4a44-a418-05784d9ee22e","system_id":"levelo_inurba_marseille","lat":43.2926,"lon":5.38439,"is_reserved":false,"is_disabled":false,"rental_uris":{"android":"levelo://app?vid=637aa819-2e48-4a44-a418-05784d9ee22e","ios":"levelo://app?vid=637aa819-2e48-4a44-a418-05784d9ee22e"},"vehicle_type_id":"4","last_reported":1739653654,"current_range_meters":24800,"station_id":"ce4bh692rcd13ifvqea0","pricing_plan_id":"cebpf4jnsgd1na2vs0mg"},{"bike_id":"4872ad7c-825d-49ad-a567-129de7cf847d","system_id":"levelo_inurba_marseille","lat":43.29535,"lon":5.38546,"is_reserved":false,"is_disabled":false,"rental_uris":{"android":"levelo://app?vid=4872ad7c-825d-49ad-a567-129de7cf847d","ios":"levelo://app?vid=4872ad7c-825d-49ad-a567-129de7cf847d"},"vehicle_type_id":"4","last_reported":1739653654,"current_range_meters":28400,"station_id":"ce4bgih2rcd13ifvqba0","pricing_plan_id":"cebpf4jnsgd1na2vs0mg"},{"bike_id":"982f259d-d0a4-441b-9edd-679fa6bc44a7","system_id":"levelo_inurba_marseille","lat":43.269224,"lon":5.402473,"is_reserved":false,"is_disabled":false,"rental_uris":{"android":"levelo://app?vid=982f259d-d0a4-441b-9edd-679fa6bc44a7","ios":"levelo://app?vid=982f259d-d0a4-441b-9edd-679fa6bc44a7"},"vehicle_type_id":"4","last_reported":1739653654,"current_range_meters":21600,"station_id":"cjm6bp8fraef2m0cb0m0","pricing_plan_id":"cebpf4jnsgd1na2vs0mg"},{"bike_id":"36e9626a-f0c0-42ed-9b51-b652c3621f49","system_id":"levelo_inurba_marseille","lat":43.24191,"lon":5.39711,"is_reserved":false,"is_disabled":false,"rental_uris":{"android":"levelo://app?vid=36e9626a-f0c0-42ed-9b51-b652c3621f49","ios":"levelo://app?vid=36e9626a-f0c0-42ed-9b51-b652c3621f49"},"vehicle_type_id":"4","last_reported":1739653654,"current_range_meters":20800,"station_id":"ce4bhn12rcd13ifvqgpg","pricing_plan_id":"cebpf4jnsgd1na2vs0mg"},{"bike_id":"7810399a-aba8-4931-8563-2a4f4266c078","system_id":"levelo_inurba_marseille","lat":43.25113,"lon":5.40327,"is_reserved":false,"is_disabled":false,"rental_uris":{"android":"levelo://app?vid=7810399a-aba8-4931-8563-2a4f4266c078","ios":"levelo://app?vid=7810399a-aba8-4931-8563-2a4f4266c078"},"vehicle_type_id":"4","last_reported":1739653654,"current_range_meters":12000,"station_id":"ce4bhlh2rcd13ifvqgig","pricing_plan_id":"cebpf4jnsgd1na2vs0mg"},{"bike_id":"c02630e4-0321-47b6-ac2b-aeaf7b2a8056","system_id":"levelo_inurba_marseille","lat":43.29915,"lon":5.39761,"is_reserved":false,"is_disabled":false,"rental_uris":{"android":"levelo://app?vid=c02630e4-0321-47b6-ac2b-aeaf7b2a8056","ios":"levelo://app?vid=c02630e4-0321-47b6-ac2b-aeaf7b2a8056"},"vehicle_type_id":"4","last_reported":1739653654,"current_range_meters":9200,"station_id":"ce4bh0h2rcd13ifvqd50","pricing_plan_id":"cebpf4jnsgd1na2vs0mg"},{"bike_id":"bd1fbd17-5ecd-4c2a-9290-d1ffd1a70214","system_id":"levelo_inurba_marseille","lat":43.29548,"lon":5.42284,"is_reserved":false,"is_disabled":false,"rental_uris":{"android":"levelo://app?vid=bd1fbd17-5ecd-4c2a-9290-d1ffd1a70214","ios":"levelo://app?vid=bd1fbd17-5ecd-4c2a-9290-d1ffd1a70214"},"vehicle_type_id":"4","last_reported":1739653654,"current_range_meters":30800,"station_id":"ce4bhph2rcd13ifvqhdg","pricing_plan_id":"cebpf4jnsgd1na2vs0mg"},{"bike_id":"25515edf-cc9e-4e85-becb-3fd8e850755e","system_id":"levelo_inurba_marseille","lat":43.2815,"lon":5.42643,"is_reserved":false,"is_disabled":false,"rental_uris":{"android":"levelo://app?vid=25515edf-cc9e-4e85-becb-3fd8e850755e","ios":"levelo://app?vid=25515edf-cc9e-4e85-becb-3fd8e850755e"},"vehicle_type_id":"4","last_reported":1739653654,"current_range_meters":8800,"station_id":"ce4bhnh2rcd13ifvqgug","pricing_plan_id":"cebpf4jnsgd1na2vs0mg"},{"bike_id":"b9ff6eec-0a38-4789-a15e-f3855db0e022","system_id":"levelo_inurba_marseille","lat":43.25108,"lon":5.4034,"is_reserved":false,"is_disabled":false,"rental_uris":{"android":"levelo://app?vid=b9ff6eec-0a38-4789-a15e-f3855db0e022","ios":"levelo://app?vid=b9ff6eec-0a38-4789-a15e-f3855db0e022"},"vehicle_type_id":"4","last_reported":1739653654,"current_range_meters":14000,"station_id":"ce4bhlh2rcd13ifvqgig","pricing_plan_id":"cebpf4jnsgd1na2vs0mg"},{"bike_id":"4f34ac20-13f8-4bff-8fa6-5425328bb98e","system_id":"levelo_inurba_marseille","lat":43.30251,"lon":5.4006,"is_reserved":false,"is_disabled":true,"rental_uris":{"android":"levelo://app?vid=4f34ac20-13f8-4bff-8fa6-5425328bb98e","ios":"levelo://app?vid=4f34ac20-13f8-4bff-8fa6-5425328bb98e"},"vehicle_type_id":"4","last_reported":1739653654,"current_range_meters":27200,"station_id":"ce4bgvh2rcd13ifvqcs0","pricing_plan_id":"cebpf4jnsgd1na2vs0mg"},{"bike_id":"ccf0c38c-deb5-4481-9e56-80d5e2f809d7","system_id":"levelo_inurba_marseille","lat":43.30146,"lon":5.39868,"is_reserved":false,"is_disabled":false,"rental_uris":{"android":"levelo://app?vid=ccf0c38c-deb5-4481-9e56-80d5e2f809d7","ios":"levelo://app?vid=ccf0c38c-deb5-4481-9e56-80d5e2f809d7"},"vehicle_type_id":"4","last_reported":1739653654,"current_range_meters":25600,"station_id":"ce4bh0h2rcd13ifvqd40","pricing_plan_id":"cebpf4jnsgd1na2vs0mg"},{"bike_id":"596aecdc-192b-4949-80a5-bf3aa00ed4a4","system_id":"levelo_inurba_marseille","lat":43.29417,"lon":5.38644,"is_reserved":false,"is_disabled":false,"rental_uris":{"android":"levelo://app?vid=596aecdc-192b-4949-80a5-bf3aa00ed4a4","ios":"levelo://app?vid=596aecdc-192b-4949-80a5-bf3aa00ed4a4"},"vehicle_type_id":"4","last_reported":1739653654,"current_range_meters":7200,"station_id":"ce4bh2h2rcd13ifvqdh0","pricing_plan_id":"cebpf4jnsgd1na2vs0mg"},{"bike_id":"68e091eb-0298-4cb5-b5eb-8dfc36218da6","system_id":"levelo_inurba_marseille","lat":43.23184,"lon":5.39983,"is_reserved":false,"is_disabled":false,"rental_uris":{"android":"levelo://app?vid=68e091eb-0298-4cb5-b5eb-8dfc36218da6","ios":"levelo://app?vid=68e091eb-0298-4cb5-b5eb-8dfc36218da6"},"vehicle_type_id":"4","last_reported":1739653654,"current_range_meters":18000,"station_id":"ce4bhn12rcd13ifvqgqg","pricing_plan_id":"cebpf4jnsgd1na2vs0mg"},{"bike_id":"d63b7867-53a4-4bca-be72-b856d1cbea50","system_id":"levelo_inurba_marseille","lat":43.23955,"lon":5.36628,"is_reserved":false,"is_disabled":false,"rental_uris":{"android":"levelo://app?vid=d63b7867-53a4-4bca-be72-b856d1cbea50","ios":"levelo://app?vid=d63b7867-53a4-4bca-be72-b856d1cbea50"},"vehicle_type_id":"4","last_reported":1739653654,"current_range_meters":23200,"station_id":"ce4bhi12rcd13ifvqfp0","pricing_plan_id":"cebpf4jnsgd1na2vs0mg"},{"bike_id":"0e5a90cd-188b-4d27-b4ca-77a64cb513e1","system_id":"levelo_inurba_marseille","lat":43.29419,"lon":5.38619,"is_reserved":false,"is_disabled":false,"rental_uris":{"android":"levelo://app?vid=0e5a90cd-188b-4d27-b4ca-77a64cb513e1","ios":"levelo://app?vid=0e5a90cd-188b-4d27-b4ca-77a64cb513e1"},"vehicle_type_id":"4","last_reported":1739653654,"current_range_meters":20400,"station_id":"ce4bh2h2rcd13ifvqdh0","pricing_plan_id":"cebpf4jnsgd1na2vs0mg"},{"bike_id":"c47616ba-4408-41b4-bfef-d41e880abc31","system_id":"levelo_inurba_marseille","lat":43.23192,"lon":5.39979,"is_reserved":false,"is_disabled":false,"rental_uris":{"android":"levelo://app?vid=c47616ba-4408-41b4-bfef-d41e880abc31","ios":"levelo://app?vid=c47616ba-4408-41b4-bfef-d41e880abc31"},"vehicle_type_id":"4","last_reported":1739653654,"current_range_meters":17200,"station_id":"ce4bhn12rcd13ifvqgqg","pricing_plan_id":"cebpf4jnsgd1na2vs0mg"},{"bike_id":"ecc418e8-1f72-4910-8783-15dafcd47066","system_id":"levelo_inurba_marseille","lat":43.29264,"lon":5.38439,"is_reserved":false,"is_disabled":false,"rental_uris":{"android":"levelo://app?vid=ecc418e8-1f72-4910-8783-15dafcd47066","ios":"levelo://app?vid=ecc418e8-1f72-4910-8783-15dafcd47066"},"vehicle_type_id":"4","last_reported":1739653654,"current_range_meters":38800,"station_id":"ce4bh692rcd13ifvqea0","pricing_plan_id":"cebpf4jnsgd1na2vs0mg"},{"bike_id":"869ef2a1-e2b3-44d5-9975-863718a0342f","system_id":"levelo_inurba_marseille","lat":43.30344,"lon":5.40423,"is_reserved":false,"is_disabled":true,"rental_uris":{"android":"levelo://app?vid=869ef2a1-e2b3-44d5-9975-863718a0342f","ios":"levelo://app?vid=869ef2a1-e2b3-44d5-9975-863718a0342f"},"vehicle_type_id":"4","last_reported":1739653654,"current_range_meters":400,"station_id":"ce4bh012rcd13ifvqd10","pricing_plan_id":"cebpf4jnsgd1na2vs0mg"},{"bike_id":"1a70beae-318b-417c-9b69-06b61a7df44a","system_id":"levelo_inurba_marseille","lat":43.29888,"lon":5.39734,"is_reserved":false,"is_disabled":false,"rental_uris":{"android":"levelo://app?vid=1a70beae-318b-417c-9b69-06b61a7df44a","ios":"levelo://app?vid=1a70beae-318b-417c-9b69-06b61a7df44a"},"vehicle_type_id":"4","last_reported":1739653654,"current_range_meters":27200,"station_id":"ce4bh0h2rcd13ifvqd50","pricing_plan_id":"cebpf4jnsgd1na2vs0mg"},{"bike_id":"02db7a28-fc2d-4a4a-92a0-cec040e64718","system_id":"levelo_inurba_marseille","lat":43.23962,"lon":5.36629,"is_reserved":false,"is_disabled":false,"rental_uris":{"android":"levelo://app?vid=02db7a28-fc2d-4a4a-92a0-cec040e64718","ios":"levelo://app?vid=02db7a28-fc2d-4a4a-92a0-cec040e64718"},"vehicle_type_id":"4","last_reported":1739653654,"current_range_meters":7200,"station_id":"ce4bhi12rcd13ifvqfp0","pricing_plan_id":"cebpf4jnsgd1na2vs0mg"},{"bike_id":"81f99bbf-8dc8-4c88-ae6a-0399b7e52d08","system_id":"levelo_inurba_marseille","lat":43.254925,"lon":5.376522,"is_reserved":false,"is_disabled":true,"rental_uris":{"android":"levelo://app?vid=81f99bbf-8dc8-4c88-ae6a-0399b7e52d08","ios":"levelo://app?vid=81f99bbf-8dc8-4c88-ae6a-0399b7e52d08"},"vehicle_type_id":"4","last_reported":1739653654,"current_range_meters":1600,"station_id":"ce4bhh12rcd13ifvqff0","pricing_plan_id":"cebpf4jnsgd1na2vs0mg"},{"bike_id":"d65d0105-0fec-4e7a-9231-4c1befc86792","system_id":"levelo_inurba_marseille","lat":43.32479,"lon":5.36573,"is_reserved":false,"is_disabled":false,"rental_uris":{"android":"levelo://app?vid=d65d0105-0fec-4e7a-9231-4c1befc86792","ios":"levelo://app?vid=d65d0105-0fec-4e7a-9231-4c1befc86792"},"vehicle_type_id":"4","last_reported":1739653654,"current_range_meters":36800,"station_id":"ce4bhs12rcd13ifvqhvg","pricing_plan_id":"cebpf4jnsgd1na2vs0mg"},{"bike_id":"a3b76a23-e719-4cac-9132-63d31b15a8de","system_id":"levelo_inurba_marseille","lat":43.2416,"lon":5.36402,"is_reserved":false,"is_disabled":false,"rental_uris":{"android":"levelo://app?vid=a3b76a23-e719-4cac-9132-63d31b15a8de","ios":"levelo://app?vid=a3b76a23-e719-4cac-9132-63d31b15a8de"},"vehicle_type_id":"4","last_reported":1739653654,"current_range_meters":28000,"station_id":"cpo36qri1sfpv3e86is0","pricing_plan_id":"cebpf4jnsgd1na2vs0mg"},{"bike_id":"24dc0f6a-ecd3-492b-a272-f678785c5dd7","system_id":"levelo_inurba_marseille","lat":43.29248,"lon":5.3764,"is_reserved":false,"is_disabled":false,"rental_uris":{"android":"levelo://app?vid=24dc0f6a-ecd3-492b-a272-f678785c5dd7","ios":"levelo://app?vid=24dc0f6a-ecd3-492b-a272-f678785c5dd7"},"vehicle_type_id":"4","last_reported":1739653654,"current_range_meters":22400,"station_id":"ce4bgi12rcd13ifvqb80","pricing_plan_id":"cebpf4jnsgd1na2vs0mg"},{"bike_id":"f661ec12-2f46-4a1b-b9fb-e6567b4661eb","system_id":"levelo_inurba_marseille","lat":43.30211,"lon":5.394684,"is_reserved":false,"is_disabled":false,"rental_uris":{"android":"levelo://app?vid=f661ec12-2f46-4a1b-b9fb-e6567b4661eb","ios":"levelo://app?vid=f661ec12-2f46-4a1b-b9fb-e6567b4661eb"},"vehicle_type_id":"4","last_reported":1739653654,"current_range_meters":38400,"station_id":"ce4bh0p2rcd13ifvqd70","pricing_plan_id":"cebpf4jnsgd1na2vs0mg"},{"bike_id":"fe0f12a8-8d62-4d79-b629-bda6901e6297","system_id":"levelo_inurba_marseille","lat":43.26946,"lon":5.4026,"is_reserved":false,"is_disabled":true,"rental_uris":{"android":"levelo://app?vid=fe0f12a8-8d62-4d79-b629-bda6901e6297","ios":"levelo://app?vid=fe0f12a8-8d62-4d79-b629-bda6901e6297"},"vehicle_type_id":"4","last_reported":1739653654,"current_range_meters":30000,"station_id":"cjm6bp8fraef2m0cb0m0","pricing_plan_id":"cebpf4jnsgd1na2vs0mg"},{"bike_id":"14e294d3-6345-4869-b4d4-4ce0e5d652c9","system_id":"levelo_inurba_marseille","lat":43.27993,"lon":5.41658,"is_reserved":false,"is_disabled":false,"rental_uris":{"android":"levelo://app?vid=14e294d3-6345-4869-b4d4-4ce0e5d652c9","ios":"levelo://app?vid=14e294d3-6345-4869-b4d4-4ce0e5d652c9"},"vehicle_type_id":"4","last_reported":1739653654,"current_range_meters":19600,"station_id":"ce4bho12rcd13ifvqh1g","pricing_plan_id":"cebpf4jnsgd1na2vs0mg"},{"bike_id":"466babc0-124c-418f-8013-0bdd9593df0f","system_id":"levelo_inurba_marseille","lat":43.24382,"lon":5.37053,"is_reserved":false,"is_disabled":false,"rental_uris":{"android":"levelo://app?vid=466babc0-124c-418f-8013-0bdd9593df0f","ios":"levelo://app?vid=466babc0-124c-418f-8013-0bdd9593df0f"},"vehicle_type_id":"4","last_reported":1739653654,"current_range_meters":26000,"station_id":"ce4bhhh2rcd13ifvqfk0","pricing_plan_id":"cebpf4jnsgd1na2vs0mg"},{"bike_id":"cfbe67cf-6420-4945-9471-2d464aa6fcd4","system_id":"levelo_inurba_marseille","lat":43.27829,"lon":5.392,"is_reserved":false,"is_disabled":true,"rental_uris":{"android":"levelo://app?vid=cfbe67cf-6420-4945-9471-2d464aa6fcd4","ios":"levelo://app?vid=cfbe67cf-6420-4945-9471-2d464aa6fcd4"},"vehicle_type_id":"4","last_reported":1739653654,"current_range_meters":8400,"station_id":"ce4bhjp2rcd13ifvqga0","pricing_plan_id":"cebpf4jnsgd1na2vs0mg"},{"bike_id":"168c41a1-aa17-40ae-aac7-dd02a7e23b9b","system_id":"levelo_inurba_marseille","lat":43.25117,"lon":5.40325,"is_reserved":false,"is_disabled":false,"rental_uris":{"android":"levelo://app?vid=168c41a1-aa17-40ae-aac7-dd02a7e23b9b","ios":"levelo://app?vid=168c41a1-aa17-40ae-aac7-dd02a7e23b9b"},"vehicle_type_id":"4","last_reported":1739653654,"current_range_meters":6800,"station_id":"ce4bhlh2rcd13ifvqgig","pricing_plan_id":"cebpf4jnsgd1na2vs0mg"},{"bike_id":"dc5294ff-c647-4cc8-9ff2-9cfe7a38b888","system_id":"levelo_inurba_marseille","lat":43.31327,"lon":5.37516,"is_reserved":false,"is_disabled":false,"rental_uris":{"android":"levelo://app?vid=dc5294ff-c647-4cc8-9ff2-9cfe7a38b888","ios":"levelo://app?vid=dc5294ff-c647-4cc8-9ff2-9cfe7a38b888"},"vehicle_type_id":"4","last_reported":1739653654,"current_range_meters":30800,"station_id":"","pricing_plan_id":"cebpf4jnsgd1na2vs0mg"},{"bike_id":"2d1a0294-4315-4a6d-9042-006493c526cd","system_id":"levelo_inurba_marseille","lat":43.29561,"lon":5.40626,"is_reserved":false,"is_disabled":false,"rental_uris":{"android":"levelo://app?vid=2d1a0294-4315-4a6d-9042-006493c526cd","ios":"levelo://app?vid=2d1a0294-4315-4a6d-9042-006493c526cd"},"vehicle_type_id":"4","last_reported":1739653654,"current_range_meters":6000,"station_id":"","pricing_plan_id":"cebpf4jnsgd1na2vs0mg"},{"bike_id":"b94e95df-3859-4967-a5be-574f25ff2445","system_id":"levelo_inurba_marseille","lat":43.29528,"lon":5.38532,"is_reserved":false,"is_disabled":false,"rental_uris":{"android":"levelo://app?vid=b94e95df-3859-4967-a5be-574f25ff2445","ios":"levelo://app?vid=b94e95df-3859-4967-a5be-574f25ff2445"},"vehicle_type_id":"4","last_reported":1739653654,"current_range_meters":14000,"station_id":"ce4bgih2rcd13ifvqba0","pricing_plan_id":"cebpf4jnsgd1na2vs0mg"},{"bike_id":"19e190fd-e208-4a66-aa94-1e22408864a7","system_id":"levelo_inurba_marseille","lat":43.29429,"lon":5.38611,"is_reserved":false,"is_disabled":false,"rental_uris":{"android":"levelo://app?vid=19e190fd-e208-4a66-aa94-1e22408864a7","ios":"levelo://app?vid=19e190fd-e208-4a66-aa94-1e22408864a7"},"vehicle_type_id":"4","last_reported":1739653654,"current_range_meters":6800,"station_id":"ce4bh2h2rcd13ifvqdh0","pricing_plan_id":"cebpf4jnsgd1na2vs0mg"},{"bike_id":"95a0c179-9678-4626-bcf6-57c11dc20a09","system_id":"levelo_inurba_marseille","lat":43.25104,"lon":5.40325,"is_reserved":false,"is_disabled":false,"rental_uris":{"android":"levelo://app?vid=95a0c179-9678-4626-bcf6-57c11dc20a09","ios":"levelo://app?vid=95a0c179-9678-4626-bcf6-57c11dc20a09"},"vehicle_type_id":"4","last_reported":1739653654,"current_range_meters":29600,"station_id":"ce4bhlh2rcd13ifvqgig","pricing_plan_id":"cebpf4jnsgd1na2vs0mg"},{"bike_id":"9163e481-f89a-48ef-a201-33eebb95fd14","system_id":"levelo_inurba_marseille","lat":43.29878,"lon":5.36609,"is_reserved":false,"is_disabled":false,"rental_uris":{"android":"levelo://app?vid=9163e481-f89a-48ef-a201-33eebb95fd14","ios":"levelo://app?vid=9163e481-f89a-48ef-a201-33eebb95fd14"},"vehicle_type_id":"4","last_reported":1739653654,"current_range_meters":26800,"station_id":"","pricing_plan_id":"cebpf4jnsgd1na2vs0mg"},{"bike_id":"9f912eed-51aa-49cb-84a4-977637263173","system_id":"levelo_inurba_marseille","lat":43.29889,"lon":5.38045,"is_reserved":false,"is_disabled":false,"rental_uris":{"android":"levelo://app?vid=9f912eed-51aa-49cb-84a4-977637263173","ios":"levelo://app?vid=9f912eed-51aa-49cb-84a4-977637263173"},"vehicle_type_id":"4","last_reported":1739653654,"current_range_meters":25200,"station_id":"","pricing_plan_id":"cebpf4jnsgd1na2vs0mg"},{"bike_id":"523ac017-5cff-4c9f-9b72-fccb79644239","system_id":"levelo_inurba_marseille","lat":43.29415,"lon":5.38627,"is_reserved":false,"is_disabled":false,"rental_uris":{"android":"levelo://app?vid=523ac017-5cff-4c9f-9b72-fccb79644239","ios":"levelo://app?vid=523ac017-5cff-4c9f-9b72-fccb79644239"},"vehicle_type_id":"4","last_reported":1739653654,"current_range_meters":38800,"station_id":"ce4bh2h2rcd13ifvqdh0","pricing_plan_id":"cebpf4jnsgd1na2vs0mg"},{"bike_id":"ebf7a16b-e504-43d6-a45f-00512ca5ac70","system_id":"levelo_inurba_marseille","lat":43.29102,"lon":5.38133,"is_reserved":false,"is_disabled":false,"rental_uris":{"android":"levelo://app?vid=ebf7a16b-e504-43d6-a45f-00512ca5ac70","ios":"levelo://app?vid=ebf7a16b-e504-43d6-a45f-00512ca5ac70"},"vehicle_type_id":"4","last_reported":1739653654,"current_range_meters":36400,"station_id":"ce4bh512rcd13ifvqe2g","pricing_plan_id":"cebpf4jnsgd1na2vs0mg"},{"bike_id":"2387448a-ad1e-4d92-8739-0eed7ccd6f1a","system_id":"levelo_inurba_marseille","lat":43.32654,"lon":5.40987,"is_reserved":false,"is_disabled":false,"rental_uris":{"android":"levelo://app?vid=2387448a-ad1e-4d92-8739-0eed7ccd6f1a","ios":"levelo://app?vid=2387448a-ad1e-4d92-8739-0eed7ccd6f1a"},"vehicle_type_id":"4","last_reported":1739653654,"current_range_meters":38800,"station_id":"ce4bhpp2rcd13ifvqhgg","pricing_plan_id":"cebpf4jnsgd1na2vs0mg"},{"bike_id":"f1db9771-94dd-4030-914e-070bbe85d4cc","system_id":"levelo_inurba_marseille","lat":43.322828,"lon":5.382612,"is_reserved":false,"is_disabled":false,"rental_uris":{"android":"levelo://app?vid=f1db9771-94dd-4030-914e-070bbe85d4cc","ios":"levelo://app?vid=f1db9771-94dd-4030-914e-070bbe85d4cc"},"vehicle_type_id":"4","last_reported":1739653654,"current_range_meters":36000,"station_id":"ce4bhr12rcd13ifvqhqg","pricing_plan_id":"cebpf4jnsgd1na2vs0mg"},{"bike_id":"388c593f-91de-4783-ba97-3dc258b92891","system_id":"levelo_inurba_marseille","lat":43.28561,"lon":5.395,"is_reserved":false,"is_disabled":false,"rental_uris":{"android":"levelo://app?vid=388c593f-91de-4783-ba97-3dc258b92891","ios":"levelo://app?vid=388c593f-91de-4783-ba97-3dc258b92891"},"vehicle_type_id":"4","last_reported":1739653654,"current_range_meters":6400,"station_id":"ce4bh292rcd13ifvqdg0","pricing_plan_id":"cebpf4jnsgd1na2vs0mg"},{"bike_id":"56a0c045-2888-4b4e-9ed6-3ea77c30289d","system_id":"levelo_inurba_marseille","lat":43.29034,"lon":5.38633,"is_reserved":false,"is_disabled":false,"rental_uris":{"android":"levelo://app?vid=56a0c045-2888-4b4e-9ed6-3ea77c30289d","ios":"levelo://app?vid=56a0c045-2888-4b4e-9ed6-3ea77c30289d"},"vehicle_type_id":"4","last_reported":1739653654,"current_range_meters":37600,"station_id":"ce4bh4p2rcd13ifvqe0g","pricing_plan_id":"cebpf4jnsgd1na2vs0mg"},{"bike_id":"420f85fb-df53-484b-b0f5-ee8897a490a2","system_id":"levelo_inurba_marseille","lat":43.2846,"lon":5.35897,"is_reserved":false,"is_disabled":false,"rental_uris":{"android":"levelo://app?vid=420f85fb-df53-484b-b0f5-ee8897a490a2","ios":"levelo://app?vid=420f85fb-df53-484b-b0f5-ee8897a490a2"},"vehicle_type_id":"4","last_reported":1739653654,"current_range_meters":38000,"station_id":"ce4bhah2rcd13ifvqei0","pricing_plan_id":"cebpf4jnsgd1na2vs0mg"},{"bike_id":"53b5f8d9-591b-4722-8b93-d03568f78034","system_id":"levelo_inurba_marseille","lat":43.28467,"lon":5.35918,"is_reserved":false,"is_disabled":false,"rental_uris":{"android":"levelo://app?vid=53b5f8d9-591b-4722-8b93-d03568f78034","ios":"levelo://app?vid=53b5f8d9-591b-4722-8b93-d03568f78034"},"vehicle_type_id":"4","last_reported":1739653654,"current_range_meters":24000,"station_id":"ce4bhah2rcd13ifvqei0","pricing_plan_id":"cebpf4jnsgd1na2vs0mg"},{"bike_id":"d511c3fa-d5f4-4a0f-91ee-268d02b5310f","system_id":"levelo_inurba_marseille","lat":43.28611,"lon":5.35098,"is_reserved":false,"is_disabled":true,"rental_uris":{"android":"levelo://app?vid=d511c3fa-d5f4-4a0f-91ee-268d02b5310f","ios":"levelo://app?vid=d511c3fa-d5f4-4a0f-91ee-268d02b5310f"},"vehicle_type_id":"4","last_reported":1739653654,"current_range_meters":18800,"station_id":"","pricing_plan_id":"cebpf4jnsgd1na2vs0mg"},{"bike_id":"25ab3695-a4df-4251-878b-5d37f9cd87c8","system_id":"levelo_inurba_marseille","lat":43.29416,"lon":5.38632,"is_reserved":false,"is_disabled":false,"rental_uris":{"android":"levelo://app?vid=25ab3695-a4df-4251-878b-5d37f9cd87c8","ios":"levelo://app?vid=25ab3695-a4df-4251-878b-5d37f9cd87c8"},"vehicle_type_id":"4","last_reported":1739653654,"current_range_meters":38800,"station_id":"ce4bh2h2rcd13ifvqdh0","pricing_plan_id":"cebpf4jnsgd1na2vs0mg"},{"bike_id":"578ee448-e5eb-4735-867c-775057628ceb","system_id":"levelo_inurba_marseille","lat":43.29533,"lon":5.39398,"is_reserved":false,"is_disabled":false,"rental_uris":{"android":"levelo://app?vid=578ee448-e5eb-4735-867c-775057628ceb","ios":"levelo://app?vid=578ee448-e5eb-4735-867c-775057628ceb"},"vehicle_type_id":"4","last_reported":1739653654,"current_range_meters":30400,"station_id":"ce4bh292rcd13ifvqdf0","pricing_plan_id":"cebpf4jnsgd1na2vs0mg"},{"bike_id":"5ffd2370-f580-40e7-a07d-74ca8578cda7","system_id":"levelo_inurba_marseille","lat":43.26251,"lon":5.37422,"is_reserved":false,"is_disabled":false,"rental_uris":{"android":"levelo://app?vid=5ffd2370-f580-40e7-a07d-74ca8578cda7","ios":"levelo://app?vid=5ffd2370-f580-40e7-a07d-74ca8578cda7"},"vehicle_type_id":"4","last_reported":1739653654,"current_range_meters":7200,"station_id":"ce4bhgp2rcd13ifvqfc0","pricing_plan_id":"cebpf4jnsgd1na2vs0mg"},{"bike_id":"f00620ae-2110-4dbd-a2e7-cd7bf13fe429","system_id":"levelo_inurba_marseille","lat":43.23181,"lon":5.39997,"is_reserved":false,"is_disabled":true,"rental_uris":{"android":"levelo://app?vid=f00620ae-2110-4dbd-a2e7-cd7bf13fe429","ios":"levelo://app?vid=f00620ae-2110-4dbd-a2e7-cd7bf13fe429"},"vehicle_type_id":"4","last_reported":1739653654,"current_range_meters":38800,"station_id":"ce4bhn12rcd13ifvqgqg","pricing_plan_id":"cebpf4jnsgd1na2vs0mg"},{"bike_id":"0f3e153c-d719-4936-a95b-a1935d43debd","system_id":"levelo_inurba_marseille","lat":43.29253,"lon":5.38441,"is_reserved":false,"is_disabled":false,"rental_uris":{"android":"levelo://app?vid=0f3e153c-d719-4936-a95b-a1935d43debd","ios":"levelo://app?vid=0f3e153c-d719-4936-a95b-a1935d43debd"},"vehicle_type_id":"4","last_reported":1739653654,"current_range_meters":10000,"station_id":"ce4bh692rcd13ifvqea0","pricing_plan_id":"cebpf4jnsgd1na2vs0mg"},{"bike_id":"59b279cd-9bb0-4e91-a9ed-cd7da0f24062","system_id":"levelo_inurba_marseille","lat":43.30467,"lon":5.36907,"is_reserved":false,"is_disabled":false,"rental_uris":{"android":"levelo://app?vid=59b279cd-9bb0-4e91-a9ed-cd7da0f24062","ios":"levelo://app?vid=59b279cd-9bb0-4e91-a9ed-cd7da0f24062"},"vehicle_type_id":"4","last_reported":1739653654,"current_range_meters":16800,"station_id":"","pricing_plan_id":"cebpf4jnsgd1na2vs0mg"},{"bike_id":"ddf1d674-41d6-443f-b0f1-1da7df267862","system_id":"levelo_inurba_marseille","lat":43.23053,"lon":5.3549,"is_reserved":false,"is_disabled":false,"rental_uris":{"android":"levelo://app?vid=ddf1d674-41d6-443f-b0f1-1da7df267862","ios":"levelo://app?vid=ddf1d674-41d6-443f-b0f1-1da7df267862"},"vehicle_type_id":"4","last_reported":1739653654,"current_range_meters":19200,"station_id":"cpo3342slgdg3j2ifvpg","pricing_plan_id":"cebpf4jnsgd1na2vs0mg"},{"bike_id":"ec85acd1-0e9c-476c-b685-b072c029b60d","system_id":"levelo_inurba_marseille","lat":43.28359,"lon":5.38098,"is_reserved":false,"is_disabled":false,"rental_uris":{"android":"levelo://app?vid=ec85acd1-0e9c-476c-b685-b072c029b60d","ios":"levelo://app?vid=ec85acd1-0e9c-476c-b685-b072c029b60d"},"vehicle_type_id":"4","last_reported":1739653654,"current_range_meters":16000,"station_id":"ce4bh412rcd13ifvqdr0","pricing_plan_id":"cebpf4jnsgd1na2vs0mg"},{"bike_id":"59897d86-c0b3-4acb-bf89-133a9364e1f4","system_id":"levelo_inurba_marseille","lat":43.23053,"lon":5.35489,"is_reserved":false,"is_disabled":true,"rental_uris":{"android":"levelo://app?vid=59897d86-c0b3-4acb-bf89-133a9364e1f4","ios":"levelo://app?vid=59897d86-c0b3-4acb-bf89-133a9364e1f4"},"vehicle_type_id":"4","last_reported":1739653654,"current_range_meters":38800,"station_id":"cpo3342slgdg3j2ifvpg","pricing_plan_id":"cebpf4jnsgd1na2vs0mg"},{"bike_id":"172e0115-55b2-4b8a-bc4b-00b1c6c3d632","system_id":"levelo_inurba_marseille","lat":43.24636,"lon":5.38903,"is_reserved":false,"is_disabled":false,"rental_uris":{"android":"levelo://app?vid=172e0115-55b2-4b8a-bc4b-00b1c6c3d632","ios":"levelo://app?vid=172e0115-55b2-4b8a-bc4b-00b1c6c3d632"},"vehicle_type_id":"4","last_reported":1739653654,"current_range_meters":22800,"station_id":"ce4bhg12rcd13ifvqf60","pricing_plan_id":"cebpf4jnsgd1na2vs0mg"},{"bike_id":"799cb367-f74c-4b90-ab8e-e13e0e89b122","system_id":"levelo_inurba_marseille","lat":43.29558,"lon":5.39968,"is_reserved":false,"is_disabled":false,"rental_uris":{"android":"levelo://app?vid=799cb367-f74c-4b90-ab8e-e13e0e89b122","ios":"levelo://app?vid=799cb367-f74c-4b90-ab8e-e13e0e89b122"},"vehicle_type_id":"4","last_reported":1739653654,"current_range_meters":38000,"station_id":"ce4bh312rcd13ifvqdj0","pricing_plan_id":"cebpf4jnsgd1na2vs0mg"},{"bike_id":"3657cb3a-8308-44c8-971b-092680d319de","system_id":"levelo_inurba_marseille","lat":43.231979,"lon":5.355491,"is_reserved":false,"is_disabled":false,"rental_uris":{"android":"levelo://app?vid=3657cb3a-8308-44c8-971b-092680d319de","ios":"levelo://app?vid=3657cb3a-8308-44c8-971b-092680d319de"},"vehicle_type_id":"4","last_reported":1739653654,"current_range_meters":12000,"station_id":"ce4bhu92rcd13ifvqi70","pricing_plan_id":"cebpf4jnsgd1na2vs0mg"},{"bike_id":"63ef970a-0223-4971-96d5-7df7e2baaebf","system_id":"levelo_inurba_marseille","lat":43.29979,"lon":5.38492,"is_reserved":false,"is_disabled":false,"rental_uris":{"android":"levelo://app?vid=63ef970a-0223-4971-96d5-7df7e2baaebf","ios":"levelo://app?vid=63ef970a-0223-4971-96d5-7df7e2baaebf"},"vehicle_type_id":"4","last_reported":1739653654,"current_range_meters":34000,"station_id":"ce4bgj92rcd13ifvqbd0","pricing_plan_id":"cebpf4jnsgd1na2vs0mg"},{"bike_id":"f635a801-2671-4306-9268-68edf1b8a251","system_id":"levelo_inurba_marseille","lat":43.29872,"lon":5.39742,"is_reserved":false,"is_disabled":false,"rental_uris":{"android":"levelo://app?vid=f635a801-2671-4306-9268-68edf1b8a251","ios":"levelo://app?vid=f635a801-2671-4306-9268-68edf1b8a251"},"vehicle_type_id":"4","last_reported":1739653654,"current_range_meters":36800,"station_id":"ce4bh0h2rcd13ifvqd50","pricing_plan_id":"cebpf4jnsgd1na2vs0mg"},{"bike_id":"fddf9633-377f-489e-9c7d-38f1665ca695","system_id":"levelo_inurba_marseille","lat":43.29592,"lon":5.38108,"is_reserved":false,"is_disabled":true,"rental_uris":{"android":"levelo://app?vid=fddf9633-377f-489e-9c7d-38f1665ca695","ios":"levelo://app?vid=fddf9633-377f-489e-9c7d-38f1665ca695"},"vehicle_type_id":"4","last_reported":1739653654,"current_range_meters":25600,"station_id":"ce4bgl12rcd13ifvqbo0","pricing_plan_id":"cebpf4jnsgd1na2vs0mg"},{"bike_id":"40c4421e-be80-49b9-9035-ec8bd05923a2","system_id":"levelo_inurba_marseille","lat":43.28844,"lon":5.39327,"is_reserved":false,"is_disabled":true,"rental_uris":{"android":"levelo://app?vid=40c4421e-be80-49b9-9035-ec8bd05923a2","ios":"levelo://app?vid=40c4421e-be80-49b9-9035-ec8bd05923a2"},"vehicle_type_id":"4","last_reported":1739653654,"current_range_meters":21600,"station_id":"ce4bh2p2rcd13ifvqdi0","pricing_plan_id":"cebpf4jnsgd1na2vs0mg"},{"bike_id":"4bc50c17-9aeb-4487-a054-afb81c6c63dc","system_id":"levelo_inurba_marseille","lat":43.27612,"lon":5.3611,"is_reserved":false,"is_disabled":true,"rental_uris":{"android":"levelo://app?vid=4bc50c17-9aeb-4487-a054-afb81c6c63dc","ios":"levelo://app?vid=4bc50c17-9aeb-4487-a054-afb81c6c63dc"},"vehicle_type_id":"4","last_reported":1739653654,"current_range_meters":30800,"station_id":"ce4bgj92rcd13ifvqbe0","pricing_plan_id":"cebpf4jnsgd1na2vs0mg"},{"bike_id":"7945cc24-a25f-47ce-8cf9-8b2f5543dd96","system_id":"levelo_inurba_marseille","lat":43.29813,"lon":5.38093,"is_reserved":false,"is_disabled":false,"rental_uris":{"android":"levelo://app?vid=7945cc24-a25f-47ce-8cf9-8b2f5543dd96","ios":"levelo://app?vid=7945cc24-a25f-47ce-8cf9-8b2f5543dd96"},"vehicle_type_id":"4","last_reported":1739653654,"current_range_meters":39200,"station_id":"ce4bgip2rcd13ifvqbb0","pricing_plan_id":"cebpf4jnsgd1na2vs0mg"},{"bike_id":"e8958a7b-63fc-44b9-99bb-c44aeb13d182","system_id":"levelo_inurba_marseille","lat":43.30152,"lon":5.39901,"is_reserved":false,"is_disabled":false,"rental_uris":{"android":"levelo://app?vid=e8958a7b-63fc-44b9-99bb-c44aeb13d182","ios":"levelo://app?vid=e8958a7b-63fc-44b9-99bb-c44aeb13d182"},"vehicle_type_id":"4","last_reported":1739653654,"current_range_meters":37600,"station_id":"ce4bh0h2rcd13ifvqd40","pricing_plan_id":"cebpf4jnsgd1na2vs0mg"},{"bike_id":"658ae1aa-95ce-4a34-8bba-773c837b02bd","system_id":"levelo_inurba_marseille","lat":43.30529,"lon":5.36727,"is_reserved":false,"is_disabled":true,"rental_uris":{"android":"levelo://app?vid=658ae1aa-95ce-4a34-8bba-773c837b02bd","ios":"levelo://app?vid=658ae1aa-95ce-4a34-8bba-773c837b02bd"},"vehicle_type_id":"4","last_reported":1739653654,"current_range_meters":800,"station_id":"ce4bgrp2rcd13ifvqc9g","pricing_plan_id":"cebpf4jnsgd1na2vs0mg"},{"bike_id":"30e5a1cf-9a34-4d49-ad6c-db3328e75c58","system_id":"levelo_inurba_marseille","lat":43.25037,"lon":5.38944,"is_reserved":false,"is_disabled":false,"rental_uris":{"android":"levelo://app?vid=30e5a1cf-9a34-4d49-ad6c-db3328e75c58","ios":"levelo://app?vid=30e5a1cf-9a34-4d49-ad6c-db3328e75c58"},"vehicle_type_id":"4","last_reported":1739653654,"current_range_meters":38800,"station_id":"ce4bhgp2rcd13ifvqfd0","pricing_plan_id":"cebpf4jnsgd1na2vs0mg"},{"bike_id":"3625836a-8a03-4572-80d5-fadff11603e7","system_id":"levelo_inurba_marseille","lat":43.28029,"lon":5.36965,"is_reserved":false,"is_disabled":false,"rental_uris":{"android":"levelo://app?vid=3625836a-8a03-4572-80d5-fadff11603e7","ios":"levelo://app?vid=3625836a-8a03-4572-80d5-fadff11603e7"},"vehicle_type_id":"4","last_reported":1739653654,"current_range_meters":39200,"station_id":"ce4bha12rcd13ifvqef0","pricing_plan_id":"cebpf4jnsgd1na2vs0mg"},{"bike_id":"43dc5574-eed0-4b1d-9289-f32002400d84","system_id":"levelo_inurba_marseille","lat":43.24182,"lon":5.36368,"is_reserved":false,"is_disabled":false,"rental_uris":{"android":"levelo://app?vid=43dc5574-eed0-4b1d-9289-f32002400d84","ios":"levelo://app?vid=43dc5574-eed0-4b1d-9289-f32002400d84"},"vehicle_type_id":"4","last_reported":1739653654,"current_range_meters":9600,"station_id":"cpo36qri1sfpv3e86is0","pricing_plan_id":"cebpf4jnsgd1na2vs0mg"},{"bike_id":"b7675672-ea91-4212-a3c2-1e75ea117425","system_id":"levelo_inurba_marseille","lat":43.2816,"lon":5.42659,"is_reserved":false,"is_disabled":true,"rental_uris":{"android":"levelo://app?vid=b7675672-ea91-4212-a3c2-1e75ea117425","ios":"levelo://app?vid=b7675672-ea91-4212-a3c2-1e75ea117425"},"vehicle_type_id":"4","last_reported":1739653654,"current_range_meters":0,"station_id":"ce4bhnh2rcd13ifvqgug","pricing_plan_id":"cebpf4jnsgd1na2vs0mg"},{"bike_id":"d1ab7dd8-53ca-42a4-9105-0a109e77b4ff","system_id":"levelo_inurba_marseille","lat":43.28939,"lon":5.3664,"is_reserved":false,"is_disabled":false,"rental_uris":{"android":"levelo://app?vid=d1ab7dd8-53ca-42a4-9105-0a109e77b4ff","ios":"levelo://app?vid=d1ab7dd8-53ca-42a4-9105-0a109e77b4ff"},"vehicle_type_id":"4","last_reported":1739653654,"current_range_meters":8800,"station_id":"ce4bhap2rcd13ifvqek0","pricing_plan_id":"cebpf4jnsgd1na2vs0mg"},{"bike_id":"91e27922-e676-45ea-94da-baf83d9c520d","system_id":"levelo_inurba_marseille","lat":43.28036,"lon":5.36951,"is_reserved":false,"is_disabled":true,"rental_uris":{"android":"levelo://app?vid=91e27922-e676-45ea-94da-baf83d9c520d","ios":"levelo://app?vid=91e27922-e676-45ea-94da-baf83d9c520d"},"vehicle_type_id":"4","last_reported":1739653654,"current_range_meters":36800,"station_id":"ce4bha12rcd13ifvqef0","pricing_plan_id":"cebpf4jnsgd1na2vs0mg"},{"bike_id":"2b5b06ea-d85f-454f-896e-896511cd31ef","system_id":"levelo_inurba_marseille","lat":43.31167,"lon":5.38721,"is_reserved":false,"is_disabled":false,"rental_uris":{"android":"levelo://app?vid=2b5b06ea-d85f-454f-896e-896511cd31ef","ios":"levelo://app?vid=2b5b06ea-d85f-454f-896e-896511cd31ef"},"vehicle_type_id":"4","last_reported":1739653654,"current_range_meters":17600,"station_id":"ce4bgv12rcd13ifvqcp0","pricing_plan_id":"cebpf4jnsgd1na2vs0mg"},{"bike_id":"3267b8a7-1e4e-443c-a66a-46725243df34","system_id":"levelo_inurba_marseille","lat":43.30241,"lon":5.39699,"is_reserved":false,"is_disabled":false,"rental_uris":{"android":"levelo://app?vid=3267b8a7-1e4e-443c-a66a-46725243df34","ios":"levelo://app?vid=3267b8a7-1e4e-443c-a66a-46725243df34"},"vehicle_type_id":"4","last_reported":1739653654,"current_range_meters":38000,"station_id":"","pricing_plan_id":"cebpf4jnsgd1na2vs0mg"},{"bike_id":"39f0fa43-2961-47d0-8e28-d6ced3bcb1a4","system_id":"levelo_inurba_marseille","lat":43.26836,"lon":5.40239,"is_reserved":false,"is_disabled":true,"rental_uris":{"android":"levelo://app?vid=39f0fa43-2961-47d0-8e28-d6ced3bcb1a4","ios":"levelo://app?vid=39f0fa43-2961-47d0-8e28-d6ced3bcb1a4"},"vehicle_type_id":"4","last_reported":1739653654,"current_range_meters":32400,"station_id":"ce501612rcd8frsf0b60","pricing_plan_id":"cebpf4jnsgd1na2vs0mg"},{"bike_id":"4e814ba9-7f7f-413c-81c5-6cae18c64ff7","system_id":"levelo_inurba_marseille","lat":43.31321,"lon":5.39691,"is_reserved":false,"is_disabled":false,"rental_uris":{"android":"levelo://app?vid=4e814ba9-7f7f-413c-81c5-6cae18c64ff7","ios":"levelo://app?vid=4e814ba9-7f7f-413c-81c5-6cae18c64ff7"},"vehicle_type_id":"4","last_reported":1739653654,"current_range_meters":35600,"station_id":"ce4bgvp2rcd13ifvqcu0","pricing_plan_id":"cebpf4jnsgd1na2vs0mg"},{"bike_id":"9bcc3779-160f-4f11-a908-15bc41b1ac43","system_id":"levelo_inurba_marseille","lat":43.2798,"lon":5.40039,"is_reserved":false,"is_disabled":true,"rental_uris":{"android":"levelo://app?vid=9bcc3779-160f-4f11-a908-15bc41b1ac43","ios":"levelo://app?vid=9bcc3779-160f-4f11-a908-15bc41b1ac43"},"vehicle_type_id":"4","last_reported":1739653654,"current_range_meters":5600,"station_id":"ce4bho92rcd13ifvqh4g","pricing_plan_id":"cebpf4jnsgd1na2vs0mg"},{"bike_id":"3c64c24f-16f7-46ec-b068-15fe4ebda356","system_id":"levelo_inurba_marseille","lat":43.29493,"lon":5.36395,"is_reserved":false,"is_disabled":true,"rental_uris":{"android":"levelo://app?vid=3c64c24f-16f7-46ec-b068-15fe4ebda356","ios":"levelo://app?vid=3c64c24f-16f7-46ec-b068-15fe4ebda356"},"vehicle_type_id":"4","last_reported":1739653654,"current_range_meters":20400,"station_id":"","pricing_plan_id":"cebpf4jnsgd1na2vs0mg"},{"bike_id":"07103950-cfc8-4b51-a67a-cac3df3ef5e7","system_id":"levelo_inurba_marseille","lat":43.24082,"lon":5.37757,"is_reserved":false,"is_disabled":false,"rental_uris":{"android":"levelo://app?vid=07103950-cfc8-4b51-a67a-cac3df3ef5e7","ios":"levelo://app?vid=07103950-cfc8-4b51-a67a-cac3df3ef5e7"},"vehicle_type_id":"4","last_reported":1739653654,"current_range_meters":39200,"station_id":"ce4bhnp2rcd13ifvqgvg","pricing_plan_id":"cebpf4jnsgd1na2vs0mg"},{"bike_id":"ddade70e-450b-459c-901d-c8d7b6e39c7e","system_id":"levelo_inurba_marseille","lat":43.25732,"lon":5.41116,"is_reserved":false,"is_disabled":false,"rental_uris":{"android":"levelo://app?vid=ddade70e-450b-459c-901d-c8d7b6e39c7e","ios":"levelo://app?vid=ddade70e-450b-459c-901d-c8d7b6e39c7e"},"vehicle_type_id":"4","last_reported":1739653654,"current_range_meters":30800,"station_id":"ce4bhkp2rcd13ifvqgd0","pricing_plan_id":"cebpf4jnsgd1na2vs0mg"},{"bike_id":"d08d6ca3-32e2-429a-9f54-ead332b421c9","system_id":"levelo_inurba_marseille","lat":43.30539,"lon":5.38434,"is_reserved":false,"is_disabled":false,"rental_uris":{"android":"levelo://app?vid=d08d6ca3-32e2-429a-9f54-ead332b421c9","ios":"levelo://app?vid=d08d6ca3-32e2-429a-9f54-ead332b421c9"},"vehicle_type_id":"4","last_reported":1739653654,"current_range_meters":14400,"station_id":"ce4bgg92rcd13ifvqb30","pricing_plan_id":"cebpf4jnsgd1na2vs0mg"},{"bike_id":"82454a81-80dc-45af-954c-68e417b43398","system_id":"levelo_inurba_marseille","lat":43.296,"lon":5.38105,"is_reserved":false,"is_disabled":false,"rental_uris":{"android":"levelo://app?vid=82454a81-80dc-45af-954c-68e417b43398","ios":"levelo://app?vid=82454a81-80dc-45af-954c-68e417b43398"},"vehicle_type_id":"4","last_reported":1739653654,"current_range_meters":30000,"station_id":"ce4bgl12rcd13ifvqbo0","pricing_plan_id":"cebpf4jnsgd1na2vs0mg"},{"bike_id":"26ef4db8-d373-4e80-8b1e-f98947cb367b","system_id":"levelo_inurba_marseille","lat":43.231867,"lon":5.399791,"is_reserved":false,"is_disabled":false,"rental_uris":{"android":"levelo://app?vid=26ef4db8-d373-4e80-8b1e-f98947cb367b","ios":"levelo://app?vid=26ef4db8-d373-4e80-8b1e-f98947cb367b"},"vehicle_type_id":"4","last_reported":1739653654,"current_range_meters":9600,"station_id":"ce4bhn12rcd13ifvqgqg","pricing_plan_id":"cebpf4jnsgd1na2vs0mg"},{"bike_id":"39ee4101-ed11-46d5-b8b8-48ae3dde17e4","system_id":"levelo_inurba_marseille","lat":43.30876,"lon":5.39668,"is_reserved":false,"is_disabled":true,"rental_uris":{"android":"levelo://app?vid=39ee4101-ed11-46d5-b8b8-48ae3dde17e4","ios":"levelo://app?vid=39ee4101-ed11-46d5-b8b8-48ae3dde17e4"},"vehicle_type_id":"4","last_reported":1739653654,"current_range_meters":0,"station_id":"ce4bh012rcd13ifvqcv0","pricing_plan_id":"cebpf4jnsgd1na2vs0mg"},{"bike_id":"4609f558-d1b9-4cf1-bb62-9a93c01d1bef","system_id":"levelo_inurba_marseille","lat":43.30205,"lon":5.38981,"is_reserved":false,"is_disabled":false,"rental_uris":{"android":"levelo://app?vid=4609f558-d1b9-4cf1-bb62-9a93c01d1bef","ios":"levelo://app?vid=4609f558-d1b9-4cf1-bb62-9a93c01d1bef"},"vehicle_type_id":"4","last_reported":1739653654,"current_range_meters":35200,"station_id":"","pricing_plan_id":"cebpf4jnsgd1na2vs0mg"},{"bike_id":"2dea0667-1db6-4775-857f-894e60e0a4c7","system_id":"levelo_inurba_marseille","lat":43.304197,"lon":5.397486,"is_reserved":false,"is_disabled":true,"rental_uris":{"android":"levelo://app?vid=2dea0667-1db6-4775-857f-894e60e0a4c7","ios":"levelo://app?vid=2dea0667-1db6-4775-857f-894e60e0a4c7"},"vehicle_type_id":"4","last_reported":1739653654,"current_range_meters":30400,"station_id":"ce4bh092rcd13ifvqd20","pricing_plan_id":"cebpf4jnsgd1na2vs0mg"},{"bike_id":"ded26b5d-528e-4a8a-bee5-566e7bc99e6d","system_id":"levelo_inurba_marseille","lat":43.29421,"lon":5.38628,"is_reserved":false,"is_disabled":false,"rental_uris":{"android":"levelo://app?vid=ded26b5d-528e-4a8a-bee5-566e7bc99e6d","ios":"levelo://app?vid=ded26b5d-528e-4a8a-bee5-566e7bc99e6d"},"vehicle_type_id":"4","last_reported":1739653654,"current_range_meters":36400,"station_id":"ce4bh2h2rcd13ifvqdh0","pricing_plan_id":"cebpf4jnsgd1na2vs0mg"},{"bike_id":"f9a03037-ba7d-4410-bf8e-74affdf2f6e3","system_id":"levelo_inurba_marseille","lat":43.24654,"lon":5.3886,"is_reserved":false,"is_disabled":false,"rental_uris":{"android":"levelo://app?vid=f9a03037-ba7d-4410-bf8e-74affdf2f6e3","ios":"levelo://app?vid=f9a03037-ba7d-4410-bf8e-74affdf2f6e3"},"vehicle_type_id":"4","last_reported":1739653654,"current_range_meters":24800,"station_id":"ce4bhg12rcd13ifvqf60","pricing_plan_id":"cebpf4jnsgd1na2vs0mg"},{"bike_id":"89bed97d-b574-4134-828a-13a438ea864c","system_id":"levelo_inurba_marseille","lat":43.28615,"lon":5.35104,"is_reserved":false,"is_disabled":false,"rental_uris":{"android":"levelo://app?vid=89bed97d-b574-4134-828a-13a438ea864c","ios":"levelo://app?vid=89bed97d-b574-4134-828a-13a438ea864c"},"vehicle_type_id":"4","last_reported":1739653654,"current_range_meters":30800,"station_id":"ce4bhch2rcd13ifvqeug","pricing_plan_id":"cebpf4jnsgd1na2vs0mg"},{"bike_id":"d1d0f41c-c77a-4f7a-8acb-c074e3f56578","system_id":"levelo_inurba_marseille","lat":43.28025,"lon":5.36932,"is_reserved":false,"is_disabled":false,"rental_uris":{"android":"levelo://app?vid=d1d0f41c-c77a-4f7a-8acb-c074e3f56578","ios":"levelo://app?vid=d1d0f41c-c77a-4f7a-8acb-c074e3f56578"},"vehicle_type_id":"4","last_reported":1739653654,"current_range_meters":39200,"station_id":"ce4bha12rcd13ifvqef0","pricing_plan_id":"cebpf4jnsgd1na2vs0mg"},{"bike_id":"ad4af932-f51b-41b8-983b-7e431dcc24a9","system_id":"levelo_inurba_marseille","lat":43.337444,"lon":5.374475,"is_reserved":false,"is_disabled":true,"rental_uris":{"android":"levelo://app?vid=ad4af932-f51b-41b8-983b-7e431dcc24a9","ios":"levelo://app?vid=ad4af932-f51b-41b8-983b-7e431dcc24a9"},"vehicle_type_id":"4","last_reported":1739653654,"current_range_meters":0,"station_id":"","pricing_plan_id":"cebpf4jnsgd1na2vs0mg"},{"bike_id":"95d42703-1a37-4cb4-8b06-69616f6b8e6d","system_id":"levelo_inurba_marseille","lat":43.27675,"lon":5.3891,"is_reserved":false,"is_disabled":true,"rental_uris":{"android":"levelo://app?vid=95d42703-1a37-4cb4-8b06-69616f6b8e6d","ios":"levelo://app?vid=95d42703-1a37-4cb4-8b06-69616f6b8e6d"},"vehicle_type_id":"4","last_reported":1739653654,"current_range_meters":36400,"station_id":"ce4bhi12rcd13ifvqfo0","pricing_plan_id":"cebpf4jnsgd1na2vs0mg"},{"bike_id":"81bec61a-1f2c-43a9-b162-eec1d41ccf13","system_id":"levelo_inurba_marseille","lat":43.28344,"lon":5.43012,"is_reserved":false,"is_disabled":false,"rental_uris":{"android":"levelo://app?vid=81bec61a-1f2c-43a9-b162-eec1d41ccf13","ios":"levelo://app?vid=81bec61a-1f2c-43a9-b162-eec1d41ccf13"},"vehicle_type_id":"4","last_reported":1739653654,"current_range_meters":22400,"station_id":"","pricing_plan_id":"cebpf4jnsgd1na2vs0mg"},{"bike_id":"dfb8b4bf-66b7-4f69-91ef-2703e7099d0d","system_id":"levelo_inurba_marseille","lat":43.26772,"lon":5.3942,"is_reserved":false,"is_disabled":true,"rental_uris":{"android":"levelo://app?vid=dfb8b4bf-66b7-4f69-91ef-2703e7099d0d","ios":"levelo://app?vid=dfb8b4bf-66b7-4f69-91ef-2703e7099d0d"},"vehicle_type_id":"4","last_reported":1739653654,"current_range_meters":2800,"station_id":"ce4bhh12rcd13ifvqfg0","pricing_plan_id":"cebpf4jnsgd1na2vs0mg"},{"bike_id":"427f16a5-1b90-4605-939a-05877678566f","system_id":"levelo_inurba_marseille","lat":43.27949,"lon":5.4103,"is_reserved":false,"is_disabled":false,"rental_uris":{"android":"levelo://app?vid=427f16a5-1b90-4605-939a-05877678566f","ios":"levelo://app?vid=427f16a5-1b90-4605-939a-05877678566f"},"vehicle_type_id":"4","last_reported":1739653654,"current_range_meters":26800,"station_id":"ce4bhnp2rcd13ifvqh0g","pricing_plan_id":"cebpf4jnsgd1na2vs0mg"},{"bike_id":"3030e79b-7827-43b6-bc89-2ab578c1cc15","system_id":"levelo_inurba_marseille","lat":43.29526,"lon":5.38519,"is_reserved":false,"is_disabled":false,"rental_uris":{"android":"levelo://app?vid=3030e79b-7827-43b6-bc89-2ab578c1cc15","ios":"levelo://app?vid=3030e79b-7827-43b6-bc89-2ab578c1cc15"},"vehicle_type_id":"4","last_reported":1739653654,"current_range_meters":38000,"station_id":"ce4bgih2rcd13ifvqba0","pricing_plan_id":"cebpf4jnsgd1na2vs0mg"},{"bike_id":"fe07bedc-c84e-40a7-b69d-0bc6653dafaf","system_id":"levelo_inurba_marseille","lat":43.29462,"lon":5.38659,"is_reserved":false,"is_disabled":false,"rental_uris":{"android":"levelo://app?vid=fe07bedc-c84e-40a7-b69d-0bc6653dafaf","ios":"levelo://app?vid=fe07bedc-c84e-40a7-b69d-0bc6653dafaf"},