{"last_updated":1757956088,"ttl":60,"version":"2.2","data":{"bikes":[{"bike_id":"a6fb472d-fbb8-444b-b011-a4b2de1db334","system_id":"levelo_inurba_marseille","lat":43.25379,"lon":5.40234,"is_reserved":false,"is_disabled":false,"rental_uris":{"android":"levelo://app?vid=a6fb472d-fbb8-444b-b011-a4b2de1db334","ios":"levelo://app?vid=a6fb472d-fbb8-444b-b011-a4b2de1db334"},"vehicle_type_id":"4","last_reported":1757956089,"current_range_meters":2800,"station_id":"","pricing_plan_id":"cebpf4jnsgd1na2vs0mg"},{"bike_id":"5fcd29a0-e071-4cfe-b5c9-16f65bfc8a16","system_id":"levelo_inurba_marseille","lat":43.3089,"lon":5.37189,"is_reserved":false,"is_disabled":false,"rental_uris":{"android":"levelo://app?vid=5fcd29a0-e071-4cfe-b5c9-16f65bfc8a16","ios":"levelo://app?vid=5fcd29a0-e071-4cfe-b5c9-16f65bfc8a16"},"vehicle_type_id":"4","last_reported":1757956089,"current_range_meters":2800,"station_id":"ce4bguh2rcd13ifvqckg","pricing_plan_id":"cebpf4jnsgd1na2vs0mg"},{"bike_id":"601a31ba-9175-40ce-aaca-f85194a1fe88","system_id":"levelo_inurba_marseille","lat":43.28724,"lon":5.36083,"is_reserved":false,"is_disabled":false,"rental_uris":{"android":"levelo://app?vid=601a31ba-9175-40ce-aaca-f85194a1fe88","ios":"levelo://app?vid=601a31ba-9175-40ce-aaca-f85194a1fe88"},"vehicle_type_id":"4","last_reported":1757956089,"current_range_meters":2000,"station_id":"cki0cbj6b192h4jlfktg","pricing_plan_id":"cebpf4jnsgd1na2vs0mg"},{"bike_id":"35d7958d-f32d-43aa-ab2b-4fefe820e1aa","system_id":"levelo_inurba_marseille","lat":43.2656,"lon":5.40322,"is_reserved":false,"is_disabled":false,"rental_uris":{"android":"levelo://app?vid=35d7958d-f32d-43aa-ab2b-4fefe820e1aa","ios":"levelo://app?vid=35d7958d-f32d-43aa-ab2b-4fefe820e1aa"},"vehicle_type_id":"4","last_reported":1757956089,"current_range_meters":2800,"station_id":"ce4bhmp2rcd13ifvqgng","pricing_plan_id":"cebpf4jnsgd1na2vs0mg"},{"bike_id":"33a64b9b-b708-4189-adb4-04e8f9179946","system_id":"levelo_inurba_marseille","lat":43.26499,"lon":5.39538,"is_reserved":false,"is_disabled":false,"rental_uris":{"android":"levelo://app?vid=33a64b9b-b708-4189-adb4-04e8f9179946","ios":"levelo://app?vid=33a64b9b-b708-4189-adb4-04e8f9179946"},"vehicle_type_id":"4","last_reported":1757956089,"current_range_meters":2800,"station_id":"ce4bhi12rcd13ifvqfq0","pricing_plan_id":"cebpf4jnsgd1na2vs0mg"},{"bike_id":"c8c13a36-fe00-4a67-889e-28591dc50f1a","system_id":"levelo_inurba_marseille","lat":43.2867,"lon":5.38654,"is_reserved":false,"is_disabled":false,"rental_uris":{"android":"levelo://app?vid=c8c13a36-fe00-4a67-889e-28591dc50f1a","ios":"levelo://app?vid=c8c13a36-fe00-4a67-889e-28591dc50f1a"},"vehicle_type_id":"4","last_reported":1757956089,"current_range_meters":2800,"station_id":"ce4bh492rcd13ifvqdug","pricing_plan_id":"cebpf4jnsgd1na2vs0mg"},{"bike_id":"83be6de4-6880-48e2-ba70-1ef5eda10d52","system_id":"levelo_inurba_marseille","lat":43.27679,"lon":5.38869,"is_reserved":false,"is_disabled":false,"rental_uris":{"android":"levelo://app?vid=83be6de4-6880-48e2-ba70-1ef5eda10d52","ios":"levelo://app?vid=83be6de4-6880-48e2-ba70-1ef5eda10d52"},"vehicle_type_id":"4","last_reported":1757956089,"current_range_meters":2800,"station_id":"ce4bhi12rcd13ifvqfo0","pricing_plan_id":"cebpf4jnsgd1na2vs0mg"},{"bike_id":"a71301dc-33c9-4532-80d3-5530e9c3068d","system_id":"levelo_inurba_marseille","lat":43.2693,"lon":5.38925,"is_reserved":false,"is_disabled":false,"rental_uris":{"android":"levelo://app?vid=a71301dc-33c9-4532-80d3-5530e9c3068d","ios":"levelo://app?vid=a71301dc-33c9-4532-80d3-5530e9c3068d"},"vehicle_type_id":"4","last_reported":1757956089,"current_range_meters":2800,"station_id":"ce4bhhh2rcd13ifvqfl0","pricing_plan_id":"cebpf4jnsgd1na2vs0mg"},{"bike_id":"aa2348cb-7746-45da-a02b-1f5a630628ff","system_id":"levelo_inurba_marseille","lat":43.30246,"lon":5.40067,"is_reserved":false,"is_disabled":false,"rental_uris":{"android":"levelo://app?vid=aa2348cb-7746-45da-a02b-1f5a630628ff","ios":"levelo://app?vid=aa2348cb-7746-45da-a02b-1f5a630628ff"},"vehicle_type_id":"4","last_reported":1757956089,"current_range_meters":3200,"station_id":"ce4bgvh2rcd13ifvqcs0","pricing_plan_id":"cebpf4jnsgd1na2vs0mg"},{"bike_id":"d1332c8f-454c-4c93-8466-8850dba47ed5","system_id":"levelo_inurba_marseille","lat":43.33014,"lon":5.39033,"is_reserved":false,"is_disabled":false,"rental_uris":{"android":"levelo://app?vid=d1332c8f-454c-4c93-8466-8850dba47ed5","ios":"levelo://app?vid=d1332c8f-454c-4c93-8466-8850dba47ed5"},"vehicle_type_id":"4","last_reported":1757956089,"current_range_meters":3200,"station_id":"ce4bhr92rcd13ifvqhrg","pricing_plan_id":"cebpf4jnsgd1na2vs0mg"},{"bike_id":"0f29f13b-1916-4fe7-90ec-5f3f6f7ad4d1","system_id":"levelo_inurba_marseille","lat":43.302516,"lon":5.40062,"is_reserved":false,"is_disabled":false,"rental_uris":{"android":"levelo://app?vid=0f29f13b-1916-4fe7-90ec-5f3f6f7ad4d1","ios":"levelo://app?vid=0f29f13b-1916-4fe7-90ec-5f3f6f7ad4d1"},"vehicle_type_id":"4","last_reported":1757956089,"current_range_meters":2800,"station_id":"ce4bgvh2rcd13ifvqcs0","pricing_plan_id":"cebpf4jnsgd1na2vs0mg"},{"bike_id":"8f45ad6a-4eef-47c4-90ac-85bb17d91525","system_id":"levelo_inurba_marseille","lat":43.301814,"lon":5.366224,"is_reserved":false,"is_disabled":false,"rental_uris":{"android":"levelo://app?vid=8f45ad6a-4eef-47c4-90ac-85bb17d91525","ios":"levelo://app?vid=8f45ad6a-4eef-47c4-90ac-85bb17d91525"},"vehicle_type_id":"4","last_reported":1757956089,"current_range_meters":3200,"station_id":"ce4bgrh2rcd13ifvqc8g","pricing_plan_id":"cebpf4jnsgd1na2vs0mg"},{"bike_id":"aef6622d-d536-4292-8bc3-7d101957f03b","system_id":"levelo_inurba_marseille","lat":43.29619,"lon":5.37146,"is_reserved":false,"is_disabled":false,"rental_uris":{"android":"levelo://app?vid=aef6622d-d536-4292-8bc3-7d101957f03b","ios":"levelo://app?vid=aef6622d-d536-4292-8bc3-7d101957f03b"},"vehicle_type_id":"4","last_reported":1757956089,"current_range_meters":3200,"station_id":"","pricing_plan_id":"cebpf4jnsgd1na2vs0mg"},{"bike_id":"115edc9d-6247-4a8e-b523-26b1a1638970","system_id":"levelo_inurba_marseille","lat":43.29264,"lon":5.38434,"is_reserved":false,"is_disabled":false,"rental_uris":{"android":"levelo://app?vid=115edc9d-6247-4a8e-b523-26b1a1638970","ios":"levelo://app?vid=115edc9d-6247-4a8e-b523-26b1a1638970"},"vehicle_type_id":"4","last_reported":1757956089,"current_range_meters":3200,"station_id":"ce4bh692rcd13ifvqea0","pricing_plan_id":"cebpf4jnsgd1na2vs0mg"},{"bike_id":"7d3d4bf2-35db-405d-af06-897cdc5392b8","system_id":"levelo_inurba_marseille","lat":43.273743,"lon":5.362523,"is_reserved":false,"is_disabled":false,"rental_uris":{"android":"levelo://app?vid=7d3d4bf2-35db-405d-af06-897cdc5392b8","ios":"levelo://app?vid=7d3d4bf2-35db-405d-af06-897cdc5392b8"},"vehicle_type_id":"4","last_reported":1757956089,"current_range_meters":3200,"station_id":"ce4bhbh2rcd13ifvqeo0","pricing_plan_id":"cebpf4jnsgd1na2vs0mg"},{"bike_id":"44291397-4010-43e4-a879-c9c74b1e4bcc","system_id":"levelo_inurba_marseille","lat":43.28413,"lon":5.3498,"is_reserved":false,"is_disabled":false,"rental_uris":{"android":"levelo://app?vid=44291397-4010-43e4-a879-c9c74b1e4bcc","ios":"levelo://app?vid=44291397-4010-43e4-a879-c9c74b1e4bcc"},"vehicle_type_id":"4","last_reported":1757956089,"current_range_meters":3200,"station_id":"ce4bhbh2rcd13ifvqepg","pricing_plan_id":"cebpf4jnsgd1na2vs0mg"},{"bike_id":"46abccb2-8643-462f-83c6-11d19b9f7030","system_id":"levelo_inurba_marseille","lat":43.28085,"lon":5.38858,"is_reserved":false,"is_disabled":false,"rental_uris":{"android":"levelo://app?vid=46abccb2-8643-462f-83c6-11d19b9f7030","ios":"levelo://app?vid=46abccb2-8643-462f-83c6-11d19b9f7030"},"vehicle_type_id":"4","last_reported":1757956089,"current_range_meters":3200,"station_id":"","pricing_plan_id":"cebpf4jnsgd1na2vs0mg"},{"bike_id":"09eca4d1-495f-4184-9ae0-b5332b75011d","system_id":"levelo_inurba_marseille","lat":43.24804,"lon":5.37474,"is_reserved":false,"is_disabled":true,"rental_uris":{"android":"levelo://app?vid=09eca4d1-495f-4184-9ae0-b5332b75011d","ios":"levelo://app?vid=09eca4d1-495f-4184-9ae0-b5332b75011d"},"vehicle_type_id":"4","last_reported":1757956089,"current_range_meters":3600,"station_id":"ce4bhgh2rcd13ifvqfb0","pricing_plan_id":"cebpf4jnsgd1na2vs0mg"},{"bike_id":"42bcb67d-1ff4-4921-95e1-34c82e1b30a9","system_id":"levelo_inurba_marseille","lat":43.29061,"lon":5.37154,"is_reserved":false,"is_disabled":false,"rental_uris":{"android":"levelo://app?vid=42bcb67d-1ff4-4921-95e1-34c82e1b30a9","ios":"levelo://app?vid=42bcb67d-1ff4-4921-95e1-34c82e1b30a9"},"vehicle_type_id":"4","last_reported":1757956089,"current_range_meters":3600,"station_id":"ce4bh5p2rcd13ifvqe4g","pricing_plan_id":"cebpf4jnsgd1na2vs0mg"},{"bike_id":"d765e876-dc94-417e-ad8c-0ac49bf5261a","system_id":"levelo_inurba_marseille","lat":43.33582,"lon":5.36122,"is_reserved":false,"is_disabled":false,"rental_uris":{"android":"levelo://app?vid=d765e876-dc94-417e-ad8c-0ac49bf5261a","ios":"levelo://app?vid=d765e876-dc94-417e-ad8c-0ac49bf5261a"},"vehicle_type_id":"4","last_reported":1757956089,"current_range_meters":3600,"station_id":"","pricing_plan_id":"cebpf4jnsgd1na2vs0mg"},{"bike_id":"14b7d263-f34e-43a3-9d8f-078dcd619f03","system_id":"levelo_inurba_marseille","lat":43.291965,"lon":5.393223,"is_reserved":false,"is_disabled":false,"rental_uris":{"android":"levelo://app?vid=14b7d263-f34e-43a3-9d8f-078dcd619f03","ios":"levelo://app?vid=14b7d263-f34e-43a3-9d8f-078dcd619f03"},"vehicle_type_id":"4","last_reported":1757956089,"current_range_meters":3600,"station_id":"ce4bh192rcd13ifvqdd0","pricing_plan_id":"cebpf4jnsgd1na2vs0mg"},{"bike_id":"4891d751-b66c-4a3d-89d5-78926b795844","system_id":"levelo_inurba_marseille","lat":43.337444,"lon":5.374475,"is_reserved":false,"is_disabled":false,"rental_uris":{"android":"levelo://app?vid=4891d751-b66c-4a3d-89d5-78926b795844","ios":"levelo://app?vid=4891d751-b66c-4a3d-89d5-78926b795844"},"vehicle_type_id":"4","last_reported":1757956089,"current_range_meters":3600,"station_id":"","pricing_plan_id":"cebpf4jnsgd1na2vs0mg"},{"bike_id":"9a45254c-c77a-469d-8fa3-a3fa05a580ba","system_id":"levelo_inurba_marseille","lat":43.271656,"lon":5.38662,"is_reserved":false,"is_disabled":false,"rental_uris":{"android":"levelo://app?vid=9a45254c-c77a-469d-8fa3-a3fa05a580ba","ios":"levelo://app?vid=9a45254c-c77a-469d-8fa3-a3fa05a580ba"},"vehicle_type_id":"4","last_reported":1757956089,"current_range_meters":3600,"station_id":"","pricing_plan_id":"cebpf4jnsgd1na2vs0mg"},{"bike_id":"afd70d28-4174-4093-b8d1-dc79214d8be8","system_id":"levelo_inurba_marseille","lat":43.29809,"lon":5.37718,"is_reserved":false,"is_disabled":true,"rental_uris":{"android":"levelo://app?vid=afd70d28-4174-4093-b8d1-dc79214d8be8","ios":"levelo://app?vid=afd70d28-4174-4093-b8d1-dc79214d8be8"},"vehicle_type_id":"4","last_reported":1757956089,"current_range_meters":3600,"station_id":"","pricing_plan_id":"cebpf4jnsgd1na2vs0mg"},{"bike_id":"8786f1c7-aef6-4053-a89b-72544aa9c1de","system_id":"levelo_inurba_marseille","lat":43.23053,"lon":5.35497,"is_reserved":false,"is_disabled":false,"rental_uris":{"android":"levelo://app?vid=8786f1c7-aef6-4053-a89b-72544aa9c1de","ios":"levelo://app?vid=8786f1c7-aef6-4053-a89b-72544aa9c1de"},"vehicle_type_id":"4","last_reported":1757956089,"current_range_meters":4000,"station_id":"cpo3342slgdg3j2ifvpg","pricing_plan_id":"cebpf4jnsgd1na2vs0mg"},{"bike_id":"eb3a4b59-fb4a-4418-bd3e-dbdce230ef03","system_id":"levelo_inurba_marseille","lat":43.28464,"lon":5.35888,"is_reserved":false,"is_disabled":false,"rental_uris":{"android":"levelo://app?vid=eb3a4b59-fb4a-4418-bd3e-dbdce230ef03","ios":"levelo://app?vid=eb3a4b59-fb4a-4418-bd3e-dbdce230ef03"},"vehicle_type_id":"4","last_reported":1757956089,"current_range_meters":4000,"station_id":"ce4bhah2rcd13ifvqei0","pricing_plan_id":"cebpf4jnsgd1na2vs0mg"},{"bike_id":"d5c98035-fc72-4062-a3ec-13203f68e8ed","system_id":"levelo_inurba_marseille","lat":43.28867,"lon":5.42512,"is_reserved":false,"is_disabled":false,"rental_uris":{"android":"levelo://app?vid=d5c98035-fc72-4062-a3ec-13203f68e8ed","ios":"levelo://app?vid=d5c98035-fc72-4062-a3ec-13203f68e8ed"},"vehicle_type_id":"4","last_reported":1757956089,"current_range_meters":4400,"station_id":"","pricing_plan_id":"cebpf4jnsgd1na2vs0mg"},{"bike_id":"02dbb44c-70e3-4a7a-b86e-6159cc35ba47","system_id":"levelo_inurba_marseille","lat":43.29587,"lon":5.38689,"is_reserved":false,"is_disabled":false,"rental_uris":{"android":"levelo://app?vid=02dbb44c-70e3-4a7a-b86e-6159cc35ba47","ios":"levelo://app?vid=02dbb44c-70e3-4a7a-b86e-6159cc35ba47"},"vehicle_type_id":"4","last_reported":1757956089,"current_range_meters":4000,"station_id":"ce4bgih2rcd13ifvqba0","pricing_plan_id":"cebpf4jnsgd1na2vs0mg"},{"bike_id":"1245d405-6666-4114-93c8-802bd9a0e9b4","system_id":"levelo_inurba_marseille","lat":43.28948,"lon":5.364,"is_reserved":false,"is_disabled":false,"rental_uris":{"android":"levelo://app?vid=1245d405-6666-4114-93c8-802bd9a0e9b4","ios":"levelo://app?vid=1245d405-6666-4114-93c8-802bd9a0e9b4"},"vehicle_type_id":"4","last_reported":1757956089,"current_range_meters":4000,"station_id":"ce4bhc92rcd13ifvqetg","pricing_plan_id":"cebpf4jnsgd1na2vs0mg"},{"bike_id":"9869c78f-fec9-4c87-bb27-88ba313bb796","system_id":"levelo_inurba_marseille","lat":43.31327,"lon":5.39692,"is_reserved":false,"is_disabled":false,"rental_uris":{"android":"levelo://app?vid=9869c78f-fec9-4c87-bb27-88ba313bb796","ios":"levelo://app?vid=9869c78f-fec9-4c87-bb27-88ba313bb796"},"vehicle_type_id":"4","last_reported":1757956089,"current_range_meters":4400,"station_id":"ce4bgvp2rcd13ifvqcu0","pricing_plan_id":"cebpf4jnsgd1na2vs0mg"},{"bike_id":"55d59e02-f5a5-4e1a-9360-556e842fa2a4","system_id":"levelo_inurba_marseille","lat":43.33764,"lon":5.37496,"is_reserved":false,"is_disabled":false,"rental_uris":{"android":"levelo://app?vid=55d59e02-f5a5-4e1a-9360-556e842fa2a4","ios":"levelo://app?vid=55d59e02-f5a5-4e1a-9360-556e842fa2a4"},"vehicle_type_id":"4","last_reported":1757956089,"current_range_meters":4400,"station_id":"","pricing_plan_id":"cebpf4jnsgd1na2vs0mg"},{"bike_id":"a12f29fb-3202-4196-ad1d-b22c61cdf53d","system_id":"levelo_inurba_marseille","lat":43.29227,"lon":5.36062,"is_reserved":false,"is_disabled":false,"rental_uris":{"android":"levelo://app?vid=a12f29fb-3202-4196-ad1d-b22c61cdf53d","ios":"levelo://app?vid=a12f29fb-3202-4196-ad1d-b22c61cdf53d"},"vehicle_type_id":"4","last_reported":1757956089,"current_range_meters":4400,"station_id":"ce4bhbh2rcd13ifvqeqg","pricing_plan_id":"cebpf4jnsgd1na2vs0mg"},{"bike_id":"64fd3338-9664-4eab-9d69-526a809f8c3c","system_id":"levelo_inurba_marseille","lat":43.3376,"lon":5.36711,"is_reserved":false,"is_disabled":false,"rental_uris":{"android":"levelo://app?vid=64fd3338-9664-4eab-9d69-526a809f8c3c","ios":"levelo://app?vid=64fd3338-9664-4eab-9d69-526a809f8c3c"},"vehicle_type_id":"4","last_reported":1757956089,"current_range_meters":4400,"station_id":"","pricing_plan_id":"cebpf4jnsgd1na2vs0mg"},{"bike_id":"595fcf91-2e66-4c2b-8a3c-21ddb133f196","system_id":"levelo_inurba_marseille","lat":43.21765,"lon":5.34618,"is_reserved":false,"is_disabled":true,"rental_uris":{"android":"levelo://app?vid=595fcf91-2e66-4c2b-8a3c-21ddb133f196","ios":"levelo://app?vid=595fcf91-2e66-4c2b-8a3c-21ddb133f196"},"vehicle_type_id":"4","last_reported":1757956089,"current_range_meters":4400,"station_id":"st_cvj6r9ubvosntc0bgbag","pricing_plan_id":"cebpf4jnsgd1na2vs0mg"},{"bike_id":"33e88e77-0362-4e2c-a0d5-a6de09703d06","system_id":"levelo_inurba_marseille","lat":43.29228,"lon":5.36057,"is_reserved":false,"is_disabled":false,"rental_uris":{"android":"levelo://app?vid=33e88e77-0362-4e2c-a0d5-a6de09703d06","ios":"levelo://app?vid=33e88e77-0362-4e2c-a0d5-a6de09703d06"},"vehicle_type_id":"4","last_reported":1757956089,"current_range_meters":4400,"station_id":"ce4bhbh2rcd13ifvqeqg","pricing_plan_id":"cebpf4jnsgd1na2vs0mg"},{"bike_id":"f11649e3-ebe7-4014-8a62-0409218708d7","system_id":"levelo_inurba_marseille","lat":43.28937,"lon":5.36639,"is_reserved":false,"is_disabled":false,"rental_uris":{"android":"levelo://app?vid=f11649e3-ebe7-4014-8a62-0409218708d7","ios":"levelo://app?vid=f11649e3-ebe7-4014-8a62-0409218708d7"},"vehicle_type_id":"4","last_reported":1757956089,"current_range_meters":4400,"station_id":"ce4bhap2rcd13ifvqek0","pricing_plan_id":"cebpf4jnsgd1na2vs0mg"},{"bike_id":"6bd9736a-8797-45bd-bb3a-1e25b560c9fe","system_id":"levelo_inurba_marseille","lat":43.29024,"lon":5.3863,"is_reserved":false,"is_disabled":false,"rental_uris":{"android":"levelo://app?vid=6bd9736a-8797-45bd-bb3a-1e25b560c9fe","ios":"levelo://app?vid=6bd9736a-8797-45bd-bb3a-1e25b560c9fe"},"vehicle_type_id":"4","last_reported":1757956089,"current_range_meters":4400,"station_id":"ce4bh4p2rcd13ifvqe0g","pricing_plan_id":"cebpf4jnsgd1na2vs0mg"},{"bike_id":"b8f670fa-989e-4d78-8233-596efed6638c","system_id":"levelo_inurba_marseille","lat":43.29913,"lon":5.3748,"is_reserved":false,"is_disabled":false,"rental_uris":{"android":"levelo://app?vid=b8f670fa-989e-4d78-8233-596efed6638c","ios":"levelo://app?vid=b8f670fa-989e-4d78-8233-596efed6638c"},"vehicle_type_id":"4","last_reported":1757956089,"current_range_meters":4000,"station_id":"ce4bgjh2rcd13ifvqbg0","pricing_plan_id":"cebpf4jnsgd1na2vs0mg"},{"bike_id":"c8c54fe0-f80f-446b-b5b6-23cb1ad762a6","system_id":"levelo_inurba_marseille","lat":43.28847,"lon":5.3581,"is_reserved":false,"is_disabled":false,"rental_uris":{"android":"levelo://app?vid=c8c54fe0-f80f-446b-b5b6-23cb1ad762a6","ios":"levelo://app?vid=c8c54fe0-f80f-446b-b5b6-23cb1ad762a6"},"vehicle_type_id":"4","last_reported":1757956089,"current_range_meters":4800,"station_id":"ce4bhb12rcd13ifvqem0","pricing_plan_id":"cebpf4jnsgd1na2vs0mg"},{"bike_id":"52ced607-caf2-4459-b964-7288a76535ad","system_id":"levelo_inurba_marseille","lat":43.31488,"lon":5.373112,"is_reserved":false,"is_disabled":false,"rental_uris":{"android":"levelo://app?vid=52ced607-caf2-4459-b964-7288a76535ad","ios":"levelo://app?vid=52ced607-caf2-4459-b964-7288a76535ad"},"vehicle_type_id":"4","last_reported":1757956089,"current_range_meters":4800,"station_id":"ce4bgt12rcd13ifvqcd0","pricing_plan_id":"cebpf4jnsgd1na2vs0mg"},{"bike_id":"3a529ca8-2307-4b7d-a6ef-fc043905ba00","system_id":"levelo_inurba_marseille","lat":43.29073,"lon":5.37157,"is_reserved":false,"is_disabled":false,"rental_uris":{"android":"levelo://app?vid=3a529ca8-2307-4b7d-a6ef-fc043905ba00","ios":"levelo://app?vid=3a529ca8-2307-4b7d-a6ef-fc043905ba00"},"vehicle_type_id":"4","last_reported":1757956089,"current_range_meters":4800,"station_id":"ce4bh5p2rcd13ifvqe4g","pricing_plan_id":"cebpf4jnsgd1na2vs0mg"},{"bike_id":"8fdbcb1f-b2be-47e2-ad78-3427ce64cddb","system_id":"levelo_inurba_marseille","lat":43.28408,"lon":5.34974,"is_reserved":false,"is_disabled":false,"rental_uris":{"android":"levelo://app?vid=8fdbcb1f-b2be-47e2-ad78-3427ce64cddb","ios":"levelo://app?vid=8fdbcb1f-b2be-47e2-ad78-3427ce64cddb"},"vehicle_type_id":"4","last_reported":1757956089,"current_range_meters":4800,"station_id":"ce4bhbh2rcd13ifvqepg","pricing_plan_id":"cebpf4jnsgd1na2vs0mg"},{"bike_id":"36fa9f89-525d-4668-bda4-122969e739d4","system_id":"levelo_inurba_marseille","lat":43.28357,"lon":5.38676,"is_reserved":false,"is_disabled":false,"rental_uris":{"android":"levelo://app?vid=36fa9f89-525d-4668-bda4-122969e739d4","ios":"levelo://app?vid=36fa9f89-525d-4668-bda4-122969e739d4"},"vehicle_type_id":"4","last_reported":1757956089,"current_range_meters":4400,"station_id":"ce4bh492rcd13ifvqdvg","pricing_plan_id":"cebpf4jnsgd1na2vs0mg"},{"bike_id":"5715d875-3eec-4b22-8f32-c0cf37beea1f","system_id":"levelo_inurba_marseille","lat":43.29308,"lon":5.37174,"is_reserved":false,"is_disabled":false,"rental_uris":{"android":"levelo://app?vid=5715d875-3eec-4b22-8f32-c0cf37beea1f","ios":"levelo://app?vid=5715d875-3eec-4b22-8f32-c0cf37beea1f"},"vehicle_type_id":"4","last_reported":1757956089,"current_range_meters":5600,"station_id":"ce4bgh92rcd13ifvqb40","pricing_plan_id":"cebpf4jnsgd1na2vs0mg"},{"bike_id":"6a1e298c-ee77-4f8d-884e-d52f66f1b5ca","system_id":"levelo_inurba_marseille","lat":43.30144,"lon":5.38765,"is_reserved":false,"is_disabled":false,"rental_uris":{"android":"levelo://app?vid=6a1e298c-ee77-4f8d-884e-d52f66f1b5ca","ios":"levelo://app?vid=6a1e298c-ee77-4f8d-884e-d52f66f1b5ca"},"vehicle_type_id":"4","last_reported":1757956089,"current_range_meters":5600,"station_id":"ce4bghh2rcd13ifvqb60","pricing_plan_id":"cebpf4jnsgd1na2vs0mg"},{"bike_id":"c5cba6d7-e282-4417-a818-5fc0802dcb08","system_id":"levelo_inurba_marseille","lat":43.33761,"lon":5.3745,"is_reserved":false,"is_disabled":false,"rental_uris":{"android":"levelo://app?vid=c5cba6d7-e282-4417-a818-5fc0802dcb08","ios":"levelo://app?vid=c5cba6d7-e282-4417-a818-5fc0802dcb08"},"vehicle_type_id":"4","last_reported":1757956089,"current_range_meters":5600,"station_id":"","pricing_plan_id":"cebpf4jnsgd1na2vs0mg"},{"bike_id":"1002e43c-8b39-400d-b42c-20a5640b6925","system_id":"levelo_inurba_marseille","lat":43.25583,"lon":5.38236,"is_reserved":false,"is_disabled":false,"rental_uris":{"android":"levelo://app?vid=1002e43c-8b39-400d-b42c-20a5640b6925","ios":"levelo://app?vid=1002e43c-8b39-400d-b42c-20a5640b6925"},"vehicle_type_id":"4","last_reported":1757956089,"current_range_meters":6000,"station_id":"ce4bhih2rcd13ifvqfs0","pricing_plan_id":"cebpf4jnsgd1na2vs0mg"},{"bike_id":"237698c3-f7a7-4aa0-a898-7a0e8095f7be","system_id":"levelo_inurba_marseille","lat":43.303047,"lon":5.392086,"is_reserved":false,"is_disabled":true,"rental_uris":{"android":"levelo://app?vid=237698c3-f7a7-4aa0-a898-7a0e8095f7be","ios":"levelo://app?vid=237698c3-f7a7-4aa0-a898-7a0e8095f7be"},"vehicle_type_id":"4","last_reported":1757956089,"current_range_meters":6000,"station_id":"","pricing_plan_id":"cebpf4jnsgd1na2vs0mg"},{"bike_id":"1e36c872-e341-4ae9-8535-0a58dc3c72c8","system_id":"levelo_inurba_marseille","lat":43.25337,"lon":5.42173,"is_reserved":false,"is_disabled":false,"rental_uris":{"android":"levelo://app?vid=1e36c872-e341-4ae9-8535-0a58dc3c72c8","ios":"levelo://app?vid=1e36c872-e341-4ae9-8535-0a58dc3c72c8"},"vehicle_type_id":"4","last_reported":1757956089,"current_range_meters":6000,"station_id":"st_d2m65c5bi1j21697t3ng","pricing_plan_id":"cebpf4jnsgd1na2vs0mg"},{"bike_id":"e2a40500-1d0f-4f00-a896-b97fbfc1e2e5","system_id":"levelo_inurba_marseille","lat":43.278102,"lon":5.407103,"is_reserved":false,"is_disabled":false,"rental_uris":{"android":"levelo://app?vid=e2a40500-1d0f-4f00-a896-b97fbfc1e2e5","ios":"levelo://app?vid=e2a40500-1d0f-4f00-a896-b97fbfc1e2e5"},"vehicle_type_id":"4","last_reported":1757956089,"current_range_meters":6000,"station_id":"ce4bhnh2rcd13ifvqgtg","pricing_plan_id":"cebpf4jnsgd1na2vs0mg"},{"bike_id":"431e958c-f145-4245-8432-c95154be6e94","system_id":"levelo_inurba_marseille","lat":43.29278,"lon":5.40112,"is_reserved":false,"is_disabled":false,"rental_uris":{"android":"levelo://app?vid=431e958c-f145-4245-8432-c95154be6e94","ios":"levelo://app?vid=431e958c-f145-4245-8432-c95154be6e94"},"vehicle_type_id":"4","last_reported":1757956089,"current_range_meters":6000,"station_id":"ce4bh312rcd13ifvqdk0","pricing_plan_id":"cebpf4jnsgd1na2vs0mg"},{"bike_id":"65646c1a-a248-4f99-9222-08f5b7f2baac","system_id":"levelo_inurba_marseille","lat":43.2908,"lon":5.40006,"is_reserved":false,"is_disabled":false,"rental_uris":{"android":"levelo://app?vid=65646c1a-a248-4f99-9222-08f5b7f2baac","ios":"levelo://app?vid=65646c1a-a248-4f99-9222-08f5b7f2baac"},"vehicle_type_id":"4","last_reported":1757956089,"current_range_meters":6400,"station_id":"ce4bh0h2rcd13ifvqd40","pricing_plan_id":"cebpf4jnsgd1na2vs0mg"},{"bike_id":"70fba48d-ea31-48a2-b47c-3484a5431581","system_id":"levelo_inurba_marseille","lat":43.29906,"lon":5.3815,"is_reserved":false,"is_disabled":false,"rental_uris":{"android":"levelo://app?vid=70fba48d-ea31-48a2-b47c-3484a5431581","ios":"levelo://app?vid=70fba48d-ea31-48a2-b47c-3484a5431581"},"vehicle_type_id":"4","last_reported":1757956089,"current_range_meters":6400,"station_id":"ce4bgj12rcd13ifvqbc0","pricing_plan_id":"cebpf4jnsgd1na2vs0mg"},{"bike_id":"c2e70f57-faf1-4a23-8012-f4c7b388276e","system_id":"levelo_inurba_marseille","lat":43.29225,"lon":5.3606,"is_reserved":false,"is_disabled":false,"rental_uris":{"android":"levelo://app?vid=c2e70f57-faf1-4a23-8012-f4c7b388276e","ios":"levelo://app?vid=c2e70f57-faf1-4a23-8012-f4c7b388276e"},"vehicle_type_id":"4","last_reported":1757956089,"current_range_meters":6400,"station_id":"ce4bhbh2rcd13ifvqeqg","pricing_plan_id":"cebpf4jnsgd1na2vs0mg"},{"bike_id":"ce81c0d2-11c9-421a-9478-2cfc733d50da","system_id":"levelo_inurba_marseille","lat":43.29263,"lon":5.40915,"is_reserved":false,"is_disabled":false,"rental_uris":{"android":"levelo://app?vid=ce81c0d2-11c9-421a-9478-2cfc733d50da","ios":"levelo://app?vid=ce81c0d2-11c9-421a-9478-2cfc733d50da"},"vehicle_type_id":"4","last_reported":1757956089,"current_range_meters":6400,"station_id":"ce4bh192rcd13ifvqdc0","pricing_plan_id":"cebpf4jnsgd1na2vs0mg"},{"bike_id":"d9c11a94-d122-4240-b95b-24fdee8810ac","system_id":"levelo_inurba_marseille","lat":43.28272,"lon":5.39921,"is_reserved":false,"is_disabled":false,"rental_uris":{"android":"levelo://app?vid=d9c11a94-d122-4240-b95b-24fdee8810ac","ios":"levelo://app?vid=d9c11a94-d122-4240-b95b-24fdee8810ac"},"vehicle_type_id":"4","last_reported":1757956089,"current_range_meters":6400,"station_id":"","pricing_plan_id":"cebpf4jnsgd1na2vs0mg"},{"bike_id":"116ac4ca-58de-4d7f-8e7e-914cbe84a966","system_id":"levelo_inurba_marseille","lat":43.319925,"lon":5.381727,"is_reserved":false,"is_disabled":false,"rental_uris":{"android":"levelo://app?vid=116ac4ca-58de-4d7f-8e7e-914cbe84a966","ios":"levelo://app?vid=116ac4ca-58de-4d7f-8e7e-914cbe84a966"},"vehicle_type_id":"4","last_reported":1757956089,"current_range_meters":6400,"station_id":"ce4bhr12rcd13ifvqhpg","pricing_plan_id":"cebpf4jnsgd1na2vs0mg"},{"bike_id":"f58c3cf8-9b40-430c-9888-1f65cde26d6b","system_id":"levelo_inurba_marseille","lat":43.34049,"lon":5.40104,"is_reserved":false,"is_disabled":false,"rental_uris":{"android":"levelo://app?vid=f58c3cf8-9b40-430c-9888-1f65cde26d6b","ios":"levelo://app?vid=f58c3cf8-9b40-430c-9888-1f65cde26d6b"},"vehicle_type_id":"4","last_reported":1757956089,"current_range_meters":6400,"station_id":"","pricing_plan_id":"cebpf4jnsgd1na2vs0mg"},{"bike_id":"30e85da9-4a4e-420a-bc64-cfe1eeea89eb","system_id":"levelo_inurba_marseille","lat":43.28358,"lon":5.3766,"is_reserved":false,"is_disabled":false,"rental_uris":{"android":"levelo://app?vid=30e85da9-4a4e-420a-bc64-cfe1eeea89eb","ios":"levelo://app?vid=30e85da9-4a4e-420a-bc64-cfe1eeea89eb"},"vehicle_type_id":"4","last_reported":1757956089,"current_range_meters":6400,"station_id":"","pricing_plan_id":"cebpf4jnsgd1na2vs0mg"},{"bike_id":"439631fd-512a-44d3-b1e1-9555c530a5c3","system_id":"levelo_inurba_marseille","lat":43.29958,"lon":5.41312,"is_reserved":false,"is_disabled":false,"rental_uris":{"android":"levelo://app?vid=439631fd-512a-44d3-b1e1-9555c530a5c3","ios":"levelo://app?vid=439631fd-512a-44d3-b1e1-9555c530a5c3"},"vehicle_type_id":"4","last_reported":1757956089,"current_range_meters":6400,"station_id":"ce4bhp12rcd13ifvqh9g","pricing_plan_id":"cebpf4jnsgd1na2vs0mg"},{"bike_id":"fcd53a0e-c604-4542-af6a-9b4b138bb5f3","system_id":"levelo_inurba_marseille","lat":43.258242,"lon":5.394358,"is_reserved":false,"is_disabled":false,"rental_uris":{"android":"levelo://app?vid=fcd53a0e-c604-4542-af6a-9b4b138bb5f3","ios":"levelo://app?vid=fcd53a0e-c604-4542-af6a-9b4b138bb5f3"},"vehicle_type_id":"4","last_reported":1757956089,"current_range_meters":6800,"station_id":"ce4bhip2rcd13ifvqft0","pricing_plan_id":"cebpf4jnsgd1na2vs0mg"},{"bike_id":"891034b5-6783-4f2d-b02e-55de94bb98fc","system_id":"levelo_inurba_marseille","lat":43.30246,"lon":5.4007,"is_reserved":false,"is_disabled":false,"rental_uris":{"android":"levelo://app?vid=891034b5-6783-4f2d-b02e-55de94bb98fc","ios":"levelo://app?vid=891034b5-6783-4f2d-b02e-55de94bb98fc"},"vehicle_type_id":"4","last_reported":1757956089,"current_range_meters":6800,"station_id":"ce4bgvh2rcd13ifvqcs0","pricing_plan_id":"cebpf4jnsgd1na2vs0mg"},{"bike_id":"4f9bd625-ea72-423e-9234-f59f397dfa3c","system_id":"levelo_inurba_marseille","lat":43.21183,"lon":5.35095,"is_reserved":false,"is_disabled":false,"rental_uris":{"android":"levelo://app?vid=4f9bd625-ea72-423e-9234-f59f397dfa3c","ios":"levelo://app?vid=4f9bd625-ea72-423e-9234-f59f397dfa3c"},"vehicle_type_id":"4","last_reported":1757956089,"current_range_meters":6800,"station_id":"st_cvj6sg6p6f1abm77japg","pricing_plan_id":"cebpf4jnsgd1na2vs0mg"},{"bike_id":"dbc4b3f6-9ce4-4c37-a874-2d94512d7ba1","system_id":"levelo_inurba_marseille","lat":43.2931,"lon":5.37177,"is_reserved":false,"is_disabled":false,"rental_uris":{"android":"levelo://app?vid=dbc4b3f6-9ce4-4c37-a874-2d94512d7ba1","ios":"levelo://app?vid=dbc4b3f6-9ce4-4c37-a874-2d94512d7ba1"},"vehicle_type_id":"4","last_reported":1757956089,"current_range_meters":6800,"station_id":"ce4bgh92rcd13ifvqb40","pricing_plan_id":"cebpf4jnsgd1na2vs0mg"},{"bike_id":"90b99ccf-2b3c-4d75-9e45-7dd3a550aac1","system_id":"levelo_inurba_marseille","lat":43.23569,"lon":5.39891,"is_reserved":false,"is_disabled":true,"rental_uris":{"android":"levelo://app?vid=90b99ccf-2b3c-4d75-9e45-7dd3a550aac1","ios":"levelo://app?vid=90b99ccf-2b3c-4d75-9e45-7dd3a550aac1"},"vehicle_type_id":"4","last_reported":1757956089,"current_range_meters":6800,"station_id":"","pricing_plan_id":"cebpf4jnsgd1na2vs0mg"},{"bike_id":"92328f20-9c61-4621-aefd-c280af7d31a0","system_id":"levelo_inurba_marseille","lat":43.28874,"lon":5.42532,"is_reserved":false,"is_disabled":false,"rental_uris":{"android":"levelo://app?vid=92328f20-9c61-4621-aefd-c280af7d31a0","ios":"levelo://app?vid=92328f20-9c61-4621-aefd-c280af7d31a0"},"vehicle_type_id":"4","last_reported":1757956089,"current_range_meters":6800,"station_id":"","pricing_plan_id":"cebpf4jnsgd1na2vs0mg"},{"bike_id":"02b6292b-a35d-4df4-81b8-5f4356c6b493","system_id":"levelo_inurba_marseille","lat":43.29227,"lon":5.36069,"is_reserved":false,"is_disabled":false,"rental_uris":{"android":"levelo://app?vid=02b6292b-a35d-4df4-81b8-5f4356c6b493","ios":"levelo://app?vid=02b6292b-a35d-4df4-81b8-5f4356c6b493"},"vehicle_type_id":"4","last_reported":1757956089,"current_range_meters":6800,"station_id":"ce4bhbh2rcd13ifvqeqg","pricing_plan_id":"cebpf4jnsgd1na2vs0mg"},{"bike_id":"cde85143-0216-400e-bdd4-67187d1a06fd","system_id":"levelo_inurba_marseille","lat":43.30163,"lon":5.37467,"is_reserved":false,"is_disabled":false,"rental_uris":{"android":"levelo://app?vid=cde85143-0216-400e-bdd4-67187d1a06fd","ios":"levelo://app?vid=cde85143-0216-400e-bdd4-67187d1a06fd"},"vehicle_type_id":"4","last_reported":1757956089,"current_range_meters":6800,"station_id":"","pricing_plan_id":"cebpf4jnsgd1na2vs0mg"},{"bike_id":"082eaf9d-d095-4a66-b4ca-842a7baef8b4","system_id":"levelo_inurba_marseille","lat":43.28712,"lon":5.37943,"is_reserved":false,"is_disabled":false,"rental_uris":{"android":"levelo://app?vid=082eaf9d-d095-4a66-b4ca-842a7baef8b4","ios":"levelo://app?vid=082eaf9d-d095-4a66-b4ca-842a7baef8b4"},"vehicle_type_id":"4","last_reported":1757956089,"current_range_meters":7200,"station_id":"ce4bh9p2rcd13ifvqec0","pricing_plan_id":"cebpf4jnsgd1na2vs0mg"},{"bike_id":"69e6afa0-a4cb-4eff-913d-9881d8fa51d5","system_id":"levelo_inurba_marseille","lat":43.29281,"lon":5.40114,"is_reserved":false,"is_disabled":false,"rental_uris":{"android":"levelo://app?vid=69e6afa0-a4cb-4eff-913d-9881d8fa51d5","ios":"levelo://app?vid=69e6afa0-a4cb-4eff-913d-9881d8fa51d5"},"vehicle_type_id":"4","last_reported":1757956089,"current_range_meters":7200,"station_id":"ce4bh312rcd13ifvqdk0","pricing_plan_id":"cebpf4jnsgd1na2vs0mg"},{"bike_id":"56fa3e33-56e5-4cd4-a988-95981d6fc344","system_id":"levelo_inurba_marseille","lat":43.21698,"lon":5.34633,"is_reserved":false,"is_disabled":false,"rental_uris":{"android":"levelo://app?vid=56fa3e33-56e5-4cd4-a988-95981d6fc344","ios":"levelo://app?vid=56fa3e33-56e5-4cd4-a988-95981d6fc344"},"vehicle_type_id":"4","last_reported":1757956089,"current_range_meters":7200,"station_id":"","pricing_plan_id":"cebpf4jnsgd1na2vs0mg"},{"bike_id":"18ad662e-80f9-48f5-9a47-75907aa2e7ea","system_id":"levelo_inurba_marseille","lat":43.30052,"lon":5.3834,"is_reserved":false,"is_disabled":false,"rental_uris":{"android":"levelo://app?vid=18ad662e-80f9-48f5-9a47-75907aa2e7ea","ios":"levelo://app?vid=18ad662e-80f9-48f5-9a47-75907aa2e7ea"},"vehicle_type_id":"4","last_reported":1757956089,"current_range_meters":7200,"station_id":"","pricing_plan_id":"cebpf4jnsgd1na2vs0mg"},{"bike_id":"c6f6e141-1005-4d8e-8681-badbb6a733e3","system_id":"levelo_inurba_marseille","lat":43.28154,"lon":5.42644,"is_reserved":false,"is_disabled":false,"rental_uris":{"android":"levelo://app?vid=c6f6e141-1005-4d8e-8681-badbb6a733e3","ios":"levelo://app?vid=c6f6e141-1005-4d8e-8681-badbb6a733e3"},"vehicle_type_id":"4","last_reported":1757956089,"current_range_meters":7200,"station_id":"ce4bhnh2rcd13ifvqgug","pricing_plan_id":"cebpf4jnsgd1na2vs0mg"},{"bike_id":"517fbc72-7272-4b2e-b23c-5f4c7d1f8b78","system_id":"levelo_inurba_marseille","lat":43.29226,"lon":5.36062,"is_reserved":false,"is_disabled":false,"rental_uris":{"android":"levelo://app?vid=517fbc72-7272-4b2e-b23c-5f4c7d1f8b78","ios":"levelo://app?vid=517fbc72-7272-4b2e-b23c-5f4c7d1f8b78"},"vehicle_type_id":"4","last_reported":1757956089,"current_range_meters":7200,"station_id":"ce4bhbh2rcd13ifvqeqg","pricing_plan_id":"cebpf4jnsgd1na2vs0mg"},{"bike_id":"c37933c6-f301-4e72-ae28-b86236887c46","system_id":"levelo_inurba_marseille","lat":43.21743,"lon":5.3461,"is_reserved":false,"is_disabled":false,"rental_uris":{"android":"levelo://app?vid=c37933c6-f301-4e72-ae28-b86236887c46","ios":"levelo://app?vid=c37933c6-f301-4e72-ae28-b86236887c46"},"vehicle_type_id":"4","last_reported":1757956089,"current_range_meters":7200,"station_id":"","pricing_plan_id":"cebpf4jnsgd1na2vs0mg"},{"bike_id":"342c9ac1-bf83-4cd7-b9c4-9c89f6edb93f","system_id":"levelo_inurba_marseille","lat":43.29279,"lon":5.40121,"is_reserved":false,"is_disabled":false,"rental_uris":{"android":"levelo://app?vid=342c9ac1-bf83-4cd7-b9c4-9c89f6edb93f","ios":"levelo://app?vid=342c9ac1-bf83-4cd7-b9c4-9c89f6edb93f"},"vehicle_type_id":"4","last_reported":1757956089,"current_range_meters":7200,"station_id":"ce4bh312rcd13ifvqdk0","pricing_plan_id":"cebpf4jnsgd1na2vs0mg"},{"bike_id":"f23b87d9-117d-4aa8-b5b3-4b94cffe5ea7","system_id":"levelo_inurba_marseille","lat":43.28857,"lon":5.35859,"is_reserved":false,"is_disabled":false,"rental_uris":{"android":"levelo://app?vid=f23b87d9-117d-4aa8-b5b3-4b94cffe5ea7","ios":"levelo://app?vid=f23b87d9-117d-4aa8-b5b3-4b94cffe5ea7"},"vehicle_type_id":"4","last_reported":1757956089,"current_range_meters":7200,"station_id":"ce4bhb12rcd13ifvqem0","pricing_plan_id":"cebpf4jnsgd1na2vs0mg"},{"bike_id":"88ed7a46-3938-4c95-9575-14b43689fb9b","system_id":"levelo_inurba_marseille","lat":43.26027,"lon":5.38739,"is_reserved":false,"is_disabled":false,"rental_uris":{"android":"levelo://app?vid=88ed7a46-3938-4c95-9575-14b43689fb9b","ios":"levelo://app?vid=88ed7a46-3938-4c95-9575-14b43689fb9b"},"vehicle_type_id":"4","last_reported":1757956089,"current_range_meters":8000,"station_id":"ce4bhip2rcd13ifvqft0","pricing_plan_id":"cebpf4jnsgd1na2vs0mg"},{"bike_id":"eb12a369-4a7b-44ec-b68e-6089a396cf67","system_id":"levelo_inurba_marseille","lat":43.29625,"lon":5.37196,"is_reserved":false,"is_disabled":false,"rental_uris":{"android":"levelo://app?vid=eb12a369-4a7b-44ec-b68e-6089a396cf67","ios":"levelo://app?vid=eb12a369-4a7b-44ec-b68e-6089a396cf67"},"vehicle_type_id":"4","last_reported":1757956089,"current_range_meters":8000,"station_id":"ce4bgnh2rcd13ifvqc0g","pricing_plan_id":"cebpf4jnsgd1na2vs0mg"},{"bike_id":"5a2db71b-c4d2-4817-b32f-d41018378a96","system_id":"levelo_inurba_marseille","lat":43.28606,"lon":5.35102,"is_reserved":false,"is_disabled":false,"rental_uris":{"android":"levelo://app?vid=5a2db71b-c4d2-4817-b32f-d41018378a96","ios":"levelo://app?vid=5a2db71b-c4d2-4817-b32f-d41018378a96"},"vehicle_type_id":"4","last_reported":1757956089,"current_range_meters":8000,"station_id":"ce4bhch2rcd13ifvqeug","pricing_plan_id":"cebpf4jnsgd1na2vs0mg"},{"bike_id":"fdf86215-1b8f-44d1-b63d-cd7e4429f621","system_id":"levelo_inurba_marseille","lat":43.30413,"lon":5.38895,"is_reserved":false,"is_disabled":false,"rental_uris":{"android":"levelo://app?vid=fdf86215-1b8f-44d1-b63d-cd7e4429f621","ios":"levelo://app?vid=fdf86215-1b8f-44d1-b63d-cd7e4429f621"},"vehicle_type_id":"4","last_reported":1757956089,"current_range_meters":8000,"station_id":"ce4bgk12rcd13ifvqbi0","pricing_plan_id":"cebpf4jnsgd1na2vs0mg"},{"bike_id":"49d1f572-065f-464d-929f-eebde4199a51","system_id":"levelo_inurba_marseille","lat":43.28597,"lon":5.3705,"is_reserved":false,"is_disabled":false,"rental_uris":{"android":"levelo://app?vid=49d1f572-065f-464d-929f-eebde4199a51","ios":"levelo://app?vid=49d1f572-065f-464d-929f-eebde4199a51"},"vehicle_type_id":"4","last_reported":1757956089,"current_range_meters":8400,"station_id":"ce4bht12rcd13ifvqi60","pricing_plan_id":"cebpf4jnsgd1na2vs0mg"},{"bike_id":"748a16eb-7548-4271-a48e-9527bafacbf7","system_id":"levelo_inurba_marseille","lat":43.26795,"lon":5.39403,"is_reserved":false,"is_disabled":false,"rental_uris":{"android":"levelo://app?vid=748a16eb-7548-4271-a48e-9527bafacbf7","ios":"levelo://app?vid=748a16eb-7548-4271-a48e-9527bafacbf7"},"vehicle_type_id":"4","last_reported":1757956089,"current_range_meters":8400,"station_id":"ce4bhh12rcd13ifvqfg0","pricing_plan_id":"cebpf4jnsgd1na2vs0mg"},{"bike_id":"89e9cc55-ad04-4b35-bdc1-e822b5269e9d","system_id":"levelo_inurba_marseille","lat":43.26061,"lon":5.39398,"is_reserved":false,"is_disabled":false,"rental_uris":{"android":"levelo://app?vid=89e9cc55-ad04-4b35-bdc1-e822b5269e9d","ios":"levelo://app?vid=89e9cc55-ad04-4b35-bdc1-e822b5269e9d"},"vehicle_type_id":"4","last_reported":1757956089,"current_range_meters":8400,"station_id":"ce4bhh92rcd13ifvqfj0","pricing_plan_id":"cebpf4jnsgd1na2vs0mg"},{"bike_id":"44d5784d-9b92-477c-8dc2-d23c2db4edaa","system_id":"levelo_inurba_marseille","lat":43.28716,"lon":5.37925,"is_reserved":false,"is_disabled":false,"rental_uris":{"android":"levelo://app?vid=44d5784d-9b92-477c-8dc2-d23c2db4edaa","ios":"levelo://app?vid=44d5784d-9b92-477c-8dc2-d23c2db4edaa"},"vehicle_type_id":"4","last_reported":1757956089,"current_range_meters":8400,"station_id":"ce4bh9p2rcd13ifvqec0","pricing_plan_id":"cebpf4jnsgd1na2vs0mg"},{"bike_id":"05a71ec2-b1b5-45db-b9d0-14d43e850382","system_id":"levelo_inurba_marseille","lat":43.30635,"lon":5.4009,"is_reserved":false,"is_disabled":false,"rental_uris":{"android":"levelo://app?vid=05a71ec2-b1b5-45db-b9d0-14d43e850382","ios":"levelo://app?vid=05a71ec2-b1b5-45db-b9d0-14d43e850382"},"vehicle_type_id":"4","last_reported":1757956089,"current_range_meters":8400,"station_id":"ce4bh112rcd13ifvqda0","pricing_plan_id":"cebpf4jnsgd1na2vs0mg"},{"bike_id":"e7b44f56-3fab-44bb-80a5-0c095f79e188","system_id":"levelo_inurba_marseille","lat":43.286735,"lon":5.386801,"is_reserved":false,"is_disabled":false,"rental_uris":{"android":"levelo://app?vid=e7b44f56-3fab-44bb-80a5-0c095f79e188","ios":"levelo://app?vid=e7b44f56-3fab-44bb-80a5-0c095f79e188"},"vehicle_type_id":"4","last_reported":1757956089,"current_range_meters":8400,"station_id":"","pricing_plan_id":"cebpf4jnsgd1na2vs0mg"},{"bike_id":"4ec115f7-70e2-44a0-950b-cc56db458600","system_id":"levelo_inurba_marseille","lat":43.21744,"lon":5.34604,"is_reserved":false,"is_disabled":true,"rental_uris":{"android":"levelo://app?vid=4ec115f7-70e2-44a0-950b-cc56db458600","ios":"levelo://app?vid=4ec115f7-70e2-44a0-950b-cc56db458600"},"vehicle_type_id":"4","last_reported":1757956089,"current_range_meters":8400,"station_id":"","pricing_plan_id":"cebpf4jnsgd1na2vs0mg"},{"bike_id":"bf847741-710a-45d3-9517-6737af24f25c","system_id":"levelo_inurba_marseille","lat":43.2794,"lon":5.41048,"is_reserved":false,"is_disabled":false,"rental_uris":{"android":"levelo://app?vid=bf847741-710a-45d3-9517-6737af24f25c","ios":"levelo://app?vid=bf847741-710a-45d3-9517-6737af24f25c"},"vehicle_type_id":"4","last_reported":1757956089,"current_range_meters":8400,"station_id":"ce4bhnp2rcd13ifvqh0g","pricing_plan_id":"cebpf4jnsgd1na2vs0mg"},{"bike_id":"dabf7b39-77a8-4542-9cc9-cb60b1d5ca25","system_id":"levelo_inurba_marseille","lat":43.297884,"lon":5.393363,"is_reserved":false,"is_disabled":false,"rental_uris":{"android":"levelo://app?vid=dabf7b39-77a8-4542-9cc9-cb60b1d5ca25","ios":"levelo://app?vid=dabf7b39-77a8-4542-9cc9-cb60b1d5ca25"},"vehicle_type_id":"4","last_reported":1757956089,"current_range_meters":8400,"station_id":"chh1huq6cuj3fo74tm60","pricing_plan_id":"cebpf4jnsgd1na2vs0mg"},{"bike_id":"0b4638e1-446f-4dda-b419-706414600f77","system_id":"levelo_inurba_marseille","lat":43.29935,"lon":5.36541,"is_reserved":false,"is_disabled":false,"rental_uris":{"android":"levelo://app?vid=0b4638e1-446f-4dda-b419-706414600f77","ios":"levelo://app?vid=0b4638e1-446f-4dda-b419-706414600f77"},"vehicle_type_id":"4","last_reported":1757956089,"current_range_meters":8800,"station_id":"ce4bgm92rcd13ifvqbr0","pricing_plan_id":"cebpf4jnsgd1na2vs0mg"},{"bike_id":"824c21cb-2914-4109-afe7-abf1a78c08b8","system_id":"levelo_inurba_marseille","lat":43.3032,"lon":5.40437,"is_reserved":false,"is_disabled":true,"rental_uris":{"android":"levelo://app?vid=824c21cb-2914-4109-afe7-abf1a78c08b8","ios":"levelo://app?vid=824c21cb-2914-4109-afe7-abf1a78c08b8"},"vehicle_type_id":"4","last_reported":1757956089,"current_range_meters":8800,"station_id":"ce4bh012rcd13ifvqd10","pricing_plan_id":"cebpf4jnsgd1na2vs0mg"},{"bike_id":"884b9807-42f4-4455-9b23-f8e8947314e3","system_id":"levelo_inurba_marseille","lat":43.299255,"lon":5.365533,"is_reserved":false,"is_disabled":false,"rental_uris":{"android":"levelo://app?vid=884b9807-42f4-4455-9b23-f8e8947314e3","ios":"levelo://app?vid=884b9807-42f4-4455-9b23-f8e8947314e3"},"vehicle_type_id":"4","last_reported":1757956089,"current_range_meters":8800,"station_id":"ce4bgm92rcd13ifvqbr0","pricing_plan_id":"cebpf4jnsgd1na2vs0mg"},{"bike_id":"85db8ab9-6b24-4c23-8762-109e948df9cd","system_id":"levelo_inurba_marseille","lat":43.30623,"lon":5.40439,"is_reserved":false,"is_disabled":false,"rental_uris":{"android":"levelo://app?vid=85db8ab9-6b24-4c23-8762-109e948df9cd","ios":"levelo://app?vid=85db8ab9-6b24-4c23-8762-109e948df9cd"},"vehicle_type_id":"4","last_reported":1757956089,"current_range_meters":9200,"station_id":"","pricing_plan_id":"cebpf4jnsgd1na2vs0mg"},{"bike_id":"454d67e1-1c72-422d-9d2a-21b381e45c5c","system_id":"levelo_inurba_marseille","lat":43.2901,"lon":5.356385,"is_reserved":false,"is_disabled":false,"rental_uris":{"android":"levelo://app?vid=454d67e1-1c72-422d-9d2a-21b381e45c5c","ios":"levelo://app?vid=454d67e1-1c72-422d-9d2a-21b381e45c5c"},"vehicle_type_id":"4","last_reported":1757956089,"current_range_meters":8800,"station_id":"ce4bhb92rcd13ifvqen0","pricing_plan_id":"cebpf4jnsgd1na2vs0mg"},{"bike_id":"9a3cb82e-001f-4dd5-abb9-903586a16c13","system_id":"levelo_inurba_marseille","lat":43.29616,"lon":5.37166,"is_reserved":false,"is_disabled":false,"rental_uris":{"android":"levelo://app?vid=9a3cb82e-001f-4dd5-abb9-903586a16c13","ios":"levelo://app?vid=9a3cb82e-001f-4dd5-abb9-903586a16c13"},"vehicle_type_id":"4","last_reported":1757956089,"current_range_meters":8800,"station_id":"ce4bgnh2rcd13ifvqc0g","pricing_plan_id":"cebpf4jnsgd1na2vs0mg"},{"bike_id":"dd32f779-e928-424d-999f-b730cf475fa7","system_id":"levelo_inurba_marseille","lat":43.22399,"lon":5.34657,"is_reserved":false,"is_disabled":false,"rental_uris":{"android":"levelo://app?vid=dd32f779-e928-424d-999f-b730cf475fa7","ios":"levelo://app?vid=dd32f779-e928-424d-999f-b730cf475fa7"},"vehicle_type_id":"4","last_reported":1757956089,"current_range_meters":9200,"station_id":"","pricing_plan_id":"cebpf4jnsgd1na2vs0mg"},{"bike_id":"f69bf8e9-5f83-40fe-ae7a-f42ab415b10c","system_id":"levelo_inurba_marseille","lat":43.27829,"lon":5.39208,"is_reserved":false,"is_disabled":false,"rental_uris":{"android":"levelo://app?vid=f69bf8e9-5f83-40fe-ae7a-f42ab415b10c","ios":"levelo://app?vid=f69bf8e9-5f83-40fe-ae7a-f42ab415b10c"},"vehicle_type_id":"4","last_reported":1757956089,"current_range_meters":9200,"station_id":"ce4bhjp2rcd13ifvqga0","pricing_plan_id":"cebpf4jnsgd1na2vs0mg"},{"bike_id":"88b70dea-8724-4b1f-8af4-53f54717bf8a","system_id":"levelo_inurba_marseille","lat":43.27939,"lon":5.41046,"is_reserved":false,"is_disabled":false,"rental_uris":{"android":"levelo://app?vid=88b70dea-8724-4b1f-8af4-53f54717bf8a","ios":"levelo://app?vid=88b70dea-8724-4b1f-8af4-53f54717bf8a"},"vehicle_type_id":"4","last_reported":1757956089,"current_range_meters":9200,"station_id":"ce4bhnp2rcd13ifvqh0g","pricing_plan_id":"cebpf4jnsgd1na2vs0mg"},{"bike_id":"ede154f2-68f4-4fc3-9dba-608995693528","system_id":"levelo_inurba_marseille","lat":43.29598,"lon":5.3809,"is_reserved":false,"is_disabled":false,"rental_uris":{"android":"levelo://app?vid=ede154f2-68f4-4fc3-9dba-608995693528","ios":"levelo://app?vid=ede154f2-68f4-4fc3-9dba-608995693528"},"vehicle_type_id":"4","last_reported":1757956089,"current_range_meters":9200,"station_id":"ce4bgl12rcd13ifvqbo0","pricing_plan_id":"cebpf4jnsgd1na2vs0mg"},{"bike_id":"8bdc82db-210b-4ef2-87af-5989c93613d8","system_id":"levelo_inurba_marseille","lat":43.28618,"lon":5.35113,"is_reserved":false,"is_disabled":false,"rental_uris":{"android":"levelo://app?vid=8bdc82db-210b-4ef2-87af-5989c93613d8","ios":"levelo://app?vid=8bdc82db-210b-4ef2-87af-5989c93613d8"},"vehicle_type_id":"4","last_reported":1757956089,"current_range_meters":9200,"station_id":"ce4bhch2rcd13ifvqeug","pricing_plan_id":"cebpf4jnsgd1na2vs0mg"},{"bike_id":"4d6e6605-7f16-44fa-a19a-c138ee7cb360","system_id":"levelo_inurba_marseille","lat":43.33799,"lon":5.37446,"is_reserved":false,"is_disabled":false,"rental_uris":{"android":"levelo://app?vid=4d6e6605-7f16-44fa-a19a-c138ee7cb360","ios":"levelo://app?vid=4d6e6605-7f16-44fa-a19a-c138ee7cb360"},"vehicle_type_id":"4","last_reported":1757956089,"current_range_meters":9200,"station_id":"","pricing_plan_id":"cebpf4jnsgd1na2vs0mg"},{"bike_id":"87b779c5-0742-4a22-a3eb-4d0dff87f077","system_id":"levelo_inurba_marseille","lat":43.29775,"lon":5.38115,"is_reserved":false,"is_disabled":true,"rental_uris":{"android":"levelo://app?vid=87b779c5-0742-4a22-a3eb-4d0dff87f077","ios":"levelo://app?vid=87b779c5-0742-4a22-a3eb-4d0dff87f077"},"vehicle_type_id":"4","last_reported":1757956089,"current_range_meters":9200,"station_id":"ce4bgip2rcd13ifvqbb0","pricing_plan_id":"cebpf4jnsgd1na2vs0mg"},{"bike_id":"3b040a40-2008-4153-8526-2aed883dd5eb","system_id":"levelo_inurba_marseille","lat":43.28463,"lon":5.35891,"is_reserved":false,"is_disabled":false,"rental_uris":{"android":"levelo://app?vid=3b040a40-2008-4153-8526-2aed883dd5eb","ios":"levelo://app?vid=3b040a40-2008-4153-8526-2aed883dd5eb"},"vehicle_type_id":"4","last_reported":1757956089,"current_range_meters":9200,"station_id":"ce4bhah2rcd13ifvqei0","pricing_plan_id":"cebpf4jnsgd1na2vs0mg"},{"bike_id":"0589168a-e350-4bb0-ab6e-56c1c7021f1c","system_id":"levelo_inurba_marseille","lat":43.24155,"lon":5.36346,"is_reserved":false,"is_disabled":true,"rental_uris":{"android":"levelo://app?vid=0589168a-e350-4bb0-ab6e-56c1c7021f1c","ios":"levelo://app?vid=0589168a-e350-4bb0-ab6e-56c1c7021f1c"},"vehicle_type_id":"4","last_reported":1757956089,"current_range_meters":9200,"station_id":"cpo36qri1sfpv3e86is0","pricing_plan_id":"cebpf4jnsgd1na2vs0mg"},{"bike_id":"77aa58c6-edc5-4110-bc75-c6454930f59b","system_id":"levelo_inurba_marseille","lat":43.29548,"lon":5.38541,"is_reserved":false,"is_disabled":false,"rental_uris":{"android":"levelo://app?vid=77aa58c6-edc5-4110-bc75-c6454930f59b","ios":"levelo://app?vid=77aa58c6-edc5-4110-bc75-c6454930f59b"},"vehicle_type_id":"4","last_reported":1757956089,"current_range_meters":9600,"station_id":"ce4bgih2rcd13ifvqba0","pricing_plan_id":"cebpf4jnsgd1na2vs0mg"},{"bike_id":"7c3405ee-c5f8-4483-8109-b80489e2ea7a","system_id":"levelo_inurba_marseille","lat":43.33021,"lon":5.39037,"is_reserved":false,"is_disabled":false,"rental_uris":{"android":"levelo://app?vid=7c3405ee-c5f8-4483-8109-b80489e2ea7a","ios":"levelo://app?vid=7c3405ee-c5f8-4483-8109-b80489e2ea7a"},"vehicle_type_id":"4","last_reported":1757956089,"current_range_meters":9600,"station_id":"ce4bhr92rcd13ifvqhrg","pricing_plan_id":"cebpf4jnsgd1na2vs0mg"},{"bike_id":"024caf71-4a13-43d6-8ce6-d81c20183dd2","system_id":"levelo_inurba_marseille","lat":43.21755,"lon":5.34608,"is_reserved":false,"is_disabled":false,"rental_uris":{"android":"levelo://app?vid=024caf71-4a13-43d6-8ce6-d81c20183dd2","ios":"levelo://app?vid=024caf71-4a13-43d6-8ce6-d81c20183dd2"},"vehicle_type_id":"4","last_reported":1757956089,"current_range_meters":9600,"station_id":"st_cvj6r9ubvosntc0bgbag","pricing_plan_id":"cebpf4jnsgd1na2vs0mg"},{"bike_id":"e92ad9e7-e713-4e75-965b-1c057f5eb0a5","system_id":"levelo_inurba_marseille","lat":43.25086,"lon":5.39519,"is_reserved":false,"is_disabled":false,"rental_uris":{"android":"levelo://app?vid=e92ad9e7-e713-4e75-965b-1c057f5eb0a5","ios":"levelo://app?vid=e92ad9e7-e713-4e75-965b-1c057f5eb0a5"},"vehicle_type_id":"4","last_reported":1757956089,"current_range_meters":9600,"station_id":"ce4bhm12rcd13ifvqgkg","pricing_plan_id":"cebpf4jnsgd1na2vs0mg"},{"bike_id":"ffe9408d-8067-4f0e-a060-bbec7d0505fc","system_id":"levelo_inurba_marseille","lat":43.27806,"lon":5.40712,"is_reserved":false,"is_disabled":false,"rental_uris":{"android":"levelo://app?vid=ffe9408d-8067-4f0e-a060-bbec7d0505fc","ios":"levelo://app?vid=ffe9408d-8067-4f0e-a060-bbec7d0505fc"},"vehicle_type_id":"4","last_reported":1757956089,"current_range_meters":10000,"station_id":"ce4bhnh2rcd13ifvqgtg","pricing_plan_id":"cebpf4jnsgd1na2vs0mg"},{"bike_id":"00e6d73a-ca26-4375-9d39-4c4e23856407","system_id":"levelo_inurba_marseille","lat":43.31713,"lon":5.37734,"is_reserved":false,"is_disabled":false,"rental_uris":{"android":"levelo://app?vid=00e6d73a-ca26-4375-9d39-4c4e23856407","ios":"levelo://app?vid=00e6d73a-ca26-4375-9d39-4c4e23856407"},"vehicle_type_id":"4","last_reported":1757956089,"current_range_meters":10000,"station_id":"ce4bgth2rcd13ifvqch0","pricing_plan_id":"cebpf4jnsgd1na2vs0mg"},{"bike_id":"6d08832a-5b3d-4860-a82f-e94b3a6575f2","system_id":"levelo_inurba_marseille","lat":43.28137,"lon":5.42763,"is_reserved":false,"is_disabled":false,"rental_uris":{"android":"levelo://app?vid=6d08832a-5b3d-4860-a82f-e94b3a6575f2","ios":"levelo://app?vid=6d08832a-5b3d-4860-a82f-e94b3a6575f2"},"vehicle_type_id":"4","last_reported":1757956089,"current_range_meters":10000,"station_id":"","pricing_plan_id":"cebpf4jnsgd1na2vs0mg"},{"bike_id":"22e71485-c24a-4f04-a341-53589ff728b0","system_id":"levelo_inurba_marseille","lat":43.30733,"lon":5.42443,"is_reserved":false,"is_disabled":false,"rental_uris":{"android":"levelo://app?vid=22e71485-c24a-4f04-a341-53589ff728b0","ios":"levelo://app?vid=22e71485-c24a-4f04-a341-53589ff728b0"},"vehicle_type_id":"4","last_reported":1757956089,"current_range_meters":10000,"station_id":"st_cvj6ca6bvosntc0bfgr0","pricing_plan_id":"cebpf4jnsgd1na2vs0mg"},{"bike_id":"09ec2232-f4e5-4d30-8088-680e802bb188","system_id":"levelo_inurba_marseille","lat":43.29546,"lon":5.39039,"is_reserved":false,"is_disabled":false,"rental_uris":{"android":"levelo://app?vid=09ec2232-f4e5-4d30-8088-680e802bb188","ios":"levelo://app?vid=09ec2232-f4e5-4d30-8088-680e802bb188"},"vehicle_type_id":"4","last_reported":1757956089,"current_range_meters":10000,"station_id":"ce4bh3p2rcd13ifvqdp0","pricing_plan_id":"cebpf4jnsgd1na2vs0mg"},{"bike_id":"97a357b0-bb58-4d43-af16-034f8153aaf9","system_id":"levelo_inurba_marseille","lat":43.28294,"lon":5.40194,"is_reserved":false,"is_disabled":false,"rental_uris":{"android":"levelo://app?vid=97a357b0-bb58-4d43-af16-034f8153aaf9","ios":"levelo://app?vid=97a357b0-bb58-4d43-af16-034f8153aaf9"},"vehicle_type_id":"4","last_reported":1757956089,"current_range_meters":9600,"station_id":"ce4bho92rcd13ifvqh4g","pricing_plan_id":"cebpf4jnsgd1na2vs0mg"},{"bike_id":"8d6ea99f-468b-480b-bbb7-af3b0ea28f1f","system_id":"levelo_inurba_marseille","lat":43.296241,"lon":5.371705,"is_reserved":false,"is_disabled":false,"rental_uris":{"android":"levelo://app?vid=8d6ea99f-468b-480b-bbb7-af3b0ea28f1f","ios":"levelo://app?vid=8d6ea99f-468b-480b-bbb7-af3b0ea28f1f"},"vehicle_type_id":"4","last_reported":1757956089,"current_range_meters":10000,"station_id":"ce4bgnh2rcd13ifvqc0g","pricing_plan_id":"cebpf4jnsgd1na2vs0mg"},{"bike_id":"d2a712c7-18ee-4fad-97ec-db96fd982a57","system_id":"levelo_inurba_marseille","lat":43.2886,"lon":5.42524,"is_reserved":false,"is_disabled":false,"rental_uris":{"android":"levelo://app?vid=d2a712c7-18ee-4fad-97ec-db96fd982a57","ios":"levelo://app?vid=d2a712c7-18ee-4fad-97ec-db96fd982a57"},"vehicle_type_id":"4","last_reported":1757956089,"current_range_meters":10800,"station_id":"","pricing_plan_id":"cebpf4jnsgd1na2vs0mg"},{"bike_id":"0267c045-ef27-4ced-af8d-33a2fbf78655","system_id":"levelo_inurba_marseille","lat":43.28463,"lon":5.35892,"is_reserved":false,"is_disabled":false,"rental_uris":{"android":"levelo://app?vid=0267c045-ef27-4ced-af8d-33a2fbf78655","ios":"levelo://app?vid=0267c045-ef27-4ced-af8d-33a2fbf78655"},"vehicle_type_id":"4","last_reported":1757956089,"current_range_meters":10800,"station_id":"ce4bhah2rcd13ifvqei0","pricing_plan_id":"cebpf4jnsgd1na2vs0mg"},{"bike_id":"743708b1-b75d-4e24-ba42-40ee9b03b062","system_id":"levelo_inurba_marseille","lat":43.260576,"lon":5.39401,"is_reserved":false,"is_disabled":false,"rental_uris":{"android":"levelo://app?vid=743708b1-b75d-4e24-ba42-40ee9b03b062","ios":"levelo://app?vid=743708b1-b75d-4e24-ba42-40ee9b03b062"},"vehicle_type_id":"4","last_reported":1757956089,"current_range_meters":10000,"station_id":"ce4bhh92rcd13ifvqfj0","pricing_plan_id":"cebpf4jnsgd1na2vs0mg"},{"bike_id":"3e0c509e-88ad-4045-b78e-b83c7959b49c","system_id":"levelo_inurba_marseille","lat":43.26567,"lon":5.39018,"is_reserved":false,"is_disabled":false,"rental_uris":{"android":"levelo://app?vid=3e0c509e-88ad-4045-b78e-b83c7959b49c","ios":"levelo://app?vid=3e0c509e-88ad-4045-b78e-b83c7959b49c"},"vehicle_type_id":"4","last_reported":1757956089,"current_range_meters":10800,"station_id":"ce4bhe12rcd13ifvqf30","pricing_plan_id":"cebpf4jnsgd1na2vs0mg"},{"bike_id":"3497e7a2-d1ac-45c8-b73f-5afe1dfc9c24","system_id":"levelo_inurba_marseille","lat":43.28616,"lon":5.37061,"is_reserved":false,"is_disabled":false,"rental_uris":{"android":"levelo://app?vid=3497e7a2-d1ac-45c8-b73f-5afe1dfc9c24","ios":"levelo://app?vid=3497e7a2-d1ac-45c8-b73f-5afe1dfc9c24"},"vehicle_type_id":"4","last_reported":1757956089,"current_range_meters":10800,"station_id":"ce4bht12rcd13ifvqi60","pricing_plan_id":"cebpf4jnsgd1na2vs0mg"},{"bike_id":"4b3d29e4-4d48-4f95-a652-be16bfec385d","system_id":"levelo_inurba_marseille","lat":43.29389,"lon":5.37319,"is_reserved":false,"is_disabled":false,"rental_uris":{"android":"levelo://app?vid=4b3d29e4-4d48-4f95-a652-be16bfec385d","ios":"levelo://app?vid=4b3d29e4-4d48-4f95-a652-be16bfec385d"},"vehicle_type_id":"4","last_reported":1757956089,"current_range_meters":10800,"station_id":"","pricing_plan_id":"cebpf4jnsgd1na2vs0mg"},{"bike_id":"da74e1ea-54d2-4728-8b2f-7f1209e0fe87","system_id":"levelo_inurba_marseille","lat":43.29864,"lon":5.38915,"is_reserved":false,"is_disabled":false,"rental_uris":{"android":"levelo://app?vid=da74e1ea-54d2-4728-8b2f-7f1209e0fe87","ios":"levelo://app?vid=da74e1ea-54d2-4728-8b2f-7f1209e0fe87"},"vehicle_type_id":"4","last_reported":1757956089,"current_range_meters":10800,"station_id":"ce4bh392rcd13ifvqdl0","pricing_plan_id":"cebpf4jnsgd1na2vs0mg"},{"bike_id":"5b71f0be-4481-4d84-a923-5ef3de65d795","system_id":"levelo_inurba_marseille","lat":43.28139,"lon":5.35045,"is_reserved":false,"is_disabled":false,"rental_uris":{"android":"levelo://app?vid=5b71f0be-4481-4d84-a923-5ef3de65d795","ios":"levelo://app?vid=5b71f0be-4481-4d84-a923-5ef3de65d795"},"vehicle_type_id":"4","last_reported":1757956089,"current_range_meters":10800,"station_id":"","pricing_plan_id":"cebpf4jnsgd1na2vs0mg"},{"bike_id":"e9629f19-261c-4888-aa18-10ad0f1b9713","system_id":"levelo_inurba_marseille","lat":43.26497,"lon":5.39541,"is_reserved":false,"is_disabled":false,"rental_uris":{"android":"levelo://app?vid=e9629f19-261c-4888-aa18-10ad0f1b9713","ios":"levelo://app?vid=e9629f19-261c-4888-aa18-10ad0f1b9713"},"vehicle_type_id":"4","last_reported":1757956089,"current_range_meters":10800,"station_id":"ce4bhi12rcd13ifvqfq0","pricing_plan_id":"cebpf4jnsgd1na2vs0mg"},{"bike_id":"57127154-7e15-4346-89ed-ab9d76ef9c2c","system_id":"levelo_inurba_marseille","lat":43.28838,"lon":5.36326,"is_reserved":false,"is_disabled":false,"rental_uris":{"android":"levelo://app?vid=57127154-7e15-4346-89ed-ab9d76ef9c2c","ios":"levelo://app?vid=57127154-7e15-4346-89ed-ab9d76ef9c2c"},"vehicle_type_id":"4","last_reported":1757956089,"current_range_meters":10800,"station_id":"","pricing_plan_id":"cebpf4jnsgd1na2vs0mg"},{"bike_id":"7b15ef7d-bd0e-400b-a820-62d43e7e138f","system_id":"levelo_inurba_marseille","lat":43.28987,"lon":5.35599,"is_reserved":false,"is_disabled":false,"rental_uris":{"android":"levelo://app?vid=7b15ef7d-bd0e-400b-a820-62d43e7e138f","ios":"levelo://app?vid=7b15ef7d-bd0e-400b-a820-62d43e7e138f"},"vehicle_type_id":"4","last_reported":1757956089,"current_range_meters":11200,"station_id":"ce4bhb92rcd13ifvqen0","pricing_plan_id":"cebpf4jnsgd1na2vs0mg"},{"bike_id":"e7a329bd-ed66-4ac7-aaba-63f2810ddd86","system_id":"levelo_inurba_marseille","lat":43.31859,"lon":5.37206,"is_reserved":false,"is_disabled":false,"rental_uris":{"android":"levelo://app?vid=e7a329bd-ed66-4ac7-aaba-63f2810ddd86","ios":"levelo://app?vid=e7a329bd-ed66-4ac7-aaba-63f2810ddd86"},"vehicle_type_id":"4","last_reported":1757956089,"current_range_meters":11200,"station_id":"","pricing_plan_id":"cebpf4jnsgd1na2vs0mg"},{"bike_id":"d6fb6d0c-8ddf-4525-ba7b-cf38be4abbfa","system_id":"levelo_inurba_marseille","lat":43.28941,"lon":5.36393,"is_reserved":false,"is_disabled":false,"rental_uris":{"android":"levelo://app?vid=d6fb6d0c-8ddf-4525-ba7b-cf38be4abbfa","ios":"levelo://app?vid=d6fb6d0c-8ddf-4525-ba7b-cf38be4abbfa"},"vehicle_type_id":"4","last_reported":1757956089,"current_range_meters":11200,"station_id":"ce4bhc92rcd13ifvqetg","pricing_plan_id":"cebpf4jnsgd1na2vs0mg"},{"bike_id":"4d58f0ff-3445-4722-a22c-d8c4e0e157b1","system_id":"levelo_inurba_marseille","lat":43.28944,"lon":5.36404,"is_reserved":false,"is_disabled":false,"rental_uris":{"android":"levelo://app?vid=4d58f0ff-3445-4722-a22c-d8c4e0e157b1","ios":"levelo://app?vid=4d58f0ff-3445-4722-a22c-d8c4e0e157b1"},"vehicle_type_id":"4","last_reported":1757956089,"current_range_meters":11200,"station_id":"ce4bhc92rcd13ifvqetg","pricing_plan_id":"cebpf4jnsgd1na2vs0mg"},{"bike_id":"60df5be0-868d-496d-a7cc-2e097de1a47a","system_id":"levelo_inurba_marseille","lat":43.22567,"lon":5.41617,"is_reserved":false,"is_disabled":false,"rental_uris":{"android":"levelo://app?vid=60df5be0-868d-496d-a7cc-2e097de1a47a","ios":"levelo://app?vid=60df5be0-868d-496d-a7cc-2e097de1a47a"},"vehicle_type_id":"4","last_reported":1757956089,"current_range_meters":11200,"station_id":"st_d2o4gvlbi1j2169b742g","pricing_plan_id":"cebpf4jnsgd1na2vs0mg"},{"bike_id":"85c21a27-2a04-4822-8b42-d02838725a17","system_id":"levelo_inurba_marseille","lat":43.24806,"lon":5.37459,"is_reserved":false,"is_disabled":false,"rental_uris":{"android":"levelo://app?vid=85c21a27-2a04-4822-8b42-d02838725a17","ios":"levelo://app?vid=85c21a27-2a04-4822-8b42-d02838725a17"},"vehicle_type_id":"4","last_reported":1757956089,"current_range_meters":11200,"station_id":"ce4bhgh2rcd13ifvqfb0","pricing_plan_id":"cebpf4jnsgd1na2vs0mg"},{"bike_id":"e5a02b78-2296-4f0c-8bb8-d4c5bdb039dd","system_id":"levelo_inurba_marseille","lat":43.26503,"lon":5.39539,"is_reserved":false,"is_disabled":false,"rental_uris":{"android":"levelo://app?vid=e5a02b78-2296-4f0c-8bb8-d4c5bdb039dd","ios":"levelo://app?vid=e5a02b78-2296-4f0c-8bb8-d4c5bdb039dd"},"vehicle_type_id":"4","last_reported":1757956089,"current_range_meters":11600,"station_id":"ce4bhi12rcd13ifvqfq0","pricing_plan_id":"cebpf4jnsgd1na2vs0mg"},{"bike_id":"a0f84ea6-4523-4e2f-9eaa-c7306529d096","system_id":"levelo_inurba_marseille","lat":43.231812,"lon":5.399928,"is_reserved":false,"is_disabled":false,"rental_uris":{"android":"levelo://app?vid=a0f84ea6-4523-4e2f-9eaa-c7306529d096","ios":"levelo://app?vid=a0f84ea6-4523-4e2f-9eaa-c7306529d096"},"vehicle_type_id":"4","last_reported":1757956089,"current_range_meters":11600,"station_id":"ce4bhn12rcd13ifvqgqg","pricing_plan_id":"cebpf4jnsgd1na2vs0mg"},{"bike_id":"184c75ba-a2ae-4bc5-b888-4c430b804879","system_id":"levelo_inurba_marseille","lat":43.28425,"lon":5.34992,"is_reserved":false,"is_disabled":false,"rental_uris":{"android":"levelo://app?vid=184c75ba-a2ae-4bc5-b888-4c430b804879","ios":"levelo://app?vid=184c75ba-a2ae-4bc5-b888-4c430b804879"},"vehicle_type_id":"4","last_reported":1757956089,"current_range_meters":11600,"station_id":"ce4bhbh2rcd13ifvqepg","pricing_plan_id":"cebpf4jnsgd1na2vs0mg"},{"bike_id":"0c6fe877-1024-4901-84e8-0fbaefe45584","system_id":"levelo_inurba_marseille","lat":43.33417,"lon":5.40071,"is_reserved":false,"is_disabled":false,"rental_uris":{"android":"levelo://app?vid=0c6fe877-1024-4901-84e8-0fbaefe45584","ios":"levelo://app?vid=0c6fe877-1024-4901-84e8-0fbaefe45584"},"vehicle_type_id":"4","last_reported":1757956089,"current_range_meters":12000,"station_id":"","pricing_plan_id":"cebpf4jnsgd1na2vs0mg"},{"bike_id":"9136ed57-519a-4084-ba8b-77b9033e1a62","system_id":"levelo_inurba_marseille","lat":43.34139,"lon":5.40901,"is_reserved":false,"is_disabled":false,"rental_uris":{"android":"levelo://app?vid=9136ed57-519a-4084-ba8b-77b9033e1a62","ios":"levelo://app?vid=9136ed57-519a-4084-ba8b-77b9033e1a62"},"vehicle_type_id":"4","last_reported":1757956089,"current_range_meters":11600,"station_id":"ce4bhqh2rcd13ifvqhlg","pricing_plan_id":"cebpf4jnsgd1na2vs0mg"},{"bike_id":"e55ae905-9410-44da-8e6c-dadab4fedc17","system_id":"levelo_inurba_marseille","lat":43.21751,"lon":5.34608,"is_reserved":false,"is_disabled":false,"rental_uris":{"android":"levelo://app?vid=e55ae905-9410-44da-8e6c-dadab4fedc17","ios":"levelo://app?vid=e55ae905-9410-44da-8e6c-dadab4fedc17"},"vehicle_type_id":"4","last_reported":1757956089,"current_range_meters":11600,"station_id":"","pricing_plan_id":"cebpf4jnsgd1na2vs0mg"},{"bike_id":"30d92779-838e-460b-bf7a-6371f6646707","system_id":"levelo_inurba_marseille","lat":43.21197,"lon":5.35092,"is_reserved":false,"is_disabled":true,"rental_uris":{"android":"levelo://app?vid=30d92779-838e-460b-bf7a-6371f6646707","ios":"levelo://app?vid=30d92779-838e-460b-bf7a-6371f6646707"},"vehicle_type_id":"4","last_reported":1757956089,"current_range_meters":11600,"station_id":"st_cvj6sg6p6f1abm77japg","pricing_plan_id":"cebpf4jnsgd1na2vs0mg"},{"bike_id":"8b9f5821-c4d4-4d45-85bc-2f329a2f51a1","system_id":"levelo_inurba_marseille","lat":43.29007,"lon":5.35618,"is_reserved":false,"is_disabled":false,"rental_uris":{"android":"levelo://app?vid=8b9f5821-c4d4-4d45-85bc-2f329a2f51a1","ios":"levelo://app?vid=8b9f5821-c4d4-4d45-85bc-2f329a2f51a1"},"vehicle_type_id":"4","last_reported":1757956089,"current_range_meters":11600,"station_id":"ce4bhb92rcd13ifvqen0","pricing_plan_id":"cebpf4jnsgd1na2vs0mg"},{"bike_id":"e124a1b2-b7c2-4237-bfc2-b30c0b1e12fe","system_id":"levelo_inurba_marseille","lat":43.312759,"lon":5.377396,"is_reserved":false,"is_disabled":false,"rental_uris":{"android":"levelo://app?vid=e124a1b2-b7c2-4237-bfc2-b30c0b1e12fe","ios":"levelo://app?vid=e124a1b2-b7c2-4237-bfc2-b30c0b1e12fe"},"vehicle_type_id":"4","last_reported":1757956089,"current_range_meters":12000,"station_id":"","pricing_plan_id":"cebpf4jnsgd1na2vs0mg"},{"bike_id":"dde78202-a3a5-454d-8abe-eee43c2eb3c0","system_id":"levelo_inurba_marseille","lat":43.24803,"lon":5.37456,"is_reserved":false,"is_disabled":false,"rental_uris":{"android":"levelo://app?vid=dde78202-a3a5-454d-8abe-eee43c2eb3c0","ios":"levelo://app?vid=dde78202-a3a5-454d-8abe-eee43c2eb3c0"},"vehicle_type_id":"4","last_reported":1757956089,"current_range_meters":12000,"station_id":"ce4bhgh2rcd13ifvqfb0","pricing_plan_id":"cebpf4jnsgd1na2vs0mg"},{"bike_id":"eeb13197-ebd9-4f32-9335-63dfee9bdf22","system_id":"levelo_inurba_marseille","lat":43.29527,"lon":5.3855,"is_reserved":false,"is_disabled":false,"rental_uris":{"android":"levelo://app?vid=eeb13197-ebd9-4f32-9335-63dfee9bdf22","ios":"levelo://app?vid=eeb13197-ebd9-4f32-9335-63dfee9bdf22"},"vehicle_type_id":"4","last_reported":1757956089,"current_range_meters":12000,"station_id":"ce4bgih2rcd13ifvqba0","pricing_plan_id":"cebpf4jnsgd1na2vs0mg"},{"bike_id":"69a94824-5b00-4fd0-93c6-48aaf4daffb8","system_id":"levelo_inurba_marseille","lat":43.25085,"lon":5.39524,"is_reserved":false,"is_disabled":false,"rental_uris":{"android":"levelo://app?vid=69a94824-5b00-4fd0-93c6-48aaf4daffb8","ios":"levelo://app?vid=69a94824-5b00-4fd0-93c6-48aaf4daffb8"},"vehicle_type_id":"4","last_reported":1757956089,"current_range_meters":12400,"station_id":"ce4bhm12rcd13ifvqgkg","pricing_plan_id":"cebpf4jnsgd1na2vs0mg"},{"bike_id":"30136c0f-fd2b-487c-b210-5fea5416bc02","system_id":"levelo_inurba_marseille","lat":43.29508,"lon":5.37489,"is_reserved":false,"is_disabled":false,"rental_uris":{"android":"levelo://app?vid=30136c0f-fd2b-487c-b210-5fea5416bc02","ios":"levelo://app?vid=30136c0f-fd2b-487c-b210-5fea5416bc02"},"vehicle_type_id":"4","last_reported":1757956089,"current_range_meters":12400,"station_id":"ce4bgkp2rcd13ifvqbmg","pricing_plan_id":"cebpf4jnsgd1na2vs0mg"},{"bike_id":"26a4d1dd-99a5-4bc9-9e92-e8f85c0c744c","system_id":"levelo_inurba_marseille","lat":43.32338,"lon":5.40625,"is_reserved":false,"is_disabled":false,"rental_uris":{"android":"levelo://app?vid=26a4d1dd-99a5-4bc9-9e92-e8f85c0c744c","ios":"levelo://app?vid=26a4d1dd-99a5-4bc9-9e92-e8f85c0c744c"},"vehicle_type_id":"4","last_reported":1757956089,"current_range_meters":12400,"station_id":"ce4bhq92rcd13ifvqhjg","pricing_plan_id":"cebpf4jnsgd1na2vs0mg"},{"bike_id":"322c1f5a-85db-4ef6-bcd4-1b5c417c8ee0","system_id":"levelo_inurba_marseille","lat":43.3377,"lon":5.37488,"is_reserved":false,"is_disabled":false,"rental_uris":{"android":"levelo://app?vid=322c1f5a-85db-4ef6-bcd4-1b5c417c8ee0","ios":"levelo://app?vid=322c1f5a-85db-4ef6-bcd4-1b5c417c8ee0"},"vehicle_type_id":"4","last_reported":1757956089,"current_range_meters":12400,"station_id":"","pricing_plan_id":"cebpf4jnsgd1na2vs0mg"},{"bike_id":"65792d2e-fd19-4601-ac07-3e80e8d7bbc1","system_id":"levelo_inurba_marseille","lat":43.281297,"lon":5.39566,"is_reserved":false,"is_disabled":false,"rental_uris":{"android":"levelo://app?vid=65792d2e-fd19-4601-ac07-3e80e8d7bbc1","ios":"levelo://app?vid=65792d2e-fd19-4601-ac07-3e80e8d7bbc1"},"vehicle_type_id":"4","last_reported":1757956089,"current_range_meters":12400,"station_id":"","pricing_plan_id":"cebpf4jnsgd1na2vs0mg"},{"bike_id":"2eed2b6c-3bbd-46f3-a055-1902c24cd78e","system_id":"levelo_inurba_marseille","lat":43.27672,"lon":5.38883,"is_reserved":false,"is_disabled":false,"rental_uris":{"android":"levelo://app?vid=2eed2b6c-3bbd-46f3-a055-1902c24cd78e","ios":"levelo://app?vid=2eed2b6c-3bbd-46f3-a055-1902c24cd78e"},"vehicle_type_id":"4","last_reported":1757956089,"current_range_meters":12400,"station_id":"ce4bhi12rcd13ifvqfo0","pricing_plan_id":"cebpf4jnsgd1na2vs0mg"},{"bike_id":"41de12a2-5382-4da2-9751-1300a8df4dc1","system_id":"levelo_inurba_marseille","lat":43.22557,"lon":5.41639,"is_reserved":false,"is_disabled":false,"rental_uris":{"android":"levelo://app?vid=41de12a2-5382-4da2-9751-1300a8df4dc1","ios":"levelo://app?vid=41de12a2-5382-4da2-9751-1300a8df4dc1"},"vehicle_type_id":"4","last_reported":1757956089,"current_range_meters":12800,"station_id":"st_d2o4gvlbi1j2169b742g","pricing_plan_id":"cebpf4jnsgd1na2vs0mg"},{"bike_id":"1046c2ec-9d31-49c6-96ef-a279e19edb83","system_id":"levelo_inurba_marseille","lat":43.29627,"lon":5.37185,"is_reserved":false,"is_disabled":false,"rental_uris":{"android":"levelo://app?vid=1046c2ec-9d31-49c6-96ef-a279e19edb83","ios":"levelo://app?vid=1046c2ec-9d31-49c6-96ef-a279e19edb83"},"vehicle_type_id":"4","last_reported":1757956089,"current_range_meters":12400,"station_id":"ce4bgnh2rcd13ifvqc0g","pricing_plan_id":"cebpf4jnsgd1na2vs0mg"},{"bike_id":"02ba6ddb-d381-495e-834d-85f9ef652a8f","system_id":"levelo_inurba_marseille","lat":43.26564,"lon":5.40327,"is_reserved":false,"is_disabled":false,"rental_uris":{"android":"levelo://app?vid=02ba6ddb-d381-495e-834d-85f9ef652a8f","ios":"levelo://app?vid=02ba6ddb-d381-495e-834d-85f9ef652a8f"},"vehicle_type_id":"4","last_reported":1757956089,"current_range_meters":12400,"station_id":"ce4bhmp2rcd13ifvqgng","pricing_plan_id":"cebpf4jnsgd1na2vs0mg"},{"bike_id":"3f78ed41-dff5-43af-a5ee-9f60218f0afd","system_id":"levelo_inurba_marseille","lat":43.29024,"lon":5.38643,"is_reserved":false,"is_disabled":false,"rental_uris":{"android":"levelo://app?vid=3f78ed41-dff5-43af-a5ee-9f60218f0afd","ios":"levelo://app?vid=3f78ed41-dff5-43af-a5ee-9f60218f0afd"},"vehicle_type_id":"4","last_reported":1757956089,"current_range_meters":12800,"station_id":"ce4bh4p2rcd13ifvqe0g","pricing_plan_id":"cebpf4jnsgd1na2vs0mg"},{"bike_id":"7c7c32f6-bd99-4abb-9558-0036afa8e163","system_id":"levelo_inurba_marseille","lat":43.28349,"lon":5.38106,"is_reserved":false,"is_disabled":false,"rental_uris":{"android":"levelo://app?vid=7c7c32f6-bd99-4abb-9558-0036afa8e163","ios":"levelo://app?vid=7c7c32f6-bd99-4abb-9558-0036afa8e163"},"vehicle_type_id":"4","last_reported":1757956089,"current_range_meters":12400,"station_id":"ce4bh412rcd13ifvqdr0","pricing_plan_id":"cebpf4jnsgd1na2vs0mg"},{"bike_id":"a4f439a0-f024-4599-8330-e25675209572","system_id":"levelo_inurba_marseille","lat":43.255,"lon":5.37648,"is_reserved":false,"is_disabled":false,"rental_uris":{"android":"levelo://app?vid=a4f439a0-f024-4599-8330-e25675209572","ios":"levelo://app?vid=a4f439a0-f024-4599-8330-e25675209572"},"vehicle_type_id":"4","last_reported":1757956089,"current_range_meters":12800,"station_id":"ce4bhh12rcd13ifvqff0","pricing_plan_id":"cebpf4jnsgd1na2vs0mg"},{"bike_id":"c7749142-0c8c-4d23-863c-908dc7fff01b","system_id":"levelo_inurba_marseille","lat":43.28272,"lon":5.35069,"is_reserved":false,"is_disabled":true,"rental_uris":{"android":"levelo://app?vid=c7749142-0c8c-4d23-863c-908dc7fff01b","ios":"levelo://app?vid=c7749142-0c8c-4d23-863c-908dc7fff01b"},"vehicle_type_id":"4","last_reported":1757956089,"current_range_meters":12800,"station_id":"ce4bhbp2rcd13ifvqerg","pricing_plan_id":"cebpf4jnsgd1na2vs0mg"},{"bike_id":"17455cd1-5101-4553-bcdb-f3dcbd5d81be","system_id":"levelo_inurba_marseille","lat":43.26209,"lon":5.37442,"is_reserved":false,"is_disabled":false,"rental_uris":{"android":"levelo://app?vid=17455cd1-5101-4553-bcdb-f3dcbd5d81be","ios":"levelo://app?vid=17455cd1-5101-4553-bcdb-f3dcbd5d81be"},"vehicle_type_id":"4","last_reported":1757956089,"current_range_meters":12800,"station_id":"ce4bhgp2rcd13ifvqfc0","pricing_plan_id":"cebpf4jnsgd1na2vs0mg"},{"bike_id":"5dc1dd45-901c-4b8e-a3b2-b77ca59a5361","system_id":"levelo_inurba_marseille","lat":43.28991,"lon":5.35609,"is_reserved":false,"is_disabled":false,"rental_uris":{"android":"levelo://app?vid=5dc1dd45-901c-4b8e-a3b2-b77ca59a5361","ios":"levelo://app?vid=5dc1dd45-901c-4b8e-a3b2-b77ca59a5361"},"vehicle_type_id":"4","last_reported":1757956089,"current_range_meters":13600,"station_id":"ce4bhb92rcd13ifvqen0","pricing_plan_id":"cebpf4jnsgd1na2vs0mg"},{"bike_id":"19f03566-b1d7-447b-a4ce-a74a6c252d12","system_id":"levelo_inurba_marseille","lat":43.3108,"lon":5.42433,"is_reserved":false,"is_disabled":false,"rental_uris":{"android":"levelo://app?vid=19f03566-b1d7-447b-a4ce-a74a6c252d12","ios":"levelo://app?vid=19f03566-b1d7-447b-a4ce-a74a6c252d12"},"vehicle_type_id":"4","last_reported":1757956089,"current_range_meters":13600,"station_id":"ce4bhp92rcd13ifvqhag","pricing_plan_id":"cebpf4jnsgd1na2vs0mg"},{"bike_id":"2d50a5bf-2067-4460-b02f-4b161aa1fc3a","system_id":"levelo_inurba_marseille","lat":43.2994,"lon":5.36563,"is_reserved":false,"is_disabled":false,"rental_uris":{"android":"levelo://app?vid=2d50a5bf-2067-4460-b02f-4b161aa1fc3a","ios":"levelo://app?vid=2d50a5bf-2067-4460-b02f-4b161aa1fc3a"},"vehicle_type_id":"4","last_reported":1757956089,"current_range_meters":13600,"station_id":"ce4bgm92rcd13ifvqbr0","pricing_plan_id":"cebpf4jnsgd1na2vs0mg"},{"bike_id":"cd190f0c-631e-4d34-a3a5-19cd8a39f52c","system_id":"levelo_inurba_marseille","lat":43.28275,"lon":5.35075,"is_reserved":false,"is_disabled":false,"rental_uris":{"android":"levelo://app?vid=cd190f0c-631e-4d34-a3a5-19cd8a39f52c","ios":"levelo://app?vid=cd190f0c-631e-4d34-a3a5-19cd8a39f52c"},"vehicle_type_id":"4","last_reported":1757956089,"current_range_meters":13600,"station_id":"ce4bhbp2rcd13ifvqerg","pricing_plan_id":"cebpf4jnsgd1na2vs0mg"},{"bike_id":"a155e67d-bec0-4326-ae57-c035ef5e1c81","system_id":"levelo_inurba_marseille","lat":43.29891,"lon":5.43674,"is_reserved":false,"is_disabled":false,"rental_uris":{"android":"levelo://app?vid=a155e67d-bec0-4326-ae57-c035ef5e1c81","ios":"levelo://app?vid=a155e67d-bec0-4326-ae57-c035ef5e1c81"},"vehicle_type_id":"4","last_reported":1757956089,"current_range_meters":13600,"station_id":"ce4bhpp2rcd13ifvqhfg","pricing_plan_id":"cebpf4jnsgd1na2vs0mg"},{"bike_id":"313b5430-76d1-4ae7-a56b-b937aff4b5f5","system_id":"levelo_inurba_marseille","lat":43.31075,"lon":5.42427,"is_reserved":false,"is_disabled":false,"rental_uris":{"android":"levelo://app?vid=313b5430-76d1-4ae7-a56b-b937aff4b5f5","ios":"levelo://app?vid=313b5430-76d1-4ae7-a56b-b937aff4b5f5"},"vehicle_type_id":"4","last_reported":1757956089,"current_range_meters":13600,"station_id":"ce4bhp92rcd13ifvqhag","pricing_plan_id":"cebpf4jnsgd1na2vs0mg"},{"bike_id":"f4e0ee7b-2e0b-4285-8c24-af7f548f39e0","system_id":"levelo_inurba_marseille","lat":43.2781,"lon":5.40709,"is_reserved":false,"is_disabled":false,"rental_uris":{"android":"levelo://app?vid=f4e0ee7b-2e0b-4285-8c24-af7f548f39e0","ios":"levelo://app?vid=f4e0ee7b-2e0b-4285-8c24-af7f548f39e0"},"vehicle_type_id":"4","last_reported":1757956089,"current_range_meters":12800,"station_id":"ce4bhnh2rcd13ifvqgtg","pricing_plan_id":"cebpf4jnsgd1na2vs0mg"},{"bike_id":"08c1be71-ca68-46e2-a41f-f3c4b4411da4","system_id":"levelo_inurba_marseille","lat":43.29626,"lon":5.3717,"is_reserved":false,"is_disabled":false,"rental_uris":{"android":"levelo://app?vid=08c1be71-ca68-46e2-a41f-f3c4b4411da4","ios":"levelo://app?vid=08c1be71-ca68-46e2-a41f-f3c4b4411da4"},"vehicle_type_id":"4","last_reported":1757956089,"current_range_meters":13600,"station_id":"ce4bgnh2rcd13ifvqc0g","pricing_plan_id":"cebpf4jnsgd1na2vs0mg"},{"bike_id":"34d44d02-b9b1-4ed1-bb89-221e7d01cf7d","system_id":"levelo_inurba_marseille","lat":43.28933,"lon":5.36392,"is_reserved":false,"is_disabled":false,"rental_uris":{"android":"levelo://app?vid=34d44d02-b9b1-4ed1-bb89-221e7d01cf7d","ios":"levelo://app?vid=34d44d02-b9b1-4ed1-bb89-221e7d01cf7d"},"vehicle_type_id":"4","last_reported":1757956089,"current_range_meters":13600,"station_id":"ce4bhc92rcd13ifvqetg","pricing_plan_id":"cebpf4jnsgd1na2vs0mg"},{"bike_id":"365a53be-cc47-437a-a511-2f471baf4595","system_id":"levelo_inurba_marseille","lat":43.31065,"lon":5.38327,"is_reserved":false,"is_disabled":false,"rental_uris":{"android":"levelo://app?vid=365a53be-cc47-437a-a511-2f471baf4595","ios":"levelo://app?vid=365a53be-cc47-437a-a511-2f471baf4595"},"vehicle_type_id":"4","last_reported":1757956089,"current_range_meters":14000,"station_id":"ce4bgv92rcd13ifvqcr0","pricing_plan_id":"cebpf4jnsgd1na2vs0mg"},{"bike_id":"d0c19704-af8a-4e8d-8608-9cb463b032e3","system_id":"levelo_inurba_marseille","lat":43.29199,"lon":5.35797,"is_reserved":false,"is_disabled":false,"rental_uris":{"android":"levelo://app?vid=d0c19704-af8a-4e8d-8608-9cb463b032e3","ios":"levelo://app?vid=d0c19704-af8a-4e8d-8608-9cb463b032e3"},"vehicle_type_id":"4","last_reported":1757956089,"current_range_meters":14000,"station_id":"ce4bhb12rcd13ifvqel0","pricing_plan_id":"cebpf4jnsgd1na2vs0mg"},{"bike_id":"771455dc-6ad5-4be2-88cc-0d407530a899","system_id":"levelo_inurba_marseille","lat":43.295236,"lon":5.390301,"is_reserved":false,"is_disabled":false,"rental_uris":{"android":"levelo://app?vid=771455dc-6ad5-4be2-88cc-0d407530a899","ios":"levelo://app?vid=771455dc-6ad5-4be2-88cc-0d407530a899"},"vehicle_type_id":"4","last_reported":1757956089,"current_range_meters":14000,"station_id":"ce4bh3p2rcd13ifvqdp0","pricing_plan_id":"cebpf4jnsgd1na2vs0mg"},{"bike_id":"2380294c-cbf0-4296-a783-20bb9ccf3900","system_id":"levelo_inurba_marseille","lat":43.26058,"lon":5.39398,"is_reserved":false,"is_disabled":false,"rental_uris":{"android":"levelo://app?vid=2380294c-cbf0-4296-a783-20bb9ccf3900","ios":"levelo://app?vid=2380294c-cbf0-4296-a783-20bb9ccf3900"},"vehicle_type_id":"4","last_reported":1757956089,"current_range_meters":16400,"station_id":"ce4bhh92rcd13ifvqfj0","pricing_plan_id":"cebpf4jnsgd1na2vs0mg"},{"bike_id":"1d2e61be-ead7-42ae-9e1c-f2fdb5cc864a","system_id":"levelo_inurba_marseille","lat":43.28857,"lon":5.35865,"is_reserved":false,"is_disabled":false,"rental_uris":{"android":"levelo://app?vid=1d2e61be-ead7-42ae-9e1c-f2fdb5cc864a","ios":"levelo://app?vid=1d2e61be-ead7-42ae-9e1c-f2fdb5cc864a"},"vehicle_type_id":"4","last_reported":1757956089,"current_range_meters":14400,"station_id":"ce4bhb12rcd13ifvqem0","pricing_plan_id":"cebpf4jnsgd1na2vs0mg"},{"bike_id":"a3faf588-6608-409d-9ad7-10033bab8d16","system_id":"levelo_inurba_marseille","lat":43.29881,"lon":5.389,"is_reserved":false,"is_disabled":false,"rental_uris":{"android":"levelo://app?vid=a3faf588-6608-409d-9ad7-10033bab8d16","ios":"levelo://app?vid=a3faf588-6608-409d-9ad7-10033bab8d16"},"vehicle_type_id":"4","last_reported":1757956089,"current_range_meters":14400,"station_id":"ce4bh392rcd13ifvqdl0","pricing_plan_id":"cebpf4jnsgd1na2vs0mg"},{"bike_id":"d73ebff0-d957-41dc-a638-29b88edc4926","system_id":"levelo_inurba_marseille","lat":43.22564,"lon":5.41635,"is_reserved":false,"is_disabled":false,"rental_uris":{"android":"levelo://app?vid=d73ebff0-d957-41dc-a638-29b88edc4926","ios":"levelo://app?vid=d73ebff0-d957-41dc-a638-29b88edc4926"},"vehicle_type_id":"4","last_reported":1757956089,"current_range_meters":14400,"station_id":"st_d2o4gvlbi1j2169b742g","pricing_plan_id":"cebpf4jnsgd1na2vs0mg"},{"bike_id":"0fcb50e8-d12e-4bcf-93be-dbad8ec50763","system_id":"levelo_inurba_marseille","lat":43.29716,"lon":5.36618,"is_reserved":false,"is_disabled":false,"rental_uris":{"android":"levelo://app?vid=0fcb50e8-d12e-4bcf-93be-dbad8ec50763","ios":"levelo://app?vid=0fcb50e8-d12e-4bcf-93be-dbad8ec50763"},"vehicle_type_id":"4","last_reported":1757956089,"current_range_meters":14400,"station_id":"ce4bgn12rcd13ifvqbt0","pricing_plan_id":"cebpf4jnsgd1na2vs0mg"},{"bike_id":"047a285e-356c-4b62-8d76-1f5a35700ca3","system_id":"levelo_inurba_marseille","lat":43.29702,"lon":5.36613,"is_reserved":false,"is_disabled":false,"rental_uris":{"android":"levelo://app?vid=047a285e-356c-4b62-8d76-1f5a35700ca3","ios":"levelo://app?vid=047a285e-356c-4b62-8d76-1f5a35700ca3"},"vehicle_type_id":"4","last_reported":1757956089,"current_range_meters":14400,"station_id":"ce4bgn12rcd13ifvqbt0","pricing_plan_id":"cebpf4jnsgd1na2vs0mg"},{"bike_id":"3fe6dd4b-8843-4b64-a23b-0493a68e9a08","system_id":"levelo_inurba_marseille","lat":43.32488,"lon":5.36603,"is_reserved":false,"is_disabled":false,"rental_uris":{"android":"levelo://app?vid=3fe6dd4b-8843-4b64-a23b-0493a68e9a08","ios":"levelo://app?vid=3fe6dd4b-8843-4b64-a23b-0493a68e9a08"},"vehicle_type_id":"4","last_reported":1757956089,"current_range_meters":14400,"station_id":"ce4bhs12rcd13ifvqhvg","pricing_plan_id":"cebpf4jnsgd1na2vs0mg"},{"bike_id":"c07e7a2d-d8a6-4efd-8723-e965be4d1a74","system_id":"levelo_inurba_marseille","lat":43.22543,"lon":5.34836,"is_reserved":false,"is_disabled":false,"rental_uris":{"android":"levelo://app?vid=c07e7a2d-d8a6-4efd-8723-e965be4d1a74","ios":"levelo://app?vid=c07e7a2d-d8a6-4efd-8723-e965be4d1a74"},"vehicle_type_id":"4","last_reported":1757956089,"current_range_meters":14400,"station_id":"","pricing_plan_id":"cebpf4jnsgd1na2vs0mg"},{"bike_id":"ee70deee-487e-434c-ad7e-8fc850d60473","system_id":"levelo_inurba_marseille","lat":43.30934,"lon":5.40146,"is_reserved":false,"is_disabled":false,"rental_uris":{"android":"levelo://app?vid=ee70deee-487e-434c-ad7e-8fc850d60473","ios":"levelo://app?vid=ee70deee-487e-434c-ad7e-8fc850d60473"},"vehicle_type_id":"4","last_reported":1757956089,"current_range_meters":14000,"station_id":"ce4bgvp2rcd13ifvqct0","pricing_plan_id":"cebpf4jnsgd1na2vs0mg"},{"bike_id":"e824d254-16a6-4ae4-983a-05af083f4c81","system_id":"levelo_inurba_marseille","lat":43.21753,"lon":5.34607,"is_reserved":false,"is_disabled":false,"rental_uris":{"android":"levelo://app?vid=e824d254-16a6-4ae4-983a-05af083f4c81","ios":"levelo://app?vid=e824d254-16a6-4ae4-983a-05af083f4c81"},"vehicle_type_id":"4","last_reported":1757956089,"current_range_meters":14800,"station_id":"","pricing_plan_id":"cebpf4jnsgd1na2vs0mg"},{"bike_id":"9dea1fd2-d85d-4ce8-b735-b96fa8373007","system_id":"levelo_inurba_marseille","lat":43.32281,"lon":5.38275,"is_reserved":false,"is_disabled":false,"rental_uris":{"android":"levelo://app?vid=9dea1fd2-d85d-4ce8-b735-b96fa8373007","ios":"levelo://app?vid=9dea1fd2-d85d-4ce8-b735-b96fa8373007"},"vehicle_type_id":"4","last_reported":1757956089,"current_range_meters":14800,"station_id":"ce4bhr12rcd13ifvqhqg","pricing_plan_id":"cebpf4jnsgd1na2vs0mg"},{"bike_id":"7f89a805-7561-4728-9fb2-47ecaf142e18","system_id":"levelo_inurba_marseille","lat":43.30952,"lon":5.39015,"is_reserved":false,"is_disabled":true,"rental_uris":{"android":"levelo://app?vid=7f89a805-7561-4728-9fb2-47ecaf142e18","ios":"levelo://app?vid=7f89a805-7561-4728-9fb2-47ecaf142e18"},"vehicle_type_id":"4","last_reported":1757956089,"current_range_meters":14800,"station_id":"ce4bgup2rcd13ifvqco0","pricing_plan_id":"cebpf4jnsgd1na2vs0mg"},{"bike_id":"bcbe7a5e-7784-4d13-96dc-77fd6597b4e4","system_id":"levelo_inurba_marseille","lat":43.21195,"lon":5.35066,"is_reserved":false,"is_disabled":true,"rental_uris":{"android":"levelo://app?vid=bcbe7a5e-7784-4d13-96dc-77fd6597b4e4","ios":"levelo://app?vid=bcbe7a5e-7784-4d13-96dc-77fd6597b4e4"},"vehicle_type_id":"4","last_reported":1757956089,"current_range_meters":14800,"station_id":"st_cvj6sg6p6f1abm77japg","pricing_plan_id":"cebpf4jnsgd1na2vs0mg"},{"bike_id":"8ef8bf7d-8a91-4724-8c2e-ddeef723e28a","system_id":"levelo_inurba_marseille","lat":43.27011,"lon":5.37926,"is_reserved":false,"is_disabled":false,"rental_uris":{"android":"levelo://app?vid=8ef8bf7d-8a91-4724-8c2e-ddeef723e28a","ios":"levelo://app?vid=8ef8bf7d-8a91-4724-8c2e-ddeef723e28a"},"vehicle_type_id":"4","last_reported":1757956089,"current_range_meters":15200,"station_id":"","pricing_plan_id":"cebpf4jnsgd1na2vs0mg"},{"bike_id":"e916dfba-b811-4bc1-8418-9f5376670161","system_id":"levelo_inurba_marseille","lat":43.299371,"lon":5.365553,"is_reserved":false,"is_disabled":false,"rental_uris":{"android":"levelo://app?vid=e916dfba-b811-4bc1-8418-9f5376670161","ios":"levelo://app?vid=e916dfba-b811-4bc1-8418-9f5376670161"},"vehicle_type_id":"4","last_reported":1757956089,"current_range_meters":15200,"station_id":"ce4bhbp2rcd13ifvqesg","pricing_plan_id":"cebpf4jnsgd1na2vs0mg"},{"bike_id":"3b0b9597-5e94-419e-bc4e-016a82887d16","system_id":"levelo_inurba_marseille","lat":43.26945,"lon":5.40248,"is_reserved":false,"is_disabled":false,"rental_uris":{"android":"levelo://app?vid=3b0b9597-5e94-419e-bc4e-016a82887d16","ios":"levelo://app?vid=3b0b9597-5e94-419e-bc4e-016a82887d16"},"vehicle_type_id":"4","last_reported":1757956089,"current_range_meters":15200,"station_id":"cjm6bp8fraef2m0cb0m0","pricing_plan_id":"cebpf4jnsgd1na2vs0mg"},{"bike_id":"4d0da910-152b-448e-9786-b400d7fabfca","system_id":"levelo_inurba_marseille","lat":43.29204,"lon":5.36075,"is_reserved":false,"is_disabled":false,"rental_uris":{"android":"levelo://app?vid=4d0da910-152b-448e-9786-b400d7fabfca","ios":"levelo://app?vid=4d0da910-152b-448e-9786-b400d7fabfca"},"vehicle_type_id":"4","last_reported":1757956089,"current_range_meters":15200,"station_id":"ce4bhbh2rcd13ifvqeqg","pricing_plan_id":"cebpf4jnsgd1na2vs0mg"},{"bike_id":"da4be2ad-2c58-4502-9634-f41fbbcf416b","system_id":"levelo_inurba_marseille","lat":43.30431,"lon":5.38886,"is_reserved":false,"is_disabled":false,"rental_uris":{"android":"levelo://app?vid=da4be2ad-2c58-4502-9634-f41fbbcf416b","ios":"levelo://app?vid=da4be2ad-2c58-4502-9634-f41fbbcf416b"},"vehicle_type_id":"4","last_reported":1757956089,"current_range_meters":15200,"station_id":"ce4bgk12rcd13ifvqbi0","pricing_plan_id":"cebpf4jnsgd1na2vs0mg"},{"bike_id":"fcbcce8e-c506-4957-85d1-4962c97c9083","system_id":"levelo_inurba_marseille","lat":43.29882,"lon":5.38896,"is_reserved":false,"is_disabled":false,"rental_uris":{"android":"levelo://app?vid=fcbcce8e-c506-4957-85d1-4962c97c9083","ios":"levelo://app?vid=fcbcce8e-c506-4957-85d1-4962c97c9083"},"vehicle_type_id":"4","last_reported":1757956089,"current_range_meters":15200,"station_id":"ce4bh392rcd13ifvqdl0","pricing_plan_id":"cebpf4jnsgd1na2vs0mg"},{"bike_id":"96fb9e77-dbc3-4ba6-98da-4602932ba9e4","system_id":"levelo_inurba_marseille","lat":43.29536,"lon":5.38533,"is_reserved":false,"is_disabled":false,"rental_uris":{"android":"levelo://app?vid=96fb9e77-dbc3-4ba6-98da-4602932ba9e4","ios":"levelo://app?vid=96fb9e77-dbc3-4ba6-98da-4602932ba9e4"},"vehicle_type_id":"4","last_reported":1757956089,"current_range_meters":16000,"station_id":"ce4bgih2rcd13ifvqba0","pricing_plan_id":"cebpf4jnsgd1na2vs0mg"},{"bike_id":"42086c34-cf4a-41ae-9b81-03abe2cd8100","system_id":"levelo_inurba_marseille","lat":43.29228,"lon":5.36066,"is_reserved":false,"is_disabled":false,"rental_uris":{"android":"levelo://app?vid=42086c34-cf4a-41ae-9b81-03abe2cd8100","ios":"levelo://app?vid=42086c34-cf4a-41ae-9b81-03abe2cd8100"},"vehicle_type_id":"4","last_reported":1757956089,"current_range_meters":16000,"station_id":"ce4bhbh2rcd13ifvqeqg","pricing_plan_id":"cebpf4jnsgd1na2vs0mg"},{"bike_id":"d24813f7-c49c-4645-960f-159012303a4e","system_id":"levelo_inurba_marseille","lat":43.298611,"lon":5.389078,"is_reserved":false,"is_disabled":false,"rental_uris":{"android":"levelo://app?vid=d24813f7-c49c-4645-960f-159012303a4e","ios":"levelo://app?vid=d24813f7-c49c-4645-960f-159012303a4e"},"vehicle_type_id":"4","last_reported":1757956089,"current_range_meters":16000,"station_id":"ce4bh392rcd13ifvqdl0","pricing_plan_id":"cebpf4jnsgd1na2vs0mg"},{"bike_id":"c5a03307-d6b7-41e5-b2ac-a1aec2ba2bc0","system_id":"levelo_inurba_marseille","lat":43.29975,"lon":5.38491,"is_reserved":false,"is_disabled":false,"rental_uris":{"android":"levelo://app?vid=c5a03307-d6b7-41e5-b2ac-a1aec2ba2bc0","ios":"levelo://app?vid=c5a03307-d6b7-41e5-b2ac-a1aec2ba2bc0"},"vehicle_type_id":"4","last_reported":1757956089,"current_range_meters":16000,"station_id":"ce4bgj92rcd13ifvqbd0","pricing_plan_id":"cebpf4jnsgd1na2vs0mg"},{"bike_id":"680a205a-2c0b-4fec-94b5-53ef41ec9cbc","system_id":"levelo_inurba_marseille","lat":43.2781,"lon":5.40708,"is_reserved":false,"is_disabled":false,"rental_uris":{"android":"levelo://app?vid=680a205a-2c0b-4fec-94b5-53ef41ec9cbc","ios":"levelo://app?vid=680a205a-2c0b-4fec-94b5-53ef41ec9cbc"},"vehicle_type_id":"4","last_reported":1757956089,"current_range_meters":16000,"station_id":"ce4bhnh2rcd13ifvqgtg","pricing_plan_id":"cebpf4jnsgd1na2vs0mg"},{"bike_id":"10af63dd-ffbd-4227-a594-bda51b07e23b","system_id":"levelo_inurba_marseille","lat":43.282554,"lon":5.350576,"is_reserved":false,"is_disabled":false,"rental_uris":{"android":"levelo://app?vid=10af63dd-ffbd-4227-a594-bda51b07e23b","ios":"levelo://app?vid=10af63dd-ffbd-4227-a594-bda51b07e23b"},"vehicle_type_id":"4","last_reported":1757956089,"current_range_meters":16000,"station_id":"ce4bhbp2rcd13ifvqerg","pricing_plan_id":"cebpf4jnsgd1na2vs0mg"},{"bike_id":"5205e3bf-0cd2-4919-bd1c-ef099e279be9","system_id":"levelo_inurba_marseille","lat":43.29621,"lon":5.37178,"is_reserved":false,"is_disabled":false,"rental_uris":{"android":"levelo://app?vid=5205e3bf-0cd2-4919-bd1c-ef099e279be9","ios":"levelo://app?vid=5205e3bf-0cd2-4919-bd1c-ef099e279be9"},"vehicle_type_id":"4","last_reported":1757956089,"current_range_meters":15200,"station_id":"ce4bgnh2rcd13ifvqc0g","pricing_plan_id":"cebpf4jnsgd1na2vs0mg"},{"bike_id":"501aeb78-7f84-44eb-92d7-55000136d0a5","system_id":"levelo_inurba_marseille","lat":43.292725,"lon":5.40113,"is_reserved":false,"is_disabled":false,"rental_uris":{"android":"levelo://app?vid=501aeb78-7f84-44eb-92d7-55000136d0a5","ios":"levelo://app?vid=501aeb78-7f84-44eb-92d7-55000136d0a5"},"vehicle_type_id":"4","last_reported":1757956089,"current_range_meters":16000,"station_id":"","pricing_plan_id":"cebpf4jnsgd1na2vs0mg"},{"bike_id":"3dbaea07-3afd-403d-8367-7bfa92596a01","system_id":"levelo_inurba_marseille","lat":43.21731,"lon":5.34627,"is_reserved":false,"is_disabled":false,"rental_uris":{"android":"levelo://app?vid=3dbaea07-3afd-403d-8367-7bfa92596a01","ios":"levelo://app?vid=3dbaea07-3afd-403d-8367-7bfa92596a01"},"vehicle_type_id":"4","last_reported":1757956089,"current_range_meters":16000,"station_id":"","pricing_plan_id":"cebpf4jnsgd1na2vs0mg"},{"bike_id":"681af500-3dd5-4fe5-be16-0969a184e601","system_id":"levelo_inurba_marseille","lat":43.29698,"lon":5.36604,"is_reserved":false,"is_disabled":false,"rental_uris":{"android":"levelo://app?vid=681af500-3dd5-4fe5-be16-0969a184e601","ios":"levelo://app?vid=681af500-3dd5-4fe5-be16-0969a184e601"},"vehicle_type_id":"4","last_reported":1757956089,"current_range_meters":16000,"station_id":"ce4bgn12rcd13ifvqbt0","pricing_plan_id":"cebpf4jnsgd1na2vs0mg"},{"bike_id":"5e4fe09a-dd05-4962-a953-3f43234886f1","system_id":"levelo_inurba_marseille","lat":43.33727,"lon":5.39185,"is_reserved":false,"is_disabled":false,"rental_uris":{"android":"levelo://app?vid=5e4fe09a-dd05-4962-a953-3f43234886f1","ios":"levelo://app?vid=5e4fe09a-dd05-4962-a953-3f43234886f1"},"vehicle_type_id":"4","last_reported":1757956089,"current_range_meters":16400,"station_id":"ce4bhr92rcd13ifvqhsg","pricing_plan_id":"cebpf4jnsgd1na2vs0mg"},{"bike_id":"d28c30f7-d993-418e-b279-e6e75970549b","system_id":"levelo_inurba_marseille","lat":43.29633,"lon":5.37698,"is_reserved":false,"is_disabled":true,"rental_uris":{"android":"levelo://app?vid=d28c30f7-d993-418e-b279-e6e75970549b","ios":"levelo://app?vid=d28c30f7-d993-418e-b279-e6e75970549b"},"vehicle_type_id":"4","last_reported":1757956089,"current_range_meters":16400,"station_id":"ce4bgi92rcd13ifvqb90","pricing_plan_id":"cebpf4jnsgd1na2vs0mg"},{"bike_id":"67eac3de-01ca-4d90-a03b-e5bf63e50c9c","system_id":"levelo_inurba_marseille","lat":43.29527,"lon":5.37504,"is_reserved":false,"is_disabled":true,"rental_uris":{"android":"levelo://app?vid=67eac3de-01ca-4d90-a03b-e5bf63e50c9c","ios":"levelo://app?vid=67eac3de-01ca-4d90-a03b-e5bf63e50c9c"},"vehicle_type_id":"4","last_reported":1757956089,"current_range_meters":16400,"station_id":"ce4bgkp2rcd13ifvqbmg","pricing_plan_id":"cebpf4jnsgd1na2vs0mg"},{"bike_id":"3c19ae47-6cdd-4291-8f5c-1b957c8d7956","system_id":"levelo_inurba_marseille","lat":43.29511,"lon":5.394,"is_reserved":false,"is_disabled":false,"rental_uris":{"android":"levelo://app?vid=3c19ae47-6cdd-4291-8f5c-1b957c8d7956","ios":"levelo://app?vid=3c19ae47-6cdd-4291-8f5c-1b957c8d7956"},"vehicle_type_id":"4","last_reported":1757956089,"current_range_meters":16400,"station_id":"ce4bh292rcd13ifvqdf0","pricing_plan_id":"cebpf4jnsgd1na2vs0mg"},{"bike_id":"dbd145e8-ae09-4562-82a3-cac3f4d215a1","system_id":"levelo_inurba_marseille","lat":43.2756,"lon":5.38508,"is_reserved":false,"is_disabled":false,"rental_uris":{"android":"levelo://app?vid=dbd145e8-ae09-4562-82a3-cac3f4d215a1","ios":"levelo://app?vid=dbd145e8-ae09-4562-82a3-cac3f4d215a1"},"vehicle_type_id":"4","last_reported":1757956089,"current_range_meters":16800,"station_id":"","pricing_plan_id":"cebpf4jnsgd1na2vs0mg"},{"bike_id":"2fc8b5ed-5ba2-4a32-8574-34d78ca40c05","system_id":"levelo_inurba_marseille","lat":43.28403,"lon":5.37523,"is_reserved":false,"is_disabled":false,"rental_uris":{"android":"levelo://app?vid=2fc8b5ed-5ba2-4a32-8574-34d78ca40c05","ios":"levelo://app?vid=2fc8b5ed-5ba2-4a32-8574-34d78ca40c05"},"vehicle_type_id":"4","last_reported":1757956089,"current_range_meters":16800,"station_id":"ce4bh412rcd13ifvqds0","pricing_plan_id":"cebpf4jnsgd1na2vs0mg"},{"bike_id":"2e9c5aad-a752-4287-8e32-2f6528cb62db","system_id":"levelo_inurba_marseille","lat":43.29198,"lon":5.39314,"is_reserved":false,"is_disabled":false,"rental_uris":{"android":"levelo://app?vid=2e9c5aad-a752-4287-8e32-2f6528cb62db","ios":"levelo://app?vid=2e9c5aad-a752-4287-8e32-2f6528cb62db"},"vehicle_type_id":"4","last_reported":1757956089,"current_range_meters":16800,"station_id":"ce4bh192rcd13ifvqdd0","pricing_plan_id":"cebpf4jnsgd1na2vs0mg"},{"bike_id":"d95b20e8-f405-45be-8f10-ac610542fe93","system_id":"levelo_inurba_marseille","lat":43.276731,"lon":5.388602,"is_reserved":false,"is_disabled":false,"rental_uris":{"android":"levelo://app?vid=d95b20e8-f405-45be-8f10-ac610542fe93","ios":"levelo://app?vid=d95b20e8-f405-45be-8f10-ac610542fe93"},"vehicle_type_id":"4","last_reported":1757956089,"current_range_meters":16800,"station_id":"ce4bh312rcd13ifvqdk0","pricing_plan_id":"cebpf4jnsgd1na2vs0mg"},{"bike_id":"976a0d28-cac1-409e-9c54-686e01b7c2eb","system_id":"levelo_inurba_marseille","lat":43.22568,"lon":5.41638,"is_reserved":false,"is_disabled":false,"rental_uris":{"android":"levelo://app?vid=976a0d28-cac1-409e-9c54-686e01b7c2eb","ios":"levelo://app?vid=976a0d28-cac1-409e-9c54-686e01b7c2eb"},"vehicle_type_id":"4","last_reported":1757956089,"current_range_meters":16800,"station_id":"st_d2o4gvlbi1j2169b742g","pricing_plan_id":"cebpf4jnsgd1na2vs0mg"},{"bike_id":"0df89ad6-7b0f-4862-87a3-00d7c2950851","system_id":"levelo_inurba_marseille","lat":43.28435,"lon":5.39191,"is_reserved":false,"is_disabled":false,"rental_uris":{"android":"levelo://app?vid=0df89ad6-7b0f-4862-87a3-00d7c2950851","ios":"levelo://app?vid=0df89ad6-7b0f-4862-87a3-00d7c2950851"},"vehicle_type_id":"4","last_reported":1757956089,"current_range_meters":16800,"station_id":"ce4bhoh2rcd13ifvqh5g","pricing_plan_id":"cebpf4jnsgd1na2vs0mg"},{"bike_id":"e73470b2-f46f-4f87-989f-53f8372e4317","system_id":"levelo_inurba_marseille","lat":43.34035,"lon":5.39169,"is_reserved":false,"is_disabled":false,"rental_uris":{"android":"levelo://app?vid=e73470b2-f46f-4f87-989f-53f8372e4317","ios":"levelo://app?vid=e73470b2-f46f-4f87-989f-53f8372e4317"},"vehicle_type_id":"4","last_reported":1757956089,"current_range_meters":16800,"station_id":"","pricing_plan_id":"cebpf4jnsgd1na2vs0mg"},{"bike_id":"0d1682ee-0ce9-4991-ae1d-1cce15e76b27","system_id":"levelo_inurba_marseille","lat":43.25492,"lon":5.37653,"is_reserved":false,"is_disabled":false,"rental_uris":{"android":"levelo://app?vid=0d1682ee-0ce9-4991-ae1d-1cce15e76b27","ios":"levelo://app?vid=0d1682ee-0ce9-4991-ae1d-1cce15e76b27"},"vehicle_type_id":"4","last_reported":1757956089,"current_range_meters":16400,"station_id":"ce4bhh12rcd13ifvqff0","pricing_plan_id":"cebpf4jnsgd1na2vs0mg"},{"bike_id":"d06d078b-9778-4fb3-a0a3-697b3db6db6c","system_id":"levelo_inurba_marseille","lat":43.22931,"lon":5.35396,"is_reserved":false,"is_disabled":false,"rental_uris":{"android":"levelo://app?vid=d06d078b-9778-4fb3-a0a3-697b3db6db6c","ios":"levelo://app?vid=d06d078b-9778-4fb3-a0a3-697b3db6db6c"},"vehicle_type_id":"4","last_reported":1757956089,"current_range_meters":17200,"station_id":"cpo3532slgdg3j2ikp40","pricing_plan_id":"cebpf4jnsgd1na2vs0mg"},{"bike_id":"511f6c29-3390-4042-b48e-75a4d61a54e0","system_id":"levelo_inurba_marseille","lat":43.32023,"lon":5.36747,"is_reserved":false,"is_disabled":false,"rental_uris":{"android":"levelo://app?vid=511f6c29-3390-4042-b48e-75a4d61a54e0","ios":"levelo://app?vid=511f6c29-3390-4042-b48e-75a4d61a54e0"},"vehicle_type_id":"4","last_reported":1757956089,"current_range_meters":17200,"station_id":"","pricing_plan_id":"cebpf4jnsgd1na2vs0mg"},{"bike_id":"0ead2c1b-1a15-449d-b458-9cc89ff57bf0","system_id":"levelo_inurba_marseille","lat":43.24995,"lon":5.38937,"is_reserved":false,"is_disabled":false,"rental_uris":{"android":"levelo://app?vid=0ead2c1b-1a15-449d-b458-9cc89ff57bf0","ios":"levelo://app?vid=0ead2c1b-1a15-449d-b458-9cc89ff57bf0"},"vehicle_type_id":"4","last_reported":1757956089,"current_range_meters":17200,"station_id":"ce4bhgp2rcd13ifvqfd0","pricing_plan_id":"cebpf4jnsgd1na2vs0mg"},{"bike_id":"e512a5fe-cc95-467b-acff-2bff7377b2d6","system_id":"levelo_inurba_marseille","lat":43.28404,"lon":5.37499,"is_reserved":false,"is_disabled":false,"rental_uris":{"android":"levelo://app?vid=e512a5fe-cc95-467b-acff-2bff7377b2d6","ios":"levelo://app?vid=e512a5fe-cc95-467b-acff-2bff7377b2d6"},"vehicle_type_id":"4","last_reported":1757956089,"current_range_meters":17200,"station_id":"ce4bh412rcd13ifvqds0","pricing_plan_id":"cebpf4jnsgd1na2vs0mg"},{"bike_id":"9410f75f-6542-4b8e-9dbc-5979223f224a","system_id":"levelo_inurba_marseille","lat":43.23171,"lon":5.39987,"is_reserved":false,"is_disabled":false,"rental_uris":{"android":"levelo://app?vid=9410f75f-6542-4b8e-9dbc-5979223f224a","ios":"levelo://app?vid=9410f75f-6542-4b8e-9dbc-5979223f224a"},"vehicle_type_id":"4","last_reported":1757956089,"current_range_meters":17200,"station_id":"ce4bhn12rcd13ifvqgqg","pricing_plan_id":"cebpf4jnsgd1na2vs0mg"},{"bike_id":"d4d425bc-6130-4ef7-a6e6-8cbe7a3683c0","system_id":"levelo_inurba_marseille","lat":43.29524,"lon":5.39407,"is_reserved":false,"is_disabled":true,"rental_uris":{"android":"levelo://app?vid=d4d425bc-6130-4ef7-a6e6-8cbe7a3683c0","ios":"levelo://app?vid=d4d425bc-6130-4ef7-a6e6-8cbe7a3683c0"},"vehicle_type_id":"4","last_reported":1757956089,"current_range_meters":17200,"station_id":"ce4bh292rcd13ifvqdf0","pricing_plan_id":"cebpf4jnsgd1na2vs0mg"},{"bike_id":"49e063c6-1ef5-4b52-968b-2ef137f93bbb","system_id":"levelo_inurba_marseille","lat":43.292836,"lon":5.401607,"is_reserved":false,"is_disabled":false,"rental_uris":{"android":"levelo://app?vid=49e063c6-1ef5-4b52-968b-2ef137f93bbb","ios":"levelo://app?vid=49e063c6-1ef5-4b52-968b-2ef137f93bbb"},"vehicle_type_id":"4","last_reported":1757956089,"current_range_meters":17200,"station_id":"ce4bh312rcd13ifvqdk0","pricing_plan_id":"cebpf4jnsgd1na2vs0mg"},{"bike_id":"4fd1c216-e4cd-40d4-bac5-bd7a225b3c2e","system_id":"levelo_inurba_marseille","lat":43.29082,"lon":5.38356,"is_reserved":false,"is_disabled":false,"rental_uris":{"android":"levelo://app?vid=4fd1c216-e4cd-40d4-bac5-bd7a225b3c2e","ios":"levelo://app?vid=4fd1c216-e4cd-40d4-bac5-bd7a225b3c2e"},"vehicle_type_id":"4","last_reported":1757956089,"current_range_meters":17600,"station_id":"","pricing_plan_id":"cebpf4jnsgd1na2vs0mg"},{"bike_id":"8f985cdd-650a-41b6-8849-f44a72a5be66","system_id":"levelo_inurba_marseille","lat":43.29071,"lon":5.37753,"is_reserved":false,"is_disabled":true,"rental_uris":{"android":"levelo://app?vid=8f985cdd-650a-41b6-8849-f44a72a5be66","ios":"levelo://app?vid=8f985cdd-650a-41b6-8849-f44a72a5be66"},"vehicle_type_id":"4","last_reported":1757956089,"current_range_meters":17600,"station_id":"","pricing_plan_id":"cebpf4jnsgd1na2vs0mg"},{"bike_id":"a0f60846-5d07-4f09-bc3d-66ce5a64829d","system_id":"levelo_inurba_marseille","lat":43.26193,"lon":5.37447,"is_reserved":false,"is_disabled":false,"rental_uris":{"android":"levelo://app?vid=a0f60846-5d07-4f09-bc3d-66ce5a64829d","ios":"levelo://app?vid=a0f60846-5d07-4f09-bc3d-66ce5a64829d"},"vehicle_type_id":"4","last_reported":1757956089,"current_range_meters":17600,"station_id":"ce4bhgp2rcd13ifvqfc0","pricing_plan_id":"cebpf4jnsgd1na2vs0mg"},{"bike_id":"f894a0f2-dd8b-4ce7-92a1-cf8cafeaf5c1","system_id":"levelo_inurba_marseille","lat":43.27975,"lon":5.38735,"is_reserved":false,"is_disabled":false,"rental_uris":{"android":"levelo://app?vid=f894a0f2-dd8b-4ce7-92a1-cf8cafeaf5c1","ios":"levelo://app?vid=f894a0f2-dd8b-4ce7-92a1-cf8cafeaf5c1"},