{"last_updated":1733757011,"ttl":60,"version":"2.2","data":{"bikes":[{"bike_id":"e3ec3af1-7bf1-430a-953d-6924b6c71ac1","system_id":"levelo_inurba_marseille","lat":43.30552,"lon":5.36546,"is_reserved":false,"is_disabled":false,"rental_uris":{"android":"levelo://app?vid=e3ec3af1-7bf1-430a-953d-6924b6c71ac1","ios":"levelo://app?vid=e3ec3af1-7bf1-430a-953d-6924b6c71ac1"},"vehicle_type_id":"4","last_reported":1733757012,"current_range_meters":38800,"station_id":"ce4bgs12rcd13ifvqcag","pricing_plan_id":"cebpf4jnsgd1na2vs0mg"},{"bike_id":"5f36d08d-22b7-45a1-8a89-1f2bf77105ee","system_id":"levelo_inurba_marseille","lat":43.28266,"lon":5.35078,"is_reserved":false,"is_disabled":false,"rental_uris":{"android":"levelo://app?vid=5f36d08d-22b7-45a1-8a89-1f2bf77105ee","ios":"levelo://app?vid=5f36d08d-22b7-45a1-8a89-1f2bf77105ee"},"vehicle_type_id":"4","last_reported":1733757012,"current_range_meters":38800,"station_id":"ce4bhbp2rcd13ifvqerg","pricing_plan_id":"cebpf4jnsgd1na2vs0mg"},{"bike_id":"8e029eaf-e104-4c5d-858d-6cd39de73d09","system_id":"levelo_inurba_marseille","lat":43.24196,"lon":5.36397,"is_reserved":false,"is_disabled":false,"rental_uris":{"android":"levelo://app?vid=8e029eaf-e104-4c5d-858d-6cd39de73d09","ios":"levelo://app?vid=8e029eaf-e104-4c5d-858d-6cd39de73d09"},"vehicle_type_id":"4","last_reported":1733757012,"current_range_meters":22000,"station_id":"cpo36qri1sfpv3e86is0","pricing_plan_id":"cebpf4jnsgd1na2vs0mg"},{"bike_id":"7bc62a75-e447-408e-8c41-af432d7f19d2","system_id":"levelo_inurba_marseille","lat":43.27974,"lon":5.3875,"is_reserved":false,"is_disabled":false,"rental_uris":{"android":"levelo://app?vid=7bc62a75-e447-408e-8c41-af432d7f19d2","ios":"levelo://app?vid=7bc62a75-e447-408e-8c41-af432d7f19d2"},"vehicle_type_id":"4","last_reported":1733757012,"current_range_meters":17600,"station_id":"ce4bhg12rcd13ifvqf80","pricing_plan_id":"cebpf4jnsgd1na2vs0mg"},{"bike_id":"9f02886a-b3a9-4bc4-bd56-fdb0be22cecc","system_id":"levelo_inurba_marseille","lat":43.25086,"lon":5.39525,"is_reserved":false,"is_disabled":false,"rental_uris":{"android":"levelo://app?vid=9f02886a-b3a9-4bc4-bd56-fdb0be22cecc","ios":"levelo://app?vid=9f02886a-b3a9-4bc4-bd56-fdb0be22cecc"},"vehicle_type_id":"4","last_reported":1733757012,"current_range_meters":3200,"station_id":"ce4bhm12rcd13ifvqgkg","pricing_plan_id":"cebpf4jnsgd1na2vs0mg"},{"bike_id":"5accc227-b001-4e8c-a0b5-5591a1a617a8","system_id":"levelo_inurba_marseille","lat":43.29574,"lon":5.3752,"is_reserved":false,"is_disabled":false,"rental_uris":{"android":"levelo://app?vid=5accc227-b001-4e8c-a0b5-5591a1a617a8","ios":"levelo://app?vid=5accc227-b001-4e8c-a0b5-5591a1a617a8"},"vehicle_type_id":"4","last_reported":1733757012,"current_range_meters":34800,"station_id":"ce4bgh92rcd13ifvqb50","pricing_plan_id":"cebpf4jnsgd1na2vs0mg"},{"bike_id":"f67df5db-34da-45d3-90be-4697e3c2cfb7","system_id":"levelo_inurba_marseille","lat":43.29614,"lon":5.37713,"is_reserved":false,"is_disabled":true,"rental_uris":{"android":"levelo://app?vid=f67df5db-34da-45d3-90be-4697e3c2cfb7","ios":"levelo://app?vid=f67df5db-34da-45d3-90be-4697e3c2cfb7"},"vehicle_type_id":"4","last_reported":1733757012,"current_range_meters":1600,"station_id":"ce4bgi92rcd13ifvqb90","pricing_plan_id":"cebpf4jnsgd1na2vs0mg"},{"bike_id":"ba5e9603-9efa-46a1-a491-af58be8cd5cb","system_id":"levelo_inurba_marseille","lat":43.3236,"lon":5.36759,"is_reserved":false,"is_disabled":false,"rental_uris":{"android":"levelo://app?vid=ba5e9603-9efa-46a1-a491-af58be8cd5cb","ios":"levelo://app?vid=ba5e9603-9efa-46a1-a491-af58be8cd5cb"},"vehicle_type_id":"4","last_reported":1733757012,"current_range_meters":36000,"station_id":"ce4bhsh2rcd13ifvqi2g","pricing_plan_id":"cebpf4jnsgd1na2vs0mg"},{"bike_id":"d7c8c15b-fef7-401a-88a6-d231e1fbaaef","system_id":"levelo_inurba_marseille","lat":43.30644,"lon":5.40082,"is_reserved":false,"is_disabled":false,"rental_uris":{"android":"levelo://app?vid=d7c8c15b-fef7-401a-88a6-d231e1fbaaef","ios":"levelo://app?vid=d7c8c15b-fef7-401a-88a6-d231e1fbaaef"},"vehicle_type_id":"4","last_reported":1733757012,"current_range_meters":38800,"station_id":"ce4bh112rcd13ifvqda0","pricing_plan_id":"cebpf4jnsgd1na2vs0mg"},{"bike_id":"7076e633-86a9-45e7-b89b-adbd9a632e0f","system_id":"levelo_inurba_marseille","lat":43.24382,"lon":5.37055,"is_reserved":false,"is_disabled":false,"rental_uris":{"android":"levelo://app?vid=7076e633-86a9-45e7-b89b-adbd9a632e0f","ios":"levelo://app?vid=7076e633-86a9-45e7-b89b-adbd9a632e0f"},"vehicle_type_id":"4","last_reported":1733757012,"current_range_meters":38800,"station_id":"ce4bhhh2rcd13ifvqfk0","pricing_plan_id":"cebpf4jnsgd1na2vs0mg"},{"bike_id":"061a5f09-41f2-44a1-a309-0cd6be3d19bb","system_id":"levelo_inurba_marseille","lat":43.26574,"lon":5.39022,"is_reserved":false,"is_disabled":false,"rental_uris":{"android":"levelo://app?vid=061a5f09-41f2-44a1-a309-0cd6be3d19bb","ios":"levelo://app?vid=061a5f09-41f2-44a1-a309-0cd6be3d19bb"},"vehicle_type_id":"4","last_reported":1733757012,"current_range_meters":20800,"station_id":"ce4bhe12rcd13ifvqf30","pricing_plan_id":"cebpf4jnsgd1na2vs0mg"},{"bike_id":"8bd642b2-0279-44c7-9ee2-fc3b57332c83","system_id":"levelo_inurba_marseille","lat":43.27455,"lon":5.40073,"is_reserved":false,"is_disabled":true,"rental_uris":{"android":"levelo://app?vid=8bd642b2-0279-44c7-9ee2-fc3b57332c83","ios":"levelo://app?vid=8bd642b2-0279-44c7-9ee2-fc3b57332c83"},"vehicle_type_id":"4","last_reported":1733757012,"current_range_meters":0,"station_id":"","pricing_plan_id":"cebpf4jnsgd1na2vs0mg"},{"bike_id":"76cb6262-57a3-4fa3-94e3-305f38b4d39f","system_id":"levelo_inurba_marseille","lat":43.24082,"lon":5.37747,"is_reserved":false,"is_disabled":false,"rental_uris":{"android":"levelo://app?vid=76cb6262-57a3-4fa3-94e3-305f38b4d39f","ios":"levelo://app?vid=76cb6262-57a3-4fa3-94e3-305f38b4d39f"},"vehicle_type_id":"4","last_reported":1733757012,"current_range_meters":7200,"station_id":"ce4bhnp2rcd13ifvqgvg","pricing_plan_id":"cebpf4jnsgd1na2vs0mg"},{"bike_id":"f4b3165d-2d9a-4d90-9ff9-759837e73fb9","system_id":"levelo_inurba_marseille","lat":43.29849,"lon":5.36282,"is_reserved":false,"is_disabled":false,"rental_uris":{"android":"levelo://app?vid=f4b3165d-2d9a-4d90-9ff9-759837e73fb9","ios":"levelo://app?vid=f4b3165d-2d9a-4d90-9ff9-759837e73fb9"},"vehicle_type_id":"4","last_reported":1733757012,"current_range_meters":30000,"station_id":"ce4bgpp2rcd13ifvqc3g","pricing_plan_id":"cebpf4jnsgd1na2vs0mg"},{"bike_id":"e4d7ecf4-c28a-4291-b4de-e4d5bda50504","system_id":"levelo_inurba_marseille","lat":43.29049,"lon":5.35919,"is_reserved":false,"is_disabled":false,"rental_uris":{"android":"levelo://app?vid=e4d7ecf4-c28a-4291-b4de-e4d5bda50504","ios":"levelo://app?vid=e4d7ecf4-c28a-4291-b4de-e4d5bda50504"},"vehicle_type_id":"4","last_reported":1733757012,"current_range_meters":37600,"station_id":"ce4bha92rcd13ifvqeg0","pricing_plan_id":"cebpf4jnsgd1na2vs0mg"},{"bike_id":"f09914a1-032a-4233-965f-c73f49a269ba","system_id":"levelo_inurba_marseille","lat":43.337444,"lon":5.374475,"is_reserved":false,"is_disabled":true,"rental_uris":{"android":"levelo://app?vid=f09914a1-032a-4233-965f-c73f49a269ba","ios":"levelo://app?vid=f09914a1-032a-4233-965f-c73f49a269ba"},"vehicle_type_id":"4","last_reported":1733757012,"current_range_meters":0,"station_id":"","pricing_plan_id":"cebpf4jnsgd1na2vs0mg"},{"bike_id":"3ec47102-4311-4d67-bcbe-dad713775749","system_id":"levelo_inurba_marseille","lat":43.29277,"lon":5.36846,"is_reserved":false,"is_disabled":false,"rental_uris":{"android":"levelo://app?vid=3ec47102-4311-4d67-bcbe-dad713775749","ios":"levelo://app?vid=3ec47102-4311-4d67-bcbe-dad713775749"},"vehicle_type_id":"4","last_reported":1733757012,"current_range_meters":24800,"station_id":"ce4bhbp2rcd13ifvqesg","pricing_plan_id":"cebpf4jnsgd1na2vs0mg"},{"bike_id":"cb442d5a-cce0-41d7-9c51-b4c2e4d876d4","system_id":"levelo_inurba_marseille","lat":43.32632,"lon":5.36476,"is_reserved":false,"is_disabled":false,"rental_uris":{"android":"levelo://app?vid=cb442d5a-cce0-41d7-9c51-b4c2e4d876d4","ios":"levelo://app?vid=cb442d5a-cce0-41d7-9c51-b4c2e4d876d4"},"vehicle_type_id":"4","last_reported":1733757012,"current_range_meters":27600,"station_id":"","pricing_plan_id":"cebpf4jnsgd1na2vs0mg"},{"bike_id":"a955f565-33db-4fdc-bdbf-249121ea420f","system_id":"levelo_inurba_marseille","lat":43.29189,"lon":5.35794,"is_reserved":false,"is_disabled":true,"rental_uris":{"android":"levelo://app?vid=a955f565-33db-4fdc-bdbf-249121ea420f","ios":"levelo://app?vid=a955f565-33db-4fdc-bdbf-249121ea420f"},"vehicle_type_id":"4","last_reported":1733757012,"current_range_meters":32000,"station_id":"ce4bhb12rcd13ifvqel0","pricing_plan_id":"cebpf4jnsgd1na2vs0mg"},{"bike_id":"4be35c1c-501e-4279-9d73-f6c1da033754","system_id":"levelo_inurba_marseille","lat":43.28266,"lon":5.35084,"is_reserved":false,"is_disabled":false,"rental_uris":{"android":"levelo://app?vid=4be35c1c-501e-4279-9d73-f6c1da033754","ios":"levelo://app?vid=4be35c1c-501e-4279-9d73-f6c1da033754"},"vehicle_type_id":"4","last_reported":1733757012,"current_range_meters":38800,"station_id":"ce4bhbp2rcd13ifvqerg","pricing_plan_id":"cebpf4jnsgd1na2vs0mg"},{"bike_id":"1055c99e-6a30-4bd9-b979-6d399b57fff2","system_id":"levelo_inurba_marseille","lat":43.29899,"lon":5.43667,"is_reserved":false,"is_disabled":false,"rental_uris":{"android":"levelo://app?vid=1055c99e-6a30-4bd9-b979-6d399b57fff2","ios":"levelo://app?vid=1055c99e-6a30-4bd9-b979-6d399b57fff2"},"vehicle_type_id":"4","last_reported":1733757012,"current_range_meters":30400,"station_id":"ce4bhpp2rcd13ifvqhfg","pricing_plan_id":"cebpf4jnsgd1na2vs0mg"},{"bike_id":"14c257dc-06bf-4a29-939b-9abb4cc4885a","system_id":"levelo_inurba_marseille","lat":43.28494,"lon":5.36812,"is_reserved":false,"is_disabled":false,"rental_uris":{"android":"levelo://app?vid=14c257dc-06bf-4a29-939b-9abb4cc4885a","ios":"levelo://app?vid=14c257dc-06bf-4a29-939b-9abb4cc4885a"},"vehicle_type_id":"4","last_reported":1733757012,"current_range_meters":6800,"station_id":"","pricing_plan_id":"cebpf4jnsgd1na2vs0mg"},{"bike_id":"bb0eecd4-603a-46ef-beba-f4427746e227","system_id":"levelo_inurba_marseille","lat":43.27957,"lon":5.41029,"is_reserved":false,"is_disabled":true,"rental_uris":{"android":"levelo://app?vid=bb0eecd4-603a-46ef-beba-f4427746e227","ios":"levelo://app?vid=bb0eecd4-603a-46ef-beba-f4427746e227"},"vehicle_type_id":"4","last_reported":1733757012,"current_range_meters":1600,"station_id":"ce4bhnp2rcd13ifvqh0g","pricing_plan_id":"cebpf4jnsgd1na2vs0mg"},{"bike_id":"6a434168-e5b1-415a-a364-147c591987c6","system_id":"levelo_inurba_marseille","lat":43.28267,"lon":5.35073,"is_reserved":false,"is_disabled":false,"rental_uris":{"android":"levelo://app?vid=6a434168-e5b1-415a-a364-147c591987c6","ios":"levelo://app?vid=6a434168-e5b1-415a-a364-147c591987c6"},"vehicle_type_id":"4","last_reported":1733757012,"current_range_meters":12000,"station_id":"ce4bhbp2rcd13ifvqerg","pricing_plan_id":"cebpf4jnsgd1na2vs0mg"},{"bike_id":"faa7bf9c-8f43-4d37-ad83-5c946172d0a9","system_id":"levelo_inurba_marseille","lat":43.26037,"lon":5.37551,"is_reserved":false,"is_disabled":false,"rental_uris":{"android":"levelo://app?vid=faa7bf9c-8f43-4d37-ad83-5c946172d0a9","ios":"levelo://app?vid=faa7bf9c-8f43-4d37-ad83-5c946172d0a9"},"vehicle_type_id":"4","last_reported":1733757012,"current_range_meters":38800,"station_id":"ce4bhgh2rcd13ifvqfa0","pricing_plan_id":"cebpf4jnsgd1na2vs0mg"},{"bike_id":"5f353ad8-0797-427f-8892-5c141047e836","system_id":"levelo_inurba_marseille","lat":43.3204,"lon":5.41511,"is_reserved":false,"is_disabled":false,"rental_uris":{"android":"levelo://app?vid=5f353ad8-0797-427f-8892-5c141047e836","ios":"levelo://app?vid=5f353ad8-0797-427f-8892-5c141047e836"},"vehicle_type_id":"4","last_reported":1733757012,"current_range_meters":38800,"station_id":"ce4bhq92rcd13ifvqhkg","pricing_plan_id":"cebpf4jnsgd1na2vs0mg"},{"bike_id":"9fe6b7cd-2407-4646-bd70-b263eb65c9e1","system_id":"levelo_inurba_marseille","lat":43.33725,"lon":5.39182,"is_reserved":false,"is_disabled":false,"rental_uris":{"android":"levelo://app?vid=9fe6b7cd-2407-4646-bd70-b263eb65c9e1","ios":"levelo://app?vid=9fe6b7cd-2407-4646-bd70-b263eb65c9e1"},"vehicle_type_id":"4","last_reported":1733757012,"current_range_meters":26000,"station_id":"ce4bhr92rcd13ifvqhsg","pricing_plan_id":"cebpf4jnsgd1na2vs0mg"},{"bike_id":"b5ddbdf9-3d43-4599-8b69-62fd7789fad7","system_id":"levelo_inurba_marseille","lat":43.27209,"lon":5.39179,"is_reserved":false,"is_disabled":false,"rental_uris":{"android":"levelo://app?vid=b5ddbdf9-3d43-4599-8b69-62fd7789fad7","ios":"levelo://app?vid=b5ddbdf9-3d43-4599-8b69-62fd7789fad7"},"vehicle_type_id":"4","last_reported":1733757012,"current_range_meters":7200,"station_id":"ce4bhhp2rcd13ifvqfm0","pricing_plan_id":"cebpf4jnsgd1na2vs0mg"},{"bike_id":"7015c312-0492-4f41-b80d-1dce0b21d334","system_id":"levelo_inurba_marseille","lat":43.24807,"lon":5.37459,"is_reserved":false,"is_disabled":false,"rental_uris":{"android":"levelo://app?vid=7015c312-0492-4f41-b80d-1dce0b21d334","ios":"levelo://app?vid=7015c312-0492-4f41-b80d-1dce0b21d334"},"vehicle_type_id":"4","last_reported":1733757012,"current_range_meters":24800,"station_id":"ce4bhgh2rcd13ifvqfb0","pricing_plan_id":"cebpf4jnsgd1na2vs0mg"},{"bike_id":"938640b4-f78c-4def-9b16-e6205edb88bc","system_id":"levelo_inurba_marseille","lat":43.28154,"lon":5.42636,"is_reserved":false,"is_disabled":true,"rental_uris":{"android":"levelo://app?vid=938640b4-f78c-4def-9b16-e6205edb88bc","ios":"levelo://app?vid=938640b4-f78c-4def-9b16-e6205edb88bc"},"vehicle_type_id":"4","last_reported":1733757012,"current_range_meters":35200,"station_id":"ce4bhnh2rcd13ifvqgug","pricing_plan_id":"cebpf4jnsgd1na2vs0mg"},{"bike_id":"48871fe4-f188-4ca0-8426-a71532d299e3","system_id":"levelo_inurba_marseille","lat":43.29253,"lon":5.4091,"is_reserved":false,"is_disabled":false,"rental_uris":{"android":"levelo://app?vid=48871fe4-f188-4ca0-8426-a71532d299e3","ios":"levelo://app?vid=48871fe4-f188-4ca0-8426-a71532d299e3"},"vehicle_type_id":"4","last_reported":1733757012,"current_range_meters":32800,"station_id":"ce4bh192rcd13ifvqdc0","pricing_plan_id":"cebpf4jnsgd1na2vs0mg"},{"bike_id":"99a50271-3a09-4adf-880d-3033fc078d25","system_id":"levelo_inurba_marseille","lat":43.29438,"lon":5.39754,"is_reserved":false,"is_disabled":false,"rental_uris":{"android":"levelo://app?vid=99a50271-3a09-4adf-880d-3033fc078d25","ios":"levelo://app?vid=99a50271-3a09-4adf-880d-3033fc078d25"},"vehicle_type_id":"4","last_reported":1733757012,"current_range_meters":38800,"station_id":"ce4bh3h2rcd13ifvqdo0","pricing_plan_id":"cebpf4jnsgd1na2vs0mg"},{"bike_id":"cf55b169-9388-4819-bfa4-c55a8fa03873","system_id":"levelo_inurba_marseille","lat":43.27613,"lon":5.36122,"is_reserved":false,"is_disabled":true,"rental_uris":{"android":"levelo://app?vid=cf55b169-9388-4819-bfa4-c55a8fa03873","ios":"levelo://app?vid=cf55b169-9388-4819-bfa4-c55a8fa03873"},"vehicle_type_id":"4","last_reported":1733757012,"current_range_meters":29600,"station_id":"ce4bgj92rcd13ifvqbe0","pricing_plan_id":"cebpf4jnsgd1na2vs0mg"},{"bike_id":"2f3968e7-9336-4ee4-ba78-8e92c0a818cc","system_id":"levelo_inurba_marseille","lat":43.31322,"lon":5.36647,"is_reserved":false,"is_disabled":true,"rental_uris":{"android":"levelo://app?vid=2f3968e7-9336-4ee4-ba78-8e92c0a818cc","ios":"levelo://app?vid=2f3968e7-9336-4ee4-ba78-8e92c0a818cc"},"vehicle_type_id":"4","last_reported":1733757012,"current_range_meters":0,"station_id":"","pricing_plan_id":"cebpf4jnsgd1na2vs0mg"},{"bike_id":"b395d2f8-5908-4b0f-9e88-6e643aee7359","system_id":"levelo_inurba_marseille","lat":43.26785,"lon":5.39421,"is_reserved":false,"is_disabled":false,"rental_uris":{"android":"levelo://app?vid=b395d2f8-5908-4b0f-9e88-6e643aee7359","ios":"levelo://app?vid=b395d2f8-5908-4b0f-9e88-6e643aee7359"},"vehicle_type_id":"4","last_reported":1733757012,"current_range_meters":19200,"station_id":"ce4bhh12rcd13ifvqfg0","pricing_plan_id":"cebpf4jnsgd1na2vs0mg"},{"bike_id":"ee3dfac6-dd45-4074-8324-4c8d088caab9","system_id":"levelo_inurba_marseille","lat":43.31484,"lon":5.37308,"is_reserved":false,"is_disabled":false,"rental_uris":{"android":"levelo://app?vid=ee3dfac6-dd45-4074-8324-4c8d088caab9","ios":"levelo://app?vid=ee3dfac6-dd45-4074-8324-4c8d088caab9"},"vehicle_type_id":"4","last_reported":1733757012,"current_range_meters":24000,"station_id":"ce4bgt12rcd13ifvqcd0","pricing_plan_id":"cebpf4jnsgd1na2vs0mg"},{"bike_id":"637c0c14-7eb0-4d6d-8236-dfa6a35955ae","system_id":"levelo_inurba_marseille","lat":43.27995,"lon":5.40009,"is_reserved":false,"is_disabled":false,"rental_uris":{"android":"levelo://app?vid=637c0c14-7eb0-4d6d-8236-dfa6a35955ae","ios":"levelo://app?vid=637c0c14-7eb0-4d6d-8236-dfa6a35955ae"},"vehicle_type_id":"4","last_reported":1733757012,"current_range_meters":14000,"station_id":"ce4bho92rcd13ifvqh4g","pricing_plan_id":"cebpf4jnsgd1na2vs0mg"},{"bike_id":"7f0b121b-7748-43bd-b861-318cbdf6fb69","system_id":"levelo_inurba_marseille","lat":43.28454,"lon":5.35891,"is_reserved":false,"is_disabled":true,"rental_uris":{"android":"levelo://app?vid=7f0b121b-7748-43bd-b861-318cbdf6fb69","ios":"levelo://app?vid=7f0b121b-7748-43bd-b861-318cbdf6fb69"},"vehicle_type_id":"4","last_reported":1733757012,"current_range_meters":13600,"station_id":"ce4bhah2rcd13ifvqei0","pricing_plan_id":"cebpf4jnsgd1na2vs0mg"},{"bike_id":"6583aefc-6815-4bd5-8f5c-a9c5d794f47e","system_id":"levelo_inurba_marseille","lat":43.36392,"lon":5.3418,"is_reserved":false,"is_disabled":false,"rental_uris":{"android":"levelo://app?vid=6583aefc-6815-4bd5-8f5c-a9c5d794f47e","ios":"levelo://app?vid=6583aefc-6815-4bd5-8f5c-a9c5d794f47e"},"vehicle_type_id":"4","last_reported":1733757012,"current_range_meters":13600,"station_id":"","pricing_plan_id":"cebpf4jnsgd1na2vs0mg"},{"bike_id":"c9714b2c-4bd8-4e78-8891-01481c154e3f","system_id":"levelo_inurba_marseille","lat":43.30885,"lon":5.39638,"is_reserved":false,"is_disabled":false,"rental_uris":{"android":"levelo://app?vid=c9714b2c-4bd8-4e78-8891-01481c154e3f","ios":"levelo://app?vid=c9714b2c-4bd8-4e78-8891-01481c154e3f"},"vehicle_type_id":"4","last_reported":1733757012,"current_range_meters":31200,"station_id":"","pricing_plan_id":"cebpf4jnsgd1na2vs0mg"},{"bike_id":"6738dbdc-10d7-4808-8efe-1811d7c261b3","system_id":"levelo_inurba_marseille","lat":43.3054,"lon":5.3671,"is_reserved":false,"is_disabled":false,"rental_uris":{"android":"levelo://app?vid=6738dbdc-10d7-4808-8efe-1811d7c261b3","ios":"levelo://app?vid=6738dbdc-10d7-4808-8efe-1811d7c261b3"},"vehicle_type_id":"4","last_reported":1733757012,"current_range_meters":14000,"station_id":"ce4bgrp2rcd13ifvqc9g","pricing_plan_id":"cebpf4jnsgd1na2vs0mg"},{"bike_id":"468d023e-e483-49f2-92d7-7b95c7b3c650","system_id":"levelo_inurba_marseille","lat":43.29903,"lon":5.43669,"is_reserved":false,"is_disabled":false,"rental_uris":{"android":"levelo://app?vid=468d023e-e483-49f2-92d7-7b95c7b3c650","ios":"levelo://app?vid=468d023e-e483-49f2-92d7-7b95c7b3c650"},"vehicle_type_id":"4","last_reported":1733757012,"current_range_meters":38800,"station_id":"ce4bhpp2rcd13ifvqhfg","pricing_plan_id":"cebpf4jnsgd1na2vs0mg"},{"bike_id":"62907a38-8691-49aa-8fe2-16daba663952","system_id":"levelo_inurba_marseille","lat":43.31351,"lon":5.36722,"is_reserved":false,"is_disabled":false,"rental_uris":{"android":"levelo://app?vid=62907a38-8691-49aa-8fe2-16daba663952","ios":"levelo://app?vid=62907a38-8691-49aa-8fe2-16daba663952"},"vehicle_type_id":"4","last_reported":1733757012,"current_range_meters":38800,"station_id":"ce4bgr92rcd13ifvqc6g","pricing_plan_id":"cebpf4jnsgd1na2vs0mg"},{"bike_id":"be11bf77-dce6-4575-b3d6-de65c68412a2","system_id":"levelo_inurba_marseille","lat":43.26072,"lon":5.39384,"is_reserved":false,"is_disabled":false,"rental_uris":{"android":"levelo://app?vid=be11bf77-dce6-4575-b3d6-de65c68412a2","ios":"levelo://app?vid=be11bf77-dce6-4575-b3d6-de65c68412a2"},"vehicle_type_id":"4","last_reported":1733757012,"current_range_meters":36400,"station_id":"ce4bhh92rcd13ifvqfj0","pricing_plan_id":"cebpf4jnsgd1na2vs0mg"},{"bike_id":"49213fa3-142b-4e8e-a212-30a049376c3f","system_id":"levelo_inurba_marseille","lat":43.23153,"lon":5.43713,"is_reserved":false,"is_disabled":false,"rental_uris":{"android":"levelo://app?vid=49213fa3-142b-4e8e-a212-30a049376c3f","ios":"levelo://app?vid=49213fa3-142b-4e8e-a212-30a049376c3f"},"vehicle_type_id":"4","last_reported":1733757012,"current_range_meters":18000,"station_id":"ce4bhmp2rcd13ifvqgog","pricing_plan_id":"cebpf4jnsgd1na2vs0mg"},{"bike_id":"6f169c62-6893-48b0-ba06-c9fbf6b7d252","system_id":"levelo_inurba_marseille","lat":43.31708,"lon":5.37753,"is_reserved":false,"is_disabled":false,"rental_uris":{"android":"levelo://app?vid=6f169c62-6893-48b0-ba06-c9fbf6b7d252","ios":"levelo://app?vid=6f169c62-6893-48b0-ba06-c9fbf6b7d252"},"vehicle_type_id":"4","last_reported":1733757012,"current_range_meters":12400,"station_id":"ce4bgth2rcd13ifvqch0","pricing_plan_id":"cebpf4jnsgd1na2vs0mg"},{"bike_id":"f10c5e90-601b-4bd4-87e7-4cbb6a13a4fb","system_id":"levelo_inurba_marseille","lat":43.26123,"lon":5.39268,"is_reserved":false,"is_disabled":true,"rental_uris":{"android":"levelo://app?vid=f10c5e90-601b-4bd4-87e7-4cbb6a13a4fb","ios":"levelo://app?vid=f10c5e90-601b-4bd4-87e7-4cbb6a13a4fb"},"vehicle_type_id":"4","last_reported":1733757012,"current_range_meters":0,"station_id":"","pricing_plan_id":"cebpf4jnsgd1na2vs0mg"},{"bike_id":"c145c2e9-0a4e-41e0-9d50-02fa9b001e4f","system_id":"levelo_inurba_marseille","lat":43.30883,"lon":5.39643,"is_reserved":false,"is_disabled":false,"rental_uris":{"android":"levelo://app?vid=c145c2e9-0a4e-41e0-9d50-02fa9b001e4f","ios":"levelo://app?vid=c145c2e9-0a4e-41e0-9d50-02fa9b001e4f"},"vehicle_type_id":"4","last_reported":1733757012,"current_range_meters":11200,"station_id":"ce4bh012rcd13ifvqcv0","pricing_plan_id":"cebpf4jnsgd1na2vs0mg"},{"bike_id":"5722c212-2f4a-4661-8229-625f36a36a0a","system_id":"levelo_inurba_marseille","lat":43.29555,"lon":5.42294,"is_reserved":false,"is_disabled":false,"rental_uris":{"android":"levelo://app?vid=5722c212-2f4a-4661-8229-625f36a36a0a","ios":"levelo://app?vid=5722c212-2f4a-4661-8229-625f36a36a0a"},"vehicle_type_id":"4","last_reported":1733757012,"current_range_meters":36000,"station_id":"ce4bhph2rcd13ifvqhdg","pricing_plan_id":"cebpf4jnsgd1na2vs0mg"},{"bike_id":"a9c92845-55ae-4653-9c5d-606f306a0f38","system_id":"levelo_inurba_marseille","lat":43.27061,"lon":5.40275,"is_reserved":false,"is_disabled":false,"rental_uris":{"android":"levelo://app?vid=a9c92845-55ae-4653-9c5d-606f306a0f38","ios":"levelo://app?vid=a9c92845-55ae-4653-9c5d-606f306a0f38"},"vehicle_type_id":"4","last_reported":1733757012,"current_range_meters":36800,"station_id":"ce4bhk92rcd13ifvqgc0","pricing_plan_id":"cebpf4jnsgd1na2vs0mg"},{"bike_id":"14dfaea3-3caa-4290-bde0-ff2aefcdc7be","system_id":"levelo_inurba_marseille","lat":43.26802,"lon":5.40272,"is_reserved":false,"is_disabled":false,"rental_uris":{"android":"levelo://app?vid=14dfaea3-3caa-4290-bde0-ff2aefcdc7be","ios":"levelo://app?vid=14dfaea3-3caa-4290-bde0-ff2aefcdc7be"},"vehicle_type_id":"4","last_reported":1733757012,"current_range_meters":39200,"station_id":"ce501612rcd8frsf0b60","pricing_plan_id":"cebpf4jnsgd1na2vs0mg"},{"bike_id":"c1af07c0-ed11-49c8-aa2e-1104638a28b7","system_id":"levelo_inurba_marseille","lat":43.23067,"lon":5.35495,"is_reserved":false,"is_disabled":false,"rental_uris":{"android":"levelo://app?vid=c1af07c0-ed11-49c8-aa2e-1104638a28b7","ios":"levelo://app?vid=c1af07c0-ed11-49c8-aa2e-1104638a28b7"},"vehicle_type_id":"4","last_reported":1733757012,"current_range_meters":24400,"station_id":"cpo3342slgdg3j2ifvpg","pricing_plan_id":"cebpf4jnsgd1na2vs0mg"},{"bike_id":"e6de9baa-5915-4942-ae67-943de78501e4","system_id":"levelo_inurba_marseille","lat":43.26955,"lon":5.38633,"is_reserved":false,"is_disabled":false,"rental_uris":{"android":"levelo://app?vid=e6de9baa-5915-4942-ae67-943de78501e4","ios":"levelo://app?vid=e6de9baa-5915-4942-ae67-943de78501e4"},"vehicle_type_id":"4","last_reported":1733757012,"current_range_meters":9200,"station_id":"ce4bhh92rcd13ifvqfh0","pricing_plan_id":"cebpf4jnsgd1na2vs0mg"},{"bike_id":"572c5778-42b0-4989-ab10-b84da957cb3a","system_id":"levelo_inurba_marseille","lat":43.32337,"lon":5.40626,"is_reserved":false,"is_disabled":false,"rental_uris":{"android":"levelo://app?vid=572c5778-42b0-4989-ab10-b84da957cb3a","ios":"levelo://app?vid=572c5778-42b0-4989-ab10-b84da957cb3a"},"vehicle_type_id":"4","last_reported":1733757012,"current_range_meters":7200,"station_id":"ce4bhq92rcd13ifvqhjg","pricing_plan_id":"cebpf4jnsgd1na2vs0mg"},{"bike_id":"58c4a809-128a-4b73-86b2-6406fa5b615d","system_id":"levelo_inurba_marseille","lat":43.30527,"lon":5.36712,"is_reserved":false,"is_disabled":false,"rental_uris":{"android":"levelo://app?vid=58c4a809-128a-4b73-86b2-6406fa5b615d","ios":"levelo://app?vid=58c4a809-128a-4b73-86b2-6406fa5b615d"},"vehicle_type_id":"4","last_reported":1733757012,"current_range_meters":37600,"station_id":"ce4bgrp2rcd13ifvqc9g","pricing_plan_id":"cebpf4jnsgd1na2vs0mg"},{"bike_id":"6f5aafc4-06b9-4dba-b612-5d926167490b","system_id":"levelo_inurba_marseille","lat":43.32475,"lon":5.36574,"is_reserved":false,"is_disabled":true,"rental_uris":{"android":"levelo://app?vid=6f5aafc4-06b9-4dba-b612-5d926167490b","ios":"levelo://app?vid=6f5aafc4-06b9-4dba-b612-5d926167490b"},"vehicle_type_id":"4","last_reported":1733757012,"current_range_meters":800,"station_id":"ce4bhs12rcd13ifvqhvg","pricing_plan_id":"cebpf4jnsgd1na2vs0mg"},{"bike_id":"a317b9f2-2b13-4953-b645-3f6ad5a96173","system_id":"levelo_inurba_marseille","lat":43.29896,"lon":5.39737,"is_reserved":false,"is_disabled":false,"rental_uris":{"android":"levelo://app?vid=a317b9f2-2b13-4953-b645-3f6ad5a96173","ios":"levelo://app?vid=a317b9f2-2b13-4953-b645-3f6ad5a96173"},"vehicle_type_id":"4","last_reported":1733757012,"current_range_meters":24000,"station_id":"ce4bh0h2rcd13ifvqd50","pricing_plan_id":"cebpf4jnsgd1na2vs0mg"},{"bike_id":"74ddbdc3-b082-4f44-a075-38dfc2e6b2cd","system_id":"levelo_inurba_marseille","lat":43.2417,"lon":5.36392,"is_reserved":false,"is_disabled":false,"rental_uris":{"android":"levelo://app?vid=74ddbdc3-b082-4f44-a075-38dfc2e6b2cd","ios":"levelo://app?vid=74ddbdc3-b082-4f44-a075-38dfc2e6b2cd"},"vehicle_type_id":"4","last_reported":1733757012,"current_range_meters":26800,"station_id":"cpo36qri1sfpv3e86is0","pricing_plan_id":"cebpf4jnsgd1na2vs0mg"},{"bike_id":"6fc79ecd-cb77-4200-98be-79de5a53b20f","system_id":"levelo_inurba_marseille","lat":43.27627,"lon":5.36107,"is_reserved":false,"is_disabled":false,"rental_uris":{"android":"levelo://app?vid=6fc79ecd-cb77-4200-98be-79de5a53b20f","ios":"levelo://app?vid=6fc79ecd-cb77-4200-98be-79de5a53b20f"},"vehicle_type_id":"4","last_reported":1733757012,"current_range_meters":38800,"station_id":"ce4bgj92rcd13ifvqbe0","pricing_plan_id":"cebpf4jnsgd1na2vs0mg"},{"bike_id":"f942e722-5039-4601-9971-0207b150598d","system_id":"levelo_inurba_marseille","lat":43.29854,"lon":5.36294,"is_reserved":false,"is_disabled":false,"rental_uris":{"android":"levelo://app?vid=f942e722-5039-4601-9971-0207b150598d","ios":"levelo://app?vid=f942e722-5039-4601-9971-0207b150598d"},"vehicle_type_id":"4","last_reported":1733757012,"current_range_meters":18000,"station_id":"ce4bgpp2rcd13ifvqc3g","pricing_plan_id":"cebpf4jnsgd1na2vs0mg"},{"bike_id":"9cd79aab-6f4c-4919-b570-803a9e8b35c5","system_id":"levelo_inurba_marseille","lat":43.3047,"lon":5.36712,"is_reserved":false,"is_disabled":true,"rental_uris":{"android":"levelo://app?vid=9cd79aab-6f4c-4919-b570-803a9e8b35c5","ios":"levelo://app?vid=9cd79aab-6f4c-4919-b570-803a9e8b35c5"},"vehicle_type_id":"4","last_reported":1733757012,"current_range_meters":27600,"station_id":"","pricing_plan_id":"cebpf4jnsgd1na2vs0mg"},{"bike_id":"da5ceef1-8c6b-44ee-9a26-8deac252420c","system_id":"levelo_inurba_marseille","lat":43.27765,"lon":5.38807,"is_reserved":false,"is_disabled":false,"rental_uris":{"android":"levelo://app?vid=da5ceef1-8c6b-44ee-9a26-8deac252420c","ios":"levelo://app?vid=da5ceef1-8c6b-44ee-9a26-8deac252420c"},"vehicle_type_id":"4","last_reported":1733757012,"current_range_meters":36800,"station_id":"","pricing_plan_id":"cebpf4jnsgd1na2vs0mg"},{"bike_id":"4a74c10f-6658-453e-959b-726fe1311d20","system_id":"levelo_inurba_marseille","lat":43.30185,"lon":5.3742,"is_reserved":false,"is_disabled":false,"rental_uris":{"android":"levelo://app?vid=4a74c10f-6658-453e-959b-726fe1311d20","ios":"levelo://app?vid=4a74c10f-6658-453e-959b-726fe1311d20"},"vehicle_type_id":"4","last_reported":1733757012,"current_range_meters":38000,"station_id":"ce4bgs92rcd13ifvqcc0","pricing_plan_id":"cebpf4jnsgd1na2vs0mg"},{"bike_id":"cf80ef54-0b0f-4dfe-80d1-0c382470e0e9","system_id":"levelo_inurba_marseille","lat":43.250775,"lon":5.395393,"is_reserved":false,"is_disabled":false,"rental_uris":{"android":"levelo://app?vid=cf80ef54-0b0f-4dfe-80d1-0c382470e0e9","ios":"levelo://app?vid=cf80ef54-0b0f-4dfe-80d1-0c382470e0e9"},"vehicle_type_id":"4","last_reported":1733757012,"current_range_meters":18000,"station_id":"","pricing_plan_id":"cebpf4jnsgd1na2vs0mg"},{"bike_id":"165d3311-a977-4745-b689-5e6993d37f26","system_id":"levelo_inurba_marseille","lat":43.32456,"lon":5.366,"is_reserved":false,"is_disabled":false,"rental_uris":{"android":"levelo://app?vid=165d3311-a977-4745-b689-5e6993d37f26","ios":"levelo://app?vid=165d3311-a977-4745-b689-5e6993d37f26"},"vehicle_type_id":"4","last_reported":1733757012,"current_range_meters":38800,"station_id":"ce4bhs12rcd13ifvqhvg","pricing_plan_id":"cebpf4jnsgd1na2vs0mg"},{"bike_id":"9d9c1a04-bd28-4bff-a473-04f505b0524a","system_id":"levelo_inurba_marseille","lat":43.31364,"lon":5.36715,"is_reserved":false,"is_disabled":false,"rental_uris":{"android":"levelo://app?vid=9d9c1a04-bd28-4bff-a473-04f505b0524a","ios":"levelo://app?vid=9d9c1a04-bd28-4bff-a473-04f505b0524a"},"vehicle_type_id":"4","last_reported":1733757012,"current_range_meters":38800,"station_id":"ce4bgr92rcd13ifvqc6g","pricing_plan_id":"cebpf4jnsgd1na2vs0mg"},{"bike_id":"d60d77af-d2a2-4523-a959-21c6c85ba819","system_id":"levelo_inurba_marseille","lat":43.28154,"lon":5.4265,"is_reserved":false,"is_disabled":false,"rental_uris":{"android":"levelo://app?vid=d60d77af-d2a2-4523-a959-21c6c85ba819","ios":"levelo://app?vid=d60d77af-d2a2-4523-a959-21c6c85ba819"},"vehicle_type_id":"4","last_reported":1733757012,"current_range_meters":38800,"station_id":"ce4bhnh2rcd13ifvqgug","pricing_plan_id":"cebpf4jnsgd1na2vs0mg"},{"bike_id":"11e86528-eb6b-4391-86a5-9b1822d069a4","system_id":"levelo_inurba_marseille","lat":43.278805,"lon":5.388003,"is_reserved":false,"is_disabled":true,"rental_uris":{"android":"levelo://app?vid=11e86528-eb6b-4391-86a5-9b1822d069a4","ios":"levelo://app?vid=11e86528-eb6b-4391-86a5-9b1822d069a4"},"vehicle_type_id":"4","last_reported":1733757012,"current_range_meters":0,"station_id":"","pricing_plan_id":"cebpf4jnsgd1na2vs0mg"},{"bike_id":"6cc6805f-c0ca-4585-bdf1-b5a0339762b0","system_id":"levelo_inurba_marseille","lat":43.29027,"lon":5.42744,"is_reserved":false,"is_disabled":true,"rental_uris":{"android":"levelo://app?vid=6cc6805f-c0ca-4585-bdf1-b5a0339762b0","ios":"levelo://app?vid=6cc6805f-c0ca-4585-bdf1-b5a0339762b0"},"vehicle_type_id":"4","last_reported":1733757012,"current_range_meters":0,"station_id":"","pricing_plan_id":"cebpf4jnsgd1na2vs0mg"},{"bike_id":"7aa3caef-c95a-4420-9592-f99c80d4e6a4","system_id":"levelo_inurba_marseille","lat":43.29618,"lon":5.37729,"is_reserved":false,"is_disabled":false,"rental_uris":{"android":"levelo://app?vid=7aa3caef-c95a-4420-9592-f99c80d4e6a4","ios":"levelo://app?vid=7aa3caef-c95a-4420-9592-f99c80d4e6a4"},"vehicle_type_id":"4","last_reported":1733757012,"current_range_meters":34000,"station_id":"ce4bgi92rcd13ifvqb90","pricing_plan_id":"cebpf4jnsgd1na2vs0mg"},{"bike_id":"a478bcff-2af8-4db5-8351-cdbe6b849a6d","system_id":"levelo_inurba_marseille","lat":43.33412,"lon":5.36191,"is_reserved":false,"is_disabled":true,"rental_uris":{"android":"levelo://app?vid=a478bcff-2af8-4db5-8351-cdbe6b849a6d","ios":"levelo://app?vid=a478bcff-2af8-4db5-8351-cdbe6b849a6d"},"vehicle_type_id":"4","last_reported":1733757012,"current_range_meters":0,"station_id":"","pricing_plan_id":"cebpf4jnsgd1na2vs0mg"},{"bike_id":"2440e81f-3886-40b3-b6d4-787d4ce72a97","system_id":"levelo_inurba_marseille","lat":43.28269,"lon":5.35077,"is_reserved":false,"is_disabled":false,"rental_uris":{"android":"levelo://app?vid=2440e81f-3886-40b3-b6d4-787d4ce72a97","ios":"levelo://app?vid=2440e81f-3886-40b3-b6d4-787d4ce72a97"},"vehicle_type_id":"4","last_reported":1733757012,"current_range_meters":17200,"station_id":"ce4bhbp2rcd13ifvqerg","pricing_plan_id":"cebpf4jnsgd1na2vs0mg"},{"bike_id":"9e3eefc0-ca7f-4027-bed1-dd3b49f727fd","system_id":"levelo_inurba_marseille","lat":43.33822,"lon":5.37318,"is_reserved":false,"is_disabled":false,"rental_uris":{"android":"levelo://app?vid=9e3eefc0-ca7f-4027-bed1-dd3b49f727fd","ios":"levelo://app?vid=9e3eefc0-ca7f-4027-bed1-dd3b49f727fd"},"vehicle_type_id":"4","last_reported":1733757012,"current_range_meters":29600,"station_id":"","pricing_plan_id":"cebpf4jnsgd1na2vs0mg"},{"bike_id":"9f03dca4-237a-49dc-8f4b-3b6a07909c99","system_id":"levelo_inurba_marseille","lat":43.23196,"lon":5.35557,"is_reserved":false,"is_disabled":false,"rental_uris":{"android":"levelo://app?vid=9f03dca4-237a-49dc-8f4b-3b6a07909c99","ios":"levelo://app?vid=9f03dca4-237a-49dc-8f4b-3b6a07909c99"},"vehicle_type_id":"4","last_reported":1733757012,"current_range_meters":8000,"station_id":"ce4bhu92rcd13ifvqi70","pricing_plan_id":"cebpf4jnsgd1na2vs0mg"},{"bike_id":"b6fcd388-ab74-408f-9e17-a2445b649a56","system_id":"levelo_inurba_marseille","lat":43.284546,"lon":5.358919,"is_reserved":false,"is_disabled":false,"rental_uris":{"android":"levelo://app?vid=b6fcd388-ab74-408f-9e17-a2445b649a56","ios":"levelo://app?vid=b6fcd388-ab74-408f-9e17-a2445b649a56"},"vehicle_type_id":"4","last_reported":1733757012,"current_range_meters":22800,"station_id":"ce4bhah2rcd13ifvqei0","pricing_plan_id":"cebpf4jnsgd1na2vs0mg"},{"bike_id":"98443b3a-a3d9-479b-b597-6b61ecab3921","system_id":"levelo_inurba_marseille","lat":43.25818,"lon":5.39437,"is_reserved":false,"is_disabled":false,"rental_uris":{"android":"levelo://app?vid=98443b3a-a3d9-479b-b597-6b61ecab3921","ios":"levelo://app?vid=98443b3a-a3d9-479b-b597-6b61ecab3921"},"vehicle_type_id":"4","last_reported":1733757012,"current_range_meters":27200,"station_id":"ce4bhip2rcd13ifvqft0","pricing_plan_id":"cebpf4jnsgd1na2vs0mg"},{"bike_id":"5e63e027-5791-4fe6-8826-da14ce1c4fe3","system_id":"levelo_inurba_marseille","lat":43.29541,"lon":5.37506,"is_reserved":false,"is_disabled":false,"rental_uris":{"android":"levelo://app?vid=5e63e027-5791-4fe6-8826-da14ce1c4fe3","ios":"levelo://app?vid=5e63e027-5791-4fe6-8826-da14ce1c4fe3"},"vehicle_type_id":"4","last_reported":1733757012,"current_range_meters":27600,"station_id":"ce4bgt12rcd13ifvqcd0","pricing_plan_id":"cebpf4jnsgd1na2vs0mg"},{"bike_id":"1c7d0032-a32c-4438-b1d4-2f3714d2b0e9","system_id":"levelo_inurba_marseille","lat":43.26035,"lon":5.37553,"is_reserved":false,"is_disabled":false,"rental_uris":{"android":"levelo://app?vid=1c7d0032-a32c-4438-b1d4-2f3714d2b0e9","ios":"levelo://app?vid=1c7d0032-a32c-4438-b1d4-2f3714d2b0e9"},"vehicle_type_id":"4","last_reported":1733757012,"current_range_meters":6400,"station_id":"ce4bhgh2rcd13ifvqfa0","pricing_plan_id":"cebpf4jnsgd1na2vs0mg"},{"bike_id":"cf995f0f-a2d6-4303-85db-6d52c33aec36","system_id":"levelo_inurba_marseille","lat":43.33026,"lon":5.39042,"is_reserved":false,"is_disabled":false,"rental_uris":{"android":"levelo://app?vid=cf995f0f-a2d6-4303-85db-6d52c33aec36","ios":"levelo://app?vid=cf995f0f-a2d6-4303-85db-6d52c33aec36"},"vehicle_type_id":"4","last_reported":1733757012,"current_range_meters":38800,"station_id":"ce4bhr92rcd13ifvqhrg","pricing_plan_id":"cebpf4jnsgd1na2vs0mg"},{"bike_id":"cbf9c981-cbe9-407f-b4c6-5d2065d44b78","system_id":"levelo_inurba_marseille","lat":43.3302,"lon":5.39048,"is_reserved":false,"is_disabled":false,"rental_uris":{"android":"levelo://app?vid=cbf9c981-cbe9-407f-b4c6-5d2065d44b78","ios":"levelo://app?vid=cbf9c981-cbe9-407f-b4c6-5d2065d44b78"},"vehicle_type_id":"4","last_reported":1733757012,"current_range_meters":24400,"station_id":"ce4bhr92rcd13ifvqhrg","pricing_plan_id":"cebpf4jnsgd1na2vs0mg"},{"bike_id":"e301fb9b-fdcc-43a0-ab66-d6957eaeb5ee","system_id":"levelo_inurba_marseille","lat":43.23148,"lon":5.43721,"is_reserved":false,"is_disabled":false,"rental_uris":{"android":"levelo://app?vid=e301fb9b-fdcc-43a0-ab66-d6957eaeb5ee","ios":"levelo://app?vid=e301fb9b-fdcc-43a0-ab66-d6957eaeb5ee"},"vehicle_type_id":"4","last_reported":1733757012,"current_range_meters":38800,"station_id":"ce4bhmp2rcd13ifvqgog","pricing_plan_id":"cebpf4jnsgd1na2vs0mg"},{"bike_id":"243c0fa9-fb27-4111-81f0-175e30eaaaed","system_id":"levelo_inurba_marseille","lat":43.29042,"lon":5.35909,"is_reserved":false,"is_disabled":true,"rental_uris":{"android":"levelo://app?vid=243c0fa9-fb27-4111-81f0-175e30eaaaed","ios":"levelo://app?vid=243c0fa9-fb27-4111-81f0-175e30eaaaed"},"vehicle_type_id":"4","last_reported":1733757012,"current_range_meters":38800,"station_id":"ce4bha92rcd13ifvqeg0","pricing_plan_id":"cebpf4jnsgd1na2vs0mg"},{"bike_id":"06f146b7-8eba-4de1-8003-891d6866099f","system_id":"levelo_inurba_marseille","lat":43.3032,"lon":5.3691,"is_reserved":false,"is_disabled":false,"rental_uris":{"android":"levelo://app?vid=06f146b7-8eba-4de1-8003-891d6866099f","ios":"levelo://app?vid=06f146b7-8eba-4de1-8003-891d6866099f"},"vehicle_type_id":"4","last_reported":1733757012,"current_range_meters":38800,"station_id":"ce4bgqh2rcd13ifvqc5g","pricing_plan_id":"cebpf4jnsgd1na2vs0mg"},{"bike_id":"a873af9b-a353-4469-b239-adbb5bf5dc0d","system_id":"levelo_inurba_marseille","lat":43.25864,"lon":5.39905,"is_reserved":false,"is_disabled":false,"rental_uris":{"android":"levelo://app?vid=a873af9b-a353-4469-b239-adbb5bf5dc0d","ios":"levelo://app?vid=a873af9b-a353-4469-b239-adbb5bf5dc0d"},"vehicle_type_id":"4","last_reported":1733757012,"current_range_meters":39200,"station_id":"ce4bhl92rcd13ifvqghg","pricing_plan_id":"cebpf4jnsgd1na2vs0mg"},{"bike_id":"b00ac504-707a-4d2d-a2cc-7481e42d49ab","system_id":"levelo_inurba_marseille","lat":43.31078,"lon":5.38355,"is_reserved":false,"is_disabled":false,"rental_uris":{"android":"levelo://app?vid=b00ac504-707a-4d2d-a2cc-7481e42d49ab","ios":"levelo://app?vid=b00ac504-707a-4d2d-a2cc-7481e42d49ab"},"vehicle_type_id":"4","last_reported":1733757012,"current_range_meters":20000,"station_id":"ce4bgv92rcd13ifvqcr0","pricing_plan_id":"cebpf4jnsgd1na2vs0mg"},{"bike_id":"95b68163-8c31-4ce4-989b-0d594a1f53e9","system_id":"levelo_inurba_marseille","lat":43.29688,"lon":5.37244,"is_reserved":false,"is_disabled":false,"rental_uris":{"android":"levelo://app?vid=95b68163-8c31-4ce4-989b-0d594a1f53e9","ios":"levelo://app?vid=95b68163-8c31-4ce4-989b-0d594a1f53e9"},"vehicle_type_id":"4","last_reported":1733757012,"current_range_meters":27200,"station_id":"ce4bgk12rcd13ifvqbj0","pricing_plan_id":"cebpf4jnsgd1na2vs0mg"},{"bike_id":"7e7e2c01-b9db-4bac-b655-db643c11bef2","system_id":"levelo_inurba_marseille","lat":43.24083,"lon":5.37756,"is_reserved":false,"is_disabled":false,"rental_uris":{"android":"levelo://app?vid=7e7e2c01-b9db-4bac-b655-db643c11bef2","ios":"levelo://app?vid=7e7e2c01-b9db-4bac-b655-db643c11bef2"},"vehicle_type_id":"4","last_reported":1733757012,"current_range_meters":37600,"station_id":"ce4bhnp2rcd13ifvqgvg","pricing_plan_id":"cebpf4jnsgd1na2vs0mg"},{"bike_id":"dee14f88-654f-429b-b860-9005ac84b57a","system_id":"levelo_inurba_marseille","lat":43.30494,"lon":5.36636,"is_reserved":false,"is_disabled":false,"rental_uris":{"android":"levelo://app?vid=dee14f88-654f-429b-b860-9005ac84b57a","ios":"levelo://app?vid=dee14f88-654f-429b-b860-9005ac84b57a"},"vehicle_type_id":"4","last_reported":1733757012,"current_range_meters":17200,"station_id":"ce4bgrp2rcd13ifvqc9g","pricing_plan_id":"cebpf4jnsgd1na2vs0mg"},{"bike_id":"d8fa9091-4ff7-4827-bb6b-5137c129c53c","system_id":"levelo_inurba_marseille","lat":43.30312,"lon":5.36907,"is_reserved":false,"is_disabled":false,"rental_uris":{"android":"levelo://app?vid=d8fa9091-4ff7-4827-bb6b-5137c129c53c","ios":"levelo://app?vid=d8fa9091-4ff7-4827-bb6b-5137c129c53c"},"vehicle_type_id":"4","last_reported":1733757012,"current_range_meters":37600,"station_id":"ce4bgqh2rcd13ifvqc5g","pricing_plan_id":"cebpf4jnsgd1na2vs0mg"},{"bike_id":"e978c14e-9ae7-4268-82b9-8e6212ddd661","system_id":"levelo_inurba_marseille","lat":43.2455,"lon":5.39543,"is_reserved":false,"is_disabled":false,"rental_uris":{"android":"levelo://app?vid=e978c14e-9ae7-4268-82b9-8e6212ddd661","ios":"levelo://app?vid=e978c14e-9ae7-4268-82b9-8e6212ddd661"},"vehicle_type_id":"4","last_reported":1733757012,"current_range_meters":34000,"station_id":"ce4bhlp2rcd13ifvqgjg","pricing_plan_id":"cebpf4jnsgd1na2vs0mg"},{"bike_id":"8a3b90a9-b1cc-4628-83f4-2f9e628eccda","system_id":"levelo_inurba_marseille","lat":43.33025,"lon":5.39034,"is_reserved":false,"is_disabled":false,"rental_uris":{"android":"levelo://app?vid=8a3b90a9-b1cc-4628-83f4-2f9e628eccda","ios":"levelo://app?vid=8a3b90a9-b1cc-4628-83f4-2f9e628eccda"},"vehicle_type_id":"4","last_reported":1733757012,"current_range_meters":38800,"station_id":"ce4bhr92rcd13ifvqhrg","pricing_plan_id":"cebpf4jnsgd1na2vs0mg"},{"bike_id":"2e14ff18-3a06-4388-ad18-1e3f20ce59bb","system_id":"levelo_inurba_marseille","lat":43.30565,"lon":5.36528,"is_reserved":false,"is_disabled":false,"rental_uris":{"android":"levelo://app?vid=2e14ff18-3a06-4388-ad18-1e3f20ce59bb","ios":"levelo://app?vid=2e14ff18-3a06-4388-ad18-1e3f20ce59bb"},"vehicle_type_id":"4","last_reported":1733757012,"current_range_meters":24000,"station_id":"ce4bgs12rcd13ifvqcag","pricing_plan_id":"cebpf4jnsgd1na2vs0mg"},{"bike_id":"58d3480e-9a25-4142-9952-995aac0b5e71","system_id":"levelo_inurba_marseille","lat":43.30546,"lon":5.36542,"is_reserved":false,"is_disabled":false,"rental_uris":{"android":"levelo://app?vid=58d3480e-9a25-4142-9952-995aac0b5e71","ios":"levelo://app?vid=58d3480e-9a25-4142-9952-995aac0b5e71"},"vehicle_type_id":"4","last_reported":1733757012,"current_range_meters":36800,"station_id":"ce4bgs12rcd13ifvqcag","pricing_plan_id":"cebpf4jnsgd1na2vs0mg"},{"bike_id":"067d4f8e-eded-4040-9b89-eb14aebc4852","system_id":"levelo_inurba_marseille","lat":43.29899,"lon":5.43675,"is_reserved":false,"is_disabled":false,"rental_uris":{"android":"levelo://app?vid=067d4f8e-eded-4040-9b89-eb14aebc4852","ios":"levelo://app?vid=067d4f8e-eded-4040-9b89-eb14aebc4852"},"vehicle_type_id":"4","last_reported":1733757012,"current_range_meters":37600,"station_id":"ce4bhpp2rcd13ifvqhfg","pricing_plan_id":"cebpf4jnsgd1na2vs0mg"},{"bike_id":"07a32779-45b9-4f4d-b4c0-8b60b788696f","system_id":"levelo_inurba_marseille","lat":43.27184,"lon":5.40995,"is_reserved":false,"is_disabled":false,"rental_uris":{"android":"levelo://app?vid=07a32779-45b9-4f4d-b4c0-8b60b788696f","ios":"levelo://app?vid=07a32779-45b9-4f4d-b4c0-8b60b788696f"},"vehicle_type_id":"4","last_reported":1733757012,"current_range_meters":9200,"station_id":"ce4bhl12rcd13ifvqgf0","pricing_plan_id":"cebpf4jnsgd1na2vs0mg"},{"bike_id":"bcc4b2b2-49d9-45f1-9f29-e05e097e6ff2","system_id":"levelo_inurba_marseille","lat":43.26029,"lon":5.37552,"is_reserved":false,"is_disabled":false,"rental_uris":{"android":"levelo://app?vid=bcc4b2b2-49d9-45f1-9f29-e05e097e6ff2","ios":"levelo://app?vid=bcc4b2b2-49d9-45f1-9f29-e05e097e6ff2"},"vehicle_type_id":"4","last_reported":1733757012,"current_range_meters":38800,"station_id":"ce4bhgh2rcd13ifvqfa0","pricing_plan_id":"cebpf4jnsgd1na2vs0mg"},{"bike_id":"9f3769a7-f392-475e-913a-8ad10d3e2daf","system_id":"levelo_inurba_marseille","lat":43.24167,"lon":5.36396,"is_reserved":false,"is_disabled":false,"rental_uris":{"android":"levelo://app?vid=9f3769a7-f392-475e-913a-8ad10d3e2daf","ios":"levelo://app?vid=9f3769a7-f392-475e-913a-8ad10d3e2daf"},"vehicle_type_id":"4","last_reported":1733757012,"current_range_meters":20800,"station_id":"cpo36qri1sfpv3e86is0","pricing_plan_id":"cebpf4jnsgd1na2vs0mg"},{"bike_id":"75409cfc-16a7-451a-8647-ae81a200aff9","system_id":"levelo_inurba_marseille","lat":43.30547,"lon":5.38423,"is_reserved":false,"is_disabled":false,"rental_uris":{"android":"levelo://app?vid=75409cfc-16a7-451a-8647-ae81a200aff9","ios":"levelo://app?vid=75409cfc-16a7-451a-8647-ae81a200aff9"},"vehicle_type_id":"4","last_reported":1733757012,"current_range_meters":37600,"station_id":"ce4bgg92rcd13ifvqb30","pricing_plan_id":"cebpf4jnsgd1na2vs0mg"},{"bike_id":"e9a500fe-3355-4ecd-b717-e98ab3f32924","system_id":"levelo_inurba_marseille","lat":43.29782,"lon":5.37121,"is_reserved":false,"is_disabled":false,"rental_uris":{"android":"levelo://app?vid=e9a500fe-3355-4ecd-b717-e98ab3f32924","ios":"levelo://app?vid=e9a500fe-3355-4ecd-b717-e98ab3f32924"},"vehicle_type_id":"4","last_reported":1733757012,"current_range_meters":19600,"station_id":"ce4bgop2rcd13ifvqc1g","pricing_plan_id":"cebpf4jnsgd1na2vs0mg"},{"bike_id":"69aa3a0a-5721-46c5-9758-98476b5fa0cc","system_id":"levelo_inurba_marseille","lat":43.3249,"lon":5.36574,"is_reserved":false,"is_disabled":false,"rental_uris":{"android":"levelo://app?vid=69aa3a0a-5721-46c5-9758-98476b5fa0cc","ios":"levelo://app?vid=69aa3a0a-5721-46c5-9758-98476b5fa0cc"},"vehicle_type_id":"4","last_reported":1733757012,"current_range_meters":22000,"station_id":"ce4bhs12rcd13ifvqhvg","pricing_plan_id":"cebpf4jnsgd1na2vs0mg"},{"bike_id":"e3494c2d-fb2c-4ed1-872d-74059733c7c0","system_id":"levelo_inurba_marseille","lat":43.31358,"lon":5.3849,"is_reserved":false,"is_disabled":false,"rental_uris":{"android":"levelo://app?vid=e3494c2d-fb2c-4ed1-872d-74059733c7c0","ios":"levelo://app?vid=e3494c2d-fb2c-4ed1-872d-74059733c7c0"},"vehicle_type_id":"4","last_reported":1733757012,"current_range_meters":29600,"station_id":"ce4bgt92rcd13ifvqcf0","pricing_plan_id":"cebpf4jnsgd1na2vs0mg"},{"bike_id":"456ee3e2-7425-4120-bc59-2e964fa693a8","system_id":"levelo_inurba_marseille","lat":43.24388,"lon":5.37066,"is_reserved":false,"is_disabled":false,"rental_uris":{"android":"levelo://app?vid=456ee3e2-7425-4120-bc59-2e964fa693a8","ios":"levelo://app?vid=456ee3e2-7425-4120-bc59-2e964fa693a8"},"vehicle_type_id":"4","last_reported":1733757012,"current_range_meters":38800,"station_id":"ce4bhhh2rcd13ifvqfk0","pricing_plan_id":"cebpf4jnsgd1na2vs0mg"},{"bike_id":"72c4fef4-a24f-46ce-817f-5a01077f257b","system_id":"levelo_inurba_marseille","lat":43.32652,"lon":5.41002,"is_reserved":false,"is_disabled":false,"rental_uris":{"android":"levelo://app?vid=72c4fef4-a24f-46ce-817f-5a01077f257b","ios":"levelo://app?vid=72c4fef4-a24f-46ce-817f-5a01077f257b"},"vehicle_type_id":"4","last_reported":1733757012,"current_range_meters":37600,"station_id":"ce4bhpp2rcd13ifvqhgg","pricing_plan_id":"cebpf4jnsgd1na2vs0mg"},{"bike_id":"dd752027-199c-4884-b13c-712908e512e0","system_id":"levelo_inurba_marseille","lat":43.30521,"lon":5.36535,"is_reserved":false,"is_disabled":false,"rental_uris":{"android":"levelo://app?vid=dd752027-199c-4884-b13c-712908e512e0","ios":"levelo://app?vid=dd752027-199c-4884-b13c-712908e512e0"},"vehicle_type_id":"4","last_reported":1733757012,"current_range_meters":23200,"station_id":"","pricing_plan_id":"cebpf4jnsgd1na2vs0mg"},{"bike_id":"25a20b03-9830-4773-bc6b-d425633d2c5c","system_id":"levelo_inurba_marseille","lat":43.24767,"lon":5.40027,"is_reserved":false,"is_disabled":true,"rental_uris":{"android":"levelo://app?vid=25a20b03-9830-4773-bc6b-d425633d2c5c","ios":"levelo://app?vid=25a20b03-9830-4773-bc6b-d425633d2c5c"},"vehicle_type_id":"4","last_reported":1733757012,"current_range_meters":0,"station_id":"","pricing_plan_id":"cebpf4jnsgd1na2vs0mg"},{"bike_id":"efdd1913-d271-4b72-ab6a-5e6b7025f30f","system_id":"levelo_inurba_marseille","lat":43.288479,"lon":5.393129,"is_reserved":false,"is_disabled":false,"rental_uris":{"android":"levelo://app?vid=efdd1913-d271-4b72-ab6a-5e6b7025f30f","ios":"levelo://app?vid=efdd1913-d271-4b72-ab6a-5e6b7025f30f"},"vehicle_type_id":"4","last_reported":1733757012,"current_range_meters":22000,"station_id":"ce4bh2p2rcd13ifvqdi0","pricing_plan_id":"cebpf4jnsgd1na2vs0mg"},{"bike_id":"63820380-4acb-4e3f-adbe-2101a86cc825","system_id":"levelo_inurba_marseille","lat":43.26212,"lon":5.37445,"is_reserved":false,"is_disabled":false,"rental_uris":{"android":"levelo://app?vid=63820380-4acb-4e3f-adbe-2101a86cc825","ios":"levelo://app?vid=63820380-4acb-4e3f-adbe-2101a86cc825"},"vehicle_type_id":"4","last_reported":1733757012,"current_range_meters":9600,"station_id":"ce4bhgp2rcd13ifvqfc0","pricing_plan_id":"cebpf4jnsgd1na2vs0mg"},{"bike_id":"b6f91b02-00dc-40fe-a6f7-a1093bca2b27","system_id":"levelo_inurba_marseille","lat":43.31759,"lon":5.39015,"is_reserved":false,"is_disabled":false,"rental_uris":{"android":"levelo://app?vid=b6f91b02-00dc-40fe-a6f7-a1093bca2b27","ios":"levelo://app?vid=b6f91b02-00dc-40fe-a6f7-a1093bca2b27"},"vehicle_type_id":"4","last_reported":1733757012,"current_range_meters":30800,"station_id":"ce4bhqp2rcd13ifvqhng","pricing_plan_id":"cebpf4jnsgd1na2vs0mg"},{"bike_id":"5b12f922-6222-47fb-ae78-59699c21ac38","system_id":"levelo_inurba_marseille","lat":43.30902,"lon":5.39648,"is_reserved":false,"is_disabled":false,"rental_uris":{"android":"levelo://app?vid=5b12f922-6222-47fb-ae78-59699c21ac38","ios":"levelo://app?vid=5b12f922-6222-47fb-ae78-59699c21ac38"},"vehicle_type_id":"4","last_reported":1733757012,"current_range_meters":38800,"station_id":"ce4bh012rcd13ifvqcv0","pricing_plan_id":"cebpf4jnsgd1na2vs0mg"},{"bike_id":"b497ad4d-1643-419c-aba6-8e8a5474d77a","system_id":"levelo_inurba_marseille","lat":43.29897,"lon":5.4367,"is_reserved":false,"is_disabled":false,"rental_uris":{"android":"levelo://app?vid=b497ad4d-1643-419c-aba6-8e8a5474d77a","ios":"levelo://app?vid=b497ad4d-1643-419c-aba6-8e8a5474d77a"},"vehicle_type_id":"4","last_reported":1733757012,"current_range_meters":38800,"station_id":"ce4bhpp2rcd13ifvqhfg","pricing_plan_id":"cebpf4jnsgd1na2vs0mg"},{"bike_id":"e70de448-ab7e-4114-a786-19b9831c2c9b","system_id":"levelo_inurba_marseille","lat":43.23151,"lon":5.43718,"is_reserved":false,"is_disabled":false,"rental_uris":{"android":"levelo://app?vid=e70de448-ab7e-4114-a786-19b9831c2c9b","ios":"levelo://app?vid=e70de448-ab7e-4114-a786-19b9831c2c9b"},"vehicle_type_id":"4","last_reported":1733757012,"current_range_meters":3600,"station_id":"ce4bhmp2rcd13ifvqgog","pricing_plan_id":"cebpf4jnsgd1na2vs0mg"},{"bike_id":"7f289e2c-5867-49ec-974d-f9a8282bd488","system_id":"levelo_inurba_marseille","lat":43.309,"lon":5.37195,"is_reserved":false,"is_disabled":false,"rental_uris":{"android":"levelo://app?vid=7f289e2c-5867-49ec-974d-f9a8282bd488","ios":"levelo://app?vid=7f289e2c-5867-49ec-974d-f9a8282bd488"},"vehicle_type_id":"4","last_reported":1733757012,"current_range_meters":8000,"station_id":"ce4bguh2rcd13ifvqckg","pricing_plan_id":"cebpf4jnsgd1na2vs0mg"},{"bike_id":"5ccaf397-7765-4c3c-a45f-c7dac238bfda","system_id":"levelo_inurba_marseille","lat":43.28943,"lon":5.36386,"is_reserved":false,"is_disabled":false,"rental_uris":{"android":"levelo://app?vid=5ccaf397-7765-4c3c-a45f-c7dac238bfda","ios":"levelo://app?vid=5ccaf397-7765-4c3c-a45f-c7dac238bfda"},"vehicle_type_id":"4","last_reported":1733757012,"current_range_meters":16400,"station_id":"ce4bhc92rcd13ifvqetg","pricing_plan_id":"cebpf4jnsgd1na2vs0mg"},{"bike_id":"397c4812-c389-435b-a4e0-b6d67630abff","system_id":"levelo_inurba_marseille","lat":43.270912,"lon":5.423151,"is_reserved":false,"is_disabled":false,"rental_uris":{"android":"levelo://app?vid=397c4812-c389-435b-a4e0-b6d67630abff","ios":"levelo://app?vid=397c4812-c389-435b-a4e0-b6d67630abff"},"vehicle_type_id":"4","last_reported":1733757012,"current_range_meters":32400,"station_id":"ce4bhk92rcd13ifvqgb0","pricing_plan_id":"cebpf4jnsgd1na2vs0mg"},{"bike_id":"32389338-5494-4add-865d-3982018eb560","system_id":"levelo_inurba_marseille","lat":43.29934,"lon":5.36559,"is_reserved":false,"is_disabled":false,"rental_uris":{"android":"levelo://app?vid=32389338-5494-4add-865d-3982018eb560","ios":"levelo://app?vid=32389338-5494-4add-865d-3982018eb560"},"vehicle_type_id":"4","last_reported":1733757012,"current_range_meters":9600,"station_id":"ce4bgm92rcd13ifvqbr0","pricing_plan_id":"cebpf4jnsgd1na2vs0mg"},{"bike_id":"c001503d-445d-451d-96ee-27a6adac4432","system_id":"levelo_inurba_marseille","lat":43.30307,"lon":5.36914,"is_reserved":false,"is_disabled":false,"rental_uris":{"android":"levelo://app?vid=c001503d-445d-451d-96ee-27a6adac4432","ios":"levelo://app?vid=c001503d-445d-451d-96ee-27a6adac4432"},"vehicle_type_id":"4","last_reported":1733757012,"current_range_meters":27600,"station_id":"ce4bgqh2rcd13ifvqc5g","pricing_plan_id":"cebpf4jnsgd1na2vs0mg"},{"bike_id":"a0bc6083-92c2-46da-9b9f-ff54d5d5607b","system_id":"levelo_inurba_marseille","lat":43.24649,"lon":5.38905,"is_reserved":false,"is_disabled":false,"rental_uris":{"android":"levelo://app?vid=a0bc6083-92c2-46da-9b9f-ff54d5d5607b","ios":"levelo://app?vid=a0bc6083-92c2-46da-9b9f-ff54d5d5607b"},"vehicle_type_id":"4","last_reported":1733757012,"current_range_meters":38800,"station_id":"ce4bhg12rcd13ifvqf60","pricing_plan_id":"cebpf4jnsgd1na2vs0mg"},{"bike_id":"3f2dd704-495c-4e08-9abd-efedf80db39b","system_id":"levelo_inurba_marseille","lat":43.2928,"lon":5.38465,"is_reserved":false,"is_disabled":false,"rental_uris":{"android":"levelo://app?vid=3f2dd704-495c-4e08-9abd-efedf80db39b","ios":"levelo://app?vid=3f2dd704-495c-4e08-9abd-efedf80db39b"},"vehicle_type_id":"4","last_reported":1733757012,"current_range_meters":26000,"station_id":"ce4bh692rcd13ifvqea0","pricing_plan_id":"cebpf4jnsgd1na2vs0mg"},{"bike_id":"a8d222d0-6e97-4ae6-aab0-d442e3366861","system_id":"levelo_inurba_marseille","lat":43.31075,"lon":5.38357,"is_reserved":false,"is_disabled":false,"rental_uris":{"android":"levelo://app?vid=a8d222d0-6e97-4ae6-aab0-d442e3366861","ios":"levelo://app?vid=a8d222d0-6e97-4ae6-aab0-d442e3366861"},"vehicle_type_id":"4","last_reported":1733757012,"current_range_meters":38800,"station_id":"ce4bgv92rcd13ifvqcr0","pricing_plan_id":"cebpf4jnsgd1na2vs0mg"},{"bike_id":"164e9187-d062-4b2c-958c-fc211ef48d7a","system_id":"levelo_inurba_marseille","lat":43.24181,"lon":5.39734,"is_reserved":false,"is_disabled":false,"rental_uris":{"android":"levelo://app?vid=164e9187-d062-4b2c-958c-fc211ef48d7a","ios":"levelo://app?vid=164e9187-d062-4b2c-958c-fc211ef48d7a"},"vehicle_type_id":"4","last_reported":1733757012,"current_range_meters":8000,"station_id":"ce4bhn12rcd13ifvqgpg","pricing_plan_id":"cebpf4jnsgd1na2vs0mg"},{"bike_id":"e3650a39-7faf-4bef-874a-053482a93766","system_id":"levelo_inurba_marseille","lat":43.29725,"lon":5.37691,"is_reserved":false,"is_disabled":true,"rental_uris":{"android":"levelo://app?vid=e3650a39-7faf-4bef-874a-053482a93766","ios":"levelo://app?vid=e3650a39-7faf-4bef-874a-053482a93766"},"vehicle_type_id":"4","last_reported":1733757012,"current_range_meters":30800,"station_id":"ce4bgkh2rcd13ifvqbl0","pricing_plan_id":"cebpf4jnsgd1na2vs0mg"},{"bike_id":"ac62c938-f3c0-424f-becf-4024fa83d194","system_id":"levelo_inurba_marseille","lat":43.30908,"lon":5.36849,"is_reserved":false,"is_disabled":false,"rental_uris":{"android":"levelo://app?vid=ac62c938-f3c0-424f-becf-4024fa83d194","ios":"levelo://app?vid=ac62c938-f3c0-424f-becf-4024fa83d194"},"vehicle_type_id":"4","last_reported":1733757012,"current_range_meters":38800,"station_id":"ce4bgn92rcd13ifvqbvg","pricing_plan_id":"cebpf4jnsgd1na2vs0mg"},{"bike_id":"e652bd0e-f25c-4f49-88d2-3023d62cd5aa","system_id":"levelo_inurba_marseille","lat":43.295892,"lon":5.37506,"is_reserved":false,"is_disabled":true,"rental_uris":{"android":"levelo://app?vid=e652bd0e-f25c-4f49-88d2-3023d62cd5aa","ios":"levelo://app?vid=e652bd0e-f25c-4f49-88d2-3023d62cd5aa"},"vehicle_type_id":"4","last_reported":1733757012,"current_range_meters":0,"station_id":"","pricing_plan_id":"cebpf4jnsgd1na2vs0mg"},{"bike_id":"fe5707ac-071f-4824-98b8-d6b028bc38f8","system_id":"levelo_inurba_marseille","lat":43.25868,"lon":5.39906,"is_reserved":false,"is_disabled":false,"rental_uris":{"android":"levelo://app?vid=fe5707ac-071f-4824-98b8-d6b028bc38f8","ios":"levelo://app?vid=fe5707ac-071f-4824-98b8-d6b028bc38f8"},"vehicle_type_id":"4","last_reported":1733757012,"current_range_meters":32000,"station_id":"ce4bhl92rcd13ifvqghg","pricing_plan_id":"cebpf4jnsgd1na2vs0mg"},{"bike_id":"50f52497-54ca-47ea-a19e-1fc86f8c6045","system_id":"levelo_inurba_marseille","lat":43.28236,"lon":5.42411,"is_reserved":false,"is_disabled":true,"rental_uris":{"android":"levelo://app?vid=50f52497-54ca-47ea-a19e-1fc86f8c6045","ios":"levelo://app?vid=50f52497-54ca-47ea-a19e-1fc86f8c6045"},"vehicle_type_id":"4","last_reported":1733757012,"current_range_meters":8400,"station_id":"","pricing_plan_id":"cebpf4jnsgd1na2vs0mg"},{"bike_id":"752f0fcf-d3c3-41e2-a1e9-51894dcb343a","system_id":"levelo_inurba_marseille","lat":43.232,"lon":5.35556,"is_reserved":false,"is_disabled":false,"rental_uris":{"android":"levelo://app?vid=752f0fcf-d3c3-41e2-a1e9-51894dcb343a","ios":"levelo://app?vid=752f0fcf-d3c3-41e2-a1e9-51894dcb343a"},"vehicle_type_id":"4","last_reported":1733757012,"current_range_meters":18800,"station_id":"ce4bhu92rcd13ifvqi70","pricing_plan_id":"cebpf4jnsgd1na2vs0mg"},{"bike_id":"561f1b87-0f16-45bb-9060-6ce7723ae9e8","system_id":"levelo_inurba_marseille","lat":43.26948,"lon":5.40244,"is_reserved":false,"is_disabled":false,"rental_uris":{"android":"levelo://app?vid=561f1b87-0f16-45bb-9060-6ce7723ae9e8","ios":"levelo://app?vid=561f1b87-0f16-45bb-9060-6ce7723ae9e8"},"vehicle_type_id":"4","last_reported":1733757012,"current_range_meters":37600,"station_id":"cjm6bp8fraef2m0cb0m0","pricing_plan_id":"cebpf4jnsgd1na2vs0mg"},{"bike_id":"5fdd27f7-11e2-4d7e-a1f4-c3aea6418467","system_id":"levelo_inurba_marseille","lat":43.30304,"lon":5.36918,"is_reserved":false,"is_disabled":true,"rental_uris":{"android":"levelo://app?vid=5fdd27f7-11e2-4d7e-a1f4-c3aea6418467","ios":"levelo://app?vid=5fdd27f7-11e2-4d7e-a1f4-c3aea6418467"},"vehicle_type_id":"4","last_reported":1733757012,"current_range_meters":3600,"station_id":"ce4bgqh2rcd13ifvqc5g","pricing_plan_id":"cebpf4jnsgd1na2vs0mg"},{"bike_id":"33f1a526-a5a3-4261-b1e0-d90c46ff918d","system_id":"levelo_inurba_marseille","lat":43.28151,"lon":5.42643,"is_reserved":false,"is_disabled":true,"rental_uris":{"android":"levelo://app?vid=33f1a526-a5a3-4261-b1e0-d90c46ff918d","ios":"levelo://app?vid=33f1a526-a5a3-4261-b1e0-d90c46ff918d"},"vehicle_type_id":"4","last_reported":1733757012,"current_range_meters":20800,"station_id":"ce4bhnh2rcd13ifvqgug","pricing_plan_id":"cebpf4jnsgd1na2vs0mg"},{"bike_id":"1783fba0-70c9-4706-b656-b17a1d709bf6","system_id":"levelo_inurba_marseille","lat":43.32054,"lon":5.41563,"is_reserved":false,"is_disabled":false,"rental_uris":{"android":"levelo://app?vid=1783fba0-70c9-4706-b656-b17a1d709bf6","ios":"levelo://app?vid=1783fba0-70c9-4706-b656-b17a1d709bf6"},"vehicle_type_id":"4","last_reported":1733757012,"current_range_meters":19600,"station_id":"ce4bhq92rcd13ifvqhkg","pricing_plan_id":"cebpf4jnsgd1na2vs0mg"},{"bike_id":"35b35a3b-0c94-4085-bb82-d520e508896a","system_id":"levelo_inurba_marseille","lat":43.24647,"lon":5.38891,"is_reserved":false,"is_disabled":false,"rental_uris":{"android":"levelo://app?vid=35b35a3b-0c94-4085-bb82-d520e508896a","ios":"levelo://app?vid=35b35a3b-0c94-4085-bb82-d520e508896a"},"vehicle_type_id":"4","last_reported":1733757012,"current_range_meters":34800,"station_id":"ce4bhg12rcd13ifvqf60","pricing_plan_id":"cebpf4jnsgd1na2vs0mg"},{"bike_id":"7a4906a1-5c5d-4015-a938-b321734c55fa","system_id":"levelo_inurba_marseille","lat":43.29958,"lon":5.41326,"is_reserved":false,"is_disabled":false,"rental_uris":{"android":"levelo://app?vid=7a4906a1-5c5d-4015-a938-b321734c55fa","ios":"levelo://app?vid=7a4906a1-5c5d-4015-a938-b321734c55fa"},"vehicle_type_id":"4","last_reported":1733757012,"current_range_meters":24400,"station_id":"ce4bhp12rcd13ifvqh9g","pricing_plan_id":"cebpf4jnsgd1na2vs0mg"},{"bike_id":"71ea5e04-b05b-42b1-8dc5-ccc92493365e","system_id":"levelo_inurba_marseille","lat":43.26376,"lon":5.37762,"is_reserved":false,"is_disabled":false,"rental_uris":{"android":"levelo://app?vid=71ea5e04-b05b-42b1-8dc5-ccc92493365e","ios":"levelo://app?vid=71ea5e04-b05b-42b1-8dc5-ccc92493365e"},"vehicle_type_id":"4","last_reported":1733757012,"current_range_meters":19200,"station_id":"ce4bhgh2rcd13ifvqfb0","pricing_plan_id":"cebpf4jnsgd1na2vs0mg"},{"bike_id":"eb8310ef-a487-4124-b4c5-0b74b37f91b5","system_id":"levelo_inurba_marseille","lat":43.2868,"lon":5.37389,"is_reserved":false,"is_disabled":false,"rental_uris":{"android":"levelo://app?vid=eb8310ef-a487-4124-b4c5-0b74b37f91b5","ios":"levelo://app?vid=eb8310ef-a487-4124-b4c5-0b74b37f91b5"},"vehicle_type_id":"4","last_reported":1733757012,"current_range_meters":19200,"station_id":"ce4bh3p2rcd13ifvqdq0","pricing_plan_id":"cebpf4jnsgd1na2vs0mg"},{"bike_id":"1cfccd2a-f1bc-49d0-9613-fb06bc8d19f4","system_id":"levelo_inurba_marseille","lat":43.31268,"lon":5.40175,"is_reserved":false,"is_disabled":false,"rental_uris":{"android":"levelo://app?vid=1cfccd2a-f1bc-49d0-9613-fb06bc8d19f4","ios":"levelo://app?vid=1cfccd2a-f1bc-49d0-9613-fb06bc8d19f4"},"vehicle_type_id":"4","last_reported":1733757012,"current_range_meters":26000,"station_id":"ce4bh092rcd13ifvqd30","pricing_plan_id":"cebpf4jnsgd1na2vs0mg"},{"bike_id":"f5bcf496-cf88-4f5d-954a-bc2546eb8c5f","system_id":"levelo_inurba_marseille","lat":43.27207,"lon":5.39188,"is_reserved":false,"is_disabled":false,"rental_uris":{"android":"levelo://app?vid=f5bcf496-cf88-4f5d-954a-bc2546eb8c5f","ios":"levelo://app?vid=f5bcf496-cf88-4f5d-954a-bc2546eb8c5f"},"vehicle_type_id":"4","last_reported":1733757012,"current_range_meters":38400,"station_id":"ce4bhhp2rcd13ifvqfm0","pricing_plan_id":"cebpf4jnsgd1na2vs0mg"},{"bike_id":"ac3858f4-4179-4fef-a133-d553fcaf3557","system_id":"levelo_inurba_marseille","lat":43.26942,"lon":5.40241,"is_reserved":false,"is_disabled":false,"rental_uris":{"android":"levelo://app?vid=ac3858f4-4179-4fef-a133-d553fcaf3557","ios":"levelo://app?vid=ac3858f4-4179-4fef-a133-d553fcaf3557"},"vehicle_type_id":"4","last_reported":1733757012,"current_range_meters":32000,"station_id":"cjm6bp8fraef2m0cb0m0","pricing_plan_id":"cebpf4jnsgd1na2vs0mg"},{"bike_id":"2defea5f-0297-40c0-9a5d-c2567f96be84","system_id":"levelo_inurba_marseille","lat":43.28959,"lon":5.37834,"is_reserved":false,"is_disabled":false,"rental_uris":{"android":"levelo://app?vid=2defea5f-0297-40c0-9a5d-c2567f96be84","ios":"levelo://app?vid=2defea5f-0297-40c0-9a5d-c2567f96be84"},"vehicle_type_id":"4","last_reported":1733757012,"current_range_meters":38000,"station_id":"ce4bh9p2rcd13ifvqed0","pricing_plan_id":"cebpf4jnsgd1na2vs0mg"},{"bike_id":"5ac1c430-b416-4d56-8a0b-c67b5e80ba2c","system_id":"levelo_inurba_marseille","lat":43.23151,"lon":5.43711,"is_reserved":false,"is_disabled":false,"rental_uris":{"android":"levelo://app?vid=5ac1c430-b416-4d56-8a0b-c67b5e80ba2c","ios":"levelo://app?vid=5ac1c430-b416-4d56-8a0b-c67b5e80ba2c"},"vehicle_type_id":"4","last_reported":1733757012,"current_range_meters":38800,"station_id":"ce4bhmp2rcd13ifvqgog","pricing_plan_id":"cebpf4jnsgd1na2vs0mg"},{"bike_id":"1753d579-1f4a-4360-a337-133f34de2742","system_id":"levelo_inurba_marseille","lat":43.29788,"lon":5.38123,"is_reserved":false,"is_disabled":false,"rental_uris":{"android":"levelo://app?vid=1753d579-1f4a-4360-a337-133f34de2742","ios":"levelo://app?vid=1753d579-1f4a-4360-a337-133f34de2742"},"vehicle_type_id":"4","last_reported":1733757012,"current_range_meters":38800,"station_id":"ce4bgip2rcd13ifvqbb0","pricing_plan_id":"cebpf4jnsgd1na2vs0mg"},{"bike_id":"d690ff18-9f99-416e-a940-d3fab5b9163c","system_id":"levelo_inurba_marseille","lat":43.22929,"lon":5.35381,"is_reserved":false,"is_disabled":false,"rental_uris":{"android":"levelo://app?vid=d690ff18-9f99-416e-a940-d3fab5b9163c","ios":"levelo://app?vid=d690ff18-9f99-416e-a940-d3fab5b9163c"},"vehicle_type_id":"4","last_reported":1733757012,"current_range_meters":38800,"station_id":"cpo3532slgdg3j2ikp40","pricing_plan_id":"cebpf4jnsgd1na2vs0mg"},{"bike_id":"4ad1fa6f-5f0d-4cea-b528-04df9e718c9c","system_id":"levelo_inurba_marseille","lat":43.28416,"lon":5.34984,"is_reserved":false,"is_disabled":false,"rental_uris":{"android":"levelo://app?vid=4ad1fa6f-5f0d-4cea-b528-04df9e718c9c","ios":"levelo://app?vid=4ad1fa6f-5f0d-4cea-b528-04df9e718c9c"},"vehicle_type_id":"4","last_reported":1733757012,"current_range_meters":35600,"station_id":"ce4bhbh2rcd13ifvqepg","pricing_plan_id":"cebpf4jnsgd1na2vs0mg"},{"bike_id":"d43e5ea8-13b0-4ee3-b5ea-caee40935a00","system_id":"levelo_inurba_marseille","lat":43.27177,"lon":5.40994,"is_reserved":false,"is_disabled":false,"rental_uris":{"android":"levelo://app?vid=d43e5ea8-13b0-4ee3-b5ea-caee40935a00","ios":"levelo://app?vid=d43e5ea8-13b0-4ee3-b5ea-caee40935a00"},"vehicle_type_id":"4","last_reported":1733757012,"current_range_meters":8000,"station_id":"ce4bhl12rcd13ifvqgf0","pricing_plan_id":"cebpf4jnsgd1na2vs0mg"},{"bike_id":"5260ced4-7564-448d-9818-7245cb224691","system_id":"levelo_inurba_marseille","lat":43.27627,"lon":5.36136,"is_reserved":false,"is_disabled":false,"rental_uris":{"android":"levelo://app?vid=5260ced4-7564-448d-9818-7245cb224691","ios":"levelo://app?vid=5260ced4-7564-448d-9818-7245cb224691"},"vehicle_type_id":"4","last_reported":1733757012,"current_range_meters":36400,"station_id":"ce4bgj92rcd13ifvqbe0","pricing_plan_id":"cebpf4jnsgd1na2vs0mg"},{"bike_id":"69f4abbd-69bf-47bb-b510-ac0c12790c0a","system_id":"levelo_inurba_marseille","lat":43.2994,"lon":5.3654,"is_reserved":false,"is_disabled":false,"rental_uris":{"android":"levelo://app?vid=69f4abbd-69bf-47bb-b510-ac0c12790c0a","ios":"levelo://app?vid=69f4abbd-69bf-47bb-b510-ac0c12790c0a"},"vehicle_type_id":"4","last_reported":1733757012,"current_range_meters":36400,"station_id":"ce4bgm92rcd13ifvqbr0","pricing_plan_id":"cebpf4jnsgd1na2vs0mg"},{"bike_id":"8e766961-b1a3-4bbf-a869-0bba2fd77e59","system_id":"levelo_inurba_marseille","lat":43.31989,"lon":5.3816,"is_reserved":false,"is_disabled":false,"rental_uris":{"android":"levelo://app?vid=8e766961-b1a3-4bbf-a869-0bba2fd77e59","ios":"levelo://app?vid=8e766961-b1a3-4bbf-a869-0bba2fd77e59"},"vehicle_type_id":"4","last_reported":1733757012,"current_range_meters":39200,"station_id":"ce4bhr12rcd13ifvqhpg","pricing_plan_id":"cebpf4jnsgd1na2vs0mg"},{"bike_id":"eb4e32cd-a02d-4e92-a013-1fdc0dd71ccb","system_id":"levelo_inurba_marseille","lat":43.324799,"lon":5.365716,"is_reserved":false,"is_disabled":true,"rental_uris":{"android":"levelo://app?vid=eb4e32cd-a02d-4e92-a013-1fdc0dd71ccb","ios":"levelo://app?vid=eb4e32cd-a02d-4e92-a013-1fdc0dd71ccb"},"vehicle_type_id":"4","last_reported":1733757012,"current_range_meters":0,"station_id":"","pricing_plan_id":"cebpf4jnsgd1na2vs0mg"},{"bike_id":"ad24f16e-2206-4a3c-9b57-73b59ffe17ba","system_id":"levelo_inurba_marseille","lat":43.24167,"lon":5.36391,"is_reserved":false,"is_disabled":false,"rental_uris":{"android":"levelo://app?vid=ad24f16e-2206-4a3c-9b57-73b59ffe17ba","ios":"levelo://app?vid=ad24f16e-2206-4a3c-9b57-73b59ffe17ba"},"vehicle_type_id":"4","last_reported":1733757012,"current_range_meters":38800,"station_id":"cpo36qri1sfpv3e86is0","pricing_plan_id":"cebpf4jnsgd1na2vs0mg"},{"bike_id":"7606c5e4-e2ef-447a-8654-33cb9f391431","system_id":"levelo_inurba_marseille","lat":43.24078,"lon":5.37762,"is_reserved":false,"is_disabled":false,"rental_uris":{"android":"levelo://app?vid=7606c5e4-e2ef-447a-8654-33cb9f391431","ios":"levelo://app?vid=7606c5e4-e2ef-447a-8654-33cb9f391431"},"vehicle_type_id":"4","last_reported":1733757012,"current_range_meters":6400,"station_id":"ce4bhnp2rcd13ifvqgvg","pricing_plan_id":"cebpf4jnsgd1na2vs0mg"},{"bike_id":"9a84ba55-3b09-4e37-a8e8-475f6a1bc2cd","system_id":"levelo_inurba_marseille","lat":43.27807,"lon":5.40714,"is_reserved":false,"is_disabled":false,"rental_uris":{"android":"levelo://app?vid=9a84ba55-3b09-4e37-a8e8-475f6a1bc2cd","ios":"levelo://app?vid=9a84ba55-3b09-4e37-a8e8-475f6a1bc2cd"},"vehicle_type_id":"4","last_reported":1733757012,"current_range_meters":38800,"station_id":"ce4bhnh2rcd13ifvqgtg","pricing_plan_id":"cebpf4jnsgd1na2vs0mg"},{"bike_id":"8760c375-ad78-4b63-89c6-d2eaaea16a0d","system_id":"levelo_inurba_marseille","lat":43.29789,"lon":5.38118,"is_reserved":false,"is_disabled":false,"rental_uris":{"android":"levelo://app?vid=8760c375-ad78-4b63-89c6-d2eaaea16a0d","ios":"levelo://app?vid=8760c375-ad78-4b63-89c6-d2eaaea16a0d"},"vehicle_type_id":"4","last_reported":1733757012,"current_range_meters":37600,"station_id":"ce4bgip2rcd13ifvqbb0","pricing_plan_id":"cebpf4jnsgd1na2vs0mg"},{"bike_id":"26924fb9-4179-4abe-8b03-e0d47c141d92","system_id":"levelo_inurba_marseille","lat":43.27184,"lon":5.4099,"is_reserved":false,"is_disabled":false,"rental_uris":{"android":"levelo://app?vid=26924fb9-4179-4abe-8b03-e0d47c141d92","ios":"levelo://app?vid=26924fb9-4179-4abe-8b03-e0d47c141d92"},"vehicle_type_id":"4","last_reported":1733757012,"current_range_meters":30800,"station_id":"ce4bhl12rcd13ifvqgf0","pricing_plan_id":"cebpf4jnsgd1na2vs0mg"},{"bike_id":"4b41d300-af9d-4b48-aa66-7322d555c205","system_id":"levelo_inurba_marseille","lat":43.28702,"lon":5.37388,"is_reserved":false,"is_disabled":false,"rental_uris":{"android":"levelo://app?vid=4b41d300-af9d-4b48-aa66-7322d555c205","ios":"levelo://app?vid=4b41d300-af9d-4b48-aa66-7322d555c205"},"vehicle_type_id":"4","last_reported":1733757012,"current_range_meters":38800,"station_id":"ce4bh3p2rcd13ifvqdq0","pricing_plan_id":"cebpf4jnsgd1na2vs0mg"},{"bike_id":"db14e876-0fd6-46a7-8620-bb06967f83cc","system_id":"levelo_inurba_marseille","lat":43.31333,"lon":5.39733,"is_reserved":false,"is_disabled":true,"rental_uris":{"android":"levelo://app?vid=db14e876-0fd6-46a7-8620-bb06967f83cc","ios":"levelo://app?vid=db14e876-0fd6-46a7-8620-bb06967f83cc"},"vehicle_type_id":"4","last_reported":1733757012,"current_range_meters":38000,"station_id":"ce4bgvp2rcd13ifvqcu0","pricing_plan_id":"cebpf4jnsgd1na2vs0mg"},{"bike_id":"873e06da-edbe-4aa3-ab35-be84e01c72c0","system_id":"levelo_inurba_marseille","lat":43.32664,"lon":5.40992,"is_reserved":false,"is_disabled":false,"rental_uris":{"android":"levelo://app?vid=873e06da-edbe-4aa3-ab35-be84e01c72c0","ios":"levelo://app?vid=873e06da-edbe-4aa3-ab35-be84e01c72c0"},"vehicle_type_id":"4","last_reported":1733757012,"current_range_meters":38800,"station_id":"ce4bhpp2rcd13ifvqhgg","pricing_plan_id":"cebpf4jnsgd1na2vs0mg"},{"bike_id":"c0abe749-4c6e-4563-badf-b96b4b6f64fe","system_id":"levelo_inurba_marseille","lat":43.30524,"lon":5.36721,"is_reserved":false,"is_disabled":false,"rental_uris":{"android":"levelo://app?vid=c0abe749-4c6e-4563-badf-b96b4b6f64fe","ios":"levelo://app?vid=c0abe749-4c6e-4563-badf-b96b4b6f64fe"},"vehicle_type_id":"4","last_reported":1733757012,"current_range_meters":38800,"station_id":"ce4bgrp2rcd13ifvqc9g","pricing_plan_id":"cebpf4jnsgd1na2vs0mg"},{"bike_id":"7986f744-f9dd-44d0-b04a-f34f2b9a7e4e","system_id":"levelo_inurba_marseille","lat":43.24652,"lon":5.38954,"is_reserved":false,"is_disabled":false,"rental_uris":{"android":"levelo://app?vid=7986f744-f9dd-44d0-b04a-f34f2b9a7e4e","ios":"levelo://app?vid=7986f744-f9dd-44d0-b04a-f34f2b9a7e4e"},"vehicle_type_id":"4","last_reported":1733757012,"current_range_meters":39200,"station_id":"ce4bhg12rcd13ifvqf60","pricing_plan_id":"cebpf4jnsgd1na2vs0mg"},{"bike_id":"bfc6fb89-b1fe-471f-b8c6-23166aa6bb31","system_id":"levelo_inurba_marseille","lat":43.23963,"lon":5.36634,"is_reserved":false,"is_disabled":false,"rental_uris":{"android":"levelo://app?vid=bfc6fb89-b1fe-471f-b8c6-23166aa6bb31","ios":"levelo://app?vid=bfc6fb89-b1fe-471f-b8c6-23166aa6bb31"},"vehicle_type_id":"4","last_reported":1733757012,"current_range_meters":39200,"station_id":"ce4bhi12rcd13ifvqfp0","pricing_plan_id":"cebpf4jnsgd1na2vs0mg"},{"bike_id":"45027c2a-4275-42f6-a13d-c7d3b3c91d81","system_id":"levelo_inurba_marseille","lat":43.265,"lon":5.39542,"is_reserved":false,"is_disabled":false,"rental_uris":{"android":"levelo://app?vid=45027c2a-4275-42f6-a13d-c7d3b3c91d81","ios":"levelo://app?vid=45027c2a-4275-42f6-a13d-c7d3b3c91d81"},"vehicle_type_id":"4","last_reported":1733757012,"current_range_meters":6800,"station_id":"ce4bhi12rcd13ifvqfq0","pricing_plan_id":"cebpf4jnsgd1na2vs0mg"},{"bike_id":"09281e7f-b15d-40c3-92c2-6ba7a2702b6b","system_id":"levelo_inurba_marseille","lat":43.27612,"lon":5.36113,"is_reserved":false,"is_disabled":false,"rental_uris":{"android":"levelo://app?vid=09281e7f-b15d-40c3-92c2-6ba7a2702b6b","ios":"levelo://app?vid=09281e7f-b15d-40c3-92c2-6ba7a2702b6b"},"vehicle_type_id":"4","last_reported":1733757012,"current_range_meters":10800,"station_id":"ce4bgj92rcd13ifvqbe0","pricing_plan_id":"cebpf4jnsgd1na2vs0mg"},{"bike_id":"0bff9157-1c4b-44c6-bca8-a8d8094c2395","system_id":"levelo_inurba_marseille","lat":43.27054,"lon":5.40264,"is_reserved":false,"is_disabled":false,"rental_uris":{"android":"levelo://app?vid=0bff9157-1c4b-44c6-bca8-a8d8094c2395","ios":"levelo://app?vid=0bff9157-1c4b-44c6-bca8-a8d8094c2395"},"vehicle_type_id":"4","last_reported":1733757012,"current_range_meters":11600,"station_id":"ce4bhk92rcd13ifvqgc0","pricing_plan_id":"cebpf4jnsgd1na2vs0mg"},{"bike_id":"0ccd581d-9c76-4795-b702-2d923b116e9d","system_id":"levelo_inurba_marseille","lat":43.27179,"lon":5.40993,"is_reserved":false,"is_disabled":false,"rental_uris":{"android":"levelo://app?vid=0ccd581d-9c76-4795-b702-2d923b116e9d","ios":"levelo://app?vid=0ccd581d-9c76-4795-b702-2d923b116e9d"},"vehicle_type_id":"4","last_reported":1733757012,"current_range_meters":36800,"station_id":"ce4bhl12rcd13ifvqgf0","pricing_plan_id":"cebpf4jnsgd1na2vs0mg"},{"bike_id":"98fe5329-9294-4a99-9092-94de751e539b","system_id":"levelo_inurba_marseille","lat":43.32044,"lon":5.4157,"is_reserved":false,"is_disabled":false,"rental_uris":{"android":"levelo://app?vid=98fe5329-9294-4a99-9092-94de751e539b","ios":"levelo://app?vid=98fe5329-9294-4a99-9092-94de751e539b"},"vehicle_type_id":"4","last_reported":1733757012,"current_range_meters":11200,"station_id":"ce4bhq92rcd13ifvqhkg","pricing_plan_id":"cebpf4jnsgd1na2vs0mg"},{"bike_id":"95d8628d-10b1-47e7-9a42-9b126ec315c6","system_id":"levelo_inurba_marseille","lat":43.23202,"lon":5.35563,"is_reserved":false,"is_disabled":false,"rental_uris":{"android":"levelo://app?vid=95d8628d-10b1-47e7-9a42-9b126ec315c6","ios":"levelo://app?vid=95d8628d-10b1-47e7-9a42-9b126ec315c6"},"vehicle_type_id":"4","last_reported":1733757012,"current_range_meters":28400,"station_id":"ce4bhu92rcd13ifvqi70","pricing_plan_id":"cebpf4jnsgd1na2vs0mg"},{"bike_id":"84160b40-ce7b-44a2-a7ca-4591eb995185","system_id":"levelo_inurba_marseille","lat":43.32079,"lon":5.38814,"is_reserved":false,"is_disabled":false,"rental_uris":{"android":"levelo://app?vid=84160b40-ce7b-44a2-a7ca-4591eb995185","ios":"levelo://app?vid=84160b40-ce7b-44a2-a7ca-4591eb995185"},"vehicle_type_id":"4","last_reported":1733757012,"current_range_meters":10000,"station_id":"","pricing_plan_id":"cebpf4jnsgd1na2vs0mg"},{"bike_id":"d6476c12-9601-48bb-81d1-c130012be534","system_id":"levelo_inurba_marseille","lat":43.2468,"lon":5.38164,"is_reserved":false,"is_disabled":false,"rental_uris":{"android":"levelo://app?vid=d6476c12-9601-48bb-81d1-c130012be534","ios":"levelo://app?vid=d6476c12-9601-48bb-81d1-c130012be534"},"vehicle_type_id":"4","last_reported":1733757012,"current_range_meters":23200,"station_id":"ce4bhih2rcd13ifvqfr0","pricing_plan_id":"cebpf4jnsgd1na2vs0mg"},{"bike_id":"00c7fff6-712b-4e01-ade6-294f0dce1cda","system_id":"levelo_inurba_marseille","lat":43.28963,"lon":5.36417,"is_reserved":false,"is_disabled":false,"rental_uris":{"android":"levelo://app?vid=00c7fff6-712b-4e01-ade6-294f0dce1cda","ios":"levelo://app?vid=00c7fff6-712b-4e01-ade6-294f0dce1cda"},"vehicle_type_id":"4","last_reported":1733757012,"current_range_meters":33200,"station_id":"ce4bhc92rcd13ifvqetg","pricing_plan_id":"cebpf4jnsgd1na2vs0mg"},{"bike_id":"39fb0cca-2e31-4765-a17f-5d0886b4ddce","system_id":"levelo_inurba_marseille","lat":43.29784,"lon":5.38115,"is_reserved":false,"is_disabled":false,"rental_uris":{"android":"levelo://app?vid=39fb0cca-2e31-4765-a17f-5d0886b4ddce","ios":"levelo://app?vid=39fb0cca-2e31-4765-a17f-5d0886b4ddce"},"vehicle_type_id":"4","last_reported":1733757012,"current_range_meters":38800,"station_id":"ce4bgip2rcd13ifvqbb0","pricing_plan_id":"cebpf4jnsgd1na2vs0mg"},{"bike_id":"cb8427de-c27c-415c-81d0-2c61ed0d5562","system_id":"levelo_inurba_marseille","lat":43.30636,"lon":5.40072,"is_reserved":false,"is_disabled":false,"rental_uris":{"android":"levelo://app?vid=cb8427de-c27c-415c-81d0-2c61ed0d5562","ios":"levelo://app?vid=cb8427de-c27c-415c-81d0-2c61ed0d5562"},"vehicle_type_id":"4","last_reported":1733757012,"current_range_meters":33600,"station_id":"ce4bh112rcd13ifvqda0","pricing_plan_id":"cebpf4jnsgd1na2vs0mg"},{"bike_id":"76bd6b8b-3bd2-4b02-bd6e-379029e15bf1","system_id":"levelo_inurba_marseille","lat":43.308918,"lon":5.372012,"is_reserved":false,"is_disabled":false,"rental_uris":{"android":"levelo://app?vid=76bd6b8b-3bd2-4b02-bd6e-379029e15bf1","ios":"levelo://app?vid=76bd6b8b-3bd2-4b02-bd6e-379029e15bf1"},"vehicle_type_id":"4","last_reported":1733757012,"current_range_meters":38800,"station_id":"ce4bguh2rcd13ifvqckg","pricing_plan_id":"cebpf4jnsgd1na2vs0mg"},{"bike_id":"6db6bb85-5060-48f2-927c-0420f26bc169","system_id":"levelo_inurba_marseille","lat":43.2481,"lon":5.37462,"is_reserved":false,"is_disabled":false,"rental_uris":{"android":"levelo://app?vid=6db6bb85-5060-48f2-927c-0420f26bc169","ios":"levelo://app?vid=6db6bb85-5060-48f2-927c-0420f26bc169"},"vehicle_type_id":"4","last_reported":1733757012,"current_range_meters":38800,"station_id":"ce4bhgh2rcd13ifvqfb0","pricing_plan_id":"cebpf4jnsgd1na2vs0mg"},{"bike_id":"0f20b602-7b45-4989-92b6-4d1c64ab5468","system_id":"levelo_inurba_marseille","lat":43.26552,"lon":5.37288,"is_reserved":false,"is_disabled":false,"rental_uris":{"android":"levelo://app?vid=0f20b602-7b45-4989-92b6-4d1c64ab5468","ios":"levelo://app?vid=0f20b602-7b45-4989-92b6-4d1c64ab5468"},"vehicle_type_id":"4","last_reported":1733757012,"current_range_meters":37600,"station_id":"ce4bhg12rcd13ifvqf70","pricing_plan_id":"cebpf4jnsgd1na2vs0mg"},{"bike_id":"a82d634a-a49c-4d39-abc7-6109fc7823f3","system_id":"levelo_inurba_marseille","lat":43.26945,"lon":5.40251,"is_reserved":false,"is_disabled":false,"rental_uris":{"android":"levelo://app?vid=a82d634a-a49c-4d39-abc7-6109fc7823f3","ios":"levelo://app?vid=a82d634a-a49c-4d39-abc7-6109fc7823f3"},"vehicle_type_id":"4","last_reported":1733757012,"current_range_meters":38000,"station_id":"cjm6bp8fraef2m0cb0m0","pricing_plan_id":"cebpf4jnsgd1na2vs0mg"},{"bike_id":"66dbab97-8c1c-4f24-87e9-58a33b17f68b","system_id":"levelo_inurba_marseille","lat":43.32657,"lon":5.40992,"is_reserved":false,"is_disabled":false,"rental_uris":{"android":"levelo://app?vid=66dbab97-8c1c-4f24-87e9-58a33b17f68b","ios":"levelo://app?vid=66dbab97-8c1c-4f24-87e9-58a33b17f68b"},"vehicle_type_id":"4","last_reported":1733757012,"current_range_meters":24800,"station_id":"ce4bhpp2rcd13ifvqhgg","pricing_plan_id":"cebpf4jnsgd1na2vs0mg"},{"bike_id":"070cad2f-01e8-474a-9200-e3541e1fe386","system_id":"levelo_inurba_marseille","lat":43.29251,"lon":5.40916,"is_reserved":false,"is_disabled":false,"rental_uris":{"android":"levelo://app?vid=070cad2f-01e8-474a-9200-e3541e1fe386","ios":"levelo://app?vid=070cad2f-01e8-474a-9200-e3541e1fe386"},"vehicle_type_id":"4","last_reported":1733757012,"current_range_meters":20400,"station_id":"ce4bh192rcd13ifvqdc0","pricing_plan_id":"cebpf4jnsgd1na2vs0mg"},{"bike_id":"042cb4cd-6f1a-4fbc-b347-cbba51218f00","system_id":"levelo_inurba_marseille","lat":43.30893,"lon":5.37195,"is_reserved":false,"is_disabled":false,"rental_uris":{"android":"levelo://app?vid=042cb4cd-6f1a-4fbc-b347-cbba51218f00","ios":"levelo://app?vid=042cb4cd-6f1a-4fbc-b347-cbba51218f00"},"vehicle_type_id":"4","last_reported":1733757012,"current_range_meters":38800,"station_id":"ce4bguh2rcd13ifvqckg","pricing_plan_id":"cebpf4jnsgd1na2vs0mg"},{"bike_id":"566b662d-a101-4613-ab67-057206eb2154","system_id":"levelo_inurba_marseille","lat":43.24069,"lon":5.37765,"is_reserved":false,"is_disabled":false,"rental_uris":{"android":"levelo://app?vid=566b662d-a101-4613-ab67-057206eb2154","ios":"levelo://app?vid=566b662d-a101-4613-ab67-057206eb2154"},"vehicle_type_id":"4","last_reported":1733757012,"current_range_meters":19600,"station_id":"ce4bhnp2rcd13ifvqgvg","pricing_plan_id":"cebpf4jnsgd1na2vs0mg"},{"bike_id":"b8e7f883-5b9b-422d-81e9-d00c2442da3b","system_id":"levelo_inurba_marseille","lat":43.23061,"lon":5.35491,"is_reserved":false,"is_disabled":false,"rental_uris":{"android":"levelo://app?vid=b8e7f883-5b9b-422d-81e9-d00c2442da3b","ios":"levelo://app?vid=b8e7f883-5b9b-422d-81e9-d00c2442da3b"},"vehicle_type_id":"4","last_reported":1733757012,"current_range_meters":7200,"station_id":"cpo3342slgdg3j2ifvpg","pricing_plan_id":"cebpf4jnsgd1na2vs0mg"},{"bike_id":"df530ce9-7550-4bc0-857d-aa2d9daf2958","system_id":"levelo_inurba_marseille","lat":43.33021,"lon":5.3904,"is_reserved":false,"is_disabled":false,"rental_uris":{"android":"levelo://app?vid=df530ce9-7550-4bc0-857d-aa2d9daf2958","ios":"levelo://app?vid=df530ce9-7550-4bc0-857d-aa2d9daf2958"},"vehicle_type_id":"4","last_reported":1733757012,"current_range_meters":38800,"station_id":"ce4bhr92rcd13ifvqhrg","pricing_plan_id":"cebpf4jnsgd1na2vs0mg"},{"bike_id":"00dfce39-0a3e-42bd-85ef-7a7a8f87f756","system_id":"levelo_inurba_marseille","lat":43.27059,"lon":5.40259,"is_reserved":false,"is_disabled":false,"rental_uris":{"android":"levelo://app?vid=00dfce39-0a3e-42bd-85ef-7a7a8f87f756","ios":"levelo://app?vid=00dfce39-0a3e-42bd-85ef-7a7a8f87f756"},"vehicle_type_id":"4","last_reported":1733757012,"current_range_meters":20000,"station_id":"ce4bhk92rcd13ifvqgc0","pricing_plan_id":"cebpf4jnsgd1na2vs0mg"},{"bike_id":"6e8ffe84-478d-4077-b567-3ae22235231b","system_id":"levelo_inurba_marseille","lat":43.24167,"lon":5.36397,"is_reserved":false,"is_disabled":false,"rental_uris":{"android":"levelo://app?vid=6e8ffe84-478d-4077-b567-3ae22235231b","ios":"levelo://app?vid=6e8ffe84-478d-4077-b567-3ae22235231b"},"vehicle_type_id":"4","last_reported":1733757012,"current_range_meters":12000,"station_id":"cpo36qri1sfpv3e86is0","pricing_plan_id":"cebpf4jnsgd1na2vs0mg"},{"bike_id":"85fc986f-e237-494f-9a51-e8d825670ac9","system_id":"levelo_inurba_marseille","lat":43.31714,"lon":5.37758,"is_reserved":false,"is_disabled":false,"rental_uris":{"android":"levelo://app?vid=85fc986f-e237-494f-9a51-e8d825670ac9","ios":"levelo://app?vid=85fc986f-e237-494f-9a51-e8d825670ac9"},"vehicle_type_id":"4","last_reported":1733757012,"current_range_meters":38800,"station_id":"ce4bgth2rcd13ifvqch0","pricing_plan_id":"cebpf4jnsgd1na2vs0mg"},{"bike_id":"08c2a45a-da89-4dd7-af84-428076a257bb","system_id":"levelo_inurba_marseille","lat":43.27378,"lon":5.36255,"is_reserved":false,"is_disabled":false,"rental_uris":{"android":"levelo://app?vid=08c2a45a-da89-4dd7-af84-428076a257bb","ios":"levelo://app?vid=08c2a45a-da89-4dd7-af84-428076a257bb"},"vehicle_type_id":"4","last_reported":1733757012,"current_range_meters":30000,"station_id":"ce4bhbh2rcd13ifvqeo0","pricing_plan_id":"cebpf4jnsgd1na2vs0mg"},{"bike_id":"a0b44e86-9121-4df3-b62a-0fc9a0d1110c","system_id":"levelo_inurba_marseille","lat":43.23064,"lon":5.35492,"is_reserved":false,"is_disabled":false,"rental_uris":{"android":"levelo://app?vid=a0b44e86-9121-4df3-b62a-0fc9a0d1110c","ios":"levelo://app?vid=a0b44e86-9121-4df3-b62a-0fc9a0d1110c"},"vehicle_type_id":"4","last_reported":1733757012,"current_range_meters":6000,"station_id":"cpo3342slgdg3j2ifvpg","pricing_plan_id":"cebpf4jnsgd1na2vs0mg"},{"bike_id":"a0c230af-183e-4db9-b10f-8c1a6d844ebf","system_id":"levelo_inurba_marseille","lat":43.3013,"lon":5.38789,"is_reserved":false,"is_disabled":true,"rental_uris":{"android":"levelo://app?vid=a0c230af-183e-4db9-b10f-8c1a6d844ebf","ios":"levelo://app?vid=a0c230af-183e-4db9-b10f-8c1a6d844ebf"},"vehicle_type_id":"4","last_reported":1733757012,"current_range_meters":0,"station_id":"ce4bghh2rcd13ifvqb60","pricing_plan_id":"cebpf4jnsgd1na2vs0mg"},{"bike_id":"10e02497-99ed-494a-9afd-42b125779829","system_id":"levelo_inurba_marseille","lat":43.23151,"lon":5.4372,"is_reserved":false,"is_disabled":false,"rental_uris":{"android":"levelo://app?vid=10e02497-99ed-494a-9afd-42b125779829","ios":"levelo://app?vid=10e02497-99ed-494a-9afd-42b125779829"},"vehicle_type_id":"4","last_reported":1733757012,"current_range_meters":27200,"station_id":"ce4bhmp2rcd13ifvqgog","pricing_plan_id":"cebpf4jnsgd1na2vs0mg"},{"bike_id":"2f2c35a2-b619-4656-a5c6-0a3dfacf5343","system_id":"levelo_inurba_marseille","lat":43.30643,"lon":5.40096,"is_reserved":false,"is_disabled":false,"rental_uris":{"android":"levelo://app?vid=2f2c35a2-b619-4656-a5c6-0a3dfacf5343","ios":"levelo://app?vid=2f2c35a2-b619-4656-a5c6-0a3dfacf5343"},"vehicle_type_id":"4","last_reported":1733757012,"current_range_meters":9200,"station_id":"ce4bh112rcd13ifvqda0","pricing_plan_id":"cebpf4jnsgd1na2vs0mg"},{"bike_id":"3508b770-d054-4034-a6ec-39f74d3b9caa","system_id":"levelo_inurba_marseille","lat":43.29045,"lon":5.37565,"is_reserved":false,"is_disabled":false,"rental_uris":{"android":"levelo://app?vid=3508b770-d054-4034-a6ec-39f74d3b9caa","ios":"levelo://app?vid=3508b770-d054-4034-a6ec-39f74d3b9caa"},"vehicle_type_id":"4","last_reported":1733757012,"current_range_meters":26800,"station_id":"ce4bh692rcd13ifvqe90","pricing_plan_id":"cebpf4jnsgd1na2vs0mg"},{"bike_id":"e8a782a4-565a-4d33-bfe3-82271dd14675","system_id":"levelo_inurba_marseille","lat":43.2407,"lon":5.37766,"is_reserved":false,"is_disabled":false,"rental_uris":{"android":"levelo://app?vid=e8a782a4-565a-4d33-bfe3-82271dd14675","ios":"levelo://app?vid=e8a782a4-565a-4d33-bfe3-82271dd14675"},"vehicle_type_id":"4","last_reported":1733757012,"current_range_meters":18800,"station_id":"ce4bhnp2rcd13ifvqgvg","pricing_plan_id":"cebpf4jnsgd1na2vs0mg"},{"bike_id":"4ae5fe7f-a755-40fe-9b35-59fbb2437146","system_id":"levelo_inurba_marseille","lat":43.24176,"lon":5.36406,"is_reserved":false,"is_disabled":false,"rental_uris":{"android":"levelo://app?vid=4ae5fe7f-a755-40fe-9b35-59fbb2437146","ios":"levelo://app?vid=4ae5fe7f-a755-40fe-9b35-59fbb2437146"},"vehicle_type_id":"4","last_reported":1733757012,"current_range_meters":22400,"station_id":"cpo36qri1sfpv3e86is0","pricing_plan_id":"cebpf4jnsgd1na2vs0mg"},{"bike_id":"ae10a726-acf0-4945-b89d-97aeed5dca91","system_id":"levelo_inurba_marseille","lat":43.27054,"lon":5.40275,"is_reserved":false,"is_disabled":false,"rental_uris":{"android":"levelo://app?vid=ae10a726-acf0-4945-b89d-97aeed5dca91","ios":"levelo://app?vid=ae10a726-acf0-4945-b89d-97aeed5dca91"},"vehicle_type_id":"4","last_reported":1733757012,"current_range_meters":6400,"station_id":"ce4bhk92rcd13ifvqgc0","pricing_plan_id":"cebpf4jnsgd1na2vs0mg"},{"bike_id":"441ad96d-a90d-4082-945d-2fa8d8ee0459","system_id":"levelo_inurba_marseille","lat":43.30897,"lon":5.37198,"is_reserved":false,"is_disabled":false,"rental_uris":{"android":"levelo://app?vid=441ad96d-a90d-4082-945d-2fa8d8ee0459","ios":"levelo://app?vid=441ad96d-a90d-4082-945d-2fa8d8ee0459"},"vehicle_type_id":"4","last_reported":1733757012,"current_range_meters":32400,"station_id":"ce4bguh2rcd13ifvqckg","pricing_plan_id":"cebpf4jnsgd1na2vs0mg"},{"bike_id":"4aff1216-52fe-4913-8bf2-a4aad74f8026","system_id":"levelo_inurba_marseille","lat":43.27208,"lon":5.39179,"is_reserved":false,"is_disabled":false,"rental_uris":{"android":"levelo://app?vid=4aff1216-52fe-4913-8bf2-a4aad74f8026","ios":"levelo://app?vid=4aff1216-52fe-4913-8bf2-a4aad74f8026"},"vehicle_type_id":"4","last_reported":1733757012,"current_range_meters":18800,"station_id":"ce4bhhp2rcd13ifvqfm0","pricing_plan_id":"cebpf4jnsgd1na2vs0mg"},{"bike_id":"dc18c9a2-7911-4861-99de-f59fa1263059","system_id":"levelo_inurba_marseille","lat":43.24076,"lon":5.3776,"is_reserved":false,"is_disabled":false,"rental_uris":{"android":"levelo://app?vid=dc18c9a2-7911-4861-99de-f59fa1263059","ios":"levelo://app?vid=dc18c9a2-7911-4861-99de-f59fa1263059"},"vehicle_type_id":"4","last_reported":1733757012,"current_range_meters":36000,"station_id":"ce4bhnp2rcd13ifvqgvg","pricing_plan_id":"cebpf4jnsgd1na2vs0mg"},{"bike_id":"4802c2d1-5466-4e17-ac17-560bd93d080f","system_id":"levelo_inurba_marseille","lat":43.293775,"lon":5.378524,"is_reserved":false,"is_disabled":false,"rental_uris":{"android":"levelo://app?vid=4802c2d1-5466-4e17-ac17-560bd93d080f","ios":"levelo://app?vid=4802c2d1-5466-4e17-ac17-560bd93d080f"},"vehicle_type_id":"4","last_reported":1733757012,"current_range_meters":20400,"station_id":"ce4bgjh2rcd13ifvqbf0","pricing_plan_id":"cebpf4jnsgd1na2vs0mg"},{"bike_id":"79b7ab0f-1852-4861-9659-62b59b1d65c7","system_id":"levelo_inurba_marseille","lat":43.29277,"lon":5.36843,"is_reserved":false,"is_disabled":false,"rental_uris":{"android":"levelo://app?vid=79b7ab0f-1852-4861-9659-62b59b1d65c7","ios":"levelo://app?vid=79b7ab0f-1852-4861-9659-62b59b1d65c7"},"vehicle_type_id":"4","last_reported":1733757012,"current_range_meters":38800,"station_id":"ce4bhbp2rcd13ifvqesg","pricing_plan_id":"cebpf4jnsgd1na2vs0mg"},{"bike_id":"5bd6bd78-4585-4412-88b0-3de4a55947a6","system_id":"levelo_inurba_marseille","lat":43.32283,"lon":5.38275,"is_reserved":false,"is_disabled":false,"rental_uris":{"android":"levelo://app?vid=5bd6bd78-4585-4412-88b0-3de4a55947a6","ios":"levelo://app?vid=5bd6bd78-4585-4412-88b0-3de4a55947a6"},"vehicle_type_id":"4","last_reported":1733757012,"current_range_meters":39200,"station_id":"ce4bhr12rcd13ifvqhqg","pricing_plan_id":"cebpf4jnsgd1na2vs0mg"},{"bike_id":"fd430ec8-d2aa-4771-9d27-f4977f1834b2","system_id":"levelo_inurba_marseille","lat":43.33728,"lon":5.39187,"is_reserved":false,"is_disabled":false,"rental_uris":{"android":"levelo://app?vid=fd430ec8-d2aa-4771-9d27-f4977f1834b2","ios":"levelo://app?vid=fd430ec8-d2aa-4771-9d27-f4977f1834b2"},"vehicle_type_id":"4","last_reported":1733757012,"current_range_meters":38800,"station_id":"ce4bhr92rcd13ifvqhsg","pricing_plan_id":"cebpf4jnsgd1na2vs0mg"},{"bike_id":"ba5e4c54-9e0f-419d-acd3-894b4507a88b","system_id":"levelo_inurba_marseille","lat":43.23056,"lon":5.35489,"is_reserved":false,"is_disabled":false,"rental_uris":{"android":"levelo://app?vid=ba5e4c54-9e0f-419d-acd3-894b4507a88b","ios":"levelo://app?vid=ba5e4c54-9e0f-419d-acd3-894b4507a88b"},"vehicle_type_id":"4","last_reported":1733757012,"current_range_meters":30400,"station_id":"cpo3342slgdg3j2ifvpg","pricing_plan_id":"cebpf4jnsgd1na2vs0mg"},{"bike_id":"a21651a3-ebaa-4386-8288-94f34c269eb0","system_id":"levelo_inurba_marseille","lat":43.27672,"lon":5.38901,"is_reserved":false,"is_disabled":false,"rental_uris":{"android":"levelo://app?vid=a21651a3-ebaa-4386-8288-94f34c269eb0","ios":"levelo://app?vid=a21651a3-ebaa-4386-8288-94f34c269eb0"},"vehicle_type_id":"4","last_reported":1733757012,"current_range_meters":24800,"station_id":"ce4bhi12rcd13ifvqfo0","pricing_plan_id":"cebpf4jnsgd1na2vs0mg"},{"bike_id":"45086712-1023-4a35-a0ec-49d14554c9ac","system_id":"levelo_inurba_marseille","lat":43.34139,"lon":5.40902,"is_reserved":false,"is_disabled":false,"rental_uris":{"android":"levelo://app?vid=45086712-1023-4a35-a0ec-49d14554c9ac","ios":"levelo://app?vid=45086712-1023-4a35-a0ec-49d14554c9ac"},"vehicle_type_id":"4","last_reported":1733757012,"current_range_meters":26000,"station_id":"ce4bhqh2rcd13ifvqhlg","pricing_plan_id":"cebpf4jnsgd1na2vs0mg"},{"bike_id":"e869d879-f96b-4f75-af36-9f90e9062aa4","system_id":"levelo_inurba_marseille","lat":43.2466,"lon":5.38165,"is_reserved":false,"is_disabled":false,"rental_uris":{"android":"levelo://app?vid=e869d879-f96b-4f75-af36-9f90e9062aa4","ios":"levelo://app?vid=e869d879-f96b-4f75-af36-9f90e9062aa4"},"vehicle_type_id":"4","last_reported":1733757012,"current_range_meters":24400,"station_id":"ce4bhih2rcd13ifvqfr0","pricing_plan_id":"cebpf4jnsgd1na2vs0mg"},{"bike_id":"155e4552-adf3-45a5-aa6c-6e25fcaf05e5","system_id":"levelo_inurba_marseille","lat":43.27174,"lon":5.40989,"is_reserved":false,"is_disabled":false,"rental_uris":{"android":"levelo://app?vid=155e4552-adf3-45a5-aa6c-6e25fcaf05e5","ios":"levelo://app?vid=155e4552-adf3-45a5-aa6c-6e25fcaf05e5"},"vehicle_type_id":"4","last_reported":1733757012,"current_range_meters":35200,"station_id":"ce4bhl12rcd13ifvqgf0","pricing_plan_id":"cebpf4jnsgd1na2vs0mg"},{"bike_id":"c2e29ee6-adca-4453-a568-ad6160e463b4","system_id":"levelo_inurba_marseille","lat":43.30309,"lon":5.369,"is_reserved":false,"is_disabled":false,"rental_uris":{"android":"levelo://app?vid=c2e29ee6-adca-4453-a568-ad6160e463b4","ios":"levelo://app?vid=c2e29ee6-adca-4453-a568-ad6160e463b4"},"vehicle_type_id":"4","last_reported":1733757012,"current_range_meters":9200,"station_id":"ce4bgqh2rcd13ifvqc5g","pricing_plan_id":"cebpf4jnsgd1na2vs0mg"},{"bike_id":"35f3c44e-0e88-42b6-9d0a-a15513a6f190","system_id":"levelo_inurba_marseille","lat":43.31087,"lon":5.3679,"is_reserved":false,"is_disabled":false,"rental_uris":{"android":"levelo://app?vid=35f3c44e-0e88-42b6-9d0a-a15513a6f190","ios":"levelo://app?vid=35f3c44e-0e88-42b6-9d0a-a15513a6f190"},"vehicle_type_id":"4","last_reported":1733757012,"current_range_meters":24800,"station_id":"","pricing_plan_id":"cebpf4jnsgd1na2vs0mg"},{"bike_id":"3702917b-7e66-4f83-a6eb-bc58a3f2a139","system_id":"levelo_inurba_marseille","lat":43.2606,"lon":5.39399,"is_reserved":false,"is_disabled":false,"rental_uris":{"android":"levelo://app?vid=3702917b-7e66-4f83-a6eb-bc58a3f2a139","ios":"levelo://app?vid=3702917b-7e66-4f83-a6eb-bc58a3f2a139"},"vehicle_type_id":"4","last_reported":1733757012,"current_range_meters":38800,"station_id":"ce4bhh92rcd13ifvqfj0","pricing_plan_id":"cebpf4jnsgd1na2vs0mg"},{"bike_id":"bd45d4b8-a794-47d3-b71a-c238d420c3d9","system_id":"levelo_inurba_marseille","lat":43.29001,"lon":5.35617,"is_reserved":false,"is_disabled":true,"rental_uris":{"android":"levelo://app?vid=bd45d4b8-a794-47d3-b71a-c238d420c3d9","ios":"levelo://app?vid=bd45d4b8-a794-47d3-b71a-c238d420c3d9"},"vehicle_type_id":"4","last_reported":1733757012,"current_range_meters":30800,"station_id":"ce4bhb92rcd13ifvqen0","pricing_plan_id":"cebpf4jnsgd1na2vs0mg"},{"bike_id":"093bc648-5b19-4eee-9c02-6cee8a72d7b5","system_id":"levelo_inurba_marseille","lat":43.30933,"lon":5.4014,"is_reserved":false,"is_disabled":false,"rental_uris":{"android":"levelo://app?vid=093bc648-5b19-4eee-9c02-6cee8a72d7b5","ios":"levelo://app?vid=093bc648-5b19-4eee-9c02-6cee8a72d7b5"},"vehicle_type_id":"4","last_reported":1733757012,"current_range_meters":5600,"station_id":"ce4bgvp2rcd13ifvqct0","pricing_plan_id":"cebpf4jnsgd1na2vs0mg"},{"bike_id":"817756c8-bd9f-4365-b398-d368457aa6fd","system_id":"levelo_inurba_marseille","lat":43.28695,"lon":5.37396,"is_reserved":false,"is_disabled":false,"rental_uris":{"android":"levelo://app?vid=817756c8-bd9f-4365-b398-d368457aa6fd","ios":"levelo://app?vid=817756c8-bd9f-4365-b398-d368457aa6fd"},"vehicle_type_id":"4","last_reported":1733757012,"current_range_meters":23200,"station_id":"ce4bh3p2rcd13ifvqdq0","pricing_plan_id":"cebpf4jnsgd1na2vs0mg"},{"bike_id":"815290c5-769f-490c-aee0-8b254ce9393d","system_id":"levelo_inurba_marseille","lat":43.26557,"lon":5.37284,"is_reserved":false,"is_disabled":false,"rental_uris":{"android":"levelo://app?vid=815290c5-769f-490c-aee0-8b254ce9393d","ios":"levelo://app?vid=815290c5-769f-490c-aee0-8b254ce9393d"},"vehicle_type_id":"4","last_reported":1733757012,"current_range_meters":22400,"station_id":"ce4bhg12rcd13ifvqf70","pricing_plan_id":"cebpf4jnsgd1na2vs0mg"},{"bike_id":"b69a25c4-cb4a-4398-bd49-a12912254e2e","system_id":"levelo_inurba_marseille","lat":43.298961,"lon":5.436706,"is_reserved":false,"is_disabled":false,"rental_uris":{"android":"levelo://app?vid=b69a25c4-cb4a-4398-bd49-a12912254e2e","ios":"levelo://app?vid=b69a25c4-cb4a-4398-bd49-a12912254e2e"},"vehicle_type_id":"4","last_reported":1733757012,"current_range_meters":36800,"station_id":"ce4bhpp2rcd13ifvqhfg","pricing_plan_id":"cebpf4jnsgd1na2vs0mg"},{"bike_id":"7b6f938e-5a1f-4c52-9983-81d267ae6fa0","system_id":"levelo_inurba_marseille","lat":43.29276,"lon":5.36851,"is_reserved":false,"is_disabled":false,"rental_uris":{"android":"levelo://app?vid=7b6f938e-5a1f-4c52-9983-81d267ae6fa0","ios":"levelo://app?vid=7b6f938e-5a1f-4c52-9983-81d267ae6fa0"},"vehicle_type_id":"4","last_reported":1733757012,"current_range_meters":27600,"station_id":"ce4bhbp2rcd13ifvqesg","pricing_plan_id":"cebpf4jnsgd1na2vs0mg"},{"bike_id":"e819441c-9f32-47fa-a1d2-42e334548e89","system_id":"levelo_inurba_marseille","lat":43.28723,"lon":5.3609,"is_reserved":false,"is_disabled":false,"rental_uris":{"android":"levelo://app?vid=e819441c-9f32-47fa-a1d2-42e334548e89","ios":"levelo://app?vid=e819441c-9f32-47fa-a1d2-42e334548e89"},"vehicle_type_id":"4","last_reported":1733757012,"current_range_meters":37600,"station_id":"cki0cbj6b192h4jlfktg","pricing_plan_id":"cebpf4jnsgd1na2vs0mg"},{"bike_id":"6149d10a-ee53-4413-9592-38357ced78cb","system_id":"levelo_inurba_marseille","lat":43.26189,"lon":5.3745,"is_reserved":false,"is_disabled":false,"rental_uris":{"android":"levelo://app?vid=6149d10a-ee53-4413-9592-38357ced78cb","ios":"levelo://app?vid=6149d10a-ee53-4413-9592-38357ced78cb"},"vehicle_type_id":"4","last_reported":1733757012,"current_range_meters":38800,"station_id":"ce4bhgp2rcd13ifvqfc0","pricing_plan_id":"cebpf4jnsgd1na2vs0mg"},{"bike_id":"92076287-0589-49d4-baae-9c83eed4ba57","system_id":"levelo_inurba_marseille","lat":43.30801,"lon":5.38158,"is_reserved":false,"is_disabled":false,"rental_uris":{"android":"levelo://app?vid=92076287-0589-49d4-baae-9c83eed4ba57","ios":"levelo://app?vid=92076287-0589-49d4-baae-9c83eed4ba57"},"vehicle_type_id":"4","last_reported":1733757012,"current_range_meters":29600,"station_id":"ce4bgt12rcd13ifvqce0","pricing_plan_id":"cebpf4jnsgd1na2vs0mg"},{"bike_id":"f03a0fd2-8b78-4caf-823d-2d72f29eb1fc","system_id":"levelo_inurba_marseille","lat":43.27185,"lon":5.40998,"is_reserved":false,"is_disabled":false,"rental_uris":{"android":"levelo://app?vid=f03a0fd2-8b78-4caf-823d-2d72f29eb1fc","ios":"levelo://app?vid=f03a0fd2-8b78-4caf-823d-2d72f29eb1fc"},"vehicle_type_id":"4","last_reported":1733757012,"current_range_meters":39200,"station_id":"ce4bhl12rcd13ifvqgf0","pricing_plan_id":"cebpf4jnsgd1na2vs0mg"},{"bike_id":"20e9db8d-d68b-4418-94af-d9d63f8c2b96","system_id":"levelo_inurba_marseille","lat":43.337444,"lon":5.374475,"is_reserved":false,"is_disabled":true,"rental_uris":{"android":"levelo://app?vid=20e9db8d-d68b-4418-94af-d9d63f8c2b96","ios":"levelo://app?vid=20e9db8d-d68b-4418-94af-d9d63f8c2b96"},"vehicle_type_id":"4","last_reported":1733757012,"current_range_meters":0,"station_id":"","pricing_plan_id":"cebpf4jnsgd1na2vs0mg"},{"bike_id":"fa7f1210-1a59-49da-a06e-e9a907734490","system_id":"levelo_inurba_marseille","lat":43.27177,"lon":5.40994,"is_reserved":false,"is_disabled":false,"rental_uris":{"android":"levelo://app?vid=fa7f1210-1a59-49da-a06e-e9a907734490","ios":"levelo://app?vid=fa7f1210-1a59-49da-a06e-e9a907734490"},"vehicle_type_id":"4","last_reported":1733757012,"current_range_meters":37600,"station_id":"ce4bhl12rcd13ifvqgf0","pricing_plan_id":"cebpf4jnsgd1na2vs0mg"},{"bike_id":"80d1dd7f-149c-44ac-bbf1-77fc017869e8","system_id":"levelo_inurba_marseille","lat":43.28343,"lon":5.38113,"is_reserved":false,"is_disabled":true,"rental_uris":{"android":"levelo://app?vid=80d1dd7f-149c-44ac-bbf1-77fc017869e8","ios":"levelo://app?vid=80d1dd7f-149c-44ac-bbf1-77fc017869e8"},"vehicle_type_id":"4","last_reported":1733757012,"current_range_meters":2000,"station_id":"ce4bh412rcd13ifvqdr0","pricing_plan_id":"cebpf4jnsgd1na2vs0mg"},{"bike_id":"857555c7-f7d1-4f85-adbb-1acf3032ed0a","system_id":"levelo_inurba_marseille","lat":43.24651,"lon":5.38891,"is_reserved":false,"is_disabled":false,"rental_uris":{"android":"levelo://app?vid=857555c7-f7d1-4f85-adbb-1acf3032ed0a","ios":"levelo://app?vid=857555c7-f7d1-4f85-adbb-1acf3032ed0a"},