{"last_updated":1766081892,"ttl":60,"version":"2.2","data":{"bikes":[{"bike_id":"e93a380f-9914-4fef-bb46-ae14628a2d0d","system_id":"levelo_inurba_marseille","lat":43.31745,"lon":5.40578,"is_reserved":false,"is_disabled":false,"rental_uris":{"android":"levelo://app?vid=e93a380f-9914-4fef-bb46-ae14628a2d0d","ios":"levelo://app?vid=e93a380f-9914-4fef-bb46-ae14628a2d0d"},"vehicle_type_id":"4","last_reported":1766081892,"current_range_meters":2800,"station_id":"","pricing_plan_id":"cebpf4jnsgd1na2vs0mg"},{"bike_id":"ee90055a-9697-43f0-9eae-1669fb6d1803","system_id":"levelo_inurba_marseille","lat":43.27973,"lon":5.38743,"is_reserved":false,"is_disabled":false,"rental_uris":{"android":"levelo://app?vid=ee90055a-9697-43f0-9eae-1669fb6d1803","ios":"levelo://app?vid=ee90055a-9697-43f0-9eae-1669fb6d1803"},"vehicle_type_id":"4","last_reported":1766081892,"current_range_meters":2800,"station_id":"ce4bhg12rcd13ifvqf80","pricing_plan_id":"cebpf4jnsgd1na2vs0mg"},{"bike_id":"1d674b94-c902-4547-9505-5ae4d6bf6804","system_id":"levelo_inurba_marseille","lat":43.28948,"lon":5.36633,"is_reserved":false,"is_disabled":false,"rental_uris":{"android":"levelo://app?vid=1d674b94-c902-4547-9505-5ae4d6bf6804","ios":"levelo://app?vid=1d674b94-c902-4547-9505-5ae4d6bf6804"},"vehicle_type_id":"4","last_reported":1766081892,"current_range_meters":2800,"station_id":"ce4bhap2rcd13ifvqek0","pricing_plan_id":"cebpf4jnsgd1na2vs0mg"},{"bike_id":"339d251b-5332-4901-aae2-eda8f9aa1d79","system_id":"levelo_inurba_marseille","lat":43.27068,"lon":5.42277,"is_reserved":false,"is_disabled":true,"rental_uris":{"android":"levelo://app?vid=339d251b-5332-4901-aae2-eda8f9aa1d79","ios":"levelo://app?vid=339d251b-5332-4901-aae2-eda8f9aa1d79"},"vehicle_type_id":"4","last_reported":1766081892,"current_range_meters":2800,"station_id":"ce4bhk92rcd13ifvqgb0","pricing_plan_id":"cebpf4jnsgd1na2vs0mg"},{"bike_id":"9a3d7d62-61d2-4eda-b573-080611517549","system_id":"levelo_inurba_marseille","lat":43.28611,"lon":5.35102,"is_reserved":false,"is_disabled":false,"rental_uris":{"android":"levelo://app?vid=9a3d7d62-61d2-4eda-b573-080611517549","ios":"levelo://app?vid=9a3d7d62-61d2-4eda-b573-080611517549"},"vehicle_type_id":"4","last_reported":1766081892,"current_range_meters":2800,"station_id":"ce4bhch2rcd13ifvqeug","pricing_plan_id":"cebpf4jnsgd1na2vs0mg"},{"bike_id":"4e285f78-4fe5-42f2-aa32-aad98650c138","system_id":"levelo_inurba_marseille","lat":43.30139,"lon":5.38777,"is_reserved":false,"is_disabled":false,"rental_uris":{"android":"levelo://app?vid=4e285f78-4fe5-42f2-aa32-aad98650c138","ios":"levelo://app?vid=4e285f78-4fe5-42f2-aa32-aad98650c138"},"vehicle_type_id":"4","last_reported":1766081892,"current_range_meters":2800,"station_id":"ce4bghh2rcd13ifvqb60","pricing_plan_id":"cebpf4jnsgd1na2vs0mg"},{"bike_id":"16cd7107-89cf-44b8-8eb2-fd6deaad3ed8","system_id":"levelo_inurba_marseille","lat":43.27616,"lon":5.36118,"is_reserved":false,"is_disabled":false,"rental_uris":{"android":"levelo://app?vid=16cd7107-89cf-44b8-8eb2-fd6deaad3ed8","ios":"levelo://app?vid=16cd7107-89cf-44b8-8eb2-fd6deaad3ed8"},"vehicle_type_id":"4","last_reported":1766081892,"current_range_meters":3200,"station_id":"ce4bgj92rcd13ifvqbe0","pricing_plan_id":"cebpf4jnsgd1na2vs0mg"},{"bike_id":"075753f2-03fc-482d-992a-1a659c9f27f8","system_id":"levelo_inurba_marseille","lat":43.28218,"lon":5.34909,"is_reserved":false,"is_disabled":false,"rental_uris":{"android":"levelo://app?vid=075753f2-03fc-482d-992a-1a659c9f27f8","ios":"levelo://app?vid=075753f2-03fc-482d-992a-1a659c9f27f8"},"vehicle_type_id":"4","last_reported":1766081892,"current_range_meters":3200,"station_id":"","pricing_plan_id":"cebpf4jnsgd1na2vs0mg"},{"bike_id":"59361c7d-26f2-46f8-b3f2-9fd503287451","system_id":"levelo_inurba_marseille","lat":43.29521,"lon":5.39401,"is_reserved":false,"is_disabled":false,"rental_uris":{"android":"levelo://app?vid=59361c7d-26f2-46f8-b3f2-9fd503287451","ios":"levelo://app?vid=59361c7d-26f2-46f8-b3f2-9fd503287451"},"vehicle_type_id":"4","last_reported":1766081892,"current_range_meters":3200,"station_id":"ce4bh292rcd13ifvqdf0","pricing_plan_id":"cebpf4jnsgd1na2vs0mg"},{"bike_id":"4e5d9ce6-2cdd-419a-bdae-9cc455891aeb","system_id":"levelo_inurba_marseille","lat":43.30945,"lon":5.39017,"is_reserved":false,"is_disabled":false,"rental_uris":{"android":"levelo://app?vid=4e5d9ce6-2cdd-419a-bdae-9cc455891aeb","ios":"levelo://app?vid=4e5d9ce6-2cdd-419a-bdae-9cc455891aeb"},"vehicle_type_id":"4","last_reported":1766081892,"current_range_meters":3200,"station_id":"ce4bgup2rcd13ifvqco0","pricing_plan_id":"cebpf4jnsgd1na2vs0mg"},{"bike_id":"a2ed7ba0-f76f-437a-9801-2c7793b76dc7","system_id":"levelo_inurba_marseille","lat":43.29532,"lon":5.3855,"is_reserved":false,"is_disabled":false,"rental_uris":{"android":"levelo://app?vid=a2ed7ba0-f76f-437a-9801-2c7793b76dc7","ios":"levelo://app?vid=a2ed7ba0-f76f-437a-9801-2c7793b76dc7"},"vehicle_type_id":"4","last_reported":1766081892,"current_range_meters":3200,"station_id":"ce4bgih2rcd13ifvqba0","pricing_plan_id":"cebpf4jnsgd1na2vs0mg"},{"bike_id":"841d168f-3890-4dd8-a60a-0852ae3fc4a1","system_id":"levelo_inurba_marseille","lat":43.30275,"lon":5.37254,"is_reserved":false,"is_disabled":false,"rental_uris":{"android":"levelo://app?vid=841d168f-3890-4dd8-a60a-0852ae3fc4a1","ios":"levelo://app?vid=841d168f-3890-4dd8-a60a-0852ae3fc4a1"},"vehicle_type_id":"4","last_reported":1766081892,"current_range_meters":3600,"station_id":"","pricing_plan_id":"cebpf4jnsgd1na2vs0mg"},{"bike_id":"d5c6fa74-6555-4e9a-b747-1273f1992163","system_id":"levelo_inurba_marseille","lat":43.3018,"lon":5.36313,"is_reserved":false,"is_disabled":false,"rental_uris":{"android":"levelo://app?vid=d5c6fa74-6555-4e9a-b747-1273f1992163","ios":"levelo://app?vid=d5c6fa74-6555-4e9a-b747-1273f1992163"},"vehicle_type_id":"4","last_reported":1766081892,"current_range_meters":3600,"station_id":"","pricing_plan_id":"cebpf4jnsgd1na2vs0mg"},{"bike_id":"846ba82f-b80b-4118-ba94-f1f7e836af7f","system_id":"levelo_inurba_marseille","lat":43.33757,"lon":5.374367,"is_reserved":false,"is_disabled":false,"rental_uris":{"android":"levelo://app?vid=846ba82f-b80b-4118-ba94-f1f7e836af7f","ios":"levelo://app?vid=846ba82f-b80b-4118-ba94-f1f7e836af7f"},"vehicle_type_id":"4","last_reported":1766081892,"current_range_meters":4000,"station_id":"","pricing_plan_id":"cebpf4jnsgd1na2vs0mg"},{"bike_id":"69ed993e-c406-4dbc-8225-da7ddfcffdf3","system_id":"levelo_inurba_marseille","lat":43.29629,"lon":5.40599,"is_reserved":false,"is_disabled":false,"rental_uris":{"android":"levelo://app?vid=69ed993e-c406-4dbc-8225-da7ddfcffdf3","ios":"levelo://app?vid=69ed993e-c406-4dbc-8225-da7ddfcffdf3"},"vehicle_type_id":"4","last_reported":1766081892,"current_range_meters":4000,"station_id":"ce4bh0h2rcd13ifvqd60","pricing_plan_id":"cebpf4jnsgd1na2vs0mg"},{"bike_id":"39155204-1342-4c68-978b-cd5c51e7cf47","system_id":"levelo_inurba_marseille","lat":43.244619,"lon":5.425494,"is_reserved":false,"is_disabled":false,"rental_uris":{"android":"levelo://app?vid=39155204-1342-4c68-978b-cd5c51e7cf47","ios":"levelo://app?vid=39155204-1342-4c68-978b-cd5c51e7cf47"},"vehicle_type_id":"4","last_reported":1766081892,"current_range_meters":4000,"station_id":"st_d4a3vfp97mjs738cd8kg","pricing_plan_id":"cebpf4jnsgd1na2vs0mg"},{"bike_id":"f1774c1f-0219-43db-9b24-d16e841b315b","system_id":"levelo_inurba_marseille","lat":43.30585,"lon":5.39355,"is_reserved":false,"is_disabled":false,"rental_uris":{"android":"levelo://app?vid=f1774c1f-0219-43db-9b24-d16e841b315b","ios":"levelo://app?vid=f1774c1f-0219-43db-9b24-d16e841b315b"},"vehicle_type_id":"4","last_reported":1766081892,"current_range_meters":4000,"station_id":"ce4bh0p2rcd13ifvqd80","pricing_plan_id":"cebpf4jnsgd1na2vs0mg"},{"bike_id":"86222d3a-15fc-4e2f-8b5c-1694f45d0684","system_id":"levelo_inurba_marseille","lat":43.27371,"lon":5.36255,"is_reserved":false,"is_disabled":false,"rental_uris":{"android":"levelo://app?vid=86222d3a-15fc-4e2f-8b5c-1694f45d0684","ios":"levelo://app?vid=86222d3a-15fc-4e2f-8b5c-1694f45d0684"},"vehicle_type_id":"4","last_reported":1766081892,"current_range_meters":4400,"station_id":"ce4bhbh2rcd13ifvqeo0","pricing_plan_id":"cebpf4jnsgd1na2vs0mg"},{"bike_id":"d120d806-66fe-49c5-82b9-f716c627110f","system_id":"levelo_inurba_marseille","lat":43.29553,"lon":5.42278,"is_reserved":false,"is_disabled":false,"rental_uris":{"android":"levelo://app?vid=d120d806-66fe-49c5-82b9-f716c627110f","ios":"levelo://app?vid=d120d806-66fe-49c5-82b9-f716c627110f"},"vehicle_type_id":"4","last_reported":1766081892,"current_range_meters":4400,"station_id":"ce4bhph2rcd13ifvqhdg","pricing_plan_id":"cebpf4jnsgd1na2vs0mg"},{"bike_id":"bae564ee-2076-42df-8374-dc7ac77cb974","system_id":"levelo_inurba_marseille","lat":43.31223,"lon":5.36859,"is_reserved":false,"is_disabled":false,"rental_uris":{"android":"levelo://app?vid=bae564ee-2076-42df-8374-dc7ac77cb974","ios":"levelo://app?vid=bae564ee-2076-42df-8374-dc7ac77cb974"},"vehicle_type_id":"4","last_reported":1766081892,"current_range_meters":4400,"station_id":"ce4bgl92rcd13ifvqbq0","pricing_plan_id":"cebpf4jnsgd1na2vs0mg"},{"bike_id":"3d413022-5eec-43ac-83de-89656b5276e5","system_id":"levelo_inurba_marseille","lat":43.30095,"lon":5.36545,"is_reserved":false,"is_disabled":false,"rental_uris":{"android":"levelo://app?vid=3d413022-5eec-43ac-83de-89656b5276e5","ios":"levelo://app?vid=3d413022-5eec-43ac-83de-89656b5276e5"},"vehicle_type_id":"4","last_reported":1766081892,"current_range_meters":4800,"station_id":"","pricing_plan_id":"cebpf4jnsgd1na2vs0mg"},{"bike_id":"07446ebb-ea04-4f9f-8180-458ad0748fbc","system_id":"levelo_inurba_marseille","lat":43.31714,"lon":5.37732,"is_reserved":false,"is_disabled":false,"rental_uris":{"android":"levelo://app?vid=07446ebb-ea04-4f9f-8180-458ad0748fbc","ios":"levelo://app?vid=07446ebb-ea04-4f9f-8180-458ad0748fbc"},"vehicle_type_id":"4","last_reported":1766081892,"current_range_meters":4800,"station_id":"ce4bgth2rcd13ifvqch0","pricing_plan_id":"cebpf4jnsgd1na2vs0mg"},{"bike_id":"269a2afe-489c-4587-8d79-919e9362d8b7","system_id":"levelo_inurba_marseille","lat":43.28126,"lon":5.37847,"is_reserved":false,"is_disabled":false,"rental_uris":{"android":"levelo://app?vid=269a2afe-489c-4587-8d79-919e9362d8b7","ios":"levelo://app?vid=269a2afe-489c-4587-8d79-919e9362d8b7"},"vehicle_type_id":"4","last_reported":1766081892,"current_range_meters":4800,"station_id":"ce4bha12rcd13ifvqee0","pricing_plan_id":"cebpf4jnsgd1na2vs0mg"},{"bike_id":"3c6dfeca-0790-43b7-a2ea-478f07d7580e","system_id":"levelo_inurba_marseille","lat":43.243931,"lon":5.370724,"is_reserved":false,"is_disabled":false,"rental_uris":{"android":"levelo://app?vid=3c6dfeca-0790-43b7-a2ea-478f07d7580e","ios":"levelo://app?vid=3c6dfeca-0790-43b7-a2ea-478f07d7580e"},"vehicle_type_id":"4","last_reported":1766081892,"current_range_meters":4800,"station_id":"ce4bhhh2rcd13ifvqfk0","pricing_plan_id":"cebpf4jnsgd1na2vs0mg"},{"bike_id":"04aadaa9-8f9b-4247-ad57-f8dabd0adce7","system_id":"levelo_inurba_marseille","lat":43.29771,"lon":5.38123,"is_reserved":false,"is_disabled":false,"rental_uris":{"android":"levelo://app?vid=04aadaa9-8f9b-4247-ad57-f8dabd0adce7","ios":"levelo://app?vid=04aadaa9-8f9b-4247-ad57-f8dabd0adce7"},"vehicle_type_id":"4","last_reported":1766081892,"current_range_meters":4800,"station_id":"ce4bgip2rcd13ifvqbb0","pricing_plan_id":"cebpf4jnsgd1na2vs0mg"},{"bike_id":"eacc6dc2-ff04-449c-94e9-a81cc2891acf","system_id":"levelo_inurba_marseille","lat":43.28921,"lon":5.38396,"is_reserved":false,"is_disabled":false,"rental_uris":{"android":"levelo://app?vid=eacc6dc2-ff04-449c-94e9-a81cc2891acf","ios":"levelo://app?vid=eacc6dc2-ff04-449c-94e9-a81cc2891acf"},"vehicle_type_id":"4","last_reported":1766081892,"current_range_meters":5600,"station_id":"ce4bh612rcd13ifvqe6g","pricing_plan_id":"cebpf4jnsgd1na2vs0mg"},{"bike_id":"746a9402-0598-4e05-862a-76f99bfb257b","system_id":"levelo_inurba_marseille","lat":43.28106,"lon":5.37842,"is_reserved":false,"is_disabled":false,"rental_uris":{"android":"levelo://app?vid=746a9402-0598-4e05-862a-76f99bfb257b","ios":"levelo://app?vid=746a9402-0598-4e05-862a-76f99bfb257b"},"vehicle_type_id":"4","last_reported":1766081892,"current_range_meters":5600,"station_id":"ce4bha12rcd13ifvqee0","pricing_plan_id":"cebpf4jnsgd1na2vs0mg"},{"bike_id":"421429dd-cc7d-47ec-9c23-d069c5b26c89","system_id":"levelo_inurba_marseille","lat":43.29729,"lon":5.37089,"is_reserved":false,"is_disabled":false,"rental_uris":{"android":"levelo://app?vid=421429dd-cc7d-47ec-9c23-d069c5b26c89","ios":"levelo://app?vid=421429dd-cc7d-47ec-9c23-d069c5b26c89"},"vehicle_type_id":"4","last_reported":1766081892,"current_range_meters":5600,"station_id":"","pricing_plan_id":"cebpf4jnsgd1na2vs0mg"},{"bike_id":"88031236-6a40-4d32-a503-adc00e8f1b31","system_id":"levelo_inurba_marseille","lat":43.33767,"lon":5.374479,"is_reserved":false,"is_disabled":false,"rental_uris":{"android":"levelo://app?vid=88031236-6a40-4d32-a503-adc00e8f1b31","ios":"levelo://app?vid=88031236-6a40-4d32-a503-adc00e8f1b31"},"vehicle_type_id":"4","last_reported":1766081892,"current_range_meters":6000,"station_id":"","pricing_plan_id":"cebpf4jnsgd1na2vs0mg"},{"bike_id":"cc178787-4e27-477e-85ac-bb874f1df1de","system_id":"levelo_inurba_marseille","lat":43.2733,"lon":5.41054,"is_reserved":false,"is_disabled":false,"rental_uris":{"android":"levelo://app?vid=cc178787-4e27-477e-85ac-bb874f1df1de","ios":"levelo://app?vid=cc178787-4e27-477e-85ac-bb874f1df1de"},"vehicle_type_id":"4","last_reported":1766081892,"current_range_meters":6000,"station_id":"","pricing_plan_id":"cebpf4jnsgd1na2vs0mg"},{"bike_id":"0b8ed324-0846-4be1-8827-b5d8db7fa9ab","system_id":"levelo_inurba_marseille","lat":43.28529,"lon":5.44084,"is_reserved":false,"is_disabled":true,"rental_uris":{"android":"levelo://app?vid=0b8ed324-0846-4be1-8827-b5d8db7fa9ab","ios":"levelo://app?vid=0b8ed324-0846-4be1-8827-b5d8db7fa9ab"},"vehicle_type_id":"4","last_reported":1766081892,"current_range_meters":6000,"station_id":"st_d3j3df2ikq2c7380ej80","pricing_plan_id":"cebpf4jnsgd1na2vs0mg"},{"bike_id":"5ab0e449-2ab1-477b-bd6e-b461080c479e","system_id":"levelo_inurba_marseille","lat":43.287628,"lon":5.379736,"is_reserved":false,"is_disabled":false,"rental_uris":{"android":"levelo://app?vid=5ab0e449-2ab1-477b-bd6e-b461080c479e","ios":"levelo://app?vid=5ab0e449-2ab1-477b-bd6e-b461080c479e"},"vehicle_type_id":"4","last_reported":1766081892,"current_range_meters":6000,"station_id":"ce4bh9p2rcd13ifvqec0","pricing_plan_id":"cebpf4jnsgd1na2vs0mg"},{"bike_id":"3600545b-6af9-4527-916c-36a9c126b47e","system_id":"levelo_inurba_marseille","lat":43.301397,"lon":5.373917,"is_reserved":false,"is_disabled":false,"rental_uris":{"android":"levelo://app?vid=3600545b-6af9-4527-916c-36a9c126b47e","ios":"levelo://app?vid=3600545b-6af9-4527-916c-36a9c126b47e"},"vehicle_type_id":"4","last_reported":1766081892,"current_range_meters":6400,"station_id":"ce4bgs92rcd13ifvqcc0","pricing_plan_id":"cebpf4jnsgd1na2vs0mg"},{"bike_id":"bdcb2b5c-7423-47c6-88fe-a095e6ce1486","system_id":"levelo_inurba_marseille","lat":43.30419,"lon":5.41273,"is_reserved":false,"is_disabled":false,"rental_uris":{"android":"levelo://app?vid=bdcb2b5c-7423-47c6-88fe-a095e6ce1486","ios":"levelo://app?vid=bdcb2b5c-7423-47c6-88fe-a095e6ce1486"},"vehicle_type_id":"4","last_reported":1766081892,"current_range_meters":6400,"station_id":"ce4bhop2rcd13ifvqh8g","pricing_plan_id":"cebpf4jnsgd1na2vs0mg"},{"bike_id":"b9e289e9-e1d8-4db9-8eeb-d4ae6610e1bb","system_id":"levelo_inurba_marseille","lat":43.28864,"lon":5.425165,"is_reserved":false,"is_disabled":false,"rental_uris":{"android":"levelo://app?vid=b9e289e9-e1d8-4db9-8eeb-d4ae6610e1bb","ios":"levelo://app?vid=b9e289e9-e1d8-4db9-8eeb-d4ae6610e1bb"},"vehicle_type_id":"4","last_reported":1766081892,"current_range_meters":6400,"station_id":"st_d3b462108ojc7389ooeg","pricing_plan_id":"cebpf4jnsgd1na2vs0mg"},{"bike_id":"cf90682b-ebdc-45ba-8a34-248880a734d5","system_id":"levelo_inurba_marseille","lat":43.27665,"lon":5.38877,"is_reserved":false,"is_disabled":false,"rental_uris":{"android":"levelo://app?vid=cf90682b-ebdc-45ba-8a34-248880a734d5","ios":"levelo://app?vid=cf90682b-ebdc-45ba-8a34-248880a734d5"},"vehicle_type_id":"4","last_reported":1766081892,"current_range_meters":6400,"station_id":"ce4bhi12rcd13ifvqfo0","pricing_plan_id":"cebpf4jnsgd1na2vs0mg"},{"bike_id":"9d060e63-4d7e-4e36-854f-af327ab0a4e9","system_id":"levelo_inurba_marseille","lat":43.24667,"lon":5.38168,"is_reserved":false,"is_disabled":false,"rental_uris":{"android":"levelo://app?vid=9d060e63-4d7e-4e36-854f-af327ab0a4e9","ios":"levelo://app?vid=9d060e63-4d7e-4e36-854f-af327ab0a4e9"},"vehicle_type_id":"4","last_reported":1766081892,"current_range_meters":6400,"station_id":"ce4bhih2rcd13ifvqfr0","pricing_plan_id":"cebpf4jnsgd1na2vs0mg"},{"bike_id":"4d4a609f-fc61-4268-af29-20a1a3688ae7","system_id":"levelo_inurba_marseille","lat":43.26224,"lon":5.40451,"is_reserved":false,"is_disabled":false,"rental_uris":{"android":"levelo://app?vid=4d4a609f-fc61-4268-af29-20a1a3688ae7","ios":"levelo://app?vid=4d4a609f-fc61-4268-af29-20a1a3688ae7"},"vehicle_type_id":"4","last_reported":1766081892,"current_range_meters":6400,"station_id":"ce4bhmh2rcd13ifvqgmg","pricing_plan_id":"cebpf4jnsgd1na2vs0mg"},{"bike_id":"a1ac0ba7-1483-464e-9caa-755fc64f46a4","system_id":"levelo_inurba_marseille","lat":43.24068,"lon":5.37811,"is_reserved":false,"is_disabled":false,"rental_uris":{"android":"levelo://app?vid=a1ac0ba7-1483-464e-9caa-755fc64f46a4","ios":"levelo://app?vid=a1ac0ba7-1483-464e-9caa-755fc64f46a4"},"vehicle_type_id":"4","last_reported":1766081892,"current_range_meters":6400,"station_id":"ce4bhnp2rcd13ifvqgvg","pricing_plan_id":"cebpf4jnsgd1na2vs0mg"},{"bike_id":"e7339c47-66c5-42a7-89da-ea15da141669","system_id":"levelo_inurba_marseille","lat":43.29258,"lon":5.40911,"is_reserved":false,"is_disabled":false,"rental_uris":{"android":"levelo://app?vid=e7339c47-66c5-42a7-89da-ea15da141669","ios":"levelo://app?vid=e7339c47-66c5-42a7-89da-ea15da141669"},"vehicle_type_id":"4","last_reported":1766081892,"current_range_meters":6400,"station_id":"ce4bh192rcd13ifvqdc0","pricing_plan_id":"cebpf4jnsgd1na2vs0mg"},{"bike_id":"d10ac119-0fd3-4f8b-bf0b-612050365ce9","system_id":"levelo_inurba_marseille","lat":43.292272,"lon":5.361015,"is_reserved":false,"is_disabled":false,"rental_uris":{"android":"levelo://app?vid=d10ac119-0fd3-4f8b-bf0b-612050365ce9","ios":"levelo://app?vid=d10ac119-0fd3-4f8b-bf0b-612050365ce9"},"vehicle_type_id":"4","last_reported":1766081892,"current_range_meters":6400,"station_id":"ce4bhbh2rcd13ifvqeqg","pricing_plan_id":"cebpf4jnsgd1na2vs0mg"},{"bike_id":"39f2d415-55c0-4979-93b4-aea2074ebc56","system_id":"levelo_inurba_marseille","lat":43.30326,"lon":5.40416,"is_reserved":false,"is_disabled":false,"rental_uris":{"android":"levelo://app?vid=39f2d415-55c0-4979-93b4-aea2074ebc56","ios":"levelo://app?vid=39f2d415-55c0-4979-93b4-aea2074ebc56"},"vehicle_type_id":"4","last_reported":1766081892,"current_range_meters":6800,"station_id":"ce4bh012rcd13ifvqd10","pricing_plan_id":"cebpf4jnsgd1na2vs0mg"},{"bike_id":"da18a3b0-ce97-43eb-b181-936e440b40e5","system_id":"levelo_inurba_marseille","lat":43.31705,"lon":5.40389,"is_reserved":false,"is_disabled":false,"rental_uris":{"android":"levelo://app?vid=da18a3b0-ce97-43eb-b181-936e440b40e5","ios":"levelo://app?vid=da18a3b0-ce97-43eb-b181-936e440b40e5"},"vehicle_type_id":"4","last_reported":1766081892,"current_range_meters":6800,"station_id":"","pricing_plan_id":"cebpf4jnsgd1na2vs0mg"},{"bike_id":"50e6eefe-8aea-4054-ab8f-87d6e301ff34","system_id":"levelo_inurba_marseille","lat":43.242882,"lon":5.438462,"is_reserved":false,"is_disabled":false,"rental_uris":{"android":"levelo://app?vid=50e6eefe-8aea-4054-ab8f-87d6e301ff34","ios":"levelo://app?vid=50e6eefe-8aea-4054-ab8f-87d6e301ff34"},"vehicle_type_id":"4","last_reported":1766081892,"current_range_meters":6800,"station_id":"","pricing_plan_id":"cebpf4jnsgd1na2vs0mg"},{"bike_id":"f1f74614-33ac-441f-af80-d784b5e55bd2","system_id":"levelo_inurba_marseille","lat":43.3297,"lon":5.39808,"is_reserved":false,"is_disabled":false,"rental_uris":{"android":"levelo://app?vid=f1f74614-33ac-441f-af80-d784b5e55bd2","ios":"levelo://app?vid=f1f74614-33ac-441f-af80-d784b5e55bd2"},"vehicle_type_id":"4","last_reported":1766081892,"current_range_meters":6800,"station_id":"","pricing_plan_id":"cebpf4jnsgd1na2vs0mg"},{"bike_id":"313e6702-0988-4c97-b2ae-93e2b4ef7eed","system_id":"levelo_inurba_marseille","lat":43.29303,"lon":5.37472,"is_reserved":false,"is_disabled":false,"rental_uris":{"android":"levelo://app?vid=313e6702-0988-4c97-b2ae-93e2b4ef7eed","ios":"levelo://app?vid=313e6702-0988-4c97-b2ae-93e2b4ef7eed"},"vehicle_type_id":"4","last_reported":1766081892,"current_range_meters":6800,"station_id":"ce4bgi12rcd13ifvqb70","pricing_plan_id":"cebpf4jnsgd1na2vs0mg"},{"bike_id":"824b9a7a-34cc-4ed3-b2e1-6d6d8ed080f8","system_id":"levelo_inurba_marseille","lat":43.30136,"lon":5.37423,"is_reserved":false,"is_disabled":false,"rental_uris":{"android":"levelo://app?vid=824b9a7a-34cc-4ed3-b2e1-6d6d8ed080f8","ios":"levelo://app?vid=824b9a7a-34cc-4ed3-b2e1-6d6d8ed080f8"},"vehicle_type_id":"4","last_reported":1766081892,"current_range_meters":7200,"station_id":"ce4bgs92rcd13ifvqcc0","pricing_plan_id":"cebpf4jnsgd1na2vs0mg"},{"bike_id":"07102bbf-8e43-4cc8-abfb-b7bffaf00185","system_id":"levelo_inurba_marseille","lat":43.293818,"lon":5.362633,"is_reserved":false,"is_disabled":false,"rental_uris":{"android":"levelo://app?vid=07102bbf-8e43-4cc8-abfb-b7bffaf00185","ios":"levelo://app?vid=07102bbf-8e43-4cc8-abfb-b7bffaf00185"},"vehicle_type_id":"4","last_reported":1766081892,"current_range_meters":7200,"station_id":"","pricing_plan_id":"cebpf4jnsgd1na2vs0mg"},{"bike_id":"08846695-4080-42ce-9b21-ab23109e6261","system_id":"levelo_inurba_marseille","lat":43.29615,"lon":5.40592,"is_reserved":false,"is_disabled":false,"rental_uris":{"android":"levelo://app?vid=08846695-4080-42ce-9b21-ab23109e6261","ios":"levelo://app?vid=08846695-4080-42ce-9b21-ab23109e6261"},"vehicle_type_id":"4","last_reported":1766081892,"current_range_meters":7200,"station_id":"ce4bh0h2rcd13ifvqd60","pricing_plan_id":"cebpf4jnsgd1na2vs0mg"},{"bike_id":"a2e1a2db-c148-4733-8d7b-25c0725376e5","system_id":"levelo_inurba_marseille","lat":43.244668,"lon":5.425332,"is_reserved":false,"is_disabled":false,"rental_uris":{"android":"levelo://app?vid=a2e1a2db-c148-4733-8d7b-25c0725376e5","ios":"levelo://app?vid=a2e1a2db-c148-4733-8d7b-25c0725376e5"},"vehicle_type_id":"4","last_reported":1766081892,"current_range_meters":7200,"station_id":"st_d4a3vfp97mjs738cd8kg","pricing_plan_id":"cebpf4jnsgd1na2vs0mg"},{"bike_id":"bf6128c7-45be-4d5a-9827-25bed43390df","system_id":"levelo_inurba_marseille","lat":43.23179,"lon":5.39974,"is_reserved":false,"is_disabled":false,"rental_uris":{"android":"levelo://app?vid=bf6128c7-45be-4d5a-9827-25bed43390df","ios":"levelo://app?vid=bf6128c7-45be-4d5a-9827-25bed43390df"},"vehicle_type_id":"4","last_reported":1766081892,"current_range_meters":7200,"station_id":"ce4bhn12rcd13ifvqgqg","pricing_plan_id":"cebpf4jnsgd1na2vs0mg"},{"bike_id":"f1ebd4b7-1f4c-4520-b09c-077bcc74c256","system_id":"levelo_inurba_marseille","lat":43.30802,"lon":5.38161,"is_reserved":false,"is_disabled":false,"rental_uris":{"android":"levelo://app?vid=f1ebd4b7-1f4c-4520-b09c-077bcc74c256","ios":"levelo://app?vid=f1ebd4b7-1f4c-4520-b09c-077bcc74c256"},"vehicle_type_id":"4","last_reported":1766081892,"current_range_meters":7200,"station_id":"ce4bgt12rcd13ifvqce0","pricing_plan_id":"cebpf4jnsgd1na2vs0mg"},{"bike_id":"c7e5daf3-a6b0-4ffc-8e95-134c47362fa1","system_id":"levelo_inurba_marseille","lat":43.30105,"lon":5.36871,"is_reserved":false,"is_disabled":false,"rental_uris":{"android":"levelo://app?vid=c7e5daf3-a6b0-4ffc-8e95-134c47362fa1","ios":"levelo://app?vid=c7e5daf3-a6b0-4ffc-8e95-134c47362fa1"},"vehicle_type_id":"4","last_reported":1766081892,"current_range_meters":7200,"station_id":"","pricing_plan_id":"cebpf4jnsgd1na2vs0mg"},{"bike_id":"9cb52630-f8b4-4ff3-9ddb-fd021bf763e2","system_id":"levelo_inurba_marseille","lat":43.29855,"lon":5.37137,"is_reserved":false,"is_disabled":false,"rental_uris":{"android":"levelo://app?vid=9cb52630-f8b4-4ff3-9ddb-fd021bf763e2","ios":"levelo://app?vid=9cb52630-f8b4-4ff3-9ddb-fd021bf763e2"},"vehicle_type_id":"4","last_reported":1766081892,"current_range_meters":7200,"station_id":"","pricing_plan_id":"cebpf4jnsgd1na2vs0mg"},{"bike_id":"caa296d3-3cc5-4a69-b445-5ef39d3f3433","system_id":"levelo_inurba_marseille","lat":43.28561,"lon":5.39497,"is_reserved":false,"is_disabled":false,"rental_uris":{"android":"levelo://app?vid=caa296d3-3cc5-4a69-b445-5ef39d3f3433","ios":"levelo://app?vid=caa296d3-3cc5-4a69-b445-5ef39d3f3433"},"vehicle_type_id":"4","last_reported":1766081892,"current_range_meters":8000,"station_id":"ce4bh292rcd13ifvqdg0","pricing_plan_id":"cebpf4jnsgd1na2vs0mg"},{"bike_id":"dd56fef1-c898-4325-b80a-5bb5f5b310c7","system_id":"levelo_inurba_marseille","lat":43.28108,"lon":5.37846,"is_reserved":false,"is_disabled":false,"rental_uris":{"android":"levelo://app?vid=dd56fef1-c898-4325-b80a-5bb5f5b310c7","ios":"levelo://app?vid=dd56fef1-c898-4325-b80a-5bb5f5b310c7"},"vehicle_type_id":"4","last_reported":1766081892,"current_range_meters":8000,"station_id":"ce4bha12rcd13ifvqee0","pricing_plan_id":"cebpf4jnsgd1na2vs0mg"},{"bike_id":"d869b882-c372-4a5d-884a-c4b29e4d4752","system_id":"levelo_inurba_marseille","lat":43.29971,"lon":5.38486,"is_reserved":false,"is_disabled":false,"rental_uris":{"android":"levelo://app?vid=d869b882-c372-4a5d-884a-c4b29e4d4752","ios":"levelo://app?vid=d869b882-c372-4a5d-884a-c4b29e4d4752"},"vehicle_type_id":"4","last_reported":1766081892,"current_range_meters":8000,"station_id":"ce4bgj92rcd13ifvqbd0","pricing_plan_id":"cebpf4jnsgd1na2vs0mg"},{"bike_id":"e1917803-7420-4cf7-9d71-6ebc5e65cf5d","system_id":"levelo_inurba_marseille","lat":43.26516,"lon":5.395375,"is_reserved":false,"is_disabled":false,"rental_uris":{"android":"levelo://app?vid=e1917803-7420-4cf7-9d71-6ebc5e65cf5d","ios":"levelo://app?vid=e1917803-7420-4cf7-9d71-6ebc5e65cf5d"},"vehicle_type_id":"4","last_reported":1766081892,"current_range_meters":8000,"station_id":"ce4bhih2rcd13ifvqfr0","pricing_plan_id":"cebpf4jnsgd1na2vs0mg"},{"bike_id":"a9adc8bf-52f1-4c31-a2de-42743dd086bf","system_id":"levelo_inurba_marseille","lat":43.33723,"lon":5.3748,"is_reserved":false,"is_disabled":false,"rental_uris":{"android":"levelo://app?vid=a9adc8bf-52f1-4c31-a2de-42743dd086bf","ios":"levelo://app?vid=a9adc8bf-52f1-4c31-a2de-42743dd086bf"},"vehicle_type_id":"4","last_reported":1766081892,"current_range_meters":8000,"station_id":"","pricing_plan_id":"cebpf4jnsgd1na2vs0mg"},{"bike_id":"af1bd026-4937-4449-8e93-97d6f6c10bc9","system_id":"levelo_inurba_marseille","lat":43.28272,"lon":5.35069,"is_reserved":false,"is_disabled":false,"rental_uris":{"android":"levelo://app?vid=af1bd026-4937-4449-8e93-97d6f6c10bc9","ios":"levelo://app?vid=af1bd026-4937-4449-8e93-97d6f6c10bc9"},"vehicle_type_id":"4","last_reported":1766081892,"current_range_meters":8000,"station_id":"ce4bhbp2rcd13ifvqerg","pricing_plan_id":"cebpf4jnsgd1na2vs0mg"},{"bike_id":"25fc7267-7d45-4147-9193-14d133583efe","system_id":"levelo_inurba_marseille","lat":43.25707,"lon":5.41099,"is_reserved":false,"is_disabled":false,"rental_uris":{"android":"levelo://app?vid=25fc7267-7d45-4147-9193-14d133583efe","ios":"levelo://app?vid=25fc7267-7d45-4147-9193-14d133583efe"},"vehicle_type_id":"4","last_reported":1766081892,"current_range_meters":8000,"station_id":"ce4bhkp2rcd13ifvqgd0","pricing_plan_id":"cebpf4jnsgd1na2vs0mg"},{"bike_id":"b375d3a0-974b-4dc4-962f-50415bd26cd5","system_id":"levelo_inurba_marseille","lat":43.27432,"lon":5.39408,"is_reserved":false,"is_disabled":false,"rental_uris":{"android":"levelo://app?vid=b375d3a0-974b-4dc4-962f-50415bd26cd5","ios":"levelo://app?vid=b375d3a0-974b-4dc4-962f-50415bd26cd5"},"vehicle_type_id":"4","last_reported":1766081892,"current_range_meters":8400,"station_id":"ce4bhdp2rcd13ifvqf20","pricing_plan_id":"cebpf4jnsgd1na2vs0mg"},{"bike_id":"00fd2dcb-6faf-4c7a-8c99-525909084655","system_id":"levelo_inurba_marseille","lat":43.28165,"lon":5.42647,"is_reserved":false,"is_disabled":true,"rental_uris":{"android":"levelo://app?vid=00fd2dcb-6faf-4c7a-8c99-525909084655","ios":"levelo://app?vid=00fd2dcb-6faf-4c7a-8c99-525909084655"},"vehicle_type_id":"4","last_reported":1766081892,"current_range_meters":8400,"station_id":"ce4bhnh2rcd13ifvqgug","pricing_plan_id":"cebpf4jnsgd1na2vs0mg"},{"bike_id":"42dad5b0-27ae-4432-b918-b4b16669e884","system_id":"levelo_inurba_marseille","lat":43.26929,"lon":5.38932,"is_reserved":false,"is_disabled":false,"rental_uris":{"android":"levelo://app?vid=42dad5b0-27ae-4432-b918-b4b16669e884","ios":"levelo://app?vid=42dad5b0-27ae-4432-b918-b4b16669e884"},"vehicle_type_id":"4","last_reported":1766081892,"current_range_meters":8400,"station_id":"ce4bhhh2rcd13ifvqfl0","pricing_plan_id":"cebpf4jnsgd1na2vs0mg"},{"bike_id":"db95ead4-0a8c-4816-8de0-12777ba2811c","system_id":"levelo_inurba_marseille","lat":43.28481,"lon":5.384189,"is_reserved":false,"is_disabled":false,"rental_uris":{"android":"levelo://app?vid=db95ead4-0a8c-4816-8de0-12777ba2811c","ios":"levelo://app?vid=db95ead4-0a8c-4816-8de0-12777ba2811c"},"vehicle_type_id":"4","last_reported":1766081892,"current_range_meters":8400,"station_id":"","pricing_plan_id":"cebpf4jnsgd1na2vs0mg"},{"bike_id":"3418b159-b86a-4a29-9eee-180d4aefe5dd","system_id":"levelo_inurba_marseille","lat":43.30324,"lon":5.40434,"is_reserved":false,"is_disabled":false,"rental_uris":{"android":"levelo://app?vid=3418b159-b86a-4a29-9eee-180d4aefe5dd","ios":"levelo://app?vid=3418b159-b86a-4a29-9eee-180d4aefe5dd"},"vehicle_type_id":"4","last_reported":1766081892,"current_range_meters":8400,"station_id":"ce4bh012rcd13ifvqd10","pricing_plan_id":"cebpf4jnsgd1na2vs0mg"},{"bike_id":"9cd0b5cd-982d-46c9-b94d-972458c0583a","system_id":"levelo_inurba_marseille","lat":43.30649,"lon":5.37367,"is_reserved":false,"is_disabled":false,"rental_uris":{"android":"levelo://app?vid=9cd0b5cd-982d-46c9-b94d-972458c0583a","ios":"levelo://app?vid=9cd0b5cd-982d-46c9-b94d-972458c0583a"},"vehicle_type_id":"4","last_reported":1766081892,"current_range_meters":8400,"station_id":"","pricing_plan_id":"cebpf4jnsgd1na2vs0mg"},{"bike_id":"405c1cf1-0982-4d80-a547-f11d14b8e1a2","system_id":"levelo_inurba_marseille","lat":43.28564,"lon":5.39489,"is_reserved":false,"is_disabled":false,"rental_uris":{"android":"levelo://app?vid=405c1cf1-0982-4d80-a547-f11d14b8e1a2","ios":"levelo://app?vid=405c1cf1-0982-4d80-a547-f11d14b8e1a2"},"vehicle_type_id":"4","last_reported":1766081892,"current_range_meters":8400,"station_id":"ce4bh292rcd13ifvqdg0","pricing_plan_id":"cebpf4jnsgd1na2vs0mg"},{"bike_id":"bad5c1cc-fbf7-4758-aec3-6f82d377375c","system_id":"levelo_inurba_marseille","lat":43.32657,"lon":5.40992,"is_reserved":false,"is_disabled":false,"rental_uris":{"android":"levelo://app?vid=bad5c1cc-fbf7-4758-aec3-6f82d377375c","ios":"levelo://app?vid=bad5c1cc-fbf7-4758-aec3-6f82d377375c"},"vehicle_type_id":"4","last_reported":1766081892,"current_range_meters":8400,"station_id":"ce4bhpp2rcd13ifvqhgg","pricing_plan_id":"cebpf4jnsgd1na2vs0mg"},{"bike_id":"4da951c9-7b6c-4486-a03c-13a5b0e550e5","system_id":"levelo_inurba_marseille","lat":43.28926,"lon":5.39627,"is_reserved":false,"is_disabled":false,"rental_uris":{"android":"levelo://app?vid=4da951c9-7b6c-4486-a03c-13a5b0e550e5","ios":"levelo://app?vid=4da951c9-7b6c-4486-a03c-13a5b0e550e5"},"vehicle_type_id":"4","last_reported":1766081892,"current_range_meters":8400,"station_id":"ce4bh3h2rcd13ifvqdn0","pricing_plan_id":"cebpf4jnsgd1na2vs0mg"},{"bike_id":"3cf7648b-d253-4892-b391-ab35505ae7a3","system_id":"levelo_inurba_marseille","lat":43.26568,"lon":5.39011,"is_reserved":false,"is_disabled":false,"rental_uris":{"android":"levelo://app?vid=3cf7648b-d253-4892-b391-ab35505ae7a3","ios":"levelo://app?vid=3cf7648b-d253-4892-b391-ab35505ae7a3"},"vehicle_type_id":"4","last_reported":1766081892,"current_range_meters":8400,"station_id":"ce4bhe12rcd13ifvqf30","pricing_plan_id":"cebpf4jnsgd1na2vs0mg"},{"bike_id":"723ac62e-55cd-4b04-be53-e36f1872c204","system_id":"levelo_inurba_marseille","lat":43.27811,"lon":5.4071,"is_reserved":false,"is_disabled":false,"rental_uris":{"android":"levelo://app?vid=723ac62e-55cd-4b04-be53-e36f1872c204","ios":"levelo://app?vid=723ac62e-55cd-4b04-be53-e36f1872c204"},"vehicle_type_id":"4","last_reported":1766081892,"current_range_meters":8800,"station_id":"ce4bhnh2rcd13ifvqgtg","pricing_plan_id":"cebpf4jnsgd1na2vs0mg"},{"bike_id":"aa0bafa5-91ae-44cf-9e4a-d66aaa5afe34","system_id":"levelo_inurba_marseille","lat":43.28678,"lon":5.38704,"is_reserved":false,"is_disabled":false,"rental_uris":{"android":"levelo://app?vid=aa0bafa5-91ae-44cf-9e4a-d66aaa5afe34","ios":"levelo://app?vid=aa0bafa5-91ae-44cf-9e4a-d66aaa5afe34"},"vehicle_type_id":"4","last_reported":1766081892,"current_range_meters":8800,"station_id":"ce4bh492rcd13ifvqdug","pricing_plan_id":"cebpf4jnsgd1na2vs0mg"},{"bike_id":"30ef4240-99f6-4f75-a9b6-2c15622a7da4","system_id":"levelo_inurba_marseille","lat":43.299126,"lon":5.381487,"is_reserved":false,"is_disabled":false,"rental_uris":{"android":"levelo://app?vid=30ef4240-99f6-4f75-a9b6-2c15622a7da4","ios":"levelo://app?vid=30ef4240-99f6-4f75-a9b6-2c15622a7da4"},"vehicle_type_id":"4","last_reported":1766081892,"current_range_meters":8800,"station_id":"ce4bgj12rcd13ifvqbc0","pricing_plan_id":"cebpf4jnsgd1na2vs0mg"},{"bike_id":"41ba74d0-020b-447f-9a19-54fe0b375a10","system_id":"levelo_inurba_marseille","lat":43.30207,"lon":5.39464,"is_reserved":false,"is_disabled":false,"rental_uris":{"android":"levelo://app?vid=41ba74d0-020b-447f-9a19-54fe0b375a10","ios":"levelo://app?vid=41ba74d0-020b-447f-9a19-54fe0b375a10"},"vehicle_type_id":"4","last_reported":1766081892,"current_range_meters":8800,"station_id":"ce4bh0p2rcd13ifvqd70","pricing_plan_id":"cebpf4jnsgd1na2vs0mg"},{"bike_id":"ebcd0d10-df3c-4e1d-91fb-3b7f9f34f179","system_id":"levelo_inurba_marseille","lat":43.29893,"lon":5.39733,"is_reserved":false,"is_disabled":false,"rental_uris":{"android":"levelo://app?vid=ebcd0d10-df3c-4e1d-91fb-3b7f9f34f179","ios":"levelo://app?vid=ebcd0d10-df3c-4e1d-91fb-3b7f9f34f179"},"vehicle_type_id":"4","last_reported":1766081892,"current_range_meters":8800,"station_id":"ce4bh0h2rcd13ifvqd50","pricing_plan_id":"cebpf4jnsgd1na2vs0mg"},{"bike_id":"f9902b54-359a-4a2d-9dab-8d982ebd9f4d","system_id":"levelo_inurba_marseille","lat":43.296198,"lon":5.377091,"is_reserved":false,"is_disabled":false,"rental_uris":{"android":"levelo://app?vid=f9902b54-359a-4a2d-9dab-8d982ebd9f4d","ios":"levelo://app?vid=f9902b54-359a-4a2d-9dab-8d982ebd9f4d"},"vehicle_type_id":"4","last_reported":1766081892,"current_range_meters":8800,"station_id":"","pricing_plan_id":"cebpf4jnsgd1na2vs0mg"},{"bike_id":"b9dc569b-2ddb-4250-9aea-cef9ec0fb291","system_id":"levelo_inurba_marseille","lat":43.298498,"lon":5.362852,"is_reserved":false,"is_disabled":false,"rental_uris":{"android":"levelo://app?vid=b9dc569b-2ddb-4250-9aea-cef9ec0fb291","ios":"levelo://app?vid=b9dc569b-2ddb-4250-9aea-cef9ec0fb291"},"vehicle_type_id":"4","last_reported":1766081892,"current_range_meters":8800,"station_id":"ce4bgpp2rcd13ifvqc3g","pricing_plan_id":"cebpf4jnsgd1na2vs0mg"},{"bike_id":"fc32f381-1cee-498a-8684-9c82a193dc10","system_id":"levelo_inurba_marseille","lat":43.275182,"lon":5.384552,"is_reserved":false,"is_disabled":false,"rental_uris":{"android":"levelo://app?vid=fc32f381-1cee-498a-8684-9c82a193dc10","ios":"levelo://app?vid=fc32f381-1cee-498a-8684-9c82a193dc10"},"vehicle_type_id":"4","last_reported":1766081892,"current_range_meters":8800,"station_id":"ce4bhnp2rcd13ifvqgvg","pricing_plan_id":"cebpf4jnsgd1na2vs0mg"},{"bike_id":"36eb81a7-f677-4f3b-9de1-7ae127309ea6","system_id":"levelo_inurba_marseille","lat":43.2808,"lon":5.39663,"is_reserved":false,"is_disabled":false,"rental_uris":{"android":"levelo://app?vid=36eb81a7-f677-4f3b-9de1-7ae127309ea6","ios":"levelo://app?vid=36eb81a7-f677-4f3b-9de1-7ae127309ea6"},"vehicle_type_id":"4","last_reported":1766081892,"current_range_meters":9200,"station_id":"ce4bho12rcd13ifvqh2g","pricing_plan_id":"cebpf4jnsgd1na2vs0mg"},{"bike_id":"72d16cb8-37e7-427d-b68b-4cbff189b611","system_id":"levelo_inurba_marseille","lat":43.30636,"lon":5.40081,"is_reserved":false,"is_disabled":true,"rental_uris":{"android":"levelo://app?vid=72d16cb8-37e7-427d-b68b-4cbff189b611","ios":"levelo://app?vid=72d16cb8-37e7-427d-b68b-4cbff189b611"},"vehicle_type_id":"4","last_reported":1766081892,"current_range_meters":9200,"station_id":"ce4bh112rcd13ifvqda0","pricing_plan_id":"cebpf4jnsgd1na2vs0mg"},{"bike_id":"3cde007c-a409-4597-91e7-ca2461274ad1","system_id":"levelo_inurba_marseille","lat":43.26579,"lon":5.40173,"is_reserved":false,"is_disabled":false,"rental_uris":{"android":"levelo://app?vid=3cde007c-a409-4597-91e7-ca2461274ad1","ios":"levelo://app?vid=3cde007c-a409-4597-91e7-ca2461274ad1"},"vehicle_type_id":"4","last_reported":1766081892,"current_range_meters":9200,"station_id":"","pricing_plan_id":"cebpf4jnsgd1na2vs0mg"},{"bike_id":"30ae3899-651e-4548-99d2-ab0a7d8ea338","system_id":"levelo_inurba_marseille","lat":43.28427,"lon":5.3753,"is_reserved":false,"is_disabled":false,"rental_uris":{"android":"levelo://app?vid=30ae3899-651e-4548-99d2-ab0a7d8ea338","ios":"levelo://app?vid=30ae3899-651e-4548-99d2-ab0a7d8ea338"},"vehicle_type_id":"4","last_reported":1766081892,"current_range_meters":9200,"station_id":"ce4bh412rcd13ifvqds0","pricing_plan_id":"cebpf4jnsgd1na2vs0mg"},{"bike_id":"48bd3e88-47f1-41f2-a00a-c1126f085a52","system_id":"levelo_inurba_marseille","lat":43.29263,"lon":5.38438,"is_reserved":false,"is_disabled":false,"rental_uris":{"android":"levelo://app?vid=48bd3e88-47f1-41f2-a00a-c1126f085a52","ios":"levelo://app?vid=48bd3e88-47f1-41f2-a00a-c1126f085a52"},"vehicle_type_id":"4","last_reported":1766081892,"current_range_meters":9200,"station_id":"ce4bh692rcd13ifvqea0","pricing_plan_id":"cebpf4jnsgd1na2vs0mg"},{"bike_id":"0f033089-1424-4fb4-b3dd-976abb0af258","system_id":"levelo_inurba_marseille","lat":43.24074,"lon":5.37747,"is_reserved":false,"is_disabled":false,"rental_uris":{"android":"levelo://app?vid=0f033089-1424-4fb4-b3dd-976abb0af258","ios":"levelo://app?vid=0f033089-1424-4fb4-b3dd-976abb0af258"},"vehicle_type_id":"4","last_reported":1766081892,"current_range_meters":9200,"station_id":"ce4bhnp2rcd13ifvqgvg","pricing_plan_id":"cebpf4jnsgd1na2vs0mg"},{"bike_id":"1349b4c8-84c3-45e4-b3ec-8b3c755148c2","system_id":"levelo_inurba_marseille","lat":43.29037,"lon":5.39966,"is_reserved":false,"is_disabled":false,"rental_uris":{"android":"levelo://app?vid=1349b4c8-84c3-45e4-b3ec-8b3c755148c2","ios":"levelo://app?vid=1349b4c8-84c3-45e4-b3ec-8b3c755148c2"},"vehicle_type_id":"4","last_reported":1766081892,"current_range_meters":9200,"station_id":"ce4bh392rcd13ifvqdm0","pricing_plan_id":"cebpf4jnsgd1na2vs0mg"},{"bike_id":"a6365b95-0c1f-4c94-a012-c0e22f4b2a20","system_id":"levelo_inurba_marseille","lat":43.31712,"lon":5.43702,"is_reserved":false,"is_disabled":false,"rental_uris":{"android":"levelo://app?vid=a6365b95-0c1f-4c94-a012-c0e22f4b2a20","ios":"levelo://app?vid=a6365b95-0c1f-4c94-a012-c0e22f4b2a20"},"vehicle_type_id":"4","last_reported":1766081892,"current_range_meters":9200,"station_id":"ce4bhp92rcd13ifvqhcg","pricing_plan_id":"cebpf4jnsgd1na2vs0mg"},{"bike_id":"539241b1-d636-4581-87f5-003d72e485d3","system_id":"levelo_inurba_marseille","lat":43.300872,"lon":5.390792,"is_reserved":false,"is_disabled":false,"rental_uris":{"android":"levelo://app?vid=539241b1-d636-4581-87f5-003d72e485d3","ios":"levelo://app?vid=539241b1-d636-4581-87f5-003d72e485d3"},"vehicle_type_id":"4","last_reported":1766081892,"current_range_meters":9200,"station_id":"ce4bh192rcd13ifvqdb0","pricing_plan_id":"cebpf4jnsgd1na2vs0mg"},{"bike_id":"67abe438-cf2a-4fd0-86c7-cb1c8f47a038","system_id":"levelo_inurba_marseille","lat":43.29303,"lon":5.37469,"is_reserved":false,"is_disabled":false,"rental_uris":{"android":"levelo://app?vid=67abe438-cf2a-4fd0-86c7-cb1c8f47a038","ios":"levelo://app?vid=67abe438-cf2a-4fd0-86c7-cb1c8f47a038"},"vehicle_type_id":"4","last_reported":1766081892,"current_range_meters":9200,"station_id":"ce4bgi12rcd13ifvqb70","pricing_plan_id":"cebpf4jnsgd1na2vs0mg"},{"bike_id":"3ff94115-0007-4108-afda-4576fdcf1892","system_id":"levelo_inurba_marseille","lat":43.30333,"lon":5.40451,"is_reserved":false,"is_disabled":false,"rental_uris":{"android":"levelo://app?vid=3ff94115-0007-4108-afda-4576fdcf1892","ios":"levelo://app?vid=3ff94115-0007-4108-afda-4576fdcf1892"},"vehicle_type_id":"4","last_reported":1766081892,"current_range_meters":9600,"station_id":"ce4bh012rcd13ifvqd10","pricing_plan_id":"cebpf4jnsgd1na2vs0mg"},{"bike_id":"d8a29574-0ab8-4afc-acec-105e97478607","system_id":"levelo_inurba_marseille","lat":43.30636,"lon":5.40072,"is_reserved":false,"is_disabled":false,"rental_uris":{"android":"levelo://app?vid=d8a29574-0ab8-4afc-acec-105e97478607","ios":"levelo://app?vid=d8a29574-0ab8-4afc-acec-105e97478607"},"vehicle_type_id":"4","last_reported":1766081892,"current_range_meters":9600,"station_id":"ce4bh112rcd13ifvqda0","pricing_plan_id":"cebpf4jnsgd1na2vs0mg"},{"bike_id":"81508f0a-e327-4705-ae72-228165570b37","system_id":"levelo_inurba_marseille","lat":43.25091,"lon":5.38892,"is_reserved":false,"is_disabled":false,"rental_uris":{"android":"levelo://app?vid=81508f0a-e327-4705-ae72-228165570b37","ios":"levelo://app?vid=81508f0a-e327-4705-ae72-228165570b37"},"vehicle_type_id":"4","last_reported":1766081892,"current_range_meters":9600,"station_id":"","pricing_plan_id":"cebpf4jnsgd1na2vs0mg"},{"bike_id":"35ef668f-6bcc-40a2-9a54-41e37a27d64f","system_id":"levelo_inurba_marseille","lat":43.28038,"lon":5.36947,"is_reserved":false,"is_disabled":false,"rental_uris":{"android":"levelo://app?vid=35ef668f-6bcc-40a2-9a54-41e37a27d64f","ios":"levelo://app?vid=35ef668f-6bcc-40a2-9a54-41e37a27d64f"},"vehicle_type_id":"4","last_reported":1766081892,"current_range_meters":9600,"station_id":"ce4bha12rcd13ifvqef0","pricing_plan_id":"cebpf4jnsgd1na2vs0mg"},{"bike_id":"5247c107-c5e5-474f-8cc9-64a51152159b","system_id":"levelo_inurba_marseille","lat":43.30136,"lon":5.43136,"is_reserved":false,"is_disabled":false,"rental_uris":{"android":"levelo://app?vid=5247c107-c5e5-474f-8cc9-64a51152159b","ios":"levelo://app?vid=5247c107-c5e5-474f-8cc9-64a51152159b"},"vehicle_type_id":"4","last_reported":1766081892,"current_range_meters":9600,"station_id":"st_d3js3co5814s73ftftug","pricing_plan_id":"cebpf4jnsgd1na2vs0mg"},{"bike_id":"22596eb7-04e0-400a-8545-ffe5eb40bea6","system_id":"levelo_inurba_marseille","lat":43.29938,"lon":5.37455,"is_reserved":false,"is_disabled":false,"rental_uris":{"android":"levelo://app?vid=22596eb7-04e0-400a-8545-ffe5eb40bea6","ios":"levelo://app?vid=22596eb7-04e0-400a-8545-ffe5eb40bea6"},"vehicle_type_id":"4","last_reported":1766081892,"current_range_meters":9600,"station_id":"ce4bgjh2rcd13ifvqbg0","pricing_plan_id":"cebpf4jnsgd1na2vs0mg"},{"bike_id":"f1923ea4-f55f-4c2c-b01a-d14712855a45","system_id":"levelo_inurba_marseille","lat":43.29266,"lon":5.38439,"is_reserved":false,"is_disabled":false,"rental_uris":{"android":"levelo://app?vid=f1923ea4-f55f-4c2c-b01a-d14712855a45","ios":"levelo://app?vid=f1923ea4-f55f-4c2c-b01a-d14712855a45"},"vehicle_type_id":"4","last_reported":1766081892,"current_range_meters":9600,"station_id":"ce4bh692rcd13ifvqea0","pricing_plan_id":"cebpf4jnsgd1na2vs0mg"},{"bike_id":"f87a7598-e6b9-4feb-a6e3-d98d4acd6941","system_id":"levelo_inurba_marseille","lat":43.24174,"lon":5.36407,"is_reserved":false,"is_disabled":false,"rental_uris":{"android":"levelo://app?vid=f87a7598-e6b9-4feb-a6e3-d98d4acd6941","ios":"levelo://app?vid=f87a7598-e6b9-4feb-a6e3-d98d4acd6941"},"vehicle_type_id":"4","last_reported":1766081892,"current_range_meters":9600,"station_id":"cpo36qri1sfpv3e86is0","pricing_plan_id":"cebpf4jnsgd1na2vs0mg"},{"bike_id":"09575982-d1ce-48f3-97ed-c290bec651a2","system_id":"levelo_inurba_marseille","lat":43.285401,"lon":5.441004,"is_reserved":false,"is_disabled":false,"rental_uris":{"android":"levelo://app?vid=09575982-d1ce-48f3-97ed-c290bec651a2","ios":"levelo://app?vid=09575982-d1ce-48f3-97ed-c290bec651a2"},"vehicle_type_id":"4","last_reported":1766081892,"current_range_meters":9600,"station_id":"st_d3j3df2ikq2c7380ej80","pricing_plan_id":"cebpf4jnsgd1na2vs0mg"},{"bike_id":"cd4b798f-ef73-462b-a871-c0e46f70c7b6","system_id":"levelo_inurba_marseille","lat":43.29737,"lon":5.37669,"is_reserved":false,"is_disabled":false,"rental_uris":{"android":"levelo://app?vid=cd4b798f-ef73-462b-a871-c0e46f70c7b6","ios":"levelo://app?vid=cd4b798f-ef73-462b-a871-c0e46f70c7b6"},"vehicle_type_id":"4","last_reported":1766081892,"current_range_meters":10000,"station_id":"ce4bgkh2rcd13ifvqbl0","pricing_plan_id":"cebpf4jnsgd1na2vs0mg"},{"bike_id":"50bb104f-bdbe-4eab-bd19-f33b1d1b4be5","system_id":"levelo_inurba_marseille","lat":43.25338,"lon":5.4217,"is_reserved":false,"is_disabled":false,"rental_uris":{"android":"levelo://app?vid=50bb104f-bdbe-4eab-bd19-f33b1d1b4be5","ios":"levelo://app?vid=50bb104f-bdbe-4eab-bd19-f33b1d1b4be5"},"vehicle_type_id":"4","last_reported":1766081892,"current_range_meters":10000,"station_id":"st_d2m65c5bi1j21697t3ng","pricing_plan_id":"cebpf4jnsgd1na2vs0mg"},{"bike_id":"345527b9-e5b3-41dc-86fa-0725a99c666a","system_id":"levelo_inurba_marseille","lat":43.337078,"lon":5.367371,"is_reserved":false,"is_disabled":false,"rental_uris":{"android":"levelo://app?vid=345527b9-e5b3-41dc-86fa-0725a99c666a","ios":"levelo://app?vid=345527b9-e5b3-41dc-86fa-0725a99c666a"},"vehicle_type_id":"4","last_reported":1766081892,"current_range_meters":10000,"station_id":"","pricing_plan_id":"cebpf4jnsgd1na2vs0mg"},{"bike_id":"a24ee5b6-572d-4941-9ef3-a9d89c28bd82","system_id":"levelo_inurba_marseille","lat":43.30542,"lon":5.36703,"is_reserved":false,"is_disabled":false,"rental_uris":{"android":"levelo://app?vid=a24ee5b6-572d-4941-9ef3-a9d89c28bd82","ios":"levelo://app?vid=a24ee5b6-572d-4941-9ef3-a9d89c28bd82"},"vehicle_type_id":"4","last_reported":1766081892,"current_range_meters":10000,"station_id":"ce4bgrp2rcd13ifvqc9g","pricing_plan_id":"cebpf4jnsgd1na2vs0mg"},{"bike_id":"c8ae05dc-be68-4290-a207-222d34083f3e","system_id":"levelo_inurba_marseille","lat":43.28306,"lon":5.38919,"is_reserved":false,"is_disabled":false,"rental_uris":{"android":"levelo://app?vid=c8ae05dc-be68-4290-a207-222d34083f3e","ios":"levelo://app?vid=c8ae05dc-be68-4290-a207-222d34083f3e"},"vehicle_type_id":"4","last_reported":1766081892,"current_range_meters":10000,"station_id":"","pricing_plan_id":"cebpf4jnsgd1na2vs0mg"},{"bike_id":"72791d0f-8c58-4380-ad24-56fce68b1de9","system_id":"levelo_inurba_marseille","lat":43.27363,"lon":5.3625,"is_reserved":false,"is_disabled":false,"rental_uris":{"android":"levelo://app?vid=72791d0f-8c58-4380-ad24-56fce68b1de9","ios":"levelo://app?vid=72791d0f-8c58-4380-ad24-56fce68b1de9"},"vehicle_type_id":"4","last_reported":1766081892,"current_range_meters":10000,"station_id":"ce4bhbh2rcd13ifvqeo0","pricing_plan_id":"cebpf4jnsgd1na2vs0mg"},{"bike_id":"6fcd2a61-d6fc-441c-b5d6-6494ec87c0ea","system_id":"levelo_inurba_marseille","lat":43.30428,"lon":5.3889,"is_reserved":false,"is_disabled":false,"rental_uris":{"android":"levelo://app?vid=6fcd2a61-d6fc-441c-b5d6-6494ec87c0ea","ios":"levelo://app?vid=6fcd2a61-d6fc-441c-b5d6-6494ec87c0ea"},"vehicle_type_id":"4","last_reported":1766081892,"current_range_meters":10000,"station_id":"ce4bgk12rcd13ifvqbi0","pricing_plan_id":"cebpf4jnsgd1na2vs0mg"},{"bike_id":"3475609a-2e5d-412d-a2e5-147e14fbc833","system_id":"levelo_inurba_marseille","lat":43.28106,"lon":5.37835,"is_reserved":false,"is_disabled":false,"rental_uris":{"android":"levelo://app?vid=3475609a-2e5d-412d-a2e5-147e14fbc833","ios":"levelo://app?vid=3475609a-2e5d-412d-a2e5-147e14fbc833"},"vehicle_type_id":"4","last_reported":1766081892,"current_range_meters":10000,"station_id":"ce4bha12rcd13ifvqee0","pricing_plan_id":"cebpf4jnsgd1na2vs0mg"},{"bike_id":"20c06168-1bec-4dbd-8bc8-016413afa177","system_id":"levelo_inurba_marseille","lat":43.27071,"lon":5.42285,"is_reserved":false,"is_disabled":false,"rental_uris":{"android":"levelo://app?vid=20c06168-1bec-4dbd-8bc8-016413afa177","ios":"levelo://app?vid=20c06168-1bec-4dbd-8bc8-016413afa177"},"vehicle_type_id":"4","last_reported":1766081892,"current_range_meters":10000,"station_id":"ce4bhk92rcd13ifvqgb0","pricing_plan_id":"cebpf4jnsgd1na2vs0mg"},{"bike_id":"1c783e39-3092-489d-97e8-0a4c367392b3","system_id":"levelo_inurba_marseille","lat":43.30612,"lon":5.37233,"is_reserved":false,"is_disabled":false,"rental_uris":{"android":"levelo://app?vid=1c783e39-3092-489d-97e8-0a4c367392b3","ios":"levelo://app?vid=1c783e39-3092-489d-97e8-0a4c367392b3"},"vehicle_type_id":"4","last_reported":1766081892,"current_range_meters":10800,"station_id":"ce4bgqh2rcd13ifvqc4g","pricing_plan_id":"cebpf4jnsgd1na2vs0mg"},{"bike_id":"770f770c-92bc-4bf6-9a6c-d18d64563ed7","system_id":"levelo_inurba_marseille","lat":43.29969,"lon":5.37169,"is_reserved":false,"is_disabled":false,"rental_uris":{"android":"levelo://app?vid=770f770c-92bc-4bf6-9a6c-d18d64563ed7","ios":"levelo://app?vid=770f770c-92bc-4bf6-9a6c-d18d64563ed7"},"vehicle_type_id":"4","last_reported":1766081892,"current_range_meters":10800,"station_id":"ce4bgr92rcd13ifvqc7g","pricing_plan_id":"cebpf4jnsgd1na2vs0mg"},{"bike_id":"38cf53a6-ff03-4245-b99b-a3c30164292b","system_id":"levelo_inurba_marseille","lat":43.29598,"lon":5.380981,"is_reserved":false,"is_disabled":true,"rental_uris":{"android":"levelo://app?vid=38cf53a6-ff03-4245-b99b-a3c30164292b","ios":"levelo://app?vid=38cf53a6-ff03-4245-b99b-a3c30164292b"},"vehicle_type_id":"4","last_reported":1766081892,"current_range_meters":10800,"station_id":"ce4bgl12rcd13ifvqbo0","pricing_plan_id":"cebpf4jnsgd1na2vs0mg"},{"bike_id":"4a614ce4-d61c-499d-8955-0569e02f377b","system_id":"levelo_inurba_marseille","lat":43.275148,"lon":5.372802,"is_reserved":false,"is_disabled":false,"rental_uris":{"android":"levelo://app?vid=4a614ce4-d61c-499d-8955-0569e02f377b","ios":"levelo://app?vid=4a614ce4-d61c-499d-8955-0569e02f377b"},"vehicle_type_id":"4","last_reported":1766081892,"current_range_meters":10800,"station_id":"","pricing_plan_id":"cebpf4jnsgd1na2vs0mg"},{"bike_id":"6a1e1967-fdaf-4e65-ae26-1571d7f0290c","system_id":"levelo_inurba_marseille","lat":43.337605,"lon":5.374353,"is_reserved":false,"is_disabled":false,"rental_uris":{"android":"levelo://app?vid=6a1e1967-fdaf-4e65-ae26-1571d7f0290c","ios":"levelo://app?vid=6a1e1967-fdaf-4e65-ae26-1571d7f0290c"},"vehicle_type_id":"4","last_reported":1766081892,"current_range_meters":10800,"station_id":"","pricing_plan_id":"cebpf4jnsgd1na2vs0mg"},{"bike_id":"1b3c2c60-6ff2-4726-98a5-0e15725bfce9","system_id":"levelo_inurba_marseille","lat":43.29574,"lon":5.36735,"is_reserved":false,"is_disabled":false,"rental_uris":{"android":"levelo://app?vid=1b3c2c60-6ff2-4726-98a5-0e15725bfce9","ios":"levelo://app?vid=1b3c2c60-6ff2-4726-98a5-0e15725bfce9"},"vehicle_type_id":"4","last_reported":1766081892,"current_range_meters":10800,"station_id":"ce4bgph2rcd13ifvqc2g","pricing_plan_id":"cebpf4jnsgd1na2vs0mg"},{"bike_id":"51f43a5f-2a5a-4c8a-847c-1c5481be0271","system_id":"levelo_inurba_marseille","lat":43.30639,"lon":5.36605,"is_reserved":false,"is_disabled":true,"rental_uris":{"android":"levelo://app?vid=51f43a5f-2a5a-4c8a-847c-1c5481be0271","ios":"levelo://app?vid=51f43a5f-2a5a-4c8a-847c-1c5481be0271"},"vehicle_type_id":"4","last_reported":1766081892,"current_range_meters":10800,"station_id":"","pricing_plan_id":"cebpf4jnsgd1na2vs0mg"},{"bike_id":"bd47acfe-2f1c-4624-b949-7c14c9226394","system_id":"levelo_inurba_marseille","lat":43.30381,"lon":5.4129,"is_reserved":false,"is_disabled":false,"rental_uris":{"android":"levelo://app?vid=bd47acfe-2f1c-4624-b949-7c14c9226394","ios":"levelo://app?vid=bd47acfe-2f1c-4624-b949-7c14c9226394"},"vehicle_type_id":"4","last_reported":1766081892,"current_range_meters":10800,"station_id":"ce4bhop2rcd13ifvqh8g","pricing_plan_id":"cebpf4jnsgd1na2vs0mg"},{"bike_id":"cebff7cc-c850-4ed4-a79c-68739602a662","system_id":"levelo_inurba_marseille","lat":43.29881,"lon":5.389,"is_reserved":false,"is_disabled":false,"rental_uris":{"android":"levelo://app?vid=cebff7cc-c850-4ed4-a79c-68739602a662","ios":"levelo://app?vid=cebff7cc-c850-4ed4-a79c-68739602a662"},"vehicle_type_id":"4","last_reported":1766081892,"current_range_meters":10800,"station_id":"ce4bh392rcd13ifvqdl0","pricing_plan_id":"cebpf4jnsgd1na2vs0mg"},{"bike_id":"6976887d-c7e5-43d4-a614-3cc9839ffec0","system_id":"levelo_inurba_marseille","lat":43.29521,"lon":5.37513,"is_reserved":false,"is_disabled":false,"rental_uris":{"android":"levelo://app?vid=6976887d-c7e5-43d4-a614-3cc9839ffec0","ios":"levelo://app?vid=6976887d-c7e5-43d4-a614-3cc9839ffec0"},"vehicle_type_id":"4","last_reported":1766081892,"current_range_meters":10800,"station_id":"ce4bgkp2rcd13ifvqbmg","pricing_plan_id":"cebpf4jnsgd1na2vs0mg"},{"bike_id":"cf0e2dfe-8751-4251-bbd3-3ad00be9f3ad","system_id":"levelo_inurba_marseille","lat":43.28499,"lon":5.48377,"is_reserved":false,"is_disabled":false,"rental_uris":{"android":"levelo://app?vid=cf0e2dfe-8751-4251-bbd3-3ad00be9f3ad","ios":"levelo://app?vid=cf0e2dfe-8751-4251-bbd3-3ad00be9f3ad"},"vehicle_type_id":"4","last_reported":1766081892,"current_range_meters":10800,"station_id":"","pricing_plan_id":"cebpf4jnsgd1na2vs0mg"},{"bike_id":"39ca6217-71c2-4cee-834d-d178880be878","system_id":"levelo_inurba_marseille","lat":43.30884,"lon":5.37221,"is_reserved":false,"is_disabled":true,"rental_uris":{"android":"levelo://app?vid=39ca6217-71c2-4cee-834d-d178880be878","ios":"levelo://app?vid=39ca6217-71c2-4cee-834d-d178880be878"},"vehicle_type_id":"4","last_reported":1766081892,"current_range_meters":10800,"station_id":"ce4bguh2rcd13ifvqckg","pricing_plan_id":"cebpf4jnsgd1na2vs0mg"},{"bike_id":"e3545456-9ccd-47b9-9f35-1db0fbdf5c17","system_id":"levelo_inurba_marseille","lat":43.28512,"lon":5.44109,"is_reserved":false,"is_disabled":false,"rental_uris":{"android":"levelo://app?vid=e3545456-9ccd-47b9-9f35-1db0fbdf5c17","ios":"levelo://app?vid=e3545456-9ccd-47b9-9f35-1db0fbdf5c17"},"vehicle_type_id":"4","last_reported":1766081892,"current_range_meters":10800,"station_id":"st_d3j3df2ikq2c7380ej80","pricing_plan_id":"cebpf4jnsgd1na2vs0mg"},{"bike_id":"0e5605a0-8a9b-4110-930b-7d8a6198266d","system_id":"levelo_inurba_marseille","lat":43.32338,"lon":5.38484,"is_reserved":false,"is_disabled":false,"rental_uris":{"android":"levelo://app?vid=0e5605a0-8a9b-4110-930b-7d8a6198266d","ios":"levelo://app?vid=0e5605a0-8a9b-4110-930b-7d8a6198266d"},"vehicle_type_id":"4","last_reported":1766081892,"current_range_meters":10800,"station_id":"st_d45171o9ee8s73djdqug","pricing_plan_id":"cebpf4jnsgd1na2vs0mg"},{"bike_id":"56c51b1f-f068-4d7c-a2c8-0904d611f9cc","system_id":"levelo_inurba_marseille","lat":43.29295,"lon":5.37455,"is_reserved":false,"is_disabled":false,"rental_uris":{"android":"levelo://app?vid=56c51b1f-f068-4d7c-a2c8-0904d611f9cc","ios":"levelo://app?vid=56c51b1f-f068-4d7c-a2c8-0904d611f9cc"},"vehicle_type_id":"4","last_reported":1766081892,"current_range_meters":10800,"station_id":"ce4bgi12rcd13ifvqb70","pricing_plan_id":"cebpf4jnsgd1na2vs0mg"},{"bike_id":"64dde5aa-e856-458c-9f5b-982c7491fd21","system_id":"levelo_inurba_marseille","lat":43.28459,"lon":5.35903,"is_reserved":false,"is_disabled":false,"rental_uris":{"android":"levelo://app?vid=64dde5aa-e856-458c-9f5b-982c7491fd21","ios":"levelo://app?vid=64dde5aa-e856-458c-9f5b-982c7491fd21"},"vehicle_type_id":"4","last_reported":1766081892,"current_range_meters":10800,"station_id":"ce4bhah2rcd13ifvqei0","pricing_plan_id":"cebpf4jnsgd1na2vs0mg"},{"bike_id":"ee079b91-b3e4-40bb-aa41-0f324c7b80b1","system_id":"levelo_inurba_marseille","lat":43.33599,"lon":5.41028,"is_reserved":false,"is_disabled":false,"rental_uris":{"android":"levelo://app?vid=ee079b91-b3e4-40bb-aa41-0f324c7b80b1","ios":"levelo://app?vid=ee079b91-b3e4-40bb-aa41-0f324c7b80b1"},"vehicle_type_id":"4","last_reported":1766081892,"current_range_meters":10800,"station_id":"ce4bhqh2rcd13ifvqhmg","pricing_plan_id":"cebpf4jnsgd1na2vs0mg"},{"bike_id":"b6521d11-99b8-43ca-a853-a51747d5db82","system_id":"levelo_inurba_marseille","lat":43.30128,"lon":5.43124,"is_reserved":false,"is_disabled":false,"rental_uris":{"android":"levelo://app?vid=b6521d11-99b8-43ca-a853-a51747d5db82","ios":"levelo://app?vid=b6521d11-99b8-43ca-a853-a51747d5db82"},"vehicle_type_id":"4","last_reported":1766081892,"current_range_meters":11200,"station_id":"st_d3js3co5814s73ftftug","pricing_plan_id":"cebpf4jnsgd1na2vs0mg"},{"bike_id":"2cde9571-5d78-4252-849c-aa5ac9e1e5da","system_id":"levelo_inurba_marseille","lat":43.3033,"lon":5.40429,"is_reserved":false,"is_disabled":false,"rental_uris":{"android":"levelo://app?vid=2cde9571-5d78-4252-849c-aa5ac9e1e5da","ios":"levelo://app?vid=2cde9571-5d78-4252-849c-aa5ac9e1e5da"},"vehicle_type_id":"4","last_reported":1766081892,"current_range_meters":11200,"station_id":"ce4bh012rcd13ifvqd10","pricing_plan_id":"cebpf4jnsgd1na2vs0mg"},{"bike_id":"9d054196-cd6f-4325-bb1d-fbfbbc9318d2","system_id":"levelo_inurba_marseille","lat":43.301079,"lon":5.43126,"is_reserved":false,"is_disabled":false,"rental_uris":{"android":"levelo://app?vid=9d054196-cd6f-4325-bb1d-fbfbbc9318d2","ios":"levelo://app?vid=9d054196-cd6f-4325-bb1d-fbfbbc9318d2"},"vehicle_type_id":"4","last_reported":1766081892,"current_range_meters":11200,"station_id":"st_d3js3co5814s73ftftug","pricing_plan_id":"cebpf4jnsgd1na2vs0mg"},{"bike_id":"453f1184-f82d-4436-816a-2c45caf5ef82","system_id":"levelo_inurba_marseille","lat":43.30099,"lon":5.39086,"is_reserved":false,"is_disabled":false,"rental_uris":{"android":"levelo://app?vid=453f1184-f82d-4436-816a-2c45caf5ef82","ios":"levelo://app?vid=453f1184-f82d-4436-816a-2c45caf5ef82"},"vehicle_type_id":"4","last_reported":1766081892,"current_range_meters":11200,"station_id":"ce4bh192rcd13ifvqdb0","pricing_plan_id":"cebpf4jnsgd1na2vs0mg"},{"bike_id":"ee6f7e5c-24b4-4046-a3ec-072080785116","system_id":"levelo_inurba_marseille","lat":43.21736,"lon":5.34567,"is_reserved":false,"is_disabled":true,"rental_uris":{"android":"levelo://app?vid=ee6f7e5c-24b4-4046-a3ec-072080785116","ios":"levelo://app?vid=ee6f7e5c-24b4-4046-a3ec-072080785116"},"vehicle_type_id":"4","last_reported":1766081892,"current_range_meters":11200,"station_id":"st_cvj6r9ubvosntc0bgbag","pricing_plan_id":"cebpf4jnsgd1na2vs0mg"},{"bike_id":"f0552324-7f16-45f2-af53-7d50398c0e4b","system_id":"levelo_inurba_marseille","lat":43.29193,"lon":5.39317,"is_reserved":false,"is_disabled":true,"rental_uris":{"android":"levelo://app?vid=f0552324-7f16-45f2-af53-7d50398c0e4b","ios":"levelo://app?vid=f0552324-7f16-45f2-af53-7d50398c0e4b"},"vehicle_type_id":"4","last_reported":1766081892,"current_range_meters":11200,"station_id":"ce4bh192rcd13ifvqdd0","pricing_plan_id":"cebpf4jnsgd1na2vs0mg"},{"bike_id":"9a4090b1-3af1-4620-96cb-2dd026585aca","system_id":"levelo_inurba_marseille","lat":43.32381,"lon":5.36618,"is_reserved":false,"is_disabled":false,"rental_uris":{"android":"levelo://app?vid=9a4090b1-3af1-4620-96cb-2dd026585aca","ios":"levelo://app?vid=9a4090b1-3af1-4620-96cb-2dd026585aca"},"vehicle_type_id":"4","last_reported":1766081892,"current_range_meters":11200,"station_id":"","pricing_plan_id":"cebpf4jnsgd1na2vs0mg"},{"bike_id":"a5796e24-e2b8-4ead-adc8-50f93c5077cd","system_id":"levelo_inurba_marseille","lat":43.28409,"lon":5.37518,"is_reserved":false,"is_disabled":false,"rental_uris":{"android":"levelo://app?vid=a5796e24-e2b8-4ead-adc8-50f93c5077cd","ios":"levelo://app?vid=a5796e24-e2b8-4ead-adc8-50f93c5077cd"},"vehicle_type_id":"4","last_reported":1766081892,"current_range_meters":11200,"station_id":"ce4bh412rcd13ifvqds0","pricing_plan_id":"cebpf4jnsgd1na2vs0mg"},{"bike_id":"ad628d57-452c-45f3-8595-c7184b2b27b7","system_id":"levelo_inurba_marseille","lat":43.28569,"lon":5.39477,"is_reserved":false,"is_disabled":false,"rental_uris":{"android":"levelo://app?vid=ad628d57-452c-45f3-8595-c7184b2b27b7","ios":"levelo://app?vid=ad628d57-452c-45f3-8595-c7184b2b27b7"},"vehicle_type_id":"4","last_reported":1766081892,"current_range_meters":11200,"station_id":"ce4bh292rcd13ifvqdg0","pricing_plan_id":"cebpf4jnsgd1na2vs0mg"},{"bike_id":"2704a896-1b81-4eb2-9ff3-afb57e76d700","system_id":"levelo_inurba_marseille","lat":43.29844,"lon":5.36279,"is_reserved":false,"is_disabled":false,"rental_uris":{"android":"levelo://app?vid=2704a896-1b81-4eb2-9ff3-afb57e76d700","ios":"levelo://app?vid=2704a896-1b81-4eb2-9ff3-afb57e76d700"},"vehicle_type_id":"4","last_reported":1766081892,"current_range_meters":11600,"station_id":"ce4bgpp2rcd13ifvqc3g","pricing_plan_id":"cebpf4jnsgd1na2vs0mg"},{"bike_id":"436e467e-3ef8-4484-b12e-82fd46509f97","system_id":"levelo_inurba_marseille","lat":43.233,"lon":5.44377,"is_reserved":false,"is_disabled":false,"rental_uris":{"android":"levelo://app?vid=436e467e-3ef8-4484-b12e-82fd46509f97","ios":"levelo://app?vid=436e467e-3ef8-4484-b12e-82fd46509f97"},"vehicle_type_id":"4","last_reported":1766081892,"current_range_meters":11600,"station_id":"","pricing_plan_id":"cebpf4jnsgd1na2vs0mg"},{"bike_id":"f02674fa-c7e1-47f9-853f-58236324f42b","system_id":"levelo_inurba_marseille","lat":43.29593,"lon":5.38105,"is_reserved":false,"is_disabled":false,"rental_uris":{"android":"levelo://app?vid=f02674fa-c7e1-47f9-853f-58236324f42b","ios":"levelo://app?vid=f02674fa-c7e1-47f9-853f-58236324f42b"},"vehicle_type_id":"4","last_reported":1766081892,"current_range_meters":11600,"station_id":"ce4bgl12rcd13ifvqbo0","pricing_plan_id":"cebpf4jnsgd1na2vs0mg"},{"bike_id":"cf13c152-e4dd-4b85-ac0d-76fed9bd52f3","system_id":"levelo_inurba_marseille","lat":43.28615,"lon":5.35103,"is_reserved":false,"is_disabled":false,"rental_uris":{"android":"levelo://app?vid=cf13c152-e4dd-4b85-ac0d-76fed9bd52f3","ios":"levelo://app?vid=cf13c152-e4dd-4b85-ac0d-76fed9bd52f3"},"vehicle_type_id":"4","last_reported":1766081892,"current_range_meters":11600,"station_id":"ce4bhch2rcd13ifvqeug","pricing_plan_id":"cebpf4jnsgd1na2vs0mg"},{"bike_id":"228ed5e4-a793-4f90-a46f-1e70b2793524","system_id":"levelo_inurba_marseille","lat":43.28592,"lon":5.39909,"is_reserved":false,"is_disabled":true,"rental_uris":{"android":"levelo://app?vid=228ed5e4-a793-4f90-a46f-1e70b2793524","ios":"levelo://app?vid=228ed5e4-a793-4f90-a46f-1e70b2793524"},"vehicle_type_id":"4","last_reported":1766081892,"current_range_meters":11600,"station_id":"st_d4a7ka997mjs738ck50g","pricing_plan_id":"cebpf4jnsgd1na2vs0mg"},{"bike_id":"c5365846-c619-4f12-8c92-97c9f9725a15","system_id":"levelo_inurba_marseille","lat":43.29519,"lon":5.37938,"is_reserved":false,"is_disabled":false,"rental_uris":{"android":"levelo://app?vid=c5365846-c619-4f12-8c92-97c9f9725a15","ios":"levelo://app?vid=c5365846-c619-4f12-8c92-97c9f9725a15"},"vehicle_type_id":"4","last_reported":1766081892,"current_range_meters":11600,"station_id":"","pricing_plan_id":"cebpf4jnsgd1na2vs0mg"},{"bike_id":"92623e5b-52ee-402d-a529-e6dda8f91418","system_id":"levelo_inurba_marseille","lat":43.30749,"lon":5.36794,"is_reserved":false,"is_disabled":false,"rental_uris":{"android":"levelo://app?vid=92623e5b-52ee-402d-a529-e6dda8f91418","ios":"levelo://app?vid=92623e5b-52ee-402d-a529-e6dda8f91418"},"vehicle_type_id":"4","last_reported":1766081892,"current_range_meters":11600,"station_id":"","pricing_plan_id":"cebpf4jnsgd1na2vs0mg"},{"bike_id":"406ef59a-d66f-41e7-baf6-b1e43a08b0b0","system_id":"levelo_inurba_marseille","lat":43.286865,"lon":5.373892,"is_reserved":false,"is_disabled":false,"rental_uris":{"android":"levelo://app?vid=406ef59a-d66f-41e7-baf6-b1e43a08b0b0","ios":"levelo://app?vid=406ef59a-d66f-41e7-baf6-b1e43a08b0b0"},"vehicle_type_id":"4","last_reported":1766081892,"current_range_meters":11600,"station_id":"ce4bh3p2rcd13ifvqdq0","pricing_plan_id":"cebpf4jnsgd1na2vs0mg"},{"bike_id":"d824e173-e452-437a-aa07-2649c7e0a349","system_id":"levelo_inurba_marseille","lat":43.330231,"lon":5.390366,"is_reserved":false,"is_disabled":false,"rental_uris":{"android":"levelo://app?vid=d824e173-e452-437a-aa07-2649c7e0a349","ios":"levelo://app?vid=d824e173-e452-437a-aa07-2649c7e0a349"},"vehicle_type_id":"4","last_reported":1766081892,"current_range_meters":11600,"station_id":"ce4bhr92rcd13ifvqhrg","pricing_plan_id":"cebpf4jnsgd1na2vs0mg"},{"bike_id":"a6bb7fde-2db0-447e-8cac-38a0c3844ce6","system_id":"levelo_inurba_marseille","lat":43.27775,"lon":5.38819,"is_reserved":false,"is_disabled":false,"rental_uris":{"android":"levelo://app?vid=a6bb7fde-2db0-447e-8cac-38a0c3844ce6","ios":"levelo://app?vid=a6bb7fde-2db0-447e-8cac-38a0c3844ce6"},"vehicle_type_id":"4","last_reported":1766081892,"current_range_meters":12000,"station_id":"","pricing_plan_id":"cebpf4jnsgd1na2vs0mg"},{"bike_id":"5493cdc5-7629-4540-a62c-ac6638c0d679","system_id":"levelo_inurba_marseille","lat":43.29571,"lon":5.37494,"is_reserved":false,"is_disabled":false,"rental_uris":{"android":"levelo://app?vid=5493cdc5-7629-4540-a62c-ac6638c0d679","ios":"levelo://app?vid=5493cdc5-7629-4540-a62c-ac6638c0d679"},"vehicle_type_id":"4","last_reported":1766081892,"current_range_meters":12000,"station_id":"ce4bgh92rcd13ifvqb50","pricing_plan_id":"cebpf4jnsgd1na2vs0mg"},{"bike_id":"85f12ccf-5b46-4628-894a-c4095346a940","system_id":"levelo_inurba_marseille","lat":43.27956,"lon":5.41038,"is_reserved":false,"is_disabled":true,"rental_uris":{"android":"levelo://app?vid=85f12ccf-5b46-4628-894a-c4095346a940","ios":"levelo://app?vid=85f12ccf-5b46-4628-894a-c4095346a940"},"vehicle_type_id":"4","last_reported":1766081892,"current_range_meters":12000,"station_id":"ce4bhnp2rcd13ifvqh0g","pricing_plan_id":"cebpf4jnsgd1na2vs0mg"},{"bike_id":"52b61354-da80-471d-a0ef-682891b3f0eb","system_id":"levelo_inurba_marseille","lat":43.24385,"lon":5.37087,"is_reserved":false,"is_disabled":true,"rental_uris":{"android":"levelo://app?vid=52b61354-da80-471d-a0ef-682891b3f0eb","ios":"levelo://app?vid=52b61354-da80-471d-a0ef-682891b3f0eb"},"vehicle_type_id":"4","last_reported":1766081892,"current_range_meters":12000,"station_id":"ce4bhhh2rcd13ifvqfk0","pricing_plan_id":"cebpf4jnsgd1na2vs0mg"},{"bike_id":"0d76f9ec-36de-4311-a1ef-897de10e0d0d","system_id":"levelo_inurba_marseille","lat":43.29821,"lon":5.44077,"is_reserved":false,"is_disabled":false,"rental_uris":{"android":"levelo://app?vid=0d76f9ec-36de-4311-a1ef-897de10e0d0d","ios":"levelo://app?vid=0d76f9ec-36de-4311-a1ef-897de10e0d0d"},"vehicle_type_id":"4","last_reported":1766081892,"current_range_meters":12000,"station_id":"st_d3jp68qikq2c7381ktn0","pricing_plan_id":"cebpf4jnsgd1na2vs0mg"},{"bike_id":"da0c886d-bf9d-46c9-ba41-bfd5ae0eda24","system_id":"levelo_inurba_marseille","lat":43.24165,"lon":5.36393,"is_reserved":false,"is_disabled":false,"rental_uris":{"android":"levelo://app?vid=da0c886d-bf9d-46c9-ba41-bfd5ae0eda24","ios":"levelo://app?vid=da0c886d-bf9d-46c9-ba41-bfd5ae0eda24"},"vehicle_type_id":"4","last_reported":1766081892,"current_range_meters":12000,"station_id":"cpo36qri1sfpv3e86is0","pricing_plan_id":"cebpf4jnsgd1na2vs0mg"},{"bike_id":"fade1f76-6248-43fe-aeb9-7f93aeff737b","system_id":"levelo_inurba_marseille","lat":43.27904,"lon":5.39577,"is_reserved":false,"is_disabled":true,"rental_uris":{"android":"levelo://app?vid=fade1f76-6248-43fe-aeb9-7f93aeff737b","ios":"levelo://app?vid=fade1f76-6248-43fe-aeb9-7f93aeff737b"},"vehicle_type_id":"4","last_reported":1766081892,"current_range_meters":12000,"station_id":"ce4bhf92rcd13ifvqf40","pricing_plan_id":"cebpf4jnsgd1na2vs0mg"},{"bike_id":"163f82b6-34f5-4ad1-a642-7d80c1428158","system_id":"levelo_inurba_marseille","lat":43.28717,"lon":5.37945,"is_reserved":false,"is_disabled":false,"rental_uris":{"android":"levelo://app?vid=163f82b6-34f5-4ad1-a642-7d80c1428158","ios":"levelo://app?vid=163f82b6-34f5-4ad1-a642-7d80c1428158"},"vehicle_type_id":"4","last_reported":1766081892,"current_range_meters":12000,"station_id":"ce4bh9p2rcd13ifvqec0","pricing_plan_id":"cebpf4jnsgd1na2vs0mg"},{"bike_id":"374a0371-4968-4fe9-88a9-ac5ffa94b236","system_id":"levelo_inurba_marseille","lat":43.31449,"lon":5.45378,"is_reserved":false,"is_disabled":false,"rental_uris":{"android":"levelo://app?vid=374a0371-4968-4fe9-88a9-ac5ffa94b236","ios":"levelo://app?vid=374a0371-4968-4fe9-88a9-ac5ffa94b236"},"vehicle_type_id":"4","last_reported":1766081892,"current_range_meters":12000,"station_id":"","pricing_plan_id":"cebpf4jnsgd1na2vs0mg"},{"bike_id":"e79f34f4-a454-46bc-b7bd-c453550482db","system_id":"levelo_inurba_marseille","lat":43.30535,"lon":5.36729,"is_reserved":false,"is_disabled":false,"rental_uris":{"android":"levelo://app?vid=e79f34f4-a454-46bc-b7bd-c453550482db","ios":"levelo://app?vid=e79f34f4-a454-46bc-b7bd-c453550482db"},"vehicle_type_id":"4","last_reported":1766081892,"current_range_meters":12000,"station_id":"ce4bgrp2rcd13ifvqc9g","pricing_plan_id":"cebpf4jnsgd1na2vs0mg"},{"bike_id":"98df3c79-a09d-4fcd-8e72-1d835e48117a","system_id":"levelo_inurba_marseille","lat":43.31413,"lon":5.4033,"is_reserved":false,"is_disabled":false,"rental_uris":{"android":"levelo://app?vid=98df3c79-a09d-4fcd-8e72-1d835e48117a","ios":"levelo://app?vid=98df3c79-a09d-4fcd-8e72-1d835e48117a"},"vehicle_type_id":"4","last_reported":1766081892,"current_range_meters":12000,"station_id":"","pricing_plan_id":"cebpf4jnsgd1na2vs0mg"},{"bike_id":"c9117eea-c0d4-4ccb-a9f6-4615a8776959","system_id":"levelo_inurba_marseille","lat":43.29619,"lon":5.37716,"is_reserved":false,"is_disabled":false,"rental_uris":{"android":"levelo://app?vid=c9117eea-c0d4-4ccb-a9f6-4615a8776959","ios":"levelo://app?vid=c9117eea-c0d4-4ccb-a9f6-4615a8776959"},"vehicle_type_id":"4","last_reported":1766081892,"current_range_meters":12400,"station_id":"ce4bgi92rcd13ifvqb90","pricing_plan_id":"cebpf4jnsgd1na2vs0mg"},{"bike_id":"3877fda8-3dce-46f1-9319-1f88da9ed1e1","system_id":"levelo_inurba_marseille","lat":43.248,"lon":5.37455,"is_reserved":false,"is_disabled":false,"rental_uris":{"android":"levelo://app?vid=3877fda8-3dce-46f1-9319-1f88da9ed1e1","ios":"levelo://app?vid=3877fda8-3dce-46f1-9319-1f88da9ed1e1"},"vehicle_type_id":"4","last_reported":1766081892,"current_range_meters":12400,"station_id":"ce4bhgh2rcd13ifvqfb0","pricing_plan_id":"cebpf4jnsgd1na2vs0mg"},{"bike_id":"d50867a0-a974-4546-a28c-eba4c2e0b399","system_id":"levelo_inurba_marseille","lat":43.23196,"lon":5.35552,"is_reserved":false,"is_disabled":false,"rental_uris":{"android":"levelo://app?vid=d50867a0-a974-4546-a28c-eba4c2e0b399","ios":"levelo://app?vid=d50867a0-a974-4546-a28c-eba4c2e0b399"},"vehicle_type_id":"4","last_reported":1766081892,"current_range_meters":12400,"station_id":"ce4bhu92rcd13ifvqi70","pricing_plan_id":"cebpf4jnsgd1na2vs0mg"},{"bike_id":"1f8bf9e3-c9bd-4c05-9201-34f9580d25af","system_id":"levelo_inurba_marseille","lat":43.21195,"lon":5.35077,"is_reserved":false,"is_disabled":false,"rental_uris":{"android":"levelo://app?vid=1f8bf9e3-c9bd-4c05-9201-34f9580d25af","ios":"levelo://app?vid=1f8bf9e3-c9bd-4c05-9201-34f9580d25af"},"vehicle_type_id":"4","last_reported":1766081892,"current_range_meters":12400,"station_id":"st_cvj6sg6p6f1abm77japg","pricing_plan_id":"cebpf4jnsgd1na2vs0mg"},{"bike_id":"f4148ac3-0ecc-4a03-94ce-91f81ac24220","system_id":"levelo_inurba_marseille","lat":43.27899,"lon":5.38032,"is_reserved":false,"is_disabled":false,"rental_uris":{"android":"levelo://app?vid=f4148ac3-0ecc-4a03-94ce-91f81ac24220","ios":"levelo://app?vid=f4148ac3-0ecc-4a03-94ce-91f81ac24220"},"vehicle_type_id":"4","last_reported":1766081892,"current_range_meters":12400,"station_id":"ce4bhf92rcd13ifvqf50","pricing_plan_id":"cebpf4jnsgd1na2vs0mg"},{"bike_id":"7d44b5c8-0233-43ab-bd89-dcdb2fc43b56","system_id":"levelo_inurba_marseille","lat":43.240697,"lon":5.377675,"is_reserved":false,"is_disabled":false,"rental_uris":{"android":"levelo://app?vid=7d44b5c8-0233-43ab-bd89-dcdb2fc43b56","ios":"levelo://app?vid=7d44b5c8-0233-43ab-bd89-dcdb2fc43b56"},"vehicle_type_id":"4","last_reported":1766081892,"current_range_meters":12800,"station_id":"","pricing_plan_id":"cebpf4jnsgd1na2vs0mg"},{"bike_id":"08465472-f37b-4c85-82a0-ad3a002fc573","system_id":"levelo_inurba_marseille","lat":43.29114,"lon":5.3814,"is_reserved":false,"is_disabled":false,"rental_uris":{"android":"levelo://app?vid=08465472-f37b-4c85-82a0-ad3a002fc573","ios":"levelo://app?vid=08465472-f37b-4c85-82a0-ad3a002fc573"},"vehicle_type_id":"4","last_reported":1766081892,"current_range_meters":12800,"station_id":"ce4bh512rcd13ifvqe2g","pricing_plan_id":"cebpf4jnsgd1na2vs0mg"},{"bike_id":"21faa4df-3e9c-465a-828a-5460bd333292","system_id":"levelo_inurba_marseille","lat":43.29579,"lon":5.37507,"is_reserved":false,"is_disabled":false,"rental_uris":{"android":"levelo://app?vid=21faa4df-3e9c-465a-828a-5460bd333292","ios":"levelo://app?vid=21faa4df-3e9c-465a-828a-5460bd333292"},"vehicle_type_id":"4","last_reported":1766081892,"current_range_meters":12800,"station_id":"ce4bgh92rcd13ifvqb50","pricing_plan_id":"cebpf4jnsgd1na2vs0mg"},{"bike_id":"7f302d8d-b36d-4ef0-af18-63860bd2422c","system_id":"levelo_inurba_marseille","lat":43.30141,"lon":5.37412,"is_reserved":false,"is_disabled":false,"rental_uris":{"android":"levelo://app?vid=7f302d8d-b36d-4ef0-af18-63860bd2422c","ios":"levelo://app?vid=7f302d8d-b36d-4ef0-af18-63860bd2422c"},"vehicle_type_id":"4","last_reported":1766081892,"current_range_meters":12800,"station_id":"ce4bgs92rcd13ifvqcc0","pricing_plan_id":"cebpf4jnsgd1na2vs0mg"},{"bike_id":"273230b6-03b7-48b8-81e8-a1e6816f4819","system_id":"levelo_inurba_marseille","lat":43.30931,"lon":5.40147,"is_reserved":false,"is_disabled":false,"rental_uris":{"android":"levelo://app?vid=273230b6-03b7-48b8-81e8-a1e6816f4819","ios":"levelo://app?vid=273230b6-03b7-48b8-81e8-a1e6816f4819"},"vehicle_type_id":"4","last_reported":1766081892,"current_range_meters":13600,"station_id":"ce4bgvp2rcd13ifvqct0","pricing_plan_id":"cebpf4jnsgd1na2vs0mg"},{"bike_id":"4218c3f6-4764-47cf-93fc-c76838aefb78","system_id":"levelo_inurba_marseille","lat":43.242,"lon":5.36392,"is_reserved":false,"is_disabled":false,"rental_uris":{"android":"levelo://app?vid=4218c3f6-4764-47cf-93fc-c76838aefb78","ios":"levelo://app?vid=4218c3f6-4764-47cf-93fc-c76838aefb78"},"vehicle_type_id":"4","last_reported":1766081892,"current_range_meters":13600,"station_id":"cpo36qri1sfpv3e86is0","pricing_plan_id":"cebpf4jnsgd1na2vs0mg"},{"bike_id":"9f6c9975-15d6-48de-a383-d85662191ef8","system_id":"levelo_inurba_marseille","lat":43.21218,"lon":5.35063,"is_reserved":false,"is_disabled":false,"rental_uris":{"android":"levelo://app?vid=9f6c9975-15d6-48de-a383-d85662191ef8","ios":"levelo://app?vid=9f6c9975-15d6-48de-a383-d85662191ef8"},"vehicle_type_id":"4","last_reported":1766081892,"current_range_meters":13600,"station_id":"st_cvj6sg6p6f1abm77japg","pricing_plan_id":"cebpf4jnsgd1na2vs0mg"},{"bike_id":"d235767a-3e44-44c9-893e-7ebda15e5a64","system_id":"levelo_inurba_marseille","lat":43.25432,"lon":5.38519,"is_reserved":false,"is_disabled":false,"rental_uris":{"android":"levelo://app?vid=d235767a-3e44-44c9-893e-7ebda15e5a64","ios":"levelo://app?vid=d235767a-3e44-44c9-893e-7ebda15e5a64"},"vehicle_type_id":"4","last_reported":1766081892,"current_range_meters":13600,"station_id":"","pricing_plan_id":"cebpf4jnsgd1na2vs0mg"},{"bike_id":"8c5feca0-c713-44e8-b13a-c25dd284fffc","system_id":"levelo_inurba_marseille","lat":43.24649,"lon":5.38896,"is_reserved":false,"is_disabled":false,"rental_uris":{"android":"levelo://app?vid=8c5feca0-c713-44e8-b13a-c25dd284fffc","ios":"levelo://app?vid=8c5feca0-c713-44e8-b13a-c25dd284fffc"},"vehicle_type_id":"4","last_reported":1766081892,"current_range_meters":13600,"station_id":"ce4bhg12rcd13ifvqf60","pricing_plan_id":"cebpf4jnsgd1na2vs0mg"},{"bike_id":"54b699d7-65f2-4a7a-9f83-f79492606b86","system_id":"levelo_inurba_marseille","lat":43.30546,"lon":5.36512,"is_reserved":false,"is_disabled":false,"rental_uris":{"android":"levelo://app?vid=54b699d7-65f2-4a7a-9f83-f79492606b86","ios":"levelo://app?vid=54b699d7-65f2-4a7a-9f83-f79492606b86"},"vehicle_type_id":"4","last_reported":1766081892,"current_range_meters":13600,"station_id":"ce4bgs12rcd13ifvqcag","pricing_plan_id":"cebpf4jnsgd1na2vs0mg"},{"bike_id":"d0dd282f-2c05-49dd-834d-6d93cee6c88a","system_id":"levelo_inurba_marseille","lat":43.30203,"lon":5.36624,"is_reserved":false,"is_disabled":true,"rental_uris":{"android":"levelo://app?vid=d0dd282f-2c05-49dd-834d-6d93cee6c88a","ios":"levelo://app?vid=d0dd282f-2c05-49dd-834d-6d93cee6c88a"},"vehicle_type_id":"4","last_reported":1766081892,"current_range_meters":13600,"station_id":"ce4bgrh2rcd13ifvqc8g","pricing_plan_id":"cebpf4jnsgd1na2vs0mg"},{"bike_id":"31a8a530-d875-470f-bb82-c3f6f0a5a4e2","system_id":"levelo_inurba_marseille","lat":43.29508,"lon":5.43279,"is_reserved":false,"is_disabled":false,"rental_uris":{"android":"levelo://app?vid=31a8a530-d875-470f-bb82-c3f6f0a5a4e2","ios":"levelo://app?vid=31a8a530-d875-470f-bb82-c3f6f0a5a4e2"},"vehicle_type_id":"4","last_reported":1766081892,"current_range_meters":13600,"station_id":"st_d3j5ugp08ojc73fj9d10","pricing_plan_id":"cebpf4jnsgd1na2vs0mg"},{"bike_id":"733bdd58-3313-44ca-9f25-bd497c15d847","system_id":"levelo_inurba_marseille","lat":43.295253,"lon":5.39108,"is_reserved":false,"is_disabled":false,"rental_uris":{"android":"levelo://app?vid=733bdd58-3313-44ca-9f25-bd497c15d847","ios":"levelo://app?vid=733bdd58-3313-44ca-9f25-bd497c15d847"},"vehicle_type_id":"4","last_reported":1766081892,"current_range_meters":13600,"station_id":"","pricing_plan_id":"cebpf4jnsgd1na2vs0mg"},{"bike_id":"79721c3d-70ad-4001-8ed0-9fa992cb6b48","system_id":"levelo_inurba_marseille","lat":43.27939,"lon":5.41043,"is_reserved":false,"is_disabled":false,"rental_uris":{"android":"levelo://app?vid=79721c3d-70ad-4001-8ed0-9fa992cb6b48","ios":"levelo://app?vid=79721c3d-70ad-4001-8ed0-9fa992cb6b48"},"vehicle_type_id":"4","last_reported":1766081892,"current_range_meters":13600,"station_id":"ce4bhnp2rcd13ifvqh0g","pricing_plan_id":"cebpf4jnsgd1na2vs0mg"},{"bike_id":"757b0695-2ac3-4fe1-99e6-4a272c5059db","system_id":"levelo_inurba_marseille","lat":43.28978,"lon":5.37832,"is_reserved":false,"is_disabled":false,"rental_uris":{"android":"levelo://app?vid=757b0695-2ac3-4fe1-99e6-4a272c5059db","ios":"levelo://app?vid=757b0695-2ac3-4fe1-99e6-4a272c5059db"},"vehicle_type_id":"4","last_reported":1766081892,"current_range_meters":13600,"station_id":"ce4bh9p2rcd13ifvqed0","pricing_plan_id":"cebpf4jnsgd1na2vs0mg"},{"bike_id":"ddedb140-ab44-49b4-88fc-f6e9cbc01202","system_id":"levelo_inurba_marseille","lat":43.2781,"lon":5.39226,"is_reserved":false,"is_disabled":false,"rental_uris":{"android":"levelo://app?vid=ddedb140-ab44-49b4-88fc-f6e9cbc01202","ios":"levelo://app?vid=ddedb140-ab44-49b4-88fc-f6e9cbc01202"},"vehicle_type_id":"4","last_reported":1766081892,"current_range_meters":13600,"station_id":"ce4bhjp2rcd13ifvqga0","pricing_plan_id":"cebpf4jnsgd1na2vs0mg"},{"bike_id":"0e85f2c9-65d2-439c-8056-66a3c7b2cf27","system_id":"levelo_inurba_marseille","lat":43.295622,"lon":5.375227,"is_reserved":false,"is_disabled":false,"rental_uris":{"android":"levelo://app?vid=0e85f2c9-65d2-439c-8056-66a3c7b2cf27","ios":"levelo://app?vid=0e85f2c9-65d2-439c-8056-66a3c7b2cf27"},"vehicle_type_id":"4","last_reported":1766081892,"current_range_meters":13600,"station_id":"ce4bgh92rcd13ifvqb50","pricing_plan_id":"cebpf4jnsgd1na2vs0mg"},{"bike_id":"1f056b37-e3f2-4d39-81cb-848d585f8a47","system_id":"levelo_inurba_marseille","lat":43.24169,"lon":5.36415,"is_reserved":false,"is_disabled":false,"rental_uris":{"android":"levelo://app?vid=1f056b37-e3f2-4d39-81cb-848d585f8a47","ios":"levelo://app?vid=1f056b37-e3f2-4d39-81cb-848d585f8a47"},"vehicle_type_id":"4","last_reported":1766081892,"current_range_meters":13600,"station_id":"cpo36qri1sfpv3e86is0","pricing_plan_id":"cebpf4jnsgd1na2vs0mg"},{"bike_id":"3f0574ee-1801-4a33-a41f-259265c76f6c","system_id":"levelo_inurba_marseille","lat":43.30332,"lon":5.40436,"is_reserved":false,"is_disabled":false,"rental_uris":{"android":"levelo://app?vid=3f0574ee-1801-4a33-a41f-259265c76f6c","ios":"levelo://app?vid=3f0574ee-1801-4a33-a41f-259265c76f6c"},"vehicle_type_id":"4","last_reported":1766081892,"current_range_meters":13600,"station_id":"ce4bh012rcd13ifvqd10","pricing_plan_id":"cebpf4jnsgd1na2vs0mg"},{"bike_id":"67c4d61f-b743-4439-bc30-b45be22f8f1c","system_id":"levelo_inurba_marseille","lat":43.29713,"lon":5.37705,"is_reserved":false,"is_disabled":false,"rental_uris":{"android":"levelo://app?vid=67c4d61f-b743-4439-bc30-b45be22f8f1c","ios":"levelo://app?vid=67c4d61f-b743-4439-bc30-b45be22f8f1c"},"vehicle_type_id":"4","last_reported":1766081892,"current_range_meters":14000,"station_id":"ce4bgkh2rcd13ifvqbl0","pricing_plan_id":"cebpf4jnsgd1na2vs0mg"},{"bike_id":"81b4879d-5423-4aad-a0bc-1edbef8c668c","system_id":"levelo_inurba_marseille","lat":43.24181,"lon":5.36386,"is_reserved":false,"is_disabled":false,"rental_uris":{"android":"levelo://app?vid=81b4879d-5423-4aad-a0bc-1edbef8c668c","ios":"levelo://app?vid=81b4879d-5423-4aad-a0bc-1edbef8c668c"},"vehicle_type_id":"4","last_reported":1766081892,"current_range_meters":14000,"station_id":"cpo36qri1sfpv3e86is0","pricing_plan_id":"cebpf4jnsgd1na2vs0mg"},{"bike_id":"2dab6078-cb71-41b6-85ed-8bd9a4fc7d6c","system_id":"levelo_inurba_marseille","lat":43.25491,"lon":5.3765,"is_reserved":false,"is_disabled":false,"rental_uris":{"android":"levelo://app?vid=2dab6078-cb71-41b6-85ed-8bd9a4fc7d6c","ios":"levelo://app?vid=2dab6078-cb71-41b6-85ed-8bd9a4fc7d6c"},"vehicle_type_id":"4","last_reported":1766081892,"current_range_meters":14000,"station_id":"ce4bhh12rcd13ifvqff0","pricing_plan_id":"cebpf4jnsgd1na2vs0mg"},{"bike_id":"dd786294-b166-4a73-b42d-22e3724edb43","system_id":"levelo_inurba_marseille","lat":43.2656,"lon":5.39029,"is_reserved":false,"is_disabled":false,"rental_uris":{"android":"levelo://app?vid=dd786294-b166-4a73-b42d-22e3724edb43","ios":"levelo://app?vid=dd786294-b166-4a73-b42d-22e3724edb43"},"vehicle_type_id":"4","last_reported":1766081892,"current_range_meters":14000,"station_id":"ce4bhe12rcd13ifvqf30","pricing_plan_id":"cebpf4jnsgd1na2vs0mg"},{"bike_id":"f3a4c2fd-c27a-4ca6-bbe5-3949d2a88808","system_id":"levelo_inurba_marseille","lat":43.28582,"lon":5.42982,"is_reserved":false,"is_disabled":false,"rental_uris":{"android":"levelo://app?vid=f3a4c2fd-c27a-4ca6-bbe5-3949d2a88808","ios":"levelo://app?vid=f3a4c2fd-c27a-4ca6-bbe5-3949d2a88808"},"vehicle_type_id":"4","last_reported":1766081892,"current_range_meters":14000,"station_id":"","pricing_plan_id":"cebpf4jnsgd1na2vs0mg"},{"bike_id":"805c25ad-9714-4490-aa12-0cc039e8b2f0","system_id":"levelo_inurba_marseille","lat":43.28154,"lon":5.42642,"is_reserved":false,"is_disabled":false,"rental_uris":{"android":"levelo://app?vid=805c25ad-9714-4490-aa12-0cc039e8b2f0","ios":"levelo://app?vid=805c25ad-9714-4490-aa12-0cc039e8b2f0"},"vehicle_type_id":"4","last_reported":1766081892,"current_range_meters":14000,"station_id":"ce4bhnh2rcd13ifvqgug","pricing_plan_id":"cebpf4jnsgd1na2vs0mg"},{"bike_id":"17a49efb-d179-4b85-b20c-4afe87c0613f","system_id":"levelo_inurba_marseille","lat":43.31051,"lon":5.37131,"is_reserved":false,"is_disabled":true,"rental_uris":{"android":"levelo://app?vid=17a49efb-d179-4b85-b20c-4afe87c0613f","ios":"levelo://app?vid=17a49efb-d179-4b85-b20c-4afe87c0613f"},"vehicle_type_id":"4","last_reported":1766081892,"current_range_meters":14000,"station_id":"st_d4kl2rp97mjs73e7tdfg","pricing_plan_id":"cebpf4jnsgd1na2vs0mg"},{"bike_id":"2c75ad9d-3cc0-42db-9aed-ad7814b77759","system_id":"levelo_inurba_marseille","lat":43.29875,"lon":5.3972,"is_reserved":false,"is_disabled":false,"rental_uris":{"android":"levelo://app?vid=2c75ad9d-3cc0-42db-9aed-ad7814b77759","ios":"levelo://app?vid=2c75ad9d-3cc0-42db-9aed-ad7814b77759"},"vehicle_type_id":"4","last_reported":1766081892,"current_range_meters":14000,"station_id":"ce4bh0h2rcd13ifvqd50","pricing_plan_id":"cebpf4jnsgd1na2vs0mg"},{"bike_id":"9b3661f3-5229-45e8-ba26-3d713b9bc6af","system_id":"levelo_inurba_marseille","lat":43.27833,"lon":5.39214,"is_reserved":false,"is_disabled":false,"rental_uris":{"android":"levelo://app?vid=9b3661f3-5229-45e8-ba26-3d713b9bc6af","ios":"levelo://app?vid=9b3661f3-5229-45e8-ba26-3d713b9bc6af"},"vehicle_type_id":"4","last_reported":1766081892,"current_range_meters":14000,"station_id":"ce4bhjp2rcd13ifvqga0","pricing_plan_id":"cebpf4jnsgd1na2vs0mg"},{"bike_id":"be0e505a-b3ab-4a7f-a207-8a87f14f4da0","system_id":"levelo_inurba_marseille","lat":43.29571,"lon":5.3996,"is_reserved":false,"is_disabled":false,"rental_uris":{"android":"levelo://app?vid=be0e505a-b3ab-4a7f-a207-8a87f14f4da0","ios":"levelo://app?vid=be0e505a-b3ab-4a7f-a207-8a87f14f4da0"},"vehicle_type_id":"4","last_reported":1766081892,"current_range_meters":14000,"station_id":"ce4bh312rcd13ifvqdj0","pricing_plan_id":"cebpf4jnsgd1na2vs0mg"},{"bike_id":"1fe61e53-783b-4be3-86da-1e2214f6789d","system_id":"levelo_inurba_marseille","lat":43.29779,"lon":5.38029,"is_reserved":false,"is_disabled":false,"rental_uris":{"android":"levelo://app?vid=1fe61e53-783b-4be3-86da-1e2214f6789d","ios":"levelo://app?vid=1fe61e53-783b-4be3-86da-1e2214f6789d"},"vehicle_type_id":"4","last_reported":1766081892,"current_range_meters":14000,"station_id":"","pricing_plan_id":"cebpf4jnsgd1na2vs0mg"},{"bike_id":"907c6bab-d04b-4a2f-a93b-74499e90fd68","system_id":"levelo_inurba_marseille","lat":43.31228,"lon":5.36913,"is_reserved":false,"is_disabled":false,"rental_uris":{"android":"levelo://app?vid=907c6bab-d04b-4a2f-a93b-74499e90fd68","ios":"levelo://app?vid=907c6bab-d04b-4a2f-a93b-74499e90fd68"},"vehicle_type_id":"4","last_reported":1766081892,"current_range_meters":14400,"station_id":"ce4bgl92rcd13ifvqbq0","pricing_plan_id":"cebpf4jnsgd1na2vs0mg"},{"bike_id":"9f3c0044-3fd3-4dcb-bbd1-75f89d5cdde5","system_id":"levelo_inurba_marseille","lat":43.31371,"lon":5.38497,"is_reserved":false,"is_disabled":false,"rental_uris":{"android":"levelo://app?vid=9f3c0044-3fd3-4dcb-bbd1-75f89d5cdde5","ios":"levelo://app?vid=9f3c0044-3fd3-4dcb-bbd1-75f89d5cdde5"},"vehicle_type_id":"4","last_reported":1766081892,"current_range_meters":14400,"station_id":"ce4bgt92rcd13ifvqcf0","pricing_plan_id":"cebpf4jnsgd1na2vs0mg"},{"bike_id":"413557ff-13d9-40fb-81ee-6ad5e7d92bea","system_id":"levelo_inurba_marseille","lat":43.21188,"lon":5.35066,"is_reserved":false,"is_disabled":false,"rental_uris":{"android":"levelo://app?vid=413557ff-13d9-40fb-81ee-6ad5e7d92bea","ios":"levelo://app?vid=413557ff-13d9-40fb-81ee-6ad5e7d92bea"},"vehicle_type_id":"4","last_reported":1766081892,"current_range_meters":14400,"station_id":"st_cvj6sg6p6f1abm77japg","pricing_plan_id":"cebpf4jnsgd1na2vs0mg"},{"bike_id":"1223fa30-a951-454d-b1d9-92b22551a65b","system_id":"levelo_inurba_marseille","lat":43.29848,"lon":5.36285,"is_reserved":false,"is_disabled":false,"rental_uris":{"android":"levelo://app?vid=1223fa30-a951-454d-b1d9-92b22551a65b","ios":"levelo://app?vid=1223fa30-a951-454d-b1d9-92b22551a65b"},"vehicle_type_id":"4","last_reported":1766081892,"current_range_meters":14400,"station_id":"ce4bgpp2rcd13ifvqc3g","pricing_plan_id":"cebpf4jnsgd1na2vs0mg"},{"bike_id":"9b3ad9e9-6c8e-47dd-9f00-d7499ff2fa77","system_id":"levelo_inurba_marseille","lat":43.211908,"lon":5.350744,"is_reserved":false,"is_disabled":false,"rental_uris":{"android":"levelo://app?vid=9b3ad9e9-6c8e-47dd-9f00-d7499ff2fa77","ios":"levelo://app?vid=9b3ad9e9-6c8e-47dd-9f00-d7499ff2fa77"},"vehicle_type_id":"4","last_reported":1766081892,"current_range_meters":14400,"station_id":"st_cvj6sg6p6f1abm77japg","pricing_plan_id":"cebpf4jnsgd1na2vs0mg"},{"bike_id":"598940e2-74a1-4e6c-8d83-3bf0402cd840","system_id":"levelo_inurba_marseille","lat":43.28942,"lon":5.36644,"is_reserved":false,"is_disabled":false,"rental_uris":{"android":"levelo://app?vid=598940e2-74a1-4e6c-8d83-3bf0402cd840","ios":"levelo://app?vid=598940e2-74a1-4e6c-8d83-3bf0402cd840"},"vehicle_type_id":"4","last_reported":1766081892,"current_range_meters":14400,"station_id":"ce4bhap2rcd13ifvqek0","pricing_plan_id":"cebpf4jnsgd1na2vs0mg"},{"bike_id":"5d350928-85b5-4d28-9ae6-3f9b839bdec7","system_id":"levelo_inurba_marseille","lat":43.28462,"lon":5.35879,"is_reserved":false,"is_disabled":false,"rental_uris":{"android":"levelo://app?vid=5d350928-85b5-4d28-9ae6-3f9b839bdec7","ios":"levelo://app?vid=5d350928-85b5-4d28-9ae6-3f9b839bdec7"},"vehicle_type_id":"4","last_reported":1766081892,"current_range_meters":14400,"station_id":"ce4bhah2rcd13ifvqei0","pricing_plan_id":"cebpf4jnsgd1na2vs0mg"},{"bike_id":"efdf653f-4f21-45ad-bd62-f0d178f4a182","system_id":"levelo_inurba_marseille","lat":43.30354,"lon":5.41876,"is_reserved":false,"is_disabled":false,"rental_uris":{"android":"levelo://app?vid=efdf653f-4f21-45ad-bd62-f0d178f4a182","ios":"levelo://app?vid=efdf653f-4f21-45ad-bd62-f0d178f4a182"},"vehicle_type_id":"4","last_reported":1766081892,"current_range_meters":14400,"station_id":"ce4bhop2rcd13ifvqh7g","pricing_plan_id":"cebpf4jnsgd1na2vs0mg"},{"bike_id":"254d37b4-a453-4bef-8698-ef2e940aac87","system_id":"levelo_inurba_marseille","lat":43.28444,"lon":5.3921,"is_reserved":false,"is_disabled":false,"rental_uris":{"android":"levelo://app?vid=254d37b4-a453-4bef-8698-ef2e940aac87","ios":"levelo://app?vid=254d37b4-a453-4bef-8698-ef2e940aac87"},"vehicle_type_id":"4","last_reported":1766081892,"current_range_meters":14800,"station_id":"ce4bhoh2rcd13ifvqh5g","pricing_plan_id":"cebpf4jnsgd1na2vs0mg"},{"bike_id":"b494c767-effb-47c2-9a4d-0fc429c1d80d","system_id":"levelo_inurba_marseille","lat":43.29582,"lon":5.37498,"is_reserved":false,"is_disabled":true,"rental_uris":{"android":"levelo://app?vid=b494c767-effb-47c2-9a4d-0fc429c1d80d","ios":"levelo://app?vid=b494c767-effb-47c2-9a4d-0fc429c1d80d"},"vehicle_type_id":"4","last_reported":1766081892,"current_range_meters":14800,"station_id":"","pricing_plan_id":"cebpf4jnsgd1na2vs0mg"},{"bike_id":"0a598fce-978f-4f90-b03f-b8be1902feff","system_id":"levelo_inurba_marseille","lat":43.31269,"lon":5.3781,"is_reserved":false,"is_disabled":false,"rental_uris":{"android":"levelo://app?vid=0a598fce-978f-4f90-b03f-b8be1902feff","ios":"levelo://app?vid=0a598fce-978f-4f90-b03f-b8be1902feff"},"vehicle_type_id":"4","last_reported":1766081892,"current_range_meters":14800,"station_id":"","pricing_plan_id":"cebpf4jnsgd1na2vs0mg"},{"bike_id":"2211eee3-421a-4ee5-8496-f0a01aee47e6","system_id":"levelo_inurba_marseille","lat":43.31757,"lon":5.39001,"is_reserved":false,"is_disabled":false,"rental_uris":{"android":"levelo://app?vid=2211eee3-421a-4ee5-8496-f0a01aee47e6","ios":"levelo://app?vid=2211eee3-421a-4ee5-8496-f0a01aee47e6"},"vehicle_type_id":"4","last_reported":1766081892,"current_range_meters":14800,"station_id":"ce4bhqp2rcd13ifvqhng","pricing_plan_id":"cebpf4jnsgd1na2vs0mg"},{"bike_id":"cf5eb2c1-c87d-4ae3-9256-41d8d82f1276","system_id":"levelo_inurba_marseille","lat":43.29226,"lon":5.36053,"is_reserved":false,"is_disabled":false,"rental_uris":{"android":"levelo://app?vid=cf5eb2c1-c87d-4ae3-9256-41d8d82f1276","ios":"levelo://app?vid=cf5eb2c1-c87d-4ae3-9256-41d8d82f1276"},"vehicle_type_id":"4","last_reported":1766081892,"current_range_meters":14800,"station_id":"ce4bhbh2rcd13ifvqeqg","pricing_plan_id":"cebpf4jnsgd1na2vs0mg"},{"bike_id":"28e7ea25-d676-49ca-8be6-ac1c19bc94ea","system_id":"levelo_inurba_marseille","lat":43.33415,"lon":5.40076,"is_reserved":false,"is_disabled":false,"rental_uris":{"android":"levelo://app?vid=28e7ea25-d676-49ca-8be6-ac1c19bc94ea","ios":"levelo://app?vid=28e7ea25-d676-49ca-8be6-ac1c19bc94ea"},"vehicle_type_id":"4","last_reported":1766081892,"current_range_meters":14800,"station_id":"","pricing_plan_id":"cebpf4jnsgd1na2vs0mg"},{"bike_id":"d8db3eac-bcab-40bd-b4a6-d83cfbcce317","system_id":"levelo_inurba_marseille","lat":43.27921,"lon":5.39562,"is_reserved":false,"is_disabled":false,"rental_uris":{"android":"levelo://app?vid=d8db3eac-bcab-40bd-b4a6-d83cfbcce317","ios":"levelo://app?vid=d8db3eac-bcab-40bd-b4a6-d83cfbcce317"},"vehicle_type_id":"4","last_reported":1766081892,"current_range_meters":14800,"station_id":"ce4bhf92rcd13ifvqf40","pricing_plan_id":"cebpf4jnsgd1na2vs0mg"},{"bike_id":"ce42435a-7333-4989-88d0-c13b6bcfb607","system_id":"levelo_inurba_marseille","lat":43.28107,"lon":5.37835,"is_reserved":false,"is_disabled":false,"rental_uris":{"android":"levelo://app?vid=ce42435a-7333-4989-88d0-c13b6bcfb607","ios":"levelo://app?vid=ce42435a-7333-4989-88d0-c13b6bcfb607"},"vehicle_type_id":"4","last_reported":1766081892,"current_range_meters":14800,"station_id":"ce4bha12rcd13ifvqee0","pricing_plan_id":"cebpf4jnsgd1na2vs0mg"},{"bike_id":"9ce1842c-18fc-43eb-9262-95f8086e7650","system_id":"levelo_inurba_marseille","lat":43.27823,"lon":5.40697,"is_reserved":false,"is_disabled":false,"rental_uris":{"android":"levelo://app?vid=9ce1842c-18fc-43eb-9262-95f8086e7650","ios":"levelo://app?vid=9ce1842c-18fc-43eb-9262-95f8086e7650"},"vehicle_type_id":"4","last_reported":1766081892,"current_range_meters":15200,"station_id":"ce4bhnh2rcd13ifvqgtg","pricing_plan_id":"cebpf4jnsgd1na2vs0mg"},{"bike_id":"90ef5f5f-a8aa-49e2-9b22-ddc66523d40e","system_id":"levelo_inurba_marseille","lat":43.28935,"lon":5.36636,"is_reserved":false,"is_disabled":false,"rental_uris":{"android":"levelo://app?vid=90ef5f5f-a8aa-49e2-9b22-ddc66523d40e","ios":"levelo://app?vid=90ef5f5f-a8aa-49e2-9b22-ddc66523d40e"},"vehicle_type_id":"4","last_reported":1766081892,"current_range_meters":15200,"station_id":"ce4bhap2rcd13ifvqek0","pricing_plan_id":"cebpf4jnsgd1na2vs0mg"},{"bike_id":"cd11d61b-1bb0-4290-b32f-b76df17ed5bd","system_id":"levelo_inurba_marseille","lat":43.25932,"lon":5.40906,"is_reserved":false,"is_disabled":false,"rental_uris":{"android":"levelo://app?vid=cd11d61b-1bb0-4290-b32f-b76df17ed5bd","ios":"levelo://app?vid=cd11d61b-1bb0-4290-b32f-b76df17ed5bd"},"vehicle_type_id":"4","last_reported":1766081892,"current_range_meters":15200,"station_id":"ce4bhm92rcd13ifvqglg","pricing_plan_id":"cebpf4jnsgd1na2vs0mg"},{"bike_id":"33fb061b-cc0a-44e2-a90b-8eab16db9143","system_id":"levelo_inurba_marseille","lat":43.27952,"lon":5.41047,"is_reserved":false,"is_disabled":false,"rental_uris":{"android":"levelo://app?vid=33fb061b-cc0a-44e2-a90b-8eab16db9143","ios":"levelo://app?vid=33fb061b-cc0a-44e2-a90b-8eab16db9143"},"vehicle_type_id":"4","last_reported":1766081892,"current_range_meters":15200,"station_id":"ce4bhnp2rcd13ifvqh0g","pricing_plan_id":"cebpf4jnsgd1na2vs0mg"},{"bike_id":"c852469c-7b7d-434c-85b2-05356fc82470","system_id":"levelo_inurba_marseille","lat":43.2896,"lon":5.37844,"is_reserved":false,"is_disabled":true,"rental_uris":{"android":"levelo://app?vid=c852469c-7b7d-434c-85b2-05356fc82470","ios":"levelo://app?vid=c852469c-7b7d-434c-85b2-05356fc82470"},"vehicle_type_id":"4","last_reported":1766081892,"current_range_meters":15200,"station_id":"ce4bh9p2rcd13ifvqed0","pricing_plan_id":"cebpf4jnsgd1na2vs0mg"},{"bike_id":"96910872-d9ba-411d-b2f4-cd5332a0b5dd","system_id":"levelo_inurba_marseille","lat":43.30438,"lon":5.38879,"is_reserved":false,"is_disabled":false,"rental_uris":{"android":"levelo://app?vid=96910872-d9ba-411d-b2f4-cd5332a0b5dd","ios":"levelo://app?vid=96910872-d9ba-411d-b2f4-cd5332a0b5dd"},"vehicle_type_id":"4","last_reported":1766081892,"current_range_meters":15200,"station_id":"ce4bgk12rcd13ifvqbi0","pricing_plan_id":"cebpf4jnsgd1na2vs0mg"},{"bike_id":"79f4c582-0e2c-476c-93e9-a2ea847b3fad","system_id":"levelo_inurba_marseille","lat":43.312664,"lon":5.401701,"is_reserved":false,"is_disabled":false,"rental_uris":{"android":"levelo://app?vid=79f4c582-0e2c-476c-93e9-a2ea847b3fad","ios":"levelo://app?vid=79f4c582-0e2c-476c-93e9-a2ea847b3fad"},"vehicle_type_id":"4","last_reported":1766081892,"current_range_meters":15200,"station_id":"ce4bh092rcd13ifvqd30","pricing_plan_id":"cebpf4jnsgd1na2vs0mg"},{"bike_id":"8abcc592-a008-4603-871f-710dd4de775c","system_id":"levelo_inurba_marseille","lat":43.28362,"lon":5.38637,"is_reserved":false,"is_disabled":false,"rental_uris":{"android":"levelo://app?vid=8abcc592-a008-4603-871f-710dd4de775c","ios":"levelo://app?vid=8abcc592-a008-4603-871f-710dd4de775c"},"vehicle_type_id":"4","last_reported":1766081892,"current_range_meters":15200,"station_id":"ce4bh492rcd13ifvqdvg","pricing_plan_id":"cebpf4jnsgd1na2vs0mg"},{"bike_id":"bc8670ef-12cd-4b4f-b253-47201c478991","system_id":"levelo_inurba_marseille","lat":43.28199,"lon":5.39061,"is_reserved":false,"is_disabled":false,"rental_uris":{"android":"levelo://app?vid=bc8670ef-12cd-4b4f-b253-47201c478991","ios":"levelo://app?vid=bc8670ef-12cd-4b4f-b253-47201c478991"},"vehicle_type_id":"4","last_reported":1766081892,"current_range_meters":15200,"station_id":"ce4bhn92rcd13ifvqgsg","pricing_plan_id":"cebpf4jnsgd1na2vs0mg"},{"bike_id":"3171c4f4-d5a9-4282-9d2c-df19a6022bc8","system_id":"levelo_inurba_marseille","lat":43.29051,"lon":5.35632,"is_reserved":false,"is_disabled":false,"rental_uris":{"android":"levelo://app?vid=3171c4f4-d5a9-4282-9d2c-df19a6022bc8","ios":"levelo://app?vid=3171c4f4-d5a9-4282-9d2c-df19a6022bc8"},"vehicle_type_id":"4","last_reported":1766081892,"current_range_meters":15200,"station_id":"ce4bhb92rcd13ifvqen0","pricing_plan_id":"cebpf4jnsgd1na2vs0mg"},{"bike_id":"700442f5-a082-454e-8bc7-ab3bbb77bfce","system_id":"levelo_inurba_marseille","lat":43.26642,"lon":5.37465,"is_reserved":false,"is_disabled":false,"rental_uris":{"android":"levelo://app?vid=700442f5-a082-454e-8bc7-ab3bbb77bfce","ios":"levelo://app?vid=700442f5-a082-454e-8bc7-ab3bbb77bfce"},"vehicle_type_id":"4","last_reported":1766081892,"current_range_meters":15200,"station_id":"","pricing_plan_id":"cebpf4jnsgd1na2vs0mg"},{"bike_id":"59f188c5-4863-42c6-8add-b4a0ea36ee17","system_id":"levelo_inurba_marseille","lat":43.311388,"lon":5.396142,"is_reserved":false,"is_disabled":false,"rental_uris":{"android":"levelo://app?vid=59f188c5-4863-42c6-8add-b4a0ea36ee17","ios":"levelo://app?vid=59f188c5-4863-42c6-8add-b4a0ea36ee17"},"vehicle_type_id":"4","last_reported":1766081892,"current_range_meters":15200,"station_id":"ce4bgvp2rcd13ifvqcu0","pricing_plan_id":"cebpf4jnsgd1na2vs0mg"},{"bike_id":"40a2d79c-66c5-48fb-b28b-accae02a63a1","system_id":"levelo_inurba_marseille","lat":43.27377,"lon":5.36265,"is_reserved":false,"is_disabled":false,"rental_uris":{"android":"levelo://app?vid=40a2d79c-66c5-48fb-b28b-accae02a63a1","ios":"levelo://app?vid=40a2d79c-66c5-48fb-b28b-accae02a63a1"},"vehicle_type_id":"4","last_reported":1766081892,"current_range_meters":15200,"station_id":"ce4bhbh2rcd13ifvqeo0","pricing_plan_id":"cebpf4jnsgd1na2vs0mg"},{"bike_id":"02c94ebb-7747-4961-ba1d-35843a4f88ee","system_id":"levelo_inurba_marseille","lat":43.26718,"lon":5.38235,"is_reserved":false,"is_disabled":false,"rental_uris":{"android":"levelo://app?vid=02c94ebb-7747-4961-ba1d-35843a4f88ee","ios":"levelo://app?vid=02c94ebb-7747-4961-ba1d-35843a4f88ee"},"vehicle_type_id":"4","last_reported":1766081892,"current_range_meters":16000,"station_id":"ce4bhg92rcd13ifvqf90","pricing_plan_id":"cebpf4jnsgd1na2vs0mg"},{"bike_id":"1b3e78af-6e11-4a00-8160-7be2836c0e75","system_id":"levelo_inurba_marseille","lat":43.26189,"lon":5.3745,"is_reserved":false,"is_disabled":true,"rental_uris":{"android":"levelo://app?vid=1b3e78af-6e11-4a00-8160-7be2836c0e75","ios":"levelo://app?vid=1b3e78af-6e11-4a00-8160-7be2836c0e75"},"vehicle_type_id":"4","last_reported":1766081892,"current_range_meters":16000,"station_id":"","pricing_plan_id":"cebpf4jnsgd1na2vs0mg"},{"bike_id":"00a29bb1-88ca-440d-9219-07d673c689ed","system_id":"levelo_inurba_marseille","lat":43.298446,"lon":5.362788,"is_reserved":false,"is_disabled":false,"rental_uris":{"android":"levelo://app?vid=00a29bb1-88ca-440d-9219-07d673c689ed","ios":"levelo://app?vid=00a29bb1-88ca-440d-9219-07d673c689ed"},"vehicle_type_id":"4","last_reported":1766081892,"current_range_meters":16000,"station_id":"ce4bgpp2rcd13ifvqc3g","pricing_plan_id":"cebpf4jnsgd1na2vs0mg"},{"bike_id":"9aa8af62-5279-4e1e-9590-a787d63d1533","system_id":"levelo_inurba_marseille","lat":43.26224,"lon":5.40441,"is_reserved":false,"is_disabled":false,"rental_uris":{"android":"levelo://app?vid=9aa8af62-5279-4e1e-9590-a787d63d1533","ios":"levelo://app?vid=9aa8af62-5279-4e1e-9590-a787d63d1533"},