{"last_updated":1779228285,"ttl":60,"version":"2.2","data":{"bikes":[{"bike_id":"7d641315-6110-49cb-a9dd-d637ff032de1","system_id":"levelo_inurba_marseille","lat":43.337444,"lon":5.374475,"is_reserved":false,"is_disabled":false,"rental_uris":{"android":"levelo://app?vid=7d641315-6110-49cb-a9dd-d637ff032de1","ios":"levelo://app?vid=7d641315-6110-49cb-a9dd-d637ff032de1"},"vehicle_type_id":"4","last_reported":1779228286,"current_range_meters":0,"station_id":"","pricing_plan_id":"cebpf4jnsgd1na2vs0mg"},{"bike_id":"5a1c8a28-d79f-4b07-a4d8-bce75ba2c426","system_id":"levelo_inurba_marseille","lat":43.25858,"lon":5.39907,"is_reserved":false,"is_disabled":true,"rental_uris":{"android":"levelo://app?vid=5a1c8a28-d79f-4b07-a4d8-bce75ba2c426","ios":"levelo://app?vid=5a1c8a28-d79f-4b07-a4d8-bce75ba2c426"},"vehicle_type_id":"4","last_reported":1779228286,"current_range_meters":2800,"station_id":"ce4bhl92rcd13ifvqghg","pricing_plan_id":"cebpf4jnsgd1na2vs0mg"},{"bike_id":"f953e7df-9a8f-4f8e-8e56-6a5db7d34d82","system_id":"levelo_inurba_marseille","lat":43.269189,"lon":5.380411,"is_reserved":false,"is_disabled":false,"rental_uris":{"android":"levelo://app?vid=f953e7df-9a8f-4f8e-8e56-6a5db7d34d82","ios":"levelo://app?vid=f953e7df-9a8f-4f8e-8e56-6a5db7d34d82"},"vehicle_type_id":"4","last_reported":1779228286,"current_range_meters":2800,"station_id":"","pricing_plan_id":"cebpf4jnsgd1na2vs0mg"},{"bike_id":"3f87ab9f-0f27-4921-b411-f207bf0d98f5","system_id":"levelo_inurba_marseille","lat":43.288513,"lon":5.358559,"is_reserved":false,"is_disabled":false,"rental_uris":{"android":"levelo://app?vid=3f87ab9f-0f27-4921-b411-f207bf0d98f5","ios":"levelo://app?vid=3f87ab9f-0f27-4921-b411-f207bf0d98f5"},"vehicle_type_id":"4","last_reported":1779228286,"current_range_meters":2800,"station_id":"ce4bhb12rcd13ifvqem0","pricing_plan_id":"cebpf4jnsgd1na2vs0mg"},{"bike_id":"a6777b27-5702-4a2f-bd66-34fa9bb817ee","system_id":"levelo_inurba_marseille","lat":43.21754,"lon":5.34593,"is_reserved":false,"is_disabled":false,"rental_uris":{"android":"levelo://app?vid=a6777b27-5702-4a2f-bd66-34fa9bb817ee","ios":"levelo://app?vid=a6777b27-5702-4a2f-bd66-34fa9bb817ee"},"vehicle_type_id":"4","last_reported":1779228286,"current_range_meters":2800,"station_id":"st_cvj6r9ubvosntc0bgbag","pricing_plan_id":"cebpf4jnsgd1na2vs0mg"},{"bike_id":"7f792168-18c2-4d57-a00b-9a646f8a2ee9","system_id":"levelo_inurba_marseille","lat":43.29192,"lon":5.39334,"is_reserved":false,"is_disabled":false,"rental_uris":{"android":"levelo://app?vid=7f792168-18c2-4d57-a00b-9a646f8a2ee9","ios":"levelo://app?vid=7f792168-18c2-4d57-a00b-9a646f8a2ee9"},"vehicle_type_id":"4","last_reported":1779228286,"current_range_meters":2800,"station_id":"ce4bh192rcd13ifvqdd0","pricing_plan_id":"cebpf4jnsgd1na2vs0mg"},{"bike_id":"93c003be-d8ab-4b1a-9b17-df9f0989c39f","system_id":"levelo_inurba_marseille","lat":43.3013,"lon":5.43113,"is_reserved":false,"is_disabled":false,"rental_uris":{"android":"levelo://app?vid=93c003be-d8ab-4b1a-9b17-df9f0989c39f","ios":"levelo://app?vid=93c003be-d8ab-4b1a-9b17-df9f0989c39f"},"vehicle_type_id":"4","last_reported":1779228286,"current_range_meters":2800,"station_id":"st_d3js3co5814s73ftftug","pricing_plan_id":"cebpf4jnsgd1na2vs0mg"},{"bike_id":"09ea10e2-43a5-428f-afcc-00b3ec7ae464","system_id":"levelo_inurba_marseille","lat":43.309143,"lon":5.372809,"is_reserved":false,"is_disabled":true,"rental_uris":{"android":"levelo://app?vid=09ea10e2-43a5-428f-afcc-00b3ec7ae464","ios":"levelo://app?vid=09ea10e2-43a5-428f-afcc-00b3ec7ae464"},"vehicle_type_id":"4","last_reported":1779228286,"current_range_meters":2800,"station_id":"ce4bguh2rcd13ifvqckg","pricing_plan_id":"cebpf4jnsgd1na2vs0mg"},{"bike_id":"7807c6e6-8d56-4edf-a6e7-d1280082b62b","system_id":"levelo_inurba_marseille","lat":43.2971,"lon":5.36607,"is_reserved":false,"is_disabled":false,"rental_uris":{"android":"levelo://app?vid=7807c6e6-8d56-4edf-a6e7-d1280082b62b","ios":"levelo://app?vid=7807c6e6-8d56-4edf-a6e7-d1280082b62b"},"vehicle_type_id":"4","last_reported":1779228286,"current_range_meters":2800,"station_id":"ce4bgn12rcd13ifvqbt0","pricing_plan_id":"cebpf4jnsgd1na2vs0mg"},{"bike_id":"de8e8dc0-8a4f-4310-a5d7-e83f69246cfa","system_id":"levelo_inurba_marseille","lat":43.28931,"lon":5.36627,"is_reserved":false,"is_disabled":false,"rental_uris":{"android":"levelo://app?vid=de8e8dc0-8a4f-4310-a5d7-e83f69246cfa","ios":"levelo://app?vid=de8e8dc0-8a4f-4310-a5d7-e83f69246cfa"},"vehicle_type_id":"4","last_reported":1779228286,"current_range_meters":2800,"station_id":"ce4bhap2rcd13ifvqek0","pricing_plan_id":"cebpf4jnsgd1na2vs0mg"},{"bike_id":"b3e47a10-789b-4113-b169-face25d448d0","system_id":"levelo_inurba_marseille","lat":43.28736,"lon":5.4667,"is_reserved":false,"is_disabled":false,"rental_uris":{"android":"levelo://app?vid=b3e47a10-789b-4113-b169-face25d448d0","ios":"levelo://app?vid=b3e47a10-789b-4113-b169-face25d448d0"},"vehicle_type_id":"4","last_reported":1779228286,"current_range_meters":2800,"station_id":"st_d6tc3vkotcvc738tfjhg","pricing_plan_id":"cebpf4jnsgd1na2vs0mg"},{"bike_id":"f47ae4ec-2c8d-4e7e-a4c3-fb3f383219f2","system_id":"levelo_inurba_marseille","lat":43.25105,"lon":5.4032,"is_reserved":false,"is_disabled":false,"rental_uris":{"android":"levelo://app?vid=f47ae4ec-2c8d-4e7e-a4c3-fb3f383219f2","ios":"levelo://app?vid=f47ae4ec-2c8d-4e7e-a4c3-fb3f383219f2"},"vehicle_type_id":"4","last_reported":1779228286,"current_range_meters":2800,"station_id":"ce4bhlh2rcd13ifvqgig","pricing_plan_id":"cebpf4jnsgd1na2vs0mg"},{"bike_id":"67298b0d-96b3-4d14-87eb-fc9a2dd8b027","system_id":"levelo_inurba_marseille","lat":43.25123,"lon":5.40309,"is_reserved":false,"is_disabled":true,"rental_uris":{"android":"levelo://app?vid=67298b0d-96b3-4d14-87eb-fc9a2dd8b027","ios":"levelo://app?vid=67298b0d-96b3-4d14-87eb-fc9a2dd8b027"},"vehicle_type_id":"4","last_reported":1779228286,"current_range_meters":2800,"station_id":"ce4bhkp2rcd13ifvqgd0","pricing_plan_id":"cebpf4jnsgd1na2vs0mg"},{"bike_id":"e573ccad-7e51-42db-be9c-d11800e07cad","system_id":"levelo_inurba_marseille","lat":43.23145,"lon":5.43702,"is_reserved":false,"is_disabled":true,"rental_uris":{"android":"levelo://app?vid=e573ccad-7e51-42db-be9c-d11800e07cad","ios":"levelo://app?vid=e573ccad-7e51-42db-be9c-d11800e07cad"},"vehicle_type_id":"4","last_reported":1779228286,"current_range_meters":2800,"station_id":"ce4bhmp2rcd13ifvqgog","pricing_plan_id":"cebpf4jnsgd1na2vs0mg"},{"bike_id":"73e70ff1-5ffc-450e-86a9-03a3bfb425de","system_id":"levelo_inurba_marseille","lat":43.24545,"lon":5.39521,"is_reserved":false,"is_disabled":false,"rental_uris":{"android":"levelo://app?vid=73e70ff1-5ffc-450e-86a9-03a3bfb425de","ios":"levelo://app?vid=73e70ff1-5ffc-450e-86a9-03a3bfb425de"},"vehicle_type_id":"4","last_reported":1779228286,"current_range_meters":2800,"station_id":"ce4bhlp2rcd13ifvqgjg","pricing_plan_id":"cebpf4jnsgd1na2vs0mg"},{"bike_id":"b6ddb926-c35e-451f-ae57-2d262b732323","system_id":"levelo_inurba_marseille","lat":43.29725,"lon":5.41341,"is_reserved":false,"is_disabled":false,"rental_uris":{"android":"levelo://app?vid=b6ddb926-c35e-451f-ae57-2d262b732323","ios":"levelo://app?vid=b6ddb926-c35e-451f-ae57-2d262b732323"},"vehicle_type_id":"4","last_reported":1779228286,"current_range_meters":3200,"station_id":"","pricing_plan_id":"cebpf4jnsgd1na2vs0mg"},{"bike_id":"5eb11d83-2461-40c2-9484-0a35868d2011","system_id":"levelo_inurba_marseille","lat":43.29747,"lon":5.42741,"is_reserved":false,"is_disabled":true,"rental_uris":{"android":"levelo://app?vid=5eb11d83-2461-40c2-9484-0a35868d2011","ios":"levelo://app?vid=5eb11d83-2461-40c2-9484-0a35868d2011"},"vehicle_type_id":"4","last_reported":1779228286,"current_range_meters":3200,"station_id":"st_d3md5207bmas73dh9klg","pricing_plan_id":"cebpf4jnsgd1na2vs0mg"},{"bike_id":"7f4bd206-94e1-46ce-8494-5cc1785e8516","system_id":"levelo_inurba_marseille","lat":43.29066,"lon":5.37115,"is_reserved":false,"is_disabled":false,"rental_uris":{"android":"levelo://app?vid=7f4bd206-94e1-46ce-8494-5cc1785e8516","ios":"levelo://app?vid=7f4bd206-94e1-46ce-8494-5cc1785e8516"},"vehicle_type_id":"4","last_reported":1779228286,"current_range_meters":3200,"station_id":"ce4bh5p2rcd13ifvqe4g","pricing_plan_id":"cebpf4jnsgd1na2vs0mg"},{"bike_id":"54064f72-d96d-4bfa-acf7-e435112aa044","system_id":"levelo_inurba_marseille","lat":43.25337,"lon":5.42168,"is_reserved":false,"is_disabled":false,"rental_uris":{"android":"levelo://app?vid=54064f72-d96d-4bfa-acf7-e435112aa044","ios":"levelo://app?vid=54064f72-d96d-4bfa-acf7-e435112aa044"},"vehicle_type_id":"4","last_reported":1779228286,"current_range_meters":3200,"station_id":"st_d2m65c5bi1j21697t3ng","pricing_plan_id":"cebpf4jnsgd1na2vs0mg"},{"bike_id":"35343ed6-0170-48a9-9f1e-04dd4e950048","system_id":"levelo_inurba_marseille","lat":43.31534,"lon":5.38037,"is_reserved":false,"is_disabled":false,"rental_uris":{"android":"levelo://app?vid=35343ed6-0170-48a9-9f1e-04dd4e950048","ios":"levelo://app?vid=35343ed6-0170-48a9-9f1e-04dd4e950048"},"vehicle_type_id":"4","last_reported":1779228286,"current_range_meters":3200,"station_id":"ce4bhsp2rcd13ifvqi50","pricing_plan_id":"cebpf4jnsgd1na2vs0mg"},{"bike_id":"32a0f1a6-f3ba-405b-b0f0-06cf1414cad4","system_id":"levelo_inurba_marseille","lat":43.3013,"lon":5.39861,"is_reserved":false,"is_disabled":false,"rental_uris":{"android":"levelo://app?vid=32a0f1a6-f3ba-405b-b0f0-06cf1414cad4","ios":"levelo://app?vid=32a0f1a6-f3ba-405b-b0f0-06cf1414cad4"},"vehicle_type_id":"4","last_reported":1779228286,"current_range_meters":3200,"station_id":"ce4bh0h2rcd13ifvqd40","pricing_plan_id":"cebpf4jnsgd1na2vs0mg"},{"bike_id":"172565b9-36ed-4dce-9525-84569872493c","system_id":"levelo_inurba_marseille","lat":43.30607,"lon":5.37196,"is_reserved":false,"is_disabled":false,"rental_uris":{"android":"levelo://app?vid=172565b9-36ed-4dce-9525-84569872493c","ios":"levelo://app?vid=172565b9-36ed-4dce-9525-84569872493c"},"vehicle_type_id":"4","last_reported":1779228286,"current_range_meters":3200,"station_id":"ce4bgqh2rcd13ifvqc4g","pricing_plan_id":"cebpf4jnsgd1na2vs0mg"},{"bike_id":"1cad65e8-45e3-444d-9cff-df562f0f7899","system_id":"levelo_inurba_marseille","lat":43.29475,"lon":5.38442,"is_reserved":false,"is_disabled":false,"rental_uris":{"android":"levelo://app?vid=1cad65e8-45e3-444d-9cff-df562f0f7899","ios":"levelo://app?vid=1cad65e8-45e3-444d-9cff-df562f0f7899"},"vehicle_type_id":"4","last_reported":1779228286,"current_range_meters":3200,"station_id":"","pricing_plan_id":"cebpf4jnsgd1na2vs0mg"},{"bike_id":"cd66c22a-ad79-4141-a617-957c45914093","system_id":"levelo_inurba_marseille","lat":43.28088,"lon":5.39676,"is_reserved":false,"is_disabled":false,"rental_uris":{"android":"levelo://app?vid=cd66c22a-ad79-4141-a617-957c45914093","ios":"levelo://app?vid=cd66c22a-ad79-4141-a617-957c45914093"},"vehicle_type_id":"4","last_reported":1779228286,"current_range_meters":3200,"station_id":"ce4bho12rcd13ifvqh2g","pricing_plan_id":"cebpf4jnsgd1na2vs0mg"},{"bike_id":"76822842-6de5-44db-bee3-28d0eed2902b","system_id":"levelo_inurba_marseille","lat":43.22922,"lon":5.3538,"is_reserved":false,"is_disabled":false,"rental_uris":{"android":"levelo://app?vid=76822842-6de5-44db-bee3-28d0eed2902b","ios":"levelo://app?vid=76822842-6de5-44db-bee3-28d0eed2902b"},"vehicle_type_id":"4","last_reported":1779228286,"current_range_meters":3200,"station_id":"cpo3532slgdg3j2ikp40","pricing_plan_id":"cebpf4jnsgd1na2vs0mg"},{"bike_id":"c90ee2e7-a629-41fd-82a1-386467bc421c","system_id":"levelo_inurba_marseille","lat":43.2445,"lon":5.42531,"is_reserved":false,"is_disabled":false,"rental_uris":{"android":"levelo://app?vid=c90ee2e7-a629-41fd-82a1-386467bc421c","ios":"levelo://app?vid=c90ee2e7-a629-41fd-82a1-386467bc421c"},"vehicle_type_id":"4","last_reported":1779228286,"current_range_meters":3200,"station_id":"st_d4a3vfp97mjs738cd8kg","pricing_plan_id":"cebpf4jnsgd1na2vs0mg"},{"bike_id":"cc74a132-dc2a-40ce-8409-c80f2587c148","system_id":"levelo_inurba_marseille","lat":43.282667,"lon":5.350625,"is_reserved":false,"is_disabled":false,"rental_uris":{"android":"levelo://app?vid=cc74a132-dc2a-40ce-8409-c80f2587c148","ios":"levelo://app?vid=cc74a132-dc2a-40ce-8409-c80f2587c148"},"vehicle_type_id":"4","last_reported":1779228286,"current_range_meters":3200,"station_id":"ce4bhbp2rcd13ifvqerg","pricing_plan_id":"cebpf4jnsgd1na2vs0mg"},{"bike_id":"1f8259a9-7e55-4812-b53f-6d999496a759","system_id":"levelo_inurba_marseille","lat":43.28698,"lon":5.46698,"is_reserved":false,"is_disabled":false,"rental_uris":{"android":"levelo://app?vid=1f8259a9-7e55-4812-b53f-6d999496a759","ios":"levelo://app?vid=1f8259a9-7e55-4812-b53f-6d999496a759"},"vehicle_type_id":"4","last_reported":1779228286,"current_range_meters":3600,"station_id":"st_d6tc3vkotcvc738tfjhg","pricing_plan_id":"cebpf4jnsgd1na2vs0mg"},{"bike_id":"7bb81e6b-bed8-43df-9dc9-a5a3b0608cf9","system_id":"levelo_inurba_marseille","lat":43.25099,"lon":5.40333,"is_reserved":false,"is_disabled":false,"rental_uris":{"android":"levelo://app?vid=7bb81e6b-bed8-43df-9dc9-a5a3b0608cf9","ios":"levelo://app?vid=7bb81e6b-bed8-43df-9dc9-a5a3b0608cf9"},"vehicle_type_id":"4","last_reported":1779228286,"current_range_meters":3600,"station_id":"ce4bhlh2rcd13ifvqgig","pricing_plan_id":"cebpf4jnsgd1na2vs0mg"},{"bike_id":"bcf74673-f619-4a25-b2cb-07faca30cdd5","system_id":"levelo_inurba_marseille","lat":43.29794,"lon":5.39338,"is_reserved":false,"is_disabled":false,"rental_uris":{"android":"levelo://app?vid=bcf74673-f619-4a25-b2cb-07faca30cdd5","ios":"levelo://app?vid=bcf74673-f619-4a25-b2cb-07faca30cdd5"},"vehicle_type_id":"4","last_reported":1779228286,"current_range_meters":3600,"station_id":"chh1huq6cuj3fo74tm60","pricing_plan_id":"cebpf4jnsgd1na2vs0mg"},{"bike_id":"3c8d0b51-7aac-46fb-abc5-4dc3e27e51fd","system_id":"levelo_inurba_marseille","lat":43.28224,"lon":5.39066,"is_reserved":false,"is_disabled":false,"rental_uris":{"android":"levelo://app?vid=3c8d0b51-7aac-46fb-abc5-4dc3e27e51fd","ios":"levelo://app?vid=3c8d0b51-7aac-46fb-abc5-4dc3e27e51fd"},"vehicle_type_id":"4","last_reported":1779228286,"current_range_meters":3600,"station_id":"ce4bhn92rcd13ifvqgsg","pricing_plan_id":"cebpf4jnsgd1na2vs0mg"},{"bike_id":"3d91a0c6-2313-4d07-9e3d-0d954422674f","system_id":"levelo_inurba_marseille","lat":43.24661,"lon":5.38164,"is_reserved":false,"is_disabled":true,"rental_uris":{"android":"levelo://app?vid=3d91a0c6-2313-4d07-9e3d-0d954422674f","ios":"levelo://app?vid=3d91a0c6-2313-4d07-9e3d-0d954422674f"},"vehicle_type_id":"4","last_reported":1779228286,"current_range_meters":3600,"station_id":"ce4bhih2rcd13ifvqfr0","pricing_plan_id":"cebpf4jnsgd1na2vs0mg"},{"bike_id":"9e7006f9-e638-4d1b-b62b-f1df4c3df447","system_id":"levelo_inurba_marseille","lat":43.3065,"lon":5.40079,"is_reserved":false,"is_disabled":false,"rental_uris":{"android":"levelo://app?vid=9e7006f9-e638-4d1b-b62b-f1df4c3df447","ios":"levelo://app?vid=9e7006f9-e638-4d1b-b62b-f1df4c3df447"},"vehicle_type_id":"4","last_reported":1779228286,"current_range_meters":3600,"station_id":"ce4bh112rcd13ifvqda0","pricing_plan_id":"cebpf4jnsgd1na2vs0mg"},{"bike_id":"c8bb7c41-7fb7-454b-9233-36b54957c093","system_id":"levelo_inurba_marseille","lat":43.28218,"lon":5.35071,"is_reserved":false,"is_disabled":false,"rental_uris":{"android":"levelo://app?vid=c8bb7c41-7fb7-454b-9233-36b54957c093","ios":"levelo://app?vid=c8bb7c41-7fb7-454b-9233-36b54957c093"},"vehicle_type_id":"4","last_reported":1779228286,"current_range_meters":3600,"station_id":"","pricing_plan_id":"cebpf4jnsgd1na2vs0mg"},{"bike_id":"ccaa80e0-a4d8-4d68-a15e-383896e2a429","system_id":"levelo_inurba_marseille","lat":43.27959,"lon":5.38723,"is_reserved":false,"is_disabled":false,"rental_uris":{"android":"levelo://app?vid=ccaa80e0-a4d8-4d68-a15e-383896e2a429","ios":"levelo://app?vid=ccaa80e0-a4d8-4d68-a15e-383896e2a429"},"vehicle_type_id":"4","last_reported":1779228286,"current_range_meters":3600,"station_id":"ce4bhg12rcd13ifvqf80","pricing_plan_id":"cebpf4jnsgd1na2vs0mg"},{"bike_id":"a276fcae-1407-4b3a-97dc-c27eb93331dd","system_id":"levelo_inurba_marseille","lat":43.293929,"lon":5.397745,"is_reserved":false,"is_disabled":false,"rental_uris":{"android":"levelo://app?vid=a276fcae-1407-4b3a-97dc-c27eb93331dd","ios":"levelo://app?vid=a276fcae-1407-4b3a-97dc-c27eb93331dd"},"vehicle_type_id":"4","last_reported":1779228286,"current_range_meters":3600,"station_id":"ce4bh3h2rcd13ifvqdo0","pricing_plan_id":"cebpf4jnsgd1na2vs0mg"},{"bike_id":"ff499a3a-6b02-45ab-9e48-0938a66a34fd","system_id":"levelo_inurba_marseille","lat":43.25864,"lon":5.39894,"is_reserved":false,"is_disabled":false,"rental_uris":{"android":"levelo://app?vid=ff499a3a-6b02-45ab-9e48-0938a66a34fd","ios":"levelo://app?vid=ff499a3a-6b02-45ab-9e48-0938a66a34fd"},"vehicle_type_id":"4","last_reported":1779228286,"current_range_meters":3600,"station_id":"ce4bhl92rcd13ifvqghg","pricing_plan_id":"cebpf4jnsgd1na2vs0mg"},{"bike_id":"b15eb14b-6a17-44d3-8667-dac393ddd1b3","system_id":"levelo_inurba_marseille","lat":43.27898,"lon":5.38009,"is_reserved":false,"is_disabled":false,"rental_uris":{"android":"levelo://app?vid=b15eb14b-6a17-44d3-8667-dac393ddd1b3","ios":"levelo://app?vid=b15eb14b-6a17-44d3-8667-dac393ddd1b3"},"vehicle_type_id":"4","last_reported":1779228286,"current_range_meters":3600,"station_id":"ce4bhf92rcd13ifvqf50","pricing_plan_id":"cebpf4jnsgd1na2vs0mg"},{"bike_id":"cda1ba5b-bdc7-45c0-83eb-354580aa2daf","system_id":"levelo_inurba_marseille","lat":43.24178,"lon":5.39736,"is_reserved":false,"is_disabled":false,"rental_uris":{"android":"levelo://app?vid=cda1ba5b-bdc7-45c0-83eb-354580aa2daf","ios":"levelo://app?vid=cda1ba5b-bdc7-45c0-83eb-354580aa2daf"},"vehicle_type_id":"4","last_reported":1779228286,"current_range_meters":3600,"station_id":"ce4bhn12rcd13ifvqgpg","pricing_plan_id":"cebpf4jnsgd1na2vs0mg"},{"bike_id":"8673ffa8-b19b-4497-8cb0-67fab149b9e3","system_id":"levelo_inurba_marseille","lat":43.29717,"lon":5.3661,"is_reserved":false,"is_disabled":false,"rental_uris":{"android":"levelo://app?vid=8673ffa8-b19b-4497-8cb0-67fab149b9e3","ios":"levelo://app?vid=8673ffa8-b19b-4497-8cb0-67fab149b9e3"},"vehicle_type_id":"4","last_reported":1779228286,"current_range_meters":3600,"station_id":"ce4bgn12rcd13ifvqbt0","pricing_plan_id":"cebpf4jnsgd1na2vs0mg"},{"bike_id":"439cb916-5870-487a-ae7c-31792d69de19","system_id":"levelo_inurba_marseille","lat":43.28707,"lon":5.37378,"is_reserved":false,"is_disabled":false,"rental_uris":{"android":"levelo://app?vid=439cb916-5870-487a-ae7c-31792d69de19","ios":"levelo://app?vid=439cb916-5870-487a-ae7c-31792d69de19"},"vehicle_type_id":"4","last_reported":1779228286,"current_range_meters":3600,"station_id":"ce4bh3p2rcd13ifvqdq0","pricing_plan_id":"cebpf4jnsgd1na2vs0mg"},{"bike_id":"0e0d5418-4a56-4251-8866-025e6b539885","system_id":"levelo_inurba_marseille","lat":43.28883,"lon":5.42513,"is_reserved":false,"is_disabled":false,"rental_uris":{"android":"levelo://app?vid=0e0d5418-4a56-4251-8866-025e6b539885","ios":"levelo://app?vid=0e0d5418-4a56-4251-8866-025e6b539885"},"vehicle_type_id":"4","last_reported":1779228286,"current_range_meters":4000,"station_id":"st_d3b462108ojc7389ooeg","pricing_plan_id":"cebpf4jnsgd1na2vs0mg"},{"bike_id":"dabd1447-dbe2-4798-befb-8e5508948619","system_id":"levelo_inurba_marseille","lat":43.26779,"lon":5.39417,"is_reserved":false,"is_disabled":false,"rental_uris":{"android":"levelo://app?vid=dabd1447-dbe2-4798-befb-8e5508948619","ios":"levelo://app?vid=dabd1447-dbe2-4798-befb-8e5508948619"},"vehicle_type_id":"4","last_reported":1779228286,"current_range_meters":4000,"station_id":"ce4bhh12rcd13ifvqfg0","pricing_plan_id":"cebpf4jnsgd1na2vs0mg"},{"bike_id":"8d9285c2-2b4c-4446-93e9-9aa598ed5463","system_id":"levelo_inurba_marseille","lat":43.24162,"lon":5.36392,"is_reserved":false,"is_disabled":false,"rental_uris":{"android":"levelo://app?vid=8d9285c2-2b4c-4446-93e9-9aa598ed5463","ios":"levelo://app?vid=8d9285c2-2b4c-4446-93e9-9aa598ed5463"},"vehicle_type_id":"4","last_reported":1779228286,"current_range_meters":4000,"station_id":"cpo36qri1sfpv3e86is0","pricing_plan_id":"cebpf4jnsgd1na2vs0mg"},{"bike_id":"cd1dc5b4-310f-4c4a-bc55-2ffbc8ea9bb1","system_id":"levelo_inurba_marseille","lat":43.29073,"lon":5.37139,"is_reserved":false,"is_disabled":true,"rental_uris":{"android":"levelo://app?vid=cd1dc5b4-310f-4c4a-bc55-2ffbc8ea9bb1","ios":"levelo://app?vid=cd1dc5b4-310f-4c4a-bc55-2ffbc8ea9bb1"},"vehicle_type_id":"4","last_reported":1779228286,"current_range_meters":4000,"station_id":"ce4bh5p2rcd13ifvqe4g","pricing_plan_id":"cebpf4jnsgd1na2vs0mg"},{"bike_id":"a8ae5349-b91c-4463-a100-02257ab425d8","system_id":"levelo_inurba_marseille","lat":43.27208,"lon":5.38565,"is_reserved":false,"is_disabled":false,"rental_uris":{"android":"levelo://app?vid=a8ae5349-b91c-4463-a100-02257ab425d8","ios":"levelo://app?vid=a8ae5349-b91c-4463-a100-02257ab425d8"},"vehicle_type_id":"4","last_reported":1779228286,"current_range_meters":4000,"station_id":"","pricing_plan_id":"cebpf4jnsgd1na2vs0mg"},{"bike_id":"38896523-db5c-425f-ab2a-9a9bba4ebe66","system_id":"levelo_inurba_marseille","lat":43.25085,"lon":5.39519,"is_reserved":false,"is_disabled":true,"rental_uris":{"android":"levelo://app?vid=38896523-db5c-425f-ab2a-9a9bba4ebe66","ios":"levelo://app?vid=38896523-db5c-425f-ab2a-9a9bba4ebe66"},"vehicle_type_id":"4","last_reported":1779228286,"current_range_meters":4000,"station_id":"ce4bhm12rcd13ifvqgkg","pricing_plan_id":"cebpf4jnsgd1na2vs0mg"},{"bike_id":"859ff56d-18cc-492b-8658-56eb50f4e061","system_id":"levelo_inurba_marseille","lat":43.23895,"lon":5.37453,"is_reserved":false,"is_disabled":true,"rental_uris":{"android":"levelo://app?vid=859ff56d-18cc-492b-8658-56eb50f4e061","ios":"levelo://app?vid=859ff56d-18cc-492b-8658-56eb50f4e061"},"vehicle_type_id":"4","last_reported":1779228286,"current_range_meters":4400,"station_id":"st_d6sm7csbq4hs73f8fpjg","pricing_plan_id":"cebpf4jnsgd1na2vs0mg"},{"bike_id":"fb615aac-f425-4c63-b598-34d66631c597","system_id":"levelo_inurba_marseille","lat":43.24952,"lon":5.40466,"is_reserved":false,"is_disabled":false,"rental_uris":{"android":"levelo://app?vid=fb615aac-f425-4c63-b598-34d66631c597","ios":"levelo://app?vid=fb615aac-f425-4c63-b598-34d66631c597"},"vehicle_type_id":"4","last_reported":1779228286,"current_range_meters":4400,"station_id":"st_d2ngiaodas8pm72gd1h0","pricing_plan_id":"cebpf4jnsgd1na2vs0mg"},{"bike_id":"ca4f6bf2-59b9-4fb8-9cc3-7ba12b36fa60","system_id":"levelo_inurba_marseille","lat":43.29513,"lon":5.40478,"is_reserved":false,"is_disabled":false,"rental_uris":{"android":"levelo://app?vid=ca4f6bf2-59b9-4fb8-9cc3-7ba12b36fa60","ios":"levelo://app?vid=ca4f6bf2-59b9-4fb8-9cc3-7ba12b36fa60"},"vehicle_type_id":"4","last_reported":1779228286,"current_range_meters":4400,"station_id":"","pricing_plan_id":"cebpf4jnsgd1na2vs0mg"},{"bike_id":"2331a6d4-8d41-4e0f-bed5-5cb9966b12eb","system_id":"levelo_inurba_marseille","lat":43.28592,"lon":5.39889,"is_reserved":false,"is_disabled":false,"rental_uris":{"android":"levelo://app?vid=2331a6d4-8d41-4e0f-bed5-5cb9966b12eb","ios":"levelo://app?vid=2331a6d4-8d41-4e0f-bed5-5cb9966b12eb"},"vehicle_type_id":"4","last_reported":1779228286,"current_range_meters":4400,"station_id":"st_d4a7ka997mjs738ck50g","pricing_plan_id":"cebpf4jnsgd1na2vs0mg"},{"bike_id":"b217fdec-614d-44f6-90ce-43401d4f3ee3","system_id":"levelo_inurba_marseille","lat":43.26541,"lon":5.37307,"is_reserved":false,"is_disabled":false,"rental_uris":{"android":"levelo://app?vid=b217fdec-614d-44f6-90ce-43401d4f3ee3","ios":"levelo://app?vid=b217fdec-614d-44f6-90ce-43401d4f3ee3"},"vehicle_type_id":"4","last_reported":1779228286,"current_range_meters":4400,"station_id":"ce4bhg12rcd13ifvqf70","pricing_plan_id":"cebpf4jnsgd1na2vs0mg"},{"bike_id":"eede13c0-6260-46fa-9480-c8791bc65339","system_id":"levelo_inurba_marseille","lat":43.31717,"lon":5.39905,"is_reserved":false,"is_disabled":false,"rental_uris":{"android":"levelo://app?vid=eede13c0-6260-46fa-9480-c8791bc65339","ios":"levelo://app?vid=eede13c0-6260-46fa-9480-c8791bc65339"},"vehicle_type_id":"4","last_reported":1779228286,"current_range_meters":4400,"station_id":"","pricing_plan_id":"cebpf4jnsgd1na2vs0mg"},{"bike_id":"3def504d-de33-4514-b440-ecafa81cca57","system_id":"levelo_inurba_marseille","lat":43.30614,"lon":5.40103,"is_reserved":false,"is_disabled":false,"rental_uris":{"android":"levelo://app?vid=3def504d-de33-4514-b440-ecafa81cca57","ios":"levelo://app?vid=3def504d-de33-4514-b440-ecafa81cca57"},"vehicle_type_id":"4","last_reported":1779228286,"current_range_meters":4400,"station_id":"ce4bh112rcd13ifvqda0","pricing_plan_id":"cebpf4jnsgd1na2vs0mg"},{"bike_id":"64ad6566-84f4-4864-b7e3-c0e70b01a873","system_id":"levelo_inurba_marseille","lat":43.31345,"lon":5.38471,"is_reserved":false,"is_disabled":false,"rental_uris":{"android":"levelo://app?vid=64ad6566-84f4-4864-b7e3-c0e70b01a873","ios":"levelo://app?vid=64ad6566-84f4-4864-b7e3-c0e70b01a873"},"vehicle_type_id":"4","last_reported":1779228286,"current_range_meters":4400,"station_id":"ce4bgt92rcd13ifvqcf0","pricing_plan_id":"cebpf4jnsgd1na2vs0mg"},{"bike_id":"d0187113-d789-4a92-bca5-aab998d450fa","system_id":"levelo_inurba_marseille","lat":43.30921,"lon":5.40166,"is_reserved":false,"is_disabled":false,"rental_uris":{"android":"levelo://app?vid=d0187113-d789-4a92-bca5-aab998d450fa","ios":"levelo://app?vid=d0187113-d789-4a92-bca5-aab998d450fa"},"vehicle_type_id":"4","last_reported":1779228286,"current_range_meters":4400,"station_id":"ce4bgvp2rcd13ifvqct0","pricing_plan_id":"cebpf4jnsgd1na2vs0mg"},{"bike_id":"bc12875f-9dcb-4f14-8ec4-c5a179682ba7","system_id":"levelo_inurba_marseille","lat":43.27929,"lon":5.39573,"is_reserved":false,"is_disabled":false,"rental_uris":{"android":"levelo://app?vid=bc12875f-9dcb-4f14-8ec4-c5a179682ba7","ios":"levelo://app?vid=bc12875f-9dcb-4f14-8ec4-c5a179682ba7"},"vehicle_type_id":"4","last_reported":1779228286,"current_range_meters":4800,"station_id":"ce4bhf92rcd13ifvqf40","pricing_plan_id":"cebpf4jnsgd1na2vs0mg"},{"bike_id":"300be1e4-4062-4458-88d8-4af498daecd5","system_id":"levelo_inurba_marseille","lat":43.2445,"lon":5.42564,"is_reserved":false,"is_disabled":false,"rental_uris":{"android":"levelo://app?vid=300be1e4-4062-4458-88d8-4af498daecd5","ios":"levelo://app?vid=300be1e4-4062-4458-88d8-4af498daecd5"},"vehicle_type_id":"4","last_reported":1779228286,"current_range_meters":4800,"station_id":"st_d4a3vfp97mjs738cd8kg","pricing_plan_id":"cebpf4jnsgd1na2vs0mg"},{"bike_id":"33794a08-c5df-45d6-afd4-eac42eacad4b","system_id":"levelo_inurba_marseille","lat":43.29706,"lon":5.36589,"is_reserved":false,"is_disabled":false,"rental_uris":{"android":"levelo://app?vid=33794a08-c5df-45d6-afd4-eac42eacad4b","ios":"levelo://app?vid=33794a08-c5df-45d6-afd4-eac42eacad4b"},"vehicle_type_id":"4","last_reported":1779228286,"current_range_meters":4800,"station_id":"ce4bgn12rcd13ifvqbt0","pricing_plan_id":"cebpf4jnsgd1na2vs0mg"},{"bike_id":"c9513b4e-0f0e-49bc-bbff-f4414a2b16f9","system_id":"levelo_inurba_marseille","lat":43.27503,"lon":5.41596,"is_reserved":false,"is_disabled":false,"rental_uris":{"android":"levelo://app?vid=c9513b4e-0f0e-49bc-bbff-f4414a2b16f9","ios":"levelo://app?vid=c9513b4e-0f0e-49bc-bbff-f4414a2b16f9"},"vehicle_type_id":"4","last_reported":1779228286,"current_range_meters":4800,"station_id":"st_d6im8g6chgec73a5pndg","pricing_plan_id":"cebpf4jnsgd1na2vs0mg"},{"bike_id":"ea75d21f-9b56-476e-aad3-888e7c0e8fda","system_id":"levelo_inurba_marseille","lat":43.301361,"lon":5.398498,"is_reserved":false,"is_disabled":false,"rental_uris":{"android":"levelo://app?vid=ea75d21f-9b56-476e-aad3-888e7c0e8fda","ios":"levelo://app?vid=ea75d21f-9b56-476e-aad3-888e7c0e8fda"},"vehicle_type_id":"4","last_reported":1779228286,"current_range_meters":4800,"station_id":"ce4bh0h2rcd13ifvqd40","pricing_plan_id":"cebpf4jnsgd1na2vs0mg"},{"bike_id":"ec17e644-1d7d-402e-b369-f62e304f81d9","system_id":"levelo_inurba_marseille","lat":43.28253,"lon":5.35052,"is_reserved":false,"is_disabled":false,"rental_uris":{"android":"levelo://app?vid=ec17e644-1d7d-402e-b369-f62e304f81d9","ios":"levelo://app?vid=ec17e644-1d7d-402e-b369-f62e304f81d9"},"vehicle_type_id":"4","last_reported":1779228286,"current_range_meters":4800,"station_id":"ce4bhbp2rcd13ifvqerg","pricing_plan_id":"cebpf4jnsgd1na2vs0mg"},{"bike_id":"f75b8c0a-2786-433b-aea5-c9df08b2ad5e","system_id":"levelo_inurba_marseille","lat":43.225317,"lon":5.34828,"is_reserved":false,"is_disabled":false,"rental_uris":{"android":"levelo://app?vid=f75b8c0a-2786-433b-aea5-c9df08b2ad5e","ios":"levelo://app?vid=f75b8c0a-2786-433b-aea5-c9df08b2ad5e"},"vehicle_type_id":"4","last_reported":1779228286,"current_range_meters":4800,"station_id":"st_cvj5dfep6f1abm77gieg","pricing_plan_id":"cebpf4jnsgd1na2vs0mg"},{"bike_id":"92a48778-5aae-45c8-9818-f9e9df801c2b","system_id":"levelo_inurba_marseille","lat":43.33154,"lon":5.37697,"is_reserved":false,"is_disabled":false,"rental_uris":{"android":"levelo://app?vid=92a48778-5aae-45c8-9818-f9e9df801c2b","ios":"levelo://app?vid=92a48778-5aae-45c8-9818-f9e9df801c2b"},"vehicle_type_id":"4","last_reported":1779228286,"current_range_meters":4800,"station_id":"st_d46cu089ee8s73dldbu0","pricing_plan_id":"cebpf4jnsgd1na2vs0mg"},{"bike_id":"bfe7eeb1-dab0-42a4-8185-06fbd275a449","system_id":"levelo_inurba_marseille","lat":43.25575,"lon":5.421,"is_reserved":false,"is_disabled":false,"rental_uris":{"android":"levelo://app?vid=bfe7eeb1-dab0-42a4-8185-06fbd275a449","ios":"levelo://app?vid=bfe7eeb1-dab0-42a4-8185-06fbd275a449"},"vehicle_type_id":"4","last_reported":1779228286,"current_range_meters":4800,"station_id":"","pricing_plan_id":"cebpf4jnsgd1na2vs0mg"},{"bike_id":"ea8af912-9130-4510-bd49-b71d2814e011","system_id":"levelo_inurba_marseille","lat":43.28097,"lon":5.37833,"is_reserved":false,"is_disabled":false,"rental_uris":{"android":"levelo://app?vid=ea8af912-9130-4510-bd49-b71d2814e011","ios":"levelo://app?vid=ea8af912-9130-4510-bd49-b71d2814e011"},"vehicle_type_id":"4","last_reported":1779228286,"current_range_meters":5600,"station_id":"ce4bha12rcd13ifvqee0","pricing_plan_id":"cebpf4jnsgd1na2vs0mg"},{"bike_id":"604c8d35-0292-4781-b66d-7833a0f007ea","system_id":"levelo_inurba_marseille","lat":43.33556,"lon":5.37434,"is_reserved":false,"is_disabled":false,"rental_uris":{"android":"levelo://app?vid=604c8d35-0292-4781-b66d-7833a0f007ea","ios":"levelo://app?vid=604c8d35-0292-4781-b66d-7833a0f007ea"},"vehicle_type_id":"4","last_reported":1779228286,"current_range_meters":5600,"station_id":"st_d46tts09ee8s73dlu43g","pricing_plan_id":"cebpf4jnsgd1na2vs0mg"},{"bike_id":"9d45a253-1d3a-41f8-95ed-2518452886d5","system_id":"levelo_inurba_marseille","lat":43.25518,"lon":5.37646,"is_reserved":false,"is_disabled":true,"rental_uris":{"android":"levelo://app?vid=9d45a253-1d3a-41f8-95ed-2518452886d5","ios":"levelo://app?vid=9d45a253-1d3a-41f8-95ed-2518452886d5"},"vehicle_type_id":"4","last_reported":1779228286,"current_range_meters":5600,"station_id":"ce4bhh12rcd13ifvqff0","pricing_plan_id":"cebpf4jnsgd1na2vs0mg"},{"bike_id":"a589afee-c55a-43a1-8dc9-b4e20ff4b3a0","system_id":"levelo_inurba_marseille","lat":43.25595,"lon":5.38197,"is_reserved":false,"is_disabled":false,"rental_uris":{"android":"levelo://app?vid=a589afee-c55a-43a1-8dc9-b4e20ff4b3a0","ios":"levelo://app?vid=a589afee-c55a-43a1-8dc9-b4e20ff4b3a0"},"vehicle_type_id":"4","last_reported":1779228286,"current_range_meters":5600,"station_id":"ce4bhih2rcd13ifvqfs0","pricing_plan_id":"cebpf4jnsgd1na2vs0mg"},{"bike_id":"b2831627-3b1e-437d-9966-063b64acbf7d","system_id":"levelo_inurba_marseille","lat":43.23958,"lon":5.36621,"is_reserved":false,"is_disabled":false,"rental_uris":{"android":"levelo://app?vid=b2831627-3b1e-437d-9966-063b64acbf7d","ios":"levelo://app?vid=b2831627-3b1e-437d-9966-063b64acbf7d"},"vehicle_type_id":"4","last_reported":1779228286,"current_range_meters":5600,"station_id":"ce4bhi12rcd13ifvqfp0","pricing_plan_id":"cebpf4jnsgd1na2vs0mg"},{"bike_id":"7c260c7d-d9ed-4ca3-9e2d-27bf132a1d6d","system_id":"levelo_inurba_marseille","lat":43.301559,"lon":5.38132,"is_reserved":false,"is_disabled":false,"rental_uris":{"android":"levelo://app?vid=7c260c7d-d9ed-4ca3-9e2d-27bf132a1d6d","ios":"levelo://app?vid=7c260c7d-d9ed-4ca3-9e2d-27bf132a1d6d"},"vehicle_type_id":"4","last_reported":1779228286,"current_range_meters":5600,"station_id":"ce4bgjp2rcd13ifvqbh0","pricing_plan_id":"cebpf4jnsgd1na2vs0mg"},{"bike_id":"fa3ad1a2-dfe9-4b0b-bc12-298ebc9d8bde","system_id":"levelo_inurba_marseille","lat":43.29551,"lon":5.38535,"is_reserved":false,"is_disabled":false,"rental_uris":{"android":"levelo://app?vid=fa3ad1a2-dfe9-4b0b-bc12-298ebc9d8bde","ios":"levelo://app?vid=fa3ad1a2-dfe9-4b0b-bc12-298ebc9d8bde"},"vehicle_type_id":"4","last_reported":1779228286,"current_range_meters":5600,"station_id":"ce4bgih2rcd13ifvqba0","pricing_plan_id":"cebpf4jnsgd1na2vs0mg"},{"bike_id":"d765f686-9cf4-478f-aee5-11b08b8ae0cc","system_id":"levelo_inurba_marseille","lat":43.30892,"lon":5.39644,"is_reserved":false,"is_disabled":false,"rental_uris":{"android":"levelo://app?vid=d765f686-9cf4-478f-aee5-11b08b8ae0cc","ios":"levelo://app?vid=d765f686-9cf4-478f-aee5-11b08b8ae0cc"},"vehicle_type_id":"4","last_reported":1779228286,"current_range_meters":5600,"station_id":"ce4bh012rcd13ifvqcv0","pricing_plan_id":"cebpf4jnsgd1na2vs0mg"},{"bike_id":"89dcf81e-d685-4eb4-82aa-fe68a85d332a","system_id":"levelo_inurba_marseille","lat":43.32104,"lon":5.36775,"is_reserved":false,"is_disabled":false,"rental_uris":{"android":"levelo://app?vid=89dcf81e-d685-4eb4-82aa-fe68a85d332a","ios":"levelo://app?vid=89dcf81e-d685-4eb4-82aa-fe68a85d332a"},"vehicle_type_id":"4","last_reported":1779228286,"current_range_meters":5600,"station_id":"ce4bhrh2rcd13ifvqhug","pricing_plan_id":"cebpf4jnsgd1na2vs0mg"},{"bike_id":"a38cb7d5-ac4f-4017-9fb4-cfff9737f93e","system_id":"levelo_inurba_marseille","lat":43.29873,"lon":5.38911,"is_reserved":false,"is_disabled":false,"rental_uris":{"android":"levelo://app?vid=a38cb7d5-ac4f-4017-9fb4-cfff9737f93e","ios":"levelo://app?vid=a38cb7d5-ac4f-4017-9fb4-cfff9737f93e"},"vehicle_type_id":"4","last_reported":1779228286,"current_range_meters":5600,"station_id":"ce4bh392rcd13ifvqdl0","pricing_plan_id":"cebpf4jnsgd1na2vs0mg"},{"bike_id":"418014b9-d267-4e4e-a99e-c2b352fc43ed","system_id":"levelo_inurba_marseille","lat":43.27928,"lon":5.41306,"is_reserved":false,"is_disabled":false,"rental_uris":{"android":"levelo://app?vid=418014b9-d267-4e4e-a99e-c2b352fc43ed","ios":"levelo://app?vid=418014b9-d267-4e4e-a99e-c2b352fc43ed"},"vehicle_type_id":"4","last_reported":1779228286,"current_range_meters":5600,"station_id":"","pricing_plan_id":"cebpf4jnsgd1na2vs0mg"},{"bike_id":"8fc18fbf-64a2-4b6e-bd54-336b8ce35ed5","system_id":"levelo_inurba_marseille","lat":43.29021,"lon":5.38134,"is_reserved":false,"is_disabled":false,"rental_uris":{"android":"levelo://app?vid=8fc18fbf-64a2-4b6e-bd54-336b8ce35ed5","ios":"levelo://app?vid=8fc18fbf-64a2-4b6e-bd54-336b8ce35ed5"},"vehicle_type_id":"4","last_reported":1779228286,"current_range_meters":5600,"station_id":"ce4bh4p2rcd13ifvqe1g","pricing_plan_id":"cebpf4jnsgd1na2vs0mg"},{"bike_id":"ee5fe437-24bf-482c-8cfc-fb6ec77b2c51","system_id":"levelo_inurba_marseille","lat":43.289296,"lon":5.36401,"is_reserved":false,"is_disabled":true,"rental_uris":{"android":"levelo://app?vid=ee5fe437-24bf-482c-8cfc-fb6ec77b2c51","ios":"levelo://app?vid=ee5fe437-24bf-482c-8cfc-fb6ec77b2c51"},"vehicle_type_id":"4","last_reported":1779228286,"current_range_meters":5600,"station_id":"ce4bhap2rcd13ifvqek0","pricing_plan_id":"cebpf4jnsgd1na2vs0mg"},{"bike_id":"be93d86b-1d32-4dab-aebd-70c3baa22be2","system_id":"levelo_inurba_marseille","lat":43.2954,"lon":5.38542,"is_reserved":false,"is_disabled":false,"rental_uris":{"android":"levelo://app?vid=be93d86b-1d32-4dab-aebd-70c3baa22be2","ios":"levelo://app?vid=be93d86b-1d32-4dab-aebd-70c3baa22be2"},"vehicle_type_id":"4","last_reported":1779228286,"current_range_meters":5600,"station_id":"ce4bgih2rcd13ifvqba0","pricing_plan_id":"cebpf4jnsgd1na2vs0mg"},{"bike_id":"3fa4241d-9cd4-4d2a-ae09-71eea79a1fa0","system_id":"levelo_inurba_marseille","lat":43.28466,"lon":5.35884,"is_reserved":false,"is_disabled":false,"rental_uris":{"android":"levelo://app?vid=3fa4241d-9cd4-4d2a-ae09-71eea79a1fa0","ios":"levelo://app?vid=3fa4241d-9cd4-4d2a-ae09-71eea79a1fa0"},"vehicle_type_id":"4","last_reported":1779228286,"current_range_meters":5600,"station_id":"ce4bhah2rcd13ifvqei0","pricing_plan_id":"cebpf4jnsgd1na2vs0mg"},{"bike_id":"01a535c2-2aa8-486c-b4e8-7a7aace55e7e","system_id":"levelo_inurba_marseille","lat":43.21741,"lon":5.34603,"is_reserved":false,"is_disabled":true,"rental_uris":{"android":"levelo://app?vid=01a535c2-2aa8-486c-b4e8-7a7aace55e7e","ios":"levelo://app?vid=01a535c2-2aa8-486c-b4e8-7a7aace55e7e"},"vehicle_type_id":"4","last_reported":1779228286,"current_range_meters":5600,"station_id":"st_cvj6r9ubvosntc0bgbag","pricing_plan_id":"cebpf4jnsgd1na2vs0mg"},{"bike_id":"cfbfdf60-d81e-4d76-86b0-d916d82fdeb8","system_id":"levelo_inurba_marseille","lat":43.21753,"lon":5.34592,"is_reserved":false,"is_disabled":false,"rental_uris":{"android":"levelo://app?vid=cfbfdf60-d81e-4d76-86b0-d916d82fdeb8","ios":"levelo://app?vid=cfbfdf60-d81e-4d76-86b0-d916d82fdeb8"},"vehicle_type_id":"4","last_reported":1779228286,"current_range_meters":5600,"station_id":"st_cvj6r9ubvosntc0bgbag","pricing_plan_id":"cebpf4jnsgd1na2vs0mg"},{"bike_id":"16136b1f-1261-4552-8bc0-de56f4287660","system_id":"levelo_inurba_marseille","lat":43.28436,"lon":5.39178,"is_reserved":false,"is_disabled":false,"rental_uris":{"android":"levelo://app?vid=16136b1f-1261-4552-8bc0-de56f4287660","ios":"levelo://app?vid=16136b1f-1261-4552-8bc0-de56f4287660"},"vehicle_type_id":"4","last_reported":1779228286,"current_range_meters":5600,"station_id":"ce4bhoh2rcd13ifvqh5g","pricing_plan_id":"cebpf4jnsgd1na2vs0mg"},{"bike_id":"8b5fe887-0d07-4a23-9fbd-a7025800ec01","system_id":"levelo_inurba_marseille","lat":43.273725,"lon":5.36265,"is_reserved":false,"is_disabled":true,"rental_uris":{"android":"levelo://app?vid=8b5fe887-0d07-4a23-9fbd-a7025800ec01","ios":"levelo://app?vid=8b5fe887-0d07-4a23-9fbd-a7025800ec01"},"vehicle_type_id":"4","last_reported":1779228286,"current_range_meters":5600,"station_id":"ce4bhbh2rcd13ifvqeo0","pricing_plan_id":"cebpf4jnsgd1na2vs0mg"},{"bike_id":"4a8fff30-cbc5-491d-8d3e-d22b568d1485","system_id":"levelo_inurba_marseille","lat":43.26459,"lon":5.37418,"is_reserved":false,"is_disabled":false,"rental_uris":{"android":"levelo://app?vid=4a8fff30-cbc5-491d-8d3e-d22b568d1485","ios":"levelo://app?vid=4a8fff30-cbc5-491d-8d3e-d22b568d1485"},"vehicle_type_id":"4","last_reported":1779228286,"current_range_meters":6000,"station_id":"","pricing_plan_id":"cebpf4jnsgd1na2vs0mg"},{"bike_id":"51dd4bf5-1713-4336-8e5a-c0bbefdadd5c","system_id":"levelo_inurba_marseille","lat":43.31068,"lon":5.37178,"is_reserved":false,"is_disabled":false,"rental_uris":{"android":"levelo://app?vid=51dd4bf5-1713-4336-8e5a-c0bbefdadd5c","ios":"levelo://app?vid=51dd4bf5-1713-4336-8e5a-c0bbefdadd5c"},"vehicle_type_id":"4","last_reported":1779228286,"current_range_meters":6000,"station_id":"st_d4kl2rp97mjs73e7tdfg","pricing_plan_id":"cebpf4jnsgd1na2vs0mg"},{"bike_id":"9ed2419b-967d-43dc-b34b-964685e46474","system_id":"levelo_inurba_marseille","lat":43.2849,"lon":5.38572,"is_reserved":false,"is_disabled":false,"rental_uris":{"android":"levelo://app?vid=9ed2419b-967d-43dc-b34b-964685e46474","ios":"levelo://app?vid=9ed2419b-967d-43dc-b34b-964685e46474"},"vehicle_type_id":"4","last_reported":1779228286,"current_range_meters":6000,"station_id":"ce4bh8p2rcd13ifvqeb0","pricing_plan_id":"cebpf4jnsgd1na2vs0mg"},{"bike_id":"69fb0f2e-8291-4305-b561-741ac11e259e","system_id":"levelo_inurba_marseille","lat":43.276186,"lon":5.361004,"is_reserved":false,"is_disabled":true,"rental_uris":{"android":"levelo://app?vid=69fb0f2e-8291-4305-b561-741ac11e259e","ios":"levelo://app?vid=69fb0f2e-8291-4305-b561-741ac11e259e"},"vehicle_type_id":"4","last_reported":1779228286,"current_range_meters":6000,"station_id":"ce4bgj92rcd13ifvqbe0","pricing_plan_id":"cebpf4jnsgd1na2vs0mg"},{"bike_id":"355ecd15-f99b-4bfe-bf00-8fde28ffd9d2","system_id":"levelo_inurba_marseille","lat":43.27981,"lon":5.41664,"is_reserved":false,"is_disabled":false,"rental_uris":{"android":"levelo://app?vid=355ecd15-f99b-4bfe-bf00-8fde28ffd9d2","ios":"levelo://app?vid=355ecd15-f99b-4bfe-bf00-8fde28ffd9d2"},"vehicle_type_id":"4","last_reported":1779228286,"current_range_meters":6000,"station_id":"ce4bho12rcd13ifvqh1g","pricing_plan_id":"cebpf4jnsgd1na2vs0mg"},{"bike_id":"a57b6d8c-426e-41f2-88fd-ed699a7b5fab","system_id":"levelo_inurba_marseille","lat":43.32108,"lon":5.36781,"is_reserved":false,"is_disabled":false,"rental_uris":{"android":"levelo://app?vid=a57b6d8c-426e-41f2-88fd-ed699a7b5fab","ios":"levelo://app?vid=a57b6d8c-426e-41f2-88fd-ed699a7b5fab"},"vehicle_type_id":"4","last_reported":1779228286,"current_range_meters":6000,"station_id":"ce4bhrh2rcd13ifvqhug","pricing_plan_id":"cebpf4jnsgd1na2vs0mg"},{"bike_id":"0ab54c51-2cd5-429e-99a7-d9b354415bcb","system_id":"levelo_inurba_marseille","lat":43.31177,"lon":5.37887,"is_reserved":false,"is_disabled":false,"rental_uris":{"android":"levelo://app?vid=0ab54c51-2cd5-429e-99a7-d9b354415bcb","ios":"levelo://app?vid=0ab54c51-2cd5-429e-99a7-d9b354415bcb"},"vehicle_type_id":"4","last_reported":1779228286,"current_range_meters":6000,"station_id":"","pricing_plan_id":"cebpf4jnsgd1na2vs0mg"},{"bike_id":"7b9a2a93-7c89-4c9e-8536-1d2453fc722d","system_id":"levelo_inurba_marseille","lat":43.231509,"lon":5.437166,"is_reserved":false,"is_disabled":false,"rental_uris":{"android":"levelo://app?vid=7b9a2a93-7c89-4c9e-8536-1d2453fc722d","ios":"levelo://app?vid=7b9a2a93-7c89-4c9e-8536-1d2453fc722d"},"vehicle_type_id":"4","last_reported":1779228286,"current_range_meters":6000,"station_id":"ce4bhmp2rcd13ifvqgog","pricing_plan_id":"cebpf4jnsgd1na2vs0mg"},{"bike_id":"d5507518-cb58-4fc3-a22b-de5ad3c6e51d","system_id":"levelo_inurba_marseille","lat":43.29816,"lon":5.4408,"is_reserved":false,"is_disabled":false,"rental_uris":{"android":"levelo://app?vid=d5507518-cb58-4fc3-a22b-de5ad3c6e51d","ios":"levelo://app?vid=d5507518-cb58-4fc3-a22b-de5ad3c6e51d"},"vehicle_type_id":"4","last_reported":1779228286,"current_range_meters":6000,"station_id":"st_d3jp68qikq2c7381ktn0","pricing_plan_id":"cebpf4jnsgd1na2vs0mg"},{"bike_id":"d18fd8b8-7a40-4078-9a1d-6a41c9dd13ed","system_id":"levelo_inurba_marseille","lat":43.25336,"lon":5.42145,"is_reserved":false,"is_disabled":false,"rental_uris":{"android":"levelo://app?vid=d18fd8b8-7a40-4078-9a1d-6a41c9dd13ed","ios":"levelo://app?vid=d18fd8b8-7a40-4078-9a1d-6a41c9dd13ed"},"vehicle_type_id":"4","last_reported":1779228286,"current_range_meters":6000,"station_id":"st_d2m65c5bi1j21697t3ng","pricing_plan_id":"cebpf4jnsgd1na2vs0mg"},{"bike_id":"38aaf980-f895-454f-8327-9ab247a7e46f","system_id":"levelo_inurba_marseille","lat":43.22537,"lon":5.34825,"is_reserved":false,"is_disabled":false,"rental_uris":{"android":"levelo://app?vid=38aaf980-f895-454f-8327-9ab247a7e46f","ios":"levelo://app?vid=38aaf980-f895-454f-8327-9ab247a7e46f"},"vehicle_type_id":"4","last_reported":1779228286,"current_range_meters":6000,"station_id":"st_cvj5dfep6f1abm77gieg","pricing_plan_id":"cebpf4jnsgd1na2vs0mg"},{"bike_id":"e8703d1e-38d7-4a37-8b34-74e110535cc7","system_id":"levelo_inurba_marseille","lat":43.25092,"lon":5.39496,"is_reserved":false,"is_disabled":false,"rental_uris":{"android":"levelo://app?vid=e8703d1e-38d7-4a37-8b34-74e110535cc7","ios":"levelo://app?vid=e8703d1e-38d7-4a37-8b34-74e110535cc7"},"vehicle_type_id":"4","last_reported":1779228286,"current_range_meters":6400,"station_id":"ce4bhm12rcd13ifvqgkg","pricing_plan_id":"cebpf4jnsgd1na2vs0mg"},{"bike_id":"e961b1bd-248f-4be3-ad13-a8bc465c0051","system_id":"levelo_inurba_marseille","lat":43.2861,"lon":5.35097,"is_reserved":false,"is_disabled":false,"rental_uris":{"android":"levelo://app?vid=e961b1bd-248f-4be3-ad13-a8bc465c0051","ios":"levelo://app?vid=e961b1bd-248f-4be3-ad13-a8bc465c0051"},"vehicle_type_id":"4","last_reported":1779228286,"current_range_meters":6400,"station_id":"ce4bhch2rcd13ifvqeug","pricing_plan_id":"cebpf4jnsgd1na2vs0mg"},{"bike_id":"88e061d4-200e-450e-b7c2-b8c848567f43","system_id":"levelo_inurba_marseille","lat":43.24791,"lon":5.37444,"is_reserved":false,"is_disabled":false,"rental_uris":{"android":"levelo://app?vid=88e061d4-200e-450e-b7c2-b8c848567f43","ios":"levelo://app?vid=88e061d4-200e-450e-b7c2-b8c848567f43"},"vehicle_type_id":"4","last_reported":1779228286,"current_range_meters":6400,"station_id":"ce4bhgh2rcd13ifvqfb0","pricing_plan_id":"cebpf4jnsgd1na2vs0mg"},{"bike_id":"11e513a4-955a-4b20-bced-fd3548036d72","system_id":"levelo_inurba_marseille","lat":43.28935,"lon":5.36394,"is_reserved":false,"is_disabled":false,"rental_uris":{"android":"levelo://app?vid=11e513a4-955a-4b20-bced-fd3548036d72","ios":"levelo://app?vid=11e513a4-955a-4b20-bced-fd3548036d72"},"vehicle_type_id":"4","last_reported":1779228286,"current_range_meters":6400,"station_id":"ce4bhc92rcd13ifvqetg","pricing_plan_id":"cebpf4jnsgd1na2vs0mg"},{"bike_id":"a8c1c2d5-b2c0-4d38-925b-e17fb3c6114c","system_id":"levelo_inurba_marseille","lat":43.29531,"lon":5.3854,"is_reserved":false,"is_disabled":false,"rental_uris":{"android":"levelo://app?vid=a8c1c2d5-b2c0-4d38-925b-e17fb3c6114c","ios":"levelo://app?vid=a8c1c2d5-b2c0-4d38-925b-e17fb3c6114c"},"vehicle_type_id":"4","last_reported":1779228286,"current_range_meters":6400,"station_id":"ce4bgih2rcd13ifvqba0","pricing_plan_id":"cebpf4jnsgd1na2vs0mg"},{"bike_id":"db8a4dd4-5383-4c0f-a06a-3d7a00c725c2","system_id":"levelo_inurba_marseille","lat":43.24968,"lon":5.40486,"is_reserved":false,"is_disabled":false,"rental_uris":{"android":"levelo://app?vid=db8a4dd4-5383-4c0f-a06a-3d7a00c725c2","ios":"levelo://app?vid=db8a4dd4-5383-4c0f-a06a-3d7a00c725c2"},"vehicle_type_id":"4","last_reported":1779228286,"current_range_meters":6400,"station_id":"st_d2ngiaodas8pm72gd1h0","pricing_plan_id":"cebpf4jnsgd1na2vs0mg"},{"bike_id":"0fc8a8de-84b0-49eb-adab-8aa38f828302","system_id":"levelo_inurba_marseille","lat":43.33034,"lon":5.39034,"is_reserved":false,"is_disabled":false,"rental_uris":{"android":"levelo://app?vid=0fc8a8de-84b0-49eb-adab-8aa38f828302","ios":"levelo://app?vid=0fc8a8de-84b0-49eb-adab-8aa38f828302"},"vehicle_type_id":"4","last_reported":1779228286,"current_range_meters":6400,"station_id":"ce4bhr92rcd13ifvqhrg","pricing_plan_id":"cebpf4jnsgd1na2vs0mg"},{"bike_id":"33f1022a-86ed-42b2-a2fa-b6b00d8323f5","system_id":"levelo_inurba_marseille","lat":43.31121,"lon":5.37757,"is_reserved":false,"is_disabled":false,"rental_uris":{"android":"levelo://app?vid=33f1022a-86ed-42b2-a2fa-b6b00d8323f5","ios":"levelo://app?vid=33f1022a-86ed-42b2-a2fa-b6b00d8323f5"},"vehicle_type_id":"4","last_reported":1779228286,"current_range_meters":6400,"station_id":"ce4bgt92rcd13ifvqcg0","pricing_plan_id":"cebpf4jnsgd1na2vs0mg"},{"bike_id":"cf7373d3-c364-48da-9656-3acb8ea466d7","system_id":"levelo_inurba_marseille","lat":43.28408,"lon":5.34973,"is_reserved":false,"is_disabled":false,"rental_uris":{"android":"levelo://app?vid=cf7373d3-c364-48da-9656-3acb8ea466d7","ios":"levelo://app?vid=cf7373d3-c364-48da-9656-3acb8ea466d7"},"vehicle_type_id":"4","last_reported":1779228286,"current_range_meters":6400,"station_id":"ce4bhbh2rcd13ifvqepg","pricing_plan_id":"cebpf4jnsgd1na2vs0mg"},{"bike_id":"6cdb7984-ad3e-435d-8372-62fdb7aa0855","system_id":"levelo_inurba_marseille","lat":43.30818,"lon":5.38173,"is_reserved":false,"is_disabled":false,"rental_uris":{"android":"levelo://app?vid=6cdb7984-ad3e-435d-8372-62fdb7aa0855","ios":"levelo://app?vid=6cdb7984-ad3e-435d-8372-62fdb7aa0855"},"vehicle_type_id":"4","last_reported":1779228286,"current_range_meters":6400,"station_id":"ce4bgt12rcd13ifvqce0","pricing_plan_id":"cebpf4jnsgd1na2vs0mg"},{"bike_id":"bed30e45-52d3-4d59-a462-69ac09ce976c","system_id":"levelo_inurba_marseille","lat":43.27992,"lon":5.40016,"is_reserved":false,"is_disabled":false,"rental_uris":{"android":"levelo://app?vid=bed30e45-52d3-4d59-a462-69ac09ce976c","ios":"levelo://app?vid=bed30e45-52d3-4d59-a462-69ac09ce976c"},"vehicle_type_id":"4","last_reported":1779228286,"current_range_meters":6400,"station_id":"ce4bho92rcd13ifvqh4g","pricing_plan_id":"cebpf4jnsgd1na2vs0mg"},{"bike_id":"aa25651c-458a-4968-a8f4-090cb10207c5","system_id":"levelo_inurba_marseille","lat":43.30793,"lon":5.38159,"is_reserved":false,"is_disabled":false,"rental_uris":{"android":"levelo://app?vid=aa25651c-458a-4968-a8f4-090cb10207c5","ios":"levelo://app?vid=aa25651c-458a-4968-a8f4-090cb10207c5"},"vehicle_type_id":"4","last_reported":1779228286,"current_range_meters":6400,"station_id":"ce4bgt12rcd13ifvqce0","pricing_plan_id":"cebpf4jnsgd1na2vs0mg"},{"bike_id":"e7a04a88-1f0d-4242-9c20-b5c57079cabd","system_id":"levelo_inurba_marseille","lat":43.28405,"lon":5.37528,"is_reserved":false,"is_disabled":false,"rental_uris":{"android":"levelo://app?vid=e7a04a88-1f0d-4242-9c20-b5c57079cabd","ios":"levelo://app?vid=e7a04a88-1f0d-4242-9c20-b5c57079cabd"},"vehicle_type_id":"4","last_reported":1779228286,"current_range_meters":6400,"station_id":"ce4bh412rcd13ifvqds0","pricing_plan_id":"cebpf4jnsgd1na2vs0mg"},{"bike_id":"641625a9-15d1-4318-92bd-6c7525fc2c00","system_id":"levelo_inurba_marseille","lat":43.30937,"lon":5.40149,"is_reserved":false,"is_disabled":false,"rental_uris":{"android":"levelo://app?vid=641625a9-15d1-4318-92bd-6c7525fc2c00","ios":"levelo://app?vid=641625a9-15d1-4318-92bd-6c7525fc2c00"},"vehicle_type_id":"4","last_reported":1779228286,"current_range_meters":6400,"station_id":"ce4bgvp2rcd13ifvqct0","pricing_plan_id":"cebpf4jnsgd1na2vs0mg"},{"bike_id":"408701cc-3f2d-4c32-b20d-587f50ccde82","system_id":"levelo_inurba_marseille","lat":43.305578,"lon":5.367156,"is_reserved":false,"is_disabled":false,"rental_uris":{"android":"levelo://app?vid=408701cc-3f2d-4c32-b20d-587f50ccde82","ios":"levelo://app?vid=408701cc-3f2d-4c32-b20d-587f50ccde82"},"vehicle_type_id":"4","last_reported":1779228286,"current_range_meters":6400,"station_id":"","pricing_plan_id":"cebpf4jnsgd1na2vs0mg"},{"bike_id":"2ce294fb-84d5-437c-b216-1505ead71f24","system_id":"levelo_inurba_marseille","lat":43.30608,"lon":5.37229,"is_reserved":false,"is_disabled":false,"rental_uris":{"android":"levelo://app?vid=2ce294fb-84d5-437c-b216-1505ead71f24","ios":"levelo://app?vid=2ce294fb-84d5-437c-b216-1505ead71f24"},"vehicle_type_id":"4","last_reported":1779228286,"current_range_meters":6400,"station_id":"ce4bgqh2rcd13ifvqc4g","pricing_plan_id":"cebpf4jnsgd1na2vs0mg"},{"bike_id":"36cdc993-b8ba-47a2-a619-a1f39172f477","system_id":"levelo_inurba_marseille","lat":43.30325,"lon":5.40433,"is_reserved":false,"is_disabled":true,"rental_uris":{"android":"levelo://app?vid=36cdc993-b8ba-47a2-a619-a1f39172f477","ios":"levelo://app?vid=36cdc993-b8ba-47a2-a619-a1f39172f477"},"vehicle_type_id":"4","last_reported":1779228286,"current_range_meters":6400,"station_id":"ce4bh012rcd13ifvqd10","pricing_plan_id":"cebpf4jnsgd1na2vs0mg"},{"bike_id":"43cdbea8-df76-40e1-9a76-0694e77cf450","system_id":"levelo_inurba_marseille","lat":43.26207,"lon":5.37905,"is_reserved":false,"is_disabled":false,"rental_uris":{"android":"levelo://app?vid=43cdbea8-df76-40e1-9a76-0694e77cf450","ios":"levelo://app?vid=43cdbea8-df76-40e1-9a76-0694e77cf450"},"vehicle_type_id":"4","last_reported":1779228286,"current_range_meters":6800,"station_id":"ce4bhjp2rcd13ifvqg90","pricing_plan_id":"cebpf4jnsgd1na2vs0mg"},{"bike_id":"8aa4042b-067b-4783-a174-79e2496089f3","system_id":"levelo_inurba_marseille","lat":43.28607,"lon":5.3511,"is_reserved":false,"is_disabled":false,"rental_uris":{"android":"levelo://app?vid=8aa4042b-067b-4783-a174-79e2496089f3","ios":"levelo://app?vid=8aa4042b-067b-4783-a174-79e2496089f3"},"vehicle_type_id":"4","last_reported":1779228286,"current_range_meters":6800,"station_id":"ce4bhch2rcd13ifvqeug","pricing_plan_id":"cebpf4jnsgd1na2vs0mg"},{"bike_id":"c4c56dca-3c1e-48c7-b5bd-d8adea2c4f5c","system_id":"levelo_inurba_marseille","lat":43.27072,"lon":5.42289,"is_reserved":false,"is_disabled":false,"rental_uris":{"android":"levelo://app?vid=c4c56dca-3c1e-48c7-b5bd-d8adea2c4f5c","ios":"levelo://app?vid=c4c56dca-3c1e-48c7-b5bd-d8adea2c4f5c"},"vehicle_type_id":"4","last_reported":1779228286,"current_range_meters":6800,"station_id":"ce4bhk92rcd13ifvqgb0","pricing_plan_id":"cebpf4jnsgd1na2vs0mg"},{"bike_id":"27237e63-2249-4faf-bf10-f917ec8c9a9f","system_id":"levelo_inurba_marseille","lat":43.29537,"lon":5.38538,"is_reserved":false,"is_disabled":false,"rental_uris":{"android":"levelo://app?vid=27237e63-2249-4faf-bf10-f917ec8c9a9f","ios":"levelo://app?vid=27237e63-2249-4faf-bf10-f917ec8c9a9f"},"vehicle_type_id":"4","last_reported":1779228286,"current_range_meters":6800,"station_id":"ce4bgih2rcd13ifvqba0","pricing_plan_id":"cebpf4jnsgd1na2vs0mg"},{"bike_id":"c611833a-c5d3-40bb-9a95-d1f0c53110a1","system_id":"levelo_inurba_marseille","lat":43.2422,"lon":5.39757,"is_reserved":false,"is_disabled":false,"rental_uris":{"android":"levelo://app?vid=c611833a-c5d3-40bb-9a95-d1f0c53110a1","ios":"levelo://app?vid=c611833a-c5d3-40bb-9a95-d1f0c53110a1"},"vehicle_type_id":"4","last_reported":1779228286,"current_range_meters":6800,"station_id":"","pricing_plan_id":"cebpf4jnsgd1na2vs0mg"},{"bike_id":"40e11415-186d-4a53-ac50-ac693db6945a","system_id":"levelo_inurba_marseille","lat":43.33557,"lon":5.37479,"is_reserved":false,"is_disabled":false,"rental_uris":{"android":"levelo://app?vid=40e11415-186d-4a53-ac50-ac693db6945a","ios":"levelo://app?vid=40e11415-186d-4a53-ac50-ac693db6945a"},"vehicle_type_id":"4","last_reported":1779228286,"current_range_meters":6800,"station_id":"st_d46tts09ee8s73dlu43g","pricing_plan_id":"cebpf4jnsgd1na2vs0mg"},{"bike_id":"9b9605df-a3c8-42d6-ac00-c5f48bd6b477","system_id":"levelo_inurba_marseille","lat":43.28464,"lon":5.35866,"is_reserved":false,"is_disabled":false,"rental_uris":{"android":"levelo://app?vid=9b9605df-a3c8-42d6-ac00-c5f48bd6b477","ios":"levelo://app?vid=9b9605df-a3c8-42d6-ac00-c5f48bd6b477"},"vehicle_type_id":"4","last_reported":1779228286,"current_range_meters":6800,"station_id":"ce4bhah2rcd13ifvqei0","pricing_plan_id":"cebpf4jnsgd1na2vs0mg"},{"bike_id":"32dbbc57-f039-4c1f-8277-851d2ad0a496","system_id":"levelo_inurba_marseille","lat":43.24069,"lon":5.37761,"is_reserved":false,"is_disabled":false,"rental_uris":{"android":"levelo://app?vid=32dbbc57-f039-4c1f-8277-851d2ad0a496","ios":"levelo://app?vid=32dbbc57-f039-4c1f-8277-851d2ad0a496"},"vehicle_type_id":"4","last_reported":1779228286,"current_range_meters":6800,"station_id":"ce4bhnp2rcd13ifvqgvg","pricing_plan_id":"cebpf4jnsgd1na2vs0mg"},{"bike_id":"d16a42be-a11a-41b2-8ed8-848a18a38a0e","system_id":"levelo_inurba_marseille","lat":43.337444,"lon":5.374475,"is_reserved":false,"is_disabled":false,"rental_uris":{"android":"levelo://app?vid=d16a42be-a11a-41b2-8ed8-848a18a38a0e","ios":"levelo://app?vid=d16a42be-a11a-41b2-8ed8-848a18a38a0e"},"vehicle_type_id":"4","last_reported":1779228286,"current_range_meters":6800,"station_id":"","pricing_plan_id":"cebpf4jnsgd1na2vs0mg"},{"bike_id":"828a4254-df39-4db4-bc60-0daaf7aa673c","system_id":"levelo_inurba_marseille","lat":43.26563,"lon":5.40321,"is_reserved":false,"is_disabled":false,"rental_uris":{"android":"levelo://app?vid=828a4254-df39-4db4-bc60-0daaf7aa673c","ios":"levelo://app?vid=828a4254-df39-4db4-bc60-0daaf7aa673c"},"vehicle_type_id":"4","last_reported":1779228286,"current_range_meters":6800,"station_id":"ce4bhmp2rcd13ifvqgng","pricing_plan_id":"cebpf4jnsgd1na2vs0mg"},{"bike_id":"fa4f1eab-a365-4fde-acb7-5d259dae308a","system_id":"levelo_inurba_marseille","lat":43.30646,"lon":5.40096,"is_reserved":false,"is_disabled":false,"rental_uris":{"android":"levelo://app?vid=fa4f1eab-a365-4fde-acb7-5d259dae308a","ios":"levelo://app?vid=fa4f1eab-a365-4fde-acb7-5d259dae308a"},"vehicle_type_id":"4","last_reported":1779228286,"current_range_meters":6800,"station_id":"ce4bh112rcd13ifvqda0","pricing_plan_id":"cebpf4jnsgd1na2vs0mg"},{"bike_id":"8999dbc3-c664-43d4-845c-5fe63828eabe","system_id":"levelo_inurba_marseille","lat":43.290312,"lon":5.386489,"is_reserved":false,"is_disabled":false,"rental_uris":{"android":"levelo://app?vid=8999dbc3-c664-43d4-845c-5fe63828eabe","ios":"levelo://app?vid=8999dbc3-c664-43d4-845c-5fe63828eabe"},"vehicle_type_id":"4","last_reported":1779228286,"current_range_meters":6800,"station_id":"ce4bh4p2rcd13ifvqe0g","pricing_plan_id":"cebpf4jnsgd1na2vs0mg"},{"bike_id":"e35ca50a-e252-4fec-af7a-48a17bebc951","system_id":"levelo_inurba_marseille","lat":43.295856,"lon":5.375158,"is_reserved":false,"is_disabled":false,"rental_uris":{"android":"levelo://app?vid=e35ca50a-e252-4fec-af7a-48a17bebc951","ios":"levelo://app?vid=e35ca50a-e252-4fec-af7a-48a17bebc951"},"vehicle_type_id":"4","last_reported":1779228286,"current_range_meters":6800,"station_id":"ce4bgh92rcd13ifvqb50","pricing_plan_id":"cebpf4jnsgd1na2vs0mg"},{"bike_id":"31a31fba-6b6f-425a-a317-c43f2a9fbf6a","system_id":"levelo_inurba_marseille","lat":43.30924,"lon":5.40137,"is_reserved":false,"is_disabled":false,"rental_uris":{"android":"levelo://app?vid=31a31fba-6b6f-425a-a317-c43f2a9fbf6a","ios":"levelo://app?vid=31a31fba-6b6f-425a-a317-c43f2a9fbf6a"},"vehicle_type_id":"4","last_reported":1779228286,"current_range_meters":6800,"station_id":"ce4bgvp2rcd13ifvqct0","pricing_plan_id":"cebpf4jnsgd1na2vs0mg"},{"bike_id":"6816ad20-e267-4121-b319-c804c7fe4cde","system_id":"levelo_inurba_marseille","lat":43.27986,"lon":5.40019,"is_reserved":false,"is_disabled":false,"rental_uris":{"android":"levelo://app?vid=6816ad20-e267-4121-b319-c804c7fe4cde","ios":"levelo://app?vid=6816ad20-e267-4121-b319-c804c7fe4cde"},"vehicle_type_id":"4","last_reported":1779228286,"current_range_meters":7200,"station_id":"ce4bho92rcd13ifvqh4g","pricing_plan_id":"cebpf4jnsgd1na2vs0mg"},{"bike_id":"6370e735-5db8-49f5-8a15-a14271b57f14","system_id":"levelo_inurba_marseille","lat":43.28412,"lon":5.34987,"is_reserved":false,"is_disabled":false,"rental_uris":{"android":"levelo://app?vid=6370e735-5db8-49f5-8a15-a14271b57f14","ios":"levelo://app?vid=6370e735-5db8-49f5-8a15-a14271b57f14"},"vehicle_type_id":"4","last_reported":1779228286,"current_range_meters":7200,"station_id":"ce4bhbh2rcd13ifvqepg","pricing_plan_id":"cebpf4jnsgd1na2vs0mg"},{"bike_id":"877aff4a-39d3-4bc9-9fb1-f03230c32990","system_id":"levelo_inurba_marseille","lat":43.32102,"lon":5.36759,"is_reserved":false,"is_disabled":false,"rental_uris":{"android":"levelo://app?vid=877aff4a-39d3-4bc9-9fb1-f03230c32990","ios":"levelo://app?vid=877aff4a-39d3-4bc9-9fb1-f03230c32990"},"vehicle_type_id":"4","last_reported":1779228286,"current_range_meters":7200,"station_id":"ce4bhrh2rcd13ifvqhug","pricing_plan_id":"cebpf4jnsgd1na2vs0mg"},{"bike_id":"74481e95-e66c-437f-b7c4-2fdddf09b800","system_id":"levelo_inurba_marseille","lat":43.28974,"lon":5.37819,"is_reserved":false,"is_disabled":false,"rental_uris":{"android":"levelo://app?vid=74481e95-e66c-437f-b7c4-2fdddf09b800","ios":"levelo://app?vid=74481e95-e66c-437f-b7c4-2fdddf09b800"},"vehicle_type_id":"4","last_reported":1779228286,"current_range_meters":7200,"station_id":"ce4bh9p2rcd13ifvqed0","pricing_plan_id":"cebpf4jnsgd1na2vs0mg"},{"bike_id":"b3878761-b59b-4edf-93c4-e8103d518c8f","system_id":"levelo_inurba_marseille","lat":43.29864,"lon":5.39739,"is_reserved":false,"is_disabled":false,"rental_uris":{"android":"levelo://app?vid=b3878761-b59b-4edf-93c4-e8103d518c8f","ios":"levelo://app?vid=b3878761-b59b-4edf-93c4-e8103d518c8f"},"vehicle_type_id":"4","last_reported":1779228286,"current_range_meters":7200,"station_id":"ce4bh0h2rcd13ifvqd50","pricing_plan_id":"cebpf4jnsgd1na2vs0mg"},{"bike_id":"c4974bd9-5751-460d-adbf-9b24dcd04bf3","system_id":"levelo_inurba_marseille","lat":43.25333,"lon":5.4216,"is_reserved":false,"is_disabled":false,"rental_uris":{"android":"levelo://app?vid=c4974bd9-5751-460d-adbf-9b24dcd04bf3","ios":"levelo://app?vid=c4974bd9-5751-460d-adbf-9b24dcd04bf3"},"vehicle_type_id":"4","last_reported":1779228286,"current_range_meters":7200,"station_id":"st_d2m65c5bi1j21697t3ng","pricing_plan_id":"cebpf4jnsgd1na2vs0mg"},{"bike_id":"7618b6c2-4d0d-4f2d-b90d-acc0cd3282c2","system_id":"levelo_inurba_marseille","lat":43.30899,"lon":5.39645,"is_reserved":false,"is_disabled":false,"rental_uris":{"android":"levelo://app?vid=7618b6c2-4d0d-4f2d-b90d-acc0cd3282c2","ios":"levelo://app?vid=7618b6c2-4d0d-4f2d-b90d-acc0cd3282c2"},"vehicle_type_id":"4","last_reported":1779228286,"current_range_meters":7200,"station_id":"ce4bh012rcd13ifvqcv0","pricing_plan_id":"cebpf4jnsgd1na2vs0mg"},{"bike_id":"6bf132c3-a863-479e-a809-2b1518d3564c","system_id":"levelo_inurba_marseille","lat":43.29547,"lon":5.38535,"is_reserved":false,"is_disabled":false,"rental_uris":{"android":"levelo://app?vid=6bf132c3-a863-479e-a809-2b1518d3564c","ios":"levelo://app?vid=6bf132c3-a863-479e-a809-2b1518d3564c"},"vehicle_type_id":"4","last_reported":1779228286,"current_range_meters":7200,"station_id":"ce4bgih2rcd13ifvqba0","pricing_plan_id":"cebpf4jnsgd1na2vs0mg"},{"bike_id":"66aa3998-c506-45a5-83d5-cd9a42760e10","system_id":"levelo_inurba_marseille","lat":43.31124,"lon":5.37725,"is_reserved":false,"is_disabled":false,"rental_uris":{"android":"levelo://app?vid=66aa3998-c506-45a5-83d5-cd9a42760e10","ios":"levelo://app?vid=66aa3998-c506-45a5-83d5-cd9a42760e10"},"vehicle_type_id":"4","last_reported":1779228286,"current_range_meters":7200,"station_id":"ce4bgt92rcd13ifvqcg0","pricing_plan_id":"cebpf4jnsgd1na2vs0mg"},{"bike_id":"e1edea3c-a9ec-4e1d-ae51-331278ede585","system_id":"levelo_inurba_marseille","lat":43.31031,"lon":5.393,"is_reserved":false,"is_disabled":false,"rental_uris":{"android":"levelo://app?vid=e1edea3c-a9ec-4e1d-ae51-331278ede585","ios":"levelo://app?vid=e1edea3c-a9ec-4e1d-ae51-331278ede585"},"vehicle_type_id":"4","last_reported":1779228286,"current_range_meters":7200,"station_id":"","pricing_plan_id":"cebpf4jnsgd1na2vs0mg"},{"bike_id":"8263f75d-9989-4529-81b0-a9d6ce3abc36","system_id":"levelo_inurba_marseille","lat":43.2866,"lon":5.36356,"is_reserved":false,"is_disabled":false,"rental_uris":{"android":"levelo://app?vid=8263f75d-9989-4529-81b0-a9d6ce3abc36","ios":"levelo://app?vid=8263f75d-9989-4529-81b0-a9d6ce3abc36"},"vehicle_type_id":"4","last_reported":1779228286,"current_range_meters":7200,"station_id":"ce4bhah2rcd13ifvqej0","pricing_plan_id":"cebpf4jnsgd1na2vs0mg"},{"bike_id":"854da997-21ff-48c4-ae70-cc3a0937e1c9","system_id":"levelo_inurba_marseille","lat":43.33538,"lon":5.37526,"is_reserved":false,"is_disabled":false,"rental_uris":{"android":"levelo://app?vid=854da997-21ff-48c4-ae70-cc3a0937e1c9","ios":"levelo://app?vid=854da997-21ff-48c4-ae70-cc3a0937e1c9"},"vehicle_type_id":"4","last_reported":1779228286,"current_range_meters":7200,"station_id":"st_d46tts09ee8s73dlu43g","pricing_plan_id":"cebpf4jnsgd1na2vs0mg"},{"bike_id":"291bce7d-95a9-4f5c-a2d8-de5b55889c52","system_id":"levelo_inurba_marseille","lat":43.2919,"lon":5.37264,"is_reserved":false,"is_disabled":false,"rental_uris":{"android":"levelo://app?vid=291bce7d-95a9-4f5c-a2d8-de5b55889c52","ios":"levelo://app?vid=291bce7d-95a9-4f5c-a2d8-de5b55889c52"},"vehicle_type_id":"4","last_reported":1779228286,"current_range_meters":7200,"station_id":"","pricing_plan_id":"cebpf4jnsgd1na2vs0mg"},{"bike_id":"5d8ff619-ebcf-48f9-9572-96d1a6a0e1bf","system_id":"levelo_inurba_marseille","lat":43.31986,"lon":5.3816,"is_reserved":false,"is_disabled":false,"rental_uris":{"android":"levelo://app?vid=5d8ff619-ebcf-48f9-9572-96d1a6a0e1bf","ios":"levelo://app?vid=5d8ff619-ebcf-48f9-9572-96d1a6a0e1bf"},"vehicle_type_id":"4","last_reported":1779228286,"current_range_meters":7200,"station_id":"ce4bhr12rcd13ifvqhpg","pricing_plan_id":"cebpf4jnsgd1na2vs0mg"},{"bike_id":"6475fa53-731a-40e0-a622-176f05ddd6ce","system_id":"levelo_inurba_marseille","lat":43.28933,"lon":5.36645,"is_reserved":false,"is_disabled":false,"rental_uris":{"android":"levelo://app?vid=6475fa53-731a-40e0-a622-176f05ddd6ce","ios":"levelo://app?vid=6475fa53-731a-40e0-a622-176f05ddd6ce"},"vehicle_type_id":"4","last_reported":1779228286,"current_range_meters":7200,"station_id":"ce4bhap2rcd13ifvqek0","pricing_plan_id":"cebpf4jnsgd1na2vs0mg"},{"bike_id":"cfd8774f-7d51-48ec-8267-56110e90adf9","system_id":"levelo_inurba_marseille","lat":43.30482,"lon":5.37283,"is_reserved":false,"is_disabled":false,"rental_uris":{"android":"levelo://app?vid=cfd8774f-7d51-48ec-8267-56110e90adf9","ios":"levelo://app?vid=cfd8774f-7d51-48ec-8267-56110e90adf9"},"vehicle_type_id":"4","last_reported":1779228286,"current_range_meters":7200,"station_id":"","pricing_plan_id":"cebpf4jnsgd1na2vs0mg"},{"bike_id":"528219a6-ce95-410b-b05b-bb9d4c2f3172","system_id":"levelo_inurba_marseille","lat":43.289278,"lon":5.384,"is_reserved":false,"is_disabled":false,"rental_uris":{"android":"levelo://app?vid=528219a6-ce95-410b-b05b-bb9d4c2f3172","ios":"levelo://app?vid=528219a6-ce95-410b-b05b-bb9d4c2f3172"},"vehicle_type_id":"4","last_reported":1779228286,"current_range_meters":7200,"station_id":"ce4bh612rcd13ifvqe6g","pricing_plan_id":"cebpf4jnsgd1na2vs0mg"},{"bike_id":"135c7add-6606-4442-b287-76ca2dc1a53f","system_id":"levelo_inurba_marseille","lat":43.31111,"lon":5.37754,"is_reserved":false,"is_disabled":false,"rental_uris":{"android":"levelo://app?vid=135c7add-6606-4442-b287-76ca2dc1a53f","ios":"levelo://app?vid=135c7add-6606-4442-b287-76ca2dc1a53f"},"vehicle_type_id":"4","last_reported":1779228286,"current_range_meters":7200,"station_id":"ce4bgt92rcd13ifvqcg0","pricing_plan_id":"cebpf4jnsgd1na2vs0mg"},{"bike_id":"c6028a61-17bb-4c9d-bc62-9ab6b286e1c5","system_id":"levelo_inurba_marseille","lat":43.3081,"lon":5.3816,"is_reserved":false,"is_disabled":false,"rental_uris":{"android":"levelo://app?vid=c6028a61-17bb-4c9d-bc62-9ab6b286e1c5","ios":"levelo://app?vid=c6028a61-17bb-4c9d-bc62-9ab6b286e1c5"},"vehicle_type_id":"4","last_reported":1779228286,"current_range_meters":7200,"station_id":"ce4bgt12rcd13ifvqce0","pricing_plan_id":"cebpf4jnsgd1na2vs0mg"},{"bike_id":"504db665-e06e-40d8-b34f-41b93fb77eab","system_id":"levelo_inurba_marseille","lat":43.30797,"lon":5.38135,"is_reserved":false,"is_disabled":false,"rental_uris":{"android":"levelo://app?vid=504db665-e06e-40d8-b34f-41b93fb77eab","ios":"levelo://app?vid=504db665-e06e-40d8-b34f-41b93fb77eab"},"vehicle_type_id":"4","last_reported":1779228286,"current_range_meters":7200,"station_id":"ce4bgt12rcd13ifvqce0","pricing_plan_id":"cebpf4jnsgd1na2vs0mg"},{"bike_id":"f7c0230e-ed97-4f98-b053-4847a49bfcd9","system_id":"levelo_inurba_marseille","lat":43.27505,"lon":5.42444,"is_reserved":false,"is_disabled":false,"rental_uris":{"android":"levelo://app?vid=f7c0230e-ed97-4f98-b053-4847a49bfcd9","ios":"levelo://app?vid=f7c0230e-ed97-4f98-b053-4847a49bfcd9"},"vehicle_type_id":"4","last_reported":1779228286,"current_range_meters":8000,"station_id":"ce4bhn92rcd13ifvqgrg","pricing_plan_id":"cebpf4jnsgd1na2vs0mg"},{"bike_id":"7c7fb249-fc8e-4d79-a1ce-dd5b0f183060","system_id":"levelo_inurba_marseille","lat":43.29819,"lon":5.44064,"is_reserved":false,"is_disabled":false,"rental_uris":{"android":"levelo://app?vid=7c7fb249-fc8e-4d79-a1ce-dd5b0f183060","ios":"levelo://app?vid=7c7fb249-fc8e-4d79-a1ce-dd5b0f183060"},"vehicle_type_id":"4","last_reported":1779228286,"current_range_meters":8000,"station_id":"st_d3jp68qikq2c7381ktn0","pricing_plan_id":"cebpf4jnsgd1na2vs0mg"},{"bike_id":"1d8a0de7-dee9-4c46-b0dc-9cb1beff9b47","system_id":"levelo_inurba_marseille","lat":43.28413,"lon":5.34975,"is_reserved":false,"is_disabled":false,"rental_uris":{"android":"levelo://app?vid=1d8a0de7-dee9-4c46-b0dc-9cb1beff9b47","ios":"levelo://app?vid=1d8a0de7-dee9-4c46-b0dc-9cb1beff9b47"},"vehicle_type_id":"4","last_reported":1779228286,"current_range_meters":8000,"station_id":"ce4bhbh2rcd13ifvqepg","pricing_plan_id":"cebpf4jnsgd1na2vs0mg"},{"bike_id":"c4edc732-d527-4577-89ca-cb699e299957","system_id":"levelo_inurba_marseille","lat":43.28703,"lon":5.37392,"is_reserved":false,"is_disabled":false,"rental_uris":{"android":"levelo://app?vid=c4edc732-d527-4577-89ca-cb699e299957","ios":"levelo://app?vid=c4edc732-d527-4577-89ca-cb699e299957"},"vehicle_type_id":"4","last_reported":1779228286,"current_range_meters":8000,"station_id":"ce4bh3p2rcd13ifvqdq0","pricing_plan_id":"cebpf4jnsgd1na2vs0mg"},{"bike_id":"496b9c64-1646-4035-b873-3787574e8948","system_id":"levelo_inurba_marseille","lat":43.33598,"lon":5.41005,"is_reserved":false,"is_disabled":false,"rental_uris":{"android":"levelo://app?vid=496b9c64-1646-4035-b873-3787574e8948","ios":"levelo://app?vid=496b9c64-1646-4035-b873-3787574e8948"},"vehicle_type_id":"4","last_reported":1779228286,"current_range_meters":8000,"station_id":"ce4bhqh2rcd13ifvqhmg","pricing_plan_id":"cebpf4jnsgd1na2vs0mg"},{"bike_id":"e3222edd-03cf-48aa-ba4f-a2ef2b117c27","system_id":"levelo_inurba_marseille","lat":43.29906,"lon":5.38141,"is_reserved":false,"is_disabled":false,"rental_uris":{"android":"levelo://app?vid=e3222edd-03cf-48aa-ba4f-a2ef2b117c27","ios":"levelo://app?vid=e3222edd-03cf-48aa-ba4f-a2ef2b117c27"},"vehicle_type_id":"4","last_reported":1779228286,"current_range_meters":8000,"station_id":"ce4bgj12rcd13ifvqbc0","pricing_plan_id":"cebpf4jnsgd1na2vs0mg"},{"bike_id":"7bcabde5-50b3-49a1-bde7-ef4e983b7b93","system_id":"levelo_inurba_marseille","lat":43.23199,"lon":5.39986,"is_reserved":false,"is_disabled":false,"rental_uris":{"android":"levelo://app?vid=7bcabde5-50b3-49a1-bde7-ef4e983b7b93","ios":"levelo://app?vid=7bcabde5-50b3-49a1-bde7-ef4e983b7b93"},"vehicle_type_id":"4","last_reported":1779228286,"current_range_meters":8000,"station_id":"ce4bhn12rcd13ifvqgqg","pricing_plan_id":"cebpf4jnsgd1na2vs0mg"},{"bike_id":"3f42a6d9-721c-4045-81f8-56e377ee5c6e","system_id":"levelo_inurba_marseille","lat":43.2648,"lon":5.39535,"is_reserved":false,"is_disabled":true,"rental_uris":{"android":"levelo://app?vid=3f42a6d9-721c-4045-81f8-56e377ee5c6e","ios":"levelo://app?vid=3f42a6d9-721c-4045-81f8-56e377ee5c6e"},"vehicle_type_id":"4","last_reported":1779228286,"current_range_meters":8000,"station_id":"ce4bhi12rcd13ifvqfq0","pricing_plan_id":"cebpf4jnsgd1na2vs0mg"},{"bike_id":"84e2bdea-040c-4b02-8461-3f29ac4c3630","system_id":"levelo_inurba_marseille","lat":43.3168,"lon":5.40465,"is_reserved":false,"is_disabled":false,"rental_uris":{"android":"levelo://app?vid=84e2bdea-040c-4b02-8461-3f29ac4c3630","ios":"levelo://app?vid=84e2bdea-040c-4b02-8461-3f29ac4c3630"},"vehicle_type_id":"4","last_reported":1779228286,"current_range_meters":8000,"station_id":"ce4bh012rcd13ifvqd00","pricing_plan_id":"cebpf4jnsgd1na2vs0mg"},{"bike_id":"94133b29-971d-48eb-9475-ae0b64fbd116","system_id":"levelo_inurba_marseille","lat":43.28197,"lon":5.3815,"is_reserved":false,"is_disabled":false,"rental_uris":{"android":"levelo://app?vid=94133b29-971d-48eb-9475-ae0b64fbd116","ios":"levelo://app?vid=94133b29-971d-48eb-9475-ae0b64fbd116"},"vehicle_type_id":"4","last_reported":1779228286,"current_range_meters":8000,"station_id":"","pricing_plan_id":"cebpf4jnsgd1na2vs0mg"},{"bike_id":"08b1f029-fee0-4df9-bf47-eb03b1f3a90a","system_id":"levelo_inurba_marseille","lat":43.29582,"lon":5.38105,"is_reserved":false,"is_disabled":false,"rental_uris":{"android":"levelo://app?vid=08b1f029-fee0-4df9-bf47-eb03b1f3a90a","ios":"levelo://app?vid=08b1f029-fee0-4df9-bf47-eb03b1f3a90a"},"vehicle_type_id":"4","last_reported":1779228286,"current_range_meters":8000,"station_id":"ce4bgl12rcd13ifvqbo0","pricing_plan_id":"cebpf4jnsgd1na2vs0mg"},{"bike_id":"c9b15fbc-4add-4c3c-99e5-aaeaed51642c","system_id":"levelo_inurba_marseille","lat":43.3032,"lon":5.40435,"is_reserved":false,"is_disabled":false,"rental_uris":{"android":"levelo://app?vid=c9b15fbc-4add-4c3c-99e5-aaeaed51642c","ios":"levelo://app?vid=c9b15fbc-4add-4c3c-99e5-aaeaed51642c"},"vehicle_type_id":"4","last_reported":1779228286,"current_range_meters":8000,"station_id":"ce4bh012rcd13ifvqd10","pricing_plan_id":"cebpf4jnsgd1na2vs0mg"},{"bike_id":"8e0c3a71-88fb-4dca-a732-c4fb201abb3e","system_id":"levelo_inurba_marseille","lat":43.30584,"lon":5.3748,"is_reserved":false,"is_disabled":true,"rental_uris":{"android":"levelo://app?vid=8e0c3a71-88fb-4dca-a732-c4fb201abb3e","ios":"levelo://app?vid=8e0c3a71-88fb-4dca-a732-c4fb201abb3e"},"vehicle_type_id":"4","last_reported":1779228286,"current_range_meters":8000,"station_id":"","pricing_plan_id":"cebpf4jnsgd1na2vs0mg"},{"bike_id":"b34c1946-cf91-4d87-af25-adc23e0c3c1e","system_id":"levelo_inurba_marseille","lat":43.27893,"lon":5.38007,"is_reserved":false,"is_disabled":false,"rental_uris":{"android":"levelo://app?vid=b34c1946-cf91-4d87-af25-adc23e0c3c1e","ios":"levelo://app?vid=b34c1946-cf91-4d87-af25-adc23e0c3c1e"},"vehicle_type_id":"4","last_reported":1779228286,"current_range_meters":8000,"station_id":"ce4bhf92rcd13ifvqf50","pricing_plan_id":"cebpf4jnsgd1na2vs0mg"},{"bike_id":"2c72ac28-dd47-4042-a275-75bcf46959f9","system_id":"levelo_inurba_marseille","lat":43.23956,"lon":5.36635,"is_reserved":false,"is_disabled":false,"rental_uris":{"android":"levelo://app?vid=2c72ac28-dd47-4042-a275-75bcf46959f9","ios":"levelo://app?vid=2c72ac28-dd47-4042-a275-75bcf46959f9"},"vehicle_type_id":"4","last_reported":1779228286,"current_range_meters":8000,"station_id":"ce4bhi12rcd13ifvqfp0","pricing_plan_id":"cebpf4jnsgd1na2vs0mg"},{"bike_id":"629d6bcb-91f0-4ae2-9282-59e0c256b391","system_id":"levelo_inurba_marseille","lat":43.32333,"lon":5.36727,"is_reserved":false,"is_disabled":false,"rental_uris":{"android":"levelo://app?vid=629d6bcb-91f0-4ae2-9282-59e0c256b391","ios":"levelo://app?vid=629d6bcb-91f0-4ae2-9282-59e0c256b391"},"vehicle_type_id":"4","last_reported":1779228286,"current_range_meters":8000,"station_id":"ce4bhsh2rcd13ifvqi2g","pricing_plan_id":"cebpf4jnsgd1na2vs0mg"},{"bike_id":"7ba9edaa-a1bb-4a70-a5f2-b9b5d3ae022f","system_id":"levelo_inurba_marseille","lat":43.30376,"lon":5.42494,"is_reserved":false,"is_disabled":false,"rental_uris":{"android":"levelo://app?vid=7ba9edaa-a1bb-4a70-a5f2-b9b5d3ae022f","ios":"levelo://app?vid=7ba9edaa-a1bb-4a70-a5f2-b9b5d3ae022f"},"vehicle_type_id":"4","last_reported":1779228286,"current_range_meters":8000,"station_id":"ce4bhoh2rcd13ifvqh6g","pricing_plan_id":"cebpf4jnsgd1na2vs0mg"},{"bike_id":"4c98e73d-4d39-400d-82b9-6b1e7613ba77","system_id":"levelo_inurba_marseille","lat":43.30893,"lon":5.39638,"is_reserved":false,"is_disabled":false,"rental_uris":{"android":"levelo://app?vid=4c98e73d-4d39-400d-82b9-6b1e7613ba77","ios":"levelo://app?vid=4c98e73d-4d39-400d-82b9-6b1e7613ba77"},"vehicle_type_id":"4","last_reported":1779228286,"current_range_meters":8000,"station_id":"ce4bh012rcd13ifvqcv0","pricing_plan_id":"cebpf4jnsgd1na2vs0mg"},{"bike_id":"11dac49a-63ea-47b4-a217-88a1431807e3","system_id":"levelo_inurba_marseille","lat":43.28232,"lon":5.39071,"is_reserved":false,"is_disabled":false,"rental_uris":{"android":"levelo://app?vid=11dac49a-63ea-47b4-a217-88a1431807e3","ios":"levelo://app?vid=11dac49a-63ea-47b4-a217-88a1431807e3"},"vehicle_type_id":"4","last_reported":1779228286,"current_range_meters":8000,"station_id":"ce4bhn92rcd13ifvqgsg","pricing_plan_id":"cebpf4jnsgd1na2vs0mg"},{"bike_id":"e77548d3-528c-4a34-85e6-35ff5722dea1","system_id":"levelo_inurba_marseille","lat":43.29805,"lon":5.39727,"is_reserved":false,"is_disabled":false,"rental_uris":{"android":"levelo://app?vid=e77548d3-528c-4a34-85e6-35ff5722dea1","ios":"levelo://app?vid=e77548d3-528c-4a34-85e6-35ff5722dea1"},"vehicle_type_id":"4","last_reported":1779228286,"current_range_meters":8000,"station_id":"","pricing_plan_id":"cebpf4jnsgd1na2vs0mg"},{"bike_id":"c1a69e5e-9cab-459c-8b1a-391b422fd9b7","system_id":"levelo_inurba_marseille","lat":43.28693,"lon":5.39989,"is_reserved":false,"is_disabled":false,"rental_uris":{"android":"levelo://app?vid=c1a69e5e-9cab-459c-8b1a-391b422fd9b7","ios":"levelo://app?vid=c1a69e5e-9cab-459c-8b1a-391b422fd9b7"},"vehicle_type_id":"4","last_reported":1779228286,"current_range_meters":8000,"station_id":"ce4bho92rcd13ifvqh3g","pricing_plan_id":"cebpf4jnsgd1na2vs0mg"},{"bike_id":"7913e85c-e197-421a-8b40-e307efa5b43b","system_id":"levelo_inurba_marseille","lat":43.28449,"lon":5.39199,"is_reserved":false,"is_disabled":false,"rental_uris":{"android":"levelo://app?vid=7913e85c-e197-421a-8b40-e307efa5b43b","ios":"levelo://app?vid=7913e85c-e197-421a-8b40-e307efa5b43b"},"vehicle_type_id":"4","last_reported":1779228286,"current_range_meters":8000,"station_id":"ce4bhoh2rcd13ifvqh5g","pricing_plan_id":"cebpf4jnsgd1na2vs0mg"},{"bike_id":"96b4359d-9713-437c-acc3-2365e99f9467","system_id":"levelo_inurba_marseille","lat":43.2919,"lon":5.39322,"is_reserved":false,"is_disabled":false,"rental_uris":{"android":"levelo://app?vid=96b4359d-9713-437c-acc3-2365e99f9467","ios":"levelo://app?vid=96b4359d-9713-437c-acc3-2365e99f9467"},"vehicle_type_id":"4","last_reported":1779228286,"current_range_meters":8000,"station_id":"ce4bh192rcd13ifvqdd0","pricing_plan_id":"cebpf4jnsgd1na2vs0mg"},{"bike_id":"1c1414c1-3413-415f-adc1-dde38dab9b68","system_id":"levelo_inurba_marseille","lat":43.30026,"lon":5.39896,"is_reserved":false,"is_disabled":false,"rental_uris":{"android":"levelo://app?vid=1c1414c1-3413-415f-adc1-dde38dab9b68","ios":"levelo://app?vid=1c1414c1-3413-415f-adc1-dde38dab9b68"},"vehicle_type_id":"4","last_reported":1779228286,"current_range_meters":8000,"station_id":"","pricing_plan_id":"cebpf4jnsgd1na2vs0mg"},{"bike_id":"3fe09c2d-f9b0-4df2-9178-b4be53b3b84d","system_id":"levelo_inurba_marseille","lat":43.28032,"lon":5.36953,"is_reserved":false,"is_disabled":false,"rental_uris":{"android":"levelo://app?vid=3fe09c2d-f9b0-4df2-9178-b4be53b3b84d","ios":"levelo://app?vid=3fe09c2d-f9b0-4df2-9178-b4be53b3b84d"},"vehicle_type_id":"4","last_reported":1779228286,"current_range_meters":8400,"station_id":"ce4bha12rcd13ifvqef0","pricing_plan_id":"cebpf4jnsgd1na2vs0mg"},{"bike_id":"26593257-712f-4288-8b95-b25d3c17ba27","system_id":"levelo_inurba_marseille","lat":43.2862,"lon":5.35113,"is_reserved":false,"is_disabled":false,"rental_uris":{"android":"levelo://app?vid=26593257-712f-4288-8b95-b25d3c17ba27","ios":"levelo://app?vid=26593257-712f-4288-8b95-b25d3c17ba27"},"vehicle_type_id":"4","last_reported":1779228286,"current_range_meters":8400,"station_id":"ce4bhch2rcd13ifvqeug","pricing_plan_id":"cebpf4jnsgd1na2vs0mg"},{"bike_id":"fdb21c0a-88ca-429d-a3b4-bbb8df888db3","system_id":"levelo_inurba_marseille","lat":43.24642,"lon":5.38891,"is_reserved":false,"is_disabled":false,"rental_uris":{"android":"levelo://app?vid=fdb21c0a-88ca-429d-a3b4-bbb8df888db3","ios":"levelo://app?vid=fdb21c0a-88ca-429d-a3b4-bbb8df888db3"},"vehicle_type_id":"4","last_reported":1779228286,"current_range_meters":8400,"station_id":"ce4bhg12rcd13ifvqf60","pricing_plan_id":"cebpf4jnsgd1na2vs0mg"},{"bike_id":"85b2e21a-b5d7-44f8-b052-5ebaecb1cdc2","system_id":"levelo_inurba_marseille","lat":43.28517,"lon":5.38407,"is_reserved":false,"is_disabled":false,"rental_uris":{"android":"levelo://app?vid=85b2e21a-b5d7-44f8-b052-5ebaecb1cdc2","ios":"levelo://app?vid=85b2e21a-b5d7-44f8-b052-5ebaecb1cdc2"},"vehicle_type_id":"4","last_reported":1779228286,"current_range_meters":8400,"station_id":"ce4bh512rcd13ifvqe3g","pricing_plan_id":"cebpf4jnsgd1na2vs0mg"},{"bike_id":"d83491f8-1b3f-4d4f-90b3-1ba08a960f80","system_id":"levelo_inurba_marseille","lat":43.29965,"lon":5.37173,"is_reserved":false,"is_disabled":false,"rental_uris":{"android":"levelo://app?vid=d83491f8-1b3f-4d4f-90b3-1ba08a960f80","ios":"levelo://app?vid=d83491f8-1b3f-4d4f-90b3-1ba08a960f80"},"vehicle_type_id":"4","last_reported":1779228286,"current_range_meters":8400,"station_id":"ce4bgr92rcd13ifvqc7g","pricing_plan_id":"cebpf4jnsgd1na2vs0mg"},{"bike_id":"34d6ba6b-85dc-4647-995f-385fbbbf978a","system_id":"levelo_inurba_marseille","lat":43.26945,"lon":5.38632,"is_reserved":false,"is_disabled":false,"rental_uris":{"android":"levelo://app?vid=34d6ba6b-85dc-4647-995f-385fbbbf978a","ios":"levelo://app?vid=34d6ba6b-85dc-4647-995f-385fbbbf978a"},"vehicle_type_id":"4","last_reported":1779228286,"current_range_meters":8400,"station_id":"ce4bhh92rcd13ifvqfh0","pricing_plan_id":"cebpf4jnsgd1na2vs0mg"},{"bike_id":"2309cf4f-e510-44b8-b950-90d876c8080f","system_id":"levelo_inurba_marseille","lat":43.29028,"lon":5.39962,"is_reserved":false,"is_disabled":false,"rental_uris":{"android":"levelo://app?vid=2309cf4f-e510-44b8-b950-90d876c8080f","ios":"levelo://app?vid=2309cf4f-e510-44b8-b950-90d876c8080f"},"vehicle_type_id":"4","last_reported":1779228286,"current_range_meters":8400,"station_id":"ce4bh392rcd13ifvqdm0","pricing_plan_id":"cebpf4jnsgd1na2vs0mg"},{"bike_id":"eddc2000-daaa-4830-9cb2-7762df767b43","system_id":"levelo_inurba_marseille","lat":43.23201,"lon":5.39957,"is_reserved":false,"is_disabled":false,"rental_uris":{"android":"levelo://app?vid=eddc2000-daaa-4830-9cb2-7762df767b43","ios":"levelo://app?vid=eddc2000-daaa-4830-9cb2-7762df767b43"},"vehicle_type_id":"4","last_reported":1779228286,"current_range_meters":8400,"station_id":"ce4bhn12rcd13ifvqgqg","pricing_plan_id":"cebpf4jnsgd1na2vs0mg"},{"bike_id":"45b8503d-947b-4845-96c9-8eeb30606f6b","system_id":"levelo_inurba_marseille","lat":43.3087,"lon":5.39651,"is_reserved":false,"is_disabled":false,"rental_uris":{"android":"levelo://app?vid=45b8503d-947b-4845-96c9-8eeb30606f6b","ios":"levelo://app?vid=45b8503d-947b-4845-96c9-8eeb30606f6b"},"vehicle_type_id":"4","last_reported":1779228286,"current_range_meters":8400,"station_id":"ce4bh012rcd13ifvqcv0","pricing_plan_id":"cebpf4jnsgd1na2vs0mg"},{"bike_id":"71dc1f01-1917-4931-8df3-5508b1f3be8c","system_id":"levelo_inurba_marseille","lat":43.31325,"lon":5.39699,"is_reserved":false,"is_disabled":false,"rental_uris":{"android":"levelo://app?vid=71dc1f01-1917-4931-8df3-5508b1f3be8c","ios":"levelo://app?vid=71dc1f01-1917-4931-8df3-5508b1f3be8c"},"vehicle_type_id":"4","last_reported":1779228286,"current_range_meters":8400,"station_id":"ce4bgvp2rcd13ifvqcu0","pricing_plan_id":"cebpf4jnsgd1na2vs0mg"},{"bike_id":"9c9899c5-84e3-4507-8ab3-66e1b284aa4b","system_id":"levelo_inurba_marseille","lat":43.29198,"lon":5.39325,"is_reserved":false,"is_disabled":false,"rental_uris":{"android":"levelo://app?vid=9c9899c5-84e3-4507-8ab3-66e1b284aa4b","ios":"levelo://app?vid=9c9899c5-84e3-4507-8ab3-66e1b284aa4b"},"vehicle_type_id":"4","last_reported":1779228286,"current_range_meters":8400,"station_id":"ce4bh192rcd13ifvqdd0","pricing_plan_id":"cebpf4jnsgd1na2vs0mg"},{"bike_id":"73572bf5-dd60-4fb5-ae45-3628406aa33e","system_id":"levelo_inurba_marseille","lat":43.28417,"lon":5.37514,"is_reserved":false,"is_disabled":false,"rental_uris":{"android":"levelo://app?vid=73572bf5-dd60-4fb5-ae45-3628406aa33e","ios":"levelo://app?vid=73572bf5-dd60-4fb5-ae45-3628406aa33e"},"vehicle_type_id":"4","last_reported":1779228286,"current_range_meters":8400,"station_id":"ce4bh412rcd13ifvqds0","pricing_plan_id":"cebpf4jnsgd1na2vs0mg"},{"bike_id":"78c815ea-e4d1-4c22-9b87-4eff526eef36","system_id":"levelo_inurba_marseille","lat":43.30209,"lon":5.39471,"is_reserved":false,"is_disabled":false,"rental_uris":{"android":"levelo://app?vid=78c815ea-e4d1-4c22-9b87-4eff526eef36","ios":"levelo://app?vid=78c815ea-e4d1-4c22-9b87-4eff526eef36"},"vehicle_type_id":"4","last_reported":1779228286,"current_range_meters":8400,"station_id":"ce4bh0p2rcd13ifvqd70","pricing_plan_id":"cebpf4jnsgd1na2vs0mg"},{"bike_id":"443d5a25-9bbf-4ba8-a20d-d3e8966b35c0","system_id":"levelo_inurba_marseille","lat":43.29049,"lon":5.38142,"is_reserved":false,"is_disabled":false,"rental_uris":{"android":"levelo://app?vid=443d5a25-9bbf-4ba8-a20d-d3e8966b35c0","ios":"levelo://app?vid=443d5a25-9bbf-4ba8-a20d-d3e8966b35c0"},"vehicle_type_id":"4","last_reported":1779228286,"current_range_meters":8400,"station_id":"ce4bh4p2rcd13ifvqe1g","pricing_plan_id":"cebpf4jnsgd1na2vs0mg"},{"bike_id":"c36d1a58-4baf-48ad-939c-913e8ea5d596","system_id":"levelo_inurba_marseille","lat":43.290049,"lon":5.398975,"is_reserved":false,"is_disabled":false,"rental_uris":{"android":"levelo://app?vid=c36d1a58-4baf-48ad-939c-913e8ea5d596","ios":"levelo://app?vid=c36d1a58-4baf-48ad-939c-913e8ea5d596"},"vehicle_type_id":"4","last_reported":1779228286,"current_range_meters":8400,"station_id":"ce4bh612rcd13ifvqe6g","pricing_plan_id":"cebpf4jnsgd1na2vs0mg"},{"bike_id":"a009d037-a397-40f1-b669-912bc4cb13d4","system_id":"levelo_inurba_marseille","lat":43.28345,"lon":5.38083,"is_reserved":false,"is_disabled":false,"rental_uris":{"android":"levelo://app?vid=a009d037-a397-40f1-b669-912bc4cb13d4","ios":"levelo://app?vid=a009d037-a397-40f1-b669-912bc4cb13d4"},"vehicle_type_id":"4","last_reported":1779228286,"current_range_meters":8400,"station_id":"","pricing_plan_id":"cebpf4jnsgd1na2vs0mg"},{"bike_id":"50b496e6-1076-435d-ab93-6af584e2c9f3","system_id":"levelo_inurba_marseille","lat":43.29039,"lon":5.37561,"is_reserved":false,"is_disabled":false,"rental_uris":{"android":"levelo://app?vid=50b496e6-1076-435d-ab93-6af584e2c9f3","ios":"levelo://app?vid=50b496e6-1076-435d-ab93-6af584e2c9f3"},"vehicle_type_id":"4","last_reported":1779228286,"current_range_meters":8400,"station_id":"ce4bh692rcd13ifvqe90","pricing_plan_id":"cebpf4jnsgd1na2vs0mg"},{"bike_id":"ff26a0ce-1300-4a14-824b-0d8ecc854269","system_id":"levelo_inurba_marseille","lat":43.24472,"lon":5.4253,"is_reserved":false,"is_disabled":false,"rental_uris":{"android":"levelo://app?vid=ff26a0ce-1300-4a14-824b-0d8ecc854269","ios":"levelo://app?vid=ff26a0ce-1300-4a14-824b-0d8ecc854269"},"vehicle_type_id":"4","last_reported":1779228286,"current_range_meters":8400,"station_id":"st_d4a3vfp97mjs738cd8kg","pricing_plan_id":"cebpf4jnsgd1na2vs0mg"},{"bike_id":"ab317f4a-6cee-445d-ac60-f0da4f5ea07a","system_id":"levelo_inurba_marseille","lat":43.27069,"lon":5.42291,"is_reserved":false,"is_disabled":false,"rental_uris":{"android":"levelo://app?vid=ab317f4a-6cee-445d-ac60-f0da4f5ea07a","ios":"levelo://app?vid=ab317f4a-6cee-445d-ac60-f0da4f5ea07a"},"vehicle_type_id":"4","last_reported":1779228286,"current_range_meters":8400,"station_id":"ce4bhk92rcd13ifvqgb0","pricing_plan_id":"cebpf4jnsgd1na2vs0mg"},{"bike_id":"46be8dd3-948b-467e-ad94-fd338307b9c7","system_id":"levelo_inurba_marseille","lat":43.29961,"lon":5.36762,"is_reserved":false,"is_disabled":false,"rental_uris":{"android":"levelo://app?vid=46be8dd3-948b-467e-ad94-fd338307b9c7","ios":"levelo://app?vid=46be8dd3-948b-467e-ad94-fd338307b9c7"},"vehicle_type_id":"4","last_reported":1779228286,"current_range_meters":8400,"station_id":"","pricing_plan_id":"cebpf4jnsgd1na2vs0mg"},{"bike_id":"bc3fe07f-ae95-42d2-91f0-d34745765c9e","system_id":"levelo_inurba_marseille","lat":43.24459,"lon":5.4254,"is_reserved":false,"is_disabled":false,"rental_uris":{"android":"levelo://app?vid=bc3fe07f-ae95-42d2-91f0-d34745765c9e","ios":"levelo://app?vid=bc3fe07f-ae95-42d2-91f0-d34745765c9e"},"vehicle_type_id":"4","last_reported":1779228286,"current_range_meters":8400,"station_id":"st_d4a3vfp97mjs738cd8kg","pricing_plan_id":"cebpf4jnsgd1na2vs0mg"},{"bike_id":"49a8622c-ff8a-47a6-ab9d-adb730e0d50e","system_id":"levelo_inurba_marseille","lat":43.29625,"lon":5.37719,"is_reserved":false,"is_disabled":false,"rental_uris":{"android":"levelo://app?vid=49a8622c-ff8a-47a6-ab9d-adb730e0d50e","ios":"levelo://app?vid=49a8622c-ff8a-47a6-ab9d-adb730e0d50e"},"vehicle_type_id":"4","last_reported":1779228286,"current_range_meters":8400,"station_id":"ce4bgi92rcd13ifvqb90","pricing_plan_id":"cebpf4jnsgd1na2vs0mg"},{"bike_id":"1cbdedf6-d019-4aae-92e7-6f05e9e38b78","system_id":"levelo_inurba_marseille","lat":43.30795,"lon":5.37633,"is_reserved":false,"is_disabled":false,"rental_uris":{"android":"levelo://app?vid=1cbdedf6-d019-4aae-92e7-6f05e9e38b78","ios":"levelo://app?vid=1cbdedf6-d019-4aae-92e7-6f05e9e38b78"},"vehicle_type_id":"4","last_reported":1779228286,"current_range_meters":8400,"station_id":"ce4bgv92rcd13ifvqcq0","pricing_plan_id":"cebpf4jnsgd1na2vs0mg"},{"bike_id":"f00dbe32-4e32-429b-b63a-54e922cc0105","system_id":"levelo_inurba_marseille","lat":43.27308,"lon":5.39105,"is_reserved":false,"is_disabled":true,"rental_uris":{"android":"levelo://app?vid=f00dbe32-4e32-429b-b63a-54e922cc0105","ios":"levelo://app?vid=f00dbe32-4e32-429b-b63a-54e922cc0105"},"vehicle_type_id":"4","last_reported":1779228286,"current_range_meters":8400,"station_id":"ce4bhgp2rcd13ifvqfe0","pricing_plan_id":"cebpf4jnsgd1na2vs0mg"},{"bike_id":"0280db35-5ec6-4e74-a683-fcbb69983810","system_id":"levelo_inurba_marseille","lat":43.2551,"lon":5.37664,"is_reserved":false,"is_disabled":false,"rental_uris":{"android":"levelo://app?vid=0280db35-5ec6-4e74-a683-fcbb69983810","ios":"levelo://app?vid=0280db35-5ec6-4e74-a683-fcbb69983810"},"vehicle_type_id":"4","last_reported":1779228286,"current_range_meters":8400,"station_id":"ce4bhh12rcd13ifvqff0","pricing_plan_id":"cebpf4jnsgd1na2vs0mg"},{"bike_id":"4e35aaea-9776-43de-aaa3-a21f659e41b5","system_id":"levelo_inurba_marseille","lat":43.28353,"lon":5.38636,"is_reserved":false,"is_disabled":false,"rental_uris":{"android":"levelo://app?vid=4e35aaea-9776-43de-aaa3-a21f659e41b5","ios":"levelo://app?vid=4e35aaea-9776-43de-aaa3-a21f659e41b5"},"vehicle_type_id":"4","last_reported":1779228286,"current_range_meters":8400,"station_id":"ce4bh492rcd13ifvqdvg","pricing_plan_id":"cebpf4jnsgd1na2vs0mg"},{"bike_id":"a4a8a46c-c191-4c20-b1bd-bdc6b21ff616","system_id":"levelo_inurba_marseille","lat":43.31045,"lon":5.3716,"is_reserved":false,"is_disabled":false,"rental_uris":{"android":"levelo://app?vid=a4a8a46c-c191-4c20-b1bd-bdc6b21ff616","ios":"levelo://app?vid=a4a8a46c-c191-4c20-b1bd-bdc6b21ff616"},"vehicle_type_id":"4","last_reported":1779228286,"current_range_meters":8400,"station_id":"st_d4kl2rp97mjs73e7tdfg","pricing_plan_id":"cebpf4jnsgd1na2vs0mg"},{"bike_id":"1945c429-a6b3-4afe-8b4e-c989148ef8b4","system_id":"levelo_inurba_marseille","lat":43.28623,"lon":5.37806,"is_reserved":false,"is_disabled":false,"rental_uris":{"android":"levelo://app?vid=1945c429-a6b3-4afe-8b4e-c989148ef8b4","ios":"levelo://app?vid=1945c429-a6b3-4afe-8b4e-c989148ef8b4"},"vehicle_type_id":"4","last_reported":1779228286,"current_range_meters":8400,"station_id":"","pricing_plan_id":"cebpf4jnsgd1na2vs0mg"},{"bike_id":"ca1c46ac-a51b-4100-a080-e8b002e382ed","system_id":"levelo_inurba_marseille","lat":43.2498,"lon":5.38955,"is_reserved":false,"is_disabled":false,"rental_uris":{"android":"levelo://app?vid=ca1c46ac-a51b-4100-a080-e8b002e382ed","ios":"levelo://app?vid=ca1c46ac-a51b-4100-a080-e8b002e382ed"},"vehicle_type_id":"4","last_reported":1779228286,"current_range_meters":8800,"station_id":"ce4bhgp2rcd13ifvqfd0","pricing_plan_id":"cebpf4jnsgd1na2vs0mg"},{"bike_id":"2eaa9b2b-8efe-40ff-b2ce-c519f26bfd1e","system_id":"levelo_inurba_marseille","lat":43.337444,"lon":5.374475,"is_reserved":false,"is_disabled":false,"rental_uris":{"android":"levelo://app?vid=2eaa9b2b-8efe-40ff-b2ce-c519f26bfd1e","ios":"levelo://app?vid=2eaa9b2b-8efe-40ff-b2ce-c519f26bfd1e"},"vehicle_type_id":"4","last_reported":1779228286,"current_range_meters":8800,"station_id":"","pricing_plan_id":"cebpf4jnsgd1na2vs0mg"},{"bike_id":"5a297e80-d2f0-4fb4-9886-093528a3567a","system_id":"levelo_inurba_marseille","lat":43.31418,"lon":5.3738,"is_reserved":false,"is_disabled":true,"rental_uris":{"android":"levelo://app?vid=5a297e80-d2f0-4fb4-9886-093528a3567a","ios":"levelo://app?vid=5a297e80-d2f0-4fb4-9886-093528a3567a"},"vehicle_type_id":"4","last_reported":1779228286,"current_range_meters":8800,"station_id":"","pricing_plan_id":"cebpf4jnsgd1na2vs0mg"},{"bike_id":"34af6e72-8a50-4feb-96ea-f1be90c9a4e0","system_id":"levelo_inurba_marseille","lat":43.30372,"lon":5.42483,"is_reserved":false,"is_disabled":false,"rental_uris":{"android":"levelo://app?vid=34af6e72-8a50-4feb-96ea-f1be90c9a4e0","ios":"levelo://app?vid=34af6e72-8a50-4feb-96ea-f1be90c9a4e0"},"vehicle_type_id":"4","last_reported":1779228286,"current_range_meters":8800,"station_id":"ce4bhoh2rcd13ifvqh6g","pricing_plan_id":"cebpf4jnsgd1na2vs0mg"},{"bike_id":"16276ba1-4c7e-4124-9c3a-9cbb79ebcf92","system_id":"levelo_inurba_marseille","lat":43.29522,"lon":5.38545,"is_reserved":false,"is_disabled":false,"rental_uris":{"android":"levelo://app?vid=16276ba1-4c7e-4124-9c3a-9cbb79ebcf92","ios":"levelo://app?vid=16276ba1-4c7e-4124-9c3a-9cbb79ebcf92"},"vehicle_type_id":"4","last_reported":1779228286,"current_range_meters":8800,"station_id":"ce4bgih2rcd13ifvqba0","pricing_plan_id":"cebpf4jnsgd1na2vs0mg"},{"bike_id":"3a50c5a4-deb8-4283-a331-71ea6e0504a8","system_id":"levelo_inurba_marseille","lat":43.28525,"lon":5.44103,"is_reserved":false,"is_disabled":false,"rental_uris":{"android":"levelo://app?vid=3a50c5a4-deb8-4283-a331-71ea6e0504a8","ios":"levelo://app?vid=3a50c5a4-deb8-4283-a331-71ea6e0504a8"},"vehicle_type_id":"4","last_reported":1779228286,"current_range_meters":8800,"station_id":"st_d3j3df2ikq2c7380ej80","pricing_plan_id":"cebpf4jnsgd1na2vs0mg"},{"bike_id":"1537ff86-4c07-4043-a319-565b4fb3369d","system_id":"levelo_inurba_marseille","lat":43.28601,"lon":5.38124,"is_reserved":false,"is_disabled":false,"rental_uris":{"android":"levelo://app?vid=1537ff86-4c07-4043-a319-565b4fb3369d","ios":"levelo://app?vid=1537ff86-4c07-4043-a319-565b4fb3369d"},"vehicle_type_id":"4","last_reported":1779228286,"current_range_meters":8800,"station_id":"","pricing_plan_id":"cebpf4jnsgd1na2vs0mg"},{"bike_id":"a00e0437-70b7-4b6b-b0dc-60d8ee1820e2","system_id":"levelo_inurba_marseille","lat":43.27066,"lon":5.42276,"is_reserved":false,"is_disabled":false,"rental_uris":{"android":"levelo://app?vid=a00e0437-70b7-4b6b-b0dc-60d8ee1820e2","ios":"levelo://app?vid=a00e0437-70b7-4b6b-b0dc-60d8ee1820e2"},"vehicle_type_id":"4","last_reported":1779228286,"current_range_meters":8800,"station_id":"ce4bhk92rcd13ifvqgb0","pricing_plan_id":"cebpf4jnsgd1na2vs0mg"},{"bike_id":"f386ed51-6c21-44bf-8d12-7f3c2493bd64","system_id":"levelo_inurba_marseille","lat":43.29708,"lon":5.36588,"is_reserved":false,"is_disabled":false,"rental_uris":{"android":"levelo://app?vid=f386ed51-6c21-44bf-8d12-7f3c2493bd64","ios":"levelo://app?vid=f386ed51-6c21-44bf-8d12-7f3c2493bd64"},"vehicle_type_id":"4","last_reported":1779228286,"current_range_meters":8800,"station_id":"ce4bgn12rcd13ifvqbt0","pricing_plan_id":"cebpf4jnsgd1na2vs0mg"},{"bike_id":"5e43f748-2151-4c27-8767-4bc1cda5a063","system_id":"levelo_inurba_marseille","lat":43.28536,"lon":5.44086,"is_reserved":false,"is_disabled":false,"rental_uris":{"android":"levelo://app?vid=5e43f748-2151-4c27-8767-4bc1cda5a063","ios":"levelo://app?vid=5e43f748-2151-4c27-8767-4bc1cda5a063"},"vehicle_type_id":"4","last_reported":1779228286,"current_range_meters":8800,"station_id":"st_d3j3df2ikq2c7380ej80","pricing_plan_id":"cebpf4jnsgd1na2vs0mg"},{"bike_id":"8d176ace-1a7d-48bf-b4ed-e6413fd72bba","system_id":"levelo_inurba_marseille","lat":43.3111,"lon":5.37769,"is_reserved":false,"is_disabled":false,"rental_uris":{"android":"levelo://app?vid=8d176ace-1a7d-48bf-b4ed-e6413fd72bba","ios":"levelo://app?vid=8d176ace-1a7d-48bf-b4ed-e6413fd72bba"},"vehicle_type_id":"4","last_reported":1779228286,"current_range_meters":8800,"station_id":"ce4bgt92rcd13ifvqcg0","pricing_plan_id":"cebpf4jnsgd1na2vs0mg"},{"bike_id":"2867f625-8401-41e4-a87f-2a6c444dd23d","system_id":"levelo_inurba_marseille","lat":43.31437,"lon":5.37368,"is_reserved":false,"is_disabled":false,"rental_uris":{"android":"levelo://app?vid=2867f625-8401-41e4-a87f-2a6c444dd23d","ios":"levelo://app?vid=2867f625-8401-41e4-a87f-2a6c444dd23d"},"vehicle_type_id":"4","last_reported":1779228286,"current_range_meters":8800,"station_id":"","pricing_plan_id":"cebpf4jnsgd1na2vs0mg"},{"bike_id":"40d31f22-a305-4362-bb04-68eb6d3d90a4","system_id":"levelo_inurba_marseille","lat":43.23171,"lon":5.3998,"is_reserved":false,"is_disabled":false,"rental_uris":{"android":"levelo://app?vid=40d31f22-a305-4362-bb04-68eb6d3d90a4","ios":"levelo://app?vid=40d31f22-a305-4362-bb04-68eb6d3d90a4"},"vehicle_type_id":"4","last_reported":1779228286,"current_range_meters":8800,"station_id":"ce4bhn12rcd13ifvqgqg","pricing_plan_id":"cebpf4jnsgd1na2vs0mg"},{"bike_id":"070a252c-c06b-4b15-8b69-ab2fa04a9f2e","system_id":"levelo_inurba_marseille","lat":43.27825,"lon":5.40692,"is_reserved":false,"is_disabled":false,"rental_uris":{"android":"levelo://app?vid=070a252c-c06b-4b15-8b69-ab2fa04a9f2e","ios":"levelo://app?vid=070a252c-c06b-4b15-8b69-ab2fa04a9f2e"},"vehicle_type_id":"4","last_reported":1779228286,"current_range_meters":8800,"station_id":"ce4bhnh2rcd13ifvqgtg","pricing_plan_id":"cebpf4jnsgd1na2vs0mg"},{"bike_id":"d2678636-1d3e-4337-8892-f1321008135c","system_id":"levelo_inurba_marseille","lat":43.29865,"lon":5.42082,"is_reserved":false,"is_disabled":false,"rental_uris":{"android":"levelo://app?vid=d2678636-1d3e-4337-8892-f1321008135c","ios":"levelo://app?vid=d2678636-1d3e-4337-8892-f1321008135c"},"vehicle_type_id":"4","last_reported":1779228286,"current_range_meters":8800,"station_id":"st_d6tc004otcvc738tfe70","pricing_plan_id":"cebpf4jnsgd1na2vs0mg"},{"bike_id":"1098054a-422f-4f0d-a38a-f1e02471c090","system_id":"levelo_inurba_marseille","lat":43.29964,"lon":5.38493,"is_reserved":false,"is_disabled":false,"rental_uris":{"android":"levelo://app?vid=1098054a-422f-4f0d-a38a-f1e02471c090","ios":"levelo://app?vid=1098054a-422f-4f0d-a38a-f1e02471c090"},"vehicle_type_id":"4","last_reported":1779228286,"current_range_meters":8800,"station_id":"ce4bgj92rcd13ifvqbd0","pricing_plan_id":"cebpf4jnsgd1na2vs0mg"},{"bike_id":"c202bc15-6fd2-4b5b-b9f8-fe2a7981a9a0","system_id":"levelo_inurba_marseille","lat":43.23332,"lon":5.35921,"is_reserved":false,"is_disabled":false,"rental_uris":{"android":"levelo://app?vid=c202bc15-6fd2-4b5b-b9f8-fe2a7981a9a0","ios":"levelo://app?vid=c202bc15-6fd2-4b5b-b9f8-fe2a7981a9a0"},"vehicle_type_id":"4","last_reported":1779228286,"current_range_meters":8800,"station_id":"","pricing_plan_id":"cebpf4jnsgd1na2vs0mg"},{"bike_id":"55822e8a-aa83-45e0-9666-a1922ea4bb43","system_id":"levelo_inurba_marseille","lat":43.29544,"lon":5.42294,"is_reserved":false,"is_disabled":true,"rental_uris":{"android":"levelo://app?vid=55822e8a-aa83-45e0-9666-a1922ea4bb43","ios":"levelo://app?vid=55822e8a-aa83-45e0-9666-a1922ea4bb43"},"vehicle_type_id":"4","last_reported":1779228286,"current_range_meters":8800,"station_id":"ce4bhph2rcd13ifvqhdg","pricing_plan_id":"cebpf4jnsgd1na2vs0mg"},{"bike_id":"0c0c635d-0bed-4d10-abc5-94eb2ad0d2af","system_id":"levelo_inurba_marseille","lat":43.28355,"lon":5.38097,"is_reserved":false,"is_disabled":false,"rental_uris":{"android":"levelo://app?vid=0c0c635d-0bed-4d10-abc5-94eb2ad0d2af","ios":"levelo://app?vid=0c0c635d-0bed-4d10-abc5-94eb2ad0d2af"},"vehicle_type_id":"4","last_reported":1779228286,"current_range_meters":8800,"station_id":"ce4bh412rcd13ifvqdr0","pricing_plan_id":"cebpf4jnsgd1na2vs0mg"},{"bike_id":"fcab34a2-2e38-4e08-9924-a9cfef68c63b","system_id":"levelo_inurba_marseille","lat":43.2705,"lon":5.38308,"is_reserved":false,"is_disabled":false,"rental_uris":{"android":"levelo://app?vid=fcab34a2-2e38-4e08-9924-a9cfef68c63b","ios":"levelo://app?vid=fcab34a2-2e38-4e08-9924-a9cfef68c63b"},"vehicle_type_id":"4","last_reported":1779228286,"current_range_meters":8800,"station_id":"st_d3n2fo6cfp8s73cte1j0","pricing_plan_id":"cebpf4jnsgd1na2vs0mg"},{"bike_id":"3416fa81-7d5d-4694-9903-a9010db4ad9a","system_id":"levelo_inurba_marseille","lat":43.31218,"lon":5.36873,"is_reserved":false,"is_disabled":false,"rental_uris":{"android":"levelo://app?vid=3416fa81-7d5d-4694-9903-a9010db4ad9a","ios":"levelo://app?vid=3416fa81-7d5d-4694-9903-a9010db4ad9a"},"vehicle_type_id":"4","last_reported":1779228286,"current_range_meters":8800,"station_id":"ce4bgl92rcd13ifvqbq0","pricing_plan_id":"cebpf4jnsgd1na2vs0mg"},{"bike_id":"ba16c88f-35f5-4e4c-9dda-461ca0a59243","system_id":"levelo_inurba_marseille","lat":43.30537,"lon":5.38422,"is_reserved":false,"is_disabled":false,"rental_uris":{"android":"levelo://app?vid=ba16c88f-35f5-4e4c-9dda-461ca0a59243","ios":"levelo://app?vid=ba16c88f-35f5-4e4c-9dda-461ca0a59243"},"vehicle_type_id":"4","last_reported":1779228286,"current_range_meters":8800,"station_id":"ce4bgg92rcd13ifvqb30","pricing_plan_id":"cebpf4jnsgd1na2vs0mg"},