{"last_updated":1700935678,"ttl":30,"version":"2.2","data":{"bikes":[{"bike_id":"247cc49d-e988-4b18-942e-65bd0ac284a2","system_id":"levelo_inurba_marseille","lat":43.309039,"lon":5.371797,"is_reserved":false,"is_disabled":false,"rental_uris":{"android":"levelo://app?vid=247cc49d-e988-4b18-942e-65bd0ac284a2","ios":"levelo://app?vid=247cc49d-e988-4b18-942e-65bd0ac284a2"},"vehicle_type_id":"4","last_reported":1700935678,"current_range_meters":9200,"station_id":"ce4bguh2rcd13ifvqckg","pricing_plan_id":"free"},{"bike_id":"2c4e2ab4-2bc9-4e71-8e28-b7f9c78b7444","system_id":"levelo_inurba_marseille","lat":43.305714,"lon":5.365633,"is_reserved":false,"is_disabled":false,"rental_uris":{"android":"levelo://app?vid=2c4e2ab4-2bc9-4e71-8e28-b7f9c78b7444","ios":"levelo://app?vid=2c4e2ab4-2bc9-4e71-8e28-b7f9c78b7444"},"vehicle_type_id":"4","last_reported":1700935678,"current_range_meters":2800,"station_id":"ce4bgs12rcd13ifvqcag","pricing_plan_id":"free"},{"bike_id":"fbee8a33-e79f-4c00-8dd0-ad00834a63e3","system_id":"levelo_inurba_marseille","lat":43.305989,"lon":5.37225,"is_reserved":false,"is_disabled":false,"rental_uris":{"android":"levelo://app?vid=fbee8a33-e79f-4c00-8dd0-ad00834a63e3","ios":"levelo://app?vid=fbee8a33-e79f-4c00-8dd0-ad00834a63e3"},"vehicle_type_id":"4","last_reported":1700935678,"current_range_meters":17600,"station_id":"ce4bgqh2rcd13ifvqc4g","pricing_plan_id":"free"},{"bike_id":"a401611c-646f-4d3a-a6c2-09470d3fcbb5","system_id":"levelo_inurba_marseille","lat":43.305989,"lon":5.37225,"is_reserved":false,"is_disabled":false,"rental_uris":{"android":"levelo://app?vid=a401611c-646f-4d3a-a6c2-09470d3fcbb5","ios":"levelo://app?vid=a401611c-646f-4d3a-a6c2-09470d3fcbb5"},"vehicle_type_id":"4","last_reported":1700935678,"current_range_meters":27200,"station_id":"ce4bgqh2rcd13ifvqc4g","pricing_plan_id":"free"},{"bike_id":"811c0571-4953-44dd-a900-1c15775dd2ce","system_id":"levelo_inurba_marseille","lat":43.31112,"lon":5.37762,"is_reserved":false,"is_disabled":false,"rental_uris":{"android":"levelo://app?vid=811c0571-4953-44dd-a900-1c15775dd2ce","ios":"levelo://app?vid=811c0571-4953-44dd-a900-1c15775dd2ce"},"vehicle_type_id":"4","last_reported":1700935678,"current_range_meters":4800,"station_id":"ce4bgt92rcd13ifvqcg0","pricing_plan_id":"free"},{"bike_id":"573a870a-b6c4-429d-8587-8103772b84bc","system_id":"levelo_inurba_marseille","lat":43.30816,"lon":5.376623,"is_reserved":false,"is_disabled":false,"rental_uris":{"android":"levelo://app?vid=573a870a-b6c4-429d-8587-8103772b84bc","ios":"levelo://app?vid=573a870a-b6c4-429d-8587-8103772b84bc"},"vehicle_type_id":"4","last_reported":1700935678,"current_range_meters":4400,"station_id":"ce4bgv92rcd13ifvqcq0","pricing_plan_id":"free"},{"bike_id":"f427a2c3-6e4a-446b-ae2f-9be8aa7f4122","system_id":"levelo_inurba_marseille","lat":43.31719,"lon":5.376813,"is_reserved":false,"is_disabled":false,"rental_uris":{"android":"levelo://app?vid=f427a2c3-6e4a-446b-ae2f-9be8aa7f4122","ios":"levelo://app?vid=f427a2c3-6e4a-446b-ae2f-9be8aa7f4122"},"vehicle_type_id":"4","last_reported":1700935678,"current_range_meters":24000,"station_id":"ce4bgth2rcd13ifvqch0","pricing_plan_id":"free"},{"bike_id":"b898b018-f57d-4901-bab2-fdd15d391de9","system_id":"levelo_inurba_marseille","lat":43.317168,"lon":5.376883,"is_reserved":false,"is_disabled":false,"rental_uris":{"android":"levelo://app?vid=b898b018-f57d-4901-bab2-fdd15d391de9","ios":"levelo://app?vid=b898b018-f57d-4901-bab2-fdd15d391de9"},"vehicle_type_id":"4","last_reported":1700935678,"current_range_meters":26400,"station_id":"ce4bgth2rcd13ifvqch0","pricing_plan_id":"free"},{"bike_id":"0d0fe495-2709-4d06-8ff8-57038631097a","system_id":"levelo_inurba_marseille","lat":43.308012,"lon":5.381511,"is_reserved":false,"is_disabled":false,"rental_uris":{"android":"levelo://app?vid=0d0fe495-2709-4d06-8ff8-57038631097a","ios":"levelo://app?vid=0d0fe495-2709-4d06-8ff8-57038631097a"},"vehicle_type_id":"4","last_reported":1700935678,"current_range_meters":16800,"station_id":"ce4bgt12rcd13ifvqce0","pricing_plan_id":"free"},{"bike_id":"e98eab83-20d1-43d7-b72f-4d71e6a373aa","system_id":"levelo_inurba_marseille","lat":43.304606,"lon":5.379026,"is_reserved":false,"is_disabled":false,"rental_uris":{"android":"levelo://app?vid=e98eab83-20d1-43d7-b72f-4d71e6a373aa","ios":"levelo://app?vid=e98eab83-20d1-43d7-b72f-4d71e6a373aa"},"vehicle_type_id":"4","last_reported":1700935678,"current_range_meters":5200,"station_id":"ce4bgup2rcd13ifvqcn0","pricing_plan_id":"free"},{"bike_id":"cd821488-cbec-4c65-90e7-229520bb472b","system_id":"levelo_inurba_marseille","lat":43.304606,"lon":5.379026,"is_reserved":false,"is_disabled":false,"rental_uris":{"android":"levelo://app?vid=cd821488-cbec-4c65-90e7-229520bb472b","ios":"levelo://app?vid=cd821488-cbec-4c65-90e7-229520bb472b"},"vehicle_type_id":"4","last_reported":1700935678,"current_range_meters":7600,"station_id":"ce4bgup2rcd13ifvqcn0","pricing_plan_id":"free"},{"bike_id":"c187216d-1b21-4e9b-81b0-5c6ff8ab9bed","system_id":"levelo_inurba_marseille","lat":43.302784,"lon":5.377158,"is_reserved":false,"is_disabled":false,"rental_uris":{"android":"levelo://app?vid=c187216d-1b21-4e9b-81b0-5c6ff8ab9bed","ios":"levelo://app?vid=c187216d-1b21-4e9b-81b0-5c6ff8ab9bed"},"vehicle_type_id":"4","last_reported":1700935678,"current_range_meters":21200,"station_id":"ce4bguh2rcd13ifvqcj0","pricing_plan_id":"free"},{"bike_id":"f9fe1cb9-50c9-4a09-ae6d-841afbd811ed","system_id":"levelo_inurba_marseille","lat":43.302784,"lon":5.377158,"is_reserved":false,"is_disabled":false,"rental_uris":{"android":"levelo://app?vid=f9fe1cb9-50c9-4a09-ae6d-841afbd811ed","ios":"levelo://app?vid=f9fe1cb9-50c9-4a09-ae6d-841afbd811ed"},"vehicle_type_id":"4","last_reported":1700935678,"current_range_meters":30000,"station_id":"ce4bguh2rcd13ifvqcj0","pricing_plan_id":"free"},{"bike_id":"85a1b2e7-1092-41dc-8fea-b07cb6175595","system_id":"levelo_inurba_marseille","lat":43.319935,"lon":5.381699,"is_reserved":false,"is_disabled":false,"rental_uris":{"android":"levelo://app?vid=85a1b2e7-1092-41dc-8fea-b07cb6175595","ios":"levelo://app?vid=85a1b2e7-1092-41dc-8fea-b07cb6175595"},"vehicle_type_id":"4","last_reported":1700935678,"current_range_meters":20800,"station_id":"ce4bhr12rcd13ifvqhpg","pricing_plan_id":"free"},{"bike_id":"e33b7630-3641-4988-a429-447f41007bec","system_id":"levelo_inurba_marseille","lat":43.299724,"lon":5.371829,"is_reserved":false,"is_disabled":false,"rental_uris":{"android":"levelo://app?vid=e33b7630-3641-4988-a429-447f41007bec","ios":"levelo://app?vid=e33b7630-3641-4988-a429-447f41007bec"},"vehicle_type_id":"4","last_reported":1700935678,"current_range_meters":15600,"station_id":"ce4bgr92rcd13ifvqc7g","pricing_plan_id":"free"},{"bike_id":"f58d2fa3-b08f-4129-9be5-ed942d0ba8bc","system_id":"levelo_inurba_marseille","lat":43.305364,"lon":5.384119,"is_reserved":false,"is_disabled":false,"rental_uris":{"android":"levelo://app?vid=f58d2fa3-b08f-4129-9be5-ed942d0ba8bc","ios":"levelo://app?vid=f58d2fa3-b08f-4129-9be5-ed942d0ba8bc"},"vehicle_type_id":"4","last_reported":1700935678,"current_range_meters":7200,"station_id":"ce4bgg92rcd13ifvqb30","pricing_plan_id":"free"},{"bike_id":"95db226e-8740-4a82-9c52-e76428b188d0","system_id":"levelo_inurba_marseille","lat":43.305364,"lon":5.384119,"is_reserved":false,"is_disabled":false,"rental_uris":{"android":"levelo://app?vid=95db226e-8740-4a82-9c52-e76428b188d0","ios":"levelo://app?vid=95db226e-8740-4a82-9c52-e76428b188d0"},"vehicle_type_id":"4","last_reported":1700935678,"current_range_meters":7200,"station_id":"ce4bgg92rcd13ifvqb30","pricing_plan_id":"free"},{"bike_id":"410fcc9c-adc9-4a76-9362-0e7c81cf6f94","system_id":"levelo_inurba_marseille","lat":43.305364,"lon":5.384119,"is_reserved":false,"is_disabled":false,"rental_uris":{"android":"levelo://app?vid=410fcc9c-adc9-4a76-9362-0e7c81cf6f94","ios":"levelo://app?vid=410fcc9c-adc9-4a76-9362-0e7c81cf6f94"},"vehicle_type_id":"4","last_reported":1700935678,"current_range_meters":21200,"station_id":"ce4bgg92rcd13ifvqb30","pricing_plan_id":"free"},{"bike_id":"623cc05f-ef01-48cb-bec8-e6891e4f0356","system_id":"levelo_inurba_marseille","lat":43.311722,"lon":5.387247,"is_reserved":false,"is_disabled":false,"rental_uris":{"android":"levelo://app?vid=623cc05f-ef01-48cb-bec8-e6891e4f0356","ios":"levelo://app?vid=623cc05f-ef01-48cb-bec8-e6891e4f0356"},"vehicle_type_id":"4","last_reported":1700935678,"current_range_meters":12400,"station_id":"ce4bgv12rcd13ifvqcp0","pricing_plan_id":"free"},{"bike_id":"bf3795f9-8f5d-4e6d-982e-42c47c9300c1","system_id":"levelo_inurba_marseille","lat":43.311722,"lon":5.387247,"is_reserved":false,"is_disabled":false,"rental_uris":{"android":"levelo://app?vid=bf3795f9-8f5d-4e6d-982e-42c47c9300c1","ios":"levelo://app?vid=bf3795f9-8f5d-4e6d-982e-42c47c9300c1"},"vehicle_type_id":"4","last_reported":1700935678,"current_range_meters":15600,"station_id":"ce4bgv12rcd13ifvqcp0","pricing_plan_id":"free"},{"bike_id":"5a1baf68-f9af-496c-ab26-e428d44bc382","system_id":"levelo_inurba_marseille","lat":43.322872,"lon":5.382756,"is_reserved":false,"is_disabled":false,"rental_uris":{"android":"levelo://app?vid=5a1baf68-f9af-496c-ab26-e428d44bc382","ios":"levelo://app?vid=5a1baf68-f9af-496c-ab26-e428d44bc382"},"vehicle_type_id":"4","last_reported":1700935678,"current_range_meters":29200,"station_id":"ce4bhr12rcd13ifvqhqg","pricing_plan_id":"free"},{"bike_id":"0b85aafd-2d06-4b3d-bf23-17256839d1de","system_id":"levelo_inurba_marseille","lat":43.322872,"lon":5.382756,"is_reserved":false,"is_disabled":false,"rental_uris":{"android":"levelo://app?vid=0b85aafd-2d06-4b3d-bf23-17256839d1de","ios":"levelo://app?vid=0b85aafd-2d06-4b3d-bf23-17256839d1de"},"vehicle_type_id":"4","last_reported":1700935678,"current_range_meters":10400,"station_id":"ce4bhr12rcd13ifvqhqg","pricing_plan_id":"free"},{"bike_id":"d4ce39f9-7fa1-46e3-a433-f250b4fdb796","system_id":"levelo_inurba_marseille","lat":43.322872,"lon":5.382756,"is_reserved":false,"is_disabled":false,"rental_uris":{"android":"levelo://app?vid=d4ce39f9-7fa1-46e3-a433-f250b4fdb796","ios":"levelo://app?vid=d4ce39f9-7fa1-46e3-a433-f250b4fdb796"},"vehicle_type_id":"4","last_reported":1700935678,"current_range_meters":20800,"station_id":"ce4bhr12rcd13ifvqhqg","pricing_plan_id":"free"},{"bike_id":"db6560bf-e530-4c0b-bd6f-bc2ee1ad309e","system_id":"levelo_inurba_marseille","lat":43.297163,"lon":5.365866,"is_reserved":false,"is_disabled":false,"rental_uris":{"android":"levelo://app?vid=db6560bf-e530-4c0b-bd6f-bc2ee1ad309e","ios":"levelo://app?vid=db6560bf-e530-4c0b-bd6f-bc2ee1ad309e"},"vehicle_type_id":"4","last_reported":1700935678,"current_range_meters":8800,"station_id":"ce4bgn12rcd13ifvqbt0","pricing_plan_id":"free"},{"bike_id":"95825c38-6c59-4753-b43e-2f944bdb26b9","system_id":"levelo_inurba_marseille","lat":43.32827,"lon":5.36685,"is_reserved":false,"is_disabled":false,"rental_uris":{"android":"levelo://app?vid=95825c38-6c59-4753-b43e-2f944bdb26b9","ios":"levelo://app?vid=95825c38-6c59-4753-b43e-2f944bdb26b9"},"vehicle_type_id":"4","last_reported":1700935678,"current_range_meters":15200,"station_id":"ce4bhs92rcd13ifvqi0g","pricing_plan_id":"free"},{"bike_id":"07a03e0e-e12b-474e-a940-8baf07c98432","system_id":"levelo_inurba_marseille","lat":43.32829,"lon":5.3668,"is_reserved":false,"is_disabled":false,"rental_uris":{"android":"levelo://app?vid=07a03e0e-e12b-474e-a940-8baf07c98432","ios":"levelo://app?vid=07a03e0e-e12b-474e-a940-8baf07c98432"},"vehicle_type_id":"4","last_reported":1700935678,"current_range_meters":14400,"station_id":"ce4bhs92rcd13ifvqi0g","pricing_plan_id":"free"},{"bike_id":"8791a58e-e3a0-43a8-b083-b15b0d3679b4","system_id":"levelo_inurba_marseille","lat":43.328371,"lon":5.366909,"is_reserved":false,"is_disabled":false,"rental_uris":{"android":"levelo://app?vid=8791a58e-e3a0-43a8-b083-b15b0d3679b4","ios":"levelo://app?vid=8791a58e-e3a0-43a8-b083-b15b0d3679b4"},"vehicle_type_id":"4","last_reported":1700935678,"current_range_meters":7200,"station_id":"ce4bhs92rcd13ifvqi0g","pricing_plan_id":"free"},{"bike_id":"a7156c28-1946-468b-9e64-3365962b5f30","system_id":"levelo_inurba_marseille","lat":43.328371,"lon":5.366909,"is_reserved":false,"is_disabled":false,"rental_uris":{"android":"levelo://app?vid=a7156c28-1946-468b-9e64-3365962b5f30","ios":"levelo://app?vid=a7156c28-1946-468b-9e64-3365962b5f30"},"vehicle_type_id":"4","last_reported":1700935678,"current_range_meters":12400,"station_id":"ce4bhs92rcd13ifvqi0g","pricing_plan_id":"free"},{"bike_id":"8d576a43-59ad-467c-beaf-c77db02e73d9","system_id":"levelo_inurba_marseille","lat":43.2968,"lon":5.37291,"is_reserved":false,"is_disabled":false,"rental_uris":{"android":"levelo://app?vid=8d576a43-59ad-467c-beaf-c77db02e73d9","ios":"levelo://app?vid=8d576a43-59ad-467c-beaf-c77db02e73d9"},"vehicle_type_id":"4","last_reported":1700935678,"current_range_meters":30400,"station_id":"ce4bgk12rcd13ifvqbj0","pricing_plan_id":"free"},{"bike_id":"be34bbf0-4f65-4c9c-8471-592088912560","system_id":"levelo_inurba_marseille","lat":43.29573,"lon":5.367355,"is_reserved":false,"is_disabled":false,"rental_uris":{"android":"levelo://app?vid=be34bbf0-4f65-4c9c-8471-592088912560","ios":"levelo://app?vid=be34bbf0-4f65-4c9c-8471-592088912560"},"vehicle_type_id":"4","last_reported":1700935678,"current_range_meters":12000,"station_id":"ce4bgph2rcd13ifvqc2g","pricing_plan_id":"free"},{"bike_id":"8f40e601-2033-4b0b-8040-101c6fe2cf72","system_id":"levelo_inurba_marseille","lat":43.29573,"lon":5.367355,"is_reserved":false,"is_disabled":false,"rental_uris":{"android":"levelo://app?vid=8f40e601-2033-4b0b-8040-101c6fe2cf72","ios":"levelo://app?vid=8f40e601-2033-4b0b-8040-101c6fe2cf72"},"vehicle_type_id":"4","last_reported":1700935678,"current_range_meters":26000,"station_id":"ce4bgph2rcd13ifvqc2g","pricing_plan_id":"free"},{"bike_id":"e2063143-f4bf-43c9-93fb-9137aa1b2845","system_id":"levelo_inurba_marseille","lat":43.296921,"lon":5.376579,"is_reserved":false,"is_disabled":false,"rental_uris":{"android":"levelo://app?vid=e2063143-f4bf-43c9-93fb-9137aa1b2845","ios":"levelo://app?vid=e2063143-f4bf-43c9-93fb-9137aa1b2845"},"vehicle_type_id":"4","last_reported":1700935678,"current_range_meters":25200,"station_id":"ce4bgkh2rcd13ifvqbl0","pricing_plan_id":"free"},{"bike_id":"d36e5f69-67c6-4417-92c8-7683261396c2","system_id":"levelo_inurba_marseille","lat":43.317557,"lon":5.390173,"is_reserved":false,"is_disabled":false,"rental_uris":{"android":"levelo://app?vid=d36e5f69-67c6-4417-92c8-7683261396c2","ios":"levelo://app?vid=d36e5f69-67c6-4417-92c8-7683261396c2"},"vehicle_type_id":"4","last_reported":1700935678,"current_range_meters":0,"station_id":"ce4bhqp2rcd13ifvqhng","pricing_plan_id":"free"},{"bike_id":"e8afc7b7-a05e-441e-81b3-33b63c06fba5","system_id":"levelo_inurba_marseille","lat":43.317557,"lon":5.390173,"is_reserved":false,"is_disabled":false,"rental_uris":{"android":"levelo://app?vid=e8afc7b7-a05e-441e-81b3-33b63c06fba5","ios":"levelo://app?vid=e8afc7b7-a05e-441e-81b3-33b63c06fba5"},"vehicle_type_id":"4","last_reported":1700935678,"current_range_meters":0,"station_id":"ce4bhqp2rcd13ifvqhng","pricing_plan_id":"free"},{"bike_id":"a181b43b-d224-42db-ad27-1244c752f7cb","system_id":"levelo_inurba_marseille","lat":43.298037,"lon":5.381066,"is_reserved":false,"is_disabled":false,"rental_uris":{"android":"levelo://app?vid=a181b43b-d224-42db-ad27-1244c752f7cb","ios":"levelo://app?vid=a181b43b-d224-42db-ad27-1244c752f7cb"},"vehicle_type_id":"4","last_reported":1700935678,"current_range_meters":6400,"station_id":"ce4bgip2rcd13ifvqbb0","pricing_plan_id":"free"},{"bike_id":"06d827a2-ac28-4006-8bbc-3e3666947fb3","system_id":"levelo_inurba_marseille","lat":43.29614,"lon":5.37717,"is_reserved":false,"is_disabled":false,"rental_uris":{"android":"levelo://app?vid=06d827a2-ac28-4006-8bbc-3e3666947fb3","ios":"levelo://app?vid=06d827a2-ac28-4006-8bbc-3e3666947fb3"},"vehicle_type_id":"4","last_reported":1700935678,"current_range_meters":0,"station_id":"ce4bgi92rcd13ifvqb90","pricing_plan_id":"free"},{"bike_id":"6b621983-5e9e-42f7-990d-ad5a093820d2","system_id":"levelo_inurba_marseille","lat":43.293801,"lon":5.363066,"is_reserved":false,"is_disabled":false,"rental_uris":{"android":"levelo://app?vid=6b621983-5e9e-42f7-990d-ad5a093820d2","ios":"levelo://app?vid=6b621983-5e9e-42f7-990d-ad5a093820d2"},"vehicle_type_id":"4","last_reported":1700935678,"current_range_meters":0,"station_id":"","pricing_plan_id":"free"},{"bike_id":"70a6ace1-d595-4f17-a8d1-9fc4007b6517","system_id":"levelo_inurba_marseille","lat":43.32365,"lon":5.38883,"is_reserved":false,"is_disabled":false,"rental_uris":{"android":"levelo://app?vid=70a6ace1-d595-4f17-a8d1-9fc4007b6517","ios":"levelo://app?vid=70a6ace1-d595-4f17-a8d1-9fc4007b6517"},"vehicle_type_id":"4","last_reported":1700935678,"current_range_meters":7600,"station_id":"ce4bhqp2rcd13ifvqhog","pricing_plan_id":"free"},{"bike_id":"c08692de-893b-4842-ac6a-624a77fd78ec","system_id":"levelo_inurba_marseille","lat":43.32379,"lon":5.3897,"is_reserved":false,"is_disabled":false,"rental_uris":{"android":"levelo://app?vid=c08692de-893b-4842-ac6a-624a77fd78ec","ios":"levelo://app?vid=c08692de-893b-4842-ac6a-624a77fd78ec"},"vehicle_type_id":"4","last_reported":1700935678,"current_range_meters":2800,"station_id":"","pricing_plan_id":"free"},{"bike_id":"89659d1a-cb35-4ac1-84fe-373b5df291e0","system_id":"levelo_inurba_marseille","lat":43.29312,"lon":5.37177,"is_reserved":false,"is_disabled":false,"rental_uris":{"android":"levelo://app?vid=89659d1a-cb35-4ac1-84fe-373b5df291e0","ios":"levelo://app?vid=89659d1a-cb35-4ac1-84fe-373b5df291e0"},"vehicle_type_id":"4","last_reported":1700935678,"current_range_meters":28800,"station_id":"ce4bgh92rcd13ifvqb40","pricing_plan_id":"free"},{"bike_id":"8fe523ab-bb5c-4840-8bd3-25ab4fa048e3","system_id":"levelo_inurba_marseille","lat":43.293093,"lon":5.371694,"is_reserved":false,"is_disabled":false,"rental_uris":{"android":"levelo://app?vid=8fe523ab-bb5c-4840-8bd3-25ab4fa048e3","ios":"levelo://app?vid=8fe523ab-bb5c-4840-8bd3-25ab4fa048e3"},"vehicle_type_id":"4","last_reported":1700935678,"current_range_meters":28000,"station_id":"ce4bgh92rcd13ifvqb40","pricing_plan_id":"free"},{"bike_id":"86cfb3f5-bb07-4160-bbbd-b3f1c2748d43","system_id":"levelo_inurba_marseille","lat":43.293068,"lon":5.371548,"is_reserved":false,"is_disabled":false,"rental_uris":{"android":"levelo://app?vid=86cfb3f5-bb07-4160-bbbd-b3f1c2748d43","ios":"levelo://app?vid=86cfb3f5-bb07-4160-bbbd-b3f1c2748d43"},"vehicle_type_id":"4","last_reported":1700935678,"current_range_meters":26400,"station_id":"ce4bgh92rcd13ifvqb40","pricing_plan_id":"free"},{"bike_id":"27d8a0fe-697f-4cd1-a6ef-43a0dadcdf06","system_id":"levelo_inurba_marseille","lat":43.293057,"lon":5.371674,"is_reserved":false,"is_disabled":false,"rental_uris":{"android":"levelo://app?vid=27d8a0fe-697f-4cd1-a6ef-43a0dadcdf06","ios":"levelo://app?vid=27d8a0fe-697f-4cd1-a6ef-43a0dadcdf06"},"vehicle_type_id":"4","last_reported":1700935678,"current_range_meters":11200,"station_id":"ce4bgh92rcd13ifvqb40","pricing_plan_id":"free"},{"bike_id":"cc4f7414-f00f-4dca-aa54-4435ba273d6a","system_id":"levelo_inurba_marseille","lat":43.29305,"lon":5.37176,"is_reserved":false,"is_disabled":false,"rental_uris":{"android":"levelo://app?vid=cc4f7414-f00f-4dca-aa54-4435ba273d6a","ios":"levelo://app?vid=cc4f7414-f00f-4dca-aa54-4435ba273d6a"},"vehicle_type_id":"4","last_reported":1700935678,"current_range_meters":26000,"station_id":"ce4bgh92rcd13ifvqb40","pricing_plan_id":"free"},{"bike_id":"00c23701-2820-4894-801f-4e7a05c45a31","system_id":"levelo_inurba_marseille","lat":43.29274,"lon":5.36848,"is_reserved":false,"is_disabled":false,"rental_uris":{"android":"levelo://app?vid=00c23701-2820-4894-801f-4e7a05c45a31","ios":"levelo://app?vid=00c23701-2820-4894-801f-4e7a05c45a31"},"vehicle_type_id":"4","last_reported":1700935678,"current_range_meters":13600,"station_id":"ce4bhbp2rcd13ifvqesg","pricing_plan_id":"free"},{"bike_id":"b7dc091e-556f-47e9-81b9-9bd91f3e0c8b","system_id":"levelo_inurba_marseille","lat":43.29573,"lon":5.367355,"is_reserved":false,"is_disabled":false,"rental_uris":{"android":"levelo://app?vid=b7dc091e-556f-47e9-81b9-9bd91f3e0c8b","ios":"levelo://app?vid=b7dc091e-556f-47e9-81b9-9bd91f3e0c8b"},"vehicle_type_id":"4","last_reported":1700935678,"current_range_meters":24800,"station_id":"ce4bgph2rcd13ifvqc2g","pricing_plan_id":"free"},{"bike_id":"50fcf5e8-39dc-4683-a61b-5d9a00190cfb","system_id":"levelo_inurba_marseille","lat":43.305994,"lon":5.393687,"is_reserved":false,"is_disabled":false,"rental_uris":{"android":"levelo://app?vid=50fcf5e8-39dc-4683-a61b-5d9a00190cfb","ios":"levelo://app?vid=50fcf5e8-39dc-4683-a61b-5d9a00190cfb"},"vehicle_type_id":"4","last_reported":1700935678,"current_range_meters":4800,"station_id":"ce4bh0p2rcd13ifvqd80","pricing_plan_id":"free"},{"bike_id":"50bdd73c-c65a-4b6f-bd58-44b8fcdeca7c","system_id":"levelo_inurba_marseille","lat":43.302992,"lon":5.392136,"is_reserved":false,"is_disabled":false,"rental_uris":{"android":"levelo://app?vid=50bdd73c-c65a-4b6f-bd58-44b8fcdeca7c","ios":"levelo://app?vid=50bdd73c-c65a-4b6f-bd58-44b8fcdeca7c"},"vehicle_type_id":"4","last_reported":1700935678,"current_range_meters":18400,"station_id":"ce4bgkh2rcd13ifvqbk0","pricing_plan_id":"free"},{"bike_id":"a46e54cb-47cd-4d22-a4b8-65c2b9ceb13e","system_id":"levelo_inurba_marseille","lat":43.303002,"lon":5.392142,"is_reserved":false,"is_disabled":false,"rental_uris":{"android":"levelo://app?vid=a46e54cb-47cd-4d22-a4b8-65c2b9ceb13e","ios":"levelo://app?vid=a46e54cb-47cd-4d22-a4b8-65c2b9ceb13e"},"vehicle_type_id":"4","last_reported":1700935678,"current_range_meters":17600,"station_id":"ce4bgkh2rcd13ifvqbk0","pricing_plan_id":"free"},{"bike_id":"20b75188-9d6a-497e-ba66-a7de018518a3","system_id":"levelo_inurba_marseille","lat":43.298764,"lon":5.388973,"is_reserved":false,"is_disabled":false,"rental_uris":{"android":"levelo://app?vid=20b75188-9d6a-497e-ba66-a7de018518a3","ios":"levelo://app?vid=20b75188-9d6a-497e-ba66-a7de018518a3"},"vehicle_type_id":"4","last_reported":1700935678,"current_range_meters":18000,"station_id":"ce4bh392rcd13ifvqdl0","pricing_plan_id":"free"},{"bike_id":"e42263e7-8663-4bec-a7ad-afb8c0299c60","system_id":"levelo_inurba_marseille","lat":43.291675,"lon":5.371583,"is_reserved":false,"is_disabled":false,"rental_uris":{"android":"levelo://app?vid=e42263e7-8663-4bec-a7ad-afb8c0299c60","ios":"levelo://app?vid=e42263e7-8663-4bec-a7ad-afb8c0299c60"},"vehicle_type_id":"4","last_reported":1700935678,"current_range_meters":18000,"station_id":"ce4bha92rcd13ifvqeh0","pricing_plan_id":"free"},{"bike_id":"a00f1701-2a0e-49ee-96cf-ccc4cd362a93","system_id":"levelo_inurba_marseille","lat":43.291675,"lon":5.371583,"is_reserved":false,"is_disabled":false,"rental_uris":{"android":"levelo://app?vid=a00f1701-2a0e-49ee-96cf-ccc4cd362a93","ios":"levelo://app?vid=a00f1701-2a0e-49ee-96cf-ccc4cd362a93"},"vehicle_type_id":"4","last_reported":1700935678,"current_range_meters":16000,"station_id":"ce4bha92rcd13ifvqeh0","pricing_plan_id":"free"},{"bike_id":"f48a674d-acde-4b90-a258-ca717737c9e1","system_id":"levelo_inurba_marseille","lat":43.309038,"lon":5.396546,"is_reserved":false,"is_disabled":false,"rental_uris":{"android":"levelo://app?vid=f48a674d-acde-4b90-a258-ca717737c9e1","ios":"levelo://app?vid=f48a674d-acde-4b90-a258-ca717737c9e1"},"vehicle_type_id":"4","last_reported":1700935678,"current_range_meters":24400,"station_id":"ce4bh012rcd13ifvqcv0","pricing_plan_id":"free"},{"bike_id":"0da82184-4162-4043-b2c2-ffffb60fe881","system_id":"levelo_inurba_marseille","lat":43.29192,"lon":5.35801,"is_reserved":false,"is_disabled":false,"rental_uris":{"android":"levelo://app?vid=0da82184-4162-4043-b2c2-ffffb60fe881","ios":"levelo://app?vid=0da82184-4162-4043-b2c2-ffffb60fe881"},"vehicle_type_id":"4","last_reported":1700935678,"current_range_meters":20800,"station_id":"ce4bhb12rcd13ifvqel0","pricing_plan_id":"free"},{"bike_id":"a9b05085-cbec-4d47-a5d2-469f36f40f42","system_id":"levelo_inurba_marseille","lat":43.31331,"lon":5.39694,"is_reserved":false,"is_disabled":false,"rental_uris":{"android":"levelo://app?vid=a9b05085-cbec-4d47-a5d2-469f36f40f42","ios":"levelo://app?vid=a9b05085-cbec-4d47-a5d2-469f36f40f42"},"vehicle_type_id":"4","last_reported":1700935678,"current_range_meters":0,"station_id":"ce4bgvp2rcd13ifvqcu0","pricing_plan_id":"free"},{"bike_id":"8af06dbf-31ec-449a-8d5d-4e368244a6ed","system_id":"levelo_inurba_marseille","lat":43.29529,"lon":5.385581,"is_reserved":false,"is_disabled":false,"rental_uris":{"android":"levelo://app?vid=8af06dbf-31ec-449a-8d5d-4e368244a6ed","ios":"levelo://app?vid=8af06dbf-31ec-449a-8d5d-4e368244a6ed"},"vehicle_type_id":"4","last_reported":1700935678,"current_range_meters":0,"station_id":"ce4bgih2rcd13ifvqba0","pricing_plan_id":"free"},{"bike_id":"f6bb4cfb-7ea1-41b9-ac68-00b4295edb98","system_id":"levelo_inurba_marseille","lat":43.290779,"lon":5.371482,"is_reserved":false,"is_disabled":false,"rental_uris":{"android":"levelo://app?vid=f6bb4cfb-7ea1-41b9-ac68-00b4295edb98","ios":"levelo://app?vid=f6bb4cfb-7ea1-41b9-ac68-00b4295edb98"},"vehicle_type_id":"4","last_reported":1700935678,"current_range_meters":28800,"station_id":"ce4bh5p2rcd13ifvqe4g","pricing_plan_id":"free"},{"bike_id":"6341ade7-bd78-4d3f-96b8-7b9cf8dd9247","system_id":"levelo_inurba_marseille","lat":43.302008,"lon":5.394694,"is_reserved":false,"is_disabled":false,"rental_uris":{"android":"levelo://app?vid=6341ade7-bd78-4d3f-96b8-7b9cf8dd9247","ios":"levelo://app?vid=6341ade7-bd78-4d3f-96b8-7b9cf8dd9247"},"vehicle_type_id":"4","last_reported":1700935678,"current_range_meters":11200,"station_id":"ce4bh0p2rcd13ifvqd70","pricing_plan_id":"free"},{"bike_id":"f4dd1ba4-ca0d-437b-87f6-ab27b192fb0d","system_id":"levelo_inurba_marseille","lat":43.302008,"lon":5.394694,"is_reserved":false,"is_disabled":false,"rental_uris":{"android":"levelo://app?vid=f4dd1ba4-ca0d-437b-87f6-ab27b192fb0d","ios":"levelo://app?vid=f4dd1ba4-ca0d-437b-87f6-ab27b192fb0d"},"vehicle_type_id":"4","last_reported":1700935678,"current_range_meters":10800,"station_id":"ce4bh0p2rcd13ifvqd70","pricing_plan_id":"free"},{"bike_id":"75a7b888-bcbf-4722-8f05-8b3675c3c756","system_id":"levelo_inurba_marseille","lat":43.289184,"lon":5.366408,"is_reserved":false,"is_disabled":false,"rental_uris":{"android":"levelo://app?vid=75a7b888-bcbf-4722-8f05-8b3675c3c756","ios":"levelo://app?vid=75a7b888-bcbf-4722-8f05-8b3675c3c756"},"vehicle_type_id":"4","last_reported":1700935678,"current_range_meters":18800,"station_id":"ce4bhap2rcd13ifvqek0","pricing_plan_id":"free"},{"bike_id":"415a70cc-b7da-4a86-9920-795a30a7dd5b","system_id":"levelo_inurba_marseille","lat":43.289184,"lon":5.366408,"is_reserved":false,"is_disabled":false,"rental_uris":{"android":"levelo://app?vid=415a70cc-b7da-4a86-9920-795a30a7dd5b","ios":"levelo://app?vid=415a70cc-b7da-4a86-9920-795a30a7dd5b"},"vehicle_type_id":"4","last_reported":1700935678,"current_range_meters":25200,"station_id":"ce4bhap2rcd13ifvqek0","pricing_plan_id":"free"},{"bike_id":"2a322096-4787-4bcf-8273-aded05e60730","system_id":"levelo_inurba_marseille","lat":43.289184,"lon":5.366408,"is_reserved":false,"is_disabled":false,"rental_uris":{"android":"levelo://app?vid=2a322096-4787-4bcf-8273-aded05e60730","ios":"levelo://app?vid=2a322096-4787-4bcf-8273-aded05e60730"},"vehicle_type_id":"4","last_reported":1700935678,"current_range_meters":10800,"station_id":"ce4bhap2rcd13ifvqek0","pricing_plan_id":"free"},{"bike_id":"77f472a5-d8d7-429c-be76-0301e9e08d76","system_id":"levelo_inurba_marseille","lat":43.289468,"lon":5.363719,"is_reserved":false,"is_disabled":false,"rental_uris":{"android":"levelo://app?vid=77f472a5-d8d7-429c-be76-0301e9e08d76","ios":"levelo://app?vid=77f472a5-d8d7-429c-be76-0301e9e08d76"},"vehicle_type_id":"4","last_reported":1700935678,"current_range_meters":28800,"station_id":"ce4bhc92rcd13ifvqetg","pricing_plan_id":"free"},{"bike_id":"09197670-3d3e-4ad0-8c2f-d710e02d85e5","system_id":"levelo_inurba_marseille","lat":43.292642,"lon":5.384254,"is_reserved":false,"is_disabled":false,"rental_uris":{"android":"levelo://app?vid=09197670-3d3e-4ad0-8c2f-d710e02d85e5","ios":"levelo://app?vid=09197670-3d3e-4ad0-8c2f-d710e02d85e5"},"vehicle_type_id":"4","last_reported":1700935678,"current_range_meters":27600,"station_id":"ce4bh692rcd13ifvqea0","pricing_plan_id":"free"},{"bike_id":"c82855ee-0373-40fa-98cc-a66d7954f1c6","system_id":"levelo_inurba_marseille","lat":43.292642,"lon":5.384254,"is_reserved":false,"is_disabled":false,"rental_uris":{"android":"levelo://app?vid=c82855ee-0373-40fa-98cc-a66d7954f1c6","ios":"levelo://app?vid=c82855ee-0373-40fa-98cc-a66d7954f1c6"},"vehicle_type_id":"4","last_reported":1700935678,"current_range_meters":1200,"station_id":"ce4bh692rcd13ifvqea0","pricing_plan_id":"free"},{"bike_id":"b4631a50-8961-467a-b09c-5277121cdf44","system_id":"levelo_inurba_marseille","lat":43.295169,"lon":5.390426,"is_reserved":false,"is_disabled":false,"rental_uris":{"android":"levelo://app?vid=b4631a50-8961-467a-b09c-5277121cdf44","ios":"levelo://app?vid=b4631a50-8961-467a-b09c-5277121cdf44"},"vehicle_type_id":"4","last_reported":1700935678,"current_range_meters":12400,"station_id":"ce4bh3p2rcd13ifvqdp0","pricing_plan_id":"free"},{"bike_id":"4e1a2d84-6870-4f30-9992-e9eea8c8fe98","system_id":"levelo_inurba_marseille","lat":43.295169,"lon":5.390426,"is_reserved":false,"is_disabled":false,"rental_uris":{"android":"levelo://app?vid=4e1a2d84-6870-4f30-9992-e9eea8c8fe98","ios":"levelo://app?vid=4e1a2d84-6870-4f30-9992-e9eea8c8fe98"},"vehicle_type_id":"4","last_reported":1700935678,"current_range_meters":22400,"station_id":"ce4bh3p2rcd13ifvqdp0","pricing_plan_id":"free"},{"bike_id":"9c9bd7db-a71c-419c-ba42-83618cc977b4","system_id":"levelo_inurba_marseille","lat":43.30963,"lon":5.40071,"is_reserved":false,"is_disabled":false,"rental_uris":{"android":"levelo://app?vid=9c9bd7db-a71c-419c-ba42-83618cc977b4","ios":"levelo://app?vid=9c9bd7db-a71c-419c-ba42-83618cc977b4"},"vehicle_type_id":"4","last_reported":1700935678,"current_range_meters":0,"station_id":"","pricing_plan_id":"free"},{"bike_id":"82ca81cd-1004-4eae-8f75-43088ecec8b5","system_id":"levelo_inurba_marseille","lat":43.312609,"lon":5.401662,"is_reserved":false,"is_disabled":false,"rental_uris":{"android":"levelo://app?vid=82ca81cd-1004-4eae-8f75-43088ecec8b5","ios":"levelo://app?vid=82ca81cd-1004-4eae-8f75-43088ecec8b5"},"vehicle_type_id":"4","last_reported":1700935678,"current_range_meters":14800,"station_id":"ce4bh092rcd13ifvqd30","pricing_plan_id":"free"},{"bike_id":"2b23f38a-1831-49fe-a943-86c9ec15f136","system_id":"levelo_inurba_marseille","lat":43.33744,"lon":5.374613,"is_reserved":false,"is_disabled":false,"rental_uris":{"android":"levelo://app?vid=2b23f38a-1831-49fe-a943-86c9ec15f136","ios":"levelo://app?vid=2b23f38a-1831-49fe-a943-86c9ec15f136"},"vehicle_type_id":"4","last_reported":1700935678,"current_range_meters":800,"station_id":"","pricing_plan_id":"free"},{"bike_id":"ac285e26-46ab-4b23-8672-d078d8fed511","system_id":"levelo_inurba_marseille","lat":43.33757,"lon":5.37447,"is_reserved":false,"is_disabled":false,"rental_uris":{"android":"levelo://app?vid=ac285e26-46ab-4b23-8672-d078d8fed511","ios":"levelo://app?vid=ac285e26-46ab-4b23-8672-d078d8fed511"},"vehicle_type_id":"4","last_reported":1700935678,"current_range_meters":25200,"station_id":"","pricing_plan_id":"free"},{"bike_id":"0bd5427c-1bbd-4320-84dc-8a12078390db","system_id":"levelo_inurba_marseille","lat":43.30642,"lon":5.401031,"is_reserved":false,"is_disabled":false,"rental_uris":{"android":"levelo://app?vid=0bd5427c-1bbd-4320-84dc-8a12078390db","ios":"levelo://app?vid=0bd5427c-1bbd-4320-84dc-8a12078390db"},"vehicle_type_id":"4","last_reported":1700935678,"current_range_meters":17600,"station_id":"ce4bh112rcd13ifvqda0","pricing_plan_id":"free"},{"bike_id":"89dbb2b6-e2e7-4045-be6e-397b7b95e1cc","system_id":"levelo_inurba_marseille","lat":43.301117,"lon":5.398795,"is_reserved":false,"is_disabled":false,"rental_uris":{"android":"levelo://app?vid=89dbb2b6-e2e7-4045-be6e-397b7b95e1cc","ios":"levelo://app?vid=89dbb2b6-e2e7-4045-be6e-397b7b95e1cc"},"vehicle_type_id":"4","last_reported":1700935678,"current_range_meters":20800,"station_id":"ce4bh0h2rcd13ifvqd40","pricing_plan_id":"free"},{"bike_id":"cde2c622-349a-4323-acf6-1cfccb53c987","system_id":"levelo_inurba_marseille","lat":43.30137,"lon":5.39869,"is_reserved":false,"is_disabled":false,"rental_uris":{"android":"levelo://app?vid=cde2c622-349a-4323-acf6-1cfccb53c987","ios":"levelo://app?vid=cde2c622-349a-4323-acf6-1cfccb53c987"},"vehicle_type_id":"4","last_reported":1700935678,"current_range_meters":4400,"station_id":"ce4bh0h2rcd13ifvqd40","pricing_plan_id":"free"},{"bike_id":"c73b4907-b74c-48c7-9c16-ebc8f1d1fcaf","system_id":"levelo_inurba_marseille","lat":43.286593,"lon":5.363346,"is_reserved":false,"is_disabled":false,"rental_uris":{"android":"levelo://app?vid=c73b4907-b74c-48c7-9c16-ebc8f1d1fcaf","ios":"levelo://app?vid=c73b4907-b74c-48c7-9c16-ebc8f1d1fcaf"},"vehicle_type_id":"4","last_reported":1700935678,"current_range_meters":24400,"station_id":"ce4bhah2rcd13ifvqej0","pricing_plan_id":"free"},{"bike_id":"aca50be9-26b4-4478-b4ef-c8a229dd3805","system_id":"levelo_inurba_marseille","lat":43.298681,"lon":5.397225,"is_reserved":false,"is_disabled":false,"rental_uris":{"android":"levelo://app?vid=aca50be9-26b4-4478-b4ef-c8a229dd3805","ios":"levelo://app?vid=aca50be9-26b4-4478-b4ef-c8a229dd3805"},"vehicle_type_id":"4","last_reported":1700935678,"current_range_meters":11600,"station_id":"ce4bh0h2rcd13ifvqd50","pricing_plan_id":"free"},{"bike_id":"b1bbb6b0-f564-44f4-b4e3-f8a80e07e360","system_id":"levelo_inurba_marseille","lat":43.295194,"lon":5.39397,"is_reserved":false,"is_disabled":false,"rental_uris":{"android":"levelo://app?vid=b1bbb6b0-f564-44f4-b4e3-f8a80e07e360","ios":"levelo://app?vid=b1bbb6b0-f564-44f4-b4e3-f8a80e07e360"},"vehicle_type_id":"4","last_reported":1700935678,"current_range_meters":6400,"station_id":"ce4bh292rcd13ifvqdf0","pricing_plan_id":"free"},{"bike_id":"44cf3aa0-e803-426d-a9d5-f27e21bcad07","system_id":"levelo_inurba_marseille","lat":43.289307,"lon":5.38406,"is_reserved":false,"is_disabled":false,"rental_uris":{"android":"levelo://app?vid=44cf3aa0-e803-426d-a9d5-f27e21bcad07","ios":"levelo://app?vid=44cf3aa0-e803-426d-a9d5-f27e21bcad07"},"vehicle_type_id":"4","last_reported":1700935678,"current_range_meters":31200,"station_id":"ce4bh612rcd13ifvqe6g","pricing_plan_id":"free"},{"bike_id":"c7017b4c-3dd0-4bfa-a3a5-092bfe2889e7","system_id":"levelo_inurba_marseille","lat":43.2904,"lon":5.38645,"is_reserved":false,"is_disabled":false,"rental_uris":{"android":"levelo://app?vid=c7017b4c-3dd0-4bfa-a3a5-092bfe2889e7","ios":"levelo://app?vid=c7017b4c-3dd0-4bfa-a3a5-092bfe2889e7"},"vehicle_type_id":"4","last_reported":1700935678,"current_range_meters":16800,"station_id":"ce4bh4p2rcd13ifvqe0g","pricing_plan_id":"free"},{"bike_id":"44c2db82-f5c1-40a3-b21a-da6981aaddf7","system_id":"levelo_inurba_marseille","lat":43.289307,"lon":5.38406,"is_reserved":false,"is_disabled":false,"rental_uris":{"android":"levelo://app?vid=44c2db82-f5c1-40a3-b21a-da6981aaddf7","ios":"levelo://app?vid=44c2db82-f5c1-40a3-b21a-da6981aaddf7"},"vehicle_type_id":"4","last_reported":1700935678,"current_range_meters":17200,"station_id":"ce4bh612rcd13ifvqe6g","pricing_plan_id":"free"},{"bike_id":"960d5d2a-fc09-453e-988e-7c36aae73ff7","system_id":"levelo_inurba_marseille","lat":43.289307,"lon":5.38406,"is_reserved":false,"is_disabled":false,"rental_uris":{"android":"levelo://app?vid=960d5d2a-fc09-453e-988e-7c36aae73ff7","ios":"levelo://app?vid=960d5d2a-fc09-453e-988e-7c36aae73ff7"},"vehicle_type_id":"4","last_reported":1700935678,"current_range_meters":12000,"station_id":"ce4bh612rcd13ifvqe6g","pricing_plan_id":"free"},{"bike_id":"bb4526e6-1e3f-4929-abbe-cf04a6c45ef1","system_id":"levelo_inurba_marseille","lat":43.302759,"lon":5.400793,"is_reserved":false,"is_disabled":false,"rental_uris":{"android":"levelo://app?vid=bb4526e6-1e3f-4929-abbe-cf04a6c45ef1","ios":"levelo://app?vid=bb4526e6-1e3f-4929-abbe-cf04a6c45ef1"},"vehicle_type_id":"4","last_reported":1700935678,"current_range_meters":29200,"station_id":"ce4bgvh2rcd13ifvqcs0","pricing_plan_id":"free"},{"bike_id":"9465243f-bb3d-4ab1-b04d-371155780f4b","system_id":"levelo_inurba_marseille","lat":43.302759,"lon":5.400793,"is_reserved":false,"is_disabled":false,"rental_uris":{"android":"levelo://app?vid=9465243f-bb3d-4ab1-b04d-371155780f4b","ios":"levelo://app?vid=9465243f-bb3d-4ab1-b04d-371155780f4b"},"vehicle_type_id":"4","last_reported":1700935678,"current_range_meters":28400,"station_id":"ce4bgvh2rcd13ifvqcs0","pricing_plan_id":"free"},{"bike_id":"c0139d13-8f9f-4411-907d-3e6f3c1f34b5","system_id":"levelo_inurba_marseille","lat":43.302759,"lon":5.400793,"is_reserved":false,"is_disabled":false,"rental_uris":{"android":"levelo://app?vid=c0139d13-8f9f-4411-907d-3e6f3c1f34b5","ios":"levelo://app?vid=c0139d13-8f9f-4411-907d-3e6f3c1f34b5"},"vehicle_type_id":"4","last_reported":1700935678,"current_range_meters":24000,"station_id":"ce4bgvh2rcd13ifvqcs0","pricing_plan_id":"free"},{"bike_id":"0f56fa0f-1117-4140-8fde-612592dc4d4f","system_id":"levelo_inurba_marseille","lat":43.286039,"lon":5.370679,"is_reserved":false,"is_disabled":false,"rental_uris":{"android":"levelo://app?vid=0f56fa0f-1117-4140-8fde-612592dc4d4f","ios":"levelo://app?vid=0f56fa0f-1117-4140-8fde-612592dc4d4f"},"vehicle_type_id":"4","last_reported":1700935678,"current_range_meters":20800,"station_id":"ce4bht12rcd13ifvqi60","pricing_plan_id":"free"},{"bike_id":"1c8f23f2-e752-4432-99a0-b0a0abb0faa5","system_id":"levelo_inurba_marseille","lat":43.291994,"lon":5.392907,"is_reserved":false,"is_disabled":false,"rental_uris":{"android":"levelo://app?vid=1c8f23f2-e752-4432-99a0-b0a0abb0faa5","ios":"levelo://app?vid=1c8f23f2-e752-4432-99a0-b0a0abb0faa5"},"vehicle_type_id":"4","last_reported":1700935678,"current_range_meters":22000,"station_id":"ce4bh192rcd13ifvqdd0","pricing_plan_id":"free"},{"bike_id":"9105c47e-1ba1-4287-8b98-a6134ec9c642","system_id":"levelo_inurba_marseille","lat":43.284538,"lon":5.358657,"is_reserved":false,"is_disabled":false,"rental_uris":{"android":"levelo://app?vid=9105c47e-1ba1-4287-8b98-a6134ec9c642","ios":"levelo://app?vid=9105c47e-1ba1-4287-8b98-a6134ec9c642"},"vehicle_type_id":"4","last_reported":1700935678,"current_range_meters":7600,"station_id":"ce4bhah2rcd13ifvqei0","pricing_plan_id":"free"},{"bike_id":"f94cf1d5-2927-4b18-8f7b-8af33f616021","system_id":"levelo_inurba_marseille","lat":43.284538,"lon":5.358657,"is_reserved":false,"is_disabled":false,"rental_uris":{"android":"levelo://app?vid=f94cf1d5-2927-4b18-8f7b-8af33f616021","ios":"levelo://app?vid=f94cf1d5-2927-4b18-8f7b-8af33f616021"},"vehicle_type_id":"4","last_reported":1700935678,"current_range_meters":10800,"station_id":"ce4bhah2rcd13ifvqei0","pricing_plan_id":"free"},{"bike_id":"f18bfd66-9c11-43fc-a6fa-cf2edce6e4d4","system_id":"levelo_inurba_marseille","lat":43.285856,"lon":5.350771,"is_reserved":false,"is_disabled":false,"rental_uris":{"android":"levelo://app?vid=f18bfd66-9c11-43fc-a6fa-cf2edce6e4d4","ios":"levelo://app?vid=f18bfd66-9c11-43fc-a6fa-cf2edce6e4d4"},"vehicle_type_id":"4","last_reported":1700935678,"current_range_meters":29600,"station_id":"ce4bhch2rcd13ifvqeug","pricing_plan_id":"free"},{"bike_id":"aa090bcd-f690-4374-baba-64edd7e7fd3d","system_id":"levelo_inurba_marseille","lat":43.285848,"lon":5.350787,"is_reserved":false,"is_disabled":false,"rental_uris":{"android":"levelo://app?vid=aa090bcd-f690-4374-baba-64edd7e7fd3d","ios":"levelo://app?vid=aa090bcd-f690-4374-baba-64edd7e7fd3d"},"vehicle_type_id":"4","last_reported":1700935678,"current_range_meters":20000,"station_id":"ce4bhch2rcd13ifvqeug","pricing_plan_id":"free"},{"bike_id":"7375b40d-1ff2-44be-835b-7d5850dc032d","system_id":"levelo_inurba_marseille","lat":43.283998,"lon":5.375062,"is_reserved":false,"is_disabled":false,"rental_uris":{"android":"levelo://app?vid=7375b40d-1ff2-44be-835b-7d5850dc032d","ios":"levelo://app?vid=7375b40d-1ff2-44be-835b-7d5850dc032d"},"vehicle_type_id":"4","last_reported":1700935678,"current_range_meters":30000,"station_id":"ce4bh412rcd13ifvqds0","pricing_plan_id":"free"},{"bike_id":"a7f3395c-9c1f-48d9-94c6-7b9f511f37a7","system_id":"levelo_inurba_marseille","lat":43.283998,"lon":5.375062,"is_reserved":false,"is_disabled":false,"rental_uris":{"android":"levelo://app?vid=a7f3395c-9c1f-48d9-94c6-7b9f511f37a7","ios":"levelo://app?vid=a7f3395c-9c1f-48d9-94c6-7b9f511f37a7"},"vehicle_type_id":"4","last_reported":1700935678,"current_range_meters":31600,"station_id":"ce4bh412rcd13ifvqds0","pricing_plan_id":"free"},{"bike_id":"1396be27-855d-47c4-9b70-3e0c38c7548e","system_id":"levelo_inurba_marseille","lat":43.284137,"lon":5.375113,"is_reserved":false,"is_disabled":false,"rental_uris":{"android":"levelo://app?vid=1396be27-855d-47c4-9b70-3e0c38c7548e","ios":"levelo://app?vid=1396be27-855d-47c4-9b70-3e0c38c7548e"},"vehicle_type_id":"4","last_reported":1700935678,"current_range_meters":12800,"station_id":"ce4bh692rcd13ifvqe90","pricing_plan_id":"free"},{"bike_id":"478d4039-55c6-4ac6-9376-b61cb534a4b1","system_id":"levelo_inurba_marseille","lat":43.283998,"lon":5.375062,"is_reserved":false,"is_disabled":false,"rental_uris":{"android":"levelo://app?vid=478d4039-55c6-4ac6-9376-b61cb534a4b1","ios":"levelo://app?vid=478d4039-55c6-4ac6-9376-b61cb534a4b1"},"vehicle_type_id":"4","last_reported":1700935678,"current_range_meters":29600,"station_id":"ce4bh412rcd13ifvqds0","pricing_plan_id":"free"},{"bike_id":"00226c1f-f9c7-4717-bef1-123d14105322","system_id":"levelo_inurba_marseille","lat":43.283998,"lon":5.375062,"is_reserved":false,"is_disabled":false,"rental_uris":{"android":"levelo://app?vid=00226c1f-f9c7-4717-bef1-123d14105322","ios":"levelo://app?vid=00226c1f-f9c7-4717-bef1-123d14105322"},"vehicle_type_id":"4","last_reported":1700935678,"current_range_meters":26400,"station_id":"ce4bh412rcd13ifvqds0","pricing_plan_id":"free"},{"bike_id":"38be87ce-41ef-4a88-9bd8-db3f470e784a","system_id":"levelo_inurba_marseille","lat":43.283998,"lon":5.375062,"is_reserved":false,"is_disabled":false,"rental_uris":{"android":"levelo://app?vid=38be87ce-41ef-4a88-9bd8-db3f470e784a","ios":"levelo://app?vid=38be87ce-41ef-4a88-9bd8-db3f470e784a"},"vehicle_type_id":"4","last_reported":1700935678,"current_range_meters":29600,"station_id":"ce4bh412rcd13ifvqds0","pricing_plan_id":"free"},{"bike_id":"3ec7c8a2-f851-44fe-a66c-55be2ab224d4","system_id":"levelo_inurba_marseille","lat":43.283998,"lon":5.375062,"is_reserved":false,"is_disabled":false,"rental_uris":{"android":"levelo://app?vid=3ec7c8a2-f851-44fe-a66c-55be2ab224d4","ios":"levelo://app?vid=3ec7c8a2-f851-44fe-a66c-55be2ab224d4"},"vehicle_type_id":"4","last_reported":1700935678,"current_range_meters":30800,"station_id":"ce4bh412rcd13ifvqds0","pricing_plan_id":"free"},{"bike_id":"75c7939c-6a45-4071-a9b8-cd8ade471986","system_id":"levelo_inurba_marseille","lat":43.28481,"lon":5.38407,"is_reserved":false,"is_disabled":false,"rental_uris":{"android":"levelo://app?vid=75c7939c-6a45-4071-a9b8-cd8ade471986","ios":"levelo://app?vid=75c7939c-6a45-4071-a9b8-cd8ade471986"},"vehicle_type_id":"4","last_reported":1700935678,"current_range_meters":0,"station_id":"ce4bh512rcd13ifvqe3g","pricing_plan_id":"free"},{"bike_id":"6de2cc41-c8fe-46db-9dfe-99d8c0d3fa7b","system_id":"levelo_inurba_marseille","lat":43.29795,"lon":5.404086,"is_reserved":false,"is_disabled":false,"rental_uris":{"android":"levelo://app?vid=6de2cc41-c8fe-46db-9dfe-99d8c0d3fa7b","ios":"levelo://app?vid=6de2cc41-c8fe-46db-9dfe-99d8c0d3fa7b"},"vehicle_type_id":"4","last_reported":1700935678,"current_range_meters":27200,"station_id":"ce4bh112rcd13ifvqd90","pricing_plan_id":"free"},{"bike_id":"85890241-cb2d-477e-ac44-f045b1814e58","system_id":"levelo_inurba_marseille","lat":43.288501,"lon":5.393087,"is_reserved":false,"is_disabled":false,"rental_uris":{"android":"levelo://app?vid=85890241-cb2d-477e-ac44-f045b1814e58","ios":"levelo://app?vid=85890241-cb2d-477e-ac44-f045b1814e58"},"vehicle_type_id":"4","last_reported":1700935678,"current_range_meters":23600,"station_id":"ce4bh2p2rcd13ifvqdi0","pricing_plan_id":"free"},{"bike_id":"c868ade1-4db9-469e-a1b8-acef8b9977d2","system_id":"levelo_inurba_marseille","lat":43.283494,"lon":5.380945,"is_reserved":false,"is_disabled":false,"rental_uris":{"android":"levelo://app?vid=c868ade1-4db9-469e-a1b8-acef8b9977d2","ios":"levelo://app?vid=c868ade1-4db9-469e-a1b8-acef8b9977d2"},"vehicle_type_id":"4","last_reported":1700935678,"current_range_meters":6800,"station_id":"ce4bh412rcd13ifvqdr0","pricing_plan_id":"free"},{"bike_id":"bc7cba10-3781-45de-8781-30ec383d6e42","system_id":"levelo_inurba_marseille","lat":43.284219,"lon":5.3497,"is_reserved":false,"is_disabled":false,"rental_uris":{"android":"levelo://app?vid=bc7cba10-3781-45de-8781-30ec383d6e42","ios":"levelo://app?vid=bc7cba10-3781-45de-8781-30ec383d6e42"},"vehicle_type_id":"4","last_reported":1700935678,"current_range_meters":31200,"station_id":"ce4bhbh2rcd13ifvqepg","pricing_plan_id":"free"},{"bike_id":"a38cc666-bd11-41d4-add3-da9ec7c17035","system_id":"levelo_inurba_marseille","lat":43.283498,"lon":5.380948,"is_reserved":false,"is_disabled":false,"rental_uris":{"android":"levelo://app?vid=a38cc666-bd11-41d4-add3-da9ec7c17035","ios":"levelo://app?vid=a38cc666-bd11-41d4-add3-da9ec7c17035"},"vehicle_type_id":"4","last_reported":1700935678,"current_range_meters":15600,"station_id":"ce4bh412rcd13ifvqdr0","pricing_plan_id":"free"},{"bike_id":"e2284003-4e46-4e0a-93e7-73d05c3666d9","system_id":"levelo_inurba_marseille","lat":43.33508,"lon":5.397755,"is_reserved":false,"is_disabled":false,"rental_uris":{"android":"levelo://app?vid=e2284003-4e46-4e0a-93e7-73d05c3666d9","ios":"levelo://app?vid=e2284003-4e46-4e0a-93e7-73d05c3666d9"},"vehicle_type_id":"4","last_reported":1700935678,"current_range_meters":21600,"station_id":"","pricing_plan_id":"free"},{"bike_id":"d07e4532-bcce-41d1-b0bf-1e3106e7ad55","system_id":"levelo_inurba_marseille","lat":43.283502,"lon":5.386471,"is_reserved":false,"is_disabled":false,"rental_uris":{"android":"levelo://app?vid=d07e4532-bcce-41d1-b0bf-1e3106e7ad55","ios":"levelo://app?vid=d07e4532-bcce-41d1-b0bf-1e3106e7ad55"},"vehicle_type_id":"4","last_reported":1700935678,"current_range_meters":14800,"station_id":"ce4bh492rcd13ifvqdvg","pricing_plan_id":"free"},{"bike_id":"9b5c094e-5cb7-40f2-9192-81839deaf755","system_id":"levelo_inurba_marseille","lat":43.280357,"lon":5.369437,"is_reserved":false,"is_disabled":false,"rental_uris":{"android":"levelo://app?vid=9b5c094e-5cb7-40f2-9192-81839deaf755","ios":"levelo://app?vid=9b5c094e-5cb7-40f2-9192-81839deaf755"},"vehicle_type_id":"4","last_reported":1700935678,"current_range_meters":1200,"station_id":"ce4bha12rcd13ifvqef0","pricing_plan_id":"free"},{"bike_id":"d518a33b-6858-4e87-a734-14a892a328e0","system_id":"levelo_inurba_marseille","lat":43.304188,"lon":5.412904,"is_reserved":false,"is_disabled":false,"rental_uris":{"android":"levelo://app?vid=d518a33b-6858-4e87-a734-14a892a328e0","ios":"levelo://app?vid=d518a33b-6858-4e87-a734-14a892a328e0"},"vehicle_type_id":"4","last_reported":1700935678,"current_range_meters":28800,"station_id":"ce4bhop2rcd13ifvqh8g","pricing_plan_id":"free"},{"bike_id":"9fedd3dd-4e80-4824-ac2c-7d42bc0d2622","system_id":"levelo_inurba_marseille","lat":43.279087,"lon":5.380114,"is_reserved":false,"is_disabled":false,"rental_uris":{"android":"levelo://app?vid=9fedd3dd-4e80-4824-ac2c-7d42bc0d2622","ios":"levelo://app?vid=9fedd3dd-4e80-4824-ac2c-7d42bc0d2622"},"vehicle_type_id":"4","last_reported":1700935678,"current_range_meters":31600,"station_id":"ce4bhf92rcd13ifvqf50","pricing_plan_id":"free"},{"bike_id":"363f2ae4-2b32-454f-8f89-76483a2ead65","system_id":"levelo_inurba_marseille","lat":43.299579,"lon":5.413255,"is_reserved":false,"is_disabled":false,"rental_uris":{"android":"levelo://app?vid=363f2ae4-2b32-454f-8f89-76483a2ead65","ios":"levelo://app?vid=363f2ae4-2b32-454f-8f89-76483a2ead65"},"vehicle_type_id":"4","last_reported":1700935678,"current_range_meters":30400,"station_id":"ce4bhp12rcd13ifvqh9g","pricing_plan_id":"free"},{"bike_id":"148bf6e6-31b1-42b1-90d9-9d0fc2b5e707","system_id":"levelo_inurba_marseille","lat":43.292571,"lon":5.409107,"is_reserved":false,"is_disabled":false,"rental_uris":{"android":"levelo://app?vid=148bf6e6-31b1-42b1-90d9-9d0fc2b5e707","ios":"levelo://app?vid=148bf6e6-31b1-42b1-90d9-9d0fc2b5e707"},"vehicle_type_id":"4","last_reported":1700935678,"current_range_meters":12000,"station_id":"ce4bh192rcd13ifvqdc0","pricing_plan_id":"free"},{"bike_id":"d673e698-5bfb-4f59-a57e-ccdd2e9742cc","system_id":"levelo_inurba_marseille","lat":43.325233,"lon":5.414318,"is_reserved":false,"is_disabled":false,"rental_uris":{"android":"levelo://app?vid=d673e698-5bfb-4f59-a57e-ccdd2e9742cc","ios":"levelo://app?vid=d673e698-5bfb-4f59-a57e-ccdd2e9742cc"},"vehicle_type_id":"4","last_reported":1700935678,"current_range_meters":26000,"station_id":"ce4bhq12rcd13ifvqhhg","pricing_plan_id":"free"},{"bike_id":"1239042e-69f0-4305-b7ed-e482ed229840","system_id":"levelo_inurba_marseille","lat":43.325243,"lon":5.414326,"is_reserved":false,"is_disabled":false,"rental_uris":{"android":"levelo://app?vid=1239042e-69f0-4305-b7ed-e482ed229840","ios":"levelo://app?vid=1239042e-69f0-4305-b7ed-e482ed229840"},"vehicle_type_id":"4","last_reported":1700935678,"current_range_meters":31200,"station_id":"ce4bhq12rcd13ifvqhhg","pricing_plan_id":"free"},{"bike_id":"e9333e17-ea63-4942-a642-cb0a1ba22a55","system_id":"levelo_inurba_marseille","lat":43.325243,"lon":5.414326,"is_reserved":false,"is_disabled":false,"rental_uris":{"android":"levelo://app?vid=e9333e17-ea63-4942-a642-cb0a1ba22a55","ios":"levelo://app?vid=e9333e17-ea63-4942-a642-cb0a1ba22a55"},"vehicle_type_id":"4","last_reported":1700935678,"current_range_meters":19600,"station_id":"ce4bhq12rcd13ifvqhhg","pricing_plan_id":"free"},{"bike_id":"a3c6def1-5296-4c7a-9eea-c8d4b330c208","system_id":"levelo_inurba_marseille","lat":43.276179,"lon":5.361009,"is_reserved":false,"is_disabled":false,"rental_uris":{"android":"levelo://app?vid=a3c6def1-5296-4c7a-9eea-c8d4b330c208","ios":"levelo://app?vid=a3c6def1-5296-4c7a-9eea-c8d4b330c208"},"vehicle_type_id":"4","last_reported":1700935678,"current_range_meters":31200,"station_id":"ce4bgj92rcd13ifvqbe0","pricing_plan_id":"free"},{"bike_id":"513098f0-5141-4a34-81d2-2d326258ef02","system_id":"levelo_inurba_marseille","lat":43.27615,"lon":5.3611,"is_reserved":false,"is_disabled":false,"rental_uris":{"android":"levelo://app?vid=513098f0-5141-4a34-81d2-2d326258ef02","ios":"levelo://app?vid=513098f0-5141-4a34-81d2-2d326258ef02"},"vehicle_type_id":"4","last_reported":1700935678,"current_range_meters":31200,"station_id":"ce4bgj92rcd13ifvqbe0","pricing_plan_id":"free"},{"bike_id":"b6bd24e6-943a-4566-9f51-569035dc9592","system_id":"levelo_inurba_marseille","lat":43.325243,"lon":5.414326,"is_reserved":false,"is_disabled":false,"rental_uris":{"android":"levelo://app?vid=b6bd24e6-943a-4566-9f51-569035dc9592","ios":"levelo://app?vid=b6bd24e6-943a-4566-9f51-569035dc9592"},"vehicle_type_id":"4","last_reported":1700935678,"current_range_meters":5200,"station_id":"ce4bhq12rcd13ifvqhhg","pricing_plan_id":"free"},{"bike_id":"85e3b333-2fed-44a5-a314-796a3dd3f66d","system_id":"levelo_inurba_marseille","lat":43.303837,"lon":5.418724,"is_reserved":false,"is_disabled":false,"rental_uris":{"android":"levelo://app?vid=85e3b333-2fed-44a5-a314-796a3dd3f66d","ios":"levelo://app?vid=85e3b333-2fed-44a5-a314-796a3dd3f66d"},"vehicle_type_id":"4","last_reported":1700935678,"current_range_meters":1200,"station_id":"ce4bhop2rcd13ifvqh7g","pricing_plan_id":"free"},{"bike_id":"c25ea147-e804-4786-9d25-91f61a8ed59a","system_id":"levelo_inurba_marseille","lat":43.293651,"lon":5.41268,"is_reserved":false,"is_disabled":false,"rental_uris":{"android":"levelo://app?vid=c25ea147-e804-4786-9d25-91f61a8ed59a","ios":"levelo://app?vid=c25ea147-e804-4786-9d25-91f61a8ed59a"},"vehicle_type_id":"4","last_reported":1700935678,"current_range_meters":0,"station_id":"","pricing_plan_id":"free"},{"bike_id":"9ad360ac-da03-4985-abd3-acecd73c2a42","system_id":"levelo_inurba_marseille","lat":43.280784,"lon":5.396622,"is_reserved":false,"is_disabled":false,"rental_uris":{"android":"levelo://app?vid=9ad360ac-da03-4985-abd3-acecd73c2a42","ios":"levelo://app?vid=9ad360ac-da03-4985-abd3-acecd73c2a42"},"vehicle_type_id":"4","last_reported":1700935678,"current_range_meters":1200,"station_id":"ce4bho12rcd13ifvqh2g","pricing_plan_id":"free"},{"bike_id":"c1264901-743b-411e-bbde-b7f04af7c758","system_id":"levelo_inurba_marseille","lat":43.278399,"lon":5.392139,"is_reserved":false,"is_disabled":false,"rental_uris":{"android":"levelo://app?vid=c1264901-743b-411e-bbde-b7f04af7c758","ios":"levelo://app?vid=c1264901-743b-411e-bbde-b7f04af7c758"},"vehicle_type_id":"4","last_reported":1700935678,"current_range_meters":0,"station_id":"ce4bhjp2rcd13ifvqga0","pricing_plan_id":"free"},{"bike_id":"44a713c1-e816-4c42-a0d6-57ff4dd012b2","system_id":"levelo_inurba_marseille","lat":43.27381,"lon":5.36251,"is_reserved":false,"is_disabled":false,"rental_uris":{"android":"levelo://app?vid=44a713c1-e816-4c42-a0d6-57ff4dd012b2","ios":"levelo://app?vid=44a713c1-e816-4c42-a0d6-57ff4dd012b2"},"vehicle_type_id":"4","last_reported":1700935678,"current_range_meters":9600,"station_id":"ce4bhbh2rcd13ifvqeo0","pricing_plan_id":"free"},{"bike_id":"187ad07c-ed6e-4a83-afdc-2d34d7e6865a","system_id":"levelo_inurba_marseille","lat":43.27374,"lon":5.36259,"is_reserved":false,"is_disabled":false,"rental_uris":{"android":"levelo://app?vid=187ad07c-ed6e-4a83-afdc-2d34d7e6865a","ios":"levelo://app?vid=187ad07c-ed6e-4a83-afdc-2d34d7e6865a"},"vehicle_type_id":"4","last_reported":1700935678,"current_range_meters":29200,"station_id":"ce4bhbh2rcd13ifvqeo0","pricing_plan_id":"free"},{"bike_id":"5149be3d-2b36-44e5-89c7-9bd4907e6e71","system_id":"levelo_inurba_marseille","lat":43.276769,"lon":5.388787,"is_reserved":false,"is_disabled":false,"rental_uris":{"android":"levelo://app?vid=5149be3d-2b36-44e5-89c7-9bd4907e6e71","ios":"levelo://app?vid=5149be3d-2b36-44e5-89c7-9bd4907e6e71"},"vehicle_type_id":"4","last_reported":1700935678,"current_range_meters":12400,"station_id":"ce4bhi12rcd13ifvqfo0","pricing_plan_id":"free"},{"bike_id":"22faf779-9272-487d-b08d-72aa863dda96","system_id":"levelo_inurba_marseille","lat":43.336148,"lon":5.410349,"is_reserved":false,"is_disabled":false,"rental_uris":{"android":"levelo://app?vid=22faf779-9272-487d-b08d-72aa863dda96","ios":"levelo://app?vid=22faf779-9272-487d-b08d-72aa863dda96"},"vehicle_type_id":"4","last_reported":1700935678,"current_range_meters":7600,"station_id":"ce4bhqh2rcd13ifvqhmg","pricing_plan_id":"free"},{"bike_id":"0fbf5b58-7ce4-4115-b285-fee12726188f","system_id":"levelo_inurba_marseille","lat":43.336156,"lon":5.410377,"is_reserved":false,"is_disabled":false,"rental_uris":{"android":"levelo://app?vid=0fbf5b58-7ce4-4115-b285-fee12726188f","ios":"levelo://app?vid=0fbf5b58-7ce4-4115-b285-fee12726188f"},"vehicle_type_id":"4","last_reported":1700935678,"current_range_meters":12400,"station_id":"ce4bhqh2rcd13ifvqhmg","pricing_plan_id":"free"},{"bike_id":"561d56c0-616a-4955-bd15-b0e0ddd3d6ba","system_id":"levelo_inurba_marseille","lat":43.279952,"lon":5.400085,"is_reserved":false,"is_disabled":false,"rental_uris":{"android":"levelo://app?vid=561d56c0-616a-4955-bd15-b0e0ddd3d6ba","ios":"levelo://app?vid=561d56c0-616a-4955-bd15-b0e0ddd3d6ba"},"vehicle_type_id":"4","last_reported":1700935678,"current_range_meters":31200,"station_id":"ce4bho92rcd13ifvqh4g","pricing_plan_id":"free"},{"bike_id":"0d2fdf3b-3e3c-4c40-a998-3277124b880b","system_id":"levelo_inurba_marseille","lat":43.310785,"lon":5.424305,"is_reserved":false,"is_disabled":false,"rental_uris":{"android":"levelo://app?vid=0d2fdf3b-3e3c-4c40-a998-3277124b880b","ios":"levelo://app?vid=0d2fdf3b-3e3c-4c40-a998-3277124b880b"},"vehicle_type_id":"4","last_reported":1700935678,"current_range_meters":9600,"station_id":"ce4bhp92rcd13ifvqhag","pricing_plan_id":"free"},{"bike_id":"60395232-e532-4f5a-ae3e-52a22da3b50f","system_id":"levelo_inurba_marseille","lat":43.3108,"lon":5.42432,"is_reserved":false,"is_disabled":false,"rental_uris":{"android":"levelo://app?vid=60395232-e532-4f5a-ae3e-52a22da3b50f","ios":"levelo://app?vid=60395232-e532-4f5a-ae3e-52a22da3b50f"},"vehicle_type_id":"4","last_reported":1700935678,"current_range_meters":6800,"station_id":"ce4bhp92rcd13ifvqhag","pricing_plan_id":"free"},{"bike_id":"5129acc1-7977-4d29-8689-fece97171c5b","system_id":"levelo_inurba_marseille","lat":43.310785,"lon":5.424305,"is_reserved":false,"is_disabled":false,"rental_uris":{"android":"levelo://app?vid=5129acc1-7977-4d29-8689-fece97171c5b","ios":"levelo://app?vid=5129acc1-7977-4d29-8689-fece97171c5b"},"vehicle_type_id":"4","last_reported":1700935678,"current_range_meters":31600,"station_id":"ce4bhp92rcd13ifvqhag","pricing_plan_id":"free"},{"bike_id":"7ba977ce-0087-4dee-82ff-b614665402c3","system_id":"levelo_inurba_marseille","lat":43.310785,"lon":5.424305,"is_reserved":false,"is_disabled":false,"rental_uris":{"android":"levelo://app?vid=7ba977ce-0087-4dee-82ff-b614665402c3","ios":"levelo://app?vid=7ba977ce-0087-4dee-82ff-b614665402c3"},"vehicle_type_id":"4","last_reported":1700935678,"current_range_meters":9200,"station_id":"ce4bhp92rcd13ifvqhag","pricing_plan_id":"free"},{"bike_id":"96bd4e5b-6890-4ffe-bf3c-54b4c213950e","system_id":"levelo_inurba_marseille","lat":43.340804,"lon":5.410219,"is_reserved":false,"is_disabled":false,"rental_uris":{"android":"levelo://app?vid=96bd4e5b-6890-4ffe-bf3c-54b4c213950e","ios":"levelo://app?vid=96bd4e5b-6890-4ffe-bf3c-54b4c213950e"},"vehicle_type_id":"4","last_reported":1700935678,"current_range_meters":8000,"station_id":"ce4bhqh2rcd13ifvqhlg","pricing_plan_id":"free"},{"bike_id":"58a74f2c-3205-4aed-bf2c-a4151057b68d","system_id":"levelo_inurba_marseille","lat":43.295523,"lon":5.422926,"is_reserved":false,"is_disabled":false,"rental_uris":{"android":"levelo://app?vid=58a74f2c-3205-4aed-bf2c-a4151057b68d","ios":"levelo://app?vid=58a74f2c-3205-4aed-bf2c-a4151057b68d"},"vehicle_type_id":"4","last_reported":1700935678,"current_range_meters":23600,"station_id":"ce4bhph2rcd13ifvqhdg","pricing_plan_id":"free"},{"bike_id":"0c5fe61a-15d7-4bdf-8560-e838ed8fc746","system_id":"levelo_inurba_marseille","lat":43.295523,"lon":5.422926,"is_reserved":false,"is_disabled":false,"rental_uris":{"android":"levelo://app?vid=0c5fe61a-15d7-4bdf-8560-e838ed8fc746","ios":"levelo://app?vid=0c5fe61a-15d7-4bdf-8560-e838ed8fc746"},"vehicle_type_id":"4","last_reported":1700935678,"current_range_meters":10400,"station_id":"ce4bhph2rcd13ifvqhdg","pricing_plan_id":"free"},{"bike_id":"38b0935b-8900-4344-b464-266fcbed3664","system_id":"levelo_inurba_marseille","lat":43.272116,"lon":5.391747,"is_reserved":false,"is_disabled":false,"rental_uris":{"android":"levelo://app?vid=38b0935b-8900-4344-b464-266fcbed3664","ios":"levelo://app?vid=38b0935b-8900-4344-b464-266fcbed3664"},"vehicle_type_id":"4","last_reported":1700935678,"current_range_meters":800,"station_id":"ce4bhhp2rcd13ifvqfm0","pricing_plan_id":"free"},{"bike_id":"7109feb0-a723-4820-9abd-aab9b6f84b1f","system_id":"levelo_inurba_marseille","lat":43.272116,"lon":5.391747,"is_reserved":false,"is_disabled":false,"rental_uris":{"android":"levelo://app?vid=7109feb0-a723-4820-9abd-aab9b6f84b1f","ios":"levelo://app?vid=7109feb0-a723-4820-9abd-aab9b6f84b1f"},"vehicle_type_id":"4","last_reported":1700935678,"current_range_meters":13200,"station_id":"ce4bhhp2rcd13ifvqfm0","pricing_plan_id":"free"},{"bike_id":"d9526b91-3dea-4518-9028-9f98663d5e47","system_id":"levelo_inurba_marseille","lat":43.272116,"lon":5.391747,"is_reserved":false,"is_disabled":false,"rental_uris":{"android":"levelo://app?vid=d9526b91-3dea-4518-9028-9f98663d5e47","ios":"levelo://app?vid=d9526b91-3dea-4518-9028-9f98663d5e47"},"vehicle_type_id":"4","last_reported":1700935678,"current_range_meters":8000,"station_id":"ce4bhhp2rcd13ifvqfm0","pricing_plan_id":"free"},{"bike_id":"f40dea9a-b6bb-4f41-bc88-00a48f1a9d4a","system_id":"levelo_inurba_marseille","lat":43.278128,"lon":5.407195,"is_reserved":false,"is_disabled":false,"rental_uris":{"android":"levelo://app?vid=f40dea9a-b6bb-4f41-bc88-00a48f1a9d4a","ios":"levelo://app?vid=f40dea9a-b6bb-4f41-bc88-00a48f1a9d4a"},"vehicle_type_id":"4","last_reported":1700935678,"current_range_meters":4000,"station_id":"ce4bhnh2rcd13ifvqgtg","pricing_plan_id":"free"},{"bike_id":"8e0adddc-105c-4531-815e-23ec430a1b4c","system_id":"levelo_inurba_marseille","lat":43.269467,"lon":5.386439,"is_reserved":false,"is_disabled":false,"rental_uris":{"android":"levelo://app?vid=8e0adddc-105c-4531-815e-23ec430a1b4c","ios":"levelo://app?vid=8e0adddc-105c-4531-815e-23ec430a1b4c"},"vehicle_type_id":"4","last_reported":1700935678,"current_range_meters":16000,"station_id":"ce4bhh92rcd13ifvqfh0","pricing_plan_id":"free"},{"bike_id":"795dc62e-0507-4bcb-950a-722cb95abe41","system_id":"levelo_inurba_marseille","lat":43.27944,"lon":5.41047,"is_reserved":false,"is_disabled":false,"rental_uris":{"android":"levelo://app?vid=795dc62e-0507-4bcb-950a-722cb95abe41","ios":"levelo://app?vid=795dc62e-0507-4bcb-950a-722cb95abe41"},"vehicle_type_id":"4","last_reported":1700935678,"current_range_meters":11600,"station_id":"ce4bhnp2rcd13ifvqh0g","pricing_plan_id":"free"},{"bike_id":"f3f75a82-6655-436f-bf27-30af7fda7b8f","system_id":"levelo_inurba_marseille","lat":43.269319,"lon":5.389397,"is_reserved":false,"is_disabled":false,"rental_uris":{"android":"levelo://app?vid=f3f75a82-6655-436f-bf27-30af7fda7b8f","ios":"levelo://app?vid=f3f75a82-6655-436f-bf27-30af7fda7b8f"},"vehicle_type_id":"4","last_reported":1700935678,"current_range_meters":16000,"station_id":"ce4bhhh2rcd13ifvqfl0","pricing_plan_id":"free"},{"bike_id":"f23d8119-b478-4639-98c5-6883279f9f84","system_id":"levelo_inurba_marseille","lat":43.32592,"lon":5.43067,"is_reserved":false,"is_disabled":false,"rental_uris":{"android":"levelo://app?vid=f23d8119-b478-4639-98c5-6883279f9f84","ios":"levelo://app?vid=f23d8119-b478-4639-98c5-6883279f9f84"},"vehicle_type_id":"4","last_reported":1700935678,"current_range_meters":26000,"station_id":"","pricing_plan_id":"free"},{"bike_id":"e7b368e8-9edf-4ac8-acef-7e9558d427aa","system_id":"levelo_inurba_marseille","lat":43.32591,"lon":5.430713,"is_reserved":false,"is_disabled":false,"rental_uris":{"android":"levelo://app?vid=e7b368e8-9edf-4ac8-acef-7e9558d427aa","ios":"levelo://app?vid=e7b368e8-9edf-4ac8-acef-7e9558d427aa"},"vehicle_type_id":"4","last_reported":1700935678,"current_range_meters":0,"station_id":"","pricing_plan_id":"free"},{"bike_id":"ed30d6a1-b23a-49e5-9c83-5546be72a734","system_id":"levelo_inurba_marseille","lat":43.3259,"lon":5.43075,"is_reserved":false,"is_disabled":false,"rental_uris":{"android":"levelo://app?vid=ed30d6a1-b23a-49e5-9c83-5546be72a734","ios":"levelo://app?vid=ed30d6a1-b23a-49e5-9c83-5546be72a734"},"vehicle_type_id":"4","last_reported":1700935678,"current_range_meters":20800,"station_id":"","pricing_plan_id":"free"},{"bike_id":"d67469ee-5362-4610-a163-fe05ae3cf4f7","system_id":"levelo_inurba_marseille","lat":43.32604,"lon":5.430817,"is_reserved":false,"is_disabled":false,"rental_uris":{"android":"levelo://app?vid=d67469ee-5362-4610-a163-fe05ae3cf4f7","ios":"levelo://app?vid=d67469ee-5362-4610-a163-fe05ae3cf4f7"},"vehicle_type_id":"4","last_reported":1700935678,"current_range_meters":9200,"station_id":"","pricing_plan_id":"free"},{"bike_id":"fcbb4526-6dcb-4df8-819f-57d63d616da0","system_id":"levelo_inurba_marseille","lat":43.265714,"lon":5.372891,"is_reserved":false,"is_disabled":false,"rental_uris":{"android":"levelo://app?vid=fcbb4526-6dcb-4df8-819f-57d63d616da0","ios":"levelo://app?vid=fcbb4526-6dcb-4df8-819f-57d63d616da0"},"vehicle_type_id":"4","last_reported":1700935678,"current_range_meters":800,"station_id":"ce4bhg12rcd13ifvqf70","pricing_plan_id":"free"},{"bike_id":"2b5f0b27-ae58-4e9e-bd76-c585f78e8a73","system_id":"levelo_inurba_marseille","lat":43.26386,"lon":5.37454,"is_reserved":false,"is_disabled":false,"rental_uris":{"android":"levelo://app?vid=2b5f0b27-ae58-4e9e-bd76-c585f78e8a73","ios":"levelo://app?vid=2b5f0b27-ae58-4e9e-bd76-c585f78e8a73"},"vehicle_type_id":"4","last_reported":1700935678,"current_range_meters":10000,"station_id":"","pricing_plan_id":"free"},{"bike_id":"1707061b-961c-4d82-8d32-b0dee254d33c","system_id":"levelo_inurba_marseille","lat":43.265674,"lon":5.390112,"is_reserved":false,"is_disabled":false,"rental_uris":{"android":"levelo://app?vid=1707061b-961c-4d82-8d32-b0dee254d33c","ios":"levelo://app?vid=1707061b-961c-4d82-8d32-b0dee254d33c"},"vehicle_type_id":"4","last_reported":1700935678,"current_range_meters":14800,"station_id":"ce4bhe12rcd13ifvqf30","pricing_plan_id":"free"},{"bike_id":"a557bc3e-6255-419b-8a70-ddf4b9c79f66","system_id":"levelo_inurba_marseille","lat":43.317104,"lon":5.436818,"is_reserved":false,"is_disabled":false,"rental_uris":{"android":"levelo://app?vid=a557bc3e-6255-419b-8a70-ddf4b9c79f66","ios":"levelo://app?vid=a557bc3e-6255-419b-8a70-ddf4b9c79f66"},"vehicle_type_id":"4","last_reported":1700935678,"current_range_meters":3200,"station_id":"ce4bhp92rcd13ifvqhcg","pricing_plan_id":"free"},{"bike_id":"1a0511eb-9e33-461b-89a6-4ba2f1f430d7","system_id":"levelo_inurba_marseille","lat":43.317104,"lon":5.436818,"is_reserved":false,"is_disabled":false,"rental_uris":{"android":"levelo://app?vid=1a0511eb-9e33-461b-89a6-4ba2f1f430d7","ios":"levelo://app?vid=1a0511eb-9e33-461b-89a6-4ba2f1f430d7"},"vehicle_type_id":"4","last_reported":1700935678,"current_range_meters":18000,"station_id":"ce4bhp92rcd13ifvqhcg","pricing_plan_id":"free"},{"bike_id":"7f6bc14c-609a-459f-ad90-3c8e55a66b7b","system_id":"levelo_inurba_marseille","lat":43.317104,"lon":5.436818,"is_reserved":false,"is_disabled":false,"rental_uris":{"android":"levelo://app?vid=7f6bc14c-609a-459f-ad90-3c8e55a66b7b","ios":"levelo://app?vid=7f6bc14c-609a-459f-ad90-3c8e55a66b7b"},"vehicle_type_id":"4","last_reported":1700935678,"current_range_meters":12400,"station_id":"ce4bhp92rcd13ifvqhcg","pricing_plan_id":"free"},{"bike_id":"345d3c3d-5215-44d7-a610-0848b0e8b817","system_id":"levelo_inurba_marseille","lat":43.317104,"lon":5.436818,"is_reserved":false,"is_disabled":false,"rental_uris":{"android":"levelo://app?vid=345d3c3d-5215-44d7-a610-0848b0e8b817","ios":"levelo://app?vid=345d3c3d-5215-44d7-a610-0848b0e8b817"},"vehicle_type_id":"4","last_reported":1700935678,"current_range_meters":4400,"station_id":"ce4bhp92rcd13ifvqhcg","pricing_plan_id":"free"},{"bike_id":"55861d20-03e8-4416-8d73-55fb2140610b","system_id":"levelo_inurba_marseille","lat":43.317104,"lon":5.436818,"is_reserved":false,"is_disabled":false,"rental_uris":{"android":"levelo://app?vid=55861d20-03e8-4416-8d73-55fb2140610b","ios":"levelo://app?vid=55861d20-03e8-4416-8d73-55fb2140610b"},"vehicle_type_id":"4","last_reported":1700935678,"current_range_meters":22400,"station_id":"ce4bhp92rcd13ifvqhcg","pricing_plan_id":"free"},{"bike_id":"ec593df7-85d2-4a7c-a892-75fec147bf75","system_id":"levelo_inurba_marseille","lat":43.317104,"lon":5.436818,"is_reserved":false,"is_disabled":false,"rental_uris":{"android":"levelo://app?vid=ec593df7-85d2-4a7c-a892-75fec147bf75","ios":"levelo://app?vid=ec593df7-85d2-4a7c-a892-75fec147bf75"},"vehicle_type_id":"4","last_reported":1700935678,"current_range_meters":1600,"station_id":"ce4bhp92rcd13ifvqhcg","pricing_plan_id":"free"},{"bike_id":"3956c5a5-3649-495a-8ec0-33e0ca13e954","system_id":"levelo_inurba_marseille","lat":43.271388,"lon":5.409269,"is_reserved":false,"is_disabled":false,"rental_uris":{"android":"levelo://app?vid=3956c5a5-3649-495a-8ec0-33e0ca13e954","ios":"levelo://app?vid=3956c5a5-3649-495a-8ec0-33e0ca13e954"},"vehicle_type_id":"4","last_reported":1700935678,"current_range_meters":24000,"station_id":"ce4bhl12rcd13ifvqgf0","pricing_plan_id":"free"},{"bike_id":"d33ff373-472b-4acc-9928-25c5b0a30ee3","system_id":"levelo_inurba_marseille","lat":43.271368,"lon":5.40928,"is_reserved":false,"is_disabled":false,"rental_uris":{"android":"levelo://app?vid=d33ff373-472b-4acc-9928-25c5b0a30ee3","ios":"levelo://app?vid=d33ff373-472b-4acc-9928-25c5b0a30ee3"},"vehicle_type_id":"4","last_reported":1700935678,"current_range_meters":27600,"station_id":"ce4bhl12rcd13ifvqgf0","pricing_plan_id":"free"},{"bike_id":"a46d2e94-fed9-4805-a084-2df61973c678","system_id":"levelo_inurba_marseille","lat":43.267959,"lon":5.402687,"is_reserved":false,"is_disabled":false,"rental_uris":{"android":"levelo://app?vid=a46d2e94-fed9-4805-a084-2df61973c678","ios":"levelo://app?vid=a46d2e94-fed9-4805-a084-2df61973c678"},"vehicle_type_id":"4","last_reported":1700935678,"current_range_meters":2800,"station_id":"ce501612rcd8frsf0b60","pricing_plan_id":"free"},{"bike_id":"dbf62bfb-d43b-46dc-b301-0e9e00d707fe","system_id":"levelo_inurba_marseille","lat":43.261745,"lon":5.379016,"is_reserved":false,"is_disabled":false,"rental_uris":{"android":"levelo://app?vid=dbf62bfb-d43b-46dc-b301-0e9e00d707fe","ios":"levelo://app?vid=dbf62bfb-d43b-46dc-b301-0e9e00d707fe"},"vehicle_type_id":"4","last_reported":1700935678,"current_range_meters":27600,"station_id":"ce4bhjp2rcd13ifvqg90","pricing_plan_id":"free"},{"bike_id":"7c5a83ac-336c-4b91-a5ea-82b3c6d6127d","system_id":"levelo_inurba_marseille","lat":43.298768,"lon":5.43643,"is_reserved":false,"is_disabled":false,"rental_uris":{"android":"levelo://app?vid=7c5a83ac-336c-4b91-a5ea-82b3c6d6127d","ios":"levelo://app?vid=7c5a83ac-336c-4b91-a5ea-82b3c6d6127d"},"vehicle_type_id":"4","last_reported":1700935678,"current_range_meters":31600,"station_id":"ce4bhpp2rcd13ifvqhfg","pricing_plan_id":"free"},{"bike_id":"d24921c1-8c61-4b91-941a-2e11a6ed2b73","system_id":"levelo_inurba_marseille","lat":43.29896,"lon":5.43663,"is_reserved":false,"is_disabled":false,"rental_uris":{"android":"levelo://app?vid=d24921c1-8c61-4b91-941a-2e11a6ed2b73","ios":"levelo://app?vid=d24921c1-8c61-4b91-941a-2e11a6ed2b73"},"vehicle_type_id":"4","last_reported":1700935678,"current_range_meters":10400,"station_id":"ce4bhpp2rcd13ifvqhfg","pricing_plan_id":"free"},{"bike_id":"8af0d2ed-93d1-485d-9803-40c71e52d0d9","system_id":"levelo_inurba_marseille","lat":43.29901,"lon":5.43672,"is_reserved":false,"is_disabled":false,"rental_uris":{"android":"levelo://app?vid=8af0d2ed-93d1-485d-9803-40c71e52d0d9","ios":"levelo://app?vid=8af0d2ed-93d1-485d-9803-40c71e52d0d9"},"vehicle_type_id":"4","last_reported":1700935678,"current_range_meters":12800,"station_id":"ce4bhpp2rcd13ifvqhfg","pricing_plan_id":"free"},{"bike_id":"f4ae1f01-3360-4018-8549-947206677757","system_id":"levelo_inurba_marseille","lat":43.260225,"lon":5.375455,"is_reserved":false,"is_disabled":false,"rental_uris":{"android":"levelo://app?vid=f4ae1f01-3360-4018-8549-947206677757","ios":"levelo://app?vid=f4ae1f01-3360-4018-8549-947206677757"},"vehicle_type_id":"4","last_reported":1700935678,"current_range_meters":24000,"station_id":"ce4bhgh2rcd13ifvqfa0","pricing_plan_id":"free"},{"bike_id":"a789859e-8932-4b6d-a368-a61af31d90fc","system_id":"levelo_inurba_marseille","lat":43.28152,"lon":5.42635,"is_reserved":false,"is_disabled":false,"rental_uris":{"android":"levelo://app?vid=a789859e-8932-4b6d-a368-a61af31d90fc","ios":"levelo://app?vid=a789859e-8932-4b6d-a368-a61af31d90fc"},"vehicle_type_id":"4","last_reported":1700935678,"current_range_meters":27200,"station_id":"ce4bhnh2rcd13ifvqgug","pricing_plan_id":"free"},{"bike_id":"ea3d587d-1596-4a3c-8057-92e9aa5ec388","system_id":"levelo_inurba_marseille","lat":43.260912,"lon":5.397584,"is_reserved":false,"is_disabled":false,"rental_uris":{"android":"levelo://app?vid=ea3d587d-1596-4a3c-8057-92e9aa5ec388","ios":"levelo://app?vid=ea3d587d-1596-4a3c-8057-92e9aa5ec388"},"vehicle_type_id":"4","last_reported":1700935678,"current_range_meters":27600,"station_id":"ce4bhi12rcd13ifvqfq0","pricing_plan_id":"free"},{"bike_id":"818d02cb-15f6-4883-aa99-3e8da5989127","system_id":"levelo_inurba_marseille","lat":43.265571,"lon":5.390032,"is_reserved":false,"is_disabled":false,"rental_uris":{"android":"levelo://app?vid=818d02cb-15f6-4883-aa99-3e8da5989127","ios":"levelo://app?vid=818d02cb-15f6-4883-aa99-3e8da5989127"},"vehicle_type_id":"4","last_reported":1700935678,"current_range_meters":12400,"station_id":"ce4bhe12rcd13ifvqf30","pricing_plan_id":"free"},{"bike_id":"5536b3fd-ec28-4e42-9476-c3ce950b0825","system_id":"levelo_inurba_marseille","lat":43.261927,"lon":5.402572,"is_reserved":false,"is_disabled":false,"rental_uris":{"android":"levelo://app?vid=5536b3fd-ec28-4e42-9476-c3ce950b0825","ios":"levelo://app?vid=5536b3fd-ec28-4e42-9476-c3ce950b0825"},"vehicle_type_id":"4","last_reported":1700935678,"current_range_meters":1200,"station_id":"ce4bhm92rcd13ifvqglg","pricing_plan_id":"free"},{"bike_id":"c85f7616-3a9e-47a4-ae16-28a03e51ab4f","system_id":"levelo_inurba_marseille","lat":43.28933,"lon":5.438662,"is_reserved":false,"is_disabled":false,"rental_uris":{"android":"levelo://app?vid=c85f7616-3a9e-47a4-ae16-28a03e51ab4f","ios":"levelo://app?vid=c85f7616-3a9e-47a4-ae16-28a03e51ab4f"},"vehicle_type_id":"4","last_reported":1700935678,"current_range_meters":6800,"station_id":"","pricing_plan_id":"free"},{"bike_id":"d59cb47c-7edd-4152-bced-316183d15e10","system_id":"levelo_inurba_marseille","lat":43.25576,"lon":5.382333,"is_reserved":false,"is_disabled":false,"rental_uris":{"android":"levelo://app?vid=d59cb47c-7edd-4152-bced-316183d15e10","ios":"levelo://app?vid=d59cb47c-7edd-4152-bced-316183d15e10"},"vehicle_type_id":"4","last_reported":1700935678,"current_range_meters":0,"station_id":"ce4bhih2rcd13ifvqfs0","pricing_plan_id":"free"},{"bike_id":"0a00c029-d623-4912-ae35-fdb6b32b0399","system_id":"levelo_inurba_marseille","lat":43.258224,"lon":5.394369,"is_reserved":false,"is_disabled":false,"rental_uris":{"android":"levelo://app?vid=0a00c029-d623-4912-ae35-fdb6b32b0399","ios":"levelo://app?vid=0a00c029-d623-4912-ae35-fdb6b32b0399"},"vehicle_type_id":"4","last_reported":1700935678,"current_range_meters":30400,"station_id":"ce4bhip2rcd13ifvqft0","pricing_plan_id":"free"},{"bike_id":"fab89978-062b-4dbd-b11c-d8e5cf6e9286","system_id":"levelo_inurba_marseille","lat":43.258224,"lon":5.394369,"is_reserved":false,"is_disabled":false,"rental_uris":{"android":"levelo://app?vid=fab89978-062b-4dbd-b11c-d8e5cf6e9286","ios":"levelo://app?vid=fab89978-062b-4dbd-b11c-d8e5cf6e9286"},"vehicle_type_id":"4","last_reported":1700935678,"current_range_meters":31200,"station_id":"ce4bhip2rcd13ifvqft0","pricing_plan_id":"free"},{"bike_id":"19308474-3fe3-47a6-8c0a-d2c4b9988e8d","system_id":"levelo_inurba_marseille","lat":43.254947,"lon":5.376454,"is_reserved":false,"is_disabled":false,"rental_uris":{"android":"levelo://app?vid=19308474-3fe3-47a6-8c0a-d2c4b9988e8d","ios":"levelo://app?vid=19308474-3fe3-47a6-8c0a-d2c4b9988e8d"},"vehicle_type_id":"4","last_reported":1700935678,"current_range_meters":6000,"station_id":"ce4bhh12rcd13ifvqff0","pricing_plan_id":"free"},{"bike_id":"e06a8c78-4d48-491c-8072-84514714cbe8","system_id":"levelo_inurba_marseille","lat":43.270721,"lon":5.422764,"is_reserved":false,"is_disabled":false,"rental_uris":{"android":"levelo://app?vid=e06a8c78-4d48-491c-8072-84514714cbe8","ios":"levelo://app?vid=e06a8c78-4d48-491c-8072-84514714cbe8"},"vehicle_type_id":"4","last_reported":1700935678,"current_range_meters":30400,"station_id":"ce4bhk92rcd13ifvqgb0","pricing_plan_id":"free"},{"bike_id":"4cfac247-14e5-4410-998d-ba794f01b9d9","system_id":"levelo_inurba_marseille","lat":43.259013,"lon":5.409301,"is_reserved":false,"is_disabled":false,"rental_uris":{"android":"levelo://app?vid=4cfac247-14e5-4410-998d-ba794f01b9d9","ios":"levelo://app?vid=4cfac247-14e5-4410-998d-ba794f01b9d9"},"vehicle_type_id":"4","last_reported":1700935678,"current_range_meters":5200,"station_id":"ce4bhm92rcd13ifvqglg","pricing_plan_id":"free"},{"bike_id":"76f36148-5dd9-400b-baa8-9aa3b229b966","system_id":"levelo_inurba_marseille","lat":43.250009,"lon":5.389195,"is_reserved":false,"is_disabled":false,"rental_uris":{"android":"levelo://app?vid=76f36148-5dd9-400b-baa8-9aa3b229b966","ios":"levelo://app?vid=76f36148-5dd9-400b-baa8-9aa3b229b966"},"vehicle_type_id":"4","last_reported":1700935678,"current_range_meters":28400,"station_id":"ce4bhgp2rcd13ifvqfd0","pricing_plan_id":"free"},{"bike_id":"02d75adc-1043-49bf-8a92-cc2e66fe63fc","system_id":"levelo_inurba_marseille","lat":43.24806,"lon":5.37459,"is_reserved":false,"is_disabled":false,"rental_uris":{"android":"levelo://app?vid=02d75adc-1043-49bf-8a92-cc2e66fe63fc","ios":"levelo://app?vid=02d75adc-1043-49bf-8a92-cc2e66fe63fc"},"vehicle_type_id":"4","last_reported":1700935678,"current_range_meters":12800,"station_id":"ce4bhgh2rcd13ifvqfb0","pricing_plan_id":"free"},{"bike_id":"4718b3d7-4847-4237-a22f-3d52e449c36d","system_id":"levelo_inurba_marseille","lat":43.250897,"lon":5.395161,"is_reserved":false,"is_disabled":false,"rental_uris":{"android":"levelo://app?vid=4718b3d7-4847-4237-a22f-3d52e449c36d","ios":"levelo://app?vid=4718b3d7-4847-4237-a22f-3d52e449c36d"},"vehicle_type_id":"4","last_reported":1700935678,"current_range_meters":27200,"station_id":"ce4bhm12rcd13ifvqgkg","pricing_plan_id":"free"},{"bike_id":"4e22f755-9fb8-454a-aed8-0ce31691dc80","system_id":"levelo_inurba_marseille","lat":43.2473,"lon":5.37395,"is_reserved":false,"is_disabled":false,"rental_uris":{"android":"levelo://app?vid=4e22f755-9fb8-454a-aed8-0ce31691dc80","ios":"levelo://app?vid=4e22f755-9fb8-454a-aed8-0ce31691dc80"},"vehicle_type_id":"4","last_reported":1700935678,"current_range_meters":18400,"station_id":"","pricing_plan_id":"free"},{"bike_id":"0317d6ae-40ea-485c-8ac1-17cc21825d16","system_id":"levelo_inurba_marseille","lat":43.24693,"lon":5.382096,"is_reserved":false,"is_disabled":false,"rental_uris":{"android":"levelo://app?vid=0317d6ae-40ea-485c-8ac1-17cc21825d16","ios":"levelo://app?vid=0317d6ae-40ea-485c-8ac1-17cc21825d16"},"vehicle_type_id":"4","last_reported":1700935678,"current_range_meters":28400,"station_id":"ce4bhih2rcd13ifvqfr0","pricing_plan_id":"free"},{"bike_id":"2645cd39-512e-4061-b025-45f27893a23b","system_id":"levelo_inurba_marseille","lat":43.24664,"lon":5.38155,"is_reserved":false,"is_disabled":false,"rental_uris":{"android":"levelo://app?vid=2645cd39-512e-4061-b025-45f27893a23b","ios":"levelo://app?vid=2645cd39-512e-4061-b025-45f27893a23b"},"vehicle_type_id":"4","last_reported":1700935678,"current_range_meters":30800,"station_id":"ce4bhih2rcd13ifvqfr0","pricing_plan_id":"free"},{"bike_id":"87ff915b-29fb-4bc7-91d3-7ec47997a8c4","system_id":"levelo_inurba_marseille","lat":43.24693,"lon":5.382096,"is_reserved":false,"is_disabled":false,"rental_uris":{"android":"levelo://app?vid=87ff915b-29fb-4bc7-91d3-7ec47997a8c4","ios":"levelo://app?vid=87ff915b-29fb-4bc7-91d3-7ec47997a8c4"},"vehicle_type_id":"4","last_reported":1700935678,"current_range_meters":7200,"station_id":"ce4bhih2rcd13ifvqfr0","pricing_plan_id":"free"},{"bike_id":"0c05ab02-3487-4f78-9bd6-e664a5c59f38","system_id":"levelo_inurba_marseille","lat":43.24659,"lon":5.38159,"is_reserved":false,"is_disabled":false,"rental_uris":{"android":"levelo://app?vid=0c05ab02-3487-4f78-9bd6-e664a5c59f38","ios":"levelo://app?vid=0c05ab02-3487-4f78-9bd6-e664a5c59f38"},"vehicle_type_id":"4","last_reported":1700935678,"current_range_meters":13200,"station_id":"ce4bhih2rcd13ifvqfr0","pricing_plan_id":"free"},{"bike_id":"89d68731-0397-4e67-9663-f87b816042c2","system_id":"levelo_inurba_marseille","lat":43.251109,"lon":5.403188,"is_reserved":false,"is_disabled":false,"rental_uris":{"android":"levelo://app?vid=89d68731-0397-4e67-9663-f87b816042c2","ios":"levelo://app?vid=89d68731-0397-4e67-9663-f87b816042c2"},"vehicle_type_id":"4","last_reported":1700935678,"current_range_meters":12800,"station_id":"ce4bhlh2rcd13ifvqgig","pricing_plan_id":"free"},{"bike_id":"66b45b62-39af-4137-be82-465bb93aeaf7","system_id":"levelo_inurba_marseille","lat":43.25112,"lon":5.40323,"is_reserved":false,"is_disabled":false,"rental_uris":{"android":"levelo://app?vid=66b45b62-39af-4137-be82-465bb93aeaf7","ios":"levelo://app?vid=66b45b62-39af-4137-be82-465bb93aeaf7"},"vehicle_type_id":"4","last_reported":1700935678,"current_range_meters":3600,"station_id":"ce4bhlh2rcd13ifvqgig","pricing_plan_id":"free"},{"bike_id":"4754d520-6d94-4ceb-b936-c49fc9af26ed","system_id":"levelo_inurba_marseille","lat":43.2511,"lon":5.40326,"is_reserved":false,"is_disabled":false,"rental_uris":{"android":"levelo://app?vid=4754d520-6d94-4ceb-b936-c49fc9af26ed","ios":"levelo://app?vid=4754d520-6d94-4ceb-b936-c49fc9af26ed"},"vehicle_type_id":"4","last_reported":1700935678,"current_range_meters":0,"station_id":"ce4bhlh2rcd13ifvqgig","pricing_plan_id":"free"},{"bike_id":"16cbc471-e842-49b7-be91-1309994883e2","system_id":"levelo_inurba_marseille","lat":43.246428,"lon":5.388972,"is_reserved":false,"is_disabled":false,"rental_uris":{"android":"levelo://app?vid=16cbc471-e842-49b7-be91-1309994883e2","ios":"levelo://app?vid=16cbc471-e842-49b7-be91-1309994883e2"},"vehicle_type_id":"4","last_reported":1700935678,"current_range_meters":25200,"station_id":"ce4bhg12rcd13ifvqf60","pricing_plan_id":"free"},{"bike_id":"cc04dfcb-5bc4-482d-bd7c-dbab351ae3b2","system_id":"levelo_inurba_marseille","lat":43.243884,"lon":5.370737,"is_reserved":false,"is_disabled":false,"rental_uris":{"android":"levelo://app?vid=cc04dfcb-5bc4-482d-bd7c-dbab351ae3b2","ios":"levelo://app?vid=cc04dfcb-5bc4-482d-bd7c-dbab351ae3b2"},"vehicle_type_id":"4","last_reported":1700935678,"current_range_meters":20000,"station_id":"ce4bhhh2rcd13ifvqfk0","pricing_plan_id":"free"},{"bike_id":"3a80e295-c002-4f0a-b7c9-49f35da52fbf","system_id":"levelo_inurba_marseille","lat":43.243884,"lon":5.370737,"is_reserved":false,"is_disabled":false,"rental_uris":{"android":"levelo://app?vid=3a80e295-c002-4f0a-b7c9-49f35da52fbf","ios":"levelo://app?vid=3a80e295-c002-4f0a-b7c9-49f35da52fbf"},"vehicle_type_id":"4","last_reported":1700935678,"current_range_meters":2800,"station_id":"ce4bhhh2rcd13ifvqfk0","pricing_plan_id":"free"},{"bike_id":"7bed99d9-4e0c-4f40-9819-196a0a911f92","system_id":"levelo_inurba_marseille","lat":43.243884,"lon":5.370736,"is_reserved":false,"is_disabled":false,"rental_uris":{"android":"levelo://app?vid=7bed99d9-4e0c-4f40-9819-196a0a911f92","ios":"levelo://app?vid=7bed99d9-4e0c-4f40-9819-196a0a911f92"},"vehicle_type_id":"4","last_reported":1700935678,"current_range_meters":12000,"station_id":"ce4bhhh2rcd13ifvqfk0","pricing_plan_id":"free"},{"bike_id":"1b5aa060-5f57-4eca-bb35-6e97912fe98c","system_id":"levelo_inurba_marseille","lat":43.243884,"lon":5.370736,"is_reserved":false,"is_disabled":false,"rental_uris":{"android":"levelo://app?vid=1b5aa060-5f57-4eca-bb35-6e97912fe98c","ios":"levelo://app?vid=1b5aa060-5f57-4eca-bb35-6e97912fe98c"},"vehicle_type_id":"4","last_reported":1700935678,"current_range_meters":25600,"station_id":"ce4bhhh2rcd13ifvqfk0","pricing_plan_id":"free"},{"bike_id":"f208a7fe-6a06-4894-b966-a0fabce96d98","system_id":"levelo_inurba_marseille","lat":43.245581,"lon":5.395069,"is_reserved":false,"is_disabled":false,"rental_uris":{"android":"levelo://app?vid=f208a7fe-6a06-4894-b966-a0fabce96d98","ios":"levelo://app?vid=f208a7fe-6a06-4894-b966-a0fabce96d98"},"vehicle_type_id":"4","last_reported":1700935678,"current_range_meters":32000,"station_id":"ce4bhlp2rcd13ifvqgjg","pricing_plan_id":"free"},{"bike_id":"5e44c71a-47d0-4387-9d16-f6c8f80e2099","system_id":"levelo_inurba_marseille","lat":43.245581,"lon":5.395069,"is_reserved":false,"is_disabled":false,"rental_uris":{"android":"levelo://app?vid=5e44c71a-47d0-4387-9d16-f6c8f80e2099","ios":"levelo://app?vid=5e44c71a-47d0-4387-9d16-f6c8f80e2099"},"vehicle_type_id":"4","last_reported":1700935678,"current_range_meters":24800,"station_id":"ce4bhlp2rcd13ifvqgjg","pricing_plan_id":"free"},{"bike_id":"1cb96f04-f422-460b-925f-998463caffcc","system_id":"levelo_inurba_marseille","lat":43.240687,"lon":5.377538,"is_reserved":false,"is_disabled":false,"rental_uris":{"android":"levelo://app?vid=1cb96f04-f422-460b-925f-998463caffcc","ios":"levelo://app?vid=1cb96f04-f422-460b-925f-998463caffcc"},"vehicle_type_id":"4","last_reported":1700935678,"current_range_meters":31200,"station_id":"ce4bhnp2rcd13ifvqgvg","pricing_plan_id":"free"},{"bike_id":"600cd2ee-c942-40d4-9051-7cc90dade2d5","system_id":"levelo_inurba_marseille","lat":43.24068,"lon":5.37759,"is_reserved":false,"is_disabled":false,"rental_uris":{"android":"levelo://app?vid=600cd2ee-c942-40d4-9051-7cc90dade2d5","ios":"levelo://app?vid=600cd2ee-c942-40d4-9051-7cc90dade2d5"},"vehicle_type_id":"4","last_reported":1700935678,"current_range_meters":30000,"station_id":"ce4bhnp2rcd13ifvqgvg","pricing_plan_id":"free"},{"bike_id":"2928aec4-a092-4b20-8697-2fcf599c9821","system_id":"levelo_inurba_marseille","lat":43.239588,"lon":5.366238,"is_reserved":false,"is_disabled":false,"rental_uris":{"android":"levelo://app?vid=2928aec4-a092-4b20-8697-2fcf599c9821","ios":"levelo://app?vid=2928aec4-a092-4b20-8697-2fcf599c9821"},"vehicle_type_id":"4","last_reported":1700935678,"current_range_meters":25200,"station_id":"ce4bhi12rcd13ifvqfp0","pricing_plan_id":"free"},{"bike_id":"ff01dbe1-223f-43a9-b0c6-51a5a8d2ed05","system_id":"levelo_inurba_marseille","lat":43.239588,"lon":5.366238,"is_reserved":false,"is_disabled":false,"rental_uris":{"android":"levelo://app?vid=ff01dbe1-223f-43a9-b0c6-51a5a8d2ed05","ios":"levelo://app?vid=ff01dbe1-223f-43a9-b0c6-51a5a8d2ed05"},"vehicle_type_id":"4","last_reported":1700935678,"current_range_meters":31200,"station_id":"ce4bhi12rcd13ifvqfp0","pricing_plan_id":"free"},{"bike_id":"340ba89e-beb6-4edd-9f37-a6ad2b2c6a9c","system_id":"levelo_inurba_marseille","lat":43.239588,"lon":5.366238,"is_reserved":false,"is_disabled":false,"rental_uris":{"android":"levelo://app?vid=340ba89e-beb6-4edd-9f37-a6ad2b2c6a9c","ios":"levelo://app?vid=340ba89e-beb6-4edd-9f37-a6ad2b2c6a9c"},"vehicle_type_id":"4","last_reported":1700935678,"current_range_meters":14000,"station_id":"ce4bhi12rcd13ifvqfp0","pricing_plan_id":"free"},{"bike_id":"c8b0fc92-e06b-450c-b7d7-d6ab9ca59443","system_id":"levelo_inurba_marseille","lat":43.239588,"lon":5.366238,"is_reserved":false,"is_disabled":false,"rental_uris":{"android":"levelo://app?vid=c8b0fc92-e06b-450c-b7d7-d6ab9ca59443","ios":"levelo://app?vid=c8b0fc92-e06b-450c-b7d7-d6ab9ca59443"},"vehicle_type_id":"4","last_reported":1700935678,"current_range_meters":32000,"station_id":"ce4bhi12rcd13ifvqfp0","pricing_plan_id":"free"},{"bike_id":"9f9408e6-aa68-4285-81c8-741b34f2d379","system_id":"levelo_inurba_marseille","lat":43.239588,"lon":5.366238,"is_reserved":false,"is_disabled":false,"rental_uris":{"android":"levelo://app?vid=9f9408e6-aa68-4285-81c8-741b34f2d379","ios":"levelo://app?vid=9f9408e6-aa68-4285-81c8-741b34f2d379"},"vehicle_type_id":"4","last_reported":1700935678,"current_range_meters":18800,"station_id":"ce4bhi12rcd13ifvqfp0","pricing_plan_id":"free"},{"bike_id":"4da7c850-c01b-49e2-97e3-0a093981264d","system_id":"levelo_inurba_marseille","lat":43.239588,"lon":5.366238,"is_reserved":false,"is_disabled":false,"rental_uris":{"android":"levelo://app?vid=4da7c850-c01b-49e2-97e3-0a093981264d","ios":"levelo://app?vid=4da7c850-c01b-49e2-97e3-0a093981264d"},"vehicle_type_id":"4","last_reported":1700935678,"current_range_meters":31200,"station_id":"ce4bhi12rcd13ifvqfp0","pricing_plan_id":"free"},{"bike_id":"8ddc8e40-82e4-4cc6-90af-c119357648f0","system_id":"levelo_inurba_marseille","lat":43.239588,"lon":5.366238,"is_reserved":false,"is_disabled":false,"rental_uris":{"android":"levelo://app?vid=8ddc8e40-82e4-4cc6-90af-c119357648f0","ios":"levelo://app?vid=8ddc8e40-82e4-4cc6-90af-c119357648f0"},"vehicle_type_id":"4","last_reported":1700935678,"current_range_meters":25200,"station_id":"ce4bhi12rcd13ifvqfp0","pricing_plan_id":"free"},{"bike_id":"2f0e0c8d-6b84-4d6e-9940-f25c8d2ddc47","system_id":"levelo_inurba_marseille","lat":43.239588,"lon":5.366238,"is_reserved":false,"is_disabled":false,"rental_uris":{"android":"levelo://app?vid=2f0e0c8d-6b84-4d6e-9940-f25c8d2ddc47","ios":"levelo://app?vid=2f0e0c8d-6b84-4d6e-9940-f25c8d2ddc47"},"vehicle_type_id":"4","last_reported":1700935678,"current_range_meters":3200,"station_id":"ce4bhi12rcd13ifvqfp0","pricing_plan_id":"free"},{"bike_id":"47e43998-06a7-44f6-a336-05874a757f9d","system_id":"levelo_inurba_marseille","lat":43.239588,"lon":5.366238,"is_reserved":false,"is_disabled":false,"rental_uris":{"android":"levelo://app?vid=47e43998-06a7-44f6-a336-05874a757f9d","ios":"levelo://app?vid=47e43998-06a7-44f6-a336-05874a757f9d"},"vehicle_type_id":"4","last_reported":1700935678,"current_range_meters":15600,"station_id":"ce4bhi12rcd13ifvqfp0","pricing_plan_id":"free"},{"bike_id":"25882d16-05fb-41c4-b88b-51026c97456a","system_id":"levelo_inurba_marseille","lat":43.239588,"lon":5.366238,"is_reserved":false,"is_disabled":false,"rental_uris":{"android":"levelo://app?vid=25882d16-05fb-41c4-b88b-51026c97456a","ios":"levelo://app?vid=25882d16-05fb-41c4-b88b-51026c97456a"},"vehicle_type_id":"4","last_reported":1700935678,"current_range_meters":28800,"station_id":"ce4bhi12rcd13ifvqfp0","pricing_plan_id":"free"},{"bike_id":"c4f807b4-14e7-40ed-b7e8-f2d4b7a1b342","system_id":"levelo_inurba_marseille","lat":43.239588,"lon":5.366238,"is_reserved":false,"is_disabled":false,"rental_uris":{"android":"levelo://app?vid=c4f807b4-14e7-40ed-b7e8-f2d4b7a1b342","ios":"levelo://app?vid=c4f807b4-14e7-40ed-b7e8-f2d4b7a1b342"},"vehicle_type_id":"4","last_reported":1700935678,"current_range_meters":14800,"station_id":"ce4bhi12rcd13ifvqfp0","pricing_plan_id":"free"},{"bike_id":"a59a9f52-9d06-4b12-9392-cdd5f569c2ca","system_id":"levelo_inurba_marseille","lat":43.239588,"lon":5.366238,"is_reserved":false,"is_disabled":false,"rental_uris":{"android":"levelo://app?vid=a59a9f52-9d06-4b12-9392-cdd5f569c2ca","ios":"levelo://app?vid=a59a9f52-9d06-4b12-9392-cdd5f569c2ca"},"vehicle_type_id":"4","last_reported":1700935678,"current_range_meters":30400,"station_id":"ce4bhi12rcd13ifvqfp0","pricing_plan_id":"free"},{"bike_id":"fc6ccc5a-bc4d-4544-a669-27960c9fde66","system_id":"levelo_inurba_marseille","lat":43.239588,"lon":5.366238,"is_reserved":false,"is_disabled":false,"rental_uris":{"android":"levelo://app?vid=fc6ccc5a-bc4d-4544-a669-27960c9fde66","ios":"levelo://app?vid=fc6ccc5a-bc4d-4544-a669-27960c9fde66"},"vehicle_type_id":"4","last_reported":1700935678,"current_range_meters":18800,"station_id":"ce4bhi12rcd13ifvqfp0","pricing_plan_id":"free"},{"bike_id":"b3ffab4a-cf52-4b4f-9f0f-fcb873d0f038","system_id":"levelo_inurba_marseille","lat":43.23958,"lon":5.36631,"is_reserved":false,"is_disabled":false,"rental_uris":{"android":"levelo://app?vid=b3ffab4a-cf52-4b4f-9f0f-fcb873d0f038","ios":"levelo://app?vid=b3ffab4a-cf52-4b4f-9f0f-fcb873d0f038"},"vehicle_type_id":"4","last_reported":1700935678,"current_range_meters":30400,"station_id":"ce4bhi12rcd13ifvqfp0","pricing_plan_id":"free"},{"bike_id":"fb7be5a0-e980-436b-ac60-879a3e279215","system_id":"levelo_inurba_marseille","lat":43.239588,"lon":5.366238,"is_reserved":false,"is_disabled":false,"rental_uris":{"android":"levelo://app?vid=fb7be5a0-e980-436b-ac60-879a3e279215","ios":"levelo://app?vid=fb7be5a0-e980-436b-ac60-879a3e279215"},"vehicle_type_id":"4","last_reported":1700935678,"current_range_meters":23600,"station_id":"ce4bhi12rcd13ifvqfp0","pricing_plan_id":"free"},{"bike_id":"ebdd63a6-4136-402e-bc06-300204b988cb","system_id":"levelo_inurba_marseille","lat":43.241782,"lon":5.397261,"is_reserved":false,"is_disabled":false,"rental_uris":{"android":"levelo://app?vid=ebdd63a6-4136-402e-bc06-300204b988cb","ios":"levelo://app?vid=ebdd63a6-4136-402e-bc06-300204b988cb"},"vehicle_type_id":"4","last_reported":1700935678,"current_range_meters":5200,"station_id":"ce4bhn12rcd13ifvqgpg","pricing_plan_id":"free"},{"bike_id":"0a349838-8936-442e-8a55-c173dbb54834","system_id":"levelo_inurba_marseille","lat":43.23202,"lon":5.35554,"is_reserved":false,"is_disabled":false,"rental_uris":{"android":"levelo://app?vid=0a349838-8936-442e-8a55-c173dbb54834","ios":"levelo://app?vid=0a349838-8936-442e-8a55-c173dbb54834"},"vehicle_type_id":"4","last_reported":1700935678,"current_range_meters":24800,"station_id":"ce4bhu92rcd13ifvqi70","pricing_plan_id":"free"},{"bike_id":"5bff0059-dd00-4b40-a553-4cfd62c8ce61","system_id":"levelo_inurba_marseille","lat":43.231923,"lon":5.355545,"is_reserved":false,"is_disabled":false,"rental_uris":{"android":"levelo://app?vid=5bff0059-dd00-4b40-a553-4cfd62c8ce61","ios":"levelo://app?vid=5bff0059-dd00-4b40-a553-4cfd62c8ce61"},"vehicle_type_id":"4","last_reported":1700935678,"current_range_meters":26400,"station_id":"ce4bhu92rcd13ifvqi70","pricing_plan_id":"free"},{"bike_id":"1e16dd2f-319e-42df-a632-08aaf736ca5f","system_id":"levelo_inurba_marseille","lat":43.231923,"lon":5.355545,"is_reserved":false,"is_disabled":false,"rental_uris":{"android":"levelo://app?vid=1e16dd2f-319e-42df-a632-08aaf736ca5f","ios":"levelo://app?vid=1e16dd2f-319e-42df-a632-08aaf736ca5f"},"vehicle_type_id":"4","last_reported":1700935678,"current_range_meters":10000,"station_id":"ce4bhu92rcd13ifvqi70","pricing_plan_id":"free"},{"bike_id":"dcc8f0d2-659c-44cb-9a1d-9d57ae623781","system_id":"levelo_inurba_marseille","lat":43.23194,"lon":5.35561,"is_reserved":false,"is_disabled":false,"rental_uris":{"android":"levelo://app?vid=dcc8f0d2-659c-44cb-9a1d-9d57ae623781","ios":"levelo://app?vid=dcc8f0d2-659c-44cb-9a1d-9d57ae623781"},"vehicle_type_id":"4","last_reported":1700935678,"current_range_meters":20000,"station_id":"ce4bhu92rcd13ifvqi70","pricing_plan_id":"free"},{"bike_id":"48217564-eee6-47a9-ae01-f8f1659e40db","system_id":"levelo_inurba_marseille","lat":43.231923,"lon":5.355545,"is_reserved":false,"is_disabled":false,"rental_uris":{"android":"levelo://app?vid=48217564-eee6-47a9-ae01-f8f1659e40db","ios":"levelo://app?vid=48217564-eee6-47a9-ae01-f8f1659e40db"},"vehicle_type_id":"4","last_reported":1700935678,"current_range_meters":32000,"station_id":"ce4bhu92rcd13ifvqi70","pricing_plan_id":"free"},{"bike_id":"76da77ba-a8a2-45d9-bea0-75d9631bba15","system_id":"levelo_inurba_marseille","lat":43.231923,"lon":5.355545,"is_reserved":false,"is_disabled":false,"rental_uris":{"android":"levelo://app?vid=76da77ba-a8a2-45d9-bea0-75d9631bba15","ios":"levelo://app?vid=76da77ba-a8a2-45d9-bea0-75d9631bba15"},"vehicle_type_id":"4","last_reported":1700935678,"current_range_meters":30400,"station_id":"ce4bhu92rcd13ifvqi70","pricing_plan_id":"free"},{"bike_id":"2c965575-bc91-4e3f-b6d2-1df5b195e3bf","system_id":"levelo_inurba_marseille","lat":43.2319,"lon":5.35559,"is_reserved":false,"is_disabled":false,"rental_uris":{"android":"levelo://app?vid=2c965575-bc91-4e3f-b6d2-1df5b195e3bf","ios":"levelo://app?vid=2c965575-bc91-4e3f-b6d2-1df5b195e3bf"},"vehicle_type_id":"4","last_reported":1700935678,"current_range_meters":20800,"station_id":"ce4bhu92rcd13ifvqi70","pricing_plan_id":"free"},{"bike_id":"582d113c-0c5f-4418-8125-8a8ab02fd7da","system_id":"levelo_inurba_marseille","lat":43.231793,"lon":5.400044,"is_reserved":false,"is_disabled":false,"rental_uris":{"android":"levelo://app?vid=582d113c-0c5f-4418-8125-8a8ab02fd7da","ios":"levelo://app?vid=582d113c-0c5f-4418-8125-8a8ab02fd7da"},"vehicle_type_id":"4","last_reported":1700935678,"current_range_meters":0,"station_id":"ce4bhn12rcd13ifvqgqg","pricing_plan_id":"free"},{"bike_id":"23a1829f-9a6c-49bf-9a74-ced5b141be40","system_id":"levelo_inurba_marseille","lat":43.237876,"lon":5.432223,"is_reserved":false,"is_disabled":false,"rental_uris":{"android":"levelo://app?vid=23a1829f-9a6c-49bf-9a74-ced5b141be40","ios":"levelo://app?vid=23a1829f-9a6c-49bf-9a74-ced5b141be40"},"vehicle_type_id":"4","last_reported":1700935678,"current_range_meters":2000,"station_id":"","pricing_plan_id":"free"},{"bike_id":"0508bfaa-dc89-4d6c-bd00-5fdfebdcd3d7","system_id":"levelo_inurba_marseille","lat":43.231562,"lon":5.436933,"is_reserved":false,"is_disabled":false,"rental_uris":{"android":"levelo://app?vid=0508bfaa-dc89-4d6c-bd00-5fdfebdcd3d7","ios":"levelo://app?vid=0508bfaa-dc89-4d6c-bd00-5fdfebdcd3d7"},"vehicle_type_id":"4","last_reported":1700935678,"current_range_meters":30000,"station_id":"ce4bhmp2rcd13ifvqgog","pricing_plan_id":"free"},{"bike_id":"9f5a8eea-995a-45d5-8a53-0f7fe9b11cc0","system_id":"levelo_inurba_marseille","lat":43.231562,"lon":5.436933,"is_reserved":false,"is_disabled":false,"rental_uris":{"android":"levelo://app?vid=9f5a8eea-995a-45d5-8a53-0f7fe9b11cc0","ios":"levelo://app?vid=9f5a8eea-995a-45d5-8a53-0f7fe9b11cc0"},"vehicle_type_id":"4","last_reported":1700935678,"current_range_meters":14800,"station_id":"ce4bhmp2rcd13ifvqgog","pricing_plan_id":"free"},{"bike_id":"fa6e6170-c6e0-4eea-ae59-68e940aa4abf","system_id":"levelo_inurba_marseille","lat":43.231562,"lon":5.436933,"is_reserved":false,"is_disabled":false,"rental_uris":{"android":"levelo://app?vid=fa6e6170-c6e0-4eea-ae59-68e940aa4abf","ios":"levelo://app?vid=fa6e6170-c6e0-4eea-ae59-68e940aa4abf"},"vehicle_type_id":"4","last_reported":1700935678,"current_range_meters":28400,"station_id":"ce4bhmp2rcd13ifvqgog","pricing_plan_id":"free"},{"bike_id":"cc2a9f89-2b4a-422c-9aac-e0b99b845eba","system_id":"levelo_inurba_marseille","lat":43.231562,"lon":5.436933,"is_reserved":false,"is_disabled":false,"rental_uris":{"android":"levelo://app?vid=cc2a9f89-2b4a-422c-9aac-e0b99b845eba","ios":"levelo://app?vid=cc2a9f89-2b4a-422c-9aac-e0b99b845eba"},"vehicle_type_id":"4","last_reported":1700935678,"current_range_meters":31600,"station_id":"ce4bhmp2rcd13ifvqgog","pricing_plan_id":"free"}]}}