{"last_updated":1758280112,"ttl":60,"version":"2.2","data":{"bikes":[{"bike_id":"e0983708-d01c-4c76-8c9a-1be4fe58f5e9","system_id":"levelo_inurba_marseille","lat":43.29925,"lon":5.36538,"is_reserved":false,"is_disabled":false,"rental_uris":{"android":"levelo://app?vid=e0983708-d01c-4c76-8c9a-1be4fe58f5e9","ios":"levelo://app?vid=e0983708-d01c-4c76-8c9a-1be4fe58f5e9"},"vehicle_type_id":"4","last_reported":1758280112,"current_range_meters":2800,"station_id":"","pricing_plan_id":"cebpf4jnsgd1na2vs0mg"},{"bike_id":"e429cf51-6c8a-4b1a-9daf-f46662482f07","system_id":"levelo_inurba_marseille","lat":43.29566,"lon":5.37519,"is_reserved":false,"is_disabled":false,"rental_uris":{"android":"levelo://app?vid=e429cf51-6c8a-4b1a-9daf-f46662482f07","ios":"levelo://app?vid=e429cf51-6c8a-4b1a-9daf-f46662482f07"},"vehicle_type_id":"4","last_reported":1758280112,"current_range_meters":2800,"station_id":"ce4bgh92rcd13ifvqb50","pricing_plan_id":"cebpf4jnsgd1na2vs0mg"},{"bike_id":"36f5b300-5058-493a-95c3-b93b09ba5fff","system_id":"levelo_inurba_marseille","lat":43.27815,"lon":5.4071,"is_reserved":false,"is_disabled":false,"rental_uris":{"android":"levelo://app?vid=36f5b300-5058-493a-95c3-b93b09ba5fff","ios":"levelo://app?vid=36f5b300-5058-493a-95c3-b93b09ba5fff"},"vehicle_type_id":"4","last_reported":1758280112,"current_range_meters":3200,"station_id":"ce4bhnh2rcd13ifvqgtg","pricing_plan_id":"cebpf4jnsgd1na2vs0mg"},{"bike_id":"f3822f0f-87fa-4fc6-a253-744027161ff4","system_id":"levelo_inurba_marseille","lat":43.28698,"lon":5.37395,"is_reserved":false,"is_disabled":false,"rental_uris":{"android":"levelo://app?vid=f3822f0f-87fa-4fc6-a253-744027161ff4","ios":"levelo://app?vid=f3822f0f-87fa-4fc6-a253-744027161ff4"},"vehicle_type_id":"4","last_reported":1758280112,"current_range_meters":3200,"station_id":"ce4bh3p2rcd13ifvqdq0","pricing_plan_id":"cebpf4jnsgd1na2vs0mg"},{"bike_id":"ad2dd578-13dc-4b46-80a2-c13c2e4f85c1","system_id":"levelo_inurba_marseille","lat":43.30263,"lon":5.40082,"is_reserved":false,"is_disabled":false,"rental_uris":{"android":"levelo://app?vid=ad2dd578-13dc-4b46-80a2-c13c2e4f85c1","ios":"levelo://app?vid=ad2dd578-13dc-4b46-80a2-c13c2e4f85c1"},"vehicle_type_id":"4","last_reported":1758280112,"current_range_meters":3200,"station_id":"ce4bgvh2rcd13ifvqcs0","pricing_plan_id":"cebpf4jnsgd1na2vs0mg"},{"bike_id":"195b9592-74ca-4d41-a73f-bff62904633a","system_id":"levelo_inurba_marseille","lat":43.28269,"lon":5.35068,"is_reserved":false,"is_disabled":false,"rental_uris":{"android":"levelo://app?vid=195b9592-74ca-4d41-a73f-bff62904633a","ios":"levelo://app?vid=195b9592-74ca-4d41-a73f-bff62904633a"},"vehicle_type_id":"4","last_reported":1758280112,"current_range_meters":3200,"station_id":"ce4bhbp2rcd13ifvqerg","pricing_plan_id":"cebpf4jnsgd1na2vs0mg"},{"bike_id":"4ef254fa-8f32-4d29-881f-992098c0d773","system_id":"levelo_inurba_marseille","lat":43.29975,"lon":5.38497,"is_reserved":false,"is_disabled":false,"rental_uris":{"android":"levelo://app?vid=4ef254fa-8f32-4d29-881f-992098c0d773","ios":"levelo://app?vid=4ef254fa-8f32-4d29-881f-992098c0d773"},"vehicle_type_id":"4","last_reported":1758280112,"current_range_meters":3600,"station_id":"ce4bgj92rcd13ifvqbd0","pricing_plan_id":"cebpf4jnsgd1na2vs0mg"},{"bike_id":"059c0ba7-1dcb-4f29-8d05-6060640937cc","system_id":"levelo_inurba_marseille","lat":43.3298,"lon":5.3899,"is_reserved":false,"is_disabled":false,"rental_uris":{"android":"levelo://app?vid=059c0ba7-1dcb-4f29-8d05-6060640937cc","ios":"levelo://app?vid=059c0ba7-1dcb-4f29-8d05-6060640937cc"},"vehicle_type_id":"4","last_reported":1758280112,"current_range_meters":4000,"station_id":"","pricing_plan_id":"cebpf4jnsgd1na2vs0mg"},{"bike_id":"31c4f3d4-23d4-47d9-9b88-75d75adefb79","system_id":"levelo_inurba_marseille","lat":43.29198,"lon":5.35807,"is_reserved":false,"is_disabled":false,"rental_uris":{"android":"levelo://app?vid=31c4f3d4-23d4-47d9-9b88-75d75adefb79","ios":"levelo://app?vid=31c4f3d4-23d4-47d9-9b88-75d75adefb79"},"vehicle_type_id":"4","last_reported":1758280112,"current_range_meters":3600,"station_id":"ce4bhb12rcd13ifvqel0","pricing_plan_id":"cebpf4jnsgd1na2vs0mg"},{"bike_id":"190d0825-c1b9-4efd-8a03-d87285d4a5b6","system_id":"levelo_inurba_marseille","lat":43.29822,"lon":5.3773,"is_reserved":false,"is_disabled":false,"rental_uris":{"android":"levelo://app?vid=190d0825-c1b9-4efd-8a03-d87285d4a5b6","ios":"levelo://app?vid=190d0825-c1b9-4efd-8a03-d87285d4a5b6"},"vehicle_type_id":"4","last_reported":1758280112,"current_range_meters":4000,"station_id":"","pricing_plan_id":"cebpf4jnsgd1na2vs0mg"},{"bike_id":"5a224603-8158-4ff2-9744-9555b70a3e83","system_id":"levelo_inurba_marseille","lat":43.30532,"lon":5.36543,"is_reserved":false,"is_disabled":false,"rental_uris":{"android":"levelo://app?vid=5a224603-8158-4ff2-9744-9555b70a3e83","ios":"levelo://app?vid=5a224603-8158-4ff2-9744-9555b70a3e83"},"vehicle_type_id":"4","last_reported":1758280112,"current_range_meters":4000,"station_id":"ce4bgs12rcd13ifvqcag","pricing_plan_id":"cebpf4jnsgd1na2vs0mg"},{"bike_id":"71f98bea-d2c6-4708-9011-517b72f720c3","system_id":"levelo_inurba_marseille","lat":43.22561,"lon":5.41636,"is_reserved":false,"is_disabled":false,"rental_uris":{"android":"levelo://app?vid=71f98bea-d2c6-4708-9011-517b72f720c3","ios":"levelo://app?vid=71f98bea-d2c6-4708-9011-517b72f720c3"},"vehicle_type_id":"4","last_reported":1758280112,"current_range_meters":4400,"station_id":"st_d2o4gvlbi1j2169b742g","pricing_plan_id":"cebpf4jnsgd1na2vs0mg"},{"bike_id":"67d70ad3-efca-42cd-b410-89e44cdae1cb","system_id":"levelo_inurba_marseille","lat":43.29942,"lon":5.36526,"is_reserved":false,"is_disabled":false,"rental_uris":{"android":"levelo://app?vid=67d70ad3-efca-42cd-b410-89e44cdae1cb","ios":"levelo://app?vid=67d70ad3-efca-42cd-b410-89e44cdae1cb"},"vehicle_type_id":"4","last_reported":1758280112,"current_range_meters":4800,"station_id":"ce4bgm92rcd13ifvqbr0","pricing_plan_id":"cebpf4jnsgd1na2vs0mg"},{"bike_id":"4753981a-52b2-4b7d-8c02-9e34c950cc2f","system_id":"levelo_inurba_marseille","lat":43.22544,"lon":5.41643,"is_reserved":false,"is_disabled":false,"rental_uris":{"android":"levelo://app?vid=4753981a-52b2-4b7d-8c02-9e34c950cc2f","ios":"levelo://app?vid=4753981a-52b2-4b7d-8c02-9e34c950cc2f"},"vehicle_type_id":"4","last_reported":1758280112,"current_range_meters":4800,"station_id":"st_d2o4gvlbi1j2169b742g","pricing_plan_id":"cebpf4jnsgd1na2vs0mg"},{"bike_id":"bce826b6-c427-4043-a9d3-94a6ed42df7b","system_id":"levelo_inurba_marseille","lat":43.272112,"lon":5.39182,"is_reserved":false,"is_disabled":false,"rental_uris":{"android":"levelo://app?vid=bce826b6-c427-4043-a9d3-94a6ed42df7b","ios":"levelo://app?vid=bce826b6-c427-4043-a9d3-94a6ed42df7b"},"vehicle_type_id":"4","last_reported":1758280112,"current_range_meters":4800,"station_id":"ce4bhhp2rcd13ifvqfm0","pricing_plan_id":"cebpf4jnsgd1na2vs0mg"},{"bike_id":"bc3bac51-cb69-471c-9ca9-a0b644a58547","system_id":"levelo_inurba_marseille","lat":43.24182,"lon":5.39734,"is_reserved":false,"is_disabled":false,"rental_uris":{"android":"levelo://app?vid=bc3bac51-cb69-471c-9ca9-a0b644a58547","ios":"levelo://app?vid=bc3bac51-cb69-471c-9ca9-a0b644a58547"},"vehicle_type_id":"4","last_reported":1758280112,"current_range_meters":4800,"station_id":"ce4bhn12rcd13ifvqgpg","pricing_plan_id":"cebpf4jnsgd1na2vs0mg"},{"bike_id":"ca2fce19-0e4c-43d4-b086-32aa52737433","system_id":"levelo_inurba_marseille","lat":43.28674,"lon":5.38665,"is_reserved":false,"is_disabled":false,"rental_uris":{"android":"levelo://app?vid=ca2fce19-0e4c-43d4-b086-32aa52737433","ios":"levelo://app?vid=ca2fce19-0e4c-43d4-b086-32aa52737433"},"vehicle_type_id":"4","last_reported":1758280112,"current_range_meters":5600,"station_id":"ce4bh492rcd13ifvqdug","pricing_plan_id":"cebpf4jnsgd1na2vs0mg"},{"bike_id":"3561e8f9-edbd-49ae-8809-498217f3ba66","system_id":"levelo_inurba_marseille","lat":43.30546,"lon":5.36551,"is_reserved":false,"is_disabled":false,"rental_uris":{"android":"levelo://app?vid=3561e8f9-edbd-49ae-8809-498217f3ba66","ios":"levelo://app?vid=3561e8f9-edbd-49ae-8809-498217f3ba66"},"vehicle_type_id":"4","last_reported":1758280112,"current_range_meters":5600,"station_id":"ce4bgs12rcd13ifvqcag","pricing_plan_id":"cebpf4jnsgd1na2vs0mg"},{"bike_id":"395c05b9-96c9-4725-a84b-cf8b39363ded","system_id":"levelo_inurba_marseille","lat":43.29785,"lon":5.37104,"is_reserved":false,"is_disabled":false,"rental_uris":{"android":"levelo://app?vid=395c05b9-96c9-4725-a84b-cf8b39363ded","ios":"levelo://app?vid=395c05b9-96c9-4725-a84b-cf8b39363ded"},"vehicle_type_id":"4","last_reported":1758280112,"current_range_meters":5600,"station_id":"ce4bgop2rcd13ifvqc1g","pricing_plan_id":"cebpf4jnsgd1na2vs0mg"},{"bike_id":"19114868-47b3-494d-be05-566b858ba74f","system_id":"levelo_inurba_marseille","lat":43.28572,"lon":5.39498,"is_reserved":false,"is_disabled":false,"rental_uris":{"android":"levelo://app?vid=19114868-47b3-494d-be05-566b858ba74f","ios":"levelo://app?vid=19114868-47b3-494d-be05-566b858ba74f"},"vehicle_type_id":"4","last_reported":1758280112,"current_range_meters":5600,"station_id":"ce4bh292rcd13ifvqdg0","pricing_plan_id":"cebpf4jnsgd1na2vs0mg"},{"bike_id":"cfb4562e-563d-4c8c-913e-ac2bb955e8f1","system_id":"levelo_inurba_marseille","lat":43.24663,"lon":5.38159,"is_reserved":false,"is_disabled":false,"rental_uris":{"android":"levelo://app?vid=cfb4562e-563d-4c8c-913e-ac2bb955e8f1","ios":"levelo://app?vid=cfb4562e-563d-4c8c-913e-ac2bb955e8f1"},"vehicle_type_id":"4","last_reported":1758280112,"current_range_meters":6000,"station_id":"ce4bhih2rcd13ifvqfr0","pricing_plan_id":"cebpf4jnsgd1na2vs0mg"},{"bike_id":"c0cc79e1-b504-4aad-a1bd-c30c0e98e997","system_id":"levelo_inurba_marseille","lat":43.29526,"lon":5.37495,"is_reserved":false,"is_disabled":false,"rental_uris":{"android":"levelo://app?vid=c0cc79e1-b504-4aad-a1bd-c30c0e98e997","ios":"levelo://app?vid=c0cc79e1-b504-4aad-a1bd-c30c0e98e997"},"vehicle_type_id":"4","last_reported":1758280112,"current_range_meters":6000,"station_id":"ce4bgkp2rcd13ifvqbmg","pricing_plan_id":"cebpf4jnsgd1na2vs0mg"},{"bike_id":"45afe5f4-5cbe-49c2-a913-33c967100178","system_id":"levelo_inurba_marseille","lat":43.29776,"lon":5.380931,"is_reserved":false,"is_disabled":false,"rental_uris":{"android":"levelo://app?vid=45afe5f4-5cbe-49c2-a913-33c967100178","ios":"levelo://app?vid=45afe5f4-5cbe-49c2-a913-33c967100178"},"vehicle_type_id":"4","last_reported":1758280112,"current_range_meters":6000,"station_id":"","pricing_plan_id":"cebpf4jnsgd1na2vs0mg"},{"bike_id":"55dfb17a-dc13-4669-82ac-2c676d600c2d","system_id":"levelo_inurba_marseille","lat":43.31351,"lon":5.37936,"is_reserved":false,"is_disabled":true,"rental_uris":{"android":"levelo://app?vid=55dfb17a-dc13-4669-82ac-2c676d600c2d","ios":"levelo://app?vid=55dfb17a-dc13-4669-82ac-2c676d600c2d"},"vehicle_type_id":"4","last_reported":1758280112,"current_range_meters":6400,"station_id":"","pricing_plan_id":"cebpf4jnsgd1na2vs0mg"},{"bike_id":"26f9c1be-f7ee-48eb-94a1-951719e6611b","system_id":"levelo_inurba_marseille","lat":43.28262,"lon":5.35052,"is_reserved":false,"is_disabled":false,"rental_uris":{"android":"levelo://app?vid=26f9c1be-f7ee-48eb-94a1-951719e6611b","ios":"levelo://app?vid=26f9c1be-f7ee-48eb-94a1-951719e6611b"},"vehicle_type_id":"4","last_reported":1758280112,"current_range_meters":6400,"station_id":"ce4bhbp2rcd13ifvqerg","pricing_plan_id":"cebpf4jnsgd1na2vs0mg"},{"bike_id":"61beea36-4bda-4aa6-84ea-eeb119cc83ff","system_id":"levelo_inurba_marseille","lat":43.225324,"lon":5.348382,"is_reserved":false,"is_disabled":false,"rental_uris":{"android":"levelo://app?vid=61beea36-4bda-4aa6-84ea-eeb119cc83ff","ios":"levelo://app?vid=61beea36-4bda-4aa6-84ea-eeb119cc83ff"},"vehicle_type_id":"4","last_reported":1758280112,"current_range_meters":6400,"station_id":"","pricing_plan_id":"cebpf4jnsgd1na2vs0mg"},{"bike_id":"55dabd6d-650f-4485-8c0b-6a5763700e61","system_id":"levelo_inurba_marseille","lat":43.25775,"lon":5.38716,"is_reserved":false,"is_disabled":false,"rental_uris":{"android":"levelo://app?vid=55dabd6d-650f-4485-8c0b-6a5763700e61","ios":"levelo://app?vid=55dabd6d-650f-4485-8c0b-6a5763700e61"},"vehicle_type_id":"4","last_reported":1758280112,"current_range_meters":6400,"station_id":"","pricing_plan_id":"cebpf4jnsgd1na2vs0mg"},{"bike_id":"7745eab8-3d48-4349-b863-861b7cc7cbd1","system_id":"levelo_inurba_marseille","lat":43.290054,"lon":5.381405,"is_reserved":false,"is_disabled":false,"rental_uris":{"android":"levelo://app?vid=7745eab8-3d48-4349-b863-861b7cc7cbd1","ios":"levelo://app?vid=7745eab8-3d48-4349-b863-861b7cc7cbd1"},"vehicle_type_id":"4","last_reported":1758280112,"current_range_meters":6800,"station_id":"","pricing_plan_id":"cebpf4jnsgd1na2vs0mg"},{"bike_id":"7a583356-d980-494b-9fd1-14037fb1ee62","system_id":"levelo_inurba_marseille","lat":43.29536,"lon":5.37506,"is_reserved":false,"is_disabled":false,"rental_uris":{"android":"levelo://app?vid=7a583356-d980-494b-9fd1-14037fb1ee62","ios":"levelo://app?vid=7a583356-d980-494b-9fd1-14037fb1ee62"},"vehicle_type_id":"4","last_reported":1758280112,"current_range_meters":6800,"station_id":"ce4bgkp2rcd13ifvqbmg","pricing_plan_id":"cebpf4jnsgd1na2vs0mg"},{"bike_id":"e35889cb-0516-4e6e-9771-bfcf6139cc21","system_id":"levelo_inurba_marseille","lat":43.28409,"lon":5.37514,"is_reserved":false,"is_disabled":false,"rental_uris":{"android":"levelo://app?vid=e35889cb-0516-4e6e-9771-bfcf6139cc21","ios":"levelo://app?vid=e35889cb-0516-4e6e-9771-bfcf6139cc21"},"vehicle_type_id":"4","last_reported":1758280112,"current_range_meters":6800,"station_id":"ce4bh412rcd13ifvqds0","pricing_plan_id":"cebpf4jnsgd1na2vs0mg"},{"bike_id":"a768fa05-719e-41f6-b14f-ccf759966259","system_id":"levelo_inurba_marseille","lat":43.28598,"lon":5.35134,"is_reserved":false,"is_disabled":false,"rental_uris":{"android":"levelo://app?vid=a768fa05-719e-41f6-b14f-ccf759966259","ios":"levelo://app?vid=a768fa05-719e-41f6-b14f-ccf759966259"},"vehicle_type_id":"4","last_reported":1758280112,"current_range_meters":7200,"station_id":"ce4bhch2rcd13ifvqeug","pricing_plan_id":"cebpf4jnsgd1na2vs0mg"},{"bike_id":"8ce3378c-c99e-4dab-a24b-93593b1b2654","system_id":"levelo_inurba_marseille","lat":43.29946,"lon":5.36548,"is_reserved":false,"is_disabled":false,"rental_uris":{"android":"levelo://app?vid=8ce3378c-c99e-4dab-a24b-93593b1b2654","ios":"levelo://app?vid=8ce3378c-c99e-4dab-a24b-93593b1b2654"},"vehicle_type_id":"4","last_reported":1758280112,"current_range_meters":7200,"station_id":"ce4bgm92rcd13ifvqbr0","pricing_plan_id":"cebpf4jnsgd1na2vs0mg"},{"bike_id":"d17ab834-bdd3-4214-b36a-fdd114b51ecb","system_id":"levelo_inurba_marseille","lat":43.24408,"lon":5.37048,"is_reserved":false,"is_disabled":false,"rental_uris":{"android":"levelo://app?vid=d17ab834-bdd3-4214-b36a-fdd114b51ecb","ios":"levelo://app?vid=d17ab834-bdd3-4214-b36a-fdd114b51ecb"},"vehicle_type_id":"4","last_reported":1758280112,"current_range_meters":8000,"station_id":"ce4bhhh2rcd13ifvqfk0","pricing_plan_id":"cebpf4jnsgd1na2vs0mg"},{"bike_id":"07cd4012-3df7-4cdf-93f9-c309e2ffd2f7","system_id":"levelo_inurba_marseille","lat":43.29908,"lon":5.38138,"is_reserved":false,"is_disabled":false,"rental_uris":{"android":"levelo://app?vid=07cd4012-3df7-4cdf-93f9-c309e2ffd2f7","ios":"levelo://app?vid=07cd4012-3df7-4cdf-93f9-c309e2ffd2f7"},"vehicle_type_id":"4","last_reported":1758280112,"current_range_meters":8000,"station_id":"ce4bgj12rcd13ifvqbc0","pricing_plan_id":"cebpf4jnsgd1na2vs0mg"},{"bike_id":"bfa33ae0-f244-4595-918f-36b74d373ace","system_id":"levelo_inurba_marseille","lat":43.25493,"lon":5.37649,"is_reserved":false,"is_disabled":false,"rental_uris":{"android":"levelo://app?vid=bfa33ae0-f244-4595-918f-36b74d373ace","ios":"levelo://app?vid=bfa33ae0-f244-4595-918f-36b74d373ace"},"vehicle_type_id":"4","last_reported":1758280112,"current_range_meters":8000,"station_id":"ce4bhh12rcd13ifvqff0","pricing_plan_id":"cebpf4jnsgd1na2vs0mg"},{"bike_id":"b03963e7-f165-473d-a43d-a68e09ff2d96","system_id":"levelo_inurba_marseille","lat":43.25707,"lon":5.41911,"is_reserved":false,"is_disabled":false,"rental_uris":{"android":"levelo://app?vid=b03963e7-f165-473d-a43d-a68e09ff2d96","ios":"levelo://app?vid=b03963e7-f165-473d-a43d-a68e09ff2d96"},"vehicle_type_id":"4","last_reported":1758280112,"current_range_meters":8000,"station_id":"","pricing_plan_id":"cebpf4jnsgd1na2vs0mg"},{"bike_id":"405f7bc7-f721-4f9d-847e-2b9edb89ec2a","system_id":"levelo_inurba_marseille","lat":43.24619,"lon":5.43161,"is_reserved":false,"is_disabled":false,"rental_uris":{"android":"levelo://app?vid=405f7bc7-f721-4f9d-847e-2b9edb89ec2a","ios":"levelo://app?vid=405f7bc7-f721-4f9d-847e-2b9edb89ec2a"},"vehicle_type_id":"4","last_reported":1758280112,"current_range_meters":8400,"station_id":"st_d2m6c4gdas8pm72e190g","pricing_plan_id":"cebpf4jnsgd1na2vs0mg"},{"bike_id":"b0a7208f-2422-40e9-9936-e16ae8d9e348","system_id":"levelo_inurba_marseille","lat":43.273227,"lon":5.362858,"is_reserved":false,"is_disabled":false,"rental_uris":{"android":"levelo://app?vid=b0a7208f-2422-40e9-9936-e16ae8d9e348","ios":"levelo://app?vid=b0a7208f-2422-40e9-9936-e16ae8d9e348"},"vehicle_type_id":"4","last_reported":1758280112,"current_range_meters":8400,"station_id":"ce4bhbh2rcd13ifvqeo0","pricing_plan_id":"cebpf4jnsgd1na2vs0mg"},{"bike_id":"407e18bd-bc99-4170-a21d-9d7e349cd05f","system_id":"levelo_inurba_marseille","lat":43.29533,"lon":5.39396,"is_reserved":false,"is_disabled":false,"rental_uris":{"android":"levelo://app?vid=407e18bd-bc99-4170-a21d-9d7e349cd05f","ios":"levelo://app?vid=407e18bd-bc99-4170-a21d-9d7e349cd05f"},"vehicle_type_id":"4","last_reported":1758280112,"current_range_meters":8400,"station_id":"ce4bh292rcd13ifvqdf0","pricing_plan_id":"cebpf4jnsgd1na2vs0mg"},{"bike_id":"cf66592a-d8fa-4c6c-9927-5d7a9fef5026","system_id":"levelo_inurba_marseille","lat":43.26285,"lon":5.39851,"is_reserved":false,"is_disabled":false,"rental_uris":{"android":"levelo://app?vid=cf66592a-d8fa-4c6c-9927-5d7a9fef5026","ios":"levelo://app?vid=cf66592a-d8fa-4c6c-9927-5d7a9fef5026"},"vehicle_type_id":"4","last_reported":1758280112,"current_range_meters":8400,"station_id":"","pricing_plan_id":"cebpf4jnsgd1na2vs0mg"},{"bike_id":"d1788760-0706-4b90-8999-db00a9e42210","system_id":"levelo_inurba_marseille","lat":43.32797,"lon":5.41011,"is_reserved":false,"is_disabled":true,"rental_uris":{"android":"levelo://app?vid=d1788760-0706-4b90-8999-db00a9e42210","ios":"levelo://app?vid=d1788760-0706-4b90-8999-db00a9e42210"},"vehicle_type_id":"4","last_reported":1758280112,"current_range_meters":8400,"station_id":"","pricing_plan_id":"cebpf4jnsgd1na2vs0mg"},{"bike_id":"38bd47fe-581b-4c4d-8c26-006e538e00d7","system_id":"levelo_inurba_marseille","lat":43.21194,"lon":5.35068,"is_reserved":false,"is_disabled":false,"rental_uris":{"android":"levelo://app?vid=38bd47fe-581b-4c4d-8c26-006e538e00d7","ios":"levelo://app?vid=38bd47fe-581b-4c4d-8c26-006e538e00d7"},"vehicle_type_id":"4","last_reported":1758280112,"current_range_meters":8400,"station_id":"st_cvj6sg6p6f1abm77japg","pricing_plan_id":"cebpf4jnsgd1na2vs0mg"},{"bike_id":"2dec8c38-8e53-4475-a4f2-5caebfd8a70e","system_id":"levelo_inurba_marseille","lat":43.33781,"lon":5.37422,"is_reserved":false,"is_disabled":false,"rental_uris":{"android":"levelo://app?vid=2dec8c38-8e53-4475-a4f2-5caebfd8a70e","ios":"levelo://app?vid=2dec8c38-8e53-4475-a4f2-5caebfd8a70e"},"vehicle_type_id":"4","last_reported":1758280112,"current_range_meters":8400,"station_id":"","pricing_plan_id":"cebpf4jnsgd1na2vs0mg"},{"bike_id":"e2a5ffaa-04fd-4caa-aa19-4abf31685c97","system_id":"levelo_inurba_marseille","lat":43.29896,"lon":5.43668,"is_reserved":false,"is_disabled":false,"rental_uris":{"android":"levelo://app?vid=e2a5ffaa-04fd-4caa-aa19-4abf31685c97","ios":"levelo://app?vid=e2a5ffaa-04fd-4caa-aa19-4abf31685c97"},"vehicle_type_id":"4","last_reported":1758280112,"current_range_meters":8400,"station_id":"ce4bhpp2rcd13ifvqhfg","pricing_plan_id":"cebpf4jnsgd1na2vs0mg"},{"bike_id":"0ae2d2cc-805c-47a7-bd7e-28f3ea87c342","system_id":"levelo_inurba_marseille","lat":43.28865,"lon":5.42515,"is_reserved":false,"is_disabled":false,"rental_uris":{"android":"levelo://app?vid=0ae2d2cc-805c-47a7-bd7e-28f3ea87c342","ios":"levelo://app?vid=0ae2d2cc-805c-47a7-bd7e-28f3ea87c342"},"vehicle_type_id":"4","last_reported":1758280112,"current_range_meters":8400,"station_id":"","pricing_plan_id":"cebpf4jnsgd1na2vs0mg"},{"bike_id":"bb7a8607-4f2e-4d28-85f4-2e53ff88af01","system_id":"levelo_inurba_marseille","lat":43.2842,"lon":5.34995,"is_reserved":false,"is_disabled":false,"rental_uris":{"android":"levelo://app?vid=bb7a8607-4f2e-4d28-85f4-2e53ff88af01","ios":"levelo://app?vid=bb7a8607-4f2e-4d28-85f4-2e53ff88af01"},"vehicle_type_id":"4","last_reported":1758280112,"current_range_meters":8800,"station_id":"ce4bhbh2rcd13ifvqepg","pricing_plan_id":"cebpf4jnsgd1na2vs0mg"},{"bike_id":"64b8f5d2-16ee-4c85-a97d-7145fcb10104","system_id":"levelo_inurba_marseille","lat":43.225343,"lon":5.348349,"is_reserved":false,"is_disabled":false,"rental_uris":{"android":"levelo://app?vid=64b8f5d2-16ee-4c85-a97d-7145fcb10104","ios":"levelo://app?vid=64b8f5d2-16ee-4c85-a97d-7145fcb10104"},"vehicle_type_id":"4","last_reported":1758280112,"current_range_meters":8800,"station_id":"","pricing_plan_id":"cebpf4jnsgd1na2vs0mg"},{"bike_id":"9bef5898-7e65-46fa-9b47-8bac1c7590ca","system_id":"levelo_inurba_marseille","lat":43.26214,"lon":5.37438,"is_reserved":false,"is_disabled":false,"rental_uris":{"android":"levelo://app?vid=9bef5898-7e65-46fa-9b47-8bac1c7590ca","ios":"levelo://app?vid=9bef5898-7e65-46fa-9b47-8bac1c7590ca"},"vehicle_type_id":"4","last_reported":1758280112,"current_range_meters":8800,"station_id":"ce4bhgp2rcd13ifvqfc0","pricing_plan_id":"cebpf4jnsgd1na2vs0mg"},{"bike_id":"51412faf-9acb-427e-be86-a30b77c59d12","system_id":"levelo_inurba_marseille","lat":43.2781,"lon":5.4071,"is_reserved":false,"is_disabled":false,"rental_uris":{"android":"levelo://app?vid=51412faf-9acb-427e-be86-a30b77c59d12","ios":"levelo://app?vid=51412faf-9acb-427e-be86-a30b77c59d12"},"vehicle_type_id":"4","last_reported":1758280112,"current_range_meters":8800,"station_id":"ce4bhnh2rcd13ifvqgtg","pricing_plan_id":"cebpf4jnsgd1na2vs0mg"},{"bike_id":"59028b69-047a-4dce-8d71-00f904471d6e","system_id":"levelo_inurba_marseille","lat":43.21754,"lon":5.34619,"is_reserved":false,"is_disabled":false,"rental_uris":{"android":"levelo://app?vid=59028b69-047a-4dce-8d71-00f904471d6e","ios":"levelo://app?vid=59028b69-047a-4dce-8d71-00f904471d6e"},"vehicle_type_id":"4","last_reported":1758280112,"current_range_meters":8800,"station_id":"st_cvj6r9ubvosntc0bgbag","pricing_plan_id":"cebpf4jnsgd1na2vs0mg"},{"bike_id":"688b64b5-34ce-4149-885e-a85b961e74d1","system_id":"levelo_inurba_marseille","lat":43.30298,"lon":5.36883,"is_reserved":false,"is_disabled":false,"rental_uris":{"android":"levelo://app?vid=688b64b5-34ce-4149-885e-a85b961e74d1","ios":"levelo://app?vid=688b64b5-34ce-4149-885e-a85b961e74d1"},"vehicle_type_id":"4","last_reported":1758280112,"current_range_meters":8800,"station_id":"ce4bgqh2rcd13ifvqc5g","pricing_plan_id":"cebpf4jnsgd1na2vs0mg"},{"bike_id":"e12460c4-f66c-4d01-97bb-af8384b0e609","system_id":"levelo_inurba_marseille","lat":43.24171,"lon":5.36397,"is_reserved":false,"is_disabled":false,"rental_uris":{"android":"levelo://app?vid=e12460c4-f66c-4d01-97bb-af8384b0e609","ios":"levelo://app?vid=e12460c4-f66c-4d01-97bb-af8384b0e609"},"vehicle_type_id":"4","last_reported":1758280112,"current_range_meters":8800,"station_id":"cpo36qri1sfpv3e86is0","pricing_plan_id":"cebpf4jnsgd1na2vs0mg"},{"bike_id":"e4b93dc7-aa0e-4d54-8d90-24e7848322cc","system_id":"levelo_inurba_marseille","lat":43.25341,"lon":5.42177,"is_reserved":false,"is_disabled":false,"rental_uris":{"android":"levelo://app?vid=e4b93dc7-aa0e-4d54-8d90-24e7848322cc","ios":"levelo://app?vid=e4b93dc7-aa0e-4d54-8d90-24e7848322cc"},"vehicle_type_id":"4","last_reported":1758280112,"current_range_meters":9200,"station_id":"st_d2m65c5bi1j21697t3ng","pricing_plan_id":"cebpf4jnsgd1na2vs0mg"},{"bike_id":"15acb567-b7ea-4aaf-ae54-90bf1198565e","system_id":"levelo_inurba_marseille","lat":43.27575,"lon":5.38422,"is_reserved":false,"is_disabled":false,"rental_uris":{"android":"levelo://app?vid=15acb567-b7ea-4aaf-ae54-90bf1198565e","ios":"levelo://app?vid=15acb567-b7ea-4aaf-ae54-90bf1198565e"},"vehicle_type_id":"4","last_reported":1758280112,"current_range_meters":9200,"station_id":"ce4bhh92rcd13ifvqfi0","pricing_plan_id":"cebpf4jnsgd1na2vs0mg"},{"bike_id":"56a4f75d-eaf2-44b4-aa02-4a439b19699b","system_id":"levelo_inurba_marseille","lat":43.337691,"lon":5.374421,"is_reserved":false,"is_disabled":false,"rental_uris":{"android":"levelo://app?vid=56a4f75d-eaf2-44b4-aa02-4a439b19699b","ios":"levelo://app?vid=56a4f75d-eaf2-44b4-aa02-4a439b19699b"},"vehicle_type_id":"4","last_reported":1758280112,"current_range_meters":9200,"station_id":"","pricing_plan_id":"cebpf4jnsgd1na2vs0mg"},{"bike_id":"6dafa70f-dccc-418f-a0fc-1d8508362979","system_id":"levelo_inurba_marseille","lat":43.30924,"lon":5.36857,"is_reserved":false,"is_disabled":false,"rental_uris":{"android":"levelo://app?vid=6dafa70f-dccc-418f-a0fc-1d8508362979","ios":"levelo://app?vid=6dafa70f-dccc-418f-a0fc-1d8508362979"},"vehicle_type_id":"4","last_reported":1758280112,"current_range_meters":9600,"station_id":"","pricing_plan_id":"cebpf4jnsgd1na2vs0mg"},{"bike_id":"3e285841-e5d9-431b-aef6-053f4c98cb7a","system_id":"levelo_inurba_marseille","lat":43.30889,"lon":5.37201,"is_reserved":false,"is_disabled":false,"rental_uris":{"android":"levelo://app?vid=3e285841-e5d9-431b-aef6-053f4c98cb7a","ios":"levelo://app?vid=3e285841-e5d9-431b-aef6-053f4c98cb7a"},"vehicle_type_id":"4","last_reported":1758280112,"current_range_meters":9600,"station_id":"ce4bguh2rcd13ifvqckg","pricing_plan_id":"cebpf4jnsgd1na2vs0mg"},{"bike_id":"cd5ea3c4-33a7-4755-986b-502c7b2660f7","system_id":"levelo_inurba_marseille","lat":43.33793,"lon":5.3742,"is_reserved":false,"is_disabled":false,"rental_uris":{"android":"levelo://app?vid=cd5ea3c4-33a7-4755-986b-502c7b2660f7","ios":"levelo://app?vid=cd5ea3c4-33a7-4755-986b-502c7b2660f7"},"vehicle_type_id":"4","last_reported":1758280112,"current_range_meters":9600,"station_id":"","pricing_plan_id":"cebpf4jnsgd1na2vs0mg"},{"bike_id":"53dcd9c2-773f-4712-86a1-98083136b91b","system_id":"levelo_inurba_marseille","lat":43.31359,"lon":5.38491,"is_reserved":false,"is_disabled":true,"rental_uris":{"android":"levelo://app?vid=53dcd9c2-773f-4712-86a1-98083136b91b","ios":"levelo://app?vid=53dcd9c2-773f-4712-86a1-98083136b91b"},"vehicle_type_id":"4","last_reported":1758280112,"current_range_meters":9600,"station_id":"ce4bgt92rcd13ifvqcf0","pricing_plan_id":"cebpf4jnsgd1na2vs0mg"},{"bike_id":"c03db5d6-931c-41e0-bfa5-6550a106fb99","system_id":"levelo_inurba_marseille","lat":43.23284,"lon":5.36046,"is_reserved":false,"is_disabled":false,"rental_uris":{"android":"levelo://app?vid=c03db5d6-931c-41e0-bfa5-6550a106fb99","ios":"levelo://app?vid=c03db5d6-931c-41e0-bfa5-6550a106fb99"},"vehicle_type_id":"4","last_reported":1758280112,"current_range_meters":9600,"station_id":"","pricing_plan_id":"cebpf4jnsgd1na2vs0mg"},{"bike_id":"42323a1a-489c-43cb-90ae-c675b27444d5","system_id":"levelo_inurba_marseille","lat":43.21615,"lon":5.34418,"is_reserved":false,"is_disabled":false,"rental_uris":{"android":"levelo://app?vid=42323a1a-489c-43cb-90ae-c675b27444d5","ios":"levelo://app?vid=42323a1a-489c-43cb-90ae-c675b27444d5"},"vehicle_type_id":"4","last_reported":1758280112,"current_range_meters":9600,"station_id":"","pricing_plan_id":"cebpf4jnsgd1na2vs0mg"},{"bike_id":"80a9a218-f77f-42ce-8136-b0dceb9fc366","system_id":"levelo_inurba_marseille","lat":43.267867,"lon":5.394102,"is_reserved":false,"is_disabled":true,"rental_uris":{"android":"levelo://app?vid=80a9a218-f77f-42ce-8136-b0dceb9fc366","ios":"levelo://app?vid=80a9a218-f77f-42ce-8136-b0dceb9fc366"},"vehicle_type_id":"4","last_reported":1758280112,"current_range_meters":10000,"station_id":"ce4bhh12rcd13ifvqfg0","pricing_plan_id":"cebpf4jnsgd1na2vs0mg"},{"bike_id":"7d78db4d-47aa-4acb-935e-e609ce7541b9","system_id":"levelo_inurba_marseille","lat":43.28618,"lon":5.35103,"is_reserved":false,"is_disabled":false,"rental_uris":{"android":"levelo://app?vid=7d78db4d-47aa-4acb-935e-e609ce7541b9","ios":"levelo://app?vid=7d78db4d-47aa-4acb-935e-e609ce7541b9"},"vehicle_type_id":"4","last_reported":1758280112,"current_range_meters":10000,"station_id":"ce4bhch2rcd13ifvqeug","pricing_plan_id":"cebpf4jnsgd1na2vs0mg"},{"bike_id":"b757c377-caa6-4866-921f-814481875d0d","system_id":"levelo_inurba_marseille","lat":43.28416,"lon":5.34991,"is_reserved":false,"is_disabled":false,"rental_uris":{"android":"levelo://app?vid=b757c377-caa6-4866-921f-814481875d0d","ios":"levelo://app?vid=b757c377-caa6-4866-921f-814481875d0d"},"vehicle_type_id":"4","last_reported":1758280112,"current_range_meters":10000,"station_id":"ce4bhbh2rcd13ifvqepg","pricing_plan_id":"cebpf4jnsgd1na2vs0mg"},{"bike_id":"cad97885-b582-49b2-8b83-0a6c3d079fc6","system_id":"levelo_inurba_marseille","lat":43.297018,"lon":5.365873,"is_reserved":false,"is_disabled":false,"rental_uris":{"android":"levelo://app?vid=cad97885-b582-49b2-8b83-0a6c3d079fc6","ios":"levelo://app?vid=cad97885-b582-49b2-8b83-0a6c3d079fc6"},"vehicle_type_id":"4","last_reported":1758280112,"current_range_meters":10000,"station_id":"ce4bgn12rcd13ifvqbt0","pricing_plan_id":"cebpf4jnsgd1na2vs0mg"},{"bike_id":"d3f19e19-17e9-4844-84da-77589dcce8e2","system_id":"levelo_inurba_marseille","lat":43.29368,"lon":5.37855,"is_reserved":false,"is_disabled":false,"rental_uris":{"android":"levelo://app?vid=d3f19e19-17e9-4844-84da-77589dcce8e2","ios":"levelo://app?vid=d3f19e19-17e9-4844-84da-77589dcce8e2"},"vehicle_type_id":"4","last_reported":1758280112,"current_range_meters":10000,"station_id":"ce4bgjh2rcd13ifvqbf0","pricing_plan_id":"cebpf4jnsgd1na2vs0mg"},{"bike_id":"be9ee84b-9ec1-497c-800c-5907ad1418ae","system_id":"levelo_inurba_marseille","lat":43.22615,"lon":5.41675,"is_reserved":false,"is_disabled":false,"rental_uris":{"android":"levelo://app?vid=be9ee84b-9ec1-497c-800c-5907ad1418ae","ios":"levelo://app?vid=be9ee84b-9ec1-497c-800c-5907ad1418ae"},"vehicle_type_id":"4","last_reported":1758280112,"current_range_meters":10000,"station_id":"st_d2o4gvlbi1j2169b742g","pricing_plan_id":"cebpf4jnsgd1na2vs0mg"},{"bike_id":"e6f8489d-fe42-4015-a82c-b604c2c8b33e","system_id":"levelo_inurba_marseille","lat":43.29795,"lon":5.36682,"is_reserved":false,"is_disabled":false,"rental_uris":{"android":"levelo://app?vid=e6f8489d-fe42-4015-a82c-b604c2c8b33e","ios":"levelo://app?vid=e6f8489d-fe42-4015-a82c-b604c2c8b33e"},"vehicle_type_id":"4","last_reported":1758280112,"current_range_meters":10000,"station_id":"","pricing_plan_id":"cebpf4jnsgd1na2vs0mg"},{"bike_id":"d21c21ba-791a-4e14-a17a-eb71a335afc1","system_id":"levelo_inurba_marseille","lat":43.32661,"lon":5.40989,"is_reserved":false,"is_disabled":false,"rental_uris":{"android":"levelo://app?vid=d21c21ba-791a-4e14-a17a-eb71a335afc1","ios":"levelo://app?vid=d21c21ba-791a-4e14-a17a-eb71a335afc1"},"vehicle_type_id":"4","last_reported":1758280112,"current_range_meters":10000,"station_id":"ce4bhpp2rcd13ifvqhgg","pricing_plan_id":"cebpf4jnsgd1na2vs0mg"},{"bike_id":"adf69eab-c3a1-4742-998e-529de2320e7a","system_id":"levelo_inurba_marseille","lat":43.29728,"lon":5.36609,"is_reserved":false,"is_disabled":false,"rental_uris":{"android":"levelo://app?vid=adf69eab-c3a1-4742-998e-529de2320e7a","ios":"levelo://app?vid=adf69eab-c3a1-4742-998e-529de2320e7a"},"vehicle_type_id":"4","last_reported":1758280112,"current_range_meters":10800,"station_id":"ce4bgn12rcd13ifvqbt0","pricing_plan_id":"cebpf4jnsgd1na2vs0mg"},{"bike_id":"a4faa1fd-62ee-404a-aff8-b79ea6b6b5d2","system_id":"levelo_inurba_marseille","lat":43.32986,"lon":5.39245,"is_reserved":false,"is_disabled":false,"rental_uris":{"android":"levelo://app?vid=a4faa1fd-62ee-404a-aff8-b79ea6b6b5d2","ios":"levelo://app?vid=a4faa1fd-62ee-404a-aff8-b79ea6b6b5d2"},"vehicle_type_id":"4","last_reported":1758280112,"current_range_meters":10800,"station_id":"","pricing_plan_id":"cebpf4jnsgd1na2vs0mg"},{"bike_id":"74146efb-b07e-41fb-a89d-1d02c15cc153","system_id":"levelo_inurba_marseille","lat":43.27839,"lon":5.39211,"is_reserved":false,"is_disabled":false,"rental_uris":{"android":"levelo://app?vid=74146efb-b07e-41fb-a89d-1d02c15cc153","ios":"levelo://app?vid=74146efb-b07e-41fb-a89d-1d02c15cc153"},"vehicle_type_id":"4","last_reported":1758280112,"current_range_meters":10800,"station_id":"ce4bhjp2rcd13ifvqga0","pricing_plan_id":"cebpf4jnsgd1na2vs0mg"},{"bike_id":"3f163766-796f-4ca2-a740-cf510cb67751","system_id":"levelo_inurba_marseille","lat":43.2835,"lon":5.38109,"is_reserved":false,"is_disabled":false,"rental_uris":{"android":"levelo://app?vid=3f163766-796f-4ca2-a740-cf510cb67751","ios":"levelo://app?vid=3f163766-796f-4ca2-a740-cf510cb67751"},"vehicle_type_id":"4","last_reported":1758280112,"current_range_meters":10800,"station_id":"ce4bh412rcd13ifvqdr0","pricing_plan_id":"cebpf4jnsgd1na2vs0mg"},{"bike_id":"fa0847a4-8d8b-47a2-9c0d-c16fe7a48c9b","system_id":"levelo_inurba_marseille","lat":43.330285,"lon":5.390556,"is_reserved":false,"is_disabled":false,"rental_uris":{"android":"levelo://app?vid=fa0847a4-8d8b-47a2-9c0d-c16fe7a48c9b","ios":"levelo://app?vid=fa0847a4-8d8b-47a2-9c0d-c16fe7a48c9b"},"vehicle_type_id":"4","last_reported":1758280112,"current_range_meters":10800,"station_id":"","pricing_plan_id":"cebpf4jnsgd1na2vs0mg"},{"bike_id":"964ab893-ba77-4002-ad68-774d8a484f51","system_id":"levelo_inurba_marseille","lat":43.313313,"lon":5.396934,"is_reserved":false,"is_disabled":false,"rental_uris":{"android":"levelo://app?vid=964ab893-ba77-4002-ad68-774d8a484f51","ios":"levelo://app?vid=964ab893-ba77-4002-ad68-774d8a484f51"},"vehicle_type_id":"4","last_reported":1758280112,"current_range_meters":10800,"station_id":"ce4bgvp2rcd13ifvqcu0","pricing_plan_id":"cebpf4jnsgd1na2vs0mg"},{"bike_id":"7f615906-a875-42cd-aa3f-2b9ad72a03d1","system_id":"levelo_inurba_marseille","lat":43.27375,"lon":5.36254,"is_reserved":false,"is_disabled":false,"rental_uris":{"android":"levelo://app?vid=7f615906-a875-42cd-aa3f-2b9ad72a03d1","ios":"levelo://app?vid=7f615906-a875-42cd-aa3f-2b9ad72a03d1"},"vehicle_type_id":"4","last_reported":1758280112,"current_range_meters":10800,"station_id":"ce4bhbh2rcd13ifvqeo0","pricing_plan_id":"cebpf4jnsgd1na2vs0mg"},{"bike_id":"6fa5c56a-9b99-4531-ad72-f85de204bcaf","system_id":"levelo_inurba_marseille","lat":43.304091,"lon":5.385471,"is_reserved":false,"is_disabled":false,"rental_uris":{"android":"levelo://app?vid=6fa5c56a-9b99-4531-ad72-f85de204bcaf","ios":"levelo://app?vid=6fa5c56a-9b99-4531-ad72-f85de204bcaf"},"vehicle_type_id":"4","last_reported":1758280112,"current_range_meters":10800,"station_id":"ce4bgg92rcd13ifvqb30","pricing_plan_id":"cebpf4jnsgd1na2vs0mg"},{"bike_id":"b12e6a5c-8de6-4708-9f09-c46dcec4b463","system_id":"levelo_inurba_marseille","lat":43.29526,"lon":5.39403,"is_reserved":false,"is_disabled":false,"rental_uris":{"android":"levelo://app?vid=b12e6a5c-8de6-4708-9f09-c46dcec4b463","ios":"levelo://app?vid=b12e6a5c-8de6-4708-9f09-c46dcec4b463"},"vehicle_type_id":"4","last_reported":1758280112,"current_range_meters":11200,"station_id":"ce4bh292rcd13ifvqdf0","pricing_plan_id":"cebpf4jnsgd1na2vs0mg"},{"bike_id":"6fc58142-9ff8-4772-ae80-93e293f91bc8","system_id":"levelo_inurba_marseille","lat":43.298127,"lon":5.417095,"is_reserved":false,"is_disabled":false,"rental_uris":{"android":"levelo://app?vid=6fc58142-9ff8-4772-ae80-93e293f91bc8","ios":"levelo://app?vid=6fc58142-9ff8-4772-ae80-93e293f91bc8"},"vehicle_type_id":"4","last_reported":1758280112,"current_range_meters":11200,"station_id":"","pricing_plan_id":"cebpf4jnsgd1na2vs0mg"},{"bike_id":"e942f984-8fe7-48d1-8f04-3806656b9996","system_id":"levelo_inurba_marseille","lat":43.33641,"lon":5.37932,"is_reserved":false,"is_disabled":false,"rental_uris":{"android":"levelo://app?vid=e942f984-8fe7-48d1-8f04-3806656b9996","ios":"levelo://app?vid=e942f984-8fe7-48d1-8f04-3806656b9996"},"vehicle_type_id":"4","last_reported":1758280112,"current_range_meters":11200,"station_id":"","pricing_plan_id":"cebpf4jnsgd1na2vs0mg"},{"bike_id":"bad49dd3-43e5-4b19-a094-d28529640e17","system_id":"levelo_inurba_marseille","lat":43.30538,"lon":5.36697,"is_reserved":false,"is_disabled":false,"rental_uris":{"android":"levelo://app?vid=bad49dd3-43e5-4b19-a094-d28529640e17","ios":"levelo://app?vid=bad49dd3-43e5-4b19-a094-d28529640e17"},"vehicle_type_id":"4","last_reported":1758280112,"current_range_meters":11200,"station_id":"ce4bgrp2rcd13ifvqc9g","pricing_plan_id":"cebpf4jnsgd1na2vs0mg"},{"bike_id":"c5c52c1a-6d22-4f24-81c8-7aa1d98ae916","system_id":"levelo_inurba_marseille","lat":43.29714,"lon":5.36607,"is_reserved":false,"is_disabled":false,"rental_uris":{"android":"levelo://app?vid=c5c52c1a-6d22-4f24-81c8-7aa1d98ae916","ios":"levelo://app?vid=c5c52c1a-6d22-4f24-81c8-7aa1d98ae916"},"vehicle_type_id":"4","last_reported":1758280112,"current_range_meters":11200,"station_id":"ce4bgn12rcd13ifvqbt0","pricing_plan_id":"cebpf4jnsgd1na2vs0mg"},{"bike_id":"045c8ca3-20c9-4af3-b019-609ee92982ec","system_id":"levelo_inurba_marseille","lat":43.297976,"lon":5.381095,"is_reserved":false,"is_disabled":false,"rental_uris":{"android":"levelo://app?vid=045c8ca3-20c9-4af3-b019-609ee92982ec","ios":"levelo://app?vid=045c8ca3-20c9-4af3-b019-609ee92982ec"},"vehicle_type_id":"4","last_reported":1758280112,"current_range_meters":11200,"station_id":"ce4bgip2rcd13ifvqbb0","pricing_plan_id":"cebpf4jnsgd1na2vs0mg"},{"bike_id":"22f0687d-25d3-4094-9c4a-293a61e189a6","system_id":"levelo_inurba_marseille","lat":43.2463,"lon":5.39626,"is_reserved":false,"is_disabled":true,"rental_uris":{"android":"levelo://app?vid=22f0687d-25d3-4094-9c4a-293a61e189a6","ios":"levelo://app?vid=22f0687d-25d3-4094-9c4a-293a61e189a6"},"vehicle_type_id":"4","last_reported":1758280112,"current_range_meters":11200,"station_id":"","pricing_plan_id":"cebpf4jnsgd1na2vs0mg"},{"bike_id":"f7e71be9-9390-4791-a469-2a3df86235c9","system_id":"levelo_inurba_marseille","lat":43.337729,"lon":5.37428,"is_reserved":false,"is_disabled":false,"rental_uris":{"android":"levelo://app?vid=f7e71be9-9390-4791-a469-2a3df86235c9","ios":"levelo://app?vid=f7e71be9-9390-4791-a469-2a3df86235c9"},"vehicle_type_id":"4","last_reported":1758280112,"current_range_meters":11600,"station_id":"","pricing_plan_id":"cebpf4jnsgd1na2vs0mg"},{"bike_id":"057130f6-5fca-49cf-be15-17d06dead1c3","system_id":"levelo_inurba_marseille","lat":43.29973,"lon":5.38495,"is_reserved":false,"is_disabled":false,"rental_uris":{"android":"levelo://app?vid=057130f6-5fca-49cf-be15-17d06dead1c3","ios":"levelo://app?vid=057130f6-5fca-49cf-be15-17d06dead1c3"},"vehicle_type_id":"4","last_reported":1758280112,"current_range_meters":11600,"station_id":"ce4bgj92rcd13ifvqbd0","pricing_plan_id":"cebpf4jnsgd1na2vs0mg"},{"bike_id":"e8dae9a5-2841-49d9-b572-94d735628ab9","system_id":"levelo_inurba_marseille","lat":43.33738,"lon":5.39176,"is_reserved":false,"is_disabled":false,"rental_uris":{"android":"levelo://app?vid=e8dae9a5-2841-49d9-b572-94d735628ab9","ios":"levelo://app?vid=e8dae9a5-2841-49d9-b572-94d735628ab9"},"vehicle_type_id":"4","last_reported":1758280112,"current_range_meters":11600,"station_id":"ce4bhr92rcd13ifvqhsg","pricing_plan_id":"cebpf4jnsgd1na2vs0mg"},{"bike_id":"ed20f1d8-bc72-415d-8a8f-af83da4fa7d9","system_id":"levelo_inurba_marseille","lat":43.33485,"lon":5.3625,"is_reserved":false,"is_disabled":false,"rental_uris":{"android":"levelo://app?vid=ed20f1d8-bc72-415d-8a8f-af83da4fa7d9","ios":"levelo://app?vid=ed20f1d8-bc72-415d-8a8f-af83da4fa7d9"},"vehicle_type_id":"4","last_reported":1758280112,"current_range_meters":11600,"station_id":"","pricing_plan_id":"cebpf4jnsgd1na2vs0mg"},{"bike_id":"5abd5005-6e1a-4e4a-8cf1-5135d482aac9","system_id":"levelo_inurba_marseille","lat":43.33735,"lon":5.39183,"is_reserved":false,"is_disabled":false,"rental_uris":{"android":"levelo://app?vid=5abd5005-6e1a-4e4a-8cf1-5135d482aac9","ios":"levelo://app?vid=5abd5005-6e1a-4e4a-8cf1-5135d482aac9"},"vehicle_type_id":"4","last_reported":1758280112,"current_range_meters":11600,"station_id":"ce4bhr92rcd13ifvqhsg","pricing_plan_id":"cebpf4jnsgd1na2vs0mg"},{"bike_id":"f5d0e6af-6e3e-49d3-b187-ff2b4d3501c8","system_id":"levelo_inurba_marseille","lat":43.23179,"lon":5.3999,"is_reserved":false,"is_disabled":false,"rental_uris":{"android":"levelo://app?vid=f5d0e6af-6e3e-49d3-b187-ff2b4d3501c8","ios":"levelo://app?vid=f5d0e6af-6e3e-49d3-b187-ff2b4d3501c8"},"vehicle_type_id":"4","last_reported":1758280112,"current_range_meters":12000,"station_id":"ce4bhn12rcd13ifvqgqg","pricing_plan_id":"cebpf4jnsgd1na2vs0mg"},{"bike_id":"f9418cc9-c64d-43d9-9060-3aeedd69cdee","system_id":"levelo_inurba_marseille","lat":43.33083,"lon":5.37868,"is_reserved":false,"is_disabled":false,"rental_uris":{"android":"levelo://app?vid=f9418cc9-c64d-43d9-9060-3aeedd69cdee","ios":"levelo://app?vid=f9418cc9-c64d-43d9-9060-3aeedd69cdee"},"vehicle_type_id":"4","last_reported":1758280112,"current_range_meters":12000,"station_id":"","pricing_plan_id":"cebpf4jnsgd1na2vs0mg"},{"bike_id":"4935d196-67fb-481d-8c66-b5a55e1b1a3c","system_id":"levelo_inurba_marseille","lat":43.286938,"lon":5.399829,"is_reserved":false,"is_disabled":false,"rental_uris":{"android":"levelo://app?vid=4935d196-67fb-481d-8c66-b5a55e1b1a3c","ios":"levelo://app?vid=4935d196-67fb-481d-8c66-b5a55e1b1a3c"},"vehicle_type_id":"4","last_reported":1758280112,"current_range_meters":12000,"station_id":"ce4bho92rcd13ifvqh3g","pricing_plan_id":"cebpf4jnsgd1na2vs0mg"},{"bike_id":"fb78ea42-e26f-45b3-a617-d3474b811b72","system_id":"levelo_inurba_marseille","lat":43.29888,"lon":5.37912,"is_reserved":false,"is_disabled":false,"rental_uris":{"android":"levelo://app?vid=fb78ea42-e26f-45b3-a617-d3474b811b72","ios":"levelo://app?vid=fb78ea42-e26f-45b3-a617-d3474b811b72"},"vehicle_type_id":"4","last_reported":1758280112,"current_range_meters":12400,"station_id":"","pricing_plan_id":"cebpf4jnsgd1na2vs0mg"},{"bike_id":"0dce279c-b9dc-4316-a77f-9bbfd9ae87f5","system_id":"levelo_inurba_marseille","lat":43.29091,"lon":5.38143,"is_reserved":false,"is_disabled":false,"rental_uris":{"android":"levelo://app?vid=0dce279c-b9dc-4316-a77f-9bbfd9ae87f5","ios":"levelo://app?vid=0dce279c-b9dc-4316-a77f-9bbfd9ae87f5"},"vehicle_type_id":"4","last_reported":1758280112,"current_range_meters":12400,"station_id":"ce4bh512rcd13ifvqe2g","pricing_plan_id":"cebpf4jnsgd1na2vs0mg"},{"bike_id":"82799b49-de5e-4758-a997-a0d7faa9335a","system_id":"levelo_inurba_marseille","lat":43.27208,"lon":5.39182,"is_reserved":false,"is_disabled":false,"rental_uris":{"android":"levelo://app?vid=82799b49-de5e-4758-a997-a0d7faa9335a","ios":"levelo://app?vid=82799b49-de5e-4758-a997-a0d7faa9335a"},"vehicle_type_id":"4","last_reported":1758280112,"current_range_meters":12400,"station_id":"ce4bhhp2rcd13ifvqfm0","pricing_plan_id":"cebpf4jnsgd1na2vs0mg"},{"bike_id":"2ec2488f-36bd-4e78-9ff2-a98ae97ecd86","system_id":"levelo_inurba_marseille","lat":43.29072,"lon":5.37157,"is_reserved":false,"is_disabled":false,"rental_uris":{"android":"levelo://app?vid=2ec2488f-36bd-4e78-9ff2-a98ae97ecd86","ios":"levelo://app?vid=2ec2488f-36bd-4e78-9ff2-a98ae97ecd86"},"vehicle_type_id":"4","last_reported":1758280112,"current_range_meters":12800,"station_id":"ce4bh5p2rcd13ifvqe4g","pricing_plan_id":"cebpf4jnsgd1na2vs0mg"},{"bike_id":"95a62c10-7ca9-4348-809a-c3089ad076d3","system_id":"levelo_inurba_marseille","lat":43.29887,"lon":5.3973,"is_reserved":false,"is_disabled":true,"rental_uris":{"android":"levelo://app?vid=95a62c10-7ca9-4348-809a-c3089ad076d3","ios":"levelo://app?vid=95a62c10-7ca9-4348-809a-c3089ad076d3"},"vehicle_type_id":"4","last_reported":1758280112,"current_range_meters":12800,"station_id":"ce4bh0h2rcd13ifvqd50","pricing_plan_id":"cebpf4jnsgd1na2vs0mg"},{"bike_id":"af39a0bc-2d86-451e-9395-4158bb4bccfc","system_id":"levelo_inurba_marseille","lat":43.239627,"lon":5.366278,"is_reserved":false,"is_disabled":true,"rental_uris":{"android":"levelo://app?vid=af39a0bc-2d86-451e-9395-4158bb4bccfc","ios":"levelo://app?vid=af39a0bc-2d86-451e-9395-4158bb4bccfc"},"vehicle_type_id":"4","last_reported":1758280112,"current_range_meters":12800,"station_id":"ce4bhi12rcd13ifvqfp0","pricing_plan_id":"cebpf4jnsgd1na2vs0mg"},{"bike_id":"f9d3c771-525d-4368-b251-f90db35fb366","system_id":"levelo_inurba_marseille","lat":43.29792,"lon":5.37105,"is_reserved":false,"is_disabled":false,"rental_uris":{"android":"levelo://app?vid=f9d3c771-525d-4368-b251-f90db35fb366","ios":"levelo://app?vid=f9d3c771-525d-4368-b251-f90db35fb366"},"vehicle_type_id":"4","last_reported":1758280112,"current_range_meters":12800,"station_id":"ce4bgop2rcd13ifvqc1g","pricing_plan_id":"cebpf4jnsgd1na2vs0mg"},{"bike_id":"0dc941c8-29ff-4ab8-8316-7c70af97a6ee","system_id":"levelo_inurba_marseille","lat":43.30604,"lon":5.37198,"is_reserved":false,"is_disabled":false,"rental_uris":{"android":"levelo://app?vid=0dc941c8-29ff-4ab8-8316-7c70af97a6ee","ios":"levelo://app?vid=0dc941c8-29ff-4ab8-8316-7c70af97a6ee"},"vehicle_type_id":"4","last_reported":1758280112,"current_range_meters":13600,"station_id":"ce4bgqh2rcd13ifvqc4g","pricing_plan_id":"cebpf4jnsgd1na2vs0mg"},{"bike_id":"85b2f184-eabf-4304-911c-4aaceb0860d6","system_id":"levelo_inurba_marseille","lat":43.32366,"lon":5.36753,"is_reserved":false,"is_disabled":false,"rental_uris":{"android":"levelo://app?vid=85b2f184-eabf-4304-911c-4aaceb0860d6","ios":"levelo://app?vid=85b2f184-eabf-4304-911c-4aaceb0860d6"},"vehicle_type_id":"4","last_reported":1758280112,"current_range_meters":13600,"station_id":"ce4bhsh2rcd13ifvqi2g","pricing_plan_id":"cebpf4jnsgd1na2vs0mg"},{"bike_id":"74af45e8-68ad-402d-9309-9c11252e3c46","system_id":"levelo_inurba_marseille","lat":43.25485,"lon":5.37663,"is_reserved":false,"is_disabled":false,"rental_uris":{"android":"levelo://app?vid=74af45e8-68ad-402d-9309-9c11252e3c46","ios":"levelo://app?vid=74af45e8-68ad-402d-9309-9c11252e3c46"},"vehicle_type_id":"4","last_reported":1758280112,"current_range_meters":13600,"station_id":"ce4bhh12rcd13ifvqff0","pricing_plan_id":"cebpf4jnsgd1na2vs0mg"},{"bike_id":"bf6e6d27-c09e-4725-9fbc-20073fd5a515","system_id":"levelo_inurba_marseille","lat":43.289376,"lon":5.396214,"is_reserved":false,"is_disabled":false,"rental_uris":{"android":"levelo://app?vid=bf6e6d27-c09e-4725-9fbc-20073fd5a515","ios":"levelo://app?vid=bf6e6d27-c09e-4725-9fbc-20073fd5a515"},"vehicle_type_id":"4","last_reported":1758280112,"current_range_meters":13600,"station_id":"","pricing_plan_id":"cebpf4jnsgd1na2vs0mg"},{"bike_id":"0960e3dd-c358-4474-bd10-8223758e1f6b","system_id":"levelo_inurba_marseille","lat":43.296996,"lon":5.376855,"is_reserved":false,"is_disabled":false,"rental_uris":{"android":"levelo://app?vid=0960e3dd-c358-4474-bd10-8223758e1f6b","ios":"levelo://app?vid=0960e3dd-c358-4474-bd10-8223758e1f6b"},"vehicle_type_id":"4","last_reported":1758280112,"current_range_meters":13600,"station_id":"","pricing_plan_id":"cebpf4jnsgd1na2vs0mg"},{"bike_id":"50ed47d0-ae4f-4850-b852-1f135f2dc981","system_id":"levelo_inurba_marseille","lat":43.25589,"lon":5.38228,"is_reserved":false,"is_disabled":false,"rental_uris":{"android":"levelo://app?vid=50ed47d0-ae4f-4850-b852-1f135f2dc981","ios":"levelo://app?vid=50ed47d0-ae4f-4850-b852-1f135f2dc981"},"vehicle_type_id":"4","last_reported":1758280112,"current_range_meters":14000,"station_id":"ce4bhih2rcd13ifvqfs0","pricing_plan_id":"cebpf4jnsgd1na2vs0mg"},{"bike_id":"115fcd5d-e69c-4fe1-ad50-c41b78f96ff4","system_id":"levelo_inurba_marseille","lat":43.31491,"lon":5.37304,"is_reserved":false,"is_disabled":false,"rental_uris":{"android":"levelo://app?vid=115fcd5d-e69c-4fe1-ad50-c41b78f96ff4","ios":"levelo://app?vid=115fcd5d-e69c-4fe1-ad50-c41b78f96ff4"},"vehicle_type_id":"4","last_reported":1758280112,"current_range_meters":14400,"station_id":"ce4bgt12rcd13ifvqcd0","pricing_plan_id":"cebpf4jnsgd1na2vs0mg"},{"bike_id":"b4fb38f4-ee8d-4372-8208-74cbb9219014","system_id":"levelo_inurba_marseille","lat":43.26546,"lon":5.37326,"is_reserved":false,"is_disabled":false,"rental_uris":{"android":"levelo://app?vid=b4fb38f4-ee8d-4372-8208-74cbb9219014","ios":"levelo://app?vid=b4fb38f4-ee8d-4372-8208-74cbb9219014"},"vehicle_type_id":"4","last_reported":1758280112,"current_range_meters":14400,"station_id":"ce4bhg12rcd13ifvqf70","pricing_plan_id":"cebpf4jnsgd1na2vs0mg"},{"bike_id":"95b43e4c-e9a8-44e8-ba0a-4478acd8f4f5","system_id":"levelo_inurba_marseille","lat":43.28159,"lon":5.42652,"is_reserved":false,"is_disabled":false,"rental_uris":{"android":"levelo://app?vid=95b43e4c-e9a8-44e8-ba0a-4478acd8f4f5","ios":"levelo://app?vid=95b43e4c-e9a8-44e8-ba0a-4478acd8f4f5"},"vehicle_type_id":"4","last_reported":1758280112,"current_range_meters":14400,"station_id":"ce4bhnh2rcd13ifvqgug","pricing_plan_id":"cebpf4jnsgd1na2vs0mg"},{"bike_id":"bd0a4b8e-347d-4a79-9877-394d66d3e1b6","system_id":"levelo_inurba_marseille","lat":43.29635,"lon":5.40596,"is_reserved":false,"is_disabled":false,"rental_uris":{"android":"levelo://app?vid=bd0a4b8e-347d-4a79-9877-394d66d3e1b6","ios":"levelo://app?vid=bd0a4b8e-347d-4a79-9877-394d66d3e1b6"},"vehicle_type_id":"4","last_reported":1758280112,"current_range_meters":14400,"station_id":"ce4bh0h2rcd13ifvqd60","pricing_plan_id":"cebpf4jnsgd1na2vs0mg"},{"bike_id":"7f04239b-9e1e-4607-8ef4-80bb3cb0cba6","system_id":"levelo_inurba_marseille","lat":43.333009,"lon":5.410255,"is_reserved":false,"is_disabled":false,"rental_uris":{"android":"levelo://app?vid=7f04239b-9e1e-4607-8ef4-80bb3cb0cba6","ios":"levelo://app?vid=7f04239b-9e1e-4607-8ef4-80bb3cb0cba6"},"vehicle_type_id":"4","last_reported":1758280112,"current_range_meters":14400,"station_id":"","pricing_plan_id":"cebpf4jnsgd1na2vs0mg"},{"bike_id":"8f85300c-2404-4398-81c9-e87d9e70d8aa","system_id":"levelo_inurba_marseille","lat":43.29903,"lon":5.4367,"is_reserved":false,"is_disabled":false,"rental_uris":{"android":"levelo://app?vid=8f85300c-2404-4398-81c9-e87d9e70d8aa","ios":"levelo://app?vid=8f85300c-2404-4398-81c9-e87d9e70d8aa"},"vehicle_type_id":"4","last_reported":1758280112,"current_range_meters":14400,"station_id":"ce4bhpp2rcd13ifvqhfg","pricing_plan_id":"cebpf4jnsgd1na2vs0mg"},{"bike_id":"b38d1596-d7ca-45eb-ad29-27a129481f10","system_id":"levelo_inurba_marseille","lat":43.2927,"lon":5.37628,"is_reserved":false,"is_disabled":false,"rental_uris":{"android":"levelo://app?vid=b38d1596-d7ca-45eb-ad29-27a129481f10","ios":"levelo://app?vid=b38d1596-d7ca-45eb-ad29-27a129481f10"},"vehicle_type_id":"4","last_reported":1758280112,"current_range_meters":14400,"station_id":"ce4bgi12rcd13ifvqb80","pricing_plan_id":"cebpf4jnsgd1na2vs0mg"},{"bike_id":"9c0693b2-33f4-40d9-85fa-754a770a9d54","system_id":"levelo_inurba_marseille","lat":43.295188,"lon":5.390328,"is_reserved":false,"is_disabled":false,"rental_uris":{"android":"levelo://app?vid=9c0693b2-33f4-40d9-85fa-754a770a9d54","ios":"levelo://app?vid=9c0693b2-33f4-40d9-85fa-754a770a9d54"},"vehicle_type_id":"4","last_reported":1758280112,"current_range_meters":14800,"station_id":"ce4bh312rcd13ifvqdj0","pricing_plan_id":"cebpf4jnsgd1na2vs0mg"},{"bike_id":"7bb05219-6e3b-4b0d-8c79-bfc0c25c024c","system_id":"levelo_inurba_marseille","lat":43.30596,"lon":5.37251,"is_reserved":false,"is_disabled":false,"rental_uris":{"android":"levelo://app?vid=7bb05219-6e3b-4b0d-8c79-bfc0c25c024c","ios":"levelo://app?vid=7bb05219-6e3b-4b0d-8c79-bfc0c25c024c"},"vehicle_type_id":"4","last_reported":1758280112,"current_range_meters":14800,"station_id":"ce4bgqh2rcd13ifvqc4g","pricing_plan_id":"cebpf4jnsgd1na2vs0mg"},{"bike_id":"6989b60d-7f86-48b5-bd30-c44667a86184","system_id":"levelo_inurba_marseille","lat":43.28252,"lon":5.35066,"is_reserved":false,"is_disabled":false,"rental_uris":{"android":"levelo://app?vid=6989b60d-7f86-48b5-bd30-c44667a86184","ios":"levelo://app?vid=6989b60d-7f86-48b5-bd30-c44667a86184"},"vehicle_type_id":"4","last_reported":1758280112,"current_range_meters":15200,"station_id":"ce4bhbp2rcd13ifvqerg","pricing_plan_id":"cebpf4jnsgd1na2vs0mg"},{"bike_id":"931664d9-a1f9-4b23-9426-5b3082bf7d09","system_id":"levelo_inurba_marseille","lat":43.30932,"lon":5.40142,"is_reserved":false,"is_disabled":true,"rental_uris":{"android":"levelo://app?vid=931664d9-a1f9-4b23-9426-5b3082bf7d09","ios":"levelo://app?vid=931664d9-a1f9-4b23-9426-5b3082bf7d09"},"vehicle_type_id":"4","last_reported":1758280112,"current_range_meters":15200,"station_id":"ce4bgvp2rcd13ifvqct0","pricing_plan_id":"cebpf4jnsgd1na2vs0mg"},{"bike_id":"68ac8e97-b538-492f-b8ae-cfc1eac5ce61","system_id":"levelo_inurba_marseille","lat":43.262438,"lon":5.374642,"is_reserved":false,"is_disabled":false,"rental_uris":{"android":"levelo://app?vid=68ac8e97-b538-492f-b8ae-cfc1eac5ce61","ios":"levelo://app?vid=68ac8e97-b538-492f-b8ae-cfc1eac5ce61"},"vehicle_type_id":"4","last_reported":1758280112,"current_range_meters":15200,"station_id":"ce4bhgp2rcd13ifvqfc0","pricing_plan_id":"cebpf4jnsgd1na2vs0mg"},{"bike_id":"fc168383-2bc9-4688-92b3-a02f15201e3e","system_id":"levelo_inurba_marseille","lat":43.23179,"lon":5.39982,"is_reserved":false,"is_disabled":false,"rental_uris":{"android":"levelo://app?vid=fc168383-2bc9-4688-92b3-a02f15201e3e","ios":"levelo://app?vid=fc168383-2bc9-4688-92b3-a02f15201e3e"},"vehicle_type_id":"4","last_reported":1758280112,"current_range_meters":16800,"station_id":"ce4bhn12rcd13ifvqgqg","pricing_plan_id":"cebpf4jnsgd1na2vs0mg"},{"bike_id":"a1759435-7c8c-454b-b3b7-2dee821a2bbd","system_id":"levelo_inurba_marseille","lat":43.24165,"lon":5.3975,"is_reserved":false,"is_disabled":false,"rental_uris":{"android":"levelo://app?vid=a1759435-7c8c-454b-b3b7-2dee821a2bbd","ios":"levelo://app?vid=a1759435-7c8c-454b-b3b7-2dee821a2bbd"},"vehicle_type_id":"4","last_reported":1758280112,"current_range_meters":15200,"station_id":"ce4bhn12rcd13ifvqgpg","pricing_plan_id":"cebpf4jnsgd1na2vs0mg"},{"bike_id":"26b43886-fa77-4bdc-88cd-18b348cfd5a1","system_id":"levelo_inurba_marseille","lat":43.24173,"lon":5.39716,"is_reserved":false,"is_disabled":false,"rental_uris":{"android":"levelo://app?vid=26b43886-fa77-4bdc-88cd-18b348cfd5a1","ios":"levelo://app?vid=26b43886-fa77-4bdc-88cd-18b348cfd5a1"},"vehicle_type_id":"4","last_reported":1758280112,"current_range_meters":15200,"station_id":"ce4bhn12rcd13ifvqgpg","pricing_plan_id":"cebpf4jnsgd1na2vs0mg"},{"bike_id":"7df5983d-afc7-4c15-a3e6-ba7d41a736f9","system_id":"levelo_inurba_marseille","lat":43.24535,"lon":5.37329,"is_reserved":false,"is_disabled":true,"rental_uris":{"android":"levelo://app?vid=7df5983d-afc7-4c15-a3e6-ba7d41a736f9","ios":"levelo://app?vid=7df5983d-afc7-4c15-a3e6-ba7d41a736f9"},"vehicle_type_id":"4","last_reported":1758280112,"current_range_meters":15200,"station_id":"","pricing_plan_id":"cebpf4jnsgd1na2vs0mg"},{"bike_id":"e372231e-d0ff-459f-b2e9-df8c69780738","system_id":"levelo_inurba_marseille","lat":43.30569,"lon":5.37198,"is_reserved":false,"is_disabled":false,"rental_uris":{"android":"levelo://app?vid=e372231e-d0ff-459f-b2e9-df8c69780738","ios":"levelo://app?vid=e372231e-d0ff-459f-b2e9-df8c69780738"},"vehicle_type_id":"4","last_reported":1758280112,"current_range_meters":15200,"station_id":"ce4bgqh2rcd13ifvqc4g","pricing_plan_id":"cebpf4jnsgd1na2vs0mg"},{"bike_id":"326a25cc-3864-48ea-aaad-eb73d9f62a96","system_id":"levelo_inurba_marseille","lat":43.28368,"lon":5.3809,"is_reserved":false,"is_disabled":false,"rental_uris":{"android":"levelo://app?vid=326a25cc-3864-48ea-aaad-eb73d9f62a96","ios":"levelo://app?vid=326a25cc-3864-48ea-aaad-eb73d9f62a96"},"vehicle_type_id":"4","last_reported":1758280112,"current_range_meters":15200,"station_id":"ce4bh412rcd13ifvqdr0","pricing_plan_id":"cebpf4jnsgd1na2vs0mg"},{"bike_id":"a120f4b6-6979-45af-8d11-5f0922cdac9e","system_id":"levelo_inurba_marseille","lat":43.27179,"lon":5.40991,"is_reserved":false,"is_disabled":false,"rental_uris":{"android":"levelo://app?vid=a120f4b6-6979-45af-8d11-5f0922cdac9e","ios":"levelo://app?vid=a120f4b6-6979-45af-8d11-5f0922cdac9e"},"vehicle_type_id":"4","last_reported":1758280112,"current_range_meters":15200,"station_id":"ce4bhl12rcd13ifvqgf0","pricing_plan_id":"cebpf4jnsgd1na2vs0mg"},{"bike_id":"453546be-991b-4176-a0c1-b13f3999870c","system_id":"levelo_inurba_marseille","lat":43.281166,"lon":5.378268,"is_reserved":false,"is_disabled":false,"rental_uris":{"android":"levelo://app?vid=453546be-991b-4176-a0c1-b13f3999870c","ios":"levelo://app?vid=453546be-991b-4176-a0c1-b13f3999870c"},"vehicle_type_id":"4","last_reported":1758280112,"current_range_meters":15200,"station_id":"ce4bha12rcd13ifvqee0","pricing_plan_id":"cebpf4jnsgd1na2vs0mg"},{"bike_id":"c3e76c41-463f-4592-8c32-6b8872e5f1de","system_id":"levelo_inurba_marseille","lat":43.28105,"lon":5.3784,"is_reserved":false,"is_disabled":true,"rental_uris":{"android":"levelo://app?vid=c3e76c41-463f-4592-8c32-6b8872e5f1de","ios":"levelo://app?vid=c3e76c41-463f-4592-8c32-6b8872e5f1de"},"vehicle_type_id":"4","last_reported":1758280112,"current_range_meters":15200,"station_id":"ce4bha12rcd13ifvqee0","pricing_plan_id":"cebpf4jnsgd1na2vs0mg"},{"bike_id":"3bc55b74-eb07-4466-8bdc-16723c3f40c8","system_id":"levelo_inurba_marseille","lat":43.26635,"lon":5.39365,"is_reserved":false,"is_disabled":false,"rental_uris":{"android":"levelo://app?vid=3bc55b74-eb07-4466-8bdc-16723c3f40c8","ios":"levelo://app?vid=3bc55b74-eb07-4466-8bdc-16723c3f40c8"},"vehicle_type_id":"4","last_reported":1758280112,"current_range_meters":16000,"station_id":"","pricing_plan_id":"cebpf4jnsgd1na2vs0mg"},{"bike_id":"f85a8c4d-f9d0-4136-9b57-8bfb28db950c","system_id":"levelo_inurba_marseille","lat":43.31872,"lon":5.37462,"is_reserved":false,"is_disabled":false,"rental_uris":{"android":"levelo://app?vid=f85a8c4d-f9d0-4136-9b57-8bfb28db950c","ios":"levelo://app?vid=f85a8c4d-f9d0-4136-9b57-8bfb28db950c"},"vehicle_type_id":"4","last_reported":1758280112,"current_range_meters":16000,"station_id":"","pricing_plan_id":"cebpf4jnsgd1na2vs0mg"},{"bike_id":"b1aea033-d9a7-44a7-8a23-2e263bbc1dee","system_id":"levelo_inurba_marseille","lat":43.30503,"lon":5.36656,"is_reserved":false,"is_disabled":false,"rental_uris":{"android":"levelo://app?vid=b1aea033-d9a7-44a7-8a23-2e263bbc1dee","ios":"levelo://app?vid=b1aea033-d9a7-44a7-8a23-2e263bbc1dee"},"vehicle_type_id":"4","last_reported":1758280112,"current_range_meters":16000,"station_id":"","pricing_plan_id":"cebpf4jnsgd1na2vs0mg"},{"bike_id":"82ff2aa5-7947-4d6a-b628-a72140befcb9","system_id":"levelo_inurba_marseille","lat":43.23149,"lon":5.437157,"is_reserved":false,"is_disabled":false,"rental_uris":{"android":"levelo://app?vid=82ff2aa5-7947-4d6a-b628-a72140befcb9","ios":"levelo://app?vid=82ff2aa5-7947-4d6a-b628-a72140befcb9"},"vehicle_type_id":"4","last_reported":1758280112,"current_range_meters":16000,"station_id":"ce4bhmp2rcd13ifvqgog","pricing_plan_id":"cebpf4jnsgd1na2vs0mg"},{"bike_id":"518eef5b-9e3c-4b06-94a9-56e70af9d262","system_id":"levelo_inurba_marseille","lat":43.3082,"lon":5.38133,"is_reserved":false,"is_disabled":true,"rental_uris":{"android":"levelo://app?vid=518eef5b-9e3c-4b06-94a9-56e70af9d262","ios":"levelo://app?vid=518eef5b-9e3c-4b06-94a9-56e70af9d262"},"vehicle_type_id":"4","last_reported":1758280112,"current_range_meters":16000,"station_id":"ce4bgt12rcd13ifvqce0","pricing_plan_id":"cebpf4jnsgd1na2vs0mg"},{"bike_id":"438ead59-de14-4fa0-a61d-03a70a4122ae","system_id":"levelo_inurba_marseille","lat":43.97231,"lon":4.89109,"is_reserved":false,"is_disabled":true,"rental_uris":{"android":"levelo://app?vid=438ead59-de14-4fa0-a61d-03a70a4122ae","ios":"levelo://app?vid=438ead59-de14-4fa0-a61d-03a70a4122ae"},"vehicle_type_id":"4","last_reported":1758280112,"current_range_meters":16000,"station_id":"","pricing_plan_id":"cebpf4jnsgd1na2vs0mg"},{"bike_id":"afdc1e14-0e87-4dc9-b56a-2d5f1c0cf228","system_id":"levelo_inurba_marseille","lat":43.2737,"lon":5.36253,"is_reserved":false,"is_disabled":false,"rental_uris":{"android":"levelo://app?vid=afdc1e14-0e87-4dc9-b56a-2d5f1c0cf228","ios":"levelo://app?vid=afdc1e14-0e87-4dc9-b56a-2d5f1c0cf228"},"vehicle_type_id":"4","last_reported":1758280112,"current_range_meters":16400,"station_id":"ce4bhbh2rcd13ifvqeo0","pricing_plan_id":"cebpf4jnsgd1na2vs0mg"},{"bike_id":"242b68db-0752-45f4-b331-b5a6f381ca84","system_id":"levelo_inurba_marseille","lat":43.29713,"lon":5.36608,"is_reserved":false,"is_disabled":false,"rental_uris":{"android":"levelo://app?vid=242b68db-0752-45f4-b331-b5a6f381ca84","ios":"levelo://app?vid=242b68db-0752-45f4-b331-b5a6f381ca84"},"vehicle_type_id":"4","last_reported":1758280112,"current_range_meters":16400,"station_id":"ce4bgn12rcd13ifvqbt0","pricing_plan_id":"cebpf4jnsgd1na2vs0mg"},{"bike_id":"0dd694ca-31ae-4ecb-b5fc-605af2628a1a","system_id":"levelo_inurba_marseille","lat":43.31493,"lon":5.37282,"is_reserved":false,"is_disabled":false,"rental_uris":{"android":"levelo://app?vid=0dd694ca-31ae-4ecb-b5fc-605af2628a1a","ios":"levelo://app?vid=0dd694ca-31ae-4ecb-b5fc-605af2628a1a"},"vehicle_type_id":"4","last_reported":1758280112,"current_range_meters":16400,"station_id":"ce4bgt12rcd13ifvqcd0","pricing_plan_id":"cebpf4jnsgd1na2vs0mg"},{"bike_id":"113c395b-a75e-41e0-8f65-df2c24795bd2","system_id":"levelo_inurba_marseille","lat":43.2316,"lon":5.43703,"is_reserved":false,"is_disabled":false,"rental_uris":{"android":"levelo://app?vid=113c395b-a75e-41e0-8f65-df2c24795bd2","ios":"levelo://app?vid=113c395b-a75e-41e0-8f65-df2c24795bd2"},"vehicle_type_id":"4","last_reported":1758280112,"current_range_meters":16400,"station_id":"ce4bhmp2rcd13ifvqgog","pricing_plan_id":"cebpf4jnsgd1na2vs0mg"},{"bike_id":"bf31957d-71b2-4cad-b061-fdbaaa32e6f9","system_id":"levelo_inurba_marseille","lat":43.2926,"lon":5.37623,"is_reserved":false,"is_disabled":true,"rental_uris":{"android":"levelo://app?vid=bf31957d-71b2-4cad-b061-fdbaaa32e6f9","ios":"levelo://app?vid=bf31957d-71b2-4cad-b061-fdbaaa32e6f9"},"vehicle_type_id":"4","last_reported":1758280112,"current_range_meters":16400,"station_id":"ce4bgi12rcd13ifvqb80","pricing_plan_id":"cebpf4jnsgd1na2vs0mg"},{"bike_id":"5be9e2c7-78b9-42ca-96f3-fdac64a08bcd","system_id":"levelo_inurba_marseille","lat":43.31489,"lon":5.37307,"is_reserved":false,"is_disabled":false,"rental_uris":{"android":"levelo://app?vid=5be9e2c7-78b9-42ca-96f3-fdac64a08bcd","ios":"levelo://app?vid=5be9e2c7-78b9-42ca-96f3-fdac64a08bcd"},"vehicle_type_id":"4","last_reported":1758280112,"current_range_meters":16400,"station_id":"ce4bgt12rcd13ifvqcd0","pricing_plan_id":"cebpf4jnsgd1na2vs0mg"},{"bike_id":"6c2c7fc8-53c9-4e73-8e20-f193590dbe08","system_id":"levelo_inurba_marseille","lat":43.25937,"lon":5.40911,"is_reserved":false,"is_disabled":false,"rental_uris":{"android":"levelo://app?vid=6c2c7fc8-53c9-4e73-8e20-f193590dbe08","ios":"levelo://app?vid=6c2c7fc8-53c9-4e73-8e20-f193590dbe08"},"vehicle_type_id":"4","last_reported":1758280112,"current_range_meters":16800,"station_id":"ce4bhm92rcd13ifvqglg","pricing_plan_id":"cebpf4jnsgd1na2vs0mg"},{"bike_id":"4199a78e-e024-4aa0-add5-bfe6d6531bc4","system_id":"levelo_inurba_marseille","lat":43.24169,"lon":5.36394,"is_reserved":false,"is_disabled":false,"rental_uris":{"android":"levelo://app?vid=4199a78e-e024-4aa0-add5-bfe6d6531bc4","ios":"levelo://app?vid=4199a78e-e024-4aa0-add5-bfe6d6531bc4"},"vehicle_type_id":"4","last_reported":1758280112,"current_range_meters":16800,"station_id":"cpo36qri1sfpv3e86is0","pricing_plan_id":"cebpf4jnsgd1na2vs0mg"},{"bike_id":"c4706891-6ce1-4440-91ff-a3ecf2ff007e","system_id":"levelo_inurba_marseille","lat":43.26374,"lon":5.40075,"is_reserved":false,"is_disabled":false,"rental_uris":{"android":"levelo://app?vid=c4706891-6ce1-4440-91ff-a3ecf2ff007e","ios":"levelo://app?vid=c4706891-6ce1-4440-91ff-a3ecf2ff007e"},"vehicle_type_id":"4","last_reported":1758280112,"current_range_meters":16800,"station_id":"","pricing_plan_id":"cebpf4jnsgd1na2vs0mg"},{"bike_id":"3a0966a2-c500-4147-8c9f-b002587ec121","system_id":"levelo_inurba_marseille","lat":43.29587,"lon":5.36744,"is_reserved":false,"is_disabled":false,"rental_uris":{"android":"levelo://app?vid=3a0966a2-c500-4147-8c9f-b002587ec121","ios":"levelo://app?vid=3a0966a2-c500-4147-8c9f-b002587ec121"},"vehicle_type_id":"4","last_reported":1758280112,"current_range_meters":16800,"station_id":"ce4bgph2rcd13ifvqc2g","pricing_plan_id":"cebpf4jnsgd1na2vs0mg"},{"bike_id":"835975a0-27c7-47e7-bc1c-b8ba0b505127","system_id":"levelo_inurba_marseille","lat":43.32589,"lon":5.37791,"is_reserved":false,"is_disabled":false,"rental_uris":{"android":"levelo://app?vid=835975a0-27c7-47e7-bc1c-b8ba0b505127","ios":"levelo://app?vid=835975a0-27c7-47e7-bc1c-b8ba0b505127"},"vehicle_type_id":"4","last_reported":1758280112,"current_range_meters":16800,"station_id":"","pricing_plan_id":"cebpf4jnsgd1na2vs0mg"},{"bike_id":"e702d8fa-bc18-47d4-a488-beac0dcdfef1","system_id":"levelo_inurba_marseille","lat":43.284229,"lon":5.349735,"is_reserved":false,"is_disabled":false,"rental_uris":{"android":"levelo://app?vid=e702d8fa-bc18-47d4-a488-beac0dcdfef1","ios":"levelo://app?vid=e702d8fa-bc18-47d4-a488-beac0dcdfef1"},"vehicle_type_id":"4","last_reported":1758280112,"current_range_meters":17200,"station_id":"ce4bhbh2rcd13ifvqepg","pricing_plan_id":"cebpf4jnsgd1na2vs0mg"},{"bike_id":"8745c251-e416-4ea6-8fbc-d4e92795e895","system_id":"levelo_inurba_marseille","lat":43.28269,"lon":5.35058,"is_reserved":false,"is_disabled":false,"rental_uris":{"android":"levelo://app?vid=8745c251-e416-4ea6-8fbc-d4e92795e895","ios":"levelo://app?vid=8745c251-e416-4ea6-8fbc-d4e92795e895"},"vehicle_type_id":"4","last_reported":1758280112,"current_range_meters":16800,"station_id":"ce4bhbp2rcd13ifvqerg","pricing_plan_id":"cebpf4jnsgd1na2vs0mg"},{"bike_id":"4522a1df-ff92-4313-a58c-02a503f82b1c","system_id":"levelo_inurba_marseille","lat":43.31361,"lon":5.38482,"is_reserved":false,"is_disabled":false,"rental_uris":{"android":"levelo://app?vid=4522a1df-ff92-4313-a58c-02a503f82b1c","ios":"levelo://app?vid=4522a1df-ff92-4313-a58c-02a503f82b1c"},"vehicle_type_id":"4","last_reported":1758280112,"current_range_meters":17200,"station_id":"ce4bgt92rcd13ifvqcf0","pricing_plan_id":"cebpf4jnsgd1na2vs0mg"},{"bike_id":"348d4df0-388c-4b9c-973e-2239009623b7","system_id":"levelo_inurba_marseille","lat":43.3079,"lon":5.37637,"is_reserved":false,"is_disabled":false,"rental_uris":{"android":"levelo://app?vid=348d4df0-388c-4b9c-973e-2239009623b7","ios":"levelo://app?vid=348d4df0-388c-4b9c-973e-2239009623b7"},"vehicle_type_id":"4","last_reported":1758280112,"current_range_meters":17200,"station_id":"ce4bgv92rcd13ifvqcq0","pricing_plan_id":"cebpf4jnsgd1na2vs0mg"},{"bike_id":"f87481d6-e1e8-4f22-bd73-1e4f2515ca90","system_id":"levelo_inurba_marseille","lat":43.312255,"lon":5.3687,"is_reserved":false,"is_disabled":false,"rental_uris":{"android":"levelo://app?vid=f87481d6-e1e8-4f22-bd73-1e4f2515ca90","ios":"levelo://app?vid=f87481d6-e1e8-4f22-bd73-1e4f2515ca90"},"vehicle_type_id":"4","last_reported":1758280112,"current_range_meters":17600,"station_id":"ce4bgl92rcd13ifvqbq0","pricing_plan_id":"cebpf4jnsgd1na2vs0mg"},{"bike_id":"72cb56ec-5883-4fde-8464-df6a9c03c91a","system_id":"levelo_inurba_marseille","lat":43.29588,"lon":5.36735,"is_reserved":false,"is_disabled":false,"rental_uris":{"android":"levelo://app?vid=72cb56ec-5883-4fde-8464-df6a9c03c91a","ios":"levelo://app?vid=72cb56ec-5883-4fde-8464-df6a9c03c91a"},"vehicle_type_id":"4","last_reported":1758280112,"current_range_meters":17600,"station_id":"ce4bgph2rcd13ifvqc2g","pricing_plan_id":"cebpf4jnsgd1na2vs0mg"},{"bike_id":"30279a9d-e63a-446d-b6bf-61f4c5913911","system_id":"levelo_inurba_marseille","lat":43.28419,"lon":5.34979,"is_reserved":false,"is_disabled":false,"rental_uris":{"android":"levelo://app?vid=30279a9d-e63a-446d-b6bf-61f4c5913911","ios":"levelo://app?vid=30279a9d-e63a-446d-b6bf-61f4c5913911"},"vehicle_type_id":"4","last_reported":1758280112,"current_range_meters":17600,"station_id":"ce4bhbh2rcd13ifvqepg","pricing_plan_id":"cebpf4jnsgd1na2vs0mg"},{"bike_id":"43d57fd4-047e-4ac8-97e5-ec9b96239472","system_id":"levelo_inurba_marseille","lat":43.32946,"lon":5.39089,"is_reserved":false,"is_disabled":false,"rental_uris":{"android":"levelo://app?vid=43d57fd4-047e-4ac8-97e5-ec9b96239472","ios":"levelo://app?vid=43d57fd4-047e-4ac8-97e5-ec9b96239472"},"vehicle_type_id":"4","last_reported":1758280112,"current_range_meters":17600,"station_id":"","pricing_plan_id":"cebpf4jnsgd1na2vs0mg"},{"bike_id":"af92115d-6f7a-49ce-a65e-77f9182df835","system_id":"levelo_inurba_marseille","lat":43.21775,"lon":5.34613,"is_reserved":false,"is_disabled":false,"rental_uris":{"android":"levelo://app?vid=af92115d-6f7a-49ce-a65e-77f9182df835","ios":"levelo://app?vid=af92115d-6f7a-49ce-a65e-77f9182df835"},"vehicle_type_id":"4","last_reported":1758280112,"current_range_meters":18000,"station_id":"st_cvj6r9ubvosntc0bgbag","pricing_plan_id":"cebpf4jnsgd1na2vs0mg"},{"bike_id":"7f1be994-af2d-4c9a-807a-220e9a43367d","system_id":"levelo_inurba_marseille","lat":43.21762,"lon":5.34601,"is_reserved":false,"is_disabled":false,"rental_uris":{"android":"levelo://app?vid=7f1be994-af2d-4c9a-807a-220e9a43367d","ios":"levelo://app?vid=7f1be994-af2d-4c9a-807a-220e9a43367d"},"vehicle_type_id":"4","last_reported":1758280112,"current_range_meters":18000,"station_id":"st_cvj6r9ubvosntc0bgbag","pricing_plan_id":"cebpf4jnsgd1na2vs0mg"},{"bike_id":"af0490b6-c1c9-4895-8a15-568d23e0a730","system_id":"levelo_inurba_marseille","lat":43.28089,"lon":5.40754,"is_reserved":false,"is_disabled":false,"rental_uris":{"android":"levelo://app?vid=af0490b6-c1c9-4895-8a15-568d23e0a730","ios":"levelo://app?vid=af0490b6-c1c9-4895-8a15-568d23e0a730"},"vehicle_type_id":"4","last_reported":1758280112,"current_range_meters":18000,"station_id":"","pricing_plan_id":"cebpf4jnsgd1na2vs0mg"},{"bike_id":"a521828a-21f2-4627-8095-0f720588c481","system_id":"levelo_inurba_marseille","lat":43.21192,"lon":5.35073,"is_reserved":false,"is_disabled":false,"rental_uris":{"android":"levelo://app?vid=a521828a-21f2-4627-8095-0f720588c481","ios":"levelo://app?vid=a521828a-21f2-4627-8095-0f720588c481"},"vehicle_type_id":"4","last_reported":1758280112,"current_range_meters":18000,"station_id":"st_cvj6sg6p6f1abm77japg","pricing_plan_id":"cebpf4jnsgd1na2vs0mg"},{"bike_id":"c083e150-c459-4275-a224-25efb0df5a5b","system_id":"levelo_inurba_marseille","lat":43.29586,"lon":5.3674,"is_reserved":false,"is_disabled":false,"rental_uris":{"android":"levelo://app?vid=c083e150-c459-4275-a224-25efb0df5a5b","ios":"levelo://app?vid=c083e150-c459-4275-a224-25efb0df5a5b"},"vehicle_type_id":"4","last_reported":1758280112,"current_range_meters":18000,"station_id":"ce4bgph2rcd13ifvqc2g","pricing_plan_id":"cebpf4jnsgd1na2vs0mg"},{"bike_id":"55d1bc08-fd54-4a82-afc7-2adcaa7b1c4e","system_id":"levelo_inurba_marseille","lat":43.30032,"lon":5.37673,"is_reserved":false,"is_disabled":false,"rental_uris":{"android":"levelo://app?vid=55d1bc08-fd54-4a82-afc7-2adcaa7b1c4e","ios":"levelo://app?vid=55d1bc08-fd54-4a82-afc7-2adcaa7b1c4e"},"vehicle_type_id":"4","last_reported":1758280112,"current_range_meters":18000,"station_id":"","pricing_plan_id":"cebpf4jnsgd1na2vs0mg"},{"bike_id":"d582ba82-de0a-401e-8bd3-378f0cec80f7","system_id":"levelo_inurba_marseille","lat":43.25936,"lon":5.40884,"is_reserved":false,"is_disabled":false,"rental_uris":{"android":"levelo://app?vid=d582ba82-de0a-401e-8bd3-378f0cec80f7","ios":"levelo://app?vid=d582ba82-de0a-401e-8bd3-378f0cec80f7"},"vehicle_type_id":"4","last_reported":1758280112,"current_range_meters":18000,"station_id":"ce4bhm92rcd13ifvqglg","pricing_plan_id":"cebpf4jnsgd1na2vs0mg"},{"bike_id":"1d6512d2-0abe-496f-b56b-70823fb272b1","system_id":"levelo_inurba_marseille","lat":43.3377,"lon":5.37478,"is_reserved":false,"is_disabled":false,"rental_uris":{"android":"levelo://app?vid=1d6512d2-0abe-496f-b56b-70823fb272b1","ios":"levelo://app?vid=1d6512d2-0abe-496f-b56b-70823fb272b1"},"vehicle_type_id":"4","last_reported":1758280112,"current_range_meters":18000,"station_id":"ce4bgrh2rcd13ifvqc8g","pricing_plan_id":"cebpf4jnsgd1na2vs0mg"},{"bike_id":"a376ee41-1af3-4ca2-af7a-a3c2e062c3cc","system_id":"levelo_inurba_marseille","lat":43.29848,"lon":5.36279,"is_reserved":false,"is_disabled":false,"rental_uris":{"android":"levelo://app?vid=a376ee41-1af3-4ca2-af7a-a3c2e062c3cc","ios":"levelo://app?vid=a376ee41-1af3-4ca2-af7a-a3c2e062c3cc"},"vehicle_type_id":"4","last_reported":1758280112,"current_range_meters":18000,"station_id":"ce4bgpp2rcd13ifvqc3g","pricing_plan_id":"cebpf4jnsgd1na2vs0mg"},{"bike_id":"b810ec46-97ab-4356-95f9-0c9d02506d5a","system_id":"levelo_inurba_marseille","lat":43.24458,"lon":5.39039,"is_reserved":false,"is_disabled":false,"rental_uris":{"android":"levelo://app?vid=b810ec46-97ab-4356-95f9-0c9d02506d5a","ios":"levelo://app?vid=b810ec46-97ab-4356-95f9-0c9d02506d5a"},"vehicle_type_id":"4","last_reported":1758280112,"current_range_meters":18800,"station_id":"","pricing_plan_id":"cebpf4jnsgd1na2vs0mg"},{"bike_id":"579524a7-534b-4d5e-8393-4b981fc7ceec","system_id":"levelo_inurba_marseille","lat":43.29252,"lon":5.37255,"is_reserved":false,"is_disabled":false,"rental_uris":{"android":"levelo://app?vid=579524a7-534b-4d5e-8393-4b981fc7ceec","ios":"levelo://app?vid=579524a7-534b-4d5e-8393-4b981fc7ceec"},"vehicle_type_id":"4","last_reported":1758280112,"current_range_meters":18800,"station_id":"","pricing_plan_id":"cebpf4jnsgd1na2vs0mg"},{"bike_id":"514c4d85-d0be-4c17-aad6-f601776e2055","system_id":"levelo_inurba_marseille","lat":43.22567,"lon":5.41625,"is_reserved":false,"is_disabled":false,"rental_uris":{"android":"levelo://app?vid=514c4d85-d0be-4c17-aad6-f601776e2055","ios":"levelo://app?vid=514c4d85-d0be-4c17-aad6-f601776e2055"},"vehicle_type_id":"4","last_reported":1758280112,"current_range_meters":18800,"station_id":"st_d2o4gvlbi1j2169b742g","pricing_plan_id":"cebpf4jnsgd1na2vs0mg"},{"bike_id":"50eefacb-e064-48f5-a7a1-604c59694d3e","system_id":"levelo_inurba_marseille","lat":43.31173,"lon":5.38716,"is_reserved":false,"is_disabled":false,"rental_uris":{"android":"levelo://app?vid=50eefacb-e064-48f5-a7a1-604c59694d3e","ios":"levelo://app?vid=50eefacb-e064-48f5-a7a1-604c59694d3e"},"vehicle_type_id":"4","last_reported":1758280112,"current_range_meters":19200,"station_id":"ce4bgv12rcd13ifvqcp0","pricing_plan_id":"cebpf4jnsgd1na2vs0mg"},{"bike_id":"75cdae86-aa3c-46f9-92bf-f3662c1063cf","system_id":"levelo_inurba_marseille","lat":43.33717,"lon":5.39192,"is_reserved":false,"is_disabled":false,"rental_uris":{"android":"levelo://app?vid=75cdae86-aa3c-46f9-92bf-f3662c1063cf","ios":"levelo://app?vid=75cdae86-aa3c-46f9-92bf-f3662c1063cf"},"vehicle_type_id":"4","last_reported":1758280112,"current_range_meters":18800,"station_id":"ce4bhr92rcd13ifvqhsg","pricing_plan_id":"cebpf4jnsgd1na2vs0mg"},{"bike_id":"b4bca61c-5a6c-484e-9567-8aae03b87352","system_id":"levelo_inurba_marseille","lat":43.23151,"lon":5.43719,"is_reserved":false,"is_disabled":false,"rental_uris":{"android":"levelo://app?vid=b4bca61c-5a6c-484e-9567-8aae03b87352","ios":"levelo://app?vid=b4bca61c-5a6c-484e-9567-8aae03b87352"},"vehicle_type_id":"4","last_reported":1758280112,"current_range_meters":18800,"station_id":"ce4bhmp2rcd13ifvqgog","pricing_plan_id":"cebpf4jnsgd1na2vs0mg"},{"bike_id":"3f655ad2-b75a-442f-bbb4-9d8aa71d8b23","system_id":"levelo_inurba_marseille","lat":43.288045,"lon":5.3796,"is_reserved":false,"is_disabled":false,"rental_uris":{"android":"levelo://app?vid=3f655ad2-b75a-442f-bbb4-9d8aa71d8b23","ios":"levelo://app?vid=3f655ad2-b75a-442f-bbb4-9d8aa71d8b23"},"vehicle_type_id":"4","last_reported":1758280112,"current_range_meters":18800,"station_id":"ce4bh9p2rcd13ifvqec0","pricing_plan_id":"cebpf4jnsgd1na2vs0mg"},{"bike_id":"3d158a28-bece-4b10-9f82-ab3eb3313408","system_id":"levelo_inurba_marseille","lat":43.337485,"lon":5.374512,"is_reserved":false,"is_disabled":false,"rental_uris":{"android":"levelo://app?vid=3d158a28-bece-4b10-9f82-ab3eb3313408","ios":"levelo://app?vid=3d158a28-bece-4b10-9f82-ab3eb3313408"},"vehicle_type_id":"4","last_reported":1758280112,"current_range_meters":18800,"station_id":"","pricing_plan_id":"cebpf4jnsgd1na2vs0mg"},{"bike_id":"969e50c3-a6fa-49a2-8381-35f10a15b038","system_id":"levelo_inurba_marseille","lat":43.22559,"lon":5.41638,"is_reserved":false,"is_disabled":false,"rental_uris":{"android":"levelo://app?vid=969e50c3-a6fa-49a2-8381-35f10a15b038","ios":"levelo://app?vid=969e50c3-a6fa-49a2-8381-35f10a15b038"},"vehicle_type_id":"4","last_reported":1758280112,"current_range_meters":18800,"station_id":"st_d2o4gvlbi1j2169b742g","pricing_plan_id":"cebpf4jnsgd1na2vs0mg"},{"bike_id":"11f5b791-38b6-4186-ab5f-78582d4b3460","system_id":"levelo_inurba_marseille","lat":43.2119,"lon":5.35081,"is_reserved":false,"is_disabled":true,"rental_uris":{"android":"levelo://app?vid=11f5b791-38b6-4186-ab5f-78582d4b3460","ios":"levelo://app?vid=11f5b791-38b6-4186-ab5f-78582d4b3460"},"vehicle_type_id":"4","last_reported":1758280112,"current_range_meters":18800,"station_id":"st_cvj6sg6p6f1abm77japg","pricing_plan_id":"cebpf4jnsgd1na2vs0mg"},{"bike_id":"0f7caa9f-1d1a-40d7-9b4a-2f8720e63681","system_id":"levelo_inurba_marseille","lat":43.30866,"lon":5.37505,"is_reserved":false,"is_disabled":false,"rental_uris":{"android":"levelo://app?vid=0f7caa9f-1d1a-40d7-9b4a-2f8720e63681","ios":"levelo://app?vid=0f7caa9f-1d1a-40d7-9b4a-2f8720e63681"},"vehicle_type_id":"4","last_reported":1758280112,"current_range_meters":19200,"station_id":"","pricing_plan_id":"cebpf4jnsgd1na2vs0mg"},{"bike_id":"aca3e953-4c31-4dbb-a95d-7c19d7cccce3","system_id":"levelo_inurba_marseille","lat":43.29037,"lon":5.3996,"is_reserved":false,"is_disabled":false,"rental_uris":{"android":"levelo://app?vid=aca3e953-4c31-4dbb-a95d-7c19d7cccce3","ios":"levelo://app?vid=aca3e953-4c31-4dbb-a95d-7c19d7cccce3"},"vehicle_type_id":"4","last_reported":1758280112,"current_range_meters":19200,"station_id":"ce4bh392rcd13ifvqdm0","pricing_plan_id":"cebpf4jnsgd1na2vs0mg"},{"bike_id":"2c1beb68-2c6b-40d2-bbc9-53060271a943","system_id":"levelo_inurba_marseille","lat":43.23157,"lon":5.43707,"is_reserved":false,"is_disabled":false,"rental_uris":{"android":"levelo://app?vid=2c1beb68-2c6b-40d2-bbc9-53060271a943","ios":"levelo://app?vid=2c1beb68-2c6b-40d2-bbc9-53060271a943"},"vehicle_type_id":"4","last_reported":1758280112,"current_range_meters":19600,"station_id":"ce4bhmp2rcd13ifvqgog","pricing_plan_id":"cebpf4jnsgd1na2vs0mg"},{"bike_id":"016479c8-adb3-4e9f-91ab-63dde4601175","system_id":"levelo_inurba_marseille","lat":43.29799,"lon":5.38122,"is_reserved":false,"is_disabled":true,"rental_uris":{"android":"levelo://app?vid=016479c8-adb3-4e9f-91ab-63dde4601175","ios":"levelo://app?vid=016479c8-adb3-4e9f-91ab-63dde4601175"},"vehicle_type_id":"4","last_reported":1758280112,"current_range_meters":19200,"station_id":"ce4bgip2rcd13ifvqbb0","pricing_plan_id":"cebpf4jnsgd1na2vs0mg"},{"bike_id":"dc9ca000-93d6-4301-93eb-1a1d63a2b777","system_id":"levelo_inurba_marseille","lat":43.2869,"lon":5.3739,"is_reserved":false,"is_disabled":false,"rental_uris":{"android":"levelo://app?vid=dc9ca000-93d6-4301-93eb-1a1d63a2b777","ios":"levelo://app?vid=dc9ca000-93d6-4301-93eb-1a1d63a2b777"},"vehicle_type_id":"4","last_reported":1758280112,"current_range_meters":19200,"station_id":"","pricing_plan_id":"cebpf4jnsgd1na2vs0mg"},{"bike_id":"13eb3edd-9f60-4741-ac45-2e7c3cc7d73c","system_id":"levelo_inurba_marseille","lat":43.28423,"lon":5.34979,"is_reserved":false,"is_disabled":false,"rental_uris":{"android":"levelo://app?vid=13eb3edd-9f60-4741-ac45-2e7c3cc7d73c","ios":"levelo://app?vid=13eb3edd-9f60-4741-ac45-2e7c3cc7d73c"},"vehicle_type_id":"4","last_reported":1758280112,"current_range_meters":19200,"station_id":"ce4bhbh2rcd13ifvqepg","pricing_plan_id":"cebpf4jnsgd1na2vs0mg"},{"bike_id":"a637213f-08e1-4d25-83b0-955be83cd46c","system_id":"levelo_inurba_marseille","lat":43.27062,"lon":5.40262,"is_reserved":false,"is_disabled":false,"rental_uris":{"android":"levelo://app?vid=a637213f-08e1-4d25-83b0-955be83cd46c","ios":"levelo://app?vid=a637213f-08e1-4d25-83b0-955be83cd46c"},"vehicle_type_id":"4","last_reported":1758280112,"current_range_meters":19200,"station_id":"ce4bhk92rcd13ifvqgc0","pricing_plan_id":"cebpf4jnsgd1na2vs0mg"},{"bike_id":"90944ea4-0b5a-470a-8fe6-9cbe1ba4463a","system_id":"levelo_inurba_marseille","lat":43.24948,"lon":5.40473,"is_reserved":false,"is_disabled":false,"rental_uris":{"android":"levelo://app?vid=90944ea4-0b5a-470a-8fe6-9cbe1ba4463a","ios":"levelo://app?vid=90944ea4-0b5a-470a-8fe6-9cbe1ba4463a"},"vehicle_type_id":"4","last_reported":1758280112,"current_range_meters":19200,"station_id":"st_d2ngiaodas8pm72gd1h0","pricing_plan_id":"cebpf4jnsgd1na2vs0mg"},{"bike_id":"f0a2504a-303d-4ae9-8d63-2c755fe4265a","system_id":"levelo_inurba_marseille","lat":43.2318,"lon":5.39986,"is_reserved":false,"is_disabled":false,"rental_uris":{"android":"levelo://app?vid=f0a2504a-303d-4ae9-8d63-2c755fe4265a","ios":"levelo://app?vid=f0a2504a-303d-4ae9-8d63-2c755fe4265a"},"vehicle_type_id":"4","last_reported":1758280112,"current_range_meters":19200,"station_id":"ce4bhn12rcd13ifvqgqg","pricing_plan_id":"cebpf4jnsgd1na2vs0mg"},{"bike_id":"2a00cb84-e9e6-4781-804d-0494d7480777","system_id":"levelo_inurba_marseille","lat":43.2256,"lon":5.41631,"is_reserved":false,"is_disabled":false,"rental_uris":{"android":"levelo://app?vid=2a00cb84-e9e6-4781-804d-0494d7480777","ios":"levelo://app?vid=2a00cb84-e9e6-4781-804d-0494d7480777"},"vehicle_type_id":"4","last_reported":1758280112,"current_range_meters":19600,"station_id":"st_d2o4gvlbi1j2169b742g","pricing_plan_id":"cebpf4jnsgd1na2vs0mg"},{"bike_id":"52ca4bd1-8070-4df7-becb-054a424131e9","system_id":"levelo_inurba_marseille","lat":43.28612,"lon":5.35098,"is_reserved":false,"is_disabled":false,"rental_uris":{"android":"levelo://app?vid=52ca4bd1-8070-4df7-becb-054a424131e9","ios":"levelo://app?vid=52ca4bd1-8070-4df7-becb-054a424131e9"},"vehicle_type_id":"4","last_reported":1758280112,"current_range_meters":19600,"station_id":"ce4bhch2rcd13ifvqeug","pricing_plan_id":"cebpf4jnsgd1na2vs0mg"},{"bike_id":"2c734c36-442f-468e-ab47-e34ad5183e32","system_id":"levelo_inurba_marseille","lat":43.25772,"lon":5.41047,"is_reserved":false,"is_disabled":true,"rental_uris":{"android":"levelo://app?vid=2c734c36-442f-468e-ab47-e34ad5183e32","ios":"levelo://app?vid=2c734c36-442f-468e-ab47-e34ad5183e32"},"vehicle_type_id":"4","last_reported":1758280112,"current_range_meters":19600,"station_id":"","pricing_plan_id":"cebpf4jnsgd1na2vs0mg"},{"bike_id":"29b948c5-8e81-4123-bb18-69672aa9e237","system_id":"levelo_inurba_marseille","lat":43.29758,"lon":5.37663,"is_reserved":false,"is_disabled":false,"rental_uris":{"android":"levelo://app?vid=29b948c5-8e81-4123-bb18-69672aa9e237","ios":"levelo://app?vid=29b948c5-8e81-4123-bb18-69672aa9e237"},"vehicle_type_id":"4","last_reported":1758280112,"current_range_meters":19600,"station_id":"","pricing_plan_id":"cebpf4jnsgd1na2vs0mg"},{"bike_id":"8e047761-4cb2-4fa7-920f-ce3feb6390f9","system_id":"levelo_inurba_marseille","lat":43.33763,"lon":5.37452,"is_reserved":false,"is_disabled":false,"rental_uris":{"android":"levelo://app?vid=8e047761-4cb2-4fa7-920f-ce3feb6390f9","ios":"levelo://app?vid=8e047761-4cb2-4fa7-920f-ce3feb6390f9"},"vehicle_type_id":"4","last_reported":1758280112,"current_range_meters":19600,"station_id":"","pricing_plan_id":"cebpf4jnsgd1na2vs0mg"},{"bike_id":"40664db5-7046-4ff5-a021-2d2014e319b7","system_id":"levelo_inurba_marseille","lat":43.30544,"lon":5.36537,"is_reserved":false,"is_disabled":false,"rental_uris":{"android":"levelo://app?vid=40664db5-7046-4ff5-a021-2d2014e319b7","ios":"levelo://app?vid=40664db5-7046-4ff5-a021-2d2014e319b7"},"vehicle_type_id":"4","last_reported":1758280112,"current_range_meters":19600,"station_id":"ce4bgs12rcd13ifvqcag","pricing_plan_id":"cebpf4jnsgd1na2vs0mg"},{"bike_id":"a07a513e-e5a9-4481-8592-d991379bc662","system_id":"levelo_inurba_marseille","lat":43.337536,"lon":5.374536,"is_reserved":false,"is_disabled":false,"rental_uris":{"android":"levelo://app?vid=a07a513e-e5a9-4481-8592-d991379bc662","ios":"levelo://app?vid=a07a513e-e5a9-4481-8592-d991379bc662"},"vehicle_type_id":"4","last_reported":1758280112,"current_range_meters":19600,"station_id":"","pricing_plan_id":"cebpf4jnsgd1na2vs0mg"},{"bike_id":"24a527b8-62c3-4bea-8ecb-895d7ab22547","system_id":"levelo_inurba_marseille","lat":43.29633,"lon":5.40594,"is_reserved":false,"is_disabled":false,"rental_uris":{"android":"levelo://app?vid=24a527b8-62c3-4bea-8ecb-895d7ab22547","ios":"levelo://app?vid=24a527b8-62c3-4bea-8ecb-895d7ab22547"},"vehicle_type_id":"4","last_reported":1758280112,"current_range_meters":20000,"station_id":"ce4bh0h2rcd13ifvqd60","pricing_plan_id":"cebpf4jnsgd1na2vs0mg"},{"bike_id":"1a934ff4-5e4e-4f83-8a40-99dffb79643e","system_id":"levelo_inurba_marseille","lat":43.2998,"lon":5.38505,"is_reserved":false,"is_disabled":false,"rental_uris":{"android":"levelo://app?vid=1a934ff4-5e4e-4f83-8a40-99dffb79643e","ios":"levelo://app?vid=1a934ff4-5e4e-4f83-8a40-99dffb79643e"},"vehicle_type_id":"4","last_reported":1758280112,"current_range_meters":20000,"station_id":"ce4bgj92rcd13ifvqbd0","pricing_plan_id":"cebpf4jnsgd1na2vs0mg"},{"bike_id":"68adab37-f5ad-4072-b58a-fe6c68285ca6","system_id":"levelo_inurba_marseille","lat":43.30597,"lon":5.37641,"is_reserved":false,"is_disabled":false,"rental_uris":{"android":"levelo://app?vid=68adab37-f5ad-4072-b58a-fe6c68285ca6","ios":"levelo://app?vid=68adab37-f5ad-4072-b58a-fe6c68285ca6"},"vehicle_type_id":"4","last_reported":1758280112,"current_range_meters":20000,"station_id":"","pricing_plan_id":"cebpf4jnsgd1na2vs0mg"},{"bike_id":"540526ca-6f74-42d9-89ed-fe5451f64689","system_id":"levelo_inurba_marseille","lat":43.26568,"lon":5.39017,"is_reserved":false,"is_disabled":false,"rental_uris":{"android":"levelo://app?vid=540526ca-6f74-42d9-89ed-fe5451f64689","ios":"levelo://app?vid=540526ca-6f74-42d9-89ed-fe5451f64689"},"vehicle_type_id":"4","last_reported":1758280112,"current_range_meters":20000,"station_id":"ce4bhe12rcd13ifvqf30","pricing_plan_id":"cebpf4jnsgd1na2vs0mg"},{"bike_id":"b05ab237-5916-46ac-a2fb-5139a54b4b22","system_id":"levelo_inurba_marseille","lat":43.24164,"lon":5.36414,"is_reserved":false,"is_disabled":false,"rental_uris":{"android":"levelo://app?vid=b05ab237-5916-46ac-a2fb-5139a54b4b22","ios":"levelo://app?vid=b05ab237-5916-46ac-a2fb-5139a54b4b22"},"vehicle_type_id":"4","last_reported":1758280112,"current_range_meters":20000,"station_id":"cpo36qri1sfpv3e86is0","pricing_plan_id":"cebpf4jnsgd1na2vs0mg"},{"bike_id":"e26424ca-8e61-4792-8c48-17cb93dcbe5a","system_id":"levelo_inurba_marseille","lat":43.29828,"lon":5.377,"is_reserved":false,"is_disabled":false,"rental_uris":{"android":"levelo://app?vid=e26424ca-8e61-4792-8c48-17cb93dcbe5a","ios":"levelo://app?vid=e26424ca-8e61-4792-8c48-17cb93dcbe5a"},"vehicle_type_id":"4","last_reported":1758280112,"current_range_meters":20000,"station_id":"","pricing_plan_id":"cebpf4jnsgd1na2vs0mg"},{"bike_id":"032527b8-eb78-445a-abe4-ee3c0d38da26","system_id":"levelo_inurba_marseille","lat":43.26225,"lon":5.37441,"is_reserved":false,"is_disabled":false,"rental_uris":{"android":"levelo://app?vid=032527b8-eb78-445a-abe4-ee3c0d38da26","ios":"levelo://app?vid=032527b8-eb78-445a-abe4-ee3c0d38da26"},"vehicle_type_id":"4","last_reported":1758280112,"current_range_meters":20400,"station_id":"","pricing_plan_id":"cebpf4jnsgd1na2vs0mg"},{"bike_id":"78fb7f7c-adb1-466e-8295-7970c08c829f","system_id":"levelo_inurba_marseille","lat":43.28263,"lon":5.35066,"is_reserved":false,"is_disabled":false,"rental_uris":{"android":"levelo://app?vid=78fb7f7c-adb1-466e-8295-7970c08c829f","ios":"levelo://app?vid=78fb7f7c-adb1-466e-8295-7970c08c829f"},"vehicle_type_id":"4","last_reported":1758280112,"current_range_meters":20400,"station_id":"ce4bhbp2rcd13ifvqerg","pricing_plan_id":"cebpf4jnsgd1na2vs0mg"},{"bike_id":"f6fce7bb-be14-47f8-99c6-39c4133938f6","system_id":"levelo_inurba_marseille","lat":43.26955,"lon":5.38631,"is_reserved":false,"is_disabled":false,"rental_uris":{"android":"levelo://app?vid=f6fce7bb-be14-47f8-99c6-39c4133938f6","ios":"levelo://app?vid=f6fce7bb-be14-47f8-99c6-39c4133938f6"},"vehicle_type_id":"4","last_reported":1758280112,"current_range_meters":20400,"station_id":"ce4bhh92rcd13ifvqfh0","pricing_plan_id":"cebpf4jnsgd1na2vs0mg"},{"bike_id":"b161eb5a-d2da-4fcd-87bf-0b895a6a6bac","system_id":"levelo_inurba_marseille","lat":43.30536,"lon":5.36711,"is_reserved":false,"is_disabled":false,"rental_uris":{"android":"levelo://app?vid=b161eb5a-d2da-4fcd-87bf-0b895a6a6bac","ios":"levelo://app?vid=b161eb5a-d2da-4fcd-87bf-0b895a6a6bac"},"vehicle_type_id":"4","last_reported":1758280112,"current_range_meters":20400,"station_id":"ce4bgrp2rcd13ifvqc9g","pricing_plan_id":"cebpf4jnsgd1na2vs0mg"},{"bike_id":"622e6da0-7ea0-4709-acc3-5fab7e337770","system_id":"levelo_inurba_marseille","lat":43.29936,"lon":5.36534,"is_reserved":false,"is_disabled":false,"rental_uris":{"android":"levelo://app?vid=622e6da0-7ea0-4709-acc3-5fab7e337770","ios":"levelo://app?vid=622e6da0-7ea0-4709-acc3-5fab7e337770"},"vehicle_type_id":"4","last_reported":1758280112,"current_range_meters":20400,"station_id":"ce4bgm92rcd13ifvqbr0","pricing_plan_id":"cebpf4jnsgd1na2vs0mg"},{"bike_id":"5f869ac4-7f0c-4866-b3d7-c58a0cf71c6e","system_id":"levelo_inurba_marseille","lat":43.29803,"lon":5.38086,"is_reserved":false,"is_disabled":false,"rental_uris":{"android":"levelo://app?vid=5f869ac4-7f0c-4866-b3d7-c58a0cf71c6e","ios":"levelo://app?vid=5f869ac4-7f0c-4866-b3d7-c58a0cf71c6e"},"vehicle_type_id":"4","last_reported":1758280112,"current_range_meters":20800,"station_id":"ce4bgip2rcd13ifvqbb0","pricing_plan_id":"cebpf4jnsgd1na2vs0mg"},{"bike_id":"db434c3f-5539-4779-8617-33f69acaa17c","system_id":"levelo_inurba_marseille","lat":43.2656,"lon":5.39028,"is_reserved":false,"is_disabled":false,"rental_uris":{"android":"levelo://app?vid=db434c3f-5539-4779-8617-33f69acaa17c","ios":"levelo://app?vid=db434c3f-5539-4779-8617-33f69acaa17c"},"vehicle_type_id":"4","last_reported":1758280112,"current_range_meters":20800,"station_id":"ce4bhe12rcd13ifvqf30","pricing_plan_id":"cebpf4jnsgd1na2vs0mg"},{"bike_id":"22ae5cd1-fa2c-4041-938b-ff00bd955e81","system_id":"levelo_inurba_marseille","lat":43.27372,"lon":5.36261,"is_reserved":false,"is_disabled":false,"rental_uris":{"android":"levelo://app?vid=22ae5cd1-fa2c-4041-938b-ff00bd955e81","ios":"levelo://app?vid=22ae5cd1-fa2c-4041-938b-ff00bd955e81"},"vehicle_type_id":"4","last_reported":1758280112,"current_range_meters":20800,"station_id":"ce4bhbh2rcd13ifvqeo0","pricing_plan_id":"cebpf4jnsgd1na2vs0mg"},{"bike_id":"b8af4056-fb36-4e39-a4f0-5cd179383459","system_id":"levelo_inurba_marseille","lat":43.32918,"lon":5.38949,"is_reserved":false,"is_disabled":false,"rental_uris":{"android":"levelo://app?vid=b8af4056-fb36-4e39-a4f0-5cd179383459","ios":"levelo://app?vid=b8af4056-fb36-4e39-a4f0-5cd179383459"},"vehicle_type_id":"4","last_reported":1758280112,"current_range_meters":20800,"station_id":"","pricing_plan_id":"cebpf4jnsgd1na2vs0mg"},{"bike_id":"6342defc-6ef6-41ac-a996-0453ff8e60b2","system_id":"levelo_inurba_marseille","lat":43.29721,"lon":5.37686,"is_reserved":false,"is_disabled":false,"rental_uris":{"android":"levelo://app?vid=6342defc-6ef6-41ac-a996-0453ff8e60b2","ios":"levelo://app?vid=6342defc-6ef6-41ac-a996-0453ff8e60b2"},"vehicle_type_id":"4","last_reported":1758280112,"current_range_meters":21600,"station_id":"ce4bgkh2rcd13ifvqbl0","pricing_plan_id":"cebpf4jnsgd1na2vs0mg"},{"bike_id":"ff2cd17b-1c4e-47ba-94c4-f5b2cfb9e2ca","system_id":"levelo_inurba_marseille","lat":43.28267,"lon":5.35068,"is_reserved":false,"is_disabled":false,"rental_uris":{"android":"levelo://app?vid=ff2cd17b-1c4e-47ba-94c4-f5b2cfb9e2ca","ios":"levelo://app?vid=ff2cd17b-1c4e-47ba-94c4-f5b2cfb9e2ca"},"vehicle_type_id":"4","last_reported":1758280112,"current_range_meters":21600,"station_id":"ce4bhbp2rcd13ifvqerg","pricing_plan_id":"cebpf4jnsgd1na2vs0mg"},{"bike_id":"23e44796-59ba-4d04-9b83-a1af97780593","system_id":"levelo_inurba_marseille","lat":43.28676,"lon":5.3997,"is_reserved":false,"is_disabled":false,"rental_uris":{"android":"levelo://app?vid=23e44796-59ba-4d04-9b83-a1af97780593","ios":"levelo://app?vid=23e44796-59ba-4d04-9b83-a1af97780593"},"vehicle_type_id":"4","last_reported":1758280112,"current_range_meters":21600,"station_id":"ce4bho92rcd13ifvqh3g","pricing_plan_id":"cebpf4jnsgd1na2vs0mg"},{"bike_id":"b0d80408-bd54-4aa0-9e2b-b0ea774f0d07","system_id":"levelo_inurba_marseille","lat":43.311176,"lon":5.377652,"is_reserved":false,"is_disabled":false,"rental_uris":{"android":"levelo://app?vid=b0d80408-bd54-4aa0-9e2b-b0ea774f0d07","ios":"levelo://app?vid=b0d80408-bd54-4aa0-9e2b-b0ea774f0d07"},"vehicle_type_id":"4","last_reported":1758280112,"current_range_meters":21600,"station_id":"ce4bgt92rcd13ifvqcg0","pricing_plan_id":"cebpf4jnsgd1na2vs0mg"},{"bike_id":"37f99d20-8b7f-45c6-94aa-9a4143897022","system_id":"levelo_inurba_marseille","lat":43.30924,"lon":5.40131,"is_reserved":false,"is_disabled":false,"rental_uris":{"android":"levelo://app?vid=37f99d20-8b7f-45c6-94aa-9a4143897022","ios":"levelo://app?vid=37f99d20-8b7f-45c6-94aa-9a4143897022"},"vehicle_type_id":"4","last_reported":1758280112,"current_range_meters":21600,"station_id":"","pricing_plan_id":"cebpf4jnsgd1na2vs0mg"},{"bike_id":"76bbf107-7ec5-4826-b296-ab629ecd14ab","system_id":"levelo_inurba_marseille","lat":43.2983,"lon":5.42044,"is_reserved":false,"is_disabled":false,"rental_uris":{"android":"levelo://app?vid=76bbf107-7ec5-4826-b296-ab629ecd14ab","ios":"levelo://app?vid=76bbf107-7ec5-4826-b296-ab629ecd14ab"},"vehicle_type_id":"4","last_reported":1758280112,"current_range_meters":21600,"station_id":"","pricing_plan_id":"cebpf4jnsgd1na2vs0mg"},{"bike_id":"29fe1240-3a82-4e69-9ceb-0d84b972bfbb","system_id":"levelo_inurba_marseille","lat":43.31501,"lon":5.37294,"is_reserved":false,"is_disabled":false,"rental_uris":{"android":"levelo://app?vid=29fe1240-3a82-4e69-9ceb-0d84b972bfbb","ios":"levelo://app?vid=29fe1240-3a82-4e69-9ceb-0d84b972bfbb"},"vehicle_type_id":"4","last_reported":1758280112,"current_range_meters":22000,"station_id":"ce4bgt12rcd13ifvqcd0","pricing_plan_id":"cebpf4jnsgd1na2vs0mg"},{"bike_id":"d7de6ddb-d79e-4253-996c-2ead4e72dbd2","system_id":"levelo_inurba_marseille","lat":43.30182,"lon":5.36624,"is_reserved":false,"is_disabled":false,"rental_uris":{"android":"levelo://app?vid=d7de6ddb-d79e-4253-996c-2ead4e72dbd2","ios":"levelo://app?vid=d7de6ddb-d79e-4253-996c-2ead4e72dbd2"},"vehicle_type_id":"4","last_reported":1758280112,"current_range_meters":22000,"station_id":"ce4bgrh2rcd13ifvqc8g","pricing_plan_id":"cebpf4jnsgd1na2vs0mg"},{"bike_id":"8b709b79-be31-47c0-8e6a-6bb242b3edef","system_id":"levelo_inurba_marseille","lat":43.28854,"lon":5.39322,"is_reserved":false,"is_disabled":false,"rental_uris":{"android":"levelo://app?vid=8b709b79-be31-47c0-8e6a-6bb242b3edef","ios":"levelo://app?vid=8b709b79-be31-47c0-8e6a-6bb242b3edef"},"vehicle_type_id":"4","last_reported":1758280112,"current_range_meters":22000,"station_id":"ce4bh2p2rcd13ifvqdi0","pricing_plan_id":"cebpf4jnsgd1na2vs0mg"},{"bike_id":"97514a44-1f4d-4ae1-a270-04ca7b75c621","system_id":"levelo_inurba_marseille","lat":43.2886,"lon":5.42532,"is_reserved":false,"is_disabled":false,"rental_uris":{"android":"levelo://app?vid=97514a44-1f4d-4ae1-a270-04ca7b75c621","ios":"levelo://app?vid=97514a44-1f4d-4ae1-a270-04ca7b75c621"},"vehicle_type_id":"4","last_reported":1758280112,"current_range_meters":22000,"station_id":"","pricing_plan_id":"cebpf4jnsgd1na2vs0mg"},{"bike_id":"79904a2d-8111-4695-83a1-80a10ee5b7ee","system_id":"levelo_inurba_marseille","lat":43.28855,"lon":5.39324,"is_reserved":false,"is_disabled":false,"rental_uris":{"android":"levelo://app?vid=79904a2d-8111-4695-83a1-80a10ee5b7ee","ios":"levelo://app?vid=79904a2d-8111-4695-83a1-80a10ee5b7ee"},"vehicle_type_id":"4","last_reported":1758280112,"current_range_meters":22000,"station_id":"ce4bh2p2rcd13ifvqdi0","pricing_plan_id":"cebpf4jnsgd1na2vs0mg"},{"bike_id":"5e3d6065-cb7d-4e16-aa3f-8ea31c1dc5e3","system_id":"levelo_inurba_marseille","lat":43.28418,"lon":5.3499,"is_reserved":false,"is_disabled":false,"rental_uris":{"android":"levelo://app?vid=5e3d6065-cb7d-4e16-aa3f-8ea31c1dc5e3","ios":"levelo://app?vid=5e3d6065-cb7d-4e16-aa3f-8ea31c1dc5e3"},"vehicle_type_id":"4","last_reported":1758280112,"current_range_meters":22000,"station_id":"ce4bhbh2rcd13ifvqepg","pricing_plan_id":"cebpf4jnsgd1na2vs0mg"},{"bike_id":"3ee35834-5807-49b4-a2b1-4a0f29c611e4","system_id":"levelo_inurba_marseille","lat":43.29849,"lon":5.36274,"is_reserved":false,"is_disabled":false,"rental_uris":{"android":"levelo://app?vid=3ee35834-5807-49b4-a2b1-4a0f29c611e4","ios":"levelo://app?vid=3ee35834-5807-49b4-a2b1-4a0f29c611e4"},"vehicle_type_id":"4","last_reported":1758280112,"current_range_meters":22400,"station_id":"ce4bgpp2rcd13ifvqc3g","pricing_plan_id":"cebpf4jnsgd1na2vs0mg"},{"bike_id":"fa51ffa4-3f55-4a3d-86f2-f41a060a75bb","system_id":"levelo_inurba_marseille","lat":43.23952,"lon":5.36627,"is_reserved":false,"is_disabled":true,"rental_uris":{"android":"levelo://app?vid=fa51ffa4-3f55-4a3d-86f2-f41a060a75bb","ios":"levelo://app?vid=fa51ffa4-3f55-4a3d-86f2-f41a060a75bb"},"vehicle_type_id":"4","last_reported":1758280112,"current_range_meters":22400,"station_id":"ce4bhi12rcd13ifvqfp0","pricing_plan_id":"cebpf4jnsgd1na2vs0mg"},{"bike_id":"15058e4e-9116-4a8f-bad1-3d30e260bb98","system_id":"levelo_inurba_marseille","lat":43.29897,"lon":5.4367,"is_reserved":false,"is_disabled":false,"rental_uris":{"android":"levelo://app?vid=15058e4e-9116-4a8f-bad1-3d30e260bb98","ios":"levelo://app?vid=15058e4e-9116-4a8f-bad1-3d30e260bb98"},"vehicle_type_id":"4","last_reported":1758280112,"current_range_meters":22400,"station_id":"ce4bhpp2rcd13ifvqhfg","pricing_plan_id":"cebpf4jnsgd1na2vs0mg"},{"bike_id":"632f0adc-c745-4e6d-b4f4-a7efe29c7b93","system_id":"levelo_inurba_marseille","lat":43.217484,"lon":5.34602,"is_reserved":false,"is_disabled":false,"rental_uris":{"android":"levelo://app?vid=632f0adc-c745-4e6d-b4f4-a7efe29c7b93","ios":"levelo://app?vid=632f0adc-c745-4e6d-b4f4-a7efe29c7b93"},"vehicle_type_id":"4","last_reported":1758280112,"current_range_meters":22400,"station_id":"st_cvj6r9ubvosntc0bgbag","pricing_plan_id":"cebpf4jnsgd1na2vs0mg"},{"bike_id":"4fb3e8c0-ec86-432c-a7cc-69c5045aebfb","system_id":"levelo_inurba_marseille","lat":43.2721,"lon":5.39182,"is_reserved":false,"is_disabled":false,"rental_uris":{"android":"levelo://app?vid=4fb3e8c0-ec86-432c-a7cc-69c5045aebfb","ios":"levelo://app?vid=4fb3e8c0-ec86-432c-a7cc-69c5045aebfb"},"vehicle_type_id":"4","last_reported":1758280112,"current_range_meters":22400,"station_id":"ce4bhhp2rcd13ifvqfm0","pricing_plan_id":"cebpf4jnsgd1na2vs0mg"},{"bike_id":"7a9d1c79-5f96-47e7-88c6-dc6ab59e08d5","system_id":"levelo_inurba_marseille","lat":43.30157,"lon":5.38089,"is_reserved":false,"is_disabled":false,"rental_uris":{"android":"levelo://app?vid=7a9d1c79-5f96-47e7-88c6-dc6ab59e08d5","ios":"levelo://app?vid=7a9d1c79-5f96-47e7-88c6-dc6ab59e08d5"},"vehicle_type_id":"4","last_reported":1758280112,"current_range_meters":22800,"station_id":"ce4bgjp2rcd13ifvqbh0","pricing_plan_id":"cebpf4jnsgd1na2vs0mg"},{"bike_id":"cdbb0942-6634-4783-8aa6-dfb4e62988bc","system_id":"levelo_inurba_marseille","lat":43.28851,"lon":5.39318,"is_reserved":false,"is_disabled":false,"rental_uris":{"android":"levelo://app?vid=cdbb0942-6634-4783-8aa6-dfb4e62988bc","ios":"levelo://app?vid=cdbb0942-6634-4783-8aa6-dfb4e62988bc"},"vehicle_type_id":"4","last_reported":1758280112,"current_range_meters":22800,"station_id":"ce4bh2p2rcd13ifvqdi0","pricing_plan_id":"cebpf4jnsgd1na2vs0mg"},{"bike_id":"7770c748-d42d-4bbc-be2d-0ceb72337e95","system_id":"levelo_inurba_marseille","lat":43.29717,"lon":5.36615,"is_reserved":false,"is_disabled":false,"rental_uris":{"android":"levelo://app?vid=7770c748-d42d-4bbc-be2d-0ceb72337e95","ios":"levelo://app?vid=7770c748-d42d-4bbc-be2d-0ceb72337e95"},"vehicle_type_id":"4","last_reported":1758280112,"current_range_meters":23200,"station_id":"ce4bgn12rcd13ifvqbt0","pricing_plan_id":"cebpf4jnsgd1na2vs0mg"},