{"last_updated":1738274871,"ttl":60,"version":"2.2","data":{"bikes":[{"bike_id":"56219279-1c5e-4efe-819b-8ac0b6caa470","system_id":"levelo_inurba_marseille","lat":43.3036,"lon":5.4187,"is_reserved":false,"is_disabled":false,"rental_uris":{"android":"levelo://app?vid=56219279-1c5e-4efe-819b-8ac0b6caa470","ios":"levelo://app?vid=56219279-1c5e-4efe-819b-8ac0b6caa470"},"vehicle_type_id":"4","last_reported":1738274871,"current_range_meters":38800,"station_id":"ce4bhop2rcd13ifvqh7g","pricing_plan_id":"cebpf4jnsgd1na2vs0mg"},{"bike_id":"0fa92497-1005-4bac-b6d6-30bd7d7650c6","system_id":"levelo_inurba_marseille","lat":43.28268,"lon":5.35091,"is_reserved":false,"is_disabled":false,"rental_uris":{"android":"levelo://app?vid=0fa92497-1005-4bac-b6d6-30bd7d7650c6","ios":"levelo://app?vid=0fa92497-1005-4bac-b6d6-30bd7d7650c6"},"vehicle_type_id":"4","last_reported":1738274871,"current_range_meters":38000,"station_id":"ce4bhbp2rcd13ifvqerg","pricing_plan_id":"cebpf4jnsgd1na2vs0mg"},{"bike_id":"31d85194-52b6-491a-8972-0a24f6ccd8d1","system_id":"levelo_inurba_marseille","lat":43.28469,"lon":5.35868,"is_reserved":false,"is_disabled":false,"rental_uris":{"android":"levelo://app?vid=31d85194-52b6-491a-8972-0a24f6ccd8d1","ios":"levelo://app?vid=31d85194-52b6-491a-8972-0a24f6ccd8d1"},"vehicle_type_id":"4","last_reported":1738274871,"current_range_meters":32000,"station_id":"ce4bhah2rcd13ifvqei0","pricing_plan_id":"cebpf4jnsgd1na2vs0mg"},{"bike_id":"59bdc6ab-9080-4517-b42e-bc8a384a7522","system_id":"levelo_inurba_marseille","lat":43.3079,"lon":5.37645,"is_reserved":false,"is_disabled":false,"rental_uris":{"android":"levelo://app?vid=59bdc6ab-9080-4517-b42e-bc8a384a7522","ios":"levelo://app?vid=59bdc6ab-9080-4517-b42e-bc8a384a7522"},"vehicle_type_id":"4","last_reported":1738274871,"current_range_meters":39200,"station_id":"ce4bgv92rcd13ifvqcq0","pricing_plan_id":"cebpf4jnsgd1na2vs0mg"},{"bike_id":"b7ead625-042e-4d97-8e3b-83fa14ebb698","system_id":"levelo_inurba_marseille","lat":43.27378,"lon":5.36255,"is_reserved":false,"is_disabled":false,"rental_uris":{"android":"levelo://app?vid=b7ead625-042e-4d97-8e3b-83fa14ebb698","ios":"levelo://app?vid=b7ead625-042e-4d97-8e3b-83fa14ebb698"},"vehicle_type_id":"4","last_reported":1738274871,"current_range_meters":29600,"station_id":"ce4bhbh2rcd13ifvqeo0","pricing_plan_id":"cebpf4jnsgd1na2vs0mg"},{"bike_id":"2d4740cb-6a71-4b1b-b8cc-957d982cc81f","system_id":"levelo_inurba_marseille","lat":43.27993,"lon":5.41661,"is_reserved":false,"is_disabled":false,"rental_uris":{"android":"levelo://app?vid=2d4740cb-6a71-4b1b-b8cc-957d982cc81f","ios":"levelo://app?vid=2d4740cb-6a71-4b1b-b8cc-957d982cc81f"},"vehicle_type_id":"4","last_reported":1738274871,"current_range_meters":14800,"station_id":"ce4bho12rcd13ifvqh1g","pricing_plan_id":"cebpf4jnsgd1na2vs0mg"},{"bike_id":"fcecd1be-c4ad-4108-b786-d058ae98f9a1","system_id":"levelo_inurba_marseille","lat":43.28664,"lon":5.36372,"is_reserved":false,"is_disabled":false,"rental_uris":{"android":"levelo://app?vid=fcecd1be-c4ad-4108-b786-d058ae98f9a1","ios":"levelo://app?vid=fcecd1be-c4ad-4108-b786-d058ae98f9a1"},"vehicle_type_id":"4","last_reported":1738274871,"current_range_meters":24800,"station_id":"ce4bhah2rcd13ifvqej0","pricing_plan_id":"cebpf4jnsgd1na2vs0mg"},{"bike_id":"f7f8117f-03ef-415e-85c6-2eeaf165e4f2","system_id":"levelo_inurba_marseille","lat":43.26181,"lon":5.40355,"is_reserved":false,"is_disabled":true,"rental_uris":{"android":"levelo://app?vid=f7f8117f-03ef-415e-85c6-2eeaf165e4f2","ios":"levelo://app?vid=f7f8117f-03ef-415e-85c6-2eeaf165e4f2"},"vehicle_type_id":"4","last_reported":1738274871,"current_range_meters":24400,"station_id":"","pricing_plan_id":"cebpf4jnsgd1na2vs0mg"},{"bike_id":"76b57816-ff84-4ecb-88e6-16904dfc9a1a","system_id":"levelo_inurba_marseille","lat":43.29889,"lon":5.39743,"is_reserved":false,"is_disabled":false,"rental_uris":{"android":"levelo://app?vid=76b57816-ff84-4ecb-88e6-16904dfc9a1a","ios":"levelo://app?vid=76b57816-ff84-4ecb-88e6-16904dfc9a1a"},"vehicle_type_id":"4","last_reported":1738274871,"current_range_meters":39200,"station_id":"ce4bh0h2rcd13ifvqd50","pricing_plan_id":"cebpf4jnsgd1na2vs0mg"},{"bike_id":"b29776bc-bced-4494-b0b8-f1096e29c4f6","system_id":"levelo_inurba_marseille","lat":43.30356,"lon":5.3653,"is_reserved":false,"is_disabled":false,"rental_uris":{"android":"levelo://app?vid=b29776bc-bced-4494-b0b8-f1096e29c4f6","ios":"levelo://app?vid=b29776bc-bced-4494-b0b8-f1096e29c4f6"},"vehicle_type_id":"4","last_reported":1738274871,"current_range_meters":36400,"station_id":"","pricing_plan_id":"cebpf4jnsgd1na2vs0mg"},{"bike_id":"c638a1eb-b4d3-4a47-88f5-4ffd2e894e36","system_id":"levelo_inurba_marseille","lat":43.281,"lon":5.3785,"is_reserved":false,"is_disabled":false,"rental_uris":{"android":"levelo://app?vid=c638a1eb-b4d3-4a47-88f5-4ffd2e894e36","ios":"levelo://app?vid=c638a1eb-b4d3-4a47-88f5-4ffd2e894e36"},"vehicle_type_id":"4","last_reported":1738274871,"current_range_meters":35200,"station_id":"ce4bha12rcd13ifvqee0","pricing_plan_id":"cebpf4jnsgd1na2vs0mg"},{"bike_id":"0baa1483-1bd9-4e02-ab05-61cbf4d9e6e6","system_id":"levelo_inurba_marseille","lat":43.290678,"lon":5.37153,"is_reserved":false,"is_disabled":true,"rental_uris":{"android":"levelo://app?vid=0baa1483-1bd9-4e02-ab05-61cbf4d9e6e6","ios":"levelo://app?vid=0baa1483-1bd9-4e02-ab05-61cbf4d9e6e6"},"vehicle_type_id":"4","last_reported":1738274871,"current_range_meters":16400,"station_id":"ce4bh5p2rcd13ifvqe4g","pricing_plan_id":"cebpf4jnsgd1na2vs0mg"},{"bike_id":"fa90cb4b-e496-4f14-b492-c9095cf23d3f","system_id":"levelo_inurba_marseille","lat":43.29907,"lon":5.38125,"is_reserved":false,"is_disabled":true,"rental_uris":{"android":"levelo://app?vid=fa90cb4b-e496-4f14-b492-c9095cf23d3f","ios":"levelo://app?vid=fa90cb4b-e496-4f14-b492-c9095cf23d3f"},"vehicle_type_id":"4","last_reported":1738274871,"current_range_meters":28000,"station_id":"ce4bgj12rcd13ifvqbc0","pricing_plan_id":"cebpf4jnsgd1na2vs0mg"},{"bike_id":"8f169477-e637-4b88-bfca-facec962cbc3","system_id":"levelo_inurba_marseille","lat":43.30126,"lon":5.38785,"is_reserved":false,"is_disabled":false,"rental_uris":{"android":"levelo://app?vid=8f169477-e637-4b88-bfca-facec962cbc3","ios":"levelo://app?vid=8f169477-e637-4b88-bfca-facec962cbc3"},"vehicle_type_id":"4","last_reported":1738274871,"current_range_meters":28000,"station_id":"ce4bghh2rcd13ifvqb60","pricing_plan_id":"cebpf4jnsgd1na2vs0mg"},{"bike_id":"b2296238-b501-4540-aa71-fd1ef7b4a20a","system_id":"levelo_inurba_marseille","lat":43.24544,"lon":5.39533,"is_reserved":false,"is_disabled":false,"rental_uris":{"android":"levelo://app?vid=b2296238-b501-4540-aa71-fd1ef7b4a20a","ios":"levelo://app?vid=b2296238-b501-4540-aa71-fd1ef7b4a20a"},"vehicle_type_id":"4","last_reported":1738274871,"current_range_meters":38800,"station_id":"ce4bhlp2rcd13ifvqgjg","pricing_plan_id":"cebpf4jnsgd1na2vs0mg"},{"bike_id":"523db66a-da67-4499-85ba-cf6688f007b5","system_id":"levelo_inurba_marseille","lat":43.29885,"lon":5.38914,"is_reserved":false,"is_disabled":false,"rental_uris":{"android":"levelo://app?vid=523db66a-da67-4499-85ba-cf6688f007b5","ios":"levelo://app?vid=523db66a-da67-4499-85ba-cf6688f007b5"},"vehicle_type_id":"4","last_reported":1738274871,"current_range_meters":22000,"station_id":"ce4bh392rcd13ifvqdl0","pricing_plan_id":"cebpf4jnsgd1na2vs0mg"},{"bike_id":"ca2fce3d-df4e-4367-b9ef-43ae3724ace7","system_id":"levelo_inurba_marseille","lat":43.25105,"lon":5.40318,"is_reserved":false,"is_disabled":false,"rental_uris":{"android":"levelo://app?vid=ca2fce3d-df4e-4367-b9ef-43ae3724ace7","ios":"levelo://app?vid=ca2fce3d-df4e-4367-b9ef-43ae3724ace7"},"vehicle_type_id":"4","last_reported":1738274871,"current_range_meters":30800,"station_id":"ce4bhlh2rcd13ifvqgig","pricing_plan_id":"cebpf4jnsgd1na2vs0mg"},{"bike_id":"ad76e067-a03e-432a-9871-15f122ff4ba5","system_id":"levelo_inurba_marseille","lat":43.29524,"lon":5.3856,"is_reserved":false,"is_disabled":false,"rental_uris":{"android":"levelo://app?vid=ad76e067-a03e-432a-9871-15f122ff4ba5","ios":"levelo://app?vid=ad76e067-a03e-432a-9871-15f122ff4ba5"},"vehicle_type_id":"4","last_reported":1738274871,"current_range_meters":33200,"station_id":"ce4bgih2rcd13ifvqba0","pricing_plan_id":"cebpf4jnsgd1na2vs0mg"},{"bike_id":"e666d2d3-8e4d-4236-90c1-05995df2c6ef","system_id":"levelo_inurba_marseille","lat":43.28928,"lon":5.38394,"is_reserved":false,"is_disabled":false,"rental_uris":{"android":"levelo://app?vid=e666d2d3-8e4d-4236-90c1-05995df2c6ef","ios":"levelo://app?vid=e666d2d3-8e4d-4236-90c1-05995df2c6ef"},"vehicle_type_id":"4","last_reported":1738274871,"current_range_meters":38800,"station_id":"ce4bh612rcd13ifvqe6g","pricing_plan_id":"cebpf4jnsgd1na2vs0mg"},{"bike_id":"efbbedc4-0c13-47d6-8cb5-9c9422c913da","system_id":"levelo_inurba_marseille","lat":43.29783,"lon":5.39338,"is_reserved":false,"is_disabled":false,"rental_uris":{"android":"levelo://app?vid=efbbedc4-0c13-47d6-8cb5-9c9422c913da","ios":"levelo://app?vid=efbbedc4-0c13-47d6-8cb5-9c9422c913da"},"vehicle_type_id":"4","last_reported":1738274871,"current_range_meters":12800,"station_id":"chh1huq6cuj3fo74tm60","pricing_plan_id":"cebpf4jnsgd1na2vs0mg"},{"bike_id":"32c2be47-5997-40f8-b9d1-340939e2797c","system_id":"levelo_inurba_marseille","lat":43.27815,"lon":5.40723,"is_reserved":false,"is_disabled":false,"rental_uris":{"android":"levelo://app?vid=32c2be47-5997-40f8-b9d1-340939e2797c","ios":"levelo://app?vid=32c2be47-5997-40f8-b9d1-340939e2797c"},"vehicle_type_id":"4","last_reported":1738274871,"current_range_meters":22400,"station_id":"ce4bhnh2rcd13ifvqgtg","pricing_plan_id":"cebpf4jnsgd1na2vs0mg"},{"bike_id":"a9a12b57-7eb7-49fb-ba95-6c00f1b23d00","system_id":"levelo_inurba_marseille","lat":43.28106,"lon":5.3785,"is_reserved":false,"is_disabled":false,"rental_uris":{"android":"levelo://app?vid=a9a12b57-7eb7-49fb-ba95-6c00f1b23d00","ios":"levelo://app?vid=a9a12b57-7eb7-49fb-ba95-6c00f1b23d00"},"vehicle_type_id":"4","last_reported":1738274871,"current_range_meters":18800,"station_id":"ce4bha12rcd13ifvqee0","pricing_plan_id":"cebpf4jnsgd1na2vs0mg"},{"bike_id":"1fbf3f20-0930-4b85-8900-561217e5a0eb","system_id":"levelo_inurba_marseille","lat":43.30416,"lon":5.41276,"is_reserved":false,"is_disabled":false,"rental_uris":{"android":"levelo://app?vid=1fbf3f20-0930-4b85-8900-561217e5a0eb","ios":"levelo://app?vid=1fbf3f20-0930-4b85-8900-561217e5a0eb"},"vehicle_type_id":"4","last_reported":1738274871,"current_range_meters":30400,"station_id":"ce4bhop2rcd13ifvqh8g","pricing_plan_id":"cebpf4jnsgd1na2vs0mg"},{"bike_id":"45aae4cc-4dbe-4320-8416-114ee05978f1","system_id":"levelo_inurba_marseille","lat":43.29798,"lon":5.38096,"is_reserved":false,"is_disabled":true,"rental_uris":{"android":"levelo://app?vid=45aae4cc-4dbe-4320-8416-114ee05978f1","ios":"levelo://app?vid=45aae4cc-4dbe-4320-8416-114ee05978f1"},"vehicle_type_id":"4","last_reported":1738274871,"current_range_meters":38800,"station_id":"ce4bgip2rcd13ifvqbb0","pricing_plan_id":"cebpf4jnsgd1na2vs0mg"},{"bike_id":"086c7782-679f-4d19-9aaa-d696ab0b8c4e","system_id":"levelo_inurba_marseille","lat":43.27821,"lon":5.40699,"is_reserved":false,"is_disabled":true,"rental_uris":{"android":"levelo://app?vid=086c7782-679f-4d19-9aaa-d696ab0b8c4e","ios":"levelo://app?vid=086c7782-679f-4d19-9aaa-d696ab0b8c4e"},"vehicle_type_id":"4","last_reported":1738274871,"current_range_meters":28400,"station_id":"ce4bhnh2rcd13ifvqgtg","pricing_plan_id":"cebpf4jnsgd1na2vs0mg"},{"bike_id":"5ec3d04b-f2c7-48c0-9c3b-aac07a26ef3b","system_id":"levelo_inurba_marseille","lat":43.25104,"lon":5.4034,"is_reserved":false,"is_disabled":false,"rental_uris":{"android":"levelo://app?vid=5ec3d04b-f2c7-48c0-9c3b-aac07a26ef3b","ios":"levelo://app?vid=5ec3d04b-f2c7-48c0-9c3b-aac07a26ef3b"},"vehicle_type_id":"4","last_reported":1738274871,"current_range_meters":19200,"station_id":"ce4bhlh2rcd13ifvqgig","pricing_plan_id":"cebpf4jnsgd1na2vs0mg"},{"bike_id":"4763fbb6-6639-4c45-9ee8-fab635a4aab4","system_id":"levelo_inurba_marseille","lat":43.29979,"lon":5.37176,"is_reserved":false,"is_disabled":false,"rental_uris":{"android":"levelo://app?vid=4763fbb6-6639-4c45-9ee8-fab635a4aab4","ios":"levelo://app?vid=4763fbb6-6639-4c45-9ee8-fab635a4aab4"},"vehicle_type_id":"4","last_reported":1738274871,"current_range_meters":26000,"station_id":"ce4bgr92rcd13ifvqc7g","pricing_plan_id":"cebpf4jnsgd1na2vs0mg"},{"bike_id":"4d04043b-d19f-4ba5-869b-e465e7c6903f","system_id":"levelo_inurba_marseille","lat":43.24081,"lon":5.37751,"is_reserved":false,"is_disabled":false,"rental_uris":{"android":"levelo://app?vid=4d04043b-d19f-4ba5-869b-e465e7c6903f","ios":"levelo://app?vid=4d04043b-d19f-4ba5-869b-e465e7c6903f"},"vehicle_type_id":"4","last_reported":1738274871,"current_range_meters":37600,"station_id":"ce4bhnp2rcd13ifvqgvg","pricing_plan_id":"cebpf4jnsgd1na2vs0mg"},{"bike_id":"befe1838-b5eb-4db0-aeea-9ea02214eae7","system_id":"levelo_inurba_marseille","lat":43.250718,"lon":5.395263,"is_reserved":false,"is_disabled":false,"rental_uris":{"android":"levelo://app?vid=befe1838-b5eb-4db0-aeea-9ea02214eae7","ios":"levelo://app?vid=befe1838-b5eb-4db0-aeea-9ea02214eae7"},"vehicle_type_id":"4","last_reported":1738274871,"current_range_meters":36000,"station_id":"ce4bhm12rcd13ifvqgkg","pricing_plan_id":"cebpf4jnsgd1na2vs0mg"},{"bike_id":"e42ec138-4b8a-433e-86f4-196f56e8640a","system_id":"levelo_inurba_marseille","lat":43.25859,"lon":5.3991,"is_reserved":false,"is_disabled":false,"rental_uris":{"android":"levelo://app?vid=e42ec138-4b8a-433e-86f4-196f56e8640a","ios":"levelo://app?vid=e42ec138-4b8a-433e-86f4-196f56e8640a"},"vehicle_type_id":"4","last_reported":1738274871,"current_range_meters":8400,"station_id":"ce4bhl92rcd13ifvqghg","pricing_plan_id":"cebpf4jnsgd1na2vs0mg"},{"bike_id":"a2c2f7f6-53e1-41aa-a1bb-36c8d98a1715","system_id":"levelo_inurba_marseille","lat":43.27819,"lon":5.40721,"is_reserved":false,"is_disabled":false,"rental_uris":{"android":"levelo://app?vid=a2c2f7f6-53e1-41aa-a1bb-36c8d98a1715","ios":"levelo://app?vid=a2c2f7f6-53e1-41aa-a1bb-36c8d98a1715"},"vehicle_type_id":"4","last_reported":1738274871,"current_range_meters":10000,"station_id":"ce4bhnh2rcd13ifvqgtg","pricing_plan_id":"cebpf4jnsgd1na2vs0mg"},{"bike_id":"91eeaabf-de38-4655-8d4f-f32a3b88d88e","system_id":"levelo_inurba_marseille","lat":43.29245,"lon":5.38446,"is_reserved":false,"is_disabled":true,"rental_uris":{"android":"levelo://app?vid=91eeaabf-de38-4655-8d4f-f32a3b88d88e","ios":"levelo://app?vid=91eeaabf-de38-4655-8d4f-f32a3b88d88e"},"vehicle_type_id":"4","last_reported":1738274871,"current_range_meters":22800,"station_id":"ce4bh692rcd13ifvqea0","pricing_plan_id":"cebpf4jnsgd1na2vs0mg"},{"bike_id":"ab0ec696-ce2c-4f7f-a964-2e9c9f313854","system_id":"levelo_inurba_marseille","lat":43.23962,"lon":5.36649,"is_reserved":false,"is_disabled":false,"rental_uris":{"android":"levelo://app?vid=ab0ec696-ce2c-4f7f-a964-2e9c9f313854","ios":"levelo://app?vid=ab0ec696-ce2c-4f7f-a964-2e9c9f313854"},"vehicle_type_id":"4","last_reported":1738274871,"current_range_meters":31200,"station_id":"ce4bhi12rcd13ifvqfp0","pricing_plan_id":"cebpf4jnsgd1na2vs0mg"},{"bike_id":"1c63fa7b-8bb3-4da5-8267-9c40ab75cc0b","system_id":"levelo_inurba_marseille","lat":43.3373,"lon":5.39186,"is_reserved":false,"is_disabled":false,"rental_uris":{"android":"levelo://app?vid=1c63fa7b-8bb3-4da5-8267-9c40ab75cc0b","ios":"levelo://app?vid=1c63fa7b-8bb3-4da5-8267-9c40ab75cc0b"},"vehicle_type_id":"4","last_reported":1738274871,"current_range_meters":38800,"station_id":"ce4bhr92rcd13ifvqhsg","pricing_plan_id":"cebpf4jnsgd1na2vs0mg"},{"bike_id":"e99c90aa-e079-42e2-a963-1534829ba9c7","system_id":"levelo_inurba_marseille","lat":43.26211,"lon":5.37456,"is_reserved":false,"is_disabled":false,"rental_uris":{"android":"levelo://app?vid=e99c90aa-e079-42e2-a963-1534829ba9c7","ios":"levelo://app?vid=e99c90aa-e079-42e2-a963-1534829ba9c7"},"vehicle_type_id":"4","last_reported":1738274871,"current_range_meters":35200,"station_id":"ce4bhgp2rcd13ifvqfc0","pricing_plan_id":"cebpf4jnsgd1na2vs0mg"},{"bike_id":"d908ef3b-09f1-43ac-a5bc-eb4b647015c1","system_id":"levelo_inurba_marseille","lat":43.29221,"lon":5.36048,"is_reserved":false,"is_disabled":false,"rental_uris":{"android":"levelo://app?vid=d908ef3b-09f1-43ac-a5bc-eb4b647015c1","ios":"levelo://app?vid=d908ef3b-09f1-43ac-a5bc-eb4b647015c1"},"vehicle_type_id":"4","last_reported":1738274871,"current_range_meters":11200,"station_id":"ce4bhbh2rcd13ifvqeqg","pricing_plan_id":"cebpf4jnsgd1na2vs0mg"},{"bike_id":"472815ce-dd78-4e4c-82e8-cea31da48d22","system_id":"levelo_inurba_marseille","lat":43.337218,"lon":5.391906,"is_reserved":false,"is_disabled":false,"rental_uris":{"android":"levelo://app?vid=472815ce-dd78-4e4c-82e8-cea31da48d22","ios":"levelo://app?vid=472815ce-dd78-4e4c-82e8-cea31da48d22"},"vehicle_type_id":"4","last_reported":1738274871,"current_range_meters":38800,"station_id":"ce4bhr92rcd13ifvqhsg","pricing_plan_id":"cebpf4jnsgd1na2vs0mg"},{"bike_id":"cc47836a-b908-432f-8e0e-2f793407f141","system_id":"levelo_inurba_marseille","lat":43.22932,"lon":5.35381,"is_reserved":false,"is_disabled":false,"rental_uris":{"android":"levelo://app?vid=cc47836a-b908-432f-8e0e-2f793407f141","ios":"levelo://app?vid=cc47836a-b908-432f-8e0e-2f793407f141"},"vehicle_type_id":"4","last_reported":1738274871,"current_range_meters":13600,"station_id":"cpo3532slgdg3j2ikp40","pricing_plan_id":"cebpf4jnsgd1na2vs0mg"},{"bike_id":"ff3f903a-ad3e-4df0-b3cc-5480f5b8f953","system_id":"levelo_inurba_marseille","lat":43.29909,"lon":5.39785,"is_reserved":false,"is_disabled":false,"rental_uris":{"android":"levelo://app?vid=ff3f903a-ad3e-4df0-b3cc-5480f5b8f953","ios":"levelo://app?vid=ff3f903a-ad3e-4df0-b3cc-5480f5b8f953"},"vehicle_type_id":"4","last_reported":1738274871,"current_range_meters":33600,"station_id":"","pricing_plan_id":"cebpf4jnsgd1na2vs0mg"},{"bike_id":"4fdd4fd3-315d-414c-a541-0f692db09fab","system_id":"levelo_inurba_marseille","lat":43.29915,"lon":5.37478,"is_reserved":false,"is_disabled":false,"rental_uris":{"android":"levelo://app?vid=4fdd4fd3-315d-414c-a541-0f692db09fab","ios":"levelo://app?vid=4fdd4fd3-315d-414c-a541-0f692db09fab"},"vehicle_type_id":"4","last_reported":1738274871,"current_range_meters":6800,"station_id":"ce4bgjh2rcd13ifvqbg0","pricing_plan_id":"cebpf4jnsgd1na2vs0mg"},{"bike_id":"a946f0c8-5b31-4951-824f-b594ccdc5bd6","system_id":"levelo_inurba_marseille","lat":43.28271,"lon":5.35083,"is_reserved":false,"is_disabled":false,"rental_uris":{"android":"levelo://app?vid=a946f0c8-5b31-4951-824f-b594ccdc5bd6","ios":"levelo://app?vid=a946f0c8-5b31-4951-824f-b594ccdc5bd6"},"vehicle_type_id":"4","last_reported":1738274871,"current_range_meters":19200,"station_id":"ce4bhbp2rcd13ifvqerg","pricing_plan_id":"cebpf4jnsgd1na2vs0mg"},{"bike_id":"f6afaadc-8a64-4520-9e68-285b035334db","system_id":"levelo_inurba_marseille","lat":43.30568,"lon":5.36717,"is_reserved":false,"is_disabled":false,"rental_uris":{"android":"levelo://app?vid=f6afaadc-8a64-4520-9e68-285b035334db","ios":"levelo://app?vid=f6afaadc-8a64-4520-9e68-285b035334db"},"vehicle_type_id":"4","last_reported":1738274871,"current_range_meters":6400,"station_id":"ce4bgrp2rcd13ifvqc9g","pricing_plan_id":"cebpf4jnsgd1na2vs0mg"},{"bike_id":"059da843-5508-4c06-84ba-9a3d19124fee","system_id":"levelo_inurba_marseille","lat":43.28853,"lon":5.35863,"is_reserved":false,"is_disabled":false,"rental_uris":{"android":"levelo://app?vid=059da843-5508-4c06-84ba-9a3d19124fee","ios":"levelo://app?vid=059da843-5508-4c06-84ba-9a3d19124fee"},"vehicle_type_id":"4","last_reported":1738274871,"current_range_meters":35600,"station_id":"ce4bhb12rcd13ifvqem0","pricing_plan_id":"cebpf4jnsgd1na2vs0mg"},{"bike_id":"0c35c684-6c0e-4171-a03a-f0d94cfaf998","system_id":"levelo_inurba_marseille","lat":43.29582,"lon":5.36739,"is_reserved":false,"is_disabled":false,"rental_uris":{"android":"levelo://app?vid=0c35c684-6c0e-4171-a03a-f0d94cfaf998","ios":"levelo://app?vid=0c35c684-6c0e-4171-a03a-f0d94cfaf998"},"vehicle_type_id":"4","last_reported":1738274871,"current_range_meters":25600,"station_id":"ce4bgph2rcd13ifvqc2g","pricing_plan_id":"cebpf4jnsgd1na2vs0mg"},{"bike_id":"7f0c4ddc-7112-417e-84e0-aac0c2a58765","system_id":"levelo_inurba_marseille","lat":43.28082,"lon":5.39656,"is_reserved":false,"is_disabled":false,"rental_uris":{"android":"levelo://app?vid=7f0c4ddc-7112-417e-84e0-aac0c2a58765","ios":"levelo://app?vid=7f0c4ddc-7112-417e-84e0-aac0c2a58765"},"vehicle_type_id":"4","last_reported":1738274871,"current_range_meters":38800,"station_id":"ce4bho12rcd13ifvqh2g","pricing_plan_id":"cebpf4jnsgd1na2vs0mg"},{"bike_id":"7fbc607b-e12b-47bd-a53f-1c18ac62adfd","system_id":"levelo_inurba_marseille","lat":43.27795,"lon":5.40753,"is_reserved":false,"is_disabled":false,"rental_uris":{"android":"levelo://app?vid=7fbc607b-e12b-47bd-a53f-1c18ac62adfd","ios":"levelo://app?vid=7fbc607b-e12b-47bd-a53f-1c18ac62adfd"},"vehicle_type_id":"4","last_reported":1738274871,"current_range_meters":36400,"station_id":"ce4bhnh2rcd13ifvqgtg","pricing_plan_id":"cebpf4jnsgd1na2vs0mg"},{"bike_id":"735cf356-6ca7-4c83-bf25-d301ccde8042","system_id":"levelo_inurba_marseille","lat":43.27203,"lon":5.40953,"is_reserved":false,"is_disabled":false,"rental_uris":{"android":"levelo://app?vid=735cf356-6ca7-4c83-bf25-d301ccde8042","ios":"levelo://app?vid=735cf356-6ca7-4c83-bf25-d301ccde8042"},"vehicle_type_id":"4","last_reported":1738274871,"current_range_meters":28000,"station_id":"ce4bhl12rcd13ifvqgf0","pricing_plan_id":"cebpf4jnsgd1na2vs0mg"},{"bike_id":"f34fcd93-0f66-400a-8f07-aa08bfa23861","system_id":"levelo_inurba_marseille","lat":43.2594,"lon":5.40908,"is_reserved":false,"is_disabled":false,"rental_uris":{"android":"levelo://app?vid=f34fcd93-0f66-400a-8f07-aa08bfa23861","ios":"levelo://app?vid=f34fcd93-0f66-400a-8f07-aa08bfa23861"},"vehicle_type_id":"4","last_reported":1738274871,"current_range_meters":38800,"station_id":"ce4bhm92rcd13ifvqglg","pricing_plan_id":"cebpf4jnsgd1na2vs0mg"},{"bike_id":"abeaed77-608d-47ae-b8e4-a2e36704ed2c","system_id":"levelo_inurba_marseille","lat":43.27051,"lon":5.40271,"is_reserved":false,"is_disabled":true,"rental_uris":{"android":"levelo://app?vid=abeaed77-608d-47ae-b8e4-a2e36704ed2c","ios":"levelo://app?vid=abeaed77-608d-47ae-b8e4-a2e36704ed2c"},"vehicle_type_id":"4","last_reported":1738274871,"current_range_meters":38000,"station_id":"ce4bhk92rcd13ifvqgc0","pricing_plan_id":"cebpf4jnsgd1na2vs0mg"},{"bike_id":"606053f9-3da2-4594-b4df-8e24b5fa812c","system_id":"levelo_inurba_marseille","lat":43.26924,"lon":5.40221,"is_reserved":false,"is_disabled":false,"rental_uris":{"android":"levelo://app?vid=606053f9-3da2-4594-b4df-8e24b5fa812c","ios":"levelo://app?vid=606053f9-3da2-4594-b4df-8e24b5fa812c"},"vehicle_type_id":"4","last_reported":1738274871,"current_range_meters":38800,"station_id":"cjm6bp8fraef2m0cb0m0","pricing_plan_id":"cebpf4jnsgd1na2vs0mg"},{"bike_id":"a6513b0a-da2e-4123-9272-d5bcd52ef731","system_id":"levelo_inurba_marseille","lat":43.30292,"lon":5.36925,"is_reserved":false,"is_disabled":false,"rental_uris":{"android":"levelo://app?vid=a6513b0a-da2e-4123-9272-d5bcd52ef731","ios":"levelo://app?vid=a6513b0a-da2e-4123-9272-d5bcd52ef731"},"vehicle_type_id":"4","last_reported":1738274871,"current_range_meters":20000,"station_id":"ce4bgqh2rcd13ifvqc5g","pricing_plan_id":"cebpf4jnsgd1na2vs0mg"},{"bike_id":"98ce8ffc-5472-474d-a279-9cd781a6aa87","system_id":"levelo_inurba_marseille","lat":43.34142,"lon":5.40909,"is_reserved":false,"is_disabled":false,"rental_uris":{"android":"levelo://app?vid=98ce8ffc-5472-474d-a279-9cd781a6aa87","ios":"levelo://app?vid=98ce8ffc-5472-474d-a279-9cd781a6aa87"},"vehicle_type_id":"4","last_reported":1738274871,"current_range_meters":38400,"station_id":"ce4bhqh2rcd13ifvqhlg","pricing_plan_id":"cebpf4jnsgd1na2vs0mg"},{"bike_id":"7bf0b083-5d7a-408e-adaa-18c38cfadd6e","system_id":"levelo_inurba_marseille","lat":43.2293,"lon":5.35376,"is_reserved":false,"is_disabled":false,"rental_uris":{"android":"levelo://app?vid=7bf0b083-5d7a-408e-adaa-18c38cfadd6e","ios":"levelo://app?vid=7bf0b083-5d7a-408e-adaa-18c38cfadd6e"},"vehicle_type_id":"4","last_reported":1738274871,"current_range_meters":16000,"station_id":"cpo3532slgdg3j2ikp40","pricing_plan_id":"cebpf4jnsgd1na2vs0mg"},{"bike_id":"c52ee0d8-fc14-4a91-ad24-eeec1e8e0625","system_id":"levelo_inurba_marseille","lat":43.2621,"lon":5.37445,"is_reserved":false,"is_disabled":false,"rental_uris":{"android":"levelo://app?vid=c52ee0d8-fc14-4a91-ad24-eeec1e8e0625","ios":"levelo://app?vid=c52ee0d8-fc14-4a91-ad24-eeec1e8e0625"},"vehicle_type_id":"4","last_reported":1738274871,"current_range_meters":38800,"station_id":"ce4bhgp2rcd13ifvqfc0","pricing_plan_id":"cebpf4jnsgd1na2vs0mg"},{"bike_id":"db14cd8a-5ba9-45f6-b197-f717b13b5230","system_id":"levelo_inurba_marseille","lat":43.29863,"lon":5.36273,"is_reserved":false,"is_disabled":false,"rental_uris":{"android":"levelo://app?vid=db14cd8a-5ba9-45f6-b197-f717b13b5230","ios":"levelo://app?vid=db14cd8a-5ba9-45f6-b197-f717b13b5230"},"vehicle_type_id":"4","last_reported":1738274871,"current_range_meters":39200,"station_id":"ce4bgpp2rcd13ifvqc3g","pricing_plan_id":"cebpf4jnsgd1na2vs0mg"},{"bike_id":"b2f96c5d-5e36-4be9-b81a-f3fc98547ef1","system_id":"levelo_inurba_marseille","lat":43.306828,"lon":5.394942,"is_reserved":false,"is_disabled":false,"rental_uris":{"android":"levelo://app?vid=b2f96c5d-5e36-4be9-b81a-f3fc98547ef1","ios":"levelo://app?vid=b2f96c5d-5e36-4be9-b81a-f3fc98547ef1"},"vehicle_type_id":"4","last_reported":1738274871,"current_range_meters":19200,"station_id":"ce4bgvp2rcd13ifvqcu0","pricing_plan_id":"cebpf4jnsgd1na2vs0mg"},{"bike_id":"b559ad07-737f-4a02-bdb5-758c13ebfe7f","system_id":"levelo_inurba_marseille","lat":43.27919,"lon":5.39578,"is_reserved":false,"is_disabled":false,"rental_uris":{"android":"levelo://app?vid=b559ad07-737f-4a02-bdb5-758c13ebfe7f","ios":"levelo://app?vid=b559ad07-737f-4a02-bdb5-758c13ebfe7f"},"vehicle_type_id":"4","last_reported":1738274871,"current_range_meters":36800,"station_id":"ce4bhf92rcd13ifvqf40","pricing_plan_id":"cebpf4jnsgd1na2vs0mg"},{"bike_id":"10d31094-e8d4-4e9d-bf6f-3c654bea52c2","system_id":"levelo_inurba_marseille","lat":43.28164,"lon":5.42627,"is_reserved":false,"is_disabled":false,"rental_uris":{"android":"levelo://app?vid=10d31094-e8d4-4e9d-bf6f-3c654bea52c2","ios":"levelo://app?vid=10d31094-e8d4-4e9d-bf6f-3c654bea52c2"},"vehicle_type_id":"4","last_reported":1738274871,"current_range_meters":8000,"station_id":"ce4bhnh2rcd13ifvqgug","pricing_plan_id":"cebpf4jnsgd1na2vs0mg"},{"bike_id":"d1cd839a-b534-45a5-82d8-f67c212b7493","system_id":"levelo_inurba_marseille","lat":43.29712,"lon":5.36593,"is_reserved":false,"is_disabled":false,"rental_uris":{"android":"levelo://app?vid=d1cd839a-b534-45a5-82d8-f67c212b7493","ios":"levelo://app?vid=d1cd839a-b534-45a5-82d8-f67c212b7493"},"vehicle_type_id":"4","last_reported":1738274871,"current_range_meters":38800,"station_id":"ce4bgn12rcd13ifvqbt0","pricing_plan_id":"cebpf4jnsgd1na2vs0mg"},{"bike_id":"9c9eee12-07c4-4205-94f5-9be5d83c2249","system_id":"levelo_inurba_marseille","lat":43.275632,"lon":5.384241,"is_reserved":false,"is_disabled":false,"rental_uris":{"android":"levelo://app?vid=9c9eee12-07c4-4205-94f5-9be5d83c2249","ios":"levelo://app?vid=9c9eee12-07c4-4205-94f5-9be5d83c2249"},"vehicle_type_id":"4","last_reported":1738274871,"current_range_meters":33600,"station_id":"ce4bhh92rcd13ifvqfi0","pricing_plan_id":"cebpf4jnsgd1na2vs0mg"},{"bike_id":"9f7cbc3c-6e0b-4442-8c70-64c0b2a1452e","system_id":"levelo_inurba_marseille","lat":43.23055,"lon":5.35493,"is_reserved":false,"is_disabled":false,"rental_uris":{"android":"levelo://app?vid=9f7cbc3c-6e0b-4442-8c70-64c0b2a1452e","ios":"levelo://app?vid=9f7cbc3c-6e0b-4442-8c70-64c0b2a1452e"},"vehicle_type_id":"4","last_reported":1738274871,"current_range_meters":10000,"station_id":"cpo3342slgdg3j2ifvpg","pricing_plan_id":"cebpf4jnsgd1na2vs0mg"},{"bike_id":"c8a3a0ed-dff2-4f3c-87dc-2e6b47b1ad28","system_id":"levelo_inurba_marseille","lat":43.337444,"lon":5.374475,"is_reserved":false,"is_disabled":true,"rental_uris":{"android":"levelo://app?vid=c8a3a0ed-dff2-4f3c-87dc-2e6b47b1ad28","ios":"levelo://app?vid=c8a3a0ed-dff2-4f3c-87dc-2e6b47b1ad28"},"vehicle_type_id":"4","last_reported":1738274871,"current_range_meters":0,"station_id":"","pricing_plan_id":"cebpf4jnsgd1na2vs0mg"},{"bike_id":"0d6272be-a1c3-4d94-bd52-cdb6a527bb93","system_id":"levelo_inurba_marseille","lat":43.30102,"lon":5.39076,"is_reserved":false,"is_disabled":false,"rental_uris":{"android":"levelo://app?vid=0d6272be-a1c3-4d94-bd52-cdb6a527bb93","ios":"levelo://app?vid=0d6272be-a1c3-4d94-bd52-cdb6a527bb93"},"vehicle_type_id":"4","last_reported":1738274871,"current_range_meters":14800,"station_id":"ce4bh192rcd13ifvqdb0","pricing_plan_id":"cebpf4jnsgd1na2vs0mg"},{"bike_id":"cf9dea01-b245-4703-8d91-a0dab629d11e","system_id":"levelo_inurba_marseille","lat":43.29624,"lon":5.3717,"is_reserved":false,"is_disabled":false,"rental_uris":{"android":"levelo://app?vid=cf9dea01-b245-4703-8d91-a0dab629d11e","ios":"levelo://app?vid=cf9dea01-b245-4703-8d91-a0dab629d11e"},"vehicle_type_id":"4","last_reported":1738274871,"current_range_meters":38800,"station_id":"ce4bgnh2rcd13ifvqc0g","pricing_plan_id":"cebpf4jnsgd1na2vs0mg"},{"bike_id":"da181ccb-c372-41cb-8f8e-3cded55feeb5","system_id":"levelo_inurba_marseille","lat":43.29554,"lon":5.42293,"is_reserved":false,"is_disabled":false,"rental_uris":{"android":"levelo://app?vid=da181ccb-c372-41cb-8f8e-3cded55feeb5","ios":"levelo://app?vid=da181ccb-c372-41cb-8f8e-3cded55feeb5"},"vehicle_type_id":"4","last_reported":1738274871,"current_range_meters":37600,"station_id":"ce4bhph2rcd13ifvqhdg","pricing_plan_id":"cebpf4jnsgd1na2vs0mg"},{"bike_id":"7247902a-635d-4f06-9cf7-f11e089c2d38","system_id":"levelo_inurba_marseille","lat":43.26961,"lon":5.40211,"is_reserved":false,"is_disabled":false,"rental_uris":{"android":"levelo://app?vid=7247902a-635d-4f06-9cf7-f11e089c2d38","ios":"levelo://app?vid=7247902a-635d-4f06-9cf7-f11e089c2d38"},"vehicle_type_id":"4","last_reported":1738274871,"current_range_meters":38800,"station_id":"cjm6bp8fraef2m0cb0m0","pricing_plan_id":"cebpf4jnsgd1na2vs0mg"},{"bike_id":"976c890e-6989-400a-80d3-bf4713f2ae84","system_id":"levelo_inurba_marseille","lat":43.29804,"lon":5.38107,"is_reserved":false,"is_disabled":false,"rental_uris":{"android":"levelo://app?vid=976c890e-6989-400a-80d3-bf4713f2ae84","ios":"levelo://app?vid=976c890e-6989-400a-80d3-bf4713f2ae84"},"vehicle_type_id":"4","last_reported":1738274871,"current_range_meters":30000,"station_id":"ce4bgip2rcd13ifvqbb0","pricing_plan_id":"cebpf4jnsgd1na2vs0mg"},{"bike_id":"67bc6512-e550-4b02-a35f-fa00a80893a2","system_id":"levelo_inurba_marseille","lat":43.30943,"lon":5.37312,"is_reserved":false,"is_disabled":false,"rental_uris":{"android":"levelo://app?vid=67bc6512-e550-4b02-a35f-fa00a80893a2","ios":"levelo://app?vid=67bc6512-e550-4b02-a35f-fa00a80893a2"},"vehicle_type_id":"4","last_reported":1738274871,"current_range_meters":34000,"station_id":"","pricing_plan_id":"cebpf4jnsgd1na2vs0mg"},{"bike_id":"a6aa301a-1357-4370-a54e-76b50563d1bd","system_id":"levelo_inurba_marseille","lat":43.28702,"lon":5.37389,"is_reserved":false,"is_disabled":false,"rental_uris":{"android":"levelo://app?vid=a6aa301a-1357-4370-a54e-76b50563d1bd","ios":"levelo://app?vid=a6aa301a-1357-4370-a54e-76b50563d1bd"},"vehicle_type_id":"4","last_reported":1738274871,"current_range_meters":39200,"station_id":"ce4bh3p2rcd13ifvqdq0","pricing_plan_id":"cebpf4jnsgd1na2vs0mg"},{"bike_id":"05e57a95-2c98-4ceb-9388-74d754669e55","system_id":"levelo_inurba_marseille","lat":43.25868,"lon":5.39895,"is_reserved":false,"is_disabled":false,"rental_uris":{"android":"levelo://app?vid=05e57a95-2c98-4ceb-9388-74d754669e55","ios":"levelo://app?vid=05e57a95-2c98-4ceb-9388-74d754669e55"},"vehicle_type_id":"4","last_reported":1738274871,"current_range_meters":19200,"station_id":"ce4bhl92rcd13ifvqghg","pricing_plan_id":"cebpf4jnsgd1na2vs0mg"},{"bike_id":"32802d31-82e5-49aa-928e-45336ddb5e58","system_id":"levelo_inurba_marseille","lat":43.2503,"lon":5.38912,"is_reserved":false,"is_disabled":false,"rental_uris":{"android":"levelo://app?vid=32802d31-82e5-49aa-928e-45336ddb5e58","ios":"levelo://app?vid=32802d31-82e5-49aa-928e-45336ddb5e58"},"vehicle_type_id":"4","last_reported":1738274871,"current_range_meters":38800,"station_id":"ce4bhgp2rcd13ifvqfd0","pricing_plan_id":"cebpf4jnsgd1na2vs0mg"},{"bike_id":"d06240a3-8895-42e8-9212-5c068d44e9d2","system_id":"levelo_inurba_marseille","lat":43.28605,"lon":5.35102,"is_reserved":false,"is_disabled":false,"rental_uris":{"android":"levelo://app?vid=d06240a3-8895-42e8-9212-5c068d44e9d2","ios":"levelo://app?vid=d06240a3-8895-42e8-9212-5c068d44e9d2"},"vehicle_type_id":"4","last_reported":1738274871,"current_range_meters":28400,"station_id":"ce4bhch2rcd13ifvqeug","pricing_plan_id":"cebpf4jnsgd1na2vs0mg"},{"bike_id":"323795ea-b784-49f7-ad28-dfc256b8eaa4","system_id":"levelo_inurba_marseille","lat":43.30208,"lon":5.39471,"is_reserved":false,"is_disabled":true,"rental_uris":{"android":"levelo://app?vid=323795ea-b784-49f7-ad28-dfc256b8eaa4","ios":"levelo://app?vid=323795ea-b784-49f7-ad28-dfc256b8eaa4"},"vehicle_type_id":"4","last_reported":1738274871,"current_range_meters":17600,"station_id":"ce4bh0p2rcd13ifvqd70","pricing_plan_id":"cebpf4jnsgd1na2vs0mg"},{"bike_id":"4fcb18be-cadf-415b-85ec-67bd42d3de2f","system_id":"levelo_inurba_marseille","lat":43.297586,"lon":5.401133,"is_reserved":false,"is_disabled":false,"rental_uris":{"android":"levelo://app?vid=4fcb18be-cadf-415b-85ec-67bd42d3de2f","ios":"levelo://app?vid=4fcb18be-cadf-415b-85ec-67bd42d3de2f"},"vehicle_type_id":"4","last_reported":1738274871,"current_range_meters":32400,"station_id":"ce4bgvh2rcd13ifvqcs0","pricing_plan_id":"cebpf4jnsgd1na2vs0mg"},{"bike_id":"a7e1bb12-c60b-445a-9547-4b41c03d5f68","system_id":"levelo_inurba_marseille","lat":43.28154,"lon":5.42643,"is_reserved":false,"is_disabled":true,"rental_uris":{"android":"levelo://app?vid=a7e1bb12-c60b-445a-9547-4b41c03d5f68","ios":"levelo://app?vid=a7e1bb12-c60b-445a-9547-4b41c03d5f68"},"vehicle_type_id":"4","last_reported":1738274871,"current_range_meters":0,"station_id":"ce4bhnh2rcd13ifvqgug","pricing_plan_id":"cebpf4jnsgd1na2vs0mg"},{"bike_id":"d130db0a-48b7-47ee-b133-0a81904f0cda","system_id":"levelo_inurba_marseille","lat":43.29018,"lon":5.35622,"is_reserved":false,"is_disabled":true,"rental_uris":{"android":"levelo://app?vid=d130db0a-48b7-47ee-b133-0a81904f0cda","ios":"levelo://app?vid=d130db0a-48b7-47ee-b133-0a81904f0cda"},"vehicle_type_id":"4","last_reported":1738274871,"current_range_meters":36400,"station_id":"ce4bhb92rcd13ifvqen0","pricing_plan_id":"cebpf4jnsgd1na2vs0mg"},{"bike_id":"1117279e-8009-4d20-b1c4-d0e95d03ce53","system_id":"levelo_inurba_marseille","lat":43.301336,"lon":5.387796,"is_reserved":false,"is_disabled":false,"rental_uris":{"android":"levelo://app?vid=1117279e-8009-4d20-b1c4-d0e95d03ce53","ios":"levelo://app?vid=1117279e-8009-4d20-b1c4-d0e95d03ce53"},"vehicle_type_id":"4","last_reported":1738274871,"current_range_meters":25600,"station_id":"ce4bhoh2rcd13ifvqh6g","pricing_plan_id":"cebpf4jnsgd1na2vs0mg"},{"bike_id":"a36de8bd-2e3e-4fb2-8780-295adcb078f0","system_id":"levelo_inurba_marseille","lat":43.26558,"lon":5.37283,"is_reserved":false,"is_disabled":false,"rental_uris":{"android":"levelo://app?vid=a36de8bd-2e3e-4fb2-8780-295adcb078f0","ios":"levelo://app?vid=a36de8bd-2e3e-4fb2-8780-295adcb078f0"},"vehicle_type_id":"4","last_reported":1738274871,"current_range_meters":36000,"station_id":"ce4bhg12rcd13ifvqf70","pricing_plan_id":"cebpf4jnsgd1na2vs0mg"},{"bike_id":"9838cc78-2b53-49d3-ae13-82df62c4fd64","system_id":"levelo_inurba_marseille","lat":43.28412,"lon":5.40934,"is_reserved":false,"is_disabled":true,"rental_uris":{"android":"levelo://app?vid=9838cc78-2b53-49d3-ae13-82df62c4fd64","ios":"levelo://app?vid=9838cc78-2b53-49d3-ae13-82df62c4fd64"},"vehicle_type_id":"4","last_reported":1738274871,"current_range_meters":0,"station_id":"","pricing_plan_id":"cebpf4jnsgd1na2vs0mg"},{"bike_id":"b5e316c6-84ab-4e74-8a2e-84f5594c5ebd","system_id":"levelo_inurba_marseille","lat":43.28418,"lon":5.37527,"is_reserved":false,"is_disabled":true,"rental_uris":{"android":"levelo://app?vid=b5e316c6-84ab-4e74-8a2e-84f5594c5ebd","ios":"levelo://app?vid=b5e316c6-84ab-4e74-8a2e-84f5594c5ebd"},"vehicle_type_id":"4","last_reported":1738274871,"current_range_meters":11600,"station_id":"ce4bh412rcd13ifvqds0","pricing_plan_id":"cebpf4jnsgd1na2vs0mg"},{"bike_id":"0b1f4817-4c30-44b7-9201-5f8be66aeb19","system_id":"levelo_inurba_marseille","lat":43.28032,"lon":5.36957,"is_reserved":false,"is_disabled":false,"rental_uris":{"android":"levelo://app?vid=0b1f4817-4c30-44b7-9201-5f8be66aeb19","ios":"levelo://app?vid=0b1f4817-4c30-44b7-9201-5f8be66aeb19"},"vehicle_type_id":"4","last_reported":1738274871,"current_range_meters":38800,"station_id":"ce4bha12rcd13ifvqef0","pricing_plan_id":"cebpf4jnsgd1na2vs0mg"},{"bike_id":"1509c4ed-75ea-4503-8272-8bf929acd314","system_id":"levelo_inurba_marseille","lat":43.29975,"lon":5.38499,"is_reserved":false,"is_disabled":true,"rental_uris":{"android":"levelo://app?vid=1509c4ed-75ea-4503-8272-8bf929acd314","ios":"levelo://app?vid=1509c4ed-75ea-4503-8272-8bf929acd314"},"vehicle_type_id":"4","last_reported":1738274871,"current_range_meters":12000,"station_id":"ce4bgj92rcd13ifvqbd0","pricing_plan_id":"cebpf4jnsgd1na2vs0mg"},{"bike_id":"f4060bc6-4a62-4e5d-89b1-0566fe5df57d","system_id":"levelo_inurba_marseille","lat":43.30888,"lon":5.3963,"is_reserved":false,"is_disabled":false,"rental_uris":{"android":"levelo://app?vid=f4060bc6-4a62-4e5d-89b1-0566fe5df57d","ios":"levelo://app?vid=f4060bc6-4a62-4e5d-89b1-0566fe5df57d"},"vehicle_type_id":"4","last_reported":1738274871,"current_range_meters":21600,"station_id":"ce4bh012rcd13ifvqcv0","pricing_plan_id":"cebpf4jnsgd1na2vs0mg"},{"bike_id":"a6b336c6-34d6-4b26-bccf-abefa3771ff1","system_id":"levelo_inurba_marseille","lat":43.23161,"lon":5.43704,"is_reserved":false,"is_disabled":false,"rental_uris":{"android":"levelo://app?vid=a6b336c6-34d6-4b26-bccf-abefa3771ff1","ios":"levelo://app?vid=a6b336c6-34d6-4b26-bccf-abefa3771ff1"},"vehicle_type_id":"4","last_reported":1738274871,"current_range_meters":38800,"station_id":"ce4bhmp2rcd13ifvqgog","pricing_plan_id":"cebpf4jnsgd1na2vs0mg"},{"bike_id":"9f6c79b2-892b-47dd-b852-741b9f20e95f","system_id":"levelo_inurba_marseille","lat":43.25096,"lon":5.39493,"is_reserved":false,"is_disabled":false,"rental_uris":{"android":"levelo://app?vid=9f6c79b2-892b-47dd-b852-741b9f20e95f","ios":"levelo://app?vid=9f6c79b2-892b-47dd-b852-741b9f20e95f"},"vehicle_type_id":"4","last_reported":1738274871,"current_range_meters":38800,"station_id":"ce4bhm12rcd13ifvqgkg","pricing_plan_id":"cebpf4jnsgd1na2vs0mg"},{"bike_id":"05f09aa2-f717-402a-9dac-5621750079ab","system_id":"levelo_inurba_marseille","lat":43.31716,"lon":5.43694,"is_reserved":false,"is_disabled":false,"rental_uris":{"android":"levelo://app?vid=05f09aa2-f717-402a-9dac-5621750079ab","ios":"levelo://app?vid=05f09aa2-f717-402a-9dac-5621750079ab"},"vehicle_type_id":"4","last_reported":1738274871,"current_range_meters":38400,"station_id":"ce4bhp92rcd13ifvqhcg","pricing_plan_id":"cebpf4jnsgd1na2vs0mg"},{"bike_id":"4aa797ac-5f4f-475c-952d-c7f3a34b7726","system_id":"levelo_inurba_marseille","lat":43.294274,"lon":5.386226,"is_reserved":false,"is_disabled":false,"rental_uris":{"android":"levelo://app?vid=4aa797ac-5f4f-475c-952d-c7f3a34b7726","ios":"levelo://app?vid=4aa797ac-5f4f-475c-952d-c7f3a34b7726"},"vehicle_type_id":"4","last_reported":1738274871,"current_range_meters":38400,"station_id":"ce4bh2h2rcd13ifvqdh0","pricing_plan_id":"cebpf4jnsgd1na2vs0mg"},{"bike_id":"3d3683d0-6fa2-4625-8b79-882bbb185c30","system_id":"levelo_inurba_marseille","lat":43.32282,"lon":5.38293,"is_reserved":false,"is_disabled":false,"rental_uris":{"android":"levelo://app?vid=3d3683d0-6fa2-4625-8b79-882bbb185c30","ios":"levelo://app?vid=3d3683d0-6fa2-4625-8b79-882bbb185c30"},"vehicle_type_id":"4","last_reported":1738274871,"current_range_meters":30000,"station_id":"ce4bhr12rcd13ifvqhqg","pricing_plan_id":"cebpf4jnsgd1na2vs0mg"},{"bike_id":"ff8526f2-3c6e-469d-936f-156179ff4cdc","system_id":"levelo_inurba_marseille","lat":43.25094,"lon":5.39528,"is_reserved":false,"is_disabled":false,"rental_uris":{"android":"levelo://app?vid=ff8526f2-3c6e-469d-936f-156179ff4cdc","ios":"levelo://app?vid=ff8526f2-3c6e-469d-936f-156179ff4cdc"},"vehicle_type_id":"4","last_reported":1738274871,"current_range_meters":38800,"station_id":"ce4bhm12rcd13ifvqgkg","pricing_plan_id":"cebpf4jnsgd1na2vs0mg"},{"bike_id":"3961a4ef-50e4-493a-8114-a7bef0a7838a","system_id":"levelo_inurba_marseille","lat":43.32109,"lon":5.41511,"is_reserved":false,"is_disabled":false,"rental_uris":{"android":"levelo://app?vid=3961a4ef-50e4-493a-8114-a7bef0a7838a","ios":"levelo://app?vid=3961a4ef-50e4-493a-8114-a7bef0a7838a"},"vehicle_type_id":"4","last_reported":1738274871,"current_range_meters":38800,"station_id":"ce4bhq92rcd13ifvqhkg","pricing_plan_id":"cebpf4jnsgd1na2vs0mg"},{"bike_id":"fa51714b-85e6-40ac-9424-6cd1a8b165d0","system_id":"levelo_inurba_marseille","lat":43.29197,"lon":5.35821,"is_reserved":false,"is_disabled":false,"rental_uris":{"android":"levelo://app?vid=fa51714b-85e6-40ac-9424-6cd1a8b165d0","ios":"levelo://app?vid=fa51714b-85e6-40ac-9424-6cd1a8b165d0"},"vehicle_type_id":"4","last_reported":1738274871,"current_range_meters":11600,"station_id":"ce4bhb12rcd13ifvqel0","pricing_plan_id":"cebpf4jnsgd1na2vs0mg"},{"bike_id":"2d0f1c88-8dae-4df4-96c3-59603864f65f","system_id":"levelo_inurba_marseille","lat":43.32481,"lon":5.36582,"is_reserved":false,"is_disabled":false,"rental_uris":{"android":"levelo://app?vid=2d0f1c88-8dae-4df4-96c3-59603864f65f","ios":"levelo://app?vid=2d0f1c88-8dae-4df4-96c3-59603864f65f"},"vehicle_type_id":"4","last_reported":1738274871,"current_range_meters":39200,"station_id":"ce4bhs12rcd13ifvqhvg","pricing_plan_id":"cebpf4jnsgd1na2vs0mg"},{"bike_id":"a153e67b-19b7-4824-ae12-762d8a373f87","system_id":"levelo_inurba_marseille","lat":43.31123,"lon":5.37766,"is_reserved":false,"is_disabled":false,"rental_uris":{"android":"levelo://app?vid=a153e67b-19b7-4824-ae12-762d8a373f87","ios":"levelo://app?vid=a153e67b-19b7-4824-ae12-762d8a373f87"},"vehicle_type_id":"4","last_reported":1738274871,"current_range_meters":30800,"station_id":"ce4bgt92rcd13ifvqcg0","pricing_plan_id":"cebpf4jnsgd1na2vs0mg"},{"bike_id":"81cbfe48-6e1a-420c-8b24-7c4f1fab9886","system_id":"levelo_inurba_marseille","lat":43.2717,"lon":5.40996,"is_reserved":false,"is_disabled":false,"rental_uris":{"android":"levelo://app?vid=81cbfe48-6e1a-420c-8b24-7c4f1fab9886","ios":"levelo://app?vid=81cbfe48-6e1a-420c-8b24-7c4f1fab9886"},"vehicle_type_id":"4","last_reported":1738274871,"current_range_meters":36800,"station_id":"ce4bhl12rcd13ifvqgf0","pricing_plan_id":"cebpf4jnsgd1na2vs0mg"},{"bike_id":"d979d8d2-ec65-47af-9229-e4270aab279a","system_id":"levelo_inurba_marseille","lat":43.23076,"lon":5.35463,"is_reserved":false,"is_disabled":false,"rental_uris":{"android":"levelo://app?vid=d979d8d2-ec65-47af-9229-e4270aab279a","ios":"levelo://app?vid=d979d8d2-ec65-47af-9229-e4270aab279a"},"vehicle_type_id":"4","last_reported":1738274871,"current_range_meters":11600,"station_id":"cpo3342slgdg3j2ifvpg","pricing_plan_id":"cebpf4jnsgd1na2vs0mg"},{"bike_id":"f10d9b40-8520-41ee-b039-cd6e7d066065","system_id":"levelo_inurba_marseille","lat":43.262161,"lon":5.374365,"is_reserved":false,"is_disabled":false,"rental_uris":{"android":"levelo://app?vid=f10d9b40-8520-41ee-b039-cd6e7d066065","ios":"levelo://app?vid=f10d9b40-8520-41ee-b039-cd6e7d066065"},"vehicle_type_id":"4","last_reported":1738274871,"current_range_meters":36000,"station_id":"ce4bhgp2rcd13ifvqfc0","pricing_plan_id":"cebpf4jnsgd1na2vs0mg"},{"bike_id":"c597b5f6-1622-407c-ae2c-9aeeeec78b0f","system_id":"levelo_inurba_marseille","lat":43.27831,"lon":5.39203,"is_reserved":false,"is_disabled":false,"rental_uris":{"android":"levelo://app?vid=c597b5f6-1622-407c-ae2c-9aeeeec78b0f","ios":"levelo://app?vid=c597b5f6-1622-407c-ae2c-9aeeeec78b0f"},"vehicle_type_id":"4","last_reported":1738274871,"current_range_meters":39200,"station_id":"ce4bhjp2rcd13ifvqga0","pricing_plan_id":"cebpf4jnsgd1na2vs0mg"},{"bike_id":"c29472cb-fa90-45f9-a123-f9325cfff80e","system_id":"levelo_inurba_marseille","lat":43.2852,"lon":5.38377,"is_reserved":false,"is_disabled":true,"rental_uris":{"android":"levelo://app?vid=c29472cb-fa90-45f9-a123-f9325cfff80e","ios":"levelo://app?vid=c29472cb-fa90-45f9-a123-f9325cfff80e"},"vehicle_type_id":"4","last_reported":1738274871,"current_range_meters":25200,"station_id":"ce4bh512rcd13ifvqe3g","pricing_plan_id":"cebpf4jnsgd1na2vs0mg"},{"bike_id":"8f982301-5907-46b6-b1e8-1b8abf5c682a","system_id":"levelo_inurba_marseille","lat":43.2621,"lon":5.37441,"is_reserved":false,"is_disabled":false,"rental_uris":{"android":"levelo://app?vid=8f982301-5907-46b6-b1e8-1b8abf5c682a","ios":"levelo://app?vid=8f982301-5907-46b6-b1e8-1b8abf5c682a"},"vehicle_type_id":"4","last_reported":1738274871,"current_range_meters":28000,"station_id":"ce4bhgp2rcd13ifvqfc0","pricing_plan_id":"cebpf4jnsgd1na2vs0mg"},{"bike_id":"4103f9ea-dc49-40ff-a855-96e33d24e922","system_id":"levelo_inurba_marseille","lat":43.26912,"lon":5.40271,"is_reserved":false,"is_disabled":false,"rental_uris":{"android":"levelo://app?vid=4103f9ea-dc49-40ff-a855-96e33d24e922","ios":"levelo://app?vid=4103f9ea-dc49-40ff-a855-96e33d24e922"},"vehicle_type_id":"4","last_reported":1738274871,"current_range_meters":38800,"station_id":"cjm6bp8fraef2m0cb0m0","pricing_plan_id":"cebpf4jnsgd1na2vs0mg"},{"bike_id":"2befc6ec-60a0-407f-93ec-e8162b88193a","system_id":"levelo_inurba_marseille","lat":43.29562,"lon":5.39967,"is_reserved":false,"is_disabled":false,"rental_uris":{"android":"levelo://app?vid=2befc6ec-60a0-407f-93ec-e8162b88193a","ios":"levelo://app?vid=2befc6ec-60a0-407f-93ec-e8162b88193a"},"vehicle_type_id":"4","last_reported":1738274871,"current_range_meters":36400,"station_id":"ce4bh312rcd13ifvqdj0","pricing_plan_id":"cebpf4jnsgd1na2vs0mg"},{"bike_id":"7d6260ec-6d8c-4d5b-8950-1a493871014c","system_id":"levelo_inurba_marseille","lat":43.2991,"lon":5.4365,"is_reserved":false,"is_disabled":false,"rental_uris":{"android":"levelo://app?vid=7d6260ec-6d8c-4d5b-8950-1a493871014c","ios":"levelo://app?vid=7d6260ec-6d8c-4d5b-8950-1a493871014c"},"vehicle_type_id":"4","last_reported":1738274871,"current_range_meters":32400,"station_id":"ce4bhpp2rcd13ifvqhfg","pricing_plan_id":"cebpf4jnsgd1na2vs0mg"},{"bike_id":"1b91759c-57a8-4292-83bf-b6dd4cd08d36","system_id":"levelo_inurba_marseille","lat":43.272093,"lon":5.391713,"is_reserved":false,"is_disabled":false,"rental_uris":{"android":"levelo://app?vid=1b91759c-57a8-4292-83bf-b6dd4cd08d36","ios":"levelo://app?vid=1b91759c-57a8-4292-83bf-b6dd4cd08d36"},"vehicle_type_id":"4","last_reported":1738274871,"current_range_meters":38000,"station_id":"ce4bhhp2rcd13ifvqfm0","pricing_plan_id":"cebpf4jnsgd1na2vs0mg"},{"bike_id":"1b6fd190-21fa-4758-93db-00b7057d89a9","system_id":"levelo_inurba_marseille","lat":43.25744,"lon":5.41074,"is_reserved":false,"is_disabled":false,"rental_uris":{"android":"levelo://app?vid=1b6fd190-21fa-4758-93db-00b7057d89a9","ios":"levelo://app?vid=1b6fd190-21fa-4758-93db-00b7057d89a9"},"vehicle_type_id":"4","last_reported":1738274871,"current_range_meters":36800,"station_id":"ce4bhkp2rcd13ifvqgd0","pricing_plan_id":"cebpf4jnsgd1na2vs0mg"},{"bike_id":"da6e2b69-0551-4959-b9f5-0a40e1c41ed0","system_id":"levelo_inurba_marseille","lat":43.29531,"lon":5.39396,"is_reserved":false,"is_disabled":false,"rental_uris":{"android":"levelo://app?vid=da6e2b69-0551-4959-b9f5-0a40e1c41ed0","ios":"levelo://app?vid=da6e2b69-0551-4959-b9f5-0a40e1c41ed0"},"vehicle_type_id":"4","last_reported":1738274871,"current_range_meters":32800,"station_id":"ce4bh292rcd13ifvqdf0","pricing_plan_id":"cebpf4jnsgd1na2vs0mg"},{"bike_id":"cf8e57d9-ff02-4e22-9e01-0a3945aabc14","system_id":"levelo_inurba_marseille","lat":43.31317,"lon":5.397,"is_reserved":false,"is_disabled":false,"rental_uris":{"android":"levelo://app?vid=cf8e57d9-ff02-4e22-9e01-0a3945aabc14","ios":"levelo://app?vid=cf8e57d9-ff02-4e22-9e01-0a3945aabc14"},"vehicle_type_id":"4","last_reported":1738274871,"current_range_meters":12400,"station_id":"ce4bgvp2rcd13ifvqcu0","pricing_plan_id":"cebpf4jnsgd1na2vs0mg"},{"bike_id":"c31ded60-21bc-4937-b5c7-a86c611f6740","system_id":"levelo_inurba_marseille","lat":43.30429,"lon":5.38911,"is_reserved":false,"is_disabled":true,"rental_uris":{"android":"levelo://app?vid=c31ded60-21bc-4937-b5c7-a86c611f6740","ios":"levelo://app?vid=c31ded60-21bc-4937-b5c7-a86c611f6740"},"vehicle_type_id":"4","last_reported":1738274871,"current_range_meters":30000,"station_id":"ce4bgk12rcd13ifvqbi0","pricing_plan_id":"cebpf4jnsgd1na2vs0mg"},{"bike_id":"d8b1c3f9-ff6e-4179-8423-4ba0d2a2af0e","system_id":"levelo_inurba_marseille","lat":43.33731,"lon":5.3917,"is_reserved":false,"is_disabled":false,"rental_uris":{"android":"levelo://app?vid=d8b1c3f9-ff6e-4179-8423-4ba0d2a2af0e","ios":"levelo://app?vid=d8b1c3f9-ff6e-4179-8423-4ba0d2a2af0e"},"vehicle_type_id":"4","last_reported":1738274871,"current_range_meters":38800,"station_id":"ce4bhr92rcd13ifvqhsg","pricing_plan_id":"cebpf4jnsgd1na2vs0mg"},{"bike_id":"d0f2cfcc-c336-4d7d-baf0-d36ca6bbf372","system_id":"levelo_inurba_marseille","lat":43.32347,"lon":5.40619,"is_reserved":false,"is_disabled":false,"rental_uris":{"android":"levelo://app?vid=d0f2cfcc-c336-4d7d-baf0-d36ca6bbf372","ios":"levelo://app?vid=d0f2cfcc-c336-4d7d-baf0-d36ca6bbf372"},"vehicle_type_id":"4","last_reported":1738274871,"current_range_meters":34800,"station_id":"ce4bhq92rcd13ifvqhjg","pricing_plan_id":"cebpf4jnsgd1na2vs0mg"},{"bike_id":"ba0dc6f2-b89b-479e-9712-43aaa6d3abd7","system_id":"levelo_inurba_marseille","lat":43.31056,"lon":5.38355,"is_reserved":false,"is_disabled":false,"rental_uris":{"android":"levelo://app?vid=ba0dc6f2-b89b-479e-9712-43aaa6d3abd7","ios":"levelo://app?vid=ba0dc6f2-b89b-479e-9712-43aaa6d3abd7"},"vehicle_type_id":"4","last_reported":1738274871,"current_range_meters":30000,"station_id":"ce4bgv92rcd13ifvqcr0","pricing_plan_id":"cebpf4jnsgd1na2vs0mg"},{"bike_id":"be61b086-f408-41a4-9660-19c16782002e","system_id":"levelo_inurba_marseille","lat":43.29534,"lon":5.39046,"is_reserved":false,"is_disabled":false,"rental_uris":{"android":"levelo://app?vid=be61b086-f408-41a4-9660-19c16782002e","ios":"levelo://app?vid=be61b086-f408-41a4-9660-19c16782002e"},"vehicle_type_id":"4","last_reported":1738274871,"current_range_meters":38800,"station_id":"ce4bh3p2rcd13ifvqdp0","pricing_plan_id":"cebpf4jnsgd1na2vs0mg"},{"bike_id":"165e3b0d-7743-4294-bc7c-13df3cfe9383","system_id":"levelo_inurba_marseille","lat":43.27205,"lon":5.39186,"is_reserved":false,"is_disabled":true,"rental_uris":{"android":"levelo://app?vid=165e3b0d-7743-4294-bc7c-13df3cfe9383","ios":"levelo://app?vid=165e3b0d-7743-4294-bc7c-13df3cfe9383"},"vehicle_type_id":"4","last_reported":1738274871,"current_range_meters":38800,"station_id":"ce4bhhp2rcd13ifvqfm0","pricing_plan_id":"cebpf4jnsgd1na2vs0mg"},{"bike_id":"37a316fb-b3fd-47c4-b337-ae3ed2613770","system_id":"levelo_inurba_marseille","lat":43.2586,"lon":5.39896,"is_reserved":false,"is_disabled":false,"rental_uris":{"android":"levelo://app?vid=37a316fb-b3fd-47c4-b337-ae3ed2613770","ios":"levelo://app?vid=37a316fb-b3fd-47c4-b337-ae3ed2613770"},"vehicle_type_id":"4","last_reported":1738274871,"current_range_meters":16800,"station_id":"ce4bhl92rcd13ifvqghg","pricing_plan_id":"cebpf4jnsgd1na2vs0mg"},{"bike_id":"de951f61-2a94-4b2a-8dda-720fc1527498","system_id":"levelo_inurba_marseille","lat":43.3079,"lon":5.38156,"is_reserved":false,"is_disabled":false,"rental_uris":{"android":"levelo://app?vid=de951f61-2a94-4b2a-8dda-720fc1527498","ios":"levelo://app?vid=de951f61-2a94-4b2a-8dda-720fc1527498"},"vehicle_type_id":"4","last_reported":1738274871,"current_range_meters":35600,"station_id":"ce4bgt12rcd13ifvqce0","pricing_plan_id":"cebpf4jnsgd1na2vs0mg"},{"bike_id":"4f740b6d-d120-4c2f-a536-cccfced843bf","system_id":"levelo_inurba_marseille","lat":43.25861,"lon":5.39885,"is_reserved":false,"is_disabled":false,"rental_uris":{"android":"levelo://app?vid=4f740b6d-d120-4c2f-a536-cccfced843bf","ios":"levelo://app?vid=4f740b6d-d120-4c2f-a536-cccfced843bf"},"vehicle_type_id":"4","last_reported":1738274871,"current_range_meters":31200,"station_id":"ce4bhl92rcd13ifvqghg","pricing_plan_id":"cebpf4jnsgd1na2vs0mg"},{"bike_id":"9780fbef-3f02-48b2-b9d6-6cf3cdbdf69c","system_id":"levelo_inurba_marseille","lat":43.30253,"lon":5.40058,"is_reserved":false,"is_disabled":false,"rental_uris":{"android":"levelo://app?vid=9780fbef-3f02-48b2-b9d6-6cf3cdbdf69c","ios":"levelo://app?vid=9780fbef-3f02-48b2-b9d6-6cf3cdbdf69c"},"vehicle_type_id":"4","last_reported":1738274871,"current_range_meters":22400,"station_id":"ce4bgvh2rcd13ifvqcs0","pricing_plan_id":"cebpf4jnsgd1na2vs0mg"},{"bike_id":"00b70da0-29fd-4675-aead-fc7b3cd9d56c","system_id":"levelo_inurba_marseille","lat":43.29599,"lon":5.36754,"is_reserved":false,"is_disabled":false,"rental_uris":{"android":"levelo://app?vid=00b70da0-29fd-4675-aead-fc7b3cd9d56c","ios":"levelo://app?vid=00b70da0-29fd-4675-aead-fc7b3cd9d56c"},"vehicle_type_id":"4","last_reported":1738274871,"current_range_meters":38400,"station_id":"ce4bgph2rcd13ifvqc2g","pricing_plan_id":"cebpf4jnsgd1na2vs0mg"},{"bike_id":"3b2d65ce-4c43-4035-976c-824db826a28f","system_id":"levelo_inurba_marseille","lat":43.28565,"lon":5.39504,"is_reserved":false,"is_disabled":false,"rental_uris":{"android":"levelo://app?vid=3b2d65ce-4c43-4035-976c-824db826a28f","ios":"levelo://app?vid=3b2d65ce-4c43-4035-976c-824db826a28f"},"vehicle_type_id":"4","last_reported":1738274871,"current_range_meters":34800,"station_id":"ce4bh292rcd13ifvqdg0","pricing_plan_id":"cebpf4jnsgd1na2vs0mg"},{"bike_id":"e86a70d6-e151-47e4-8970-cedf6aefc409","system_id":"levelo_inurba_marseille","lat":43.269389,"lon":5.402511,"is_reserved":false,"is_disabled":false,"rental_uris":{"android":"levelo://app?vid=e86a70d6-e151-47e4-8970-cedf6aefc409","ios":"levelo://app?vid=e86a70d6-e151-47e4-8970-cedf6aefc409"},"vehicle_type_id":"4","last_reported":1738274871,"current_range_meters":38800,"station_id":"cjm6bp8fraef2m0cb0m0","pricing_plan_id":"cebpf4jnsgd1na2vs0mg"},{"bike_id":"ee2f7bfb-3705-464e-83a9-c7d8ae9c26d7","system_id":"levelo_inurba_marseille","lat":43.30339,"lon":5.36891,"is_reserved":false,"is_disabled":false,"rental_uris":{"android":"levelo://app?vid=ee2f7bfb-3705-464e-83a9-c7d8ae9c26d7","ios":"levelo://app?vid=ee2f7bfb-3705-464e-83a9-c7d8ae9c26d7"},"vehicle_type_id":"4","last_reported":1738274871,"current_range_meters":19600,"station_id":"ce4bgqh2rcd13ifvqc5g","pricing_plan_id":"cebpf4jnsgd1na2vs0mg"},{"bike_id":"f7310b74-fbd3-4d07-9834-061d02d66b07","system_id":"levelo_inurba_marseille","lat":43.2768,"lon":5.3889,"is_reserved":false,"is_disabled":false,"rental_uris":{"android":"levelo://app?vid=f7310b74-fbd3-4d07-9834-061d02d66b07","ios":"levelo://app?vid=f7310b74-fbd3-4d07-9834-061d02d66b07"},"vehicle_type_id":"4","last_reported":1738274871,"current_range_meters":37600,"station_id":"ce4bhi12rcd13ifvqfo0","pricing_plan_id":"cebpf4jnsgd1na2vs0mg"},{"bike_id":"93b4852a-b80c-4aa5-a82b-4c051575bbfa","system_id":"levelo_inurba_marseille","lat":43.24067,"lon":5.37688,"is_reserved":false,"is_disabled":false,"rental_uris":{"android":"levelo://app?vid=93b4852a-b80c-4aa5-a82b-4c051575bbfa","ios":"levelo://app?vid=93b4852a-b80c-4aa5-a82b-4c051575bbfa"},"vehicle_type_id":"4","last_reported":1738274871,"current_range_meters":17200,"station_id":"ce4bhnp2rcd13ifvqgvg","pricing_plan_id":"cebpf4jnsgd1na2vs0mg"},{"bike_id":"14f9660e-3c5a-472b-ad83-9a464b2976e9","system_id":"levelo_inurba_marseille","lat":43.313256,"lon":5.396874,"is_reserved":false,"is_disabled":false,"rental_uris":{"android":"levelo://app?vid=14f9660e-3c5a-472b-ad83-9a464b2976e9","ios":"levelo://app?vid=14f9660e-3c5a-472b-ad83-9a464b2976e9"},"vehicle_type_id":"4","last_reported":1738274871,"current_range_meters":29600,"station_id":"ce4bgvp2rcd13ifvqcu0","pricing_plan_id":"cebpf4jnsgd1na2vs0mg"},{"bike_id":"3e7ae16a-8dc5-4e6e-b0da-3f89c3a3dbf7","system_id":"levelo_inurba_marseille","lat":43.34184,"lon":5.40933,"is_reserved":false,"is_disabled":false,"rental_uris":{"android":"levelo://app?vid=3e7ae16a-8dc5-4e6e-b0da-3f89c3a3dbf7","ios":"levelo://app?vid=3e7ae16a-8dc5-4e6e-b0da-3f89c3a3dbf7"},"vehicle_type_id":"4","last_reported":1738274871,"current_range_meters":38000,"station_id":"ce4bhqh2rcd13ifvqhlg","pricing_plan_id":"cebpf4jnsgd1na2vs0mg"},{"bike_id":"c20dbf8f-ebbe-4c91-b081-533de9704a6c","system_id":"levelo_inurba_marseille","lat":43.26964,"lon":5.402,"is_reserved":false,"is_disabled":false,"rental_uris":{"android":"levelo://app?vid=c20dbf8f-ebbe-4c91-b081-533de9704a6c","ios":"levelo://app?vid=c20dbf8f-ebbe-4c91-b081-533de9704a6c"},"vehicle_type_id":"4","last_reported":1738274871,"current_range_meters":17200,"station_id":"","pricing_plan_id":"cebpf4jnsgd1na2vs0mg"},{"bike_id":"39fda13f-0f56-4d84-bd3a-f99078c8032f","system_id":"levelo_inurba_marseille","lat":43.29844,"lon":5.36271,"is_reserved":false,"is_disabled":false,"rental_uris":{"android":"levelo://app?vid=39fda13f-0f56-4d84-bd3a-f99078c8032f","ios":"levelo://app?vid=39fda13f-0f56-4d84-bd3a-f99078c8032f"},"vehicle_type_id":"4","last_reported":1738274871,"current_range_meters":38800,"station_id":"ce4bgpp2rcd13ifvqc3g","pricing_plan_id":"cebpf4jnsgd1na2vs0mg"},{"bike_id":"9fd2b53c-c176-4281-adad-9fc6e73930a3","system_id":"levelo_inurba_marseille","lat":43.24078,"lon":5.37746,"is_reserved":false,"is_disabled":false,"rental_uris":{"android":"levelo://app?vid=9fd2b53c-c176-4281-adad-9fc6e73930a3","ios":"levelo://app?vid=9fd2b53c-c176-4281-adad-9fc6e73930a3"},"vehicle_type_id":"4","last_reported":1738274871,"current_range_meters":38800,"station_id":"ce4bhnp2rcd13ifvqgvg","pricing_plan_id":"cebpf4jnsgd1na2vs0mg"},{"bike_id":"0833430c-5458-43d9-ba21-23f76f0c165f","system_id":"levelo_inurba_marseille","lat":43.30881,"lon":5.39637,"is_reserved":false,"is_disabled":false,"rental_uris":{"android":"levelo://app?vid=0833430c-5458-43d9-ba21-23f76f0c165f","ios":"levelo://app?vid=0833430c-5458-43d9-ba21-23f76f0c165f"},"vehicle_type_id":"4","last_reported":1738274871,"current_range_meters":25600,"station_id":"ce4bh012rcd13ifvqcv0","pricing_plan_id":"cebpf4jnsgd1na2vs0mg"},{"bike_id":"5e995bf7-c9ed-4dac-99cc-dd1f81921bd9","system_id":"levelo_inurba_marseille","lat":43.26929,"lon":5.40318,"is_reserved":false,"is_disabled":false,"rental_uris":{"android":"levelo://app?vid=5e995bf7-c9ed-4dac-99cc-dd1f81921bd9","ios":"levelo://app?vid=5e995bf7-c9ed-4dac-99cc-dd1f81921bd9"},"vehicle_type_id":"4","last_reported":1738274871,"current_range_meters":38800,"station_id":"cjm6bp8fraef2m0cb0m0","pricing_plan_id":"cebpf4jnsgd1na2vs0mg"},{"bike_id":"cd6b353a-d9ae-47b8-9eb1-cf960e9a39fe","system_id":"levelo_inurba_marseille","lat":43.29248,"lon":5.36848,"is_reserved":false,"is_disabled":false,"rental_uris":{"android":"levelo://app?vid=cd6b353a-d9ae-47b8-9eb1-cf960e9a39fe","ios":"levelo://app?vid=cd6b353a-d9ae-47b8-9eb1-cf960e9a39fe"},"vehicle_type_id":"4","last_reported":1738274871,"current_range_meters":12400,"station_id":"ce4bhbp2rcd13ifvqesg","pricing_plan_id":"cebpf4jnsgd1na2vs0mg"},{"bike_id":"9061c30b-f0f7-46e3-8477-d3c2c36b1f53","system_id":"levelo_inurba_marseille","lat":43.28055,"lon":5.36941,"is_reserved":false,"is_disabled":true,"rental_uris":{"android":"levelo://app?vid=9061c30b-f0f7-46e3-8477-d3c2c36b1f53","ios":"levelo://app?vid=9061c30b-f0f7-46e3-8477-d3c2c36b1f53"},"vehicle_type_id":"4","last_reported":1738274871,"current_range_meters":35200,"station_id":"ce4bha12rcd13ifvqef0","pricing_plan_id":"cebpf4jnsgd1na2vs0mg"},{"bike_id":"b47546f7-90c4-40f8-abd8-4029ca471b85","system_id":"levelo_inurba_marseille","lat":43.27372,"lon":5.36245,"is_reserved":false,"is_disabled":false,"rental_uris":{"android":"levelo://app?vid=b47546f7-90c4-40f8-abd8-4029ca471b85","ios":"levelo://app?vid=b47546f7-90c4-40f8-abd8-4029ca471b85"},"vehicle_type_id":"4","last_reported":1738274871,"current_range_meters":38800,"station_id":"ce4bhbh2rcd13ifvqeo0","pricing_plan_id":"cebpf4jnsgd1na2vs0mg"},{"bike_id":"16993b99-1b15-4df1-9c73-04bda390870f","system_id":"levelo_inurba_marseille","lat":43.2791,"lon":5.38006,"is_reserved":false,"is_disabled":false,"rental_uris":{"android":"levelo://app?vid=16993b99-1b15-4df1-9c73-04bda390870f","ios":"levelo://app?vid=16993b99-1b15-4df1-9c73-04bda390870f"},"vehicle_type_id":"4","last_reported":1738274871,"current_range_meters":38400,"station_id":"ce4bhf92rcd13ifvqf50","pricing_plan_id":"cebpf4jnsgd1na2vs0mg"},{"bike_id":"20bde5ed-a913-4b38-96b3-06e41b39699f","system_id":"levelo_inurba_marseille","lat":43.31757,"lon":5.39033,"is_reserved":false,"is_disabled":false,"rental_uris":{"android":"levelo://app?vid=20bde5ed-a913-4b38-96b3-06e41b39699f","ios":"levelo://app?vid=20bde5ed-a913-4b38-96b3-06e41b39699f"},"vehicle_type_id":"4","last_reported":1738274871,"current_range_meters":37600,"station_id":"ce4bhqp2rcd13ifvqhng","pricing_plan_id":"cebpf4jnsgd1na2vs0mg"},{"bike_id":"d18263de-e47d-41b0-b235-663da88af016","system_id":"levelo_inurba_marseille","lat":43.28433,"lon":5.39191,"is_reserved":false,"is_disabled":false,"rental_uris":{"android":"levelo://app?vid=d18263de-e47d-41b0-b235-663da88af016","ios":"levelo://app?vid=d18263de-e47d-41b0-b235-663da88af016"},"vehicle_type_id":"4","last_reported":1738274871,"current_range_meters":38800,"station_id":"ce4bhoh2rcd13ifvqh5g","pricing_plan_id":"cebpf4jnsgd1na2vs0mg"},{"bike_id":"ab2c796a-c23b-4a3a-9534-777b873d6a05","system_id":"levelo_inurba_marseille","lat":43.24164,"lon":5.36452,"is_reserved":false,"is_disabled":false,"rental_uris":{"android":"levelo://app?vid=ab2c796a-c23b-4a3a-9534-777b873d6a05","ios":"levelo://app?vid=ab2c796a-c23b-4a3a-9534-777b873d6a05"},"vehicle_type_id":"4","last_reported":1738274871,"current_range_meters":38400,"station_id":"cpo36qri1sfpv3e86is0","pricing_plan_id":"cebpf4jnsgd1na2vs0mg"},{"bike_id":"a22bc9df-d568-4f1f-a1e9-de3b4dbe67fd","system_id":"levelo_inurba_marseille","lat":43.284247,"lon":5.349903,"is_reserved":false,"is_disabled":false,"rental_uris":{"android":"levelo://app?vid=a22bc9df-d568-4f1f-a1e9-de3b4dbe67fd","ios":"levelo://app?vid=a22bc9df-d568-4f1f-a1e9-de3b4dbe67fd"},"vehicle_type_id":"4","last_reported":1738274871,"current_range_meters":17200,"station_id":"ce4bhbh2rcd13ifvqepg","pricing_plan_id":"cebpf4jnsgd1na2vs0mg"},{"bike_id":"9d529811-8444-477d-9a82-57d5a87aec89","system_id":"levelo_inurba_marseille","lat":43.28472,"lon":5.35876,"is_reserved":false,"is_disabled":false,"rental_uris":{"android":"levelo://app?vid=9d529811-8444-477d-9a82-57d5a87aec89","ios":"levelo://app?vid=9d529811-8444-477d-9a82-57d5a87aec89"},"vehicle_type_id":"4","last_reported":1738274871,"current_range_meters":35600,"station_id":"ce4bhah2rcd13ifvqei0","pricing_plan_id":"cebpf4jnsgd1na2vs0mg"},{"bike_id":"58feef8f-17b5-470d-8151-c7a13f0dbe24","system_id":"levelo_inurba_marseille","lat":43.28422,"lon":5.3753,"is_reserved":false,"is_disabled":false,"rental_uris":{"android":"levelo://app?vid=58feef8f-17b5-470d-8151-c7a13f0dbe24","ios":"levelo://app?vid=58feef8f-17b5-470d-8151-c7a13f0dbe24"},"vehicle_type_id":"4","last_reported":1738274871,"current_range_meters":4800,"station_id":"ce4bh412rcd13ifvqds0","pricing_plan_id":"cebpf4jnsgd1na2vs0mg"},{"bike_id":"74895633-4d28-4ebc-a1ed-faec94d215c9","system_id":"levelo_inurba_marseille","lat":43.29026,"lon":5.37575,"is_reserved":false,"is_disabled":false,"rental_uris":{"android":"levelo://app?vid=74895633-4d28-4ebc-a1ed-faec94d215c9","ios":"levelo://app?vid=74895633-4d28-4ebc-a1ed-faec94d215c9"},"vehicle_type_id":"4","last_reported":1738274871,"current_range_meters":38000,"station_id":"ce4bh692rcd13ifvqe90","pricing_plan_id":"cebpf4jnsgd1na2vs0mg"},{"bike_id":"9d42fbed-87b1-4c89-83cb-da11d7668c26","system_id":"levelo_inurba_marseille","lat":43.313262,"lon":5.396972,"is_reserved":false,"is_disabled":false,"rental_uris":{"android":"levelo://app?vid=9d42fbed-87b1-4c89-83cb-da11d7668c26","ios":"levelo://app?vid=9d42fbed-87b1-4c89-83cb-da11d7668c26"},"vehicle_type_id":"4","last_reported":1738274871,"current_range_meters":36000,"station_id":"ce4bgvp2rcd13ifvqcu0","pricing_plan_id":"cebpf4jnsgd1na2vs0mg"},{"bike_id":"59c84c8c-f740-4013-8df2-50bb9ed0c76d","system_id":"levelo_inurba_marseille","lat":43.25096,"lon":5.39498,"is_reserved":false,"is_disabled":false,"rental_uris":{"android":"levelo://app?vid=59c84c8c-f740-4013-8df2-50bb9ed0c76d","ios":"levelo://app?vid=59c84c8c-f740-4013-8df2-50bb9ed0c76d"},"vehicle_type_id":"4","last_reported":1738274871,"current_range_meters":39200,"station_id":"ce4bhm12rcd13ifvqgkg","pricing_plan_id":"cebpf4jnsgd1na2vs0mg"},{"bike_id":"349525db-a683-452e-a69d-a6cf21342dae","system_id":"levelo_inurba_marseille","lat":43.29582,"lon":5.36746,"is_reserved":false,"is_disabled":false,"rental_uris":{"android":"levelo://app?vid=349525db-a683-452e-a69d-a6cf21342dae","ios":"levelo://app?vid=349525db-a683-452e-a69d-a6cf21342dae"},"vehicle_type_id":"4","last_reported":1738274871,"current_range_meters":34000,"station_id":"ce4bgph2rcd13ifvqc2g","pricing_plan_id":"cebpf4jnsgd1na2vs0mg"},{"bike_id":"b3f9d40e-c6c3-4e70-a1cf-be32056d433c","system_id":"levelo_inurba_marseille","lat":43.24395,"lon":5.37052,"is_reserved":false,"is_disabled":true,"rental_uris":{"android":"levelo://app?vid=b3f9d40e-c6c3-4e70-a1cf-be32056d433c","ios":"levelo://app?vid=b3f9d40e-c6c3-4e70-a1cf-be32056d433c"},"vehicle_type_id":"4","last_reported":1738274871,"current_range_meters":0,"station_id":"ce4bhhh2rcd13ifvqfk0","pricing_plan_id":"cebpf4jnsgd1na2vs0mg"},{"bike_id":"d9ed5303-640c-4034-8a17-1ad90548a427","system_id":"levelo_inurba_marseille","lat":43.2509,"lon":5.39504,"is_reserved":false,"is_disabled":false,"rental_uris":{"android":"levelo://app?vid=d9ed5303-640c-4034-8a17-1ad90548a427","ios":"levelo://app?vid=d9ed5303-640c-4034-8a17-1ad90548a427"},"vehicle_type_id":"4","last_reported":1738274871,"current_range_meters":38800,"station_id":"ce4bhm12rcd13ifvqgkg","pricing_plan_id":"cebpf4jnsgd1na2vs0mg"},{"bike_id":"fc2dee61-6a5e-41ce-a75c-e2029dcb39bc","system_id":"levelo_inurba_marseille","lat":43.2655,"lon":5.37289,"is_reserved":false,"is_disabled":false,"rental_uris":{"android":"levelo://app?vid=fc2dee61-6a5e-41ce-a75c-e2029dcb39bc","ios":"levelo://app?vid=fc2dee61-6a5e-41ce-a75c-e2029dcb39bc"},"vehicle_type_id":"4","last_reported":1738274871,"current_range_meters":16800,"station_id":"ce4bhg12rcd13ifvqf70","pricing_plan_id":"cebpf4jnsgd1na2vs0mg"},{"bike_id":"df3e6117-84f8-4b82-8edc-d0fa1abf3955","system_id":"levelo_inurba_marseille","lat":43.29461,"lon":5.38465,"is_reserved":false,"is_disabled":false,"rental_uris":{"android":"levelo://app?vid=df3e6117-84f8-4b82-8edc-d0fa1abf3955","ios":"levelo://app?vid=df3e6117-84f8-4b82-8edc-d0fa1abf3955"},"vehicle_type_id":"4","last_reported":1738274871,"current_range_meters":9600,"station_id":"","pricing_plan_id":"cebpf4jnsgd1na2vs0mg"},{"bike_id":"98d3b3e4-cfb0-4926-8be8-90a8034d23db","system_id":"levelo_inurba_marseille","lat":43.2836,"lon":5.38115,"is_reserved":false,"is_disabled":false,"rental_uris":{"android":"levelo://app?vid=98d3b3e4-cfb0-4926-8be8-90a8034d23db","ios":"levelo://app?vid=98d3b3e4-cfb0-4926-8be8-90a8034d23db"},"vehicle_type_id":"4","last_reported":1738274871,"current_range_meters":38800,"station_id":"ce4bh412rcd13ifvqdr0","pricing_plan_id":"cebpf4jnsgd1na2vs0mg"},{"bike_id":"28e881d1-0d7a-445a-bd5a-bac2f44cfb8c","system_id":"levelo_inurba_marseille","lat":43.25924,"lon":5.40882,"is_reserved":false,"is_disabled":true,"rental_uris":{"android":"levelo://app?vid=28e881d1-0d7a-445a-bd5a-bac2f44cfb8c","ios":"levelo://app?vid=28e881d1-0d7a-445a-bd5a-bac2f44cfb8c"},"vehicle_type_id":"4","last_reported":1738274871,"current_range_meters":14800,"station_id":"ce4bhm92rcd13ifvqglg","pricing_plan_id":"cebpf4jnsgd1na2vs0mg"},{"bike_id":"e8e1f7c6-d773-4c38-bfcc-4a6d773355ce","system_id":"levelo_inurba_marseille","lat":43.22952,"lon":5.35377,"is_reserved":false,"is_disabled":false,"rental_uris":{"android":"levelo://app?vid=e8e1f7c6-d773-4c38-bfcc-4a6d773355ce","ios":"levelo://app?vid=e8e1f7c6-d773-4c38-bfcc-4a6d773355ce"},"vehicle_type_id":"4","last_reported":1738274871,"current_range_meters":38800,"station_id":"cpo3532slgdg3j2ikp40","pricing_plan_id":"cebpf4jnsgd1na2vs0mg"},{"bike_id":"57b7807f-dadf-4a68-98f3-8bb7398bbe27","system_id":"levelo_inurba_marseille","lat":43.26925,"lon":5.40274,"is_reserved":false,"is_disabled":false,"rental_uris":{"android":"levelo://app?vid=57b7807f-dadf-4a68-98f3-8bb7398bbe27","ios":"levelo://app?vid=57b7807f-dadf-4a68-98f3-8bb7398bbe27"},"vehicle_type_id":"4","last_reported":1738274871,"current_range_meters":25200,"station_id":"cjm6bp8fraef2m0cb0m0","pricing_plan_id":"cebpf4jnsgd1na2vs0mg"},{"bike_id":"9c577c7e-bb6a-4366-a029-5d396357d344","system_id":"levelo_inurba_marseille","lat":43.29613,"lon":5.36715,"is_reserved":false,"is_disabled":false,"rental_uris":{"android":"levelo://app?vid=9c577c7e-bb6a-4366-a029-5d396357d344","ios":"levelo://app?vid=9c577c7e-bb6a-4366-a029-5d396357d344"},"vehicle_type_id":"4","last_reported":1738274871,"current_range_meters":38400,"station_id":"ce4bgph2rcd13ifvqc2g","pricing_plan_id":"cebpf4jnsgd1na2vs0mg"},{"bike_id":"56024dc9-74aa-4fc0-8b45-28742bc6bf59","system_id":"levelo_inurba_marseille","lat":43.28956,"lon":5.36395,"is_reserved":false,"is_disabled":false,"rental_uris":{"android":"levelo://app?vid=56024dc9-74aa-4fc0-8b45-28742bc6bf59","ios":"levelo://app?vid=56024dc9-74aa-4fc0-8b45-28742bc6bf59"},"vehicle_type_id":"4","last_reported":1738274871,"current_range_meters":38400,"station_id":"ce4bhc92rcd13ifvqetg","pricing_plan_id":"cebpf4jnsgd1na2vs0mg"},{"bike_id":"7b6d01c3-b9c6-4cae-b2e7-64fcc0baeeaa","system_id":"levelo_inurba_marseille","lat":43.25563,"lon":5.38251,"is_reserved":false,"is_disabled":false,"rental_uris":{"android":"levelo://app?vid=7b6d01c3-b9c6-4cae-b2e7-64fcc0baeeaa","ios":"levelo://app?vid=7b6d01c3-b9c6-4cae-b2e7-64fcc0baeeaa"},"vehicle_type_id":"4","last_reported":1738274871,"current_range_meters":15200,"station_id":"ce4bhih2rcd13ifvqfs0","pricing_plan_id":"cebpf4jnsgd1na2vs0mg"},{"bike_id":"17a1d8ce-e7f3-47ac-bfe8-07e94d2954bf","system_id":"levelo_inurba_marseille","lat":43.25583,"lon":5.38245,"is_reserved":false,"is_disabled":false,"rental_uris":{"android":"levelo://app?vid=17a1d8ce-e7f3-47ac-bfe8-07e94d2954bf","ios":"levelo://app?vid=17a1d8ce-e7f3-47ac-bfe8-07e94d2954bf"},"vehicle_type_id":"4","last_reported":1738274871,"current_range_meters":39200,"station_id":"ce4bhih2rcd13ifvqfs0","pricing_plan_id":"cebpf4jnsgd1na2vs0mg"},{"bike_id":"31542a96-a8af-41fe-bce6-72a691c105c5","system_id":"levelo_inurba_marseille","lat":43.31488,"lon":5.37313,"is_reserved":false,"is_disabled":false,"rental_uris":{"android":"levelo://app?vid=31542a96-a8af-41fe-bce6-72a691c105c5","ios":"levelo://app?vid=31542a96-a8af-41fe-bce6-72a691c105c5"},"vehicle_type_id":"4","last_reported":1738274871,"current_range_meters":39200,"station_id":"ce4bgt12rcd13ifvqcd0","pricing_plan_id":"cebpf4jnsgd1na2vs0mg"},{"bike_id":"873603c6-e1ae-4482-bc98-660199611322","system_id":"levelo_inurba_marseille","lat":43.30892,"lon":5.39619,"is_reserved":false,"is_disabled":false,"rental_uris":{"android":"levelo://app?vid=873603c6-e1ae-4482-bc98-660199611322","ios":"levelo://app?vid=873603c6-e1ae-4482-bc98-660199611322"},"vehicle_type_id":"4","last_reported":1738274871,"current_range_meters":38800,"station_id":"ce4bh012rcd13ifvqcv0","pricing_plan_id":"cebpf4jnsgd1na2vs0mg"},{"bike_id":"0aabbfa3-94c5-47b7-b9f2-f42eebf82384","system_id":"levelo_inurba_marseille","lat":43.31369,"lon":5.38505,"is_reserved":false,"is_disabled":false,"rental_uris":{"android":"levelo://app?vid=0aabbfa3-94c5-47b7-b9f2-f42eebf82384","ios":"levelo://app?vid=0aabbfa3-94c5-47b7-b9f2-f42eebf82384"},"vehicle_type_id":"4","last_reported":1738274871,"current_range_meters":30000,"station_id":"ce4bgt92rcd13ifvqcf0","pricing_plan_id":"cebpf4jnsgd1na2vs0mg"},{"bike_id":"732f4b8a-fcee-4b50-8f2e-6cacd504b5cf","system_id":"levelo_inurba_marseille","lat":43.31761,"lon":5.39016,"is_reserved":false,"is_disabled":false,"rental_uris":{"android":"levelo://app?vid=732f4b8a-fcee-4b50-8f2e-6cacd504b5cf","ios":"levelo://app?vid=732f4b8a-fcee-4b50-8f2e-6cacd504b5cf"},"vehicle_type_id":"4","last_reported":1738274871,"current_range_meters":38800,"station_id":"ce4bhqp2rcd13ifvqhng","pricing_plan_id":"cebpf4jnsgd1na2vs0mg"},{"bike_id":"06ff66b9-0a7c-4dbc-b44f-e7bf15eb22ef","system_id":"levelo_inurba_marseille","lat":43.31166,"lon":5.38729,"is_reserved":false,"is_disabled":false,"rental_uris":{"android":"levelo://app?vid=06ff66b9-0a7c-4dbc-b44f-e7bf15eb22ef","ios":"levelo://app?vid=06ff66b9-0a7c-4dbc-b44f-e7bf15eb22ef"},"vehicle_type_id":"4","last_reported":1738274871,"current_range_meters":33200,"station_id":"ce4bgv12rcd13ifvqcp0","pricing_plan_id":"cebpf4jnsgd1na2vs0mg"},{"bike_id":"57c826af-6612-4b5f-b1a3-abc73d01132b","system_id":"levelo_inurba_marseille","lat":43.30648,"lon":5.40097,"is_reserved":false,"is_disabled":false,"rental_uris":{"android":"levelo://app?vid=57c826af-6612-4b5f-b1a3-abc73d01132b","ios":"levelo://app?vid=57c826af-6612-4b5f-b1a3-abc73d01132b"},"vehicle_type_id":"4","last_reported":1738274871,"current_range_meters":28400,"station_id":"ce4bh112rcd13ifvqda0","pricing_plan_id":"cebpf4jnsgd1na2vs0mg"},{"bike_id":"8745c30d-1d91-4c75-a102-78d11a1fb031","system_id":"levelo_inurba_marseille","lat":43.28864,"lon":5.3587,"is_reserved":false,"is_disabled":false,"rental_uris":{"android":"levelo://app?vid=8745c30d-1d91-4c75-a102-78d11a1fb031","ios":"levelo://app?vid=8745c30d-1d91-4c75-a102-78d11a1fb031"},"vehicle_type_id":"4","last_reported":1738274871,"current_range_meters":33600,"station_id":"ce4bhb12rcd13ifvqem0","pricing_plan_id":"cebpf4jnsgd1na2vs0mg"},{"bike_id":"9f5e8ffe-6f72-4dd7-89cf-5568c4200e49","system_id":"levelo_inurba_marseille","lat":43.28689,"lon":5.3868,"is_reserved":false,"is_disabled":false,"rental_uris":{"android":"levelo://app?vid=9f5e8ffe-6f72-4dd7-89cf-5568c4200e49","ios":"levelo://app?vid=9f5e8ffe-6f72-4dd7-89cf-5568c4200e49"},"vehicle_type_id":"4","last_reported":1738274871,"current_range_meters":22000,"station_id":"ce4bh492rcd13ifvqdug","pricing_plan_id":"cebpf4jnsgd1na2vs0mg"},{"bike_id":"e9ec24da-025a-4dfc-8c71-776f8271cad7","system_id":"levelo_inurba_marseille","lat":43.29589,"lon":5.36759,"is_reserved":false,"is_disabled":false,"rental_uris":{"android":"levelo://app?vid=e9ec24da-025a-4dfc-8c71-776f8271cad7","ios":"levelo://app?vid=e9ec24da-025a-4dfc-8c71-776f8271cad7"},"vehicle_type_id":"4","last_reported":1738274871,"current_range_meters":38800,"station_id":"ce4bgph2rcd13ifvqc2g","pricing_plan_id":"cebpf4jnsgd1na2vs0mg"},{"bike_id":"070218cf-5f55-4a87-b307-d0bbb1caf6f4","system_id":"levelo_inurba_marseille","lat":43.23185,"lon":5.3999,"is_reserved":false,"is_disabled":false,"rental_uris":{"android":"levelo://app?vid=070218cf-5f55-4a87-b307-d0bbb1caf6f4","ios":"levelo://app?vid=070218cf-5f55-4a87-b307-d0bbb1caf6f4"},"vehicle_type_id":"4","last_reported":1738274871,"current_range_meters":39200,"station_id":"ce4bhn12rcd13ifvqgqg","pricing_plan_id":"cebpf4jnsgd1na2vs0mg"},{"bike_id":"c0dd6acb-e111-4830-b706-614809304a0b","system_id":"levelo_inurba_marseille","lat":43.27498,"lon":5.42451,"is_reserved":false,"is_disabled":true,"rental_uris":{"android":"levelo://app?vid=c0dd6acb-e111-4830-b706-614809304a0b","ios":"levelo://app?vid=c0dd6acb-e111-4830-b706-614809304a0b"},"vehicle_type_id":"4","last_reported":1738274871,"current_range_meters":24000,"station_id":"ce4bhn92rcd13ifvqgrg","pricing_plan_id":"cebpf4jnsgd1na2vs0mg"},{"bike_id":"a1c5dd46-e4f3-4153-b476-2753b7d1343c","system_id":"levelo_inurba_marseille","lat":43.292,"lon":5.35801,"is_reserved":false,"is_disabled":false,"rental_uris":{"android":"levelo://app?vid=a1c5dd46-e4f3-4153-b476-2753b7d1343c","ios":"levelo://app?vid=a1c5dd46-e4f3-4153-b476-2753b7d1343c"},"vehicle_type_id":"4","last_reported":1738274871,"current_range_meters":38800,"station_id":"ce4bhb12rcd13ifvqel0","pricing_plan_id":"cebpf4jnsgd1na2vs0mg"},{"bike_id":"71f34f72-d3b7-46a5-9bd4-1fe057b3152f","system_id":"levelo_inurba_marseille","lat":43.2293,"lon":5.35384,"is_reserved":false,"is_disabled":false,"rental_uris":{"android":"levelo://app?vid=71f34f72-d3b7-46a5-9bd4-1fe057b3152f","ios":"levelo://app?vid=71f34f72-d3b7-46a5-9bd4-1fe057b3152f"},"vehicle_type_id":"4","last_reported":1738274871,"current_range_meters":38800,"station_id":"cpo3532slgdg3j2ikp40","pricing_plan_id":"cebpf4jnsgd1na2vs0mg"},{"bike_id":"b3057d36-f9c9-428e-bf09-af80f582e3b4","system_id":"levelo_inurba_marseille","lat":43.25011,"lon":5.40556,"is_reserved":false,"is_disabled":false,"rental_uris":{"android":"levelo://app?vid=b3057d36-f9c9-428e-bf09-af80f582e3b4","ios":"levelo://app?vid=b3057d36-f9c9-428e-bf09-af80f582e3b4"},"vehicle_type_id":"4","last_reported":1738274871,"current_range_meters":38800,"station_id":"","pricing_plan_id":"cebpf4jnsgd1na2vs0mg"},{"bike_id":"20029bdd-9f9c-4ff9-86e4-5ba6ed30f46a","system_id":"levelo_inurba_marseille","lat":43.23148,"lon":5.43705,"is_reserved":false,"is_disabled":true,"rental_uris":{"android":"levelo://app?vid=20029bdd-9f9c-4ff9-86e4-5ba6ed30f46a","ios":"levelo://app?vid=20029bdd-9f9c-4ff9-86e4-5ba6ed30f46a"},"vehicle_type_id":"4","last_reported":1738274871,"current_range_meters":0,"station_id":"ce4bhmp2rcd13ifvqgog","pricing_plan_id":"cebpf4jnsgd1na2vs0mg"},{"bike_id":"9a420f87-7d7e-4781-b326-9c09400ca210","system_id":"levelo_inurba_marseille","lat":43.26215,"lon":5.37448,"is_reserved":false,"is_disabled":false,"rental_uris":{"android":"levelo://app?vid=9a420f87-7d7e-4781-b326-9c09400ca210","ios":"levelo://app?vid=9a420f87-7d7e-4781-b326-9c09400ca210"},"vehicle_type_id":"4","last_reported":1738274871,"current_range_meters":30400,"station_id":"ce4bhgp2rcd13ifvqfc0","pricing_plan_id":"cebpf4jnsgd1na2vs0mg"},{"bike_id":"72fc3fa8-b4b1-4812-ae48-9e9672608459","system_id":"levelo_inurba_marseille","lat":43.30881,"lon":5.39653,"is_reserved":false,"is_disabled":false,"rental_uris":{"android":"levelo://app?vid=72fc3fa8-b4b1-4812-ae48-9e9672608459","ios":"levelo://app?vid=72fc3fa8-b4b1-4812-ae48-9e9672608459"},"vehicle_type_id":"4","last_reported":1738274871,"current_range_meters":33200,"station_id":"ce4bh012rcd13ifvqcv0","pricing_plan_id":"cebpf4jnsgd1na2vs0mg"},{"bike_id":"279becec-4a79-4c20-8a99-f00d2ae395c1","system_id":"levelo_inurba_marseille","lat":43.31065,"lon":5.38358,"is_reserved":false,"is_disabled":false,"rental_uris":{"android":"levelo://app?vid=279becec-4a79-4c20-8a99-f00d2ae395c1","ios":"levelo://app?vid=279becec-4a79-4c20-8a99-f00d2ae395c1"},"vehicle_type_id":"4","last_reported":1738274871,"current_range_meters":10800,"station_id":"ce4bgv92rcd13ifvqcr0","pricing_plan_id":"cebpf4jnsgd1na2vs0mg"},{"bike_id":"d65f0e9e-9cb6-4626-9dd5-7cf6aeb8816a","system_id":"levelo_inurba_marseille","lat":43.30105,"lon":5.39057,"is_reserved":false,"is_disabled":true,"rental_uris":{"android":"levelo://app?vid=d65f0e9e-9cb6-4626-9dd5-7cf6aeb8816a","ios":"levelo://app?vid=d65f0e9e-9cb6-4626-9dd5-7cf6aeb8816a"},"vehicle_type_id":"4","last_reported":1738274871,"current_range_meters":0,"station_id":"ce4bh192rcd13ifvqdb0","pricing_plan_id":"cebpf4jnsgd1na2vs0mg"},{"bike_id":"7a8503ce-2278-4768-90d1-b87e022c42c6","system_id":"levelo_inurba_marseille","lat":43.2862,"lon":5.35104,"is_reserved":false,"is_disabled":false,"rental_uris":{"android":"levelo://app?vid=7a8503ce-2278-4768-90d1-b87e022c42c6","ios":"levelo://app?vid=7a8503ce-2278-4768-90d1-b87e022c42c6"},"vehicle_type_id":"4","last_reported":1738274871,"current_range_meters":26000,"station_id":"ce4bhch2rcd13ifvqeug","pricing_plan_id":"cebpf4jnsgd1na2vs0mg"},{"bike_id":"a6cfea8d-ffea-4d2c-96c2-b8cf2ed47bc4","system_id":"levelo_inurba_marseille","lat":43.30139,"lon":5.38783,"is_reserved":false,"is_disabled":false,"rental_uris":{"android":"levelo://app?vid=a6cfea8d-ffea-4d2c-96c2-b8cf2ed47bc4","ios":"levelo://app?vid=a6cfea8d-ffea-4d2c-96c2-b8cf2ed47bc4"},"vehicle_type_id":"4","last_reported":1738274871,"current_range_meters":7200,"station_id":"ce4bhoh2rcd13ifvqh6g","pricing_plan_id":"cebpf4jnsgd1na2vs0mg"},{"bike_id":"46fdb6e5-fcb2-4c4b-ab56-c91307ece41d","system_id":"levelo_inurba_marseille","lat":43.28349,"lon":5.38099,"is_reserved":false,"is_disabled":false,"rental_uris":{"android":"levelo://app?vid=46fdb6e5-fcb2-4c4b-ab56-c91307ece41d","ios":"levelo://app?vid=46fdb6e5-fcb2-4c4b-ab56-c91307ece41d"},"vehicle_type_id":"4","last_reported":1738274871,"current_range_meters":25600,"station_id":"ce4bh412rcd13ifvqdr0","pricing_plan_id":"cebpf4jnsgd1na2vs0mg"},{"bike_id":"26bf92da-d481-4630-a4ae-31c3eafacf03","system_id":"levelo_inurba_marseille","lat":43.28,"lon":5.40023,"is_reserved":false,"is_disabled":false,"rental_uris":{"android":"levelo://app?vid=26bf92da-d481-4630-a4ae-31c3eafacf03","ios":"levelo://app?vid=26bf92da-d481-4630-a4ae-31c3eafacf03"},"vehicle_type_id":"4","last_reported":1738274871,"current_range_meters":37600,"station_id":"ce4bho92rcd13ifvqh4g","pricing_plan_id":"cebpf4jnsgd1na2vs0mg"},{"bike_id":"45fd4a2a-a5dc-4b7e-962f-4641aedb60dd","system_id":"levelo_inurba_marseille","lat":43.27979,"lon":5.41663,"is_reserved":false,"is_disabled":true,"rental_uris":{"android":"levelo://app?vid=45fd4a2a-a5dc-4b7e-962f-4641aedb60dd","ios":"levelo://app?vid=45fd4a2a-a5dc-4b7e-962f-4641aedb60dd"},"vehicle_type_id":"4","last_reported":1738274871,"current_range_meters":38000,"station_id":"ce4bho12rcd13ifvqh1g","pricing_plan_id":"cebpf4jnsgd1na2vs0mg"},{"bike_id":"bbd37f25-b511-4ba3-9ad8-9c3bb19bb776","system_id":"levelo_inurba_marseille","lat":43.3031,"lon":5.36906,"is_reserved":false,"is_disabled":false,"rental_uris":{"android":"levelo://app?vid=bbd37f25-b511-4ba3-9ad8-9c3bb19bb776","ios":"levelo://app?vid=bbd37f25-b511-4ba3-9ad8-9c3bb19bb776"},"vehicle_type_id":"4","last_reported":1738274871,"current_range_meters":22400,"station_id":"ce4bgqh2rcd13ifvqc5g","pricing_plan_id":"cebpf4jnsgd1na2vs0mg"},{"bike_id":"b8cd051c-73e4-43fa-b293-cd513636745c","system_id":"levelo_inurba_marseille","lat":43.29519,"lon":5.38552,"is_reserved":false,"is_disabled":true,"rental_uris":{"android":"levelo://app?vid=b8cd051c-73e4-43fa-b293-cd513636745c","ios":"levelo://app?vid=b8cd051c-73e4-43fa-b293-cd513636745c"},"vehicle_type_id":"4","last_reported":1738274871,"current_range_meters":29600,"station_id":"ce4bgih2rcd13ifvqba0","pricing_plan_id":"cebpf4jnsgd1na2vs0mg"},{"bike_id":"4d213e19-460b-4ffc-abf2-31a900d6c917","system_id":"levelo_inurba_marseille","lat":43.27616,"lon":5.36129,"is_reserved":false,"is_disabled":false,"rental_uris":{"android":"levelo://app?vid=4d213e19-460b-4ffc-abf2-31a900d6c917","ios":"levelo://app?vid=4d213e19-460b-4ffc-abf2-31a900d6c917"},"vehicle_type_id":"4","last_reported":1738274871,"current_range_meters":38800,"station_id":"ce4bgj92rcd13ifvqbe0","pricing_plan_id":"cebpf4jnsgd1na2vs0mg"},{"bike_id":"95aee25f-5c57-4ea4-ae9b-fd75ffb2acea","system_id":"levelo_inurba_marseille","lat":43.23191,"lon":5.39967,"is_reserved":false,"is_disabled":false,"rental_uris":{"android":"levelo://app?vid=95aee25f-5c57-4ea4-ae9b-fd75ffb2acea","ios":"levelo://app?vid=95aee25f-5c57-4ea4-ae9b-fd75ffb2acea"},"vehicle_type_id":"4","last_reported":1738274871,"current_range_meters":28000,"station_id":"ce4bhn12rcd13ifvqgqg","pricing_plan_id":"cebpf4jnsgd1na2vs0mg"},{"bike_id":"8c893236-4e50-4d74-9aae-eef51dda8b0f","system_id":"levelo_inurba_marseille","lat":43.281,"lon":5.37837,"is_reserved":false,"is_disabled":false,"rental_uris":{"android":"levelo://app?vid=8c893236-4e50-4d74-9aae-eef51dda8b0f","ios":"levelo://app?vid=8c893236-4e50-4d74-9aae-eef51dda8b0f"},"vehicle_type_id":"4","last_reported":1738274871,"current_range_meters":9200,"station_id":"ce4bha12rcd13ifvqee0","pricing_plan_id":"cebpf4jnsgd1na2vs0mg"},{"bike_id":"528fe304-774b-4f5e-99b0-3a6df52f7bd5","system_id":"levelo_inurba_marseille","lat":43.26939,"lon":5.40258,"is_reserved":false,"is_disabled":false,"rental_uris":{"android":"levelo://app?vid=528fe304-774b-4f5e-99b0-3a6df52f7bd5","ios":"levelo://app?vid=528fe304-774b-4f5e-99b0-3a6df52f7bd5"},"vehicle_type_id":"4","last_reported":1738274871,"current_range_meters":27600,"station_id":"cjm6bp8fraef2m0cb0m0","pricing_plan_id":"cebpf4jnsgd1na2vs0mg"},{"bike_id":"cfcdd1f6-4c05-48b4-8d5d-1746e1f60912","system_id":"levelo_inurba_marseille","lat":43.29192,"lon":5.35806,"is_reserved":false,"is_disabled":false,"rental_uris":{"android":"levelo://app?vid=cfcdd1f6-4c05-48b4-8d5d-1746e1f60912","ios":"levelo://app?vid=cfcdd1f6-4c05-48b4-8d5d-1746e1f60912"},"vehicle_type_id":"4","last_reported":1738274871,"current_range_meters":38400,"station_id":"ce4bhb12rcd13ifvqel0","pricing_plan_id":"cebpf4jnsgd1na2vs0mg"},{"bike_id":"dbd1c3bf-64df-4ed4-8db9-8c2b6f2d3caf","system_id":"levelo_inurba_marseille","lat":43.27949,"lon":5.41046,"is_reserved":false,"is_disabled":false,"rental_uris":{"android":"levelo://app?vid=dbd1c3bf-64df-4ed4-8db9-8c2b6f2d3caf","ios":"levelo://app?vid=dbd1c3bf-64df-4ed4-8db9-8c2b6f2d3caf"},"vehicle_type_id":"4","last_reported":1738274871,"current_range_meters":8000,"station_id":"ce4bhnp2rcd13ifvqh0g","pricing_plan_id":"cebpf4jnsgd1na2vs0mg"},{"bike_id":"d05a5670-08c0-4bb8-af51-4dcb20b0dac8","system_id":"levelo_inurba_marseille","lat":43.27446,"lon":5.39396,"is_reserved":false,"is_disabled":false,"rental_uris":{"android":"levelo://app?vid=d05a5670-08c0-4bb8-af51-4dcb20b0dac8","ios":"levelo://app?vid=d05a5670-08c0-4bb8-af51-4dcb20b0dac8"},"vehicle_type_id":"4","last_reported":1738274871,"current_range_meters":38800,"station_id":"ce4bhdp2rcd13ifvqf20","pricing_plan_id":"cebpf4jnsgd1na2vs0mg"},{"bike_id":"3f3b38da-8d76-49d6-be17-984cf0fc3296","system_id":"levelo_inurba_marseille","lat":43.28715,"lon":5.37951,"is_reserved":false,"is_disabled":true,"rental_uris":{"android":"levelo://app?vid=3f3b38da-8d76-49d6-be17-984cf0fc3296","ios":"levelo://app?vid=3f3b38da-8d76-49d6-be17-984cf0fc3296"},"vehicle_type_id":"4","last_reported":1738274871,"current_range_meters":18800,"station_id":"ce4bh9p2rcd13ifvqec0","pricing_plan_id":"cebpf4jnsgd1na2vs0mg"},{"bike_id":"f1c1b4b2-886a-4032-9789-fafe9a004bd4","system_id":"levelo_inurba_marseille","lat":43.28454,"lon":5.35903,"is_reserved":false,"is_disabled":false,"rental_uris":{"android":"levelo://app?vid=f1c1b4b2-886a-4032-9789-fafe9a004bd4","ios":"levelo://app?vid=f1c1b4b2-886a-4032-9789-fafe9a004bd4"},"vehicle_type_id":"4","last_reported":1738274871,"current_range_meters":38800,"station_id":"ce4bhah2rcd13ifvqei0","pricing_plan_id":"cebpf4jnsgd1na2vs0mg"},{"bike_id":"6c6aee42-b35f-474d-8e8e-3e2db6e8b420","system_id":"levelo_inurba_marseille","lat":43.26176,"lon":5.37474,"is_reserved":false,"is_disabled":false,"rental_uris":{"android":"levelo://app?vid=6c6aee42-b35f-474d-8e8e-3e2db6e8b420","ios":"levelo://app?vid=6c6aee42-b35f-474d-8e8e-3e2db6e8b420"},"vehicle_type_id":"4","last_reported":1738274871,"current_range_meters":38000,"station_id":"ce4bhgp2rcd13ifvqfc0","pricing_plan_id":"cebpf4jnsgd1na2vs0mg"},{"bike_id":"d6008e4b-c4fc-4e46-a6ec-9afe2ed04cfa","system_id":"levelo_inurba_marseille","lat":43.31328,"lon":5.39701,"is_reserved":false,"is_disabled":false,"rental_uris":{"android":"levelo://app?vid=d6008e4b-c4fc-4e46-a6ec-9afe2ed04cfa","ios":"levelo://app?vid=d6008e4b-c4fc-4e46-a6ec-9afe2ed04cfa"},"vehicle_type_id":"4","last_reported":1738274871,"current_range_meters":19600,"station_id":"ce4bgvp2rcd13ifvqcu0","pricing_plan_id":"cebpf4jnsgd1na2vs0mg"},{"bike_id":"e1cfa601-5685-461f-8b5b-34ca50626e82","system_id":"levelo_inurba_marseille","lat":43.28538,"lon":5.38438,"is_reserved":false,"is_disabled":true,"rental_uris":{"android":"levelo://app?vid=e1cfa601-5685-461f-8b5b-34ca50626e82","ios":"levelo://app?vid=e1cfa601-5685-461f-8b5b-34ca50626e82"},"vehicle_type_id":"4","last_reported":1738274871,"current_range_meters":36400,"station_id":"ce4bh512rcd13ifvqe3g","pricing_plan_id":"cebpf4jnsgd1na2vs0mg"},{"bike_id":"dc573393-be08-4eee-bc29-61f0ae2cecd5","system_id":"levelo_inurba_marseille","lat":43.30891,"lon":5.39629,"is_reserved":false,"is_disabled":false,"rental_uris":{"android":"levelo://app?vid=dc573393-be08-4eee-bc29-61f0ae2cecd5","ios":"levelo://app?vid=dc573393-be08-4eee-bc29-61f0ae2cecd5"},"vehicle_type_id":"4","last_reported":1738274871,"current_range_meters":38800,"station_id":"ce4bh012rcd13ifvqcv0","pricing_plan_id":"cebpf4jnsgd1na2vs0mg"},{"bike_id":"bd8a828d-e634-4034-9cac-55889d5bbfa5","system_id":"levelo_inurba_marseille","lat":43.28156,"lon":5.42648,"is_reserved":false,"is_disabled":false,"rental_uris":{"android":"levelo://app?vid=bd8a828d-e634-4034-9cac-55889d5bbfa5","ios":"levelo://app?vid=bd8a828d-e634-4034-9cac-55889d5bbfa5"},"vehicle_type_id":"4","last_reported":1738274871,"current_range_meters":28400,"station_id":"ce4bhnh2rcd13ifvqgug","pricing_plan_id":"cebpf4jnsgd1na2vs0mg"},{"bike_id":"2cf95841-bc69-4d76-bb4f-dd1068032a77","system_id":"levelo_inurba_marseille","lat":43.29214,"lon":5.36088,"is_reserved":false,"is_disabled":false,"rental_uris":{"android":"levelo://app?vid=2cf95841-bc69-4d76-bb4f-dd1068032a77","ios":"levelo://app?vid=2cf95841-bc69-4d76-bb4f-dd1068032a77"},"vehicle_type_id":"4","last_reported":1738274871,"current_range_meters":27600,"station_id":"ce4bhbh2rcd13ifvqeqg","pricing_plan_id":"cebpf4jnsgd1na2vs0mg"},{"bike_id":"6f62346f-c4bf-4514-9be6-2d454717edd7","system_id":"levelo_inurba_marseille","lat":43.303592,"lon":5.418824,"is_reserved":false,"is_disabled":false,"rental_uris":{"android":"levelo://app?vid=6f62346f-c4bf-4514-9be6-2d454717edd7","ios":"levelo://app?vid=6f62346f-c4bf-4514-9be6-2d454717edd7"},"vehicle_type_id":"4","last_reported":1738274871,"current_range_meters":36000,"station_id":"ce4bhop2rcd13ifvqh7g","pricing_plan_id":"cebpf4jnsgd1na2vs0mg"},{"bike_id":"f9d35a32-65b2-4842-bd83-8cbe10324274","system_id":"levelo_inurba_marseille","lat":43.28651,"lon":5.35105,"is_reserved":false,"is_disabled":false,"rental_uris":{"android":"levelo://app?vid=f9d35a32-65b2-4842-bd83-8cbe10324274","ios":"levelo://app?vid=f9d35a32-65b2-4842-bd83-8cbe10324274"},"vehicle_type_id":"4","last_reported":1738274871,"current_range_meters":16400,"station_id":"ce4bhch2rcd13ifvqeug","pricing_plan_id":"cebpf4jnsgd1na2vs0mg"},{"bike_id":"57ea5f77-abf9-41ff-8ffe-e281a2630bfe","system_id":"levelo_inurba_marseille","lat":43.28085,"lon":5.39647,"is_reserved":false,"is_disabled":true,"rental_uris":{"android":"levelo://app?vid=57ea5f77-abf9-41ff-8ffe-e281a2630bfe","ios":"levelo://app?vid=57ea5f77-abf9-41ff-8ffe-e281a2630bfe"},"vehicle_type_id":"4","last_reported":1738274871,"current_range_meters":38400,"station_id":"ce4bho12rcd13ifvqh2g","pricing_plan_id":"cebpf4jnsgd1na2vs0mg"},{"bike_id":"3f4f1f91-7543-4168-85da-037ac3e3f501","system_id":"levelo_inurba_marseille","lat":43.245481,"lon":5.395231,"is_reserved":false,"is_disabled":false,"rental_uris":{"android":"levelo://app?vid=3f4f1f91-7543-4168-85da-037ac3e3f501","ios":"levelo://app?vid=3f4f1f91-7543-4168-85da-037ac3e3f501"},"vehicle_type_id":"4","last_reported":1738274871,"current_range_meters":38800,"station_id":"ce4bhlp2rcd13ifvqgjg","pricing_plan_id":"cebpf4jnsgd1na2vs0mg"},{"bike_id":"0d28a302-3349-4b07-8963-8aef31c9e7a1","system_id":"levelo_inurba_marseille","lat":43.32009,"lon":5.38192,"is_reserved":false,"is_disabled":false,"rental_uris":{"android":"levelo://app?vid=0d28a302-3349-4b07-8963-8aef31c9e7a1","ios":"levelo://app?vid=0d28a302-3349-4b07-8963-8aef31c9e7a1"},"vehicle_type_id":"4","last_reported":1738274871,"current_range_meters":38800,"station_id":"ce4bhr12rcd13ifvqhpg","pricing_plan_id":"cebpf4jnsgd1na2vs0mg"},{"bike_id":"aecdacf5-379f-42fe-baf8-e46dc8f2d8b8","system_id":"levelo_inurba_marseille","lat":43.2842,"lon":5.37502,"is_reserved":false,"is_disabled":false,"rental_uris":{"android":"levelo://app?vid=aecdacf5-379f-42fe-baf8-e46dc8f2d8b8","ios":"levelo://app?vid=aecdacf5-379f-42fe-baf8-e46dc8f2d8b8"},"vehicle_type_id":"4","last_reported":1738274871,"current_range_meters":28800,"station_id":"ce4bh412rcd13ifvqds0","pricing_plan_id":"cebpf4jnsgd1na2vs0mg"},{"bike_id":"1133f0a4-d0e7-4e5f-86ab-a2501be23ec3","system_id":"levelo_inurba_marseille","lat":43.28464,"lon":5.35884,"is_reserved":false,"is_disabled":false,"rental_uris":{"android":"levelo://app?vid=1133f0a4-d0e7-4e5f-86ab-a2501be23ec3","ios":"levelo://app?vid=1133f0a4-d0e7-4e5f-86ab-a2501be23ec3"},"vehicle_type_id":"4","last_reported":1738274871,"current_range_meters":27200,"station_id":"ce4bhah2rcd13ifvqei0","pricing_plan_id":"cebpf4jnsgd1na2vs0mg"},{"bike_id":"522dae6a-995a-4ef2-8f7a-e4a50b9cb82d","system_id":"levelo_inurba_marseille","lat":43.3031,"lon":5.40441,"is_reserved":false,"is_disabled":false,"rental_uris":{"android":"levelo://app?vid=522dae6a-995a-4ef2-8f7a-e4a50b9cb82d","ios":"levelo://app?vid=522dae6a-995a-4ef2-8f7a-e4a50b9cb82d"},"vehicle_type_id":"4","last_reported":1738274871,"current_range_meters":28800,"station_id":"ce4bh012rcd13ifvqd10","pricing_plan_id":"cebpf4jnsgd1na2vs0mg"},{"bike_id":"9e005288-51e5-4964-bcf6-f24f1234ca44","system_id":"levelo_inurba_marseille","lat":43.24381,"lon":5.37111,"is_reserved":false,"is_disabled":false,"rental_uris":{"android":"levelo://app?vid=9e005288-51e5-4964-bcf6-f24f1234ca44","ios":"levelo://app?vid=9e005288-51e5-4964-bcf6-f24f1234ca44"},"vehicle_type_id":"4","last_reported":1738274871,"current_range_meters":39200,"station_id":"ce4bhhh2rcd13ifvqfk0","pricing_plan_id":"cebpf4jnsgd1na2vs0mg"},{"bike_id":"63a12861-b2f5-4685-a67a-690d08080153","system_id":"levelo_inurba_marseille","lat":43.29946,"lon":5.36535,"is_reserved":false,"is_disabled":false,"rental_uris":{"android":"levelo://app?vid=63a12861-b2f5-4685-a67a-690d08080153","ios":"levelo://app?vid=63a12861-b2f5-4685-a67a-690d08080153"},"vehicle_type_id":"4","last_reported":1738274871,"current_range_meters":7200,"station_id":"ce4bgm92rcd13ifvqbr0","pricing_plan_id":"cebpf4jnsgd1na2vs0mg"},{"bike_id":"56d6b97f-30a2-4c2a-8be6-a12a9fc19507","system_id":"levelo_inurba_marseille","lat":43.31754,"lon":5.39029,"is_reserved":false,"is_disabled":false,"rental_uris":{"android":"levelo://app?vid=56d6b97f-30a2-4c2a-8be6-a12a9fc19507","ios":"levelo://app?vid=56d6b97f-30a2-4c2a-8be6-a12a9fc19507"},"vehicle_type_id":"4","last_reported":1738274871,"current_range_meters":16800,"station_id":"ce4bhqp2rcd13ifvqhng","pricing_plan_id":"cebpf4jnsgd1na2vs0mg"},{"bike_id":"698df6a8-a739-4784-98a4-d7e12d144f53","system_id":"levelo_inurba_marseille","lat":43.31278,"lon":5.40169,"is_reserved":false,"is_disabled":false,"rental_uris":{"android":"levelo://app?vid=698df6a8-a739-4784-98a4-d7e12d144f53","ios":"levelo://app?vid=698df6a8-a739-4784-98a4-d7e12d144f53"},"vehicle_type_id":"4","last_reported":1738274871,"current_range_meters":38400,"station_id":"ce4bh092rcd13ifvqd30","pricing_plan_id":"cebpf4jnsgd1na2vs0mg"},{"bike_id":"28ca445f-5c73-43a8-bf4c-ff0ed4a7d535","system_id":"levelo_inurba_marseille","lat":43.2856,"lon":5.39517,"is_reserved":false,"is_disabled":false,"rental_uris":{"android":"levelo://app?vid=28ca445f-5c73-43a8-bf4c-ff0ed4a7d535","ios":"levelo://app?vid=28ca445f-5c73-43a8-bf4c-ff0ed4a7d535"},"vehicle_type_id":"4","last_reported":1738274871,"current_range_meters":38000,"station_id":"ce4bh292rcd13ifvqdg0","pricing_plan_id":"cebpf4jnsgd1na2vs0mg"},{"bike_id":"d2a61873-58f7-4bc8-abeb-3ce8c1c55c8d","system_id":"levelo_inurba_marseille","lat":43.27175,"lon":5.40987,"is_reserved":false,"is_disabled":false,"rental_uris":{"android":"levelo://app?vid=d2a61873-58f7-4bc8-abeb-3ce8c1c55c8d","ios":"levelo://app?vid=d2a61873-58f7-4bc8-abeb-3ce8c1c55c8d"},"vehicle_type_id":"4","last_reported":1738274871,"current_range_meters":14800,"station_id":"ce4bhl12rcd13ifvqgf0","pricing_plan_id":"cebpf4jnsgd1na2vs0mg"},{"bike_id":"cbb6251a-7583-4acf-a6bc-87e6ff497ee3","system_id":"levelo_inurba_marseille","lat":43.31326,"lon":5.39684,"is_reserved":false,"is_disabled":false,"rental_uris":{"android":"levelo://app?vid=cbb6251a-7583-4acf-a6bc-87e6ff497ee3","ios":"levelo://app?vid=cbb6251a-7583-4acf-a6bc-87e6ff497ee3"},"vehicle_type_id":"4","last_reported":1738274871,"current_range_meters":14000,"station_id":"ce4bgvp2rcd13ifvqcu0","pricing_plan_id":"cebpf4jnsgd1na2vs0mg"},{"bike_id":"b61407a7-d93a-47a9-ae07-fdf92f9b0164","system_id":"levelo_inurba_marseille","lat":43.27621,"lon":5.36106,"is_reserved":false,"is_disabled":true,"rental_uris":{"android":"levelo://app?vid=b61407a7-d93a-47a9-ae07-fdf92f9b0164","ios":"levelo://app?vid=b61407a7-d93a-47a9-ae07-fdf92f9b0164"},"vehicle_type_id":"4","last_reported":1738274871,"current_range_meters":0,"station_id":"","pricing_plan_id":"cebpf4jnsgd1na2vs0mg"},{"bike_id":"463d2556-7f1d-4a79-b8b2-e0c1c692e866","system_id":"levelo_inurba_marseille","lat":43.2803,"lon":5.36969,"is_reserved":false,"is_disabled":false,"rental_uris":{"android":"levelo://app?vid=463d2556-7f1d-4a79-b8b2-e0c1c692e866","ios":"levelo://app?vid=463d2556-7f1d-4a79-b8b2-e0c1c692e866"},"vehicle_type_id":"4","last_reported":1738274871,"current_range_meters":22000,"station_id":"ce4bha12rcd13ifvqef0","pricing_plan_id":"cebpf4jnsgd1na2vs0mg"},{"bike_id":"6bef2781-ae86-4d27-ab5b-8461fe19be32","system_id":"levelo_inurba_marseille","lat":43.28165,"lon":5.42611,"is_reserved":false,"is_disabled":false,"rental_uris":{"android":"levelo://app?vid=6bef2781-ae86-4d27-ab5b-8461fe19be32","ios":"levelo://app?vid=6bef2781-ae86-4d27-ab5b-8461fe19be32"},"vehicle_type_id":"4","last_reported":1738274871,"current_range_meters":38800,"station_id":"ce4bhnh2rcd13ifvqgug","pricing_plan_id":"cebpf4jnsgd1na2vs0mg"},{"bike_id":"cfbb5204-c0e4-43d6-b3e4-9696e0ec11e8","system_id":"levelo_inurba_marseille","lat":43.25086,"lon":5.39519,"is_reserved":false,"is_disabled":false,"rental_uris":{"android":"levelo://app?vid=cfbb5204-c0e4-43d6-b3e4-9696e0ec11e8","ios":"levelo://app?vid=cfbb5204-c0e4-43d6-b3e4-9696e0ec11e8"},"vehicle_type_id":"4","last_reported":1738274871,"current_range_meters":17200,"station_id":"ce4bhm12rcd13ifvqgkg","pricing_plan_id":"cebpf4jnsgd1na2vs0mg"},{"bike_id":"8382186f-0d25-40e6-beca-2632cc8590f2","system_id":"levelo_inurba_marseille","lat":43.29554,"lon":5.42278,"is_reserved":false,"is_disabled":true,"rental_uris":{"android":"levelo://app?vid=8382186f-0d25-40e6-beca-2632cc8590f2","ios":"levelo://app?vid=8382186f-0d25-40e6-beca-2632cc8590f2"},"vehicle_type_id":"4","last_reported":1738274871,"current_range_meters":8000,"station_id":"ce4bhph2rcd13ifvqhdg","pricing_plan_id":"cebpf4jnsgd1na2vs0mg"},{"bike_id":"3566dcde-0119-499b-be58-173b8bcd81ed","system_id":"levelo_inurba_marseille","lat":43.27072,"lon":5.42279,"is_reserved":false,"is_disabled":false,"rental_uris":{"android":"levelo://app?vid=3566dcde-0119-499b-be58-173b8bcd81ed","ios":"levelo://app?vid=3566dcde-0119-499b-be58-173b8bcd81ed"},"vehicle_type_id":"4","last_reported":1738274871,"current_range_meters":38000,"station_id":"ce4bhk92rcd13ifvqgb0","pricing_plan_id":"cebpf4jnsgd1na2vs0mg"},{"bike_id":"3a0ed1ff-01c3-40a8-9bb8-9815766062f5","system_id":"levelo_inurba_marseille","lat":43.28235,"lon":5.36155,"is_reserved":false,"is_disabled":false,"rental_uris":{"android":"levelo://app?vid=3a0ed1ff-01c3-40a8-9bb8-9815766062f5","ios":"levelo://app?vid=3a0ed1ff-01c3-40a8-9bb8-9815766062f5"},"vehicle_type_id":"4","last_reported":1738274871,"current_range_meters":33200,"station_id":"","pricing_plan_id":"cebpf4jnsgd1na2vs0mg"},{"bike_id":"93e71a7f-ef58-48be-8666-211ae036d225","system_id":"levelo_inurba_marseille","lat":43.30438,"lon":5.38877,"is_reserved":false,"is_disabled":false,"rental_uris":{"android":"levelo://app?vid=93e71a7f-ef58-48be-8666-211ae036d225","ios":"levelo://app?vid=93e71a7f-ef58-48be-8666-211ae036d225"},"vehicle_type_id":"4","last_reported":1738274871,"current_range_meters":36800,"station_id":"ce4bgk12rcd13ifvqbi0","pricing_plan_id":"cebpf4jnsgd1na2vs0mg"},