{"last_updated":1744455999,"ttl":60,"version":"2.2","data":{"bikes":[{"bike_id":"379cd67f-3646-4fb7-8aca-d3e63e71a904","system_id":"levelo_inurba_marseille","lat":43.229292,"lon":5.353756,"is_reserved":false,"is_disabled":false,"rental_uris":{"android":"levelo://app?vid=379cd67f-3646-4fb7-8aca-d3e63e71a904","ios":"levelo://app?vid=379cd67f-3646-4fb7-8aca-d3e63e71a904"},"vehicle_type_id":"4","last_reported":1744455999,"current_range_meters":2800,"station_id":"cpo3532slgdg3j2ikp40","pricing_plan_id":"cebpf4jnsgd1na2vs0mg"},{"bike_id":"344f12a5-4944-4a4e-a2c1-63cde17818be","system_id":"levelo_inurba_marseille","lat":43.272998,"lon":5.390746,"is_reserved":false,"is_disabled":false,"rental_uris":{"android":"levelo://app?vid=344f12a5-4944-4a4e-a2c1-63cde17818be","ios":"levelo://app?vid=344f12a5-4944-4a4e-a2c1-63cde17818be"},"vehicle_type_id":"4","last_reported":1744455999,"current_range_meters":3200,"station_id":"ce4bhgp2rcd13ifvqfe0","pricing_plan_id":"cebpf4jnsgd1na2vs0mg"},{"bike_id":"7822a6f8-a1c8-4a29-a7c2-7bef9ffacc01","system_id":"levelo_inurba_marseille","lat":43.26225,"lon":5.40449,"is_reserved":false,"is_disabled":false,"rental_uris":{"android":"levelo://app?vid=7822a6f8-a1c8-4a29-a7c2-7bef9ffacc01","ios":"levelo://app?vid=7822a6f8-a1c8-4a29-a7c2-7bef9ffacc01"},"vehicle_type_id":"4","last_reported":1744455999,"current_range_meters":3200,"station_id":"ce4bhmh2rcd13ifvqgmg","pricing_plan_id":"cebpf4jnsgd1na2vs0mg"},{"bike_id":"ab1fe3c7-467b-4827-bdd4-ccbb150d8ce5","system_id":"levelo_inurba_marseille","lat":43.24168,"lon":5.36395,"is_reserved":false,"is_disabled":false,"rental_uris":{"android":"levelo://app?vid=ab1fe3c7-467b-4827-bdd4-ccbb150d8ce5","ios":"levelo://app?vid=ab1fe3c7-467b-4827-bdd4-ccbb150d8ce5"},"vehicle_type_id":"4","last_reported":1744455999,"current_range_meters":3200,"station_id":"cpo36qri1sfpv3e86is0","pricing_plan_id":"cebpf4jnsgd1na2vs0mg"},{"bike_id":"49141047-ecde-4470-bc05-332bbbc47ae8","system_id":"levelo_inurba_marseille","lat":43.30892,"lon":5.37182,"is_reserved":false,"is_disabled":false,"rental_uris":{"android":"levelo://app?vid=49141047-ecde-4470-bc05-332bbbc47ae8","ios":"levelo://app?vid=49141047-ecde-4470-bc05-332bbbc47ae8"},"vehicle_type_id":"4","last_reported":1744455999,"current_range_meters":3200,"station_id":"ce4bguh2rcd13ifvqckg","pricing_plan_id":"cebpf4jnsgd1na2vs0mg"},{"bike_id":"c54c2e88-d73e-4254-94e6-f22a7bcff242","system_id":"levelo_inurba_marseille","lat":43.21746,"lon":5.34602,"is_reserved":false,"is_disabled":false,"rental_uris":{"android":"levelo://app?vid=c54c2e88-d73e-4254-94e6-f22a7bcff242","ios":"levelo://app?vid=c54c2e88-d73e-4254-94e6-f22a7bcff242"},"vehicle_type_id":"4","last_reported":1744455999,"current_range_meters":800,"station_id":"ce4bgih2rcd13ifvqba0","pricing_plan_id":"cebpf4jnsgd1na2vs0mg"},{"bike_id":"fac7eb91-dbf9-4b92-8362-626513ea13d5","system_id":"levelo_inurba_marseille","lat":43.25494,"lon":5.37648,"is_reserved":false,"is_disabled":false,"rental_uris":{"android":"levelo://app?vid=fac7eb91-dbf9-4b92-8362-626513ea13d5","ios":"levelo://app?vid=fac7eb91-dbf9-4b92-8362-626513ea13d5"},"vehicle_type_id":"4","last_reported":1744455999,"current_range_meters":3200,"station_id":"ce4bhh12rcd13ifvqff0","pricing_plan_id":"cebpf4jnsgd1na2vs0mg"},{"bike_id":"b640a96e-4e63-44d3-b7cf-7b0dcbe860ef","system_id":"levelo_inurba_marseille","lat":43.28935,"lon":5.36633,"is_reserved":false,"is_disabled":false,"rental_uris":{"android":"levelo://app?vid=b640a96e-4e63-44d3-b7cf-7b0dcbe860ef","ios":"levelo://app?vid=b640a96e-4e63-44d3-b7cf-7b0dcbe860ef"},"vehicle_type_id":"4","last_reported":1744455999,"current_range_meters":3200,"station_id":"ce4bhap2rcd13ifvqek0","pricing_plan_id":"cebpf4jnsgd1na2vs0mg"},{"bike_id":"d129cef0-d2c4-404a-95ce-3f11b45fb3ad","system_id":"levelo_inurba_marseille","lat":43.25581,"lon":5.38243,"is_reserved":false,"is_disabled":false,"rental_uris":{"android":"levelo://app?vid=d129cef0-d2c4-404a-95ce-3f11b45fb3ad","ios":"levelo://app?vid=d129cef0-d2c4-404a-95ce-3f11b45fb3ad"},"vehicle_type_id":"4","last_reported":1744455999,"current_range_meters":3600,"station_id":"ce4bhih2rcd13ifvqfs0","pricing_plan_id":"cebpf4jnsgd1na2vs0mg"},{"bike_id":"d0b18bd4-bc95-4209-9ec1-962389636723","system_id":"levelo_inurba_marseille","lat":43.25577,"lon":5.38243,"is_reserved":false,"is_disabled":false,"rental_uris":{"android":"levelo://app?vid=d0b18bd4-bc95-4209-9ec1-962389636723","ios":"levelo://app?vid=d0b18bd4-bc95-4209-9ec1-962389636723"},"vehicle_type_id":"4","last_reported":1744455999,"current_range_meters":3600,"station_id":"ce4bhih2rcd13ifvqfs0","pricing_plan_id":"cebpf4jnsgd1na2vs0mg"},{"bike_id":"c047401e-911f-47c5-88c3-12ac03cbf1ed","system_id":"levelo_inurba_marseille","lat":43.21191,"lon":5.35074,"is_reserved":false,"is_disabled":false,"rental_uris":{"android":"levelo://app?vid=c047401e-911f-47c5-88c3-12ac03cbf1ed","ios":"levelo://app?vid=c047401e-911f-47c5-88c3-12ac03cbf1ed"},"vehicle_type_id":"4","last_reported":1744455999,"current_range_meters":3600,"station_id":"ce4bgh92rcd13ifvqb40","pricing_plan_id":"cebpf4jnsgd1na2vs0mg"},{"bike_id":"21cfb6aa-a859-4b73-8cd2-55269207695d","system_id":"levelo_inurba_marseille","lat":43.294464,"lon":5.397561,"is_reserved":false,"is_disabled":false,"rental_uris":{"android":"levelo://app?vid=21cfb6aa-a859-4b73-8cd2-55269207695d","ios":"levelo://app?vid=21cfb6aa-a859-4b73-8cd2-55269207695d"},"vehicle_type_id":"4","last_reported":1744455999,"current_range_meters":4000,"station_id":"ce4bh3h2rcd13ifvqdo0","pricing_plan_id":"cebpf4jnsgd1na2vs0mg"},{"bike_id":"62c1f836-7b45-44f7-9721-a260943a8081","system_id":"levelo_inurba_marseille","lat":43.274991,"lon":5.424668,"is_reserved":false,"is_disabled":false,"rental_uris":{"android":"levelo://app?vid=62c1f836-7b45-44f7-9721-a260943a8081","ios":"levelo://app?vid=62c1f836-7b45-44f7-9721-a260943a8081"},"vehicle_type_id":"4","last_reported":1744455999,"current_range_meters":4000,"station_id":"ce4bhn92rcd13ifvqgrg","pricing_plan_id":"cebpf4jnsgd1na2vs0mg"},{"bike_id":"9b4e88ea-ec67-4293-872c-4c7f024f7e15","system_id":"levelo_inurba_marseille","lat":43.28717,"lon":5.37934,"is_reserved":false,"is_disabled":false,"rental_uris":{"android":"levelo://app?vid=9b4e88ea-ec67-4293-872c-4c7f024f7e15","ios":"levelo://app?vid=9b4e88ea-ec67-4293-872c-4c7f024f7e15"},"vehicle_type_id":"4","last_reported":1744455999,"current_range_meters":4000,"station_id":"ce4bh9p2rcd13ifvqec0","pricing_plan_id":"cebpf4jnsgd1na2vs0mg"},{"bike_id":"984bb2aa-d82a-4281-90f1-1529bbc61000","system_id":"levelo_inurba_marseille","lat":43.2993,"lon":5.39265,"is_reserved":false,"is_disabled":false,"rental_uris":{"android":"levelo://app?vid=984bb2aa-d82a-4281-90f1-1529bbc61000","ios":"levelo://app?vid=984bb2aa-d82a-4281-90f1-1529bbc61000"},"vehicle_type_id":"4","last_reported":1744455999,"current_range_meters":4400,"station_id":"","pricing_plan_id":"cebpf4jnsgd1na2vs0mg"},{"bike_id":"457be3cf-e1e1-4d11-8d7c-377dc0cb03e9","system_id":"levelo_inurba_marseille","lat":43.30871,"lon":5.36822,"is_reserved":false,"is_disabled":false,"rental_uris":{"android":"levelo://app?vid=457be3cf-e1e1-4d11-8d7c-377dc0cb03e9","ios":"levelo://app?vid=457be3cf-e1e1-4d11-8d7c-377dc0cb03e9"},"vehicle_type_id":"4","last_reported":1744455999,"current_range_meters":4400,"station_id":"ce4bgn92rcd13ifvqbvg","pricing_plan_id":"cebpf4jnsgd1na2vs0mg"},{"bike_id":"5fdd3298-d376-47aa-b5b3-d838ecbf8db4","system_id":"levelo_inurba_marseille","lat":43.279922,"lon":5.400339,"is_reserved":false,"is_disabled":false,"rental_uris":{"android":"levelo://app?vid=5fdd3298-d376-47aa-b5b3-d838ecbf8db4","ios":"levelo://app?vid=5fdd3298-d376-47aa-b5b3-d838ecbf8db4"},"vehicle_type_id":"4","last_reported":1744455999,"current_range_meters":4800,"station_id":"ce4bho92rcd13ifvqh4g","pricing_plan_id":"cebpf4jnsgd1na2vs0mg"},{"bike_id":"61cda5b3-f853-41c2-beed-230d2ed6290b","system_id":"levelo_inurba_marseille","lat":43.24804,"lon":5.37459,"is_reserved":false,"is_disabled":false,"rental_uris":{"android":"levelo://app?vid=61cda5b3-f853-41c2-beed-230d2ed6290b","ios":"levelo://app?vid=61cda5b3-f853-41c2-beed-230d2ed6290b"},"vehicle_type_id":"4","last_reported":1744455999,"current_range_meters":4800,"station_id":"ce4bhgh2rcd13ifvqfb0","pricing_plan_id":"cebpf4jnsgd1na2vs0mg"},{"bike_id":"a9f344a9-b5c4-4c6f-adc4-6177f6c8159a","system_id":"levelo_inurba_marseille","lat":43.32825,"lon":5.3975,"is_reserved":false,"is_disabled":false,"rental_uris":{"android":"levelo://app?vid=a9f344a9-b5c4-4c6f-adc4-6177f6c8159a","ios":"levelo://app?vid=a9f344a9-b5c4-4c6f-adc4-6177f6c8159a"},"vehicle_type_id":"4","last_reported":1744455999,"current_range_meters":4800,"station_id":"","pricing_plan_id":"cebpf4jnsgd1na2vs0mg"},{"bike_id":"eab6cbfa-cb8e-47d7-b0d6-226ab7facec7","system_id":"levelo_inurba_marseille","lat":43.31712,"lon":5.42399,"is_reserved":false,"is_disabled":true,"rental_uris":{"android":"levelo://app?vid=eab6cbfa-cb8e-47d7-b0d6-226ab7facec7","ios":"levelo://app?vid=eab6cbfa-cb8e-47d7-b0d6-226ab7facec7"},"vehicle_type_id":"4","last_reported":1744455999,"current_range_meters":4800,"station_id":"ce4bhp92rcd13ifvqhbg","pricing_plan_id":"cebpf4jnsgd1na2vs0mg"},{"bike_id":"70cf22d1-c379-420f-9030-0454631336a0","system_id":"levelo_inurba_marseille","lat":43.30542,"lon":5.3671,"is_reserved":false,"is_disabled":false,"rental_uris":{"android":"levelo://app?vid=70cf22d1-c379-420f-9030-0454631336a0","ios":"levelo://app?vid=70cf22d1-c379-420f-9030-0454631336a0"},"vehicle_type_id":"4","last_reported":1744455999,"current_range_meters":4800,"station_id":"ce4bgrp2rcd13ifvqc9g","pricing_plan_id":"cebpf4jnsgd1na2vs0mg"},{"bike_id":"4912475a-9676-42bf-a72e-c6e221a0c697","system_id":"levelo_inurba_marseille","lat":43.27377,"lon":5.36257,"is_reserved":false,"is_disabled":false,"rental_uris":{"android":"levelo://app?vid=4912475a-9676-42bf-a72e-c6e221a0c697","ios":"levelo://app?vid=4912475a-9676-42bf-a72e-c6e221a0c697"},"vehicle_type_id":"4","last_reported":1744455999,"current_range_meters":5600,"station_id":"ce4bhbh2rcd13ifvqeo0","pricing_plan_id":"cebpf4jnsgd1na2vs0mg"},{"bike_id":"2834c428-5580-44bd-95d4-c5dbb52093cf","system_id":"levelo_inurba_marseille","lat":43.32339,"lon":5.40625,"is_reserved":false,"is_disabled":false,"rental_uris":{"android":"levelo://app?vid=2834c428-5580-44bd-95d4-c5dbb52093cf","ios":"levelo://app?vid=2834c428-5580-44bd-95d4-c5dbb52093cf"},"vehicle_type_id":"4","last_reported":1744455999,"current_range_meters":5600,"station_id":"ce4bhq92rcd13ifvqhjg","pricing_plan_id":"cebpf4jnsgd1na2vs0mg"},{"bike_id":"927626f0-1990-4706-aa4d-35055d22281a","system_id":"levelo_inurba_marseille","lat":43.30822,"lon":5.37232,"is_reserved":false,"is_disabled":false,"rental_uris":{"android":"levelo://app?vid=927626f0-1990-4706-aa4d-35055d22281a","ios":"levelo://app?vid=927626f0-1990-4706-aa4d-35055d22281a"},"vehicle_type_id":"4","last_reported":1744455999,"current_range_meters":6000,"station_id":"","pricing_plan_id":"cebpf4jnsgd1na2vs0mg"},{"bike_id":"45de2648-160d-403c-bd13-7e31b574c411","system_id":"levelo_inurba_marseille","lat":43.3025,"lon":5.40072,"is_reserved":false,"is_disabled":false,"rental_uris":{"android":"levelo://app?vid=45de2648-160d-403c-bd13-7e31b574c411","ios":"levelo://app?vid=45de2648-160d-403c-bd13-7e31b574c411"},"vehicle_type_id":"4","last_reported":1744455999,"current_range_meters":6000,"station_id":"ce4bgvh2rcd13ifvqcs0","pricing_plan_id":"cebpf4jnsgd1na2vs0mg"},{"bike_id":"926fb0a7-820c-4f62-bd23-584e294815aa","system_id":"levelo_inurba_marseille","lat":43.2417,"lon":5.39719,"is_reserved":false,"is_disabled":false,"rental_uris":{"android":"levelo://app?vid=926fb0a7-820c-4f62-bd23-584e294815aa","ios":"levelo://app?vid=926fb0a7-820c-4f62-bd23-584e294815aa"},"vehicle_type_id":"4","last_reported":1744455999,"current_range_meters":6000,"station_id":"ce4bhn12rcd13ifvqgpg","pricing_plan_id":"cebpf4jnsgd1na2vs0mg"},{"bike_id":"70b79363-26ad-44f4-ae07-e85ad4456aba","system_id":"levelo_inurba_marseille","lat":43.27611,"lon":5.36108,"is_reserved":false,"is_disabled":false,"rental_uris":{"android":"levelo://app?vid=70b79363-26ad-44f4-ae07-e85ad4456aba","ios":"levelo://app?vid=70b79363-26ad-44f4-ae07-e85ad4456aba"},"vehicle_type_id":"4","last_reported":1744455999,"current_range_meters":6400,"station_id":"ce4bgj92rcd13ifvqbe0","pricing_plan_id":"cebpf4jnsgd1na2vs0mg"},{"bike_id":"820eae00-4001-4b93-98cd-bfbd5fc6ebfe","system_id":"levelo_inurba_marseille","lat":43.2681,"lon":5.4026,"is_reserved":false,"is_disabled":false,"rental_uris":{"android":"levelo://app?vid=820eae00-4001-4b93-98cd-bfbd5fc6ebfe","ios":"levelo://app?vid=820eae00-4001-4b93-98cd-bfbd5fc6ebfe"},"vehicle_type_id":"4","last_reported":1744455999,"current_range_meters":6400,"station_id":"ce501612rcd8frsf0b60","pricing_plan_id":"cebpf4jnsgd1na2vs0mg"},{"bike_id":"83e17466-a06e-447e-a3d1-a22195d4cbdd","system_id":"levelo_inurba_marseille","lat":43.316528,"lon":5.404273,"is_reserved":false,"is_disabled":false,"rental_uris":{"android":"levelo://app?vid=83e17466-a06e-447e-a3d1-a22195d4cbdd","ios":"levelo://app?vid=83e17466-a06e-447e-a3d1-a22195d4cbdd"},"vehicle_type_id":"4","last_reported":1744455999,"current_range_meters":6800,"station_id":"ce4bh312rcd13ifvqdk0","pricing_plan_id":"cebpf4jnsgd1na2vs0mg"},{"bike_id":"9dc081d5-eb17-4047-83bf-e7453dd4c73a","system_id":"levelo_inurba_marseille","lat":43.29579,"lon":5.37506,"is_reserved":false,"is_disabled":false,"rental_uris":{"android":"levelo://app?vid=9dc081d5-eb17-4047-83bf-e7453dd4c73a","ios":"levelo://app?vid=9dc081d5-eb17-4047-83bf-e7453dd4c73a"},"vehicle_type_id":"4","last_reported":1744455999,"current_range_meters":6800,"station_id":"ce4bgh92rcd13ifvqb50","pricing_plan_id":"cebpf4jnsgd1na2vs0mg"},{"bike_id":"8ee58055-72b1-4d18-93a4-2e01bf83fc60","system_id":"levelo_inurba_marseille","lat":43.26223,"lon":5.3743,"is_reserved":false,"is_disabled":false,"rental_uris":{"android":"levelo://app?vid=8ee58055-72b1-4d18-93a4-2e01bf83fc60","ios":"levelo://app?vid=8ee58055-72b1-4d18-93a4-2e01bf83fc60"},"vehicle_type_id":"4","last_reported":1744455999,"current_range_meters":7200,"station_id":"ce4bhgp2rcd13ifvqfc0","pricing_plan_id":"cebpf4jnsgd1na2vs0mg"},{"bike_id":"8507162c-9cf4-443c-8bea-b2352d702790","system_id":"levelo_inurba_marseille","lat":43.23178,"lon":5.3999,"is_reserved":false,"is_disabled":false,"rental_uris":{"android":"levelo://app?vid=8507162c-9cf4-443c-8bea-b2352d702790","ios":"levelo://app?vid=8507162c-9cf4-443c-8bea-b2352d702790"},"vehicle_type_id":"4","last_reported":1744455999,"current_range_meters":7200,"station_id":"ce4bhn12rcd13ifvqgqg","pricing_plan_id":"cebpf4jnsgd1na2vs0mg"},{"bike_id":"7bd9729e-0f42-40fa-a285-562b5b6c898b","system_id":"levelo_inurba_marseille","lat":43.21191,"lon":5.35071,"is_reserved":false,"is_disabled":false,"rental_uris":{"android":"levelo://app?vid=7bd9729e-0f42-40fa-a285-562b5b6c898b","ios":"levelo://app?vid=7bd9729e-0f42-40fa-a285-562b5b6c898b"},"vehicle_type_id":"4","last_reported":1744455999,"current_range_meters":7200,"station_id":"st_cvj6sg6p6f1abm77japg","pricing_plan_id":"cebpf4jnsgd1na2vs0mg"},{"bike_id":"8b4c8d12-5212-410c-bdd4-63122234f668","system_id":"levelo_inurba_marseille","lat":43.22944,"lon":5.3536,"is_reserved":false,"is_disabled":false,"rental_uris":{"android":"levelo://app?vid=8b4c8d12-5212-410c-bdd4-63122234f668","ios":"levelo://app?vid=8b4c8d12-5212-410c-bdd4-63122234f668"},"vehicle_type_id":"4","last_reported":1744455999,"current_range_meters":7200,"station_id":"cpo3532slgdg3j2ikp40","pricing_plan_id":"cebpf4jnsgd1na2vs0mg"},{"bike_id":"6d1f80b1-80e0-4012-99d1-3f8172cadb63","system_id":"levelo_inurba_marseille","lat":43.24176,"lon":5.36392,"is_reserved":false,"is_disabled":false,"rental_uris":{"android":"levelo://app?vid=6d1f80b1-80e0-4012-99d1-3f8172cadb63","ios":"levelo://app?vid=6d1f80b1-80e0-4012-99d1-3f8172cadb63"},"vehicle_type_id":"4","last_reported":1744455999,"current_range_meters":7200,"station_id":"cpo36qri1sfpv3e86is0","pricing_plan_id":"cebpf4jnsgd1na2vs0mg"},{"bike_id":"ea628b22-b6a7-44f1-a072-501247a5d1a1","system_id":"levelo_inurba_marseille","lat":43.29895,"lon":5.4366,"is_reserved":false,"is_disabled":false,"rental_uris":{"android":"levelo://app?vid=ea628b22-b6a7-44f1-a072-501247a5d1a1","ios":"levelo://app?vid=ea628b22-b6a7-44f1-a072-501247a5d1a1"},"vehicle_type_id":"4","last_reported":1744455999,"current_range_meters":7200,"station_id":"ce4bhpp2rcd13ifvqhfg","pricing_plan_id":"cebpf4jnsgd1na2vs0mg"},{"bike_id":"a1fdabb2-e2a4-407b-b069-686fcd2969a3","system_id":"levelo_inurba_marseille","lat":43.29608,"lon":5.38115,"is_reserved":false,"is_disabled":false,"rental_uris":{"android":"levelo://app?vid=a1fdabb2-e2a4-407b-b069-686fcd2969a3","ios":"levelo://app?vid=a1fdabb2-e2a4-407b-b069-686fcd2969a3"},"vehicle_type_id":"4","last_reported":1744455999,"current_range_meters":7200,"station_id":"ce4bgl12rcd13ifvqbo0","pricing_plan_id":"cebpf4jnsgd1na2vs0mg"},{"bike_id":"c2ec6125-80b1-4547-b77e-4ac2d647ece9","system_id":"levelo_inurba_marseille","lat":43.31702,"lon":5.40477,"is_reserved":false,"is_disabled":false,"rental_uris":{"android":"levelo://app?vid=c2ec6125-80b1-4547-b77e-4ac2d647ece9","ios":"levelo://app?vid=c2ec6125-80b1-4547-b77e-4ac2d647ece9"},"vehicle_type_id":"4","last_reported":1744455999,"current_range_meters":8000,"station_id":"ce4bh012rcd13ifvqd00","pricing_plan_id":"cebpf4jnsgd1na2vs0mg"},{"bike_id":"20eb53d5-dc7b-4fbe-a6da-7e0a348438c0","system_id":"levelo_inurba_marseille","lat":43.27914,"lon":5.39586,"is_reserved":false,"is_disabled":true,"rental_uris":{"android":"levelo://app?vid=20eb53d5-dc7b-4fbe-a6da-7e0a348438c0","ios":"levelo://app?vid=20eb53d5-dc7b-4fbe-a6da-7e0a348438c0"},"vehicle_type_id":"4","last_reported":1744455999,"current_range_meters":8000,"station_id":"ce4bhf92rcd13ifvqf40","pricing_plan_id":"cebpf4jnsgd1na2vs0mg"},{"bike_id":"94455896-0f19-4fae-bd72-9879f01fcd6e","system_id":"levelo_inurba_marseille","lat":43.29546,"lon":5.42289,"is_reserved":false,"is_disabled":true,"rental_uris":{"android":"levelo://app?vid=94455896-0f19-4fae-bd72-9879f01fcd6e","ios":"levelo://app?vid=94455896-0f19-4fae-bd72-9879f01fcd6e"},"vehicle_type_id":"4","last_reported":1744455999,"current_range_meters":8000,"station_id":"ce4bhph2rcd13ifvqhdg","pricing_plan_id":"cebpf4jnsgd1na2vs0mg"},{"bike_id":"1ac19b6a-4c6f-4d4d-901c-dd1716ba1b48","system_id":"levelo_inurba_marseille","lat":43.30976,"lon":5.40469,"is_reserved":false,"is_disabled":false,"rental_uris":{"android":"levelo://app?vid=1ac19b6a-4c6f-4d4d-901c-dd1716ba1b48","ios":"levelo://app?vid=1ac19b6a-4c6f-4d4d-901c-dd1716ba1b48"},"vehicle_type_id":"4","last_reported":1744455999,"current_range_meters":8400,"station_id":"","pricing_plan_id":"cebpf4jnsgd1na2vs0mg"},{"bike_id":"22a586e8-d9ef-42bb-a27f-67fd15cc9774","system_id":"levelo_inurba_marseille","lat":43.2621,"lon":5.37442,"is_reserved":false,"is_disabled":false,"rental_uris":{"android":"levelo://app?vid=22a586e8-d9ef-42bb-a27f-67fd15cc9774","ios":"levelo://app?vid=22a586e8-d9ef-42bb-a27f-67fd15cc9774"},"vehicle_type_id":"4","last_reported":1744455999,"current_range_meters":8400,"station_id":"ce4bhgp2rcd13ifvqfc0","pricing_plan_id":"cebpf4jnsgd1na2vs0mg"},{"bike_id":"33c400d9-b98a-4eb0-8c3a-d164c050faf8","system_id":"levelo_inurba_marseille","lat":43.27057,"lon":5.40256,"is_reserved":false,"is_disabled":false,"rental_uris":{"android":"levelo://app?vid=33c400d9-b98a-4eb0-8c3a-d164c050faf8","ios":"levelo://app?vid=33c400d9-b98a-4eb0-8c3a-d164c050faf8"},"vehicle_type_id":"4","last_reported":1744455999,"current_range_meters":8400,"station_id":"ce4bhk92rcd13ifvqgc0","pricing_plan_id":"cebpf4jnsgd1na2vs0mg"},{"bike_id":"cc83a7aa-57a1-4769-9137-8531613b4691","system_id":"levelo_inurba_marseille","lat":43.31248,"lon":5.37282,"is_reserved":false,"is_disabled":false,"rental_uris":{"android":"levelo://app?vid=cc83a7aa-57a1-4769-9137-8531613b4691","ios":"levelo://app?vid=cc83a7aa-57a1-4769-9137-8531613b4691"},"vehicle_type_id":"4","last_reported":1744455999,"current_range_meters":8400,"station_id":"","pricing_plan_id":"cebpf4jnsgd1na2vs0mg"},{"bike_id":"3ac73e63-1619-4c1b-a7d0-7311424e94ef","system_id":"levelo_inurba_marseille","lat":43.29012,"lon":5.37591,"is_reserved":false,"is_disabled":false,"rental_uris":{"android":"levelo://app?vid=3ac73e63-1619-4c1b-a7d0-7311424e94ef","ios":"levelo://app?vid=3ac73e63-1619-4c1b-a7d0-7311424e94ef"},"vehicle_type_id":"4","last_reported":1744455999,"current_range_meters":8400,"station_id":"ce4bh692rcd13ifvqe90","pricing_plan_id":"cebpf4jnsgd1na2vs0mg"},{"bike_id":"6d00402f-bbc6-4e74-9239-9c802b5b0ea9","system_id":"levelo_inurba_marseille","lat":43.2694,"lon":5.40248,"is_reserved":false,"is_disabled":false,"rental_uris":{"android":"levelo://app?vid=6d00402f-bbc6-4e74-9239-9c802b5b0ea9","ios":"levelo://app?vid=6d00402f-bbc6-4e74-9239-9c802b5b0ea9"},"vehicle_type_id":"4","last_reported":1744455999,"current_range_meters":8400,"station_id":"cjm6bp8fraef2m0cb0m0","pricing_plan_id":"cebpf4jnsgd1na2vs0mg"},{"bike_id":"2bea5064-b7ae-4287-9a93-7478b82ee455","system_id":"levelo_inurba_marseille","lat":43.30533,"lon":5.36561,"is_reserved":false,"is_disabled":false,"rental_uris":{"android":"levelo://app?vid=2bea5064-b7ae-4287-9a93-7478b82ee455","ios":"levelo://app?vid=2bea5064-b7ae-4287-9a93-7478b82ee455"},"vehicle_type_id":"4","last_reported":1744455999,"current_range_meters":8400,"station_id":"ce4bgs12rcd13ifvqcag","pricing_plan_id":"cebpf4jnsgd1na2vs0mg"},{"bike_id":"faf32c94-edb9-4d69-abd2-ba36c21f836f","system_id":"levelo_inurba_marseille","lat":43.21196,"lon":5.35069,"is_reserved":false,"is_disabled":false,"rental_uris":{"android":"levelo://app?vid=faf32c94-edb9-4d69-abd2-ba36c21f836f","ios":"levelo://app?vid=faf32c94-edb9-4d69-abd2-ba36c21f836f"},"vehicle_type_id":"4","last_reported":1744455999,"current_range_meters":8400,"station_id":"st_cvj6sg6p6f1abm77japg","pricing_plan_id":"cebpf4jnsgd1na2vs0mg"},{"bike_id":"3f08cc69-711e-4264-b923-68891203ffa4","system_id":"levelo_inurba_marseille","lat":43.32285,"lon":5.38243,"is_reserved":false,"is_disabled":false,"rental_uris":{"android":"levelo://app?vid=3f08cc69-711e-4264-b923-68891203ffa4","ios":"levelo://app?vid=3f08cc69-711e-4264-b923-68891203ffa4"},"vehicle_type_id":"4","last_reported":1744455999,"current_range_meters":8400,"station_id":"ce4bhr12rcd13ifvqhqg","pricing_plan_id":"cebpf4jnsgd1na2vs0mg"},{"bike_id":"aacaacc5-4d2c-4295-9357-7ba333864398","system_id":"levelo_inurba_marseille","lat":43.21193,"lon":5.35075,"is_reserved":false,"is_disabled":true,"rental_uris":{"android":"levelo://app?vid=aacaacc5-4d2c-4295-9357-7ba333864398","ios":"levelo://app?vid=aacaacc5-4d2c-4295-9357-7ba333864398"},"vehicle_type_id":"4","last_reported":1744455999,"current_range_meters":8400,"station_id":"","pricing_plan_id":"cebpf4jnsgd1na2vs0mg"},{"bike_id":"e0487cbb-6aa7-4fe8-9aa7-7b771d7aec2a","system_id":"levelo_inurba_marseille","lat":43.26252,"lon":5.40433,"is_reserved":false,"is_disabled":false,"rental_uris":{"android":"levelo://app?vid=e0487cbb-6aa7-4fe8-9aa7-7b771d7aec2a","ios":"levelo://app?vid=e0487cbb-6aa7-4fe8-9aa7-7b771d7aec2a"},"vehicle_type_id":"4","last_reported":1744455999,"current_range_meters":8400,"station_id":"ce4bhmh2rcd13ifvqgmg","pricing_plan_id":"cebpf4jnsgd1na2vs0mg"},{"bike_id":"d6c423ad-693a-42e8-bcad-89087df9e68f","system_id":"levelo_inurba_marseille","lat":43.24178,"lon":5.397281,"is_reserved":false,"is_disabled":false,"rental_uris":{"android":"levelo://app?vid=d6c423ad-693a-42e8-bcad-89087df9e68f","ios":"levelo://app?vid=d6c423ad-693a-42e8-bcad-89087df9e68f"},"vehicle_type_id":"4","last_reported":1744455999,"current_range_meters":8800,"station_id":"ce4bhn12rcd13ifvqgpg","pricing_plan_id":"cebpf4jnsgd1na2vs0mg"},{"bike_id":"173bc9a4-de98-43a8-b692-4fbb90439da0","system_id":"levelo_inurba_marseille","lat":43.32004,"lon":5.38149,"is_reserved":false,"is_disabled":false,"rental_uris":{"android":"levelo://app?vid=173bc9a4-de98-43a8-b692-4fbb90439da0","ios":"levelo://app?vid=173bc9a4-de98-43a8-b692-4fbb90439da0"},"vehicle_type_id":"4","last_reported":1744455999,"current_range_meters":8800,"station_id":"ce4bhr12rcd13ifvqhpg","pricing_plan_id":"cebpf4jnsgd1na2vs0mg"},{"bike_id":"b105010c-b749-48b7-8743-e65c5024e2fe","system_id":"levelo_inurba_marseille","lat":43.2513,"lon":5.40296,"is_reserved":false,"is_disabled":false,"rental_uris":{"android":"levelo://app?vid=b105010c-b749-48b7-8743-e65c5024e2fe","ios":"levelo://app?vid=b105010c-b749-48b7-8743-e65c5024e2fe"},"vehicle_type_id":"4","last_reported":1744455999,"current_range_meters":8800,"station_id":"ce4bhlh2rcd13ifvqgig","pricing_plan_id":"cebpf4jnsgd1na2vs0mg"},{"bike_id":"72adaa87-94dc-4774-aca0-5147bc57bd16","system_id":"levelo_inurba_marseille","lat":43.26017,"lon":5.41744,"is_reserved":false,"is_disabled":false,"rental_uris":{"android":"levelo://app?vid=72adaa87-94dc-4774-aca0-5147bc57bd16","ios":"levelo://app?vid=72adaa87-94dc-4774-aca0-5147bc57bd16"},"vehicle_type_id":"4","last_reported":1744455999,"current_range_meters":8800,"station_id":"","pricing_plan_id":"cebpf4jnsgd1na2vs0mg"},{"bike_id":"80f5992c-b183-460d-8d1b-4c42a2b4d72f","system_id":"levelo_inurba_marseille","lat":43.24202,"lon":5.397,"is_reserved":false,"is_disabled":false,"rental_uris":{"android":"levelo://app?vid=80f5992c-b183-460d-8d1b-4c42a2b4d72f","ios":"levelo://app?vid=80f5992c-b183-460d-8d1b-4c42a2b4d72f"},"vehicle_type_id":"4","last_reported":1744455999,"current_range_meters":9200,"station_id":"ce4bhn12rcd13ifvqgpg","pricing_plan_id":"cebpf4jnsgd1na2vs0mg"},{"bike_id":"49815a2a-260e-4cfc-8823-51f23577d634","system_id":"levelo_inurba_marseille","lat":43.21192,"lon":5.35062,"is_reserved":false,"is_disabled":false,"rental_uris":{"android":"levelo://app?vid=49815a2a-260e-4cfc-8823-51f23577d634","ios":"levelo://app?vid=49815a2a-260e-4cfc-8823-51f23577d634"},"vehicle_type_id":"4","last_reported":1744455999,"current_range_meters":9200,"station_id":"st_cvj6sg6p6f1abm77japg","pricing_plan_id":"cebpf4jnsgd1na2vs0mg"},{"bike_id":"496e5790-3822-4dcf-bb81-abc728855c49","system_id":"levelo_inurba_marseille","lat":43.28423,"lon":5.34996,"is_reserved":false,"is_disabled":false,"rental_uris":{"android":"levelo://app?vid=496e5790-3822-4dcf-bb81-abc728855c49","ios":"levelo://app?vid=496e5790-3822-4dcf-bb81-abc728855c49"},"vehicle_type_id":"4","last_reported":1744455999,"current_range_meters":9200,"station_id":"ce4bhbh2rcd13ifvqepg","pricing_plan_id":"cebpf4jnsgd1na2vs0mg"},{"bike_id":"55475846-4826-4e39-aef5-c665d76d0159","system_id":"levelo_inurba_marseille","lat":43.32112,"lon":5.36788,"is_reserved":false,"is_disabled":false,"rental_uris":{"android":"levelo://app?vid=55475846-4826-4e39-aef5-c665d76d0159","ios":"levelo://app?vid=55475846-4826-4e39-aef5-c665d76d0159"},"vehicle_type_id":"4","last_reported":1744455999,"current_range_meters":9200,"station_id":"ce4bhrh2rcd13ifvqhug","pricing_plan_id":"cebpf4jnsgd1na2vs0mg"},{"bike_id":"b5c7cbca-54f5-43ad-8271-9e6bbf4f84ce","system_id":"levelo_inurba_marseille","lat":43.29617,"lon":5.37158,"is_reserved":false,"is_disabled":false,"rental_uris":{"android":"levelo://app?vid=b5c7cbca-54f5-43ad-8271-9e6bbf4f84ce","ios":"levelo://app?vid=b5c7cbca-54f5-43ad-8271-9e6bbf4f84ce"},"vehicle_type_id":"4","last_reported":1744455999,"current_range_meters":9200,"station_id":"ce4bgnh2rcd13ifvqc0g","pricing_plan_id":"cebpf4jnsgd1na2vs0mg"},{"bike_id":"8609ec5b-db31-4682-89f6-95794d251c5e","system_id":"levelo_inurba_marseille","lat":43.23154,"lon":5.43711,"is_reserved":false,"is_disabled":false,"rental_uris":{"android":"levelo://app?vid=8609ec5b-db31-4682-89f6-95794d251c5e","ios":"levelo://app?vid=8609ec5b-db31-4682-89f6-95794d251c5e"},"vehicle_type_id":"4","last_reported":1744455999,"current_range_meters":9200,"station_id":"ce4bhmp2rcd13ifvqgog","pricing_plan_id":"cebpf4jnsgd1na2vs0mg"},{"bike_id":"3283c866-bf35-497d-a41f-1fcee565614c","system_id":"levelo_inurba_marseille","lat":43.28853,"lon":5.35848,"is_reserved":false,"is_disabled":false,"rental_uris":{"android":"levelo://app?vid=3283c866-bf35-497d-a41f-1fcee565614c","ios":"levelo://app?vid=3283c866-bf35-497d-a41f-1fcee565614c"},"vehicle_type_id":"4","last_reported":1744455999,"current_range_meters":9600,"station_id":"ce4bhb12rcd13ifvqem0","pricing_plan_id":"cebpf4jnsgd1na2vs0mg"},{"bike_id":"b37040f5-3273-4402-b4cb-9936add1dc05","system_id":"levelo_inurba_marseille","lat":43.25496,"lon":5.3765,"is_reserved":false,"is_disabled":false,"rental_uris":{"android":"levelo://app?vid=b37040f5-3273-4402-b4cb-9936add1dc05","ios":"levelo://app?vid=b37040f5-3273-4402-b4cb-9936add1dc05"},"vehicle_type_id":"4","last_reported":1744455999,"current_range_meters":9600,"station_id":"ce4bhh12rcd13ifvqff0","pricing_plan_id":"cebpf4jnsgd1na2vs0mg"},{"bike_id":"fca52db4-546e-4e07-95b8-da567258769e","system_id":"levelo_inurba_marseille","lat":43.30988,"lon":5.40068,"is_reserved":false,"is_disabled":false,"rental_uris":{"android":"levelo://app?vid=fca52db4-546e-4e07-95b8-da567258769e","ios":"levelo://app?vid=fca52db4-546e-4e07-95b8-da567258769e"},"vehicle_type_id":"4","last_reported":1744455999,"current_range_meters":9200,"station_id":"ce4bgvp2rcd13ifvqct0","pricing_plan_id":"cebpf4jnsgd1na2vs0mg"},{"bike_id":"e237a205-657a-4cdf-af13-efde7ac50080","system_id":"levelo_inurba_marseille","lat":43.30421,"lon":5.38897,"is_reserved":false,"is_disabled":false,"rental_uris":{"android":"levelo://app?vid=e237a205-657a-4cdf-af13-efde7ac50080","ios":"levelo://app?vid=e237a205-657a-4cdf-af13-efde7ac50080"},"vehicle_type_id":"4","last_reported":1744455999,"current_range_meters":9600,"station_id":"ce4bgk12rcd13ifvqbi0","pricing_plan_id":"cebpf4jnsgd1na2vs0mg"},{"bike_id":"411f282c-b696-41a4-888f-752e1134c529","system_id":"levelo_inurba_marseille","lat":43.26199,"lon":5.37446,"is_reserved":false,"is_disabled":false,"rental_uris":{"android":"levelo://app?vid=411f282c-b696-41a4-888f-752e1134c529","ios":"levelo://app?vid=411f282c-b696-41a4-888f-752e1134c529"},"vehicle_type_id":"4","last_reported":1744455999,"current_range_meters":9600,"station_id":"ce4bhgp2rcd13ifvqfc0","pricing_plan_id":"cebpf4jnsgd1na2vs0mg"},{"bike_id":"8c58f2fa-99e1-41f8-bf90-9c1648b679b1","system_id":"levelo_inurba_marseille","lat":43.27312,"lon":5.41459,"is_reserved":false,"is_disabled":false,"rental_uris":{"android":"levelo://app?vid=8c58f2fa-99e1-41f8-bf90-9c1648b679b1","ios":"levelo://app?vid=8c58f2fa-99e1-41f8-bf90-9c1648b679b1"},"vehicle_type_id":"4","last_reported":1744455999,"current_range_meters":9600,"station_id":"","pricing_plan_id":"cebpf4jnsgd1na2vs0mg"},{"bike_id":"6b86aa1d-80cf-4e84-b068-c94b25843c15","system_id":"levelo_inurba_marseille","lat":43.22944,"lon":5.35374,"is_reserved":false,"is_disabled":false,"rental_uris":{"android":"levelo://app?vid=6b86aa1d-80cf-4e84-b068-c94b25843c15","ios":"levelo://app?vid=6b86aa1d-80cf-4e84-b068-c94b25843c15"},"vehicle_type_id":"4","last_reported":1744455999,"current_range_meters":9600,"station_id":"cpo3532slgdg3j2ikp40","pricing_plan_id":"cebpf4jnsgd1na2vs0mg"},{"bike_id":"8771d8e7-52e5-4861-a854-83c0340c9927","system_id":"levelo_inurba_marseille","lat":43.21188,"lon":5.35083,"is_reserved":false,"is_disabled":false,"rental_uris":{"android":"levelo://app?vid=8771d8e7-52e5-4861-a854-83c0340c9927","ios":"levelo://app?vid=8771d8e7-52e5-4861-a854-83c0340c9927"},"vehicle_type_id":"4","last_reported":1744455999,"current_range_meters":9600,"station_id":"","pricing_plan_id":"cebpf4jnsgd1na2vs0mg"},{"bike_id":"37864421-51e4-4d5e-801c-7ac32e01e722","system_id":"levelo_inurba_marseille","lat":43.31281,"lon":5.37759,"is_reserved":false,"is_disabled":false,"rental_uris":{"android":"levelo://app?vid=37864421-51e4-4d5e-801c-7ac32e01e722","ios":"levelo://app?vid=37864421-51e4-4d5e-801c-7ac32e01e722"},"vehicle_type_id":"4","last_reported":1744455999,"current_range_meters":9600,"station_id":"","pricing_plan_id":"cebpf4jnsgd1na2vs0mg"},{"bike_id":"b954be9c-5901-42f8-9285-ed405a32a47a","system_id":"levelo_inurba_marseille","lat":43.30185,"lon":5.36627,"is_reserved":false,"is_disabled":false,"rental_uris":{"android":"levelo://app?vid=b954be9c-5901-42f8-9285-ed405a32a47a","ios":"levelo://app?vid=b954be9c-5901-42f8-9285-ed405a32a47a"},"vehicle_type_id":"4","last_reported":1744455999,"current_range_meters":10000,"station_id":"ce4bgrh2rcd13ifvqc8g","pricing_plan_id":"cebpf4jnsgd1na2vs0mg"},{"bike_id":"4c893399-b4ed-40ed-a49f-713da320f269","system_id":"levelo_inurba_marseille","lat":43.29861,"lon":5.37841,"is_reserved":false,"is_disabled":false,"rental_uris":{"android":"levelo://app?vid=4c893399-b4ed-40ed-a49f-713da320f269","ios":"levelo://app?vid=4c893399-b4ed-40ed-a49f-713da320f269"},"vehicle_type_id":"4","last_reported":1744455999,"current_range_meters":10000,"station_id":"","pricing_plan_id":"cebpf4jnsgd1na2vs0mg"},{"bike_id":"a51f1eb3-b406-48c3-be2c-295696d223bc","system_id":"levelo_inurba_marseille","lat":43.30155,"lon":5.38076,"is_reserved":false,"is_disabled":false,"rental_uris":{"android":"levelo://app?vid=a51f1eb3-b406-48c3-be2c-295696d223bc","ios":"levelo://app?vid=a51f1eb3-b406-48c3-be2c-295696d223bc"},"vehicle_type_id":"4","last_reported":1744455999,"current_range_meters":10000,"station_id":"ce4bgjp2rcd13ifvqbh0","pricing_plan_id":"cebpf4jnsgd1na2vs0mg"},{"bike_id":"f68a1051-67d0-4a88-8953-29bf1876f0a5","system_id":"levelo_inurba_marseille","lat":43.21196,"lon":5.35069,"is_reserved":false,"is_disabled":false,"rental_uris":{"android":"levelo://app?vid=f68a1051-67d0-4a88-8953-29bf1876f0a5","ios":"levelo://app?vid=f68a1051-67d0-4a88-8953-29bf1876f0a5"},"vehicle_type_id":"4","last_reported":1744455999,"current_range_meters":10000,"station_id":"st_cvj6sg6p6f1abm77japg","pricing_plan_id":"cebpf4jnsgd1na2vs0mg"},{"bike_id":"ed2d239e-cd17-4f49-b887-ed12caf70bbe","system_id":"levelo_inurba_marseille","lat":43.30149,"lon":5.38086,"is_reserved":false,"is_disabled":false,"rental_uris":{"android":"levelo://app?vid=ed2d239e-cd17-4f49-b887-ed12caf70bbe","ios":"levelo://app?vid=ed2d239e-cd17-4f49-b887-ed12caf70bbe"},"vehicle_type_id":"4","last_reported":1744455999,"current_range_meters":10800,"station_id":"ce4bgjp2rcd13ifvqbh0","pricing_plan_id":"cebpf4jnsgd1na2vs0mg"},{"bike_id":"c05d57a1-94ed-4161-8f0d-a8a84cb5c5c2","system_id":"levelo_inurba_marseille","lat":43.29579,"lon":5.3674,"is_reserved":false,"is_disabled":false,"rental_uris":{"android":"levelo://app?vid=c05d57a1-94ed-4161-8f0d-a8a84cb5c5c2","ios":"levelo://app?vid=c05d57a1-94ed-4161-8f0d-a8a84cb5c5c2"},"vehicle_type_id":"4","last_reported":1744455999,"current_range_meters":10800,"station_id":"ce4bgph2rcd13ifvqc2g","pricing_plan_id":"cebpf4jnsgd1na2vs0mg"},{"bike_id":"4a0973b0-92a0-41e8-9b0d-a99e944bafe0","system_id":"levelo_inurba_marseille","lat":43.345,"lon":5.41293,"is_reserved":false,"is_disabled":false,"rental_uris":{"android":"levelo://app?vid=4a0973b0-92a0-41e8-9b0d-a99e944bafe0","ios":"levelo://app?vid=4a0973b0-92a0-41e8-9b0d-a99e944bafe0"},"vehicle_type_id":"4","last_reported":1744455999,"current_range_meters":10800,"station_id":"","pricing_plan_id":"cebpf4jnsgd1na2vs0mg"},{"bike_id":"29fd9406-b872-4408-b90c-f1d9e5190468","system_id":"levelo_inurba_marseille","lat":43.23139,"lon":5.43714,"is_reserved":false,"is_disabled":false,"rental_uris":{"android":"levelo://app?vid=29fd9406-b872-4408-b90c-f1d9e5190468","ios":"levelo://app?vid=29fd9406-b872-4408-b90c-f1d9e5190468"},"vehicle_type_id":"4","last_reported":1744455999,"current_range_meters":10800,"station_id":"ce4bhmp2rcd13ifvqgog","pricing_plan_id":"cebpf4jnsgd1na2vs0mg"},{"bike_id":"1cbf0fbb-b6c7-416e-86ce-c8bd999abd1d","system_id":"levelo_inurba_marseille","lat":43.29538,"lon":5.37512,"is_reserved":false,"is_disabled":false,"rental_uris":{"android":"levelo://app?vid=1cbf0fbb-b6c7-416e-86ce-c8bd999abd1d","ios":"levelo://app?vid=1cbf0fbb-b6c7-416e-86ce-c8bd999abd1d"},"vehicle_type_id":"4","last_reported":1744455999,"current_range_meters":11200,"station_id":"ce4bgkp2rcd13ifvqbmg","pricing_plan_id":"cebpf4jnsgd1na2vs0mg"},{"bike_id":"c013d600-5e08-48f0-830e-8c965978436b","system_id":"levelo_inurba_marseille","lat":43.30436,"lon":5.3888,"is_reserved":false,"is_disabled":true,"rental_uris":{"android":"levelo://app?vid=c013d600-5e08-48f0-830e-8c965978436b","ios":"levelo://app?vid=c013d600-5e08-48f0-830e-8c965978436b"},"vehicle_type_id":"4","last_reported":1744455999,"current_range_meters":11200,"station_id":"ce4bgk12rcd13ifvqbi0","pricing_plan_id":"cebpf4jnsgd1na2vs0mg"},{"bike_id":"15f8c481-5ec3-42a7-b25f-f4089fa537c4","system_id":"levelo_inurba_marseille","lat":43.241762,"lon":5.397175,"is_reserved":false,"is_disabled":false,"rental_uris":{"android":"levelo://app?vid=15f8c481-5ec3-42a7-b25f-f4089fa537c4","ios":"levelo://app?vid=15f8c481-5ec3-42a7-b25f-f4089fa537c4"},"vehicle_type_id":"4","last_reported":1744455999,"current_range_meters":11200,"station_id":"ce4bhn12rcd13ifvqgpg","pricing_plan_id":"cebpf4jnsgd1na2vs0mg"},{"bike_id":"097d63bd-5119-45c3-bd85-f18a3c1d6a76","system_id":"levelo_inurba_marseille","lat":43.301476,"lon":5.380608,"is_reserved":false,"is_disabled":false,"rental_uris":{"android":"levelo://app?vid=097d63bd-5119-45c3-bd85-f18a3c1d6a76","ios":"levelo://app?vid=097d63bd-5119-45c3-bd85-f18a3c1d6a76"},"vehicle_type_id":"4","last_reported":1744455999,"current_range_meters":11200,"station_id":"ce4bgjp2rcd13ifvqbh0","pricing_plan_id":"cebpf4jnsgd1na2vs0mg"},{"bike_id":"47df54fa-9868-413c-a07b-a88614eb280e","system_id":"levelo_inurba_marseille","lat":43.27063,"lon":5.4026,"is_reserved":false,"is_disabled":false,"rental_uris":{"android":"levelo://app?vid=47df54fa-9868-413c-a07b-a88614eb280e","ios":"levelo://app?vid=47df54fa-9868-413c-a07b-a88614eb280e"},"vehicle_type_id":"4","last_reported":1744455999,"current_range_meters":11200,"station_id":"ce4bhk92rcd13ifvqgc0","pricing_plan_id":"cebpf4jnsgd1na2vs0mg"},{"bike_id":"1e917da6-6f62-406a-b61c-3755d2542c2b","system_id":"levelo_inurba_marseille","lat":43.2931,"lon":5.37468,"is_reserved":false,"is_disabled":false,"rental_uris":{"android":"levelo://app?vid=1e917da6-6f62-406a-b61c-3755d2542c2b","ios":"levelo://app?vid=1e917da6-6f62-406a-b61c-3755d2542c2b"},"vehicle_type_id":"4","last_reported":1744455999,"current_range_meters":11200,"station_id":"ce4bgi12rcd13ifvqb70","pricing_plan_id":"cebpf4jnsgd1na2vs0mg"},{"bike_id":"83e4c345-5a97-4da5-ad41-852af125c0a3","system_id":"levelo_inurba_marseille","lat":43.30411,"lon":5.41297,"is_reserved":false,"is_disabled":false,"rental_uris":{"android":"levelo://app?vid=83e4c345-5a97-4da5-ad41-852af125c0a3","ios":"levelo://app?vid=83e4c345-5a97-4da5-ad41-852af125c0a3"},"vehicle_type_id":"4","last_reported":1744455999,"current_range_meters":11200,"station_id":"ce4bhop2rcd13ifvqh8g","pricing_plan_id":"cebpf4jnsgd1na2vs0mg"},{"bike_id":"392fdac2-81f3-4f6f-9fd2-34c44342c74c","system_id":"levelo_inurba_marseille","lat":43.2705,"lon":5.4028,"is_reserved":false,"is_disabled":false,"rental_uris":{"android":"levelo://app?vid=392fdac2-81f3-4f6f-9fd2-34c44342c74c","ios":"levelo://app?vid=392fdac2-81f3-4f6f-9fd2-34c44342c74c"},"vehicle_type_id":"4","last_reported":1744455999,"current_range_meters":11200,"station_id":"ce4bhk92rcd13ifvqgc0","pricing_plan_id":"cebpf4jnsgd1na2vs0mg"},{"bike_id":"51c46909-da2c-4257-a43e-82b8369507de","system_id":"levelo_inurba_marseille","lat":43.29786,"lon":5.38084,"is_reserved":false,"is_disabled":false,"rental_uris":{"android":"levelo://app?vid=51c46909-da2c-4257-a43e-82b8369507de","ios":"levelo://app?vid=51c46909-da2c-4257-a43e-82b8369507de"},"vehicle_type_id":"4","last_reported":1744455999,"current_range_meters":11600,"station_id":"ce4bgip2rcd13ifvqbb0","pricing_plan_id":"cebpf4jnsgd1na2vs0mg"},{"bike_id":"22c58768-555d-4107-897a-c53794fe3963","system_id":"levelo_inurba_marseille","lat":43.26204,"lon":5.37444,"is_reserved":false,"is_disabled":false,"rental_uris":{"android":"levelo://app?vid=22c58768-555d-4107-897a-c53794fe3963","ios":"levelo://app?vid=22c58768-555d-4107-897a-c53794fe3963"},"vehicle_type_id":"4","last_reported":1744455999,"current_range_meters":11600,"station_id":"ce4bhgp2rcd13ifvqfc0","pricing_plan_id":"cebpf4jnsgd1na2vs0mg"},{"bike_id":"ef291804-1477-432e-b153-82ea15725418","system_id":"levelo_inurba_marseille","lat":43.33742,"lon":5.37454,"is_reserved":false,"is_disabled":false,"rental_uris":{"android":"levelo://app?vid=ef291804-1477-432e-b153-82ea15725418","ios":"levelo://app?vid=ef291804-1477-432e-b153-82ea15725418"},"vehicle_type_id":"4","last_reported":1744455999,"current_range_meters":11600,"station_id":"","pricing_plan_id":"cebpf4jnsgd1na2vs0mg"},{"bike_id":"ab56d6e8-e9bd-43bc-b4d5-9ae221bbed26","system_id":"levelo_inurba_marseille","lat":43.295468,"lon":5.375205,"is_reserved":false,"is_disabled":false,"rental_uris":{"android":"levelo://app?vid=ab56d6e8-e9bd-43bc-b4d5-9ae221bbed26","ios":"levelo://app?vid=ab56d6e8-e9bd-43bc-b4d5-9ae221bbed26"},"vehicle_type_id":"4","last_reported":1744455999,"current_range_meters":11600,"station_id":"ce4bgkp2rcd13ifvqbmg","pricing_plan_id":"cebpf4jnsgd1na2vs0mg"},{"bike_id":"7c4787ec-1a99-4f83-ab13-ea372070e58e","system_id":"levelo_inurba_marseille","lat":43.26209,"lon":5.37441,"is_reserved":false,"is_disabled":false,"rental_uris":{"android":"levelo://app?vid=7c4787ec-1a99-4f83-ab13-ea372070e58e","ios":"levelo://app?vid=7c4787ec-1a99-4f83-ab13-ea372070e58e"},"vehicle_type_id":"4","last_reported":1744455999,"current_range_meters":12000,"station_id":"ce4bhgp2rcd13ifvqfc0","pricing_plan_id":"cebpf4jnsgd1na2vs0mg"},{"bike_id":"007a9bf5-6e9a-41fb-aaf5-ab349eb781c4","system_id":"levelo_inurba_marseille","lat":43.28856,"lon":5.35848,"is_reserved":false,"is_disabled":false,"rental_uris":{"android":"levelo://app?vid=007a9bf5-6e9a-41fb-aaf5-ab349eb781c4","ios":"levelo://app?vid=007a9bf5-6e9a-41fb-aaf5-ab349eb781c4"},"vehicle_type_id":"4","last_reported":1744455999,"current_range_meters":12000,"station_id":"ce4bhb12rcd13ifvqem0","pricing_plan_id":"cebpf4jnsgd1na2vs0mg"},{"bike_id":"d38e0e5e-1441-423a-9774-3196b1a1cb17","system_id":"levelo_inurba_marseille","lat":43.30027,"lon":5.40007,"is_reserved":false,"is_disabled":false,"rental_uris":{"android":"levelo://app?vid=d38e0e5e-1441-423a-9774-3196b1a1cb17","ios":"levelo://app?vid=d38e0e5e-1441-423a-9774-3196b1a1cb17"},"vehicle_type_id":"4","last_reported":1744455999,"current_range_meters":12000,"station_id":"","pricing_plan_id":"cebpf4jnsgd1na2vs0mg"},{"bike_id":"33486ddd-a4ae-48ee-9c27-461315e62d28","system_id":"levelo_inurba_marseille","lat":43.29617,"lon":5.37719,"is_reserved":false,"is_disabled":false,"rental_uris":{"android":"levelo://app?vid=33486ddd-a4ae-48ee-9c27-461315e62d28","ios":"levelo://app?vid=33486ddd-a4ae-48ee-9c27-461315e62d28"},"vehicle_type_id":"4","last_reported":1744455999,"current_range_meters":12400,"station_id":"ce4bgi92rcd13ifvqb90","pricing_plan_id":"cebpf4jnsgd1na2vs0mg"},{"bike_id":"c9aa49b6-dfff-45a5-aada-a9b66a79c5ac","system_id":"levelo_inurba_marseille","lat":43.24711,"lon":5.38154,"is_reserved":false,"is_disabled":false,"rental_uris":{"android":"levelo://app?vid=c9aa49b6-dfff-45a5-aada-a9b66a79c5ac","ios":"levelo://app?vid=c9aa49b6-dfff-45a5-aada-a9b66a79c5ac"},"vehicle_type_id":"4","last_reported":1744455999,"current_range_meters":12400,"station_id":"","pricing_plan_id":"cebpf4jnsgd1na2vs0mg"},{"bike_id":"f7d1eee0-1715-419d-beac-1b98ec9e62ed","system_id":"levelo_inurba_marseille","lat":43.30956,"lon":5.39028,"is_reserved":false,"is_disabled":true,"rental_uris":{"android":"levelo://app?vid=f7d1eee0-1715-419d-beac-1b98ec9e62ed","ios":"levelo://app?vid=f7d1eee0-1715-419d-beac-1b98ec9e62ed"},"vehicle_type_id":"4","last_reported":1744455999,"current_range_meters":12400,"station_id":"ce4bgup2rcd13ifvqco0","pricing_plan_id":"cebpf4jnsgd1na2vs0mg"},{"bike_id":"e20a4492-6da4-4ef9-bb7d-c728a3fa14d8","system_id":"levelo_inurba_marseille","lat":43.27453,"lon":5.39389,"is_reserved":false,"is_disabled":false,"rental_uris":{"android":"levelo://app?vid=e20a4492-6da4-4ef9-bb7d-c728a3fa14d8","ios":"levelo://app?vid=e20a4492-6da4-4ef9-bb7d-c728a3fa14d8"},"vehicle_type_id":"4","last_reported":1744455999,"current_range_meters":12400,"station_id":"ce4bhdp2rcd13ifvqf20","pricing_plan_id":"cebpf4jnsgd1na2vs0mg"},{"bike_id":"51088fd6-3a26-4f14-b1b6-4bfff318469e","system_id":"levelo_inurba_marseille","lat":43.29382,"lon":5.37854,"is_reserved":false,"is_disabled":false,"rental_uris":{"android":"levelo://app?vid=51088fd6-3a26-4f14-b1b6-4bfff318469e","ios":"levelo://app?vid=51088fd6-3a26-4f14-b1b6-4bfff318469e"},"vehicle_type_id":"4","last_reported":1744455999,"current_range_meters":14800,"station_id":"ce4bgjh2rcd13ifvqbf0","pricing_plan_id":"cebpf4jnsgd1na2vs0mg"},{"bike_id":"0e7bf4ae-5aed-4055-a1f8-96debbb9847e","system_id":"levelo_inurba_marseille","lat":43.241732,"lon":5.363918,"is_reserved":false,"is_disabled":false,"rental_uris":{"android":"levelo://app?vid=0e7bf4ae-5aed-4055-a1f8-96debbb9847e","ios":"levelo://app?vid=0e7bf4ae-5aed-4055-a1f8-96debbb9847e"},"vehicle_type_id":"4","last_reported":1744455999,"current_range_meters":12400,"station_id":"cpo36qri1sfpv3e86is0","pricing_plan_id":"cebpf4jnsgd1na2vs0mg"},{"bike_id":"5b77a833-8185-45c2-9fe3-07eb40df54ca","system_id":"levelo_inurba_marseille","lat":43.33995,"lon":5.38057,"is_reserved":false,"is_disabled":false,"rental_uris":{"android":"levelo://app?vid=5b77a833-8185-45c2-9fe3-07eb40df54ca","ios":"levelo://app?vid=5b77a833-8185-45c2-9fe3-07eb40df54ca"},"vehicle_type_id":"4","last_reported":1744455999,"current_range_meters":12400,"station_id":"","pricing_plan_id":"cebpf4jnsgd1na2vs0mg"},{"bike_id":"d8f603cd-3b83-4148-bab8-3a185ad2a59f","system_id":"levelo_inurba_marseille","lat":43.323699,"lon":5.388904,"is_reserved":false,"is_disabled":false,"rental_uris":{"android":"levelo://app?vid=d8f603cd-3b83-4148-bab8-3a185ad2a59f","ios":"levelo://app?vid=d8f603cd-3b83-4148-bab8-3a185ad2a59f"},"vehicle_type_id":"4","last_reported":1744455999,"current_range_meters":12800,"station_id":"ce4bhqp2rcd13ifvqhog","pricing_plan_id":"cebpf4jnsgd1na2vs0mg"},{"bike_id":"ae43f913-75e7-4052-939c-c153477eee57","system_id":"levelo_inurba_marseille","lat":43.29579,"lon":5.36742,"is_reserved":false,"is_disabled":false,"rental_uris":{"android":"levelo://app?vid=ae43f913-75e7-4052-939c-c153477eee57","ios":"levelo://app?vid=ae43f913-75e7-4052-939c-c153477eee57"},"vehicle_type_id":"4","last_reported":1744455999,"current_range_meters":12800,"station_id":"ce4bgph2rcd13ifvqc2g","pricing_plan_id":"cebpf4jnsgd1na2vs0mg"},{"bike_id":"ab81494b-a95f-4f82-a7f5-9923f4a5f4d8","system_id":"levelo_inurba_marseille","lat":43.21192,"lon":5.35073,"is_reserved":false,"is_disabled":false,"rental_uris":{"android":"levelo://app?vid=ab81494b-a95f-4f82-a7f5-9923f4a5f4d8","ios":"levelo://app?vid=ab81494b-a95f-4f82-a7f5-9923f4a5f4d8"},"vehicle_type_id":"4","last_reported":1744455999,"current_range_meters":12800,"station_id":"st_cvj6sg6p6f1abm77japg","pricing_plan_id":"cebpf4jnsgd1na2vs0mg"},{"bike_id":"279ce65a-69b5-42c0-8fc1-a93804742cff","system_id":"levelo_inurba_marseille","lat":43.23188,"lon":5.39981,"is_reserved":false,"is_disabled":false,"rental_uris":{"android":"levelo://app?vid=279ce65a-69b5-42c0-8fc1-a93804742cff","ios":"levelo://app?vid=279ce65a-69b5-42c0-8fc1-a93804742cff"},"vehicle_type_id":"4","last_reported":1744455999,"current_range_meters":12800,"station_id":"ce4bhn12rcd13ifvqgqg","pricing_plan_id":"cebpf4jnsgd1na2vs0mg"},{"bike_id":"6c1f8d10-6256-4675-980f-b4c89af7c431","system_id":"levelo_inurba_marseille","lat":43.292999,"lon":5.374612,"is_reserved":false,"is_disabled":false,"rental_uris":{"android":"levelo://app?vid=6c1f8d10-6256-4675-980f-b4c89af7c431","ios":"levelo://app?vid=6c1f8d10-6256-4675-980f-b4c89af7c431"},"vehicle_type_id":"4","last_reported":1744455999,"current_range_meters":12800,"station_id":"ce4bgi12rcd13ifvqb70","pricing_plan_id":"cebpf4jnsgd1na2vs0mg"},{"bike_id":"ab1d1bd9-4452-46a3-8a8b-5509a9004f84","system_id":"levelo_inurba_marseille","lat":43.32106,"lon":5.3677,"is_reserved":false,"is_disabled":false,"rental_uris":{"android":"levelo://app?vid=ab1d1bd9-4452-46a3-8a8b-5509a9004f84","ios":"levelo://app?vid=ab1d1bd9-4452-46a3-8a8b-5509a9004f84"},"vehicle_type_id":"4","last_reported":1744455999,"current_range_meters":13600,"station_id":"ce4bhrh2rcd13ifvqhug","pricing_plan_id":"cebpf4jnsgd1na2vs0mg"},{"bike_id":"493cde9e-7859-4c26-a2e6-f744ee5d8553","system_id":"levelo_inurba_marseille","lat":43.3177,"lon":5.3681,"is_reserved":false,"is_disabled":false,"rental_uris":{"android":"levelo://app?vid=493cde9e-7859-4c26-a2e6-f744ee5d8553","ios":"levelo://app?vid=493cde9e-7859-4c26-a2e6-f744ee5d8553"},"vehicle_type_id":"4","last_reported":1744455999,"current_range_meters":13600,"station_id":"","pricing_plan_id":"cebpf4jnsgd1na2vs0mg"},{"bike_id":"6078a47e-eebb-47c6-be9d-b1d99cd91463","system_id":"levelo_inurba_marseille","lat":43.29723,"lon":5.37688,"is_reserved":false,"is_disabled":false,"rental_uris":{"android":"levelo://app?vid=6078a47e-eebb-47c6-be9d-b1d99cd91463","ios":"levelo://app?vid=6078a47e-eebb-47c6-be9d-b1d99cd91463"},"vehicle_type_id":"4","last_reported":1744455999,"current_range_meters":13600,"station_id":"ce4bgkh2rcd13ifvqbl0","pricing_plan_id":"cebpf4jnsgd1na2vs0mg"},{"bike_id":"97151fa1-e8ef-4294-ab97-1874aa9a6fef","system_id":"levelo_inurba_marseille","lat":43.297943,"lon":5.380865,"is_reserved":false,"is_disabled":false,"rental_uris":{"android":"levelo://app?vid=97151fa1-e8ef-4294-ab97-1874aa9a6fef","ios":"levelo://app?vid=97151fa1-e8ef-4294-ab97-1874aa9a6fef"},"vehicle_type_id":"4","last_reported":1744455999,"current_range_meters":14000,"station_id":"ce4bgip2rcd13ifvqbb0","pricing_plan_id":"cebpf4jnsgd1na2vs0mg"},{"bike_id":"2f71840e-b975-402c-b655-ced05316aafc","system_id":"levelo_inurba_marseille","lat":43.24802,"lon":5.37453,"is_reserved":false,"is_disabled":false,"rental_uris":{"android":"levelo://app?vid=2f71840e-b975-402c-b655-ced05316aafc","ios":"levelo://app?vid=2f71840e-b975-402c-b655-ced05316aafc"},"vehicle_type_id":"4","last_reported":1744455999,"current_range_meters":14000,"station_id":"ce4bhgh2rcd13ifvqfb0","pricing_plan_id":"cebpf4jnsgd1na2vs0mg"},{"bike_id":"2f5bc015-0a98-4a0d-a50f-f7181e1d6abe","system_id":"levelo_inurba_marseille","lat":43.23384,"lon":5.41235,"is_reserved":false,"is_disabled":false,"rental_uris":{"android":"levelo://app?vid=2f5bc015-0a98-4a0d-a50f-f7181e1d6abe","ios":"levelo://app?vid=2f5bc015-0a98-4a0d-a50f-f7181e1d6abe"},"vehicle_type_id":"4","last_reported":1744455999,"current_range_meters":14000,"station_id":"","pricing_plan_id":"cebpf4jnsgd1na2vs0mg"},{"bike_id":"59540cf3-3e5a-4993-bd86-0939496e2ba4","system_id":"levelo_inurba_marseille","lat":43.2417,"lon":5.36404,"is_reserved":false,"is_disabled":false,"rental_uris":{"android":"levelo://app?vid=59540cf3-3e5a-4993-bd86-0939496e2ba4","ios":"levelo://app?vid=59540cf3-3e5a-4993-bd86-0939496e2ba4"},"vehicle_type_id":"4","last_reported":1744455999,"current_range_meters":14000,"station_id":"cpo36qri1sfpv3e86is0","pricing_plan_id":"cebpf4jnsgd1na2vs0mg"},{"bike_id":"4deac085-fd98-4171-ba91-78429a801624","system_id":"levelo_inurba_marseille","lat":43.24804,"lon":5.37452,"is_reserved":false,"is_disabled":false,"rental_uris":{"android":"levelo://app?vid=4deac085-fd98-4171-ba91-78429a801624","ios":"levelo://app?vid=4deac085-fd98-4171-ba91-78429a801624"},"vehicle_type_id":"4","last_reported":1744455999,"current_range_meters":14000,"station_id":"ce4bhgh2rcd13ifvqfb0","pricing_plan_id":"cebpf4jnsgd1na2vs0mg"},{"bike_id":"0215ad3a-7dac-42a5-abab-14698b117fa1","system_id":"levelo_inurba_marseille","lat":43.29607,"lon":5.37744,"is_reserved":false,"is_disabled":false,"rental_uris":{"android":"levelo://app?vid=0215ad3a-7dac-42a5-abab-14698b117fa1","ios":"levelo://app?vid=0215ad3a-7dac-42a5-abab-14698b117fa1"},"vehicle_type_id":"4","last_reported":1744455999,"current_range_meters":14000,"station_id":"ce4bgi92rcd13ifvqb90","pricing_plan_id":"cebpf4jnsgd1na2vs0mg"},{"bike_id":"6d15af86-98c4-428d-92bc-53013be61e03","system_id":"levelo_inurba_marseille","lat":43.21186,"lon":5.3508,"is_reserved":false,"is_disabled":false,"rental_uris":{"android":"levelo://app?vid=6d15af86-98c4-428d-92bc-53013be61e03","ios":"levelo://app?vid=6d15af86-98c4-428d-92bc-53013be61e03"},"vehicle_type_id":"4","last_reported":1744455999,"current_range_meters":14000,"station_id":"ce4bgkp2rcd13ifvqbmg","pricing_plan_id":"cebpf4jnsgd1na2vs0mg"},{"bike_id":"61bc6256-8380-4638-bd27-1e2c56ecc87d","system_id":"levelo_inurba_marseille","lat":43.29743,"lon":5.37649,"is_reserved":false,"is_disabled":false,"rental_uris":{"android":"levelo://app?vid=61bc6256-8380-4638-bd27-1e2c56ecc87d","ios":"levelo://app?vid=61bc6256-8380-4638-bd27-1e2c56ecc87d"},"vehicle_type_id":"4","last_reported":1744455999,"current_range_meters":14000,"station_id":"ce4bgkh2rcd13ifvqbl0","pricing_plan_id":"cebpf4jnsgd1na2vs0mg"},{"bike_id":"90cddebc-2506-42ee-9df1-36a6154dff75","system_id":"levelo_inurba_marseille","lat":43.24163,"lon":5.36387,"is_reserved":false,"is_disabled":false,"rental_uris":{"android":"levelo://app?vid=90cddebc-2506-42ee-9df1-36a6154dff75","ios":"levelo://app?vid=90cddebc-2506-42ee-9df1-36a6154dff75"},"vehicle_type_id":"4","last_reported":1744455999,"current_range_meters":14000,"station_id":"cpo36qri1sfpv3e86is0","pricing_plan_id":"cebpf4jnsgd1na2vs0mg"},{"bike_id":"085ebf65-2b7d-49b6-9562-f03f9aeded5d","system_id":"levelo_inurba_marseille","lat":43.311401,"lon":5.384738,"is_reserved":false,"is_disabled":false,"rental_uris":{"android":"levelo://app?vid=085ebf65-2b7d-49b6-9562-f03f9aeded5d","ios":"levelo://app?vid=085ebf65-2b7d-49b6-9562-f03f9aeded5d"},"vehicle_type_id":"4","last_reported":1744455999,"current_range_meters":14400,"station_id":"ce4bgv12rcd13ifvqcp0","pricing_plan_id":"cebpf4jnsgd1na2vs0mg"},{"bike_id":"b4f3c74a-6f31-4dd1-98b7-4144744d53ed","system_id":"levelo_inurba_marseille","lat":43.24168,"lon":5.36393,"is_reserved":false,"is_disabled":false,"rental_uris":{"android":"levelo://app?vid=b4f3c74a-6f31-4dd1-98b7-4144744d53ed","ios":"levelo://app?vid=b4f3c74a-6f31-4dd1-98b7-4144744d53ed"},"vehicle_type_id":"4","last_reported":1744455999,"current_range_meters":14400,"station_id":"cpo36qri1sfpv3e86is0","pricing_plan_id":"cebpf4jnsgd1na2vs0mg"},{"bike_id":"f5978509-db06-47ea-8b21-850d320f3654","system_id":"levelo_inurba_marseille","lat":43.30462,"lon":5.41334,"is_reserved":false,"is_disabled":false,"rental_uris":{"android":"levelo://app?vid=f5978509-db06-47ea-8b21-850d320f3654","ios":"levelo://app?vid=f5978509-db06-47ea-8b21-850d320f3654"},"vehicle_type_id":"4","last_reported":1744455999,"current_range_meters":14400,"station_id":"","pricing_plan_id":"cebpf4jnsgd1na2vs0mg"},{"bike_id":"3383469d-bf04-4b83-befe-8d91b97ef6f7","system_id":"levelo_inurba_marseille","lat":43.32148,"lon":5.37935,"is_reserved":false,"is_disabled":false,"rental_uris":{"android":"levelo://app?vid=3383469d-bf04-4b83-befe-8d91b97ef6f7","ios":"levelo://app?vid=3383469d-bf04-4b83-befe-8d91b97ef6f7"},"vehicle_type_id":"4","last_reported":1744455999,"current_range_meters":14400,"station_id":"","pricing_plan_id":"cebpf4jnsgd1na2vs0mg"},{"bike_id":"f7843f46-58aa-4cf6-a1d0-1b94b16f71c2","system_id":"levelo_inurba_marseille","lat":43.2984,"lon":5.3966,"is_reserved":false,"is_disabled":false,"rental_uris":{"android":"levelo://app?vid=f7843f46-58aa-4cf6-a1d0-1b94b16f71c2","ios":"levelo://app?vid=f7843f46-58aa-4cf6-a1d0-1b94b16f71c2"},"vehicle_type_id":"4","last_reported":1744455999,"current_range_meters":14800,"station_id":"","pricing_plan_id":"cebpf4jnsgd1na2vs0mg"},{"bike_id":"690d42bc-1e9f-4fd7-bb60-533a06a0270a","system_id":"levelo_inurba_marseille","lat":43.23936,"lon":5.36638,"is_reserved":false,"is_disabled":false,"rental_uris":{"android":"levelo://app?vid=690d42bc-1e9f-4fd7-bb60-533a06a0270a","ios":"levelo://app?vid=690d42bc-1e9f-4fd7-bb60-533a06a0270a"},"vehicle_type_id":"4","last_reported":1744455999,"current_range_meters":14400,"station_id":"ce4bhi12rcd13ifvqfp0","pricing_plan_id":"cebpf4jnsgd1na2vs0mg"},{"bike_id":"a65ffd7a-d48c-4e43-a849-ada330ffe0f7","system_id":"levelo_inurba_marseille","lat":43.28614,"lon":5.35105,"is_reserved":false,"is_disabled":false,"rental_uris":{"android":"levelo://app?vid=a65ffd7a-d48c-4e43-a849-ada330ffe0f7","ios":"levelo://app?vid=a65ffd7a-d48c-4e43-a849-ada330ffe0f7"},"vehicle_type_id":"4","last_reported":1744455999,"current_range_meters":14800,"station_id":"ce4bhch2rcd13ifvqeug","pricing_plan_id":"cebpf4jnsgd1na2vs0mg"},{"bike_id":"99941cc7-5163-4c4d-a1d2-debcdde82514","system_id":"levelo_inurba_marseille","lat":43.21189,"lon":5.35069,"is_reserved":false,"is_disabled":false,"rental_uris":{"android":"levelo://app?vid=99941cc7-5163-4c4d-a1d2-debcdde82514","ios":"levelo://app?vid=99941cc7-5163-4c4d-a1d2-debcdde82514"},"vehicle_type_id":"4","last_reported":1744455999,"current_range_meters":15200,"station_id":"st_cvj6sg6p6f1abm77japg","pricing_plan_id":"cebpf4jnsgd1na2vs0mg"},{"bike_id":"09641453-8c56-445d-b9fe-7f7ad9f26a9d","system_id":"levelo_inurba_marseille","lat":43.26553,"lon":5.37284,"is_reserved":false,"is_disabled":true,"rental_uris":{"android":"levelo://app?vid=09641453-8c56-445d-b9fe-7f7ad9f26a9d","ios":"levelo://app?vid=09641453-8c56-445d-b9fe-7f7ad9f26a9d"},"vehicle_type_id":"4","last_reported":1744455999,"current_range_meters":15200,"station_id":"ce4bhg12rcd13ifvqf70","pricing_plan_id":"cebpf4jnsgd1na2vs0mg"},{"bike_id":"d5005409-a8ff-4cbe-9a3f-cba028ddf226","system_id":"levelo_inurba_marseille","lat":43.24995,"lon":5.3893,"is_reserved":false,"is_disabled":false,"rental_uris":{"android":"levelo://app?vid=d5005409-a8ff-4cbe-9a3f-cba028ddf226","ios":"levelo://app?vid=d5005409-a8ff-4cbe-9a3f-cba028ddf226"},"vehicle_type_id":"4","last_reported":1744455999,"current_range_meters":15200,"station_id":"ce4bhgp2rcd13ifvqfd0","pricing_plan_id":"cebpf4jnsgd1na2vs0mg"},{"bike_id":"72c6aab6-3a44-430e-a84d-843d2a93e616","system_id":"levelo_inurba_marseille","lat":43.21195,"lon":5.35067,"is_reserved":false,"is_disabled":true,"rental_uris":{"android":"levelo://app?vid=72c6aab6-3a44-430e-a84d-843d2a93e616","ios":"levelo://app?vid=72c6aab6-3a44-430e-a84d-843d2a93e616"},"vehicle_type_id":"4","last_reported":1744455999,"current_range_meters":16000,"station_id":"st_cvj6sg6p6f1abm77japg","pricing_plan_id":"cebpf4jnsgd1na2vs0mg"},{"bike_id":"60cbbbe7-f799-439f-8421-fed515b5e527","system_id":"levelo_inurba_marseille","lat":43.2481,"lon":5.37448,"is_reserved":false,"is_disabled":false,"rental_uris":{"android":"levelo://app?vid=60cbbbe7-f799-439f-8421-fed515b5e527","ios":"levelo://app?vid=60cbbbe7-f799-439f-8421-fed515b5e527"},"vehicle_type_id":"4","last_reported":1744455999,"current_range_meters":16000,"station_id":"ce4bhgh2rcd13ifvqfb0","pricing_plan_id":"cebpf4jnsgd1na2vs0mg"},{"bike_id":"d51a8c93-4a62-49ae-82cb-4bd383d80bde","system_id":"levelo_inurba_marseille","lat":43.28148,"lon":5.42633,"is_reserved":false,"is_disabled":false,"rental_uris":{"android":"levelo://app?vid=d51a8c93-4a62-49ae-82cb-4bd383d80bde","ios":"levelo://app?vid=d51a8c93-4a62-49ae-82cb-4bd383d80bde"},"vehicle_type_id":"4","last_reported":1744455999,"current_range_meters":16000,"station_id":"ce4bhnh2rcd13ifvqgug","pricing_plan_id":"cebpf4jnsgd1na2vs0mg"},{"bike_id":"00e05762-8e6d-4ac4-b3f3-dbb6bfb72204","system_id":"levelo_inurba_marseille","lat":43.29205,"lon":5.36051,"is_reserved":false,"is_disabled":false,"rental_uris":{"android":"levelo://app?vid=00e05762-8e6d-4ac4-b3f3-dbb6bfb72204","ios":"levelo://app?vid=00e05762-8e6d-4ac4-b3f3-dbb6bfb72204"},"vehicle_type_id":"4","last_reported":1744455999,"current_range_meters":16000,"station_id":"ce4bhbh2rcd13ifvqeqg","pricing_plan_id":"cebpf4jnsgd1na2vs0mg"},{"bike_id":"eb1d4b7d-30fc-495b-a6a7-af63f85b9171","system_id":"levelo_inurba_marseille","lat":43.301,"lon":5.39093,"is_reserved":false,"is_disabled":false,"rental_uris":{"android":"levelo://app?vid=eb1d4b7d-30fc-495b-a6a7-af63f85b9171","ios":"levelo://app?vid=eb1d4b7d-30fc-495b-a6a7-af63f85b9171"},"vehicle_type_id":"4","last_reported":1744455999,"current_range_meters":16000,"station_id":"ce4bh192rcd13ifvqdb0","pricing_plan_id":"cebpf4jnsgd1na2vs0mg"},{"bike_id":"51ae49fe-93e7-484b-b925-a3fee3cec470","system_id":"levelo_inurba_marseille","lat":43.2306,"lon":5.35496,"is_reserved":false,"is_disabled":false,"rental_uris":{"android":"levelo://app?vid=51ae49fe-93e7-484b-b925-a3fee3cec470","ios":"levelo://app?vid=51ae49fe-93e7-484b-b925-a3fee3cec470"},"vehicle_type_id":"4","last_reported":1744455999,"current_range_meters":16000,"station_id":"cpo3342slgdg3j2ifvpg","pricing_plan_id":"cebpf4jnsgd1na2vs0mg"},{"bike_id":"8043ed93-c0e0-4b20-a22a-1ce703744524","system_id":"levelo_inurba_marseille","lat":43.28946,"lon":5.36615,"is_reserved":false,"is_disabled":true,"rental_uris":{"android":"levelo://app?vid=8043ed93-c0e0-4b20-a22a-1ce703744524","ios":"levelo://app?vid=8043ed93-c0e0-4b20-a22a-1ce703744524"},"vehicle_type_id":"4","last_reported":1744455999,"current_range_meters":16000,"station_id":"ce4bhap2rcd13ifvqek0","pricing_plan_id":"cebpf4jnsgd1na2vs0mg"},{"bike_id":"97765486-f56a-4871-8d73-6638b015e899","system_id":"levelo_inurba_marseille","lat":43.26226,"lon":5.40449,"is_reserved":false,"is_disabled":false,"rental_uris":{"android":"levelo://app?vid=97765486-f56a-4871-8d73-6638b015e899","ios":"levelo://app?vid=97765486-f56a-4871-8d73-6638b015e899"},"vehicle_type_id":"4","last_reported":1744455999,"current_range_meters":16400,"station_id":"ce4bhmh2rcd13ifvqgmg","pricing_plan_id":"cebpf4jnsgd1na2vs0mg"},{"bike_id":"61a3d5d1-9d16-4507-a934-21de523ba06e","system_id":"levelo_inurba_marseille","lat":43.29642,"lon":5.367,"is_reserved":false,"is_disabled":false,"rental_uris":{"android":"levelo://app?vid=61a3d5d1-9d16-4507-a934-21de523ba06e","ios":"levelo://app?vid=61a3d5d1-9d16-4507-a934-21de523ba06e"},"vehicle_type_id":"4","last_reported":1744455999,"current_range_meters":16400,"station_id":"","pricing_plan_id":"cebpf4jnsgd1na2vs0mg"},{"bike_id":"aa438b1d-d7a7-4e42-894b-bd4c92952e34","system_id":"levelo_inurba_marseille","lat":43.29566,"lon":5.37534,"is_reserved":false,"is_disabled":false,"rental_uris":{"android":"levelo://app?vid=aa438b1d-d7a7-4e42-894b-bd4c92952e34","ios":"levelo://app?vid=aa438b1d-d7a7-4e42-894b-bd4c92952e34"},"vehicle_type_id":"4","last_reported":1744455999,"current_range_meters":16400,"station_id":"ce4bgh92rcd13ifvqb50","pricing_plan_id":"cebpf4jnsgd1na2vs0mg"},{"bike_id":"dd179e1f-fc8c-46cf-aaea-a6af413d8d0e","system_id":"levelo_inurba_marseille","lat":43.2958,"lon":5.36741,"is_reserved":false,"is_disabled":false,"rental_uris":{"android":"levelo://app?vid=dd179e1f-fc8c-46cf-aaea-a6af413d8d0e","ios":"levelo://app?vid=dd179e1f-fc8c-46cf-aaea-a6af413d8d0e"},"vehicle_type_id":"4","last_reported":1744455999,"current_range_meters":16400,"station_id":"ce4bgph2rcd13ifvqc2g","pricing_plan_id":"cebpf4jnsgd1na2vs0mg"},{"bike_id":"addc1a59-e9b9-443c-9827-4c3d554b9ab7","system_id":"levelo_inurba_marseille","lat":43.24388,"lon":5.37063,"is_reserved":false,"is_disabled":false,"rental_uris":{"android":"levelo://app?vid=addc1a59-e9b9-443c-9827-4c3d554b9ab7","ios":"levelo://app?vid=addc1a59-e9b9-443c-9827-4c3d554b9ab7"},"vehicle_type_id":"4","last_reported":1744455999,"current_range_meters":16400,"station_id":"ce4bhhh2rcd13ifvqfk0","pricing_plan_id":"cebpf4jnsgd1na2vs0mg"},{"bike_id":"f32bf186-ae3b-4132-867b-140ebf13340b","system_id":"levelo_inurba_marseille","lat":43.29062,"lon":5.3717,"is_reserved":false,"is_disabled":false,"rental_uris":{"android":"levelo://app?vid=f32bf186-ae3b-4132-867b-140ebf13340b","ios":"levelo://app?vid=f32bf186-ae3b-4132-867b-140ebf13340b"},"vehicle_type_id":"4","last_reported":1744455999,"current_range_meters":16400,"station_id":"ce4bh5p2rcd13ifvqe4g","pricing_plan_id":"cebpf4jnsgd1na2vs0mg"},{"bike_id":"534b5b81-01fb-48e1-8332-0d13dec35f23","system_id":"levelo_inurba_marseille","lat":43.323365,"lon":5.40624,"is_reserved":false,"is_disabled":false,"rental_uris":{"android":"levelo://app?vid=534b5b81-01fb-48e1-8332-0d13dec35f23","ios":"levelo://app?vid=534b5b81-01fb-48e1-8332-0d13dec35f23"},"vehicle_type_id":"4","last_reported":1744455999,"current_range_meters":16800,"station_id":"ce4bhq92rcd13ifvqhjg","pricing_plan_id":"cebpf4jnsgd1na2vs0mg"},{"bike_id":"dc0fc37b-245c-4040-8686-f32b8a543409","system_id":"levelo_inurba_marseille","lat":43.24395,"lon":5.3705,"is_reserved":false,"is_disabled":false,"rental_uris":{"android":"levelo://app?vid=dc0fc37b-245c-4040-8686-f32b8a543409","ios":"levelo://app?vid=dc0fc37b-245c-4040-8686-f32b8a543409"},"vehicle_type_id":"4","last_reported":1744455999,"current_range_meters":16800,"station_id":"ce4bhhh2rcd13ifvqfk0","pricing_plan_id":"cebpf4jnsgd1na2vs0mg"},{"bike_id":"50c0d529-3669-40dd-9f1c-ac7ce910677c","system_id":"levelo_inurba_marseille","lat":43.28856,"lon":5.35839,"is_reserved":false,"is_disabled":false,"rental_uris":{"android":"levelo://app?vid=50c0d529-3669-40dd-9f1c-ac7ce910677c","ios":"levelo://app?vid=50c0d529-3669-40dd-9f1c-ac7ce910677c"},"vehicle_type_id":"4","last_reported":1744455999,"current_range_meters":16800,"station_id":"ce4bhb12rcd13ifvqem0","pricing_plan_id":"cebpf4jnsgd1na2vs0mg"},{"bike_id":"0663e361-5ecb-4ca0-bfaa-c01a2f66fe21","system_id":"levelo_inurba_marseille","lat":43.319961,"lon":5.38138,"is_reserved":false,"is_disabled":false,"rental_uris":{"android":"levelo://app?vid=0663e361-5ecb-4ca0-bfaa-c01a2f66fe21","ios":"levelo://app?vid=0663e361-5ecb-4ca0-bfaa-c01a2f66fe21"},"vehicle_type_id":"4","last_reported":1744455999,"current_range_meters":16800,"station_id":"ce4bhr12rcd13ifvqhpg","pricing_plan_id":"cebpf4jnsgd1na2vs0mg"},{"bike_id":"020e9999-d552-48d0-ae5f-b725af0dbea2","system_id":"levelo_inurba_marseille","lat":43.29917,"lon":5.43767,"is_reserved":false,"is_disabled":false,"rental_uris":{"android":"levelo://app?vid=020e9999-d552-48d0-ae5f-b725af0dbea2","ios":"levelo://app?vid=020e9999-d552-48d0-ae5f-b725af0dbea2"},"vehicle_type_id":"4","last_reported":1744455999,"current_range_meters":16800,"station_id":"","pricing_plan_id":"cebpf4jnsgd1na2vs0mg"},{"bike_id":"fa590cec-a941-42e7-ac76-ccaa4b18438f","system_id":"levelo_inurba_marseille","lat":43.273712,"lon":5.362677,"is_reserved":false,"is_disabled":false,"rental_uris":{"android":"levelo://app?vid=fa590cec-a941-42e7-ac76-ccaa4b18438f","ios":"levelo://app?vid=fa590cec-a941-42e7-ac76-ccaa4b18438f"},"vehicle_type_id":"4","last_reported":1744455999,"current_range_meters":16800,"station_id":"ce4bhbh2rcd13ifvqeo0","pricing_plan_id":"cebpf4jnsgd1na2vs0mg"},{"bike_id":"469d7df9-253b-4e92-aa13-40bf8ef53df8","system_id":"levelo_inurba_marseille","lat":43.23964,"lon":5.36629,"is_reserved":false,"is_disabled":false,"rental_uris":{"android":"levelo://app?vid=469d7df9-253b-4e92-aa13-40bf8ef53df8","ios":"levelo://app?vid=469d7df9-253b-4e92-aa13-40bf8ef53df8"},"vehicle_type_id":"4","last_reported":1744455999,"current_range_meters":16800,"station_id":"ce4bhi12rcd13ifvqfp0","pricing_plan_id":"cebpf4jnsgd1na2vs0mg"},{"bike_id":"70f5a553-8ab3-42db-b92b-970160628fdd","system_id":"levelo_inurba_marseille","lat":43.292584,"lon":5.37639,"is_reserved":false,"is_disabled":false,"rental_uris":{"android":"levelo://app?vid=70f5a553-8ab3-42db-b92b-970160628fdd","ios":"levelo://app?vid=70f5a553-8ab3-42db-b92b-970160628fdd"},"vehicle_type_id":"4","last_reported":1744455999,"current_range_meters":16800,"station_id":"ce4bh692rcd13ifvqea0","pricing_plan_id":"cebpf4jnsgd1na2vs0mg"},{"bike_id":"cbd077b7-792f-43f2-b760-f4d40dbf06b5","system_id":"levelo_inurba_marseille","lat":43.30004,"lon":5.36465,"is_reserved":false,"is_disabled":false,"rental_uris":{"android":"levelo://app?vid=cbd077b7-792f-43f2-b760-f4d40dbf06b5","ios":"levelo://app?vid=cbd077b7-792f-43f2-b760-f4d40dbf06b5"},"vehicle_type_id":"4","last_reported":1744455999,"current_range_meters":16800,"station_id":"ce4bgm92rcd13ifvqbr0","pricing_plan_id":"cebpf4jnsgd1na2vs0mg"},{"bike_id":"53d31960-3af0-43a8-879f-4ea2ff40580e","system_id":"levelo_inurba_marseille","lat":43.29536,"lon":5.37512,"is_reserved":false,"is_disabled":false,"rental_uris":{"android":"levelo://app?vid=53d31960-3af0-43a8-879f-4ea2ff40580e","ios":"levelo://app?vid=53d31960-3af0-43a8-879f-4ea2ff40580e"},"vehicle_type_id":"4","last_reported":1744455999,"current_range_meters":16800,"station_id":"ce4bgkp2rcd13ifvqbmg","pricing_plan_id":"cebpf4jnsgd1na2vs0mg"},{"bike_id":"50a87c49-884f-47a4-b11a-fe032a5286af","system_id":"levelo_inurba_marseille","lat":43.301478,"lon":5.38091,"is_reserved":false,"is_disabled":false,"rental_uris":{"android":"levelo://app?vid=50a87c49-884f-47a4-b11a-fe032a5286af","ios":"levelo://app?vid=50a87c49-884f-47a4-b11a-fe032a5286af"},"vehicle_type_id":"4","last_reported":1744455999,"current_range_meters":16800,"station_id":"ce4bgjp2rcd13ifvqbh0","pricing_plan_id":"cebpf4jnsgd1na2vs0mg"},{"bike_id":"bf52a88a-be66-4d95-ba09-0da417628216","system_id":"levelo_inurba_marseille","lat":43.2119,"lon":5.35072,"is_reserved":false,"is_disabled":false,"rental_uris":{"android":"levelo://app?vid=bf52a88a-be66-4d95-ba09-0da417628216","ios":"levelo://app?vid=bf52a88a-be66-4d95-ba09-0da417628216"},"vehicle_type_id":"4","last_reported":1744455999,"current_range_meters":17200,"station_id":"ce4bgih2rcd13ifvqba0","pricing_plan_id":"cebpf4jnsgd1na2vs0mg"},{"bike_id":"fbe8a61e-5c81-4245-b1e4-25758adf9c5d","system_id":"levelo_inurba_marseille","lat":43.29566,"lon":5.39974,"is_reserved":false,"is_disabled":false,"rental_uris":{"android":"levelo://app?vid=fbe8a61e-5c81-4245-b1e4-25758adf9c5d","ios":"levelo://app?vid=fbe8a61e-5c81-4245-b1e4-25758adf9c5d"},"vehicle_type_id":"4","last_reported":1744455999,"current_range_meters":17200,"station_id":"ce4bh312rcd13ifvqdj0","pricing_plan_id":"cebpf4jnsgd1na2vs0mg"},{"bike_id":"b55dd5e7-54b2-4035-b945-7b626dd7afc7","system_id":"levelo_inurba_marseille","lat":43.275356,"lon":5.409303,"is_reserved":false,"is_disabled":false,"rental_uris":{"android":"levelo://app?vid=b55dd5e7-54b2-4035-b945-7b626dd7afc7","ios":"levelo://app?vid=b55dd5e7-54b2-4035-b945-7b626dd7afc7"},"vehicle_type_id":"4","last_reported":1744455999,"current_range_meters":17200,"station_id":"","pricing_plan_id":"cebpf4jnsgd1na2vs0mg"},{"bike_id":"14c26d4b-3416-4f32-94a4-efda3d4e77c7","system_id":"levelo_inurba_marseille","lat":43.2319,"lon":5.35558,"is_reserved":false,"is_disabled":false,"rental_uris":{"android":"levelo://app?vid=14c26d4b-3416-4f32-94a4-efda3d4e77c7","ios":"levelo://app?vid=14c26d4b-3416-4f32-94a4-efda3d4e77c7"},"vehicle_type_id":"4","last_reported":1744455999,"current_range_meters":17200,"station_id":"ce4bhu92rcd13ifvqi70","pricing_plan_id":"cebpf4jnsgd1na2vs0mg"},{"bike_id":"a98cbd00-0248-4216-820f-0d0f18579aa2","system_id":"levelo_inurba_marseille","lat":43.3211,"lon":5.36769,"is_reserved":false,"is_disabled":false,"rental_uris":{"android":"levelo://app?vid=a98cbd00-0248-4216-820f-0d0f18579aa2","ios":"levelo://app?vid=a98cbd00-0248-4216-820f-0d0f18579aa2"},"vehicle_type_id":"4","last_reported":1744455999,"current_range_meters":17200,"station_id":"ce4bhrh2rcd13ifvqhug","pricing_plan_id":"cebpf4jnsgd1na2vs0mg"},{"bike_id":"8a8a48df-1fae-40dc-817a-265d8491cc57","system_id":"levelo_inurba_marseille","lat":43.30133,"lon":5.37423,"is_reserved":false,"is_disabled":false,"rental_uris":{"android":"levelo://app?vid=8a8a48df-1fae-40dc-817a-265d8491cc57","ios":"levelo://app?vid=8a8a48df-1fae-40dc-817a-265d8491cc57"},"vehicle_type_id":"4","last_reported":1744455999,"current_range_meters":17200,"station_id":"ce4bgs92rcd13ifvqcc0","pricing_plan_id":"cebpf4jnsgd1na2vs0mg"},{"bike_id":"6d0562c4-300d-4db9-9d3f-72ab2a533640","system_id":"levelo_inurba_marseille","lat":43.28426,"lon":5.34978,"is_reserved":false,"is_disabled":false,"rental_uris":{"android":"levelo://app?vid=6d0562c4-300d-4db9-9d3f-72ab2a533640","ios":"levelo://app?vid=6d0562c4-300d-4db9-9d3f-72ab2a533640"},"vehicle_type_id":"4","last_reported":1744455999,"current_range_meters":17600,"station_id":"ce4bhbh2rcd13ifvqepg","pricing_plan_id":"cebpf4jnsgd1na2vs0mg"},{"bike_id":"0fa7f449-17ce-4780-8fe2-bcff6d91bd91","system_id":"levelo_inurba_marseille","lat":43.292257,"lon":5.36059,"is_reserved":false,"is_disabled":false,"rental_uris":{"android":"levelo://app?vid=0fa7f449-17ce-4780-8fe2-bcff6d91bd91","ios":"levelo://app?vid=0fa7f449-17ce-4780-8fe2-bcff6d91bd91"},"vehicle_type_id":"4","last_reported":1744455999,"current_range_meters":17600,"station_id":"ce4bhbh2rcd13ifvqeqg","pricing_plan_id":"cebpf4jnsgd1na2vs0mg"},{"bike_id":"982bb1bc-457f-43d7-ae21-85035c856353","system_id":"levelo_inurba_marseille","lat":43.22491,"lon":5.34779,"is_reserved":false,"is_disabled":false,"rental_uris":{"android":"levelo://app?vid=982bb1bc-457f-43d7-ae21-85035c856353","ios":"levelo://app?vid=982bb1bc-457f-43d7-ae21-85035c856353"},"vehicle_type_id":"4","last_reported":1744455999,"current_range_meters":17600,"station_id":"st_cvj5dfep6f1abm77gieg","pricing_plan_id":"cebpf4jnsgd1na2vs0mg"},{"bike_id":"0a33731b-72e0-489b-91d8-2fd1f1259876","system_id":"levelo_inurba_marseille","lat":43.23189,"lon":5.39978,"is_reserved":false,"is_disabled":false,"rental_uris":{"android":"levelo://app?vid=0a33731b-72e0-489b-91d8-2fd1f1259876","ios":"levelo://app?vid=0a33731b-72e0-489b-91d8-2fd1f1259876"},"vehicle_type_id":"4","last_reported":1744455999,"current_range_meters":17600,"station_id":"ce4bhn12rcd13ifvqgqg","pricing_plan_id":"cebpf4jnsgd1na2vs0mg"},{"bike_id":"db9cdcec-b5ee-409b-adf3-2fb9b83088c4","system_id":"levelo_inurba_marseille","lat":43.30934,"lon":5.37428,"is_reserved":false,"is_disabled":false,"rental_uris":{"android":"levelo://app?vid=db9cdcec-b5ee-409b-adf3-2fb9b83088c4","ios":"levelo://app?vid=db9cdcec-b5ee-409b-adf3-2fb9b83088c4"},"vehicle_type_id":"4","last_reported":1744455999,"current_range_meters":17600,"station_id":"","pricing_plan_id":"cebpf4jnsgd1na2vs0mg"},{"bike_id":"a139e394-5abe-4a4e-955b-987664718cf3","system_id":"levelo_inurba_marseille","lat":43.24806,"lon":5.37458,"is_reserved":false,"is_disabled":false,"rental_uris":{"android":"levelo://app?vid=a139e394-5abe-4a4e-955b-987664718cf3","ios":"levelo://app?vid=a139e394-5abe-4a4e-955b-987664718cf3"},"vehicle_type_id":"4","last_reported":1744455999,"current_range_meters":17600,"station_id":"ce4bhgh2rcd13ifvqfb0","pricing_plan_id":"cebpf4jnsgd1na2vs0mg"},{"bike_id":"d8b9884b-4022-4710-9f87-50e0dbfd421d","system_id":"levelo_inurba_marseille","lat":43.241646,"lon":5.363989,"is_reserved":false,"is_disabled":false,"rental_uris":{"android":"levelo://app?vid=d8b9884b-4022-4710-9f87-50e0dbfd421d","ios":"levelo://app?vid=d8b9884b-4022-4710-9f87-50e0dbfd421d"},"vehicle_type_id":"4","last_reported":1744455999,"current_range_meters":17600,"station_id":"cpo36qri1sfpv3e86is0","pricing_plan_id":"cebpf4jnsgd1na2vs0mg"},{"bike_id":"8318ad76-d733-45be-b379-0e5b10b83d77","system_id":"levelo_inurba_marseille","lat":43.30154,"lon":5.38093,"is_reserved":false,"is_disabled":false,"rental_uris":{"android":"levelo://app?vid=8318ad76-d733-45be-b379-0e5b10b83d77","ios":"levelo://app?vid=8318ad76-d733-45be-b379-0e5b10b83d77"},"vehicle_type_id":"4","last_reported":1744455999,"current_range_meters":17600,"station_id":"ce4bgjp2rcd13ifvqbh0","pricing_plan_id":"cebpf4jnsgd1na2vs0mg"},{"bike_id":"45daacae-38ed-41a5-86f1-76d9939808f2","system_id":"levelo_inurba_marseille","lat":43.24168,"lon":5.36396,"is_reserved":false,"is_disabled":false,"rental_uris":{"android":"levelo://app?vid=45daacae-38ed-41a5-86f1-76d9939808f2","ios":"levelo://app?vid=45daacae-38ed-41a5-86f1-76d9939808f2"},"vehicle_type_id":"4","last_reported":1744455999,"current_range_meters":17600,"station_id":"cpo36qri1sfpv3e86is0","pricing_plan_id":"cebpf4jnsgd1na2vs0mg"},{"bike_id":"3de99220-b861-4c71-9e3f-612760824faa","system_id":"levelo_inurba_marseille","lat":43.21194,"lon":5.35074,"is_reserved":false,"is_disabled":false,"rental_uris":{"android":"levelo://app?vid=3de99220-b861-4c71-9e3f-612760824faa","ios":"levelo://app?vid=3de99220-b861-4c71-9e3f-612760824faa"},"vehicle_type_id":"4","last_reported":1744455999,"current_range_meters":17600,"station_id":"st_cvj6sg6p6f1abm77japg","pricing_plan_id":"cebpf4jnsgd1na2vs0mg"},{"bike_id":"5591936e-ca63-41c7-89f3-9c9493c86f89","system_id":"levelo_inurba_marseille","lat":43.24159,"lon":5.36378,"is_reserved":false,"is_disabled":false,"rental_uris":{"android":"levelo://app?vid=5591936e-ca63-41c7-89f3-9c9493c86f89","ios":"levelo://app?vid=5591936e-ca63-41c7-89f3-9c9493c86f89"},"vehicle_type_id":"4","last_reported":1744455999,"current_range_meters":17600,"station_id":"cpo36qri1sfpv3e86is0","pricing_plan_id":"cebpf4jnsgd1na2vs0mg"},{"bike_id":"532a3287-f1cb-4ae4-8810-dc05a520a11f","system_id":"levelo_inurba_marseille","lat":43.295299,"lon":5.385399,"is_reserved":false,"is_disabled":false,"rental_uris":{"android":"levelo://app?vid=532a3287-f1cb-4ae4-8810-dc05a520a11f","ios":"levelo://app?vid=532a3287-f1cb-4ae4-8810-dc05a520a11f"},"vehicle_type_id":"4","last_reported":1744455999,"current_range_meters":17600,"station_id":"ce4bgih2rcd13ifvqba0","pricing_plan_id":"cebpf4jnsgd1na2vs0mg"},{"bike_id":"bfcd10e7-4e8f-4d52-90d4-08214f8821c0","system_id":"levelo_inurba_marseille","lat":43.29205,"lon":5.39329,"is_reserved":false,"is_disabled":false,"rental_uris":{"android":"levelo://app?vid=bfcd10e7-4e8f-4d52-90d4-08214f8821c0","ios":"levelo://app?vid=bfcd10e7-4e8f-4d52-90d4-08214f8821c0"},"vehicle_type_id":"4","last_reported":1744455999,"current_range_meters":18000,"station_id":"ce4bh192rcd13ifvqdd0","pricing_plan_id":"cebpf4jnsgd1na2vs0mg"},{"bike_id":"e0379b84-8c97-433c-8fb4-7e52c38636d6","system_id":"levelo_inurba_marseille","lat":43.26585,"lon":5.39025,"is_reserved":false,"is_disabled":false,"rental_uris":{"android":"levelo://app?vid=e0379b84-8c97-433c-8fb4-7e52c38636d6","ios":"levelo://app?vid=e0379b84-8c97-433c-8fb4-7e52c38636d6"},"vehicle_type_id":"4","last_reported":1744455999,"current_range_meters":18000,"station_id":"ce4bhe12rcd13ifvqf30","pricing_plan_id":"cebpf4jnsgd1na2vs0mg"},{"bike_id":"1f726f50-ffb2-45e3-bf8e-2079c081b710","system_id":"levelo_inurba_marseille","lat":43.23174,"lon":5.40012,"is_reserved":false,"is_disabled":false,"rental_uris":{"android":"levelo://app?vid=1f726f50-ffb2-45e3-bf8e-2079c081b710","ios":"levelo://app?vid=1f726f50-ffb2-45e3-bf8e-2079c081b710"},"vehicle_type_id":"4","last_reported":1744455999,"current_range_meters":18000,"station_id":"ce4bhn12rcd13ifvqgqg","pricing_plan_id":"cebpf4jnsgd1na2vs0mg"},{"bike_id":"f5e85801-9ad6-48c0-8047-77b813aff1e4","system_id":"levelo_inurba_marseille","lat":43.30252,"lon":5.40073,"is_reserved":false,"is_disabled":false,"rental_uris":{"android":"levelo://app?vid=f5e85801-9ad6-48c0-8047-77b813aff1e4","ios":"levelo://app?vid=f5e85801-9ad6-48c0-8047-77b813aff1e4"},"vehicle_type_id":"4","last_reported":1744455999,"current_range_meters":18000,"station_id":"ce4bgvh2rcd13ifvqcs0","pricing_plan_id":"cebpf4jnsgd1na2vs0mg"},{"bike_id":"95e59f1f-4d59-4266-8b3f-582f63a06ec8","system_id":"levelo_inurba_marseille","lat":43.26123,"lon":5.41479,"is_reserved":false,"is_disabled":false,"rental_uris":{"android":"levelo://app?vid=95e59f1f-4d59-4266-8b3f-582f63a06ec8","ios":"levelo://app?vid=95e59f1f-4d59-4266-8b3f-582f63a06ec8"},"vehicle_type_id":"4","last_reported":1744455999,"current_range_meters":18000,"station_id":"","pricing_plan_id":"cebpf4jnsgd1na2vs0mg"},{"bike_id":"21127257-eff7-474d-8ad8-e3337a0a4ddf","system_id":"levelo_inurba_marseille","lat":43.29838,"lon":5.36084,"is_reserved":false,"is_disabled":false,"rental_uris":{"android":"levelo://app?vid=21127257-eff7-474d-8ad8-e3337a0a4ddf","ios":"levelo://app?vid=21127257-eff7-474d-8ad8-e3337a0a4ddf"},"vehicle_type_id":"4","last_reported":1744455999,"current_range_meters":18000,"station_id":"","pricing_plan_id":"cebpf4jnsgd1na2vs0mg"},{"bike_id":"c10c42d4-f2da-4e2c-829f-37d4eb48f310","system_id":"levelo_inurba_marseille","lat":43.30296,"lon":5.39194,"is_reserved":false,"is_disabled":false,"rental_uris":{"android":"levelo://app?vid=c10c42d4-f2da-4e2c-829f-37d4eb48f310","ios":"levelo://app?vid=c10c42d4-f2da-4e2c-829f-37d4eb48f310"},"vehicle_type_id":"4","last_reported":1744455999,"current_range_meters":18000,"station_id":"ce4bgkh2rcd13ifvqbk0","pricing_plan_id":"cebpf4jnsgd1na2vs0mg"},{"bike_id":"d0462533-5b8b-434b-a73b-ff6b138a013c","system_id":"levelo_inurba_marseille","lat":43.29301,"lon":5.37465,"is_reserved":false,"is_disabled":false,"rental_uris":{"android":"levelo://app?vid=d0462533-5b8b-434b-a73b-ff6b138a013c","ios":"levelo://app?vid=d0462533-5b8b-434b-a73b-ff6b138a013c"},"vehicle_type_id":"4","last_reported":1744455999,"current_range_meters":18000,"station_id":"ce4bgi12rcd13ifvqb70","pricing_plan_id":"cebpf4jnsgd1na2vs0mg"},{"bike_id":"b3134959-953f-452d-9fe5-d87502231946","system_id":"levelo_inurba_marseille","lat":43.23154,"lon":5.43707,"is_reserved":false,"is_disabled":false,"rental_uris":{"android":"levelo://app?vid=b3134959-953f-452d-9fe5-d87502231946","ios":"levelo://app?vid=b3134959-953f-452d-9fe5-d87502231946"},"vehicle_type_id":"4","last_reported":1744455999,"current_range_meters":18800,"station_id":"ce4bhmp2rcd13ifvqgog","pricing_plan_id":"cebpf4jnsgd1na2vs0mg"},{"bike_id":"ad31b6f9-d37e-41c0-8b5e-f8883a60e39c","system_id":"levelo_inurba_marseille","lat":43.30243,"lon":5.40059,"is_reserved":false,"is_disabled":false,"rental_uris":{"android":"levelo://app?vid=ad31b6f9-d37e-41c0-8b5e-f8883a60e39c","ios":"levelo://app?vid=ad31b6f9-d37e-41c0-8b5e-f8883a60e39c"},"vehicle_type_id":"4","last_reported":1744455999,"current_range_meters":18800,"station_id":"ce4bgvh2rcd13ifvqcs0","pricing_plan_id":"cebpf4jnsgd1na2vs0mg"},{"bike_id":"239b457a-7da8-49b2-9197-3c47133b2b7d","system_id":"levelo_inurba_marseille","lat":43.29049,"lon":5.39963,"is_reserved":false,"is_disabled":true,"rental_uris":{"android":"levelo://app?vid=239b457a-7da8-49b2-9197-3c47133b2b7d","ios":"levelo://app?vid=239b457a-7da8-49b2-9197-3c47133b2b7d"},"vehicle_type_id":"4","last_reported":1744455999,"current_range_meters":18800,"station_id":"ce4bh392rcd13ifvqdm0","pricing_plan_id":"cebpf4jnsgd1na2vs0mg"},{"bike_id":"6d01f060-55b8-4ea7-b17e-6c464ffb58e2","system_id":"levelo_inurba_marseille","lat":43.278261,"lon":5.407045,"is_reserved":false,"is_disabled":false,"rental_uris":{"android":"levelo://app?vid=6d01f060-55b8-4ea7-b17e-6c464ffb58e2","ios":"levelo://app?vid=6d01f060-55b8-4ea7-b17e-6c464ffb58e2"},"vehicle_type_id":"4","last_reported":1744455999,"current_range_meters":18800,"station_id":"ce4bhnh2rcd13ifvqgtg","pricing_plan_id":"cebpf4jnsgd1na2vs0mg"},{"bike_id":"38cb3a38-466f-4ebe-9b3b-d084f4b8d92b","system_id":"levelo_inurba_marseille","lat":43.28406,"lon":5.34997,"is_reserved":false,"is_disabled":false,"rental_uris":{"android":"levelo://app?vid=38cb3a38-466f-4ebe-9b3b-d084f4b8d92b","ios":"levelo://app?vid=38cb3a38-466f-4ebe-9b3b-d084f4b8d92b"},"vehicle_type_id":"4","last_reported":1744455999,"current_range_meters":19200,"station_id":"ce4bhbh2rcd13ifvqepg","pricing_plan_id":"cebpf4jnsgd1na2vs0mg"},{"bike_id":"fd9ea93e-5a71-4e29-b7b6-c21d70e66299","system_id":"levelo_inurba_marseille","lat":43.24166,"lon":5.36401,"is_reserved":false,"is_disabled":false,"rental_uris":{"android":"levelo://app?vid=fd9ea93e-5a71-4e29-b7b6-c21d70e66299","ios":"levelo://app?vid=fd9ea93e-5a71-4e29-b7b6-c21d70e66299"},"vehicle_type_id":"4","last_reported":1744455999,"current_range_meters":19200,"station_id":"cpo36qri1sfpv3e86is0","pricing_plan_id":"cebpf4jnsgd1na2vs0mg"},{"bike_id":"c08228d3-30a4-4780-886e-613f3840ceae","system_id":"levelo_inurba_marseille","lat":43.29797,"lon":5.38091,"is_reserved":false,"is_disabled":false,"rental_uris":{"android":"levelo://app?vid=c08228d3-30a4-4780-886e-613f3840ceae","ios":"levelo://app?vid=c08228d3-30a4-4780-886e-613f3840ceae"},"vehicle_type_id":"4","last_reported":1744455999,"current_range_meters":19200,"station_id":"ce4bgip2rcd13ifvqbb0","pricing_plan_id":"cebpf4jnsgd1na2vs0mg"},{"bike_id":"091029a8-8989-4018-b3db-1765c6585e71","system_id":"levelo_inurba_marseille","lat":43.291903,"lon":5.393208,"is_reserved":false,"is_disabled":false,"rental_uris":{"android":"levelo://app?vid=091029a8-8989-4018-b3db-1765c6585e71","ios":"levelo://app?vid=091029a8-8989-4018-b3db-1765c6585e71"},"vehicle_type_id":"4","last_reported":1744455999,"current_range_meters":18800,"station_id":"ce4bh192rcd13ifvqdd0","pricing_plan_id":"cebpf4jnsgd1na2vs0mg"},{"bike_id":"a61b1136-d761-40e5-9c8e-256951d60d81","system_id":"levelo_inurba_marseille","lat":43.30355,"lon":5.41875,"is_reserved":false,"is_disabled":false,"rental_uris":{"android":"levelo://app?vid=a61b1136-d761-40e5-9c8e-256951d60d81","ios":"levelo://app?vid=a61b1136-d761-40e5-9c8e-256951d60d81"},"vehicle_type_id":"4","last_reported":1744455999,"current_range_meters":19200,"station_id":"ce4bhop2rcd13ifvqh7g","pricing_plan_id":"cebpf4jnsgd1na2vs0mg"},{"bike_id":"ae868823-f658-40b6-b00f-1c4526bcbfcd","system_id":"levelo_inurba_marseille","lat":43.230723,"lon":5.354936,"is_reserved":false,"is_disabled":false,"rental_uris":{"android":"levelo://app?vid=ae868823-f658-40b6-b00f-1c4526bcbfcd","ios":"levelo://app?vid=ae868823-f658-40b6-b00f-1c4526bcbfcd"},"vehicle_type_id":"4","last_reported":1744455999,"current_range_meters":19200,"station_id":"cpo3342slgdg3j2ifvpg","pricing_plan_id":"cebpf4jnsgd1na2vs0mg"},{"bike_id":"44d417ad-7bb9-4acd-8556-021486695764","system_id":"levelo_inurba_marseille","lat":43.26211,"lon":5.37911,"is_reserved":false,"is_disabled":false,"rental_uris":{"android":"levelo://app?vid=44d417ad-7bb9-4acd-8556-021486695764","ios":"levelo://app?vid=44d417ad-7bb9-4acd-8556-021486695764"},"vehicle_type_id":"4","last_reported":1744455999,"current_range_meters":19200,"station_id":"ce4bhjp2rcd13ifvqg90","pricing_plan_id":"cebpf4jnsgd1na2vs0mg"},{"bike_id":"1440d6dd-c933-4138-92e7-dd20950355d8","system_id":"levelo_inurba_marseille","lat":43.25583,"lon":5.38235,"is_reserved":false,"is_disabled":false,"rental_uris":{"android":"levelo://app?vid=1440d6dd-c933-4138-92e7-dd20950355d8","ios":"levelo://app?vid=1440d6dd-c933-4138-92e7-dd20950355d8"},"vehicle_type_id":"4","last_reported":1744455999,"current_range_meters":19200,"station_id":"ce4bhih2rcd13ifvqfs0","pricing_plan_id":"cebpf4jnsgd1na2vs0mg"},{"bike_id":"bb66751e-77a3-4c51-b80f-41b3b603f1b5","system_id":"levelo_inurba_marseille","lat":43.21189,"lon":5.35068,"is_reserved":false,"is_disabled":false,"rental_uris":{"android":"levelo://app?vid=bb66751e-77a3-4c51-b80f-41b3b603f1b5","ios":"levelo://app?vid=bb66751e-77a3-4c51-b80f-41b3b603f1b5"},"vehicle_type_id":"4","last_reported":1744455999,"current_range_meters":19200,"station_id":"st_cvj6sg6p6f1abm77japg","pricing_plan_id":"cebpf4jnsgd1na2vs0mg"},{"bike_id":"ea438c7b-9e82-4c86-8a05-02931e5619ce","system_id":"levelo_inurba_marseille","lat":43.28919,"lon":5.38395,"is_reserved":false,"is_disabled":true,"rental_uris":{"android":"levelo://app?vid=ea438c7b-9e82-4c86-8a05-02931e5619ce","ios":"levelo://app?vid=ea438c7b-9e82-4c86-8a05-02931e5619ce"},"vehicle_type_id":"4","last_reported":1744455999,"current_range_meters":19600,"station_id":"ce4bh612rcd13ifvqe6g","pricing_plan_id":"cebpf4jnsgd1na2vs0mg"},{"bike_id":"1fafa723-2705-4f1f-b8de-d4bb683d3c2e","system_id":"levelo_inurba_marseille","lat":43.23189,"lon":5.39984,"is_reserved":false,"is_disabled":false,"rental_uris":{"android":"levelo://app?vid=1fafa723-2705-4f1f-b8de-d4bb683d3c2e","ios":"levelo://app?vid=1fafa723-2705-4f1f-b8de-d4bb683d3c2e"},"vehicle_type_id":"4","last_reported":1744455999,"current_range_meters":19600,"station_id":"ce4bhn12rcd13ifvqgqg","pricing_plan_id":"cebpf4jnsgd1na2vs0mg"},{"bike_id":"f53ccaa3-d62a-4ba3-8405-2b6e6325b439","system_id":"levelo_inurba_marseille","lat":43.290321,"lon":5.399659,"is_reserved":false,"is_disabled":false,"rental_uris":{"android":"levelo://app?vid=f53ccaa3-d62a-4ba3-8405-2b6e6325b439","ios":"levelo://app?vid=f53ccaa3-d62a-4ba3-8405-2b6e6325b439"},"vehicle_type_id":"4","last_reported":1744455999,"current_range_meters":19600,"station_id":"ce4bh012rcd13ifvqd10","pricing_plan_id":"cebpf4jnsgd1na2vs0mg"},{"bike_id":"5593d21d-2bf6-4989-8e80-e98d90ffe452","system_id":"levelo_inurba_marseille","lat":43.21191,"lon":5.35078,"is_reserved":false,"is_disabled":false,"rental_uris":{"android":"levelo://app?vid=5593d21d-2bf6-4989-8e80-e98d90ffe452","ios":"levelo://app?vid=5593d21d-2bf6-4989-8e80-e98d90ffe452"},"vehicle_type_id":"4","last_reported":1744455999,"current_range_meters":19600,"station_id":"st_cvj6sg6p6f1abm77japg","pricing_plan_id":"cebpf4jnsgd1na2vs0mg"},{"bike_id":"5be95cb3-4c8c-4c50-933f-e11c60500d67","system_id":"levelo_inurba_marseille","lat":43.27224,"lon":5.40985,"is_reserved":false,"is_disabled":false,"rental_uris":{"android":"levelo://app?vid=5be95cb3-4c8c-4c50-933f-e11c60500d67","ios":"levelo://app?vid=5be95cb3-4c8c-4c50-933f-e11c60500d67"},"vehicle_type_id":"4","last_reported":1744455999,"current_range_meters":20000,"station_id":"","pricing_plan_id":"cebpf4jnsgd1na2vs0mg"},{"bike_id":"951b9aea-0821-4446-a597-697ac501e79f","system_id":"levelo_inurba_marseille","lat":43.309515,"lon":5.391501,"is_reserved":false,"is_disabled":false,"rental_uris":{"android":"levelo://app?vid=951b9aea-0821-4446-a597-697ac501e79f","ios":"levelo://app?vid=951b9aea-0821-4446-a597-697ac501e79f"},"vehicle_type_id":"4","last_reported":1744455999,"current_range_meters":20000,"station_id":"ce4bh612rcd13ifvqe6g","pricing_plan_id":"cebpf4jnsgd1na2vs0mg"},{"bike_id":"dac068d5-a0e2-48ee-8381-44f640918a77","system_id":"levelo_inurba_marseille","lat":43.29804,"lon":5.38089,"is_reserved":false,"is_disabled":false,"rental_uris":{"android":"levelo://app?vid=dac068d5-a0e2-48ee-8381-44f640918a77","ios":"levelo://app?vid=dac068d5-a0e2-48ee-8381-44f640918a77"},"vehicle_type_id":"4","last_reported":1744455999,"current_range_meters":20000,"station_id":"ce4bgip2rcd13ifvqbb0","pricing_plan_id":"cebpf4jnsgd1na2vs0mg"},{"bike_id":"816b7974-def7-4d8b-8dc4-54c72f33a581","system_id":"levelo_inurba_marseille","lat":43.296069,"lon":5.378327,"is_reserved":false,"is_disabled":false,"rental_uris":{"android":"levelo://app?vid=816b7974-def7-4d8b-8dc4-54c72f33a581","ios":"levelo://app?vid=816b7974-def7-4d8b-8dc4-54c72f33a581"},"vehicle_type_id":"4","last_reported":1744455999,"current_range_meters":20000,"station_id":"ce4bhh12rcd13ifvqfg0","pricing_plan_id":"cebpf4jnsgd1na2vs0mg"},{"bike_id":"5e36360b-37e3-4095-9547-03e220c2390b","system_id":"levelo_inurba_marseille","lat":43.24385,"lon":5.37055,"is_reserved":false,"is_disabled":false,"rental_uris":{"android":"levelo://app?vid=5e36360b-37e3-4095-9547-03e220c2390b","ios":"levelo://app?vid=5e36360b-37e3-4095-9547-03e220c2390b"},"vehicle_type_id":"4","last_reported":1744455999,"current_range_meters":20000,"station_id":"ce4bhhh2rcd13ifvqfk0","pricing_plan_id":"cebpf4jnsgd1na2vs0mg"},{"bike_id":"277fc1d4-03e1-470f-b570-2df56541627f","system_id":"levelo_inurba_marseille","lat":43.29607,"lon":5.37734,"is_reserved":false,"is_disabled":false,"rental_uris":{"android":"levelo://app?vid=277fc1d4-03e1-470f-b570-2df56541627f","ios":"levelo://app?vid=277fc1d4-03e1-470f-b570-2df56541627f"},"vehicle_type_id":"4","last_reported":1744455999,"current_range_meters":20000,"station_id":"ce4bgi92rcd13ifvqb90","pricing_plan_id":"cebpf4jnsgd1na2vs0mg"},{"bike_id":"205a676e-388e-4b5d-b5d4-92bca6b76c07","system_id":"levelo_inurba_marseille","lat":43.30865,"lon":5.37423,"is_reserved":false,"is_disabled":false,"rental_uris":{"android":"levelo://app?vid=205a676e-388e-4b5d-b5d4-92bca6b76c07","ios":"levelo://app?vid=205a676e-388e-4b5d-b5d4-92bca6b76c07"},"vehicle_type_id":"4","last_reported":1744455999,"current_range_meters":20000,"station_id":"","pricing_plan_id":"cebpf4jnsgd1na2vs0mg"},{"bike_id":"090c3314-2c67-483f-8fc0-6ceef466387e","system_id":"levelo_inurba_marseille","lat":43.24802,"lon":5.3745,"is_reserved":false,"is_disabled":false,"rental_uris":{"android":"levelo://app?vid=090c3314-2c67-483f-8fc0-6ceef466387e","ios":"levelo://app?vid=090c3314-2c67-483f-8fc0-6ceef466387e"},"vehicle_type_id":"4","last_reported":1744455999,"current_range_meters":20400,"station_id":"ce4bhgh2rcd13ifvqfb0","pricing_plan_id":"cebpf4jnsgd1na2vs0mg"},{"bike_id":"33158557-06d8-4fd8-8c33-a399c86f0153","system_id":"levelo_inurba_marseille","lat":43.24389,"lon":5.37068,"is_reserved":false,"is_disabled":false,"rental_uris":{"android":"levelo://app?vid=33158557-06d8-4fd8-8c33-a399c86f0153","ios":"levelo://app?vid=33158557-06d8-4fd8-8c33-a399c86f0153"},"vehicle_type_id":"4","last_reported":1744455999,"current_range_meters":20400,"station_id":"ce4bhhh2rcd13ifvqfk0","pricing_plan_id":"cebpf4jnsgd1na2vs0mg"},{"bike_id":"416ab036-66d3-49b9-8c0f-4fde75ad4122","system_id":"levelo_inurba_marseille","lat":43.3025,"lon":5.40063,"is_reserved":false,"is_disabled":false,"rental_uris":{"android":"levelo://app?vid=416ab036-66d3-49b9-8c0f-4fde75ad4122","ios":"levelo://app?vid=416ab036-66d3-49b9-8c0f-4fde75ad4122"},"vehicle_type_id":"4","last_reported":1744455999,"current_range_meters":20400,"station_id":"ce4bgvh2rcd13ifvqcs0","pricing_plan_id":"cebpf4jnsgd1na2vs0mg"},{"bike_id":"2a7b679b-17e7-49d2-965b-b8927ce3d016","system_id":"levelo_inurba_marseille","lat":43.23964,"lon":5.36636,"is_reserved":false,"is_disabled":false,"rental_uris":{"android":"levelo://app?vid=2a7b679b-17e7-49d2-965b-b8927ce3d016","ios":"levelo://app?vid=2a7b679b-17e7-49d2-965b-b8927ce3d016"},"vehicle_type_id":"4","last_reported":1744455999,"current_range_meters":20400,"station_id":"ce4bhi12rcd13ifvqfp0","pricing_plan_id":"cebpf4jnsgd1na2vs0mg"},{"bike_id":"05451dda-59ae-45b6-89b4-563fa91930da","system_id":"levelo_inurba_marseille","lat":43.30148,"lon":5.3808,"is_reserved":false,"is_disabled":false,"rental_uris":{"android":"levelo://app?vid=05451dda-59ae-45b6-89b4-563fa91930da","ios":"levelo://app?vid=05451dda-59ae-45b6-89b4-563fa91930da"},"vehicle_type_id":"4","last_reported":1744455999,"current_range_meters":20400,"station_id":"ce4bgjp2rcd13ifvqbh0","pricing_plan_id":"cebpf4jnsgd1na2vs0mg"},{"bike_id":"65041457-5b35-4c47-a162-9668153efc3e","system_id":"levelo_inurba_marseille","lat":43.23194,"lon":5.39999,"is_reserved":false,"is_disabled":false,"rental_uris":{"android":"levelo://app?vid=65041457-5b35-4c47-a162-9668153efc3e","ios":"levelo://app?vid=65041457-5b35-4c47-a162-9668153efc3e"},"vehicle_type_id":"4","last_reported":1744455999,"current_range_meters":20400,"station_id":"ce4bhn12rcd13ifvqgqg","pricing_plan_id":"cebpf4jnsgd1na2vs0mg"},{"bike_id":"da0880b7-8e38-48b2-8819-4d30cff27723","system_id":"levelo_inurba_marseille","lat":43.29617,"lon":5.3771,"is_reserved":false,"is_disabled":false,"rental_uris":{"android":"levelo://app?vid=da0880b7-8e38-48b2-8819-4d30cff27723","ios":"levelo://app?vid=da0880b7-8e38-48b2-8819-4d30cff27723"},"vehicle_type_id":"4","last_reported":1744455999,"current_range_meters":20400,"station_id":"ce4bgi92rcd13ifvqb90","pricing_plan_id":"cebpf4jnsgd1na2vs0mg"},{"bike_id":"b519da54-ef40-4b3b-b91d-15f98a61daa7","system_id":"levelo_inurba_marseille","lat":43.29631,"lon":5.40603,"is_reserved":false,"is_disabled":false,"rental_uris":{"android":"levelo://app?vid=b519da54-ef40-4b3b-b91d-15f98a61daa7","ios":"levelo://app?vid=b519da54-ef40-4b3b-b91d-15f98a61daa7"},"vehicle_type_id":"4","last_reported":1744455999,"current_range_meters":20000,"station_id":"ce4bh0h2rcd13ifvqd60","pricing_plan_id":"cebpf4jnsgd1na2vs0mg"},{"bike_id":"8aadab16-8cf0-4f57-8ee2-b28b85cff218","system_id":"levelo_inurba_marseille","lat":43.23193,"lon":5.39973,"is_reserved":false,"is_disabled":false,"rental_uris":{"android":"levelo://app?vid=8aadab16-8cf0-4f57-8ee2-b28b85cff218","ios":"levelo://app?vid=8aadab16-8cf0-4f57-8ee2-b28b85cff218"},"vehicle_type_id":"4","last_reported":1744455999,"current_range_meters":20800,"station_id":"ce4bhn12rcd13ifvqgqg","pricing_plan_id":"cebpf4jnsgd1na2vs0mg"},{"bike_id":"48a139d8-1254-4c6f-85bd-1967cb1f92a9","system_id":"levelo_inurba_marseille","lat":43.26556,"lon":5.37282,"is_reserved":false,"is_disabled":false,"rental_uris":{"android":"levelo://app?vid=48a139d8-1254-4c6f-85bd-1967cb1f92a9","ios":"levelo://app?vid=48a139d8-1254-4c6f-85bd-1967cb1f92a9"},"vehicle_type_id":"4","last_reported":1744455999,"current_range_meters":20800,"station_id":"ce4bhg12rcd13ifvqf70","pricing_plan_id":"cebpf4jnsgd1na2vs0mg"},{"bike_id":"f373f086-3439-42c6-8e87-fe80eaa95b9d","system_id":"levelo_inurba_marseille","lat":43.28913,"lon":5.36244,"is_reserved":false,"is_disabled":false,"rental_uris":{"android":"levelo://app?vid=f373f086-3439-42c6-8e87-fe80eaa95b9d","ios":"levelo://app?vid=f373f086-3439-42c6-8e87-fe80eaa95b9d"},"vehicle_type_id":"4","last_reported":1744455999,"current_range_meters":20800,"station_id":"","pricing_plan_id":"cebpf4jnsgd1na2vs0mg"},{"bike_id":"b89d9cc0-efb2-42cb-90af-7e273a7f798f","system_id":"levelo_inurba_marseille","lat":43.27364,"lon":5.36259,"is_reserved":false,"is_disabled":false,"rental_uris":{"android":"levelo://app?vid=b89d9cc0-efb2-42cb-90af-7e273a7f798f","ios":"levelo://app?vid=b89d9cc0-efb2-42cb-90af-7e273a7f798f"},"vehicle_type_id":"4","last_reported":1744455999,"current_range_meters":20800,"station_id":"ce4bhbh2rcd13ifvqeo0","pricing_plan_id":"cebpf4jnsgd1na2vs0mg"},{"bike_id":"581fa1b2-cbd2-4b8e-96f9-15cc474fb621","system_id":"levelo_inurba_marseille","lat":43.26583,"lon":5.39037,"is_reserved":false,"is_disabled":false,"rental_uris":{"android":"levelo://app?vid=581fa1b2-cbd2-4b8e-96f9-15cc474fb621","ios":"levelo://app?vid=581fa1b2-cbd2-4b8e-96f9-15cc474fb621"},"vehicle_type_id":"4","last_reported":1744455999,"current_range_meters":20800,"station_id":"ce4bhe12rcd13ifvqf30","pricing_plan_id":"cebpf4jnsgd1na2vs0mg"},{"bike_id":"e806c25b-5d21-4a54-8ba8-a894af27cc8d","system_id":"levelo_inurba_marseille","lat":43.27831,"lon":5.39197,"is_reserved":false,"is_disabled":true,"rental_uris":{"android":"levelo://app?vid=e806c25b-5d21-4a54-8ba8-a894af27cc8d","ios":"levelo://app?vid=e806c25b-5d21-4a54-8ba8-a894af27cc8d"},"vehicle_type_id":"4","last_reported":1744455999,"current_range_meters":20800,"station_id":"ce4bhjp2rcd13ifvqga0","pricing_plan_id":"cebpf4jnsgd1na2vs0mg"},{"bike_id":"43b5ce93-8128-479d-b4d5-7d5237b82a20","system_id":"levelo_inurba_marseille","lat":43.24178,"lon":5.39726,"is_reserved":false,"is_disabled":false,"rental_uris":{"android":"levelo://app?vid=43b5ce93-8128-479d-b4d5-7d5237b82a20","ios":"levelo://app?vid=43b5ce93-8128-479d-b4d5-7d5237b82a20"},"vehicle_type_id":"4","last_reported":1744455999,"current_range_meters":20800,"station_id":"ce4bhn12rcd13ifvqgpg","pricing_plan_id":"cebpf4jnsgd1na2vs0mg"},{"bike_id":"e617923d-5e38-4ab5-9f0a-d006b9dcc88d","system_id":"levelo_inurba_marseille","lat":43.29527,"lon":5.38546,"is_reserved":false,"is_disabled":true,"rental_uris":{"android":"levelo://app?vid=e617923d-5e38-4ab5-9f0a-d006b9dcc88d","ios":"levelo://app?vid=e617923d-5e38-4ab5-9f0a-d006b9dcc88d"},"vehicle_type_id":"4","last_reported":1744455999,"current_range_meters":20800,"station_id":"ce4bgih2rcd13ifvqba0","pricing_plan_id":"cebpf4jnsgd1na2vs0mg"},{"bike_id":"89d9dd25-9958-497e-8ecd-ec9c250c59f6","system_id":"levelo_inurba_marseille","lat":43.24394,"lon":5.37056,"is_reserved":false,"is_disabled":false,"rental_uris":{"android":"levelo://app?vid=89d9dd25-9958-497e-8ecd-ec9c250c59f6","ios":"levelo://app?vid=89d9dd25-9958-497e-8ecd-ec9c250c59f6"},"vehicle_type_id":"4","last_reported":1744455999,"current_range_meters":20800,"station_id":"ce4bhhh2rcd13ifvqfk0","pricing_plan_id":"cebpf4jnsgd1na2vs0mg"},{"bike_id":"4034c48e-dae2-4d8e-9e8a-58a2f6d9feb2","system_id":"levelo_inurba_marseille","lat":43.29599,"lon":5.37717,"is_reserved":false,"is_disabled":false,"rental_uris":{"android":"levelo://app?vid=4034c48e-dae2-4d8e-9e8a-58a2f6d9feb2","ios":"levelo://app?vid=4034c48e-dae2-4d8e-9e8a-58a2f6d9feb2"},"vehicle_type_id":"4","last_reported":1744455999,"current_range_meters":20800,"station_id":"ce4bgi92rcd13ifvqb90","pricing_plan_id":"cebpf4jnsgd1na2vs0mg"},{"bike_id":"f256550c-5b17-48eb-90ea-aa619fe7077e","system_id":"levelo_inurba_marseille","lat":43.29432,"lon":5.39757,"is_reserved":false,"is_disabled":false,"rental_uris":{"android":"levelo://app?vid=f256550c-5b17-48eb-90ea-aa619fe7077e","ios":"levelo://app?vid=f256550c-5b17-48eb-90ea-aa619fe7077e"},"vehicle_type_id":"4","last_reported":1744455999,"current_range_meters":20800,"station_id":"ce4bh3h2rcd13ifvqdo0","pricing_plan_id":"cebpf4jnsgd1na2vs0mg"},