{"last_updated":1686261952,"ttl":30,"version":"2.2","data":{"bikes":[{"bike_id":"08234832-69c9-4739-b74d-87ed4b64d1f7","system_id":"levelo_inurba_marseille","lat":43.309076,"lon":5.368465,"is_reserved":false,"is_disabled":false,"rental_uris":{"android":"levelo://app?vid=08234832-69c9-4739-b74d-87ed4b64d1f7","ios":"levelo://app?vid=08234832-69c9-4739-b74d-87ed4b64d1f7"},"vehicle_type_id":"4","last_reported":1686261953,"current_range_meters":30400,"station_id":"ce4bgn92rcd13ifvqbvg","pricing_plan_id":"free"},{"bike_id":"989e5bd5-3b35-4a59-bccb-f02bbef3c08f","system_id":"levelo_inurba_marseille","lat":43.31476,"lon":5.37303,"is_reserved":false,"is_disabled":false,"rental_uris":{"android":"levelo://app?vid=989e5bd5-3b35-4a59-bccb-f02bbef3c08f","ios":"levelo://app?vid=989e5bd5-3b35-4a59-bccb-f02bbef3c08f"},"vehicle_type_id":"4","last_reported":1686261953,"current_range_meters":17200,"station_id":"ce4bgt12rcd13ifvqcd0","pricing_plan_id":"free"},{"bike_id":"d1395bc2-9b7e-421d-9730-6a7aac7def7c","system_id":"levelo_inurba_marseille","lat":43.314811,"lon":5.373103,"is_reserved":false,"is_disabled":false,"rental_uris":{"android":"levelo://app?vid=d1395bc2-9b7e-421d-9730-6a7aac7def7c","ios":"levelo://app?vid=d1395bc2-9b7e-421d-9730-6a7aac7def7c"},"vehicle_type_id":"4","last_reported":1686261953,"current_range_meters":18000,"station_id":"ce4bgt12rcd13ifvqcd0","pricing_plan_id":"free"},{"bike_id":"16ae62f5-aec4-435c-b78f-3a392f9abab4","system_id":"levelo_inurba_marseille","lat":43.314811,"lon":5.373103,"is_reserved":false,"is_disabled":false,"rental_uris":{"android":"levelo://app?vid=16ae62f5-aec4-435c-b78f-3a392f9abab4","ios":"levelo://app?vid=16ae62f5-aec4-435c-b78f-3a392f9abab4"},"vehicle_type_id":"4","last_reported":1686261953,"current_range_meters":16800,"station_id":"ce4bgt12rcd13ifvqcd0","pricing_plan_id":"free"},{"bike_id":"164b098b-ea45-410f-980e-dc13f0328194","system_id":"levelo_inurba_marseille","lat":43.314811,"lon":5.373103,"is_reserved":false,"is_disabled":false,"rental_uris":{"android":"levelo://app?vid=164b098b-ea45-410f-980e-dc13f0328194","ios":"levelo://app?vid=164b098b-ea45-410f-980e-dc13f0328194"},"vehicle_type_id":"4","last_reported":1686261953,"current_range_meters":5200,"station_id":"ce4bgt12rcd13ifvqcd0","pricing_plan_id":"free"},{"bike_id":"27d230c4-27a1-4840-9a7b-63d71d5056d0","system_id":"levelo_inurba_marseille","lat":43.314811,"lon":5.373103,"is_reserved":false,"is_disabled":false,"rental_uris":{"android":"levelo://app?vid=27d230c4-27a1-4840-9a7b-63d71d5056d0","ios":"levelo://app?vid=27d230c4-27a1-4840-9a7b-63d71d5056d0"},"vehicle_type_id":"4","last_reported":1686261953,"current_range_meters":12800,"station_id":"ce4bgt12rcd13ifvqcd0","pricing_plan_id":"free"},{"bike_id":"9937c74c-2917-42de-b629-681dcf9f5b3a","system_id":"levelo_inurba_marseille","lat":43.308606,"lon":5.372099,"is_reserved":false,"is_disabled":false,"rental_uris":{"android":"levelo://app?vid=9937c74c-2917-42de-b629-681dcf9f5b3a","ios":"levelo://app?vid=9937c74c-2917-42de-b629-681dcf9f5b3a"},"vehicle_type_id":"4","last_reported":1686261953,"current_range_meters":26400,"station_id":"ce4bguh2rcd13ifvqckg","pricing_plan_id":"free"},{"bike_id":"26155ea3-5127-4824-b2b5-da5a6962617d","system_id":"levelo_inurba_marseille","lat":43.30889,"lon":5.37189,"is_reserved":false,"is_disabled":false,"rental_uris":{"android":"levelo://app?vid=26155ea3-5127-4824-b2b5-da5a6962617d","ios":"levelo://app?vid=26155ea3-5127-4824-b2b5-da5a6962617d"},"vehicle_type_id":"4","last_reported":1686261953,"current_range_meters":15200,"station_id":"","pricing_plan_id":"free"},{"bike_id":"641e2779-6a88-445b-aeef-9d648b0d8863","system_id":"levelo_inurba_marseille","lat":43.308606,"lon":5.372099,"is_reserved":false,"is_disabled":false,"rental_uris":{"android":"levelo://app?vid=641e2779-6a88-445b-aeef-9d648b0d8863","ios":"levelo://app?vid=641e2779-6a88-445b-aeef-9d648b0d8863"},"vehicle_type_id":"4","last_reported":1686261953,"current_range_meters":20400,"station_id":"ce4bguh2rcd13ifvqckg","pricing_plan_id":"free"},{"bike_id":"223bda41-7f6c-4e61-bc08-d7790a943046","system_id":"levelo_inurba_marseille","lat":43.308606,"lon":5.372099,"is_reserved":false,"is_disabled":false,"rental_uris":{"android":"levelo://app?vid=223bda41-7f6c-4e61-bc08-d7790a943046","ios":"levelo://app?vid=223bda41-7f6c-4e61-bc08-d7790a943046"},"vehicle_type_id":"4","last_reported":1686261953,"current_range_meters":23200,"station_id":"ce4bguh2rcd13ifvqckg","pricing_plan_id":"free"},{"bike_id":"c6699cfc-6f7d-4ee1-9146-5289e6f2fc49","system_id":"levelo_inurba_marseille","lat":43.308614,"lon":5.372098,"is_reserved":false,"is_disabled":false,"rental_uris":{"android":"levelo://app?vid=c6699cfc-6f7d-4ee1-9146-5289e6f2fc49","ios":"levelo://app?vid=c6699cfc-6f7d-4ee1-9146-5289e6f2fc49"},"vehicle_type_id":"4","last_reported":1686261953,"current_range_meters":800,"station_id":"ce4bguh2rcd13ifvqckg","pricing_plan_id":"free"},{"bike_id":"0b29b416-438d-439d-99e7-fedb46dedbb0","system_id":"levelo_inurba_marseille","lat":43.308606,"lon":5.372099,"is_reserved":false,"is_disabled":false,"rental_uris":{"android":"levelo://app?vid=0b29b416-438d-439d-99e7-fedb46dedbb0","ios":"levelo://app?vid=0b29b416-438d-439d-99e7-fedb46dedbb0"},"vehicle_type_id":"4","last_reported":1686261953,"current_range_meters":10000,"station_id":"ce4bguh2rcd13ifvqckg","pricing_plan_id":"free"},{"bike_id":"9cc47ae5-be30-45b6-85f9-d8455b7bc350","system_id":"levelo_inurba_marseille","lat":43.31531,"lon":5.37441,"is_reserved":false,"is_disabled":false,"rental_uris":{"android":"levelo://app?vid=9cc47ae5-be30-45b6-85f9-d8455b7bc350","ios":"levelo://app?vid=9cc47ae5-be30-45b6-85f9-d8455b7bc350"},"vehicle_type_id":"4","last_reported":1686261953,"current_range_meters":0,"station_id":"","pricing_plan_id":"free"},{"bike_id":"4ab06700-3393-412b-9d20-df3149cd4250","system_id":"levelo_inurba_marseille","lat":43.30807,"lon":5.37355,"is_reserved":false,"is_disabled":false,"rental_uris":{"android":"levelo://app?vid=4ab06700-3393-412b-9d20-df3149cd4250","ios":"levelo://app?vid=4ab06700-3393-412b-9d20-df3149cd4250"},"vehicle_type_id":"4","last_reported":1686261953,"current_range_meters":2400,"station_id":"","pricing_plan_id":"free"},{"bike_id":"1688bf2d-6c6b-45d4-8d24-4ece974f3fc4","system_id":"levelo_inurba_marseille","lat":43.305368,"lon":5.367343,"is_reserved":false,"is_disabled":false,"rental_uris":{"android":"levelo://app?vid=1688bf2d-6c6b-45d4-8d24-4ece974f3fc4","ios":"levelo://app?vid=1688bf2d-6c6b-45d4-8d24-4ece974f3fc4"},"vehicle_type_id":"4","last_reported":1686261953,"current_range_meters":0,"station_id":"ce4bgrp2rcd13ifvqc9g","pricing_plan_id":"free"},{"bike_id":"4ce7fe61-27a1-4bf6-9d1e-ba2a5bc550b2","system_id":"levelo_inurba_marseille","lat":43.32017,"lon":5.36571,"is_reserved":false,"is_disabled":false,"rental_uris":{"android":"levelo://app?vid=4ce7fe61-27a1-4bf6-9d1e-ba2a5bc550b2","ios":"levelo://app?vid=4ce7fe61-27a1-4bf6-9d1e-ba2a5bc550b2"},"vehicle_type_id":"4","last_reported":1686261953,"current_range_meters":21600,"station_id":"","pricing_plan_id":"free"},{"bike_id":"2602f0d2-cd37-456e-bc9a-73c4bea5f075","system_id":"levelo_inurba_marseille","lat":43.305368,"lon":5.367343,"is_reserved":false,"is_disabled":false,"rental_uris":{"android":"levelo://app?vid=2602f0d2-cd37-456e-bc9a-73c4bea5f075","ios":"levelo://app?vid=2602f0d2-cd37-456e-bc9a-73c4bea5f075"},"vehicle_type_id":"4","last_reported":1686261953,"current_range_meters":25600,"station_id":"ce4bgrp2rcd13ifvqc9g","pricing_plan_id":"free"},{"bike_id":"2d2bd2ca-26ed-40d0-bd9b-b33ad28eaf6e","system_id":"levelo_inurba_marseille","lat":43.31117,"lon":5.37753,"is_reserved":false,"is_disabled":false,"rental_uris":{"android":"levelo://app?vid=2d2bd2ca-26ed-40d0-bd9b-b33ad28eaf6e","ios":"levelo://app?vid=2d2bd2ca-26ed-40d0-bd9b-b33ad28eaf6e"},"vehicle_type_id":"4","last_reported":1686261953,"current_range_meters":6000,"station_id":"ce4bgt92rcd13ifvqcg0","pricing_plan_id":"free"},{"bike_id":"b9e24292-f43d-4f0e-a5dd-71718ec95d8d","system_id":"levelo_inurba_marseille","lat":43.311131,"lon":5.377651,"is_reserved":false,"is_disabled":false,"rental_uris":{"android":"levelo://app?vid=b9e24292-f43d-4f0e-a5dd-71718ec95d8d","ios":"levelo://app?vid=b9e24292-f43d-4f0e-a5dd-71718ec95d8d"},"vehicle_type_id":"4","last_reported":1686261953,"current_range_meters":4000,"station_id":"ce4bgt92rcd13ifvqcg0","pricing_plan_id":"free"},{"bike_id":"e8b571c2-4afa-4df4-a18a-b79d3cbdf79d","system_id":"levelo_inurba_marseille","lat":43.31118,"lon":5.37767,"is_reserved":false,"is_disabled":false,"rental_uris":{"android":"levelo://app?vid=e8b571c2-4afa-4df4-a18a-b79d3cbdf79d","ios":"levelo://app?vid=e8b571c2-4afa-4df4-a18a-b79d3cbdf79d"},"vehicle_type_id":"4","last_reported":1686261953,"current_range_meters":0,"station_id":"ce4bgt92rcd13ifvqcg0","pricing_plan_id":"free"},{"bike_id":"ec55faca-c520-4821-ac9c-9f2ccb25cecc","system_id":"levelo_inurba_marseille","lat":43.311243,"lon":5.377688,"is_reserved":false,"is_disabled":false,"rental_uris":{"android":"levelo://app?vid=ec55faca-c520-4821-ac9c-9f2ccb25cecc","ios":"levelo://app?vid=ec55faca-c520-4821-ac9c-9f2ccb25cecc"},"vehicle_type_id":"4","last_reported":1686261953,"current_range_meters":0,"station_id":"","pricing_plan_id":"free"},{"bike_id":"3aaaad05-0a76-4948-92db-baef460d0e34","system_id":"levelo_inurba_marseille","lat":43.311131,"lon":5.377651,"is_reserved":false,"is_disabled":false,"rental_uris":{"android":"levelo://app?vid=3aaaad05-0a76-4948-92db-baef460d0e34","ios":"levelo://app?vid=3aaaad05-0a76-4948-92db-baef460d0e34"},"vehicle_type_id":"4","last_reported":1686261953,"current_range_meters":3600,"station_id":"ce4bgt92rcd13ifvqcg0","pricing_plan_id":"free"},{"bike_id":"be05904e-2512-4b5c-b9ad-15a4ba5a0d05","system_id":"levelo_inurba_marseille","lat":43.311125,"lon":5.377624,"is_reserved":false,"is_disabled":false,"rental_uris":{"android":"levelo://app?vid=be05904e-2512-4b5c-b9ad-15a4ba5a0d05","ios":"levelo://app?vid=be05904e-2512-4b5c-b9ad-15a4ba5a0d05"},"vehicle_type_id":"4","last_reported":1686261953,"current_range_meters":800,"station_id":"ce4bgt92rcd13ifvqcg0","pricing_plan_id":"free"},{"bike_id":"faac1d2a-7f28-4ebb-9520-fe15bb68b150","system_id":"levelo_inurba_marseille","lat":43.3114,"lon":5.37846,"is_reserved":false,"is_disabled":false,"rental_uris":{"android":"levelo://app?vid=faac1d2a-7f28-4ebb-9520-fe15bb68b150","ios":"levelo://app?vid=faac1d2a-7f28-4ebb-9520-fe15bb68b150"},"vehicle_type_id":"4","last_reported":1686261953,"current_range_meters":10400,"station_id":"","pricing_plan_id":"free"},{"bike_id":"0960f48a-8867-4f36-84db-a254cfd9cbc4","system_id":"levelo_inurba_marseille","lat":43.315289,"lon":5.380349,"is_reserved":false,"is_disabled":false,"rental_uris":{"android":"levelo://app?vid=0960f48a-8867-4f36-84db-a254cfd9cbc4","ios":"levelo://app?vid=0960f48a-8867-4f36-84db-a254cfd9cbc4"},"vehicle_type_id":"4","last_reported":1686261953,"current_range_meters":800,"station_id":"ce4bhsp2rcd13ifvqi50","pricing_plan_id":"free"},{"bike_id":"1a63f548-8b68-4666-854e-e7490b1fe764","system_id":"levelo_inurba_marseille","lat":43.30805,"lon":5.38142,"is_reserved":false,"is_disabled":false,"rental_uris":{"android":"levelo://app?vid=1a63f548-8b68-4666-854e-e7490b1fe764","ios":"levelo://app?vid=1a63f548-8b68-4666-854e-e7490b1fe764"},"vehicle_type_id":"4","last_reported":1686261953,"current_range_meters":0,"station_id":"ce4bgt12rcd13ifvqce0","pricing_plan_id":"free"},{"bike_id":"37e270b9-ec95-41b9-9843-eeb5343298c8","system_id":"levelo_inurba_marseille","lat":43.308012,"lon":5.381511,"is_reserved":false,"is_disabled":false,"rental_uris":{"android":"levelo://app?vid=37e270b9-ec95-41b9-9843-eeb5343298c8","ios":"levelo://app?vid=37e270b9-ec95-41b9-9843-eeb5343298c8"},"vehicle_type_id":"4","last_reported":1686261953,"current_range_meters":24800,"station_id":"ce4bgt12rcd13ifvqce0","pricing_plan_id":"free"},{"bike_id":"71fcc94c-a2af-4391-aa60-33c057663077","system_id":"levelo_inurba_marseille","lat":43.308012,"lon":5.381511,"is_reserved":false,"is_disabled":false,"rental_uris":{"android":"levelo://app?vid=71fcc94c-a2af-4391-aa60-33c057663077","ios":"levelo://app?vid=71fcc94c-a2af-4391-aa60-33c057663077"},"vehicle_type_id":"4","last_reported":1686261953,"current_range_meters":0,"station_id":"ce4bgt12rcd13ifvqce0","pricing_plan_id":"free"},{"bike_id":"359e2dc8-b849-411b-b56b-b68279ec81b1","system_id":"levelo_inurba_marseille","lat":43.308012,"lon":5.381511,"is_reserved":false,"is_disabled":false,"rental_uris":{"android":"levelo://app?vid=359e2dc8-b849-411b-b56b-b68279ec81b1","ios":"levelo://app?vid=359e2dc8-b849-411b-b56b-b68279ec81b1"},"vehicle_type_id":"4","last_reported":1686261953,"current_range_meters":2000,"station_id":"ce4bgt12rcd13ifvqce0","pricing_plan_id":"free"},{"bike_id":"3e589c6a-ba42-43a1-af92-5a4f45ab7c60","system_id":"levelo_inurba_marseille","lat":43.308012,"lon":5.381511,"is_reserved":false,"is_disabled":false,"rental_uris":{"android":"levelo://app?vid=3e589c6a-ba42-43a1-af92-5a4f45ab7c60","ios":"levelo://app?vid=3e589c6a-ba42-43a1-af92-5a4f45ab7c60"},"vehicle_type_id":"4","last_reported":1686261953,"current_range_meters":0,"station_id":"ce4bgt12rcd13ifvqce0","pricing_plan_id":"free"},{"bike_id":"7b5b8639-a4e2-47ee-9da8-1f1806de73aa","system_id":"levelo_inurba_marseille","lat":43.30827,"lon":5.38204,"is_reserved":false,"is_disabled":false,"rental_uris":{"android":"levelo://app?vid=7b5b8639-a4e2-47ee-9da8-1f1806de73aa","ios":"levelo://app?vid=7b5b8639-a4e2-47ee-9da8-1f1806de73aa"},"vehicle_type_id":"4","last_reported":1686261953,"current_range_meters":30400,"station_id":"","pricing_plan_id":"free"},{"bike_id":"c1e7f257-c705-4ecd-86ec-6ea129cd948a","system_id":"levelo_inurba_marseille","lat":43.304606,"lon":5.379026,"is_reserved":false,"is_disabled":false,"rental_uris":{"android":"levelo://app?vid=c1e7f257-c705-4ecd-86ec-6ea129cd948a","ios":"levelo://app?vid=c1e7f257-c705-4ecd-86ec-6ea129cd948a"},"vehicle_type_id":"4","last_reported":1686261953,"current_range_meters":18800,"station_id":"ce4bgup2rcd13ifvqcn0","pricing_plan_id":"free"},{"bike_id":"0ab79bb0-5701-472f-bc16-9531b0dcbffe","system_id":"levelo_inurba_marseille","lat":43.319935,"lon":5.381699,"is_reserved":false,"is_disabled":false,"rental_uris":{"android":"levelo://app?vid=0ab79bb0-5701-472f-bc16-9531b0dcbffe","ios":"levelo://app?vid=0ab79bb0-5701-472f-bc16-9531b0dcbffe"},"vehicle_type_id":"4","last_reported":1686261953,"current_range_meters":6000,"station_id":"ce4bhr12rcd13ifvqhpg","pricing_plan_id":"free"},{"bike_id":"8907de89-0866-461e-84e7-77d875c4d33e","system_id":"levelo_inurba_marseille","lat":43.319935,"lon":5.381699,"is_reserved":false,"is_disabled":false,"rental_uris":{"android":"levelo://app?vid=8907de89-0866-461e-84e7-77d875c4d33e","ios":"levelo://app?vid=8907de89-0866-461e-84e7-77d875c4d33e"},"vehicle_type_id":"4","last_reported":1686261953,"current_range_meters":3600,"station_id":"ce4bhr12rcd13ifvqhpg","pricing_plan_id":"free"},{"bike_id":"a87d4f9b-a0fe-4564-b74d-d5e67028b4ce","system_id":"levelo_inurba_marseille","lat":43.319935,"lon":5.381699,"is_reserved":false,"is_disabled":false,"rental_uris":{"android":"levelo://app?vid=a87d4f9b-a0fe-4564-b74d-d5e67028b4ce","ios":"levelo://app?vid=a87d4f9b-a0fe-4564-b74d-d5e67028b4ce"},"vehicle_type_id":"4","last_reported":1686261953,"current_range_meters":5200,"station_id":"ce4bhr12rcd13ifvqhpg","pricing_plan_id":"free"},{"bike_id":"6580c645-2dab-4af5-ab99-b3908aa53a59","system_id":"levelo_inurba_marseille","lat":43.319935,"lon":5.381699,"is_reserved":false,"is_disabled":false,"rental_uris":{"android":"levelo://app?vid=6580c645-2dab-4af5-ab99-b3908aa53a59","ios":"levelo://app?vid=6580c645-2dab-4af5-ab99-b3908aa53a59"},"vehicle_type_id":"4","last_reported":1686261953,"current_range_meters":3600,"station_id":"ce4bhr12rcd13ifvqhpg","pricing_plan_id":"free"},{"bike_id":"eea8f679-9b28-457e-9b61-5f1c53307489","system_id":"levelo_inurba_marseille","lat":43.313571,"lon":5.384829,"is_reserved":false,"is_disabled":false,"rental_uris":{"android":"levelo://app?vid=eea8f679-9b28-457e-9b61-5f1c53307489","ios":"levelo://app?vid=eea8f679-9b28-457e-9b61-5f1c53307489"},"vehicle_type_id":"4","last_reported":1686261953,"current_range_meters":30000,"station_id":"ce4bgt92rcd13ifvqcf0","pricing_plan_id":"free"},{"bike_id":"f10de48b-6666-4a2b-afa2-de6076ef1b00","system_id":"levelo_inurba_marseille","lat":43.313571,"lon":5.384829,"is_reserved":false,"is_disabled":false,"rental_uris":{"android":"levelo://app?vid=f10de48b-6666-4a2b-afa2-de6076ef1b00","ios":"levelo://app?vid=f10de48b-6666-4a2b-afa2-de6076ef1b00"},"vehicle_type_id":"4","last_reported":1686261953,"current_range_meters":10000,"station_id":"ce4bgt92rcd13ifvqcf0","pricing_plan_id":"free"},{"bike_id":"c2f8c75a-b35b-4616-8928-7e36419244d7","system_id":"levelo_inurba_marseille","lat":43.313571,"lon":5.384829,"is_reserved":false,"is_disabled":false,"rental_uris":{"android":"levelo://app?vid=c2f8c75a-b35b-4616-8928-7e36419244d7","ios":"levelo://app?vid=c2f8c75a-b35b-4616-8928-7e36419244d7"},"vehicle_type_id":"4","last_reported":1686261953,"current_range_meters":20800,"station_id":"ce4bgt92rcd13ifvqcf0","pricing_plan_id":"free"},{"bike_id":"0ccdbd01-7741-4125-9b7f-5c9fe5cd4f2d","system_id":"levelo_inurba_marseille","lat":43.299222,"lon":5.365554,"is_reserved":false,"is_disabled":false,"rental_uris":{"android":"levelo://app?vid=0ccdbd01-7741-4125-9b7f-5c9fe5cd4f2d","ios":"levelo://app?vid=0ccdbd01-7741-4125-9b7f-5c9fe5cd4f2d"},"vehicle_type_id":"4","last_reported":1686261953,"current_range_meters":28400,"station_id":"ce4bgm92rcd13ifvqbr0","pricing_plan_id":"free"},{"bike_id":"7b33e14d-0a31-4ca0-bcac-ed735506da17","system_id":"levelo_inurba_marseille","lat":43.299222,"lon":5.365554,"is_reserved":false,"is_disabled":false,"rental_uris":{"android":"levelo://app?vid=7b33e14d-0a31-4ca0-bcac-ed735506da17","ios":"levelo://app?vid=7b33e14d-0a31-4ca0-bcac-ed735506da17"},"vehicle_type_id":"4","last_reported":1686261953,"current_range_meters":20800,"station_id":"ce4bgm92rcd13ifvqbr0","pricing_plan_id":"free"},{"bike_id":"548eaba5-26f8-4e0c-9321-7b199d0f3aad","system_id":"levelo_inurba_marseille","lat":43.299222,"lon":5.365554,"is_reserved":false,"is_disabled":false,"rental_uris":{"android":"levelo://app?vid=548eaba5-26f8-4e0c-9321-7b199d0f3aad","ios":"levelo://app?vid=548eaba5-26f8-4e0c-9321-7b199d0f3aad"},"vehicle_type_id":"4","last_reported":1686261953,"current_range_meters":30800,"station_id":"ce4bgm92rcd13ifvqbr0","pricing_plan_id":"free"},{"bike_id":"2bf099af-a8ac-428b-a848-3ab179bf4963","system_id":"levelo_inurba_marseille","lat":43.297794,"lon":5.370888,"is_reserved":false,"is_disabled":false,"rental_uris":{"android":"levelo://app?vid=2bf099af-a8ac-428b-a848-3ab179bf4963","ios":"levelo://app?vid=2bf099af-a8ac-428b-a848-3ab179bf4963"},"vehicle_type_id":"4","last_reported":1686261953,"current_range_meters":26800,"station_id":"ce4bgop2rcd13ifvqc1g","pricing_plan_id":"free"},{"bike_id":"aa0e8d42-4c7b-40ac-b0f2-02e5182e4a3a","system_id":"levelo_inurba_marseille","lat":43.297794,"lon":5.370888,"is_reserved":false,"is_disabled":false,"rental_uris":{"android":"levelo://app?vid=aa0e8d42-4c7b-40ac-b0f2-02e5182e4a3a","ios":"levelo://app?vid=aa0e8d42-4c7b-40ac-b0f2-02e5182e4a3a"},"vehicle_type_id":"4","last_reported":1686261953,"current_range_meters":0,"station_id":"ce4bgop2rcd13ifvqc1g","pricing_plan_id":"free"},{"bike_id":"b8304f8d-35eb-4155-8d35-625838ceb2ff","system_id":"levelo_inurba_marseille","lat":43.297774,"lon":5.370875,"is_reserved":false,"is_disabled":false,"rental_uris":{"android":"levelo://app?vid=b8304f8d-35eb-4155-8d35-625838ceb2ff","ios":"levelo://app?vid=b8304f8d-35eb-4155-8d35-625838ceb2ff"},"vehicle_type_id":"4","last_reported":1686261953,"current_range_meters":24800,"station_id":"ce4bgop2rcd13ifvqc1g","pricing_plan_id":"free"},{"bike_id":"107e244d-3d85-4ce4-bc2b-3a75d744302f","system_id":"levelo_inurba_marseille","lat":43.29595,"lon":5.37086,"is_reserved":false,"is_disabled":false,"rental_uris":{"android":"levelo://app?vid=107e244d-3d85-4ce4-bc2b-3a75d744302f","ios":"levelo://app?vid=107e244d-3d85-4ce4-bc2b-3a75d744302f"},"vehicle_type_id":"4","last_reported":1686261953,"current_range_meters":0,"station_id":"","pricing_plan_id":"free"},{"bike_id":"39688071-7015-49c5-a7ef-7dc8686b54b7","system_id":"levelo_inurba_marseille","lat":43.309589,"lon":5.390258,"is_reserved":false,"is_disabled":false,"rental_uris":{"android":"levelo://app?vid=39688071-7015-49c5-a7ef-7dc8686b54b7","ios":"levelo://app?vid=39688071-7015-49c5-a7ef-7dc8686b54b7"},"vehicle_type_id":"4","last_reported":1686261953,"current_range_meters":2400,"station_id":"ce4bgup2rcd13ifvqco0","pricing_plan_id":"free"},{"bike_id":"3ecfe757-05ef-44cd-b3d2-d1a393c623a6","system_id":"levelo_inurba_marseille","lat":43.317557,"lon":5.390173,"is_reserved":false,"is_disabled":false,"rental_uris":{"android":"levelo://app?vid=3ecfe757-05ef-44cd-b3d2-d1a393c623a6","ios":"levelo://app?vid=3ecfe757-05ef-44cd-b3d2-d1a393c623a6"},"vehicle_type_id":"4","last_reported":1686261953,"current_range_meters":31200,"station_id":"ce4bhqp2rcd13ifvqhng","pricing_plan_id":"free"},{"bike_id":"3fcaefa9-a2d7-45ab-be04-14180a6e4337","system_id":"levelo_inurba_marseille","lat":43.317557,"lon":5.390173,"is_reserved":false,"is_disabled":false,"rental_uris":{"android":"levelo://app?vid=3fcaefa9-a2d7-45ab-be04-14180a6e4337","ios":"levelo://app?vid=3fcaefa9-a2d7-45ab-be04-14180a6e4337"},"vehicle_type_id":"4","last_reported":1686261953,"current_range_meters":22000,"station_id":"ce4bhqp2rcd13ifvqhng","pricing_plan_id":"free"},{"bike_id":"6396db74-9c7e-4910-9a68-5f15c5178ef9","system_id":"levelo_inurba_marseille","lat":43.31754,"lon":5.39022,"is_reserved":false,"is_disabled":false,"rental_uris":{"android":"levelo://app?vid=6396db74-9c7e-4910-9a68-5f15c5178ef9","ios":"levelo://app?vid=6396db74-9c7e-4910-9a68-5f15c5178ef9"},"vehicle_type_id":"4","last_reported":1686261953,"current_range_meters":12400,"station_id":"ce4bhqp2rcd13ifvqhng","pricing_plan_id":"free"},{"bike_id":"6005dd0b-c31c-4b2f-8687-16eff140735d","system_id":"levelo_inurba_marseille","lat":43.304274,"lon":5.388873,"is_reserved":false,"is_disabled":false,"rental_uris":{"android":"levelo://app?vid=6005dd0b-c31c-4b2f-8687-16eff140735d","ios":"levelo://app?vid=6005dd0b-c31c-4b2f-8687-16eff140735d"},"vehicle_type_id":"4","last_reported":1686261953,"current_range_meters":800,"station_id":"ce4bgk12rcd13ifvqbi0","pricing_plan_id":"free"},{"bike_id":"979ce3da-2522-47d4-a3e4-83f0759408eb","system_id":"levelo_inurba_marseille","lat":43.32367,"lon":5.388836,"is_reserved":false,"is_disabled":false,"rental_uris":{"android":"levelo://app?vid=979ce3da-2522-47d4-a3e4-83f0759408eb","ios":"levelo://app?vid=979ce3da-2522-47d4-a3e4-83f0759408eb"},"vehicle_type_id":"4","last_reported":1686261953,"current_range_meters":27600,"station_id":"ce4bhqp2rcd13ifvqhog","pricing_plan_id":"free"},{"bike_id":"639054e4-bf53-493f-93e7-f8222d728fc5","system_id":"levelo_inurba_marseille","lat":43.32372,"lon":5.38882,"is_reserved":false,"is_disabled":false,"rental_uris":{"android":"levelo://app?vid=639054e4-bf53-493f-93e7-f8222d728fc5","ios":"levelo://app?vid=639054e4-bf53-493f-93e7-f8222d728fc5"},"vehicle_type_id":"4","last_reported":1686261953,"current_range_meters":9200,"station_id":"ce4bhqp2rcd13ifvqhog","pricing_plan_id":"free"},{"bike_id":"4079010a-d837-4476-8ad7-dd75c1c0f4eb","system_id":"levelo_inurba_marseille","lat":43.32367,"lon":5.388836,"is_reserved":false,"is_disabled":false,"rental_uris":{"android":"levelo://app?vid=4079010a-d837-4476-8ad7-dd75c1c0f4eb","ios":"levelo://app?vid=4079010a-d837-4476-8ad7-dd75c1c0f4eb"},"vehicle_type_id":"4","last_reported":1686261953,"current_range_meters":20800,"station_id":"ce4bhqp2rcd13ifvqhog","pricing_plan_id":"free"},{"bike_id":"87bb2c1e-ea53-44b4-b8f1-ecb8fc2a77a7","system_id":"levelo_inurba_marseille","lat":43.32371,"lon":5.38891,"is_reserved":false,"is_disabled":false,"rental_uris":{"android":"levelo://app?vid=87bb2c1e-ea53-44b4-b8f1-ecb8fc2a77a7","ios":"levelo://app?vid=87bb2c1e-ea53-44b4-b8f1-ecb8fc2a77a7"},"vehicle_type_id":"4","last_reported":1686261953,"current_range_meters":23600,"station_id":"ce4bhqp2rcd13ifvqhog","pricing_plan_id":"free"},{"bike_id":"f114dffc-9683-42bc-b8ab-7fade9776fa2","system_id":"levelo_inurba_marseille","lat":43.309076,"lon":5.368465,"is_reserved":false,"is_disabled":false,"rental_uris":{"android":"levelo://app?vid=f114dffc-9683-42bc-b8ab-7fade9776fa2","ios":"levelo://app?vid=f114dffc-9683-42bc-b8ab-7fade9776fa2"},"vehicle_type_id":"4","last_reported":1686261953,"current_range_meters":5600,"station_id":"ce4bgn92rcd13ifvqbvg","pricing_plan_id":"free"},{"bike_id":"5a69a3c7-3567-441d-8a27-b04241c66793","system_id":"levelo_inurba_marseille","lat":43.29272,"lon":5.3684,"is_reserved":false,"is_disabled":false,"rental_uris":{"android":"levelo://app?vid=5a69a3c7-3567-441d-8a27-b04241c66793","ios":"levelo://app?vid=5a69a3c7-3567-441d-8a27-b04241c66793"},"vehicle_type_id":"4","last_reported":1686261953,"current_range_meters":18800,"station_id":"ce4bhbp2rcd13ifvqesg","pricing_plan_id":"free"},{"bike_id":"f886c596-8c6f-41a6-9bed-c9f604695f21","system_id":"levelo_inurba_marseille","lat":43.305994,"lon":5.393687,"is_reserved":false,"is_disabled":false,"rental_uris":{"android":"levelo://app?vid=f886c596-8c6f-41a6-9bed-c9f604695f21","ios":"levelo://app?vid=f886c596-8c6f-41a6-9bed-c9f604695f21"},"vehicle_type_id":"4","last_reported":1686261953,"current_range_meters":12000,"station_id":"ce4bh0p2rcd13ifvqd80","pricing_plan_id":"free"},{"bike_id":"45234217-5e5e-40f9-8e57-a91cb716cad9","system_id":"levelo_inurba_marseille","lat":43.29467,"lon":5.38096,"is_reserved":false,"is_disabled":false,"rental_uris":{"android":"levelo://app?vid=45234217-5e5e-40f9-8e57-a91cb716cad9","ios":"levelo://app?vid=45234217-5e5e-40f9-8e57-a91cb716cad9"},"vehicle_type_id":"4","last_reported":1686261953,"current_range_meters":0,"station_id":"","pricing_plan_id":"free"},{"bike_id":"61e4ccfd-dc98-4837-8123-2dfa5e087f42","system_id":"levelo_inurba_marseille","lat":43.293723,"lon":5.378443,"is_reserved":false,"is_disabled":false,"rental_uris":{"android":"levelo://app?vid=61e4ccfd-dc98-4837-8123-2dfa5e087f42","ios":"levelo://app?vid=61e4ccfd-dc98-4837-8123-2dfa5e087f42"},"vehicle_type_id":"4","last_reported":1686261953,"current_range_meters":10000,"station_id":"","pricing_plan_id":"free"},{"bike_id":"18ed07d1-81eb-4153-83c5-77fbb4edc1ac","system_id":"levelo_inurba_marseille","lat":43.300852,"lon":5.390859,"is_reserved":false,"is_disabled":false,"rental_uris":{"android":"levelo://app?vid=18ed07d1-81eb-4153-83c5-77fbb4edc1ac","ios":"levelo://app?vid=18ed07d1-81eb-4153-83c5-77fbb4edc1ac"},"vehicle_type_id":"4","last_reported":1686261953,"current_range_meters":3600,"station_id":"ce4bh192rcd13ifvqdb0","pricing_plan_id":"free"},{"bike_id":"79ef69dd-2817-4da3-94a1-9f059ceae671","system_id":"levelo_inurba_marseille","lat":43.298764,"lon":5.388973,"is_reserved":false,"is_disabled":false,"rental_uris":{"android":"levelo://app?vid=79ef69dd-2817-4da3-94a1-9f059ceae671","ios":"levelo://app?vid=79ef69dd-2817-4da3-94a1-9f059ceae671"},"vehicle_type_id":"4","last_reported":1686261953,"current_range_meters":400,"station_id":"ce4bh392rcd13ifvqdl0","pricing_plan_id":"free"},{"bike_id":"06fe7d5f-069d-4623-a5e0-2347509a7e29","system_id":"levelo_inurba_marseille","lat":43.298764,"lon":5.388973,"is_reserved":false,"is_disabled":false,"rental_uris":{"android":"levelo://app?vid=06fe7d5f-069d-4623-a5e0-2347509a7e29","ios":"levelo://app?vid=06fe7d5f-069d-4623-a5e0-2347509a7e29"},"vehicle_type_id":"4","last_reported":1686261953,"current_range_meters":2000,"station_id":"ce4bh392rcd13ifvqdl0","pricing_plan_id":"free"},{"bike_id":"64a6785c-211e-46e7-96ba-b598b98bcc65","system_id":"levelo_inurba_marseille","lat":43.291675,"lon":5.371583,"is_reserved":false,"is_disabled":false,"rental_uris":{"android":"levelo://app?vid=64a6785c-211e-46e7-96ba-b598b98bcc65","ios":"levelo://app?vid=64a6785c-211e-46e7-96ba-b598b98bcc65"},"vehicle_type_id":"4","last_reported":1686261953,"current_range_meters":1200,"station_id":"ce4bha92rcd13ifvqeh0","pricing_plan_id":"free"},{"bike_id":"9e56ee0e-3872-4f5a-a3ac-052a6a5709eb","system_id":"levelo_inurba_marseille","lat":43.313291,"lon":5.396838,"is_reserved":false,"is_disabled":false,"rental_uris":{"android":"levelo://app?vid=9e56ee0e-3872-4f5a-a3ac-052a6a5709eb","ios":"levelo://app?vid=9e56ee0e-3872-4f5a-a3ac-052a6a5709eb"},"vehicle_type_id":"4","last_reported":1686261953,"current_range_meters":0,"station_id":"ce4bgvp2rcd13ifvqcu0","pricing_plan_id":"free"},{"bike_id":"643c9a0a-414c-4654-8631-dfb2d2e7c7e0","system_id":"levelo_inurba_marseille","lat":43.313291,"lon":5.396838,"is_reserved":false,"is_disabled":false,"rental_uris":{"android":"levelo://app?vid=643c9a0a-414c-4654-8631-dfb2d2e7c7e0","ios":"levelo://app?vid=643c9a0a-414c-4654-8631-dfb2d2e7c7e0"},"vehicle_type_id":"4","last_reported":1686261953,"current_range_meters":2000,"station_id":"ce4bgvp2rcd13ifvqcu0","pricing_plan_id":"free"},{"bike_id":"e1b30f45-b499-46d9-8c3c-3e5955e0bf46","system_id":"levelo_inurba_marseille","lat":43.313291,"lon":5.396838,"is_reserved":false,"is_disabled":false,"rental_uris":{"android":"levelo://app?vid=e1b30f45-b499-46d9-8c3c-3e5955e0bf46","ios":"levelo://app?vid=e1b30f45-b499-46d9-8c3c-3e5955e0bf46"},"vehicle_type_id":"4","last_reported":1686261953,"current_range_meters":22400,"station_id":"ce4bgvp2rcd13ifvqcu0","pricing_plan_id":"free"},{"bike_id":"5d9114a8-e563-413a-87e5-11ac4a4eb114","system_id":"levelo_inurba_marseille","lat":43.313291,"lon":5.396838,"is_reserved":false,"is_disabled":false,"rental_uris":{"android":"levelo://app?vid=5d9114a8-e563-413a-87e5-11ac4a4eb114","ios":"levelo://app?vid=5d9114a8-e563-413a-87e5-11ac4a4eb114"},"vehicle_type_id":"4","last_reported":1686261953,"current_range_meters":22800,"station_id":"ce4bgvp2rcd13ifvqcu0","pricing_plan_id":"free"},{"bike_id":"3eeaac11-6003-4fba-9426-fc97a818b4eb","system_id":"levelo_inurba_marseille","lat":43.313291,"lon":5.396838,"is_reserved":false,"is_disabled":false,"rental_uris":{"android":"levelo://app?vid=3eeaac11-6003-4fba-9426-fc97a818b4eb","ios":"levelo://app?vid=3eeaac11-6003-4fba-9426-fc97a818b4eb"},"vehicle_type_id":"4","last_reported":1686261953,"current_range_meters":2000,"station_id":"ce4bgvp2rcd13ifvqcu0","pricing_plan_id":"free"},{"bike_id":"99288bd4-d005-48af-a8e6-beaa596a4f3d","system_id":"levelo_inurba_marseille","lat":43.309038,"lon":5.396546,"is_reserved":false,"is_disabled":false,"rental_uris":{"android":"levelo://app?vid=99288bd4-d005-48af-a8e6-beaa596a4f3d","ios":"levelo://app?vid=99288bd4-d005-48af-a8e6-beaa596a4f3d"},"vehicle_type_id":"4","last_reported":1686261953,"current_range_meters":28400,"station_id":"ce4bh012rcd13ifvqcv0","pricing_plan_id":"free"},{"bike_id":"e3affdb4-c21e-4288-9087-bb374e28997d","system_id":"levelo_inurba_marseille","lat":43.29522,"lon":5.38536,"is_reserved":false,"is_disabled":false,"rental_uris":{"android":"levelo://app?vid=e3affdb4-c21e-4288-9087-bb374e28997d","ios":"levelo://app?vid=e3affdb4-c21e-4288-9087-bb374e28997d"},"vehicle_type_id":"4","last_reported":1686261953,"current_range_meters":0,"station_id":"ce4bgih2rcd13ifvqba0","pricing_plan_id":"free"},{"bike_id":"e916c753-f006-4d98-8a5c-0b7856301d2f","system_id":"levelo_inurba_marseille","lat":43.290624,"lon":5.359245,"is_reserved":false,"is_disabled":false,"rental_uris":{"android":"levelo://app?vid=e916c753-f006-4d98-8a5c-0b7856301d2f","ios":"levelo://app?vid=e916c753-f006-4d98-8a5c-0b7856301d2f"},"vehicle_type_id":"4","last_reported":1686261953,"current_range_meters":29600,"station_id":"ce4bha92rcd13ifvqeg0","pricing_plan_id":"free"},{"bike_id":"b5e9268a-0c7f-44cf-9c9f-bd90556fd3b5","system_id":"levelo_inurba_marseille","lat":43.302008,"lon":5.394694,"is_reserved":false,"is_disabled":false,"rental_uris":{"android":"levelo://app?vid=b5e9268a-0c7f-44cf-9c9f-bd90556fd3b5","ios":"levelo://app?vid=b5e9268a-0c7f-44cf-9c9f-bd90556fd3b5"},"vehicle_type_id":"4","last_reported":1686261953,"current_range_meters":800,"station_id":"ce4bh0p2rcd13ifvqd70","pricing_plan_id":"free"},{"bike_id":"14746f68-e90f-436e-a836-e39e13032520","system_id":"levelo_inurba_marseille","lat":43.231794,"lon":5.400052,"is_reserved":false,"is_disabled":false,"rental_uris":{"android":"levelo://app?vid=14746f68-e90f-436e-a836-e39e13032520","ios":"levelo://app?vid=14746f68-e90f-436e-a836-e39e13032520"},"vehicle_type_id":"4","last_reported":1686261953,"current_range_meters":25600,"station_id":"ce4bhn12rcd13ifvqgqg","pricing_plan_id":"free"},{"bike_id":"39a9357f-030f-4c71-8a1e-aa5ff28c9f45","system_id":"levelo_inurba_marseille","lat":43.33042,"lon":5.38916,"is_reserved":false,"is_disabled":false,"rental_uris":{"android":"levelo://app?vid=39a9357f-030f-4c71-8a1e-aa5ff28c9f45","ios":"levelo://app?vid=39a9357f-030f-4c71-8a1e-aa5ff28c9f45"},"vehicle_type_id":"4","last_reported":1686261953,"current_range_meters":26000,"station_id":"ce4bhr92rcd13ifvqhrg","pricing_plan_id":"free"},{"bike_id":"87dd8576-1eb2-4bb3-8e74-3d3b6d5e5b73","system_id":"levelo_inurba_marseille","lat":43.33044,"lon":5.38916,"is_reserved":false,"is_disabled":false,"rental_uris":{"android":"levelo://app?vid=87dd8576-1eb2-4bb3-8e74-3d3b6d5e5b73","ios":"levelo://app?vid=87dd8576-1eb2-4bb3-8e74-3d3b6d5e5b73"},"vehicle_type_id":"4","last_reported":1686261953,"current_range_meters":19200,"station_id":"ce4bhr92rcd13ifvqhrg","pricing_plan_id":"free"},{"bike_id":"8d08bb01-3b10-49a1-a834-7c5e91997c77","system_id":"levelo_inurba_marseille","lat":43.33043,"lon":5.38919,"is_reserved":false,"is_disabled":false,"rental_uris":{"android":"levelo://app?vid=8d08bb01-3b10-49a1-a834-7c5e91997c77","ios":"levelo://app?vid=8d08bb01-3b10-49a1-a834-7c5e91997c77"},"vehicle_type_id":"4","last_reported":1686261953,"current_range_meters":4400,"station_id":"ce4bhr92rcd13ifvqhrg","pricing_plan_id":"free"},{"bike_id":"525c4daf-7688-46eb-8c01-8b80d6fc04d9","system_id":"levelo_inurba_marseille","lat":43.330471,"lon":5.389153,"is_reserved":false,"is_disabled":false,"rental_uris":{"android":"levelo://app?vid=525c4daf-7688-46eb-8c01-8b80d6fc04d9","ios":"levelo://app?vid=525c4daf-7688-46eb-8c01-8b80d6fc04d9"},"vehicle_type_id":"4","last_reported":1686261953,"current_range_meters":24800,"station_id":"","pricing_plan_id":"free"},{"bike_id":"50be3487-1d11-48f3-b8ef-a02bd4845d0b","system_id":"levelo_inurba_marseille","lat":43.33043,"lon":5.38924,"is_reserved":false,"is_disabled":false,"rental_uris":{"android":"levelo://app?vid=50be3487-1d11-48f3-b8ef-a02bd4845d0b","ios":"levelo://app?vid=50be3487-1d11-48f3-b8ef-a02bd4845d0b"},"vehicle_type_id":"4","last_reported":1686261953,"current_range_meters":26400,"station_id":"ce4bhr92rcd13ifvqhrg","pricing_plan_id":"free"},{"bike_id":"eebb0572-4916-4105-a791-7d74572be411","system_id":"levelo_inurba_marseille","lat":43.290103,"lon":5.356114,"is_reserved":false,"is_disabled":false,"rental_uris":{"android":"levelo://app?vid=eebb0572-4916-4105-a791-7d74572be411","ios":"levelo://app?vid=eebb0572-4916-4105-a791-7d74572be411"},"vehicle_type_id":"4","last_reported":1686261953,"current_range_meters":11600,"station_id":"ce4bhb92rcd13ifvqen0","pricing_plan_id":"free"},{"bike_id":"8298e73a-1bc3-4b77-8346-83659bc7bb1f","system_id":"levelo_inurba_marseille","lat":43.290995,"lon":5.381361,"is_reserved":false,"is_disabled":false,"rental_uris":{"android":"levelo://app?vid=8298e73a-1bc3-4b77-8346-83659bc7bb1f","ios":"levelo://app?vid=8298e73a-1bc3-4b77-8346-83659bc7bb1f"},"vehicle_type_id":"4","last_reported":1686261953,"current_range_meters":0,"station_id":"ce4bh512rcd13ifvqe2g","pricing_plan_id":"free"},{"bike_id":"ccba32b4-08d8-4479-86a6-7f4bfb2846fb","system_id":"levelo_inurba_marseille","lat":43.31992,"lon":5.39919,"is_reserved":false,"is_disabled":false,"rental_uris":{"android":"levelo://app?vid=ccba32b4-08d8-4479-86a6-7f4bfb2846fb","ios":"levelo://app?vid=ccba32b4-08d8-4479-86a6-7f4bfb2846fb"},"vehicle_type_id":"4","last_reported":1686261953,"current_range_meters":0,"station_id":"","pricing_plan_id":"free"},{"bike_id":"ad805d3f-c7fa-4fd9-ab6a-4837476fb20b","system_id":"levelo_inurba_marseille","lat":43.28856,"lon":5.358371,"is_reserved":false,"is_disabled":false,"rental_uris":{"android":"levelo://app?vid=ad805d3f-c7fa-4fd9-ab6a-4837476fb20b","ios":"levelo://app?vid=ad805d3f-c7fa-4fd9-ab6a-4837476fb20b"},"vehicle_type_id":"4","last_reported":1686261953,"current_range_meters":31200,"station_id":"ce4bhb12rcd13ifvqem0","pricing_plan_id":"free"},{"bike_id":"c33e32ce-6fe1-4b62-be77-bcc3fc218b45","system_id":"levelo_inurba_marseille","lat":43.28851,"lon":5.35855,"is_reserved":false,"is_disabled":false,"rental_uris":{"android":"levelo://app?vid=c33e32ce-6fe1-4b62-be77-bcc3fc218b45","ios":"levelo://app?vid=c33e32ce-6fe1-4b62-be77-bcc3fc218b45"},"vehicle_type_id":"4","last_reported":1686261953,"current_range_meters":25600,"station_id":"ce4bhb12rcd13ifvqem0","pricing_plan_id":"free"},{"bike_id":"ff7027ce-9d1c-4f77-aa7b-f0125889b9f2","system_id":"levelo_inurba_marseille","lat":43.2885,"lon":5.3584,"is_reserved":false,"is_disabled":false,"rental_uris":{"android":"levelo://app?vid=ff7027ce-9d1c-4f77-aa7b-f0125889b9f2","ios":"levelo://app?vid=ff7027ce-9d1c-4f77-aa7b-f0125889b9f2"},"vehicle_type_id":"4","last_reported":1686261953,"current_range_meters":30400,"station_id":"ce4bhb12rcd13ifvqem0","pricing_plan_id":"free"},{"bike_id":"d70a4596-896e-47fc-be48-6910ddb33f0d","system_id":"levelo_inurba_marseille","lat":43.28845,"lon":5.35853,"is_reserved":false,"is_disabled":false,"rental_uris":{"android":"levelo://app?vid=d70a4596-896e-47fc-be48-6910ddb33f0d","ios":"levelo://app?vid=d70a4596-896e-47fc-be48-6910ddb33f0d"},"vehicle_type_id":"4","last_reported":1686261953,"current_range_meters":31200,"station_id":"ce4bhb12rcd13ifvqem0","pricing_plan_id":"free"},{"bike_id":"bf4b07bc-f4b6-48f9-b77e-66ec24318ced","system_id":"levelo_inurba_marseille","lat":43.33736,"lon":5.37454,"is_reserved":false,"is_disabled":false,"rental_uris":{"android":"levelo://app?vid=bf4b07bc-f4b6-48f9-b77e-66ec24318ced","ios":"levelo://app?vid=bf4b07bc-f4b6-48f9-b77e-66ec24318ced"},"vehicle_type_id":"4","last_reported":1686261953,"current_range_meters":8800,"station_id":"","pricing_plan_id":"free"},{"bike_id":"d3c226a5-dd73-4d5e-935d-9f1dbacf709b","system_id":"levelo_inurba_marseille","lat":43.30929,"lon":5.40133,"is_reserved":false,"is_disabled":false,"rental_uris":{"android":"levelo://app?vid=d3c226a5-dd73-4d5e-935d-9f1dbacf709b","ios":"levelo://app?vid=d3c226a5-dd73-4d5e-935d-9f1dbacf709b"},"vehicle_type_id":"4","last_reported":1686261953,"current_range_meters":8000,"station_id":"","pricing_plan_id":"free"},{"bike_id":"c2bca6ef-2a0d-4c76-8fbd-d8c1b05e5e18","system_id":"levelo_inurba_marseille","lat":43.33739,"lon":5.37479,"is_reserved":false,"is_disabled":false,"rental_uris":{"android":"levelo://app?vid=c2bca6ef-2a0d-4c76-8fbd-d8c1b05e5e18","ios":"levelo://app?vid=c2bca6ef-2a0d-4c76-8fbd-d8c1b05e5e18"},"vehicle_type_id":"4","last_reported":1686261953,"current_range_meters":0,"station_id":"","pricing_plan_id":"free"},{"bike_id":"3df34af2-2c1c-4042-8029-3ff7acefbf2d","system_id":"levelo_inurba_marseille","lat":43.309371,"lon":5.401449,"is_reserved":false,"is_disabled":false,"rental_uris":{"android":"levelo://app?vid=3df34af2-2c1c-4042-8029-3ff7acefbf2d","ios":"levelo://app?vid=3df34af2-2c1c-4042-8029-3ff7acefbf2d"},"vehicle_type_id":"4","last_reported":1686261953,"current_range_meters":0,"station_id":"ce4bgvp2rcd13ifvqct0","pricing_plan_id":"free"},{"bike_id":"adba634c-042a-4899-868a-019fd8176da7","system_id":"levelo_inurba_marseille","lat":43.30642,"lon":5.401031,"is_reserved":false,"is_disabled":false,"rental_uris":{"android":"levelo://app?vid=adba634c-042a-4899-868a-019fd8176da7","ios":"levelo://app?vid=adba634c-042a-4899-868a-019fd8176da7"},"vehicle_type_id":"4","last_reported":1686261953,"current_range_meters":25600,"station_id":"ce4bh112rcd13ifvqda0","pricing_plan_id":"free"},{"bike_id":"b7f1a644-d66d-4bbf-9b3d-301ef1c29b78","system_id":"levelo_inurba_marseille","lat":43.33752,"lon":5.37437,"is_reserved":false,"is_disabled":false,"rental_uris":{"android":"levelo://app?vid=b7f1a644-d66d-4bbf-9b3d-301ef1c29b78","ios":"levelo://app?vid=b7f1a644-d66d-4bbf-9b3d-301ef1c29b78"},"vehicle_type_id":"4","last_reported":1686261953,"current_range_meters":28000,"station_id":"","pricing_plan_id":"free"},{"bike_id":"6c0e6be1-b574-48ed-9fef-d6d2582938da","system_id":"levelo_inurba_marseille","lat":43.306412,"lon":5.401035,"is_reserved":false,"is_disabled":false,"rental_uris":{"android":"levelo://app?vid=6c0e6be1-b574-48ed-9fef-d6d2582938da","ios":"levelo://app?vid=6c0e6be1-b574-48ed-9fef-d6d2582938da"},"vehicle_type_id":"4","last_reported":1686261953,"current_range_meters":4000,"station_id":"ce4bh112rcd13ifvqda0","pricing_plan_id":"free"},{"bike_id":"265c0905-166c-408b-8d33-95a8e86424e1","system_id":"levelo_inurba_marseille","lat":43.337582,"lon":5.374483,"is_reserved":false,"is_disabled":false,"rental_uris":{"android":"levelo://app?vid=265c0905-166c-408b-8d33-95a8e86424e1","ios":"levelo://app?vid=265c0905-166c-408b-8d33-95a8e86424e1"},"vehicle_type_id":"4","last_reported":1686261953,"current_range_meters":22400,"station_id":"","pricing_plan_id":"free"},{"bike_id":"fb041ec1-b611-46eb-9d8b-3229cfb3396a","system_id":"levelo_inurba_marseille","lat":43.33768,"lon":5.37459,"is_reserved":false,"is_disabled":false,"rental_uris":{"android":"levelo://app?vid=fb041ec1-b611-46eb-9d8b-3229cfb3396a","ios":"levelo://app?vid=fb041ec1-b611-46eb-9d8b-3229cfb3396a"},"vehicle_type_id":"4","last_reported":1686261953,"current_range_meters":29600,"station_id":"","pricing_plan_id":"free"},{"bike_id":"bc39e45e-9657-4b12-b834-c7242afc40ad","system_id":"levelo_inurba_marseille","lat":43.3014,"lon":5.39861,"is_reserved":false,"is_disabled":false,"rental_uris":{"android":"levelo://app?vid=bc39e45e-9657-4b12-b834-c7242afc40ad","ios":"levelo://app?vid=bc39e45e-9657-4b12-b834-c7242afc40ad"},"vehicle_type_id":"4","last_reported":1686261953,"current_range_meters":0,"station_id":"","pricing_plan_id":"free"},{"bike_id":"57bdfc11-d130-493a-b97e-fc625c125903","system_id":"levelo_inurba_marseille","lat":43.301117,"lon":5.398795,"is_reserved":false,"is_disabled":false,"rental_uris":{"android":"levelo://app?vid=57bdfc11-d130-493a-b97e-fc625c125903","ios":"levelo://app?vid=57bdfc11-d130-493a-b97e-fc625c125903"},"vehicle_type_id":"4","last_reported":1686261953,"current_range_meters":30000,"station_id":"ce4bh0h2rcd13ifvqd40","pricing_plan_id":"free"},{"bike_id":"6f1875d2-ab33-442e-9e3c-0946baf5f7f0","system_id":"levelo_inurba_marseille","lat":43.301117,"lon":5.398795,"is_reserved":false,"is_disabled":false,"rental_uris":{"android":"levelo://app?vid=6f1875d2-ab33-442e-9e3c-0946baf5f7f0","ios":"levelo://app?vid=6f1875d2-ab33-442e-9e3c-0946baf5f7f0"},"vehicle_type_id":"4","last_reported":1686261953,"current_range_meters":19600,"station_id":"ce4bh0h2rcd13ifvqd40","pricing_plan_id":"free"},{"bike_id":"97022751-2303-419f-838d-71e82822a5f4","system_id":"levelo_inurba_marseille","lat":43.31331,"lon":5.40246,"is_reserved":false,"is_disabled":false,"rental_uris":{"android":"levelo://app?vid=97022751-2303-419f-838d-71e82822a5f4","ios":"levelo://app?vid=97022751-2303-419f-838d-71e82822a5f4"},"vehicle_type_id":"4","last_reported":1686261953,"current_range_meters":6800,"station_id":"","pricing_plan_id":"free"},{"bike_id":"f64846da-6d7f-44ae-b5fb-d7b242e1a4df","system_id":"levelo_inurba_marseille","lat":43.298681,"lon":5.397225,"is_reserved":false,"is_disabled":false,"rental_uris":{"android":"levelo://app?vid=f64846da-6d7f-44ae-b5fb-d7b242e1a4df","ios":"levelo://app?vid=f64846da-6d7f-44ae-b5fb-d7b242e1a4df"},"vehicle_type_id":"4","last_reported":1686261953,"current_range_meters":24400,"station_id":"ce4bh0h2rcd13ifvqd50","pricing_plan_id":"free"},{"bike_id":"664d2160-e09f-428b-bfbb-36c3ebccec56","system_id":"levelo_inurba_marseille","lat":43.298681,"lon":5.397225,"is_reserved":false,"is_disabled":false,"rental_uris":{"android":"levelo://app?vid=664d2160-e09f-428b-bfbb-36c3ebccec56","ios":"levelo://app?vid=664d2160-e09f-428b-bfbb-36c3ebccec56"},"vehicle_type_id":"4","last_reported":1686261953,"current_range_meters":27600,"station_id":"ce4bh0h2rcd13ifvqd50","pricing_plan_id":"free"},{"bike_id":"363684ec-972e-4926-a8b1-06e06d2c87d4","system_id":"levelo_inurba_marseille","lat":43.286591,"lon":5.363346,"is_reserved":false,"is_disabled":false,"rental_uris":{"android":"levelo://app?vid=363684ec-972e-4926-a8b1-06e06d2c87d4","ios":"levelo://app?vid=363684ec-972e-4926-a8b1-06e06d2c87d4"},"vehicle_type_id":"4","last_reported":1686261953,"current_range_meters":3200,"station_id":"ce4bhah2rcd13ifvqej0","pricing_plan_id":"free"},{"bike_id":"e6aebc74-ec38-4c0a-a880-31354d177a3f","system_id":"levelo_inurba_marseille","lat":43.320045,"lon":5.415048,"is_reserved":false,"is_disabled":false,"rental_uris":{"android":"levelo://app?vid=e6aebc74-ec38-4c0a-a880-31354d177a3f","ios":"levelo://app?vid=e6aebc74-ec38-4c0a-a880-31354d177a3f"},"vehicle_type_id":"4","last_reported":1686261953,"current_range_meters":16000,"station_id":"ce4bhq92rcd13ifvqhkg","pricing_plan_id":"free"},{"bike_id":"d50099f2-7619-4195-806b-d45abb339963","system_id":"levelo_inurba_marseille","lat":43.295196,"lon":5.39397,"is_reserved":false,"is_disabled":false,"rental_uris":{"android":"levelo://app?vid=d50099f2-7619-4195-806b-d45abb339963","ios":"levelo://app?vid=d50099f2-7619-4195-806b-d45abb339963"},"vehicle_type_id":"4","last_reported":1686261953,"current_range_meters":8000,"station_id":"ce4bh292rcd13ifvqdf0","pricing_plan_id":"free"},{"bike_id":"7ab5dd55-3a42-46bf-a4fe-4fa4ec0e52a8","system_id":"levelo_inurba_marseille","lat":43.302759,"lon":5.400793,"is_reserved":false,"is_disabled":false,"rental_uris":{"android":"levelo://app?vid=7ab5dd55-3a42-46bf-a4fe-4fa4ec0e52a8","ios":"levelo://app?vid=7ab5dd55-3a42-46bf-a4fe-4fa4ec0e52a8"},"vehicle_type_id":"4","last_reported":1686261953,"current_range_meters":20800,"station_id":"ce4bgvh2rcd13ifvqcs0","pricing_plan_id":"free"},{"bike_id":"4d56b7bb-fdd1-42ea-bdcc-874d589dcc26","system_id":"levelo_inurba_marseille","lat":43.302759,"lon":5.400793,"is_reserved":false,"is_disabled":false,"rental_uris":{"android":"levelo://app?vid=4d56b7bb-fdd1-42ea-bdcc-874d589dcc26","ios":"levelo://app?vid=4d56b7bb-fdd1-42ea-bdcc-874d589dcc26"},"vehicle_type_id":"4","last_reported":1686261953,"current_range_meters":18400,"station_id":"ce4bgvh2rcd13ifvqcs0","pricing_plan_id":"free"},{"bike_id":"9c628dda-bdfd-4262-abbe-1152b05a9e39","system_id":"levelo_inurba_marseille","lat":43.302759,"lon":5.400793,"is_reserved":false,"is_disabled":false,"rental_uris":{"android":"levelo://app?vid=9c628dda-bdfd-4262-abbe-1152b05a9e39","ios":"levelo://app?vid=9c628dda-bdfd-4262-abbe-1152b05a9e39"},"vehicle_type_id":"4","last_reported":1686261953,"current_range_meters":18800,"station_id":"ce4bgvh2rcd13ifvqcs0","pricing_plan_id":"free"},{"bike_id":"58ff2345-34ac-43d5-83d1-f18ba37fba0c","system_id":"levelo_inurba_marseille","lat":43.287184,"lon":5.37937,"is_reserved":false,"is_disabled":false,"rental_uris":{"android":"levelo://app?vid=58ff2345-34ac-43d5-83d1-f18ba37fba0c","ios":"levelo://app?vid=58ff2345-34ac-43d5-83d1-f18ba37fba0c"},"vehicle_type_id":"4","last_reported":1686261953,"current_range_meters":22800,"station_id":"ce4bh9p2rcd13ifvqec0","pricing_plan_id":"free"},{"bike_id":"b9c9ef6b-db12-4d87-98e9-f11de3b09c8d","system_id":"levelo_inurba_marseille","lat":43.316517,"lon":5.404375,"is_reserved":false,"is_disabled":false,"rental_uris":{"android":"levelo://app?vid=b9c9ef6b-db12-4d87-98e9-f11de3b09c8d","ios":"levelo://app?vid=b9c9ef6b-db12-4d87-98e9-f11de3b09c8d"},"vehicle_type_id":"4","last_reported":1686261953,"current_range_meters":20400,"station_id":"ce4bh012rcd13ifvqd00","pricing_plan_id":"free"},{"bike_id":"bbc6ed9c-d7b0-4496-90f8-e96be2498ff6","system_id":"levelo_inurba_marseille","lat":43.316,"lon":5.40445,"is_reserved":false,"is_disabled":false,"rental_uris":{"android":"levelo://app?vid=bbc6ed9c-d7b0-4496-90f8-e96be2498ff6","ios":"levelo://app?vid=bbc6ed9c-d7b0-4496-90f8-e96be2498ff6"},"vehicle_type_id":"4","last_reported":1686261953,"current_range_meters":4400,"station_id":"","pricing_plan_id":"free"},{"bike_id":"82483616-3a97-4a3e-b27d-5784ae7bbbc7","system_id":"levelo_inurba_marseille","lat":43.316517,"lon":5.404375,"is_reserved":false,"is_disabled":false,"rental_uris":{"android":"levelo://app?vid=82483616-3a97-4a3e-b27d-5784ae7bbbc7","ios":"levelo://app?vid=82483616-3a97-4a3e-b27d-5784ae7bbbc7"},"vehicle_type_id":"4","last_reported":1686261953,"current_range_meters":0,"station_id":"ce4bh012rcd13ifvqd00","pricing_plan_id":"free"},{"bike_id":"907ac742-cb3f-4b75-8172-df08dad4d247","system_id":"levelo_inurba_marseille","lat":43.316517,"lon":5.404375,"is_reserved":false,"is_disabled":false,"rental_uris":{"android":"levelo://app?vid=907ac742-cb3f-4b75-8172-df08dad4d247","ios":"levelo://app?vid=907ac742-cb3f-4b75-8172-df08dad4d247"},"vehicle_type_id":"4","last_reported":1686261953,"current_range_meters":7600,"station_id":"ce4bh012rcd13ifvqd00","pricing_plan_id":"free"},{"bike_id":"d381aeee-f103-4e05-ad2b-2bf3a1ab9459","system_id":"levelo_inurba_marseille","lat":43.284534,"lon":5.358662,"is_reserved":false,"is_disabled":false,"rental_uris":{"android":"levelo://app?vid=d381aeee-f103-4e05-ad2b-2bf3a1ab9459","ios":"levelo://app?vid=d381aeee-f103-4e05-ad2b-2bf3a1ab9459"},"vehicle_type_id":"4","last_reported":1686261953,"current_range_meters":13200,"station_id":"ce4bhah2rcd13ifvqei0","pricing_plan_id":"free"},{"bike_id":"5306fbd0-bd0e-4c9f-9faf-d9942d28a0f3","system_id":"levelo_inurba_marseille","lat":43.285856,"lon":5.350771,"is_reserved":false,"is_disabled":false,"rental_uris":{"android":"levelo://app?vid=5306fbd0-bd0e-4c9f-9faf-d9942d28a0f3","ios":"levelo://app?vid=5306fbd0-bd0e-4c9f-9faf-d9942d28a0f3"},"vehicle_type_id":"4","last_reported":1686261953,"current_range_meters":8800,"station_id":"ce4bhch2rcd13ifvqeug","pricing_plan_id":"free"},{"bike_id":"ac8b0559-7cea-47c7-90f4-a17ddac528f2","system_id":"levelo_inurba_marseille","lat":43.28617,"lon":5.35101,"is_reserved":false,"is_disabled":false,"rental_uris":{"android":"levelo://app?vid=ac8b0559-7cea-47c7-90f4-a17ddac528f2","ios":"levelo://app?vid=ac8b0559-7cea-47c7-90f4-a17ddac528f2"},"vehicle_type_id":"4","last_reported":1686261953,"current_range_meters":0,"station_id":"","pricing_plan_id":"free"},{"bike_id":"e792c362-b25d-424f-b5c8-69b588bf044e","system_id":"levelo_inurba_marseille","lat":43.286595,"lon":5.386795,"is_reserved":false,"is_disabled":false,"rental_uris":{"android":"levelo://app?vid=e792c362-b25d-424f-b5c8-69b588bf044e","ios":"levelo://app?vid=e792c362-b25d-424f-b5c8-69b588bf044e"},"vehicle_type_id":"4","last_reported":1686261953,"current_range_meters":12400,"station_id":"ce4bh492rcd13ifvqdug","pricing_plan_id":"free"},{"bike_id":"82c85353-123b-4c0d-9bb6-1981ba67c68d","system_id":"levelo_inurba_marseille","lat":43.323464,"lon":5.406297,"is_reserved":false,"is_disabled":false,"rental_uris":{"android":"levelo://app?vid=82c85353-123b-4c0d-9bb6-1981ba67c68d","ios":"levelo://app?vid=82c85353-123b-4c0d-9bb6-1981ba67c68d"},"vehicle_type_id":"4","last_reported":1686261953,"current_range_meters":31200,"station_id":"ce4bhq92rcd13ifvqhjg","pricing_plan_id":"free"},{"bike_id":"910f7db5-2526-42e9-ae55-fbf6f4616c87","system_id":"levelo_inurba_marseille","lat":43.323464,"lon":5.406297,"is_reserved":false,"is_disabled":false,"rental_uris":{"android":"levelo://app?vid=910f7db5-2526-42e9-ae55-fbf6f4616c87","ios":"levelo://app?vid=910f7db5-2526-42e9-ae55-fbf6f4616c87"},"vehicle_type_id":"4","last_reported":1686261953,"current_range_meters":26000,"station_id":"ce4bhq92rcd13ifvqhjg","pricing_plan_id":"free"},{"bike_id":"4da386e0-679a-42c9-a189-e18247bbb007","system_id":"levelo_inurba_marseille","lat":43.284793,"lon":5.384113,"is_reserved":false,"is_disabled":false,"rental_uris":{"android":"levelo://app?vid=4da386e0-679a-42c9-a189-e18247bbb007","ios":"levelo://app?vid=4da386e0-679a-42c9-a189-e18247bbb007"},"vehicle_type_id":"4","last_reported":1686261953,"current_range_meters":4400,"station_id":"ce4bh512rcd13ifvqe3g","pricing_plan_id":"free"},{"bike_id":"a990abec-5ad3-4933-82bc-4dba323de085","system_id":"levelo_inurba_marseille","lat":43.284787,"lon":5.384116,"is_reserved":false,"is_disabled":false,"rental_uris":{"android":"levelo://app?vid=a990abec-5ad3-4933-82bc-4dba323de085","ios":"levelo://app?vid=a990abec-5ad3-4933-82bc-4dba323de085"},"vehicle_type_id":"4","last_reported":1686261953,"current_range_meters":8400,"station_id":"ce4bh512rcd13ifvqe3g","pricing_plan_id":"free"},{"bike_id":"cee644c2-003a-4d16-8efb-96be0f593ed8","system_id":"levelo_inurba_marseille","lat":43.284793,"lon":5.384119,"is_reserved":false,"is_disabled":false,"rental_uris":{"android":"levelo://app?vid=cee644c2-003a-4d16-8efb-96be0f593ed8","ios":"levelo://app?vid=cee644c2-003a-4d16-8efb-96be0f593ed8"},"vehicle_type_id":"4","last_reported":1686261953,"current_range_meters":9200,"station_id":"ce4bh512rcd13ifvqe3g","pricing_plan_id":"free"},{"bike_id":"864976da-fc17-4732-84fe-8b09dc98c7f6","system_id":"levelo_inurba_marseille","lat":43.288501,"lon":5.393087,"is_reserved":false,"is_disabled":false,"rental_uris":{"android":"levelo://app?vid=864976da-fc17-4732-84fe-8b09dc98c7f6","ios":"levelo://app?vid=864976da-fc17-4732-84fe-8b09dc98c7f6"},"vehicle_type_id":"4","last_reported":1686261953,"current_range_meters":0,"station_id":"ce4bh2p2rcd13ifvqdi0","pricing_plan_id":"free"},{"bike_id":"ae232d39-b160-410f-a53c-e104a0631f2e","system_id":"levelo_inurba_marseille","lat":43.32413,"lon":5.40685,"is_reserved":false,"is_disabled":false,"rental_uris":{"android":"levelo://app?vid=ae232d39-b160-410f-a53c-e104a0631f2e","ios":"levelo://app?vid=ae232d39-b160-410f-a53c-e104a0631f2e"},"vehicle_type_id":"4","last_reported":1686261953,"current_range_meters":23200,"station_id":"","pricing_plan_id":"free"},{"bike_id":"b4f32e0c-d377-483b-a399-618464fd73cd","system_id":"levelo_inurba_marseille","lat":43.289363,"lon":5.396322,"is_reserved":false,"is_disabled":false,"rental_uris":{"android":"levelo://app?vid=b4f32e0c-d377-483b-a399-618464fd73cd","ios":"levelo://app?vid=b4f32e0c-d377-483b-a399-618464fd73cd"},"vehicle_type_id":"4","last_reported":1686261953,"current_range_meters":400,"station_id":"ce4bh3h2rcd13ifvqdn0","pricing_plan_id":"free"},{"bike_id":"f9a174fd-fab1-428a-a5cc-8cc82b22ee6b","system_id":"levelo_inurba_marseille","lat":43.292724,"lon":5.401131,"is_reserved":false,"is_disabled":false,"rental_uris":{"android":"levelo://app?vid=f9a174fd-fab1-428a-a5cc-8cc82b22ee6b","ios":"levelo://app?vid=f9a174fd-fab1-428a-a5cc-8cc82b22ee6b"},"vehicle_type_id":"4","last_reported":1686261953,"current_range_meters":6400,"station_id":"ce4bh312rcd13ifvqdk0","pricing_plan_id":"free"},{"bike_id":"986c296e-37fa-4555-af11-3132c9bd9dd0","system_id":"levelo_inurba_marseille","lat":43.28111,"lon":5.37857,"is_reserved":false,"is_disabled":false,"rental_uris":{"android":"levelo://app?vid=986c296e-37fa-4555-af11-3132c9bd9dd0","ios":"levelo://app?vid=986c296e-37fa-4555-af11-3132c9bd9dd0"},"vehicle_type_id":"4","last_reported":1686261953,"current_range_meters":0,"station_id":"ce4bha12rcd13ifvqee0","pricing_plan_id":"free"},{"bike_id":"9be4ff32-f64e-480a-8cc9-e851bb8f520b","system_id":"levelo_inurba_marseille","lat":43.281044,"lon":5.378308,"is_reserved":false,"is_disabled":false,"rental_uris":{"android":"levelo://app?vid=9be4ff32-f64e-480a-8cc9-e851bb8f520b","ios":"levelo://app?vid=9be4ff32-f64e-480a-8cc9-e851bb8f520b"},"vehicle_type_id":"4","last_reported":1686261953,"current_range_meters":3200,"station_id":"ce4bha12rcd13ifvqee0","pricing_plan_id":"free"},{"bike_id":"9abc9694-ff10-4464-bb71-37056104f80a","system_id":"levelo_inurba_marseille","lat":43.32659,"lon":5.40992,"is_reserved":false,"is_disabled":false,"rental_uris":{"android":"levelo://app?vid=9abc9694-ff10-4464-bb71-37056104f80a","ios":"levelo://app?vid=9abc9694-ff10-4464-bb71-37056104f80a"},"vehicle_type_id":"4","last_reported":1686261953,"current_range_meters":22800,"station_id":"","pricing_plan_id":"free"},{"bike_id":"bdc01a4c-c402-4305-b66a-ecb1270f4e4d","system_id":"levelo_inurba_marseille","lat":43.292569,"lon":5.409107,"is_reserved":false,"is_disabled":false,"rental_uris":{"android":"levelo://app?vid=bdc01a4c-c402-4305-b66a-ecb1270f4e4d","ios":"levelo://app?vid=bdc01a4c-c402-4305-b66a-ecb1270f4e4d"},"vehicle_type_id":"4","last_reported":1686261953,"current_range_meters":21600,"station_id":"ce4bh192rcd13ifvqdc0","pricing_plan_id":"free"},{"bike_id":"f6e18763-e2d0-40cb-b067-2de8e2d5d4ba","system_id":"levelo_inurba_marseille","lat":43.27897,"lon":5.38014,"is_reserved":false,"is_disabled":false,"rental_uris":{"android":"levelo://app?vid=f6e18763-e2d0-40cb-b067-2de8e2d5d4ba","ios":"levelo://app?vid=f6e18763-e2d0-40cb-b067-2de8e2d5d4ba"},"vehicle_type_id":"4","last_reported":1686261953,"current_range_meters":23600,"station_id":"","pricing_plan_id":"free"},{"bike_id":"be0e4e13-c8a8-4b7e-81e6-c21b32aa0c28","system_id":"levelo_inurba_marseille","lat":43.27892,"lon":5.38007,"is_reserved":false,"is_disabled":false,"rental_uris":{"android":"levelo://app?vid=be0e4e13-c8a8-4b7e-81e6-c21b32aa0c28","ios":"levelo://app?vid=be0e4e13-c8a8-4b7e-81e6-c21b32aa0c28"},"vehicle_type_id":"4","last_reported":1686261953,"current_range_meters":16000,"station_id":"","pricing_plan_id":"free"},{"bike_id":"dca54992-703e-4071-9cd1-c38f272173f4","system_id":"levelo_inurba_marseille","lat":43.287,"lon":5.39986,"is_reserved":false,"is_disabled":false,"rental_uris":{"android":"levelo://app?vid=dca54992-703e-4071-9cd1-c38f272173f4","ios":"levelo://app?vid=dca54992-703e-4071-9cd1-c38f272173f4"},"vehicle_type_id":"4","last_reported":1686261953,"current_range_meters":18400,"station_id":"ce4bho92rcd13ifvqh3g","pricing_plan_id":"free"},{"bike_id":"46a9750d-027c-4c59-bd31-f3eb187e55c4","system_id":"levelo_inurba_marseille","lat":43.287154,"lon":5.399979,"is_reserved":false,"is_disabled":false,"rental_uris":{"android":"levelo://app?vid=46a9750d-027c-4c59-bd31-f3eb187e55c4","ios":"levelo://app?vid=46a9750d-027c-4c59-bd31-f3eb187e55c4"},"vehicle_type_id":"4","last_reported":1686261953,"current_range_meters":24800,"station_id":"ce4bho92rcd13ifvqh3g","pricing_plan_id":"free"},{"bike_id":"3f5f3647-5f81-4422-8f55-2fef329c37c8","system_id":"levelo_inurba_marseille","lat":43.28701,"lon":5.3999,"is_reserved":false,"is_disabled":false,"rental_uris":{"android":"levelo://app?vid=3f5f3647-5f81-4422-8f55-2fef329c37c8","ios":"levelo://app?vid=3f5f3647-5f81-4422-8f55-2fef329c37c8"},"vehicle_type_id":"4","last_reported":1686261953,"current_range_meters":0,"station_id":"ce4bho92rcd13ifvqh3g","pricing_plan_id":"free"},{"bike_id":"48ef98bd-f480-4108-b072-d20d5bdcb465","system_id":"levelo_inurba_marseille","lat":43.287154,"lon":5.399979,"is_reserved":false,"is_disabled":false,"rental_uris":{"android":"levelo://app?vid=48ef98bd-f480-4108-b072-d20d5bdcb465","ios":"levelo://app?vid=48ef98bd-f480-4108-b072-d20d5bdcb465"},"vehicle_type_id":"4","last_reported":1686261953,"current_range_meters":0,"station_id":"ce4bho92rcd13ifvqh3g","pricing_plan_id":"free"},{"bike_id":"4ae9d9de-0fae-4350-9c85-d35b08cc0449","system_id":"levelo_inurba_marseille","lat":43.320045,"lon":5.415046,"is_reserved":false,"is_disabled":false,"rental_uris":{"android":"levelo://app?vid=4ae9d9de-0fae-4350-9c85-d35b08cc0449","ios":"levelo://app?vid=4ae9d9de-0fae-4350-9c85-d35b08cc0449"},"vehicle_type_id":"4","last_reported":1686261953,"current_range_meters":28800,"station_id":"ce4bhq92rcd13ifvqhkg","pricing_plan_id":"free"},{"bike_id":"dfd218ba-eac0-4ded-bcb0-3aff8e533ee1","system_id":"levelo_inurba_marseille","lat":43.320045,"lon":5.415046,"is_reserved":false,"is_disabled":false,"rental_uris":{"android":"levelo://app?vid=dfd218ba-eac0-4ded-bcb0-3aff8e533ee1","ios":"levelo://app?vid=dfd218ba-eac0-4ded-bcb0-3aff8e533ee1"},"vehicle_type_id":"4","last_reported":1686261953,"current_range_meters":16800,"station_id":"ce4bhq92rcd13ifvqhkg","pricing_plan_id":"free"},{"bike_id":"b04dfc7f-e624-47c8-9332-d5a9e7fdb88e","system_id":"levelo_inurba_marseille","lat":43.320045,"lon":5.415046,"is_reserved":false,"is_disabled":false,"rental_uris":{"android":"levelo://app?vid=b04dfc7f-e624-47c8-9332-d5a9e7fdb88e","ios":"levelo://app?vid=b04dfc7f-e624-47c8-9332-d5a9e7fdb88e"},"vehicle_type_id":"4","last_reported":1686261953,"current_range_meters":30400,"station_id":"ce4bhq92rcd13ifvqhkg","pricing_plan_id":"free"},{"bike_id":"39fe3f6c-67f1-43a8-b281-54733192d035","system_id":"levelo_inurba_marseille","lat":43.320045,"lon":5.415048,"is_reserved":false,"is_disabled":false,"rental_uris":{"android":"levelo://app?vid=39fe3f6c-67f1-43a8-b281-54733192d035","ios":"levelo://app?vid=39fe3f6c-67f1-43a8-b281-54733192d035"},"vehicle_type_id":"4","last_reported":1686261953,"current_range_meters":31600,"station_id":"ce4bhq92rcd13ifvqhkg","pricing_plan_id":"free"},{"bike_id":"2c92857e-091e-4924-886c-eca1a1a8bc87","system_id":"levelo_inurba_marseille","lat":43.320045,"lon":5.415046,"is_reserved":false,"is_disabled":false,"rental_uris":{"android":"levelo://app?vid=2c92857e-091e-4924-886c-eca1a1a8bc87","ios":"levelo://app?vid=2c92857e-091e-4924-886c-eca1a1a8bc87"},"vehicle_type_id":"4","last_reported":1686261953,"current_range_meters":26000,"station_id":"ce4bhq92rcd13ifvqhkg","pricing_plan_id":"free"},{"bike_id":"a059a2c8-81f5-4c73-9466-f3f92f9b0f48","system_id":"levelo_inurba_marseille","lat":43.320045,"lon":5.415046,"is_reserved":false,"is_disabled":false,"rental_uris":{"android":"levelo://app?vid=a059a2c8-81f5-4c73-9466-f3f92f9b0f48","ios":"levelo://app?vid=a059a2c8-81f5-4c73-9466-f3f92f9b0f48"},"vehicle_type_id":"4","last_reported":1686261953,"current_range_meters":30400,"station_id":"ce4bhq92rcd13ifvqhkg","pricing_plan_id":"free"},{"bike_id":"00192ce4-1007-4540-96d1-a1beb7e19ca2","system_id":"levelo_inurba_marseille","lat":43.32039,"lon":5.41578,"is_reserved":false,"is_disabled":false,"rental_uris":{"android":"levelo://app?vid=00192ce4-1007-4540-96d1-a1beb7e19ca2","ios":"levelo://app?vid=00192ce4-1007-4540-96d1-a1beb7e19ca2"},"vehicle_type_id":"4","last_reported":1686261953,"current_range_meters":9600,"station_id":"","pricing_plan_id":"free"},{"bike_id":"aad2724e-27b0-4431-9221-d6ee6af0cb96","system_id":"levelo_inurba_marseille","lat":43.292569,"lon":5.409107,"is_reserved":false,"is_disabled":false,"rental_uris":{"android":"levelo://app?vid=aad2724e-27b0-4431-9221-d6ee6af0cb96","ios":"levelo://app?vid=aad2724e-27b0-4431-9221-d6ee6af0cb96"},"vehicle_type_id":"4","last_reported":1686261953,"current_range_meters":30400,"station_id":"ce4bh192rcd13ifvqdc0","pricing_plan_id":"free"},{"bike_id":"47053d9f-85ff-4a96-b67d-a31042c47c9d","system_id":"levelo_inurba_marseille","lat":43.29256,"lon":5.40907,"is_reserved":false,"is_disabled":false,"rental_uris":{"android":"levelo://app?vid=47053d9f-85ff-4a96-b67d-a31042c47c9d","ios":"levelo://app?vid=47053d9f-85ff-4a96-b67d-a31042c47c9d"},"vehicle_type_id":"4","last_reported":1686261953,"current_range_meters":11600,"station_id":"ce4bh192rcd13ifvqdc0","pricing_plan_id":"free"},{"bike_id":"855ac8a1-8021-4810-b978-1bc61263d2ad","system_id":"levelo_inurba_marseille","lat":43.292569,"lon":5.409107,"is_reserved":false,"is_disabled":false,"rental_uris":{"android":"levelo://app?vid=855ac8a1-8021-4810-b978-1bc61263d2ad","ios":"levelo://app?vid=855ac8a1-8021-4810-b978-1bc61263d2ad"},"vehicle_type_id":"4","last_reported":1686261953,"current_range_meters":26000,"station_id":"ce4bh192rcd13ifvqdc0","pricing_plan_id":"free"},{"bike_id":"9784c783-5f35-4baa-9353-f653b656e75a","system_id":"levelo_inurba_marseille","lat":43.292569,"lon":5.409107,"is_reserved":false,"is_disabled":false,"rental_uris":{"android":"levelo://app?vid=9784c783-5f35-4baa-9353-f653b656e75a","ios":"levelo://app?vid=9784c783-5f35-4baa-9353-f653b656e75a"},"vehicle_type_id":"4","last_reported":1686261953,"current_range_meters":31200,"station_id":"ce4bh192rcd13ifvqdc0","pricing_plan_id":"free"},{"bike_id":"cbd46db7-6c28-425e-b385-cb215d2787ab","system_id":"levelo_inurba_marseille","lat":43.29249,"lon":5.40911,"is_reserved":false,"is_disabled":false,"rental_uris":{"android":"levelo://app?vid=cbd46db7-6c28-425e-b385-cb215d2787ab","ios":"levelo://app?vid=cbd46db7-6c28-425e-b385-cb215d2787ab"},"vehicle_type_id":"4","last_reported":1686261953,"current_range_meters":31200,"station_id":"ce4bh192rcd13ifvqdc0","pricing_plan_id":"free"},{"bike_id":"5bd71030-187c-4dbb-a919-67217752b1fb","system_id":"levelo_inurba_marseille","lat":43.303837,"lon":5.418724,"is_reserved":false,"is_disabled":false,"rental_uris":{"android":"levelo://app?vid=5bd71030-187c-4dbb-a919-67217752b1fb","ios":"levelo://app?vid=5bd71030-187c-4dbb-a919-67217752b1fb"},"vehicle_type_id":"4","last_reported":1686261953,"current_range_meters":30000,"station_id":"ce4bhop2rcd13ifvqh7g","pricing_plan_id":"free"},{"bike_id":"95e25cd3-037d-4bc6-9207-0c4e20e3f8ea","system_id":"levelo_inurba_marseille","lat":43.303494,"lon":5.418755,"is_reserved":false,"is_disabled":false,"rental_uris":{"android":"levelo://app?vid=95e25cd3-037d-4bc6-9207-0c4e20e3f8ea","ios":"levelo://app?vid=95e25cd3-037d-4bc6-9207-0c4e20e3f8ea"},"vehicle_type_id":"4","last_reported":1686261953,"current_range_meters":31200,"station_id":"","pricing_plan_id":"free"},{"bike_id":"ec95fc89-1925-4848-b99e-1f61d7e08ca2","system_id":"levelo_inurba_marseille","lat":43.278399,"lon":5.392139,"is_reserved":false,"is_disabled":false,"rental_uris":{"android":"levelo://app?vid=ec95fc89-1925-4848-b99e-1f61d7e08ca2","ios":"levelo://app?vid=ec95fc89-1925-4848-b99e-1f61d7e08ca2"},"vehicle_type_id":"4","last_reported":1686261953,"current_range_meters":5600,"station_id":"ce4bhjp2rcd13ifvqga0","pricing_plan_id":"free"},{"bike_id":"c02b6ca3-e31d-4033-8c48-2f14b6ac948b","system_id":"levelo_inurba_marseille","lat":43.302008,"lon":5.394694,"is_reserved":false,"is_disabled":false,"rental_uris":{"android":"levelo://app?vid=c02b6ca3-e31d-4033-8c48-2f14b6ac948b","ios":"levelo://app?vid=c02b6ca3-e31d-4033-8c48-2f14b6ac948b"},"vehicle_type_id":"4","last_reported":1686261953,"current_range_meters":800,"station_id":"ce4bh0p2rcd13ifvqd70","pricing_plan_id":"free"},{"bike_id":"3db8b609-d74f-46ae-9faf-764281d37846","system_id":"levelo_inurba_marseille","lat":43.278399,"lon":5.392139,"is_reserved":false,"is_disabled":false,"rental_uris":{"android":"levelo://app?vid=3db8b609-d74f-46ae-9faf-764281d37846","ios":"levelo://app?vid=3db8b609-d74f-46ae-9faf-764281d37846"},"vehicle_type_id":"4","last_reported":1686261953,"current_range_meters":12000,"station_id":"ce4bhjp2rcd13ifvqga0","pricing_plan_id":"free"},{"bike_id":"c4af9f81-605e-45d5-8f70-a4ea5b12ac39","system_id":"levelo_inurba_marseille","lat":43.33612,"lon":5.410321,"is_reserved":false,"is_disabled":false,"rental_uris":{"android":"levelo://app?vid=c4af9f81-605e-45d5-8f70-a4ea5b12ac39","ios":"levelo://app?vid=c4af9f81-605e-45d5-8f70-a4ea5b12ac39"},"vehicle_type_id":"4","last_reported":1686261953,"current_range_meters":27600,"station_id":"ce4bhqh2rcd13ifvqhmg","pricing_plan_id":"free"},{"bike_id":"7d6fd55a-cbdf-4458-9437-b7cd2f7e812a","system_id":"levelo_inurba_marseille","lat":43.336134,"lon":5.410341,"is_reserved":false,"is_disabled":false,"rental_uris":{"android":"levelo://app?vid=7d6fd55a-cbdf-4458-9437-b7cd2f7e812a","ios":"levelo://app?vid=7d6fd55a-cbdf-4458-9437-b7cd2f7e812a"},"vehicle_type_id":"4","last_reported":1686261953,"current_range_meters":0,"station_id":"ce4bhqh2rcd13ifvqhmg","pricing_plan_id":"free"},{"bike_id":"9146dfdd-17d7-4ebc-835d-7b794a79363d","system_id":"levelo_inurba_marseille","lat":43.336134,"lon":5.410341,"is_reserved":false,"is_disabled":false,"rental_uris":{"android":"levelo://app?vid=9146dfdd-17d7-4ebc-835d-7b794a79363d","ios":"levelo://app?vid=9146dfdd-17d7-4ebc-835d-7b794a79363d"},"vehicle_type_id":"4","last_reported":1686261953,"current_range_meters":29600,"station_id":"ce4bhqh2rcd13ifvqhmg","pricing_plan_id":"free"},{"bike_id":"cb12df04-ed9f-4b11-99b9-05021f6d5673","system_id":"levelo_inurba_marseille","lat":43.317121,"lon":5.423936,"is_reserved":false,"is_disabled":false,"rental_uris":{"android":"levelo://app?vid=cb12df04-ed9f-4b11-99b9-05021f6d5673","ios":"levelo://app?vid=cb12df04-ed9f-4b11-99b9-05021f6d5673"},"vehicle_type_id":"4","last_reported":1686261953,"current_range_meters":5600,"station_id":"ce4bhp92rcd13ifvqhbg","pricing_plan_id":"free"},{"bike_id":"d4575ced-4ce1-4f6d-b020-7c3d79e4d4d9","system_id":"levelo_inurba_marseille","lat":43.317121,"lon":5.423936,"is_reserved":false,"is_disabled":false,"rental_uris":{"android":"levelo://app?vid=d4575ced-4ce1-4f6d-b020-7c3d79e4d4d9","ios":"levelo://app?vid=d4575ced-4ce1-4f6d-b020-7c3d79e4d4d9"},"vehicle_type_id":"4","last_reported":1686261953,"current_range_meters":6400,"station_id":"ce4bhp92rcd13ifvqhbg","pricing_plan_id":"free"},{"bike_id":"0d309f13-59d9-4c3d-8ebc-1648d0de27b0","system_id":"levelo_inurba_marseille","lat":43.317121,"lon":5.423936,"is_reserved":false,"is_disabled":false,"rental_uris":{"android":"levelo://app?vid=0d309f13-59d9-4c3d-8ebc-1648d0de27b0","ios":"levelo://app?vid=0d309f13-59d9-4c3d-8ebc-1648d0de27b0"},"vehicle_type_id":"4","last_reported":1686261953,"current_range_meters":29600,"station_id":"ce4bhp92rcd13ifvqhbg","pricing_plan_id":"free"},{"bike_id":"71380749-5d04-49bc-b45a-d6a22dfec7f1","system_id":"levelo_inurba_marseille","lat":43.317121,"lon":5.423936,"is_reserved":false,"is_disabled":false,"rental_uris":{"android":"levelo://app?vid=71380749-5d04-49bc-b45a-d6a22dfec7f1","ios":"levelo://app?vid=71380749-5d04-49bc-b45a-d6a22dfec7f1"},"vehicle_type_id":"4","last_reported":1686261953,"current_range_meters":0,"station_id":"ce4bhp92rcd13ifvqhbg","pricing_plan_id":"free"},{"bike_id":"b3677f59-d11f-4dfc-8eb0-ba0681765051","system_id":"levelo_inurba_marseille","lat":43.31085,"lon":5.42429,"is_reserved":false,"is_disabled":false,"rental_uris":{"android":"levelo://app?vid=b3677f59-d11f-4dfc-8eb0-ba0681765051","ios":"levelo://app?vid=b3677f59-d11f-4dfc-8eb0-ba0681765051"},"vehicle_type_id":"4","last_reported":1686261953,"current_range_meters":800,"station_id":"ce4bhp92rcd13ifvqhag","pricing_plan_id":"free"},{"bike_id":"cb361806-7d5e-46cb-91fe-3363938d02e9","system_id":"levelo_inurba_marseille","lat":43.28262,"lon":5.40816,"is_reserved":false,"is_disabled":false,"rental_uris":{"android":"levelo://app?vid=cb361806-7d5e-46cb-91fe-3363938d02e9","ios":"levelo://app?vid=cb361806-7d5e-46cb-91fe-3363938d02e9"},"vehicle_type_id":"4","last_reported":1686261953,"current_range_meters":24400,"station_id":"","pricing_plan_id":"free"},{"bike_id":"3b126d58-873f-42eb-b4c8-d6ccfb1796b8","system_id":"levelo_inurba_marseille","lat":43.304096,"lon":5.425385,"is_reserved":false,"is_disabled":false,"rental_uris":{"android":"levelo://app?vid=3b126d58-873f-42eb-b4c8-d6ccfb1796b8","ios":"levelo://app?vid=3b126d58-873f-42eb-b4c8-d6ccfb1796b8"},"vehicle_type_id":"4","last_reported":1686261953,"current_range_meters":11600,"station_id":"ce4bhoh2rcd13ifvqh6g","pricing_plan_id":"free"},{"bike_id":"3811e2d8-99ee-46f0-897c-cbc61f8f69de","system_id":"levelo_inurba_marseille","lat":43.28153,"lon":5.40932,"is_reserved":false,"is_disabled":false,"rental_uris":{"android":"levelo://app?vid=3811e2d8-99ee-46f0-897c-cbc61f8f69de","ios":"levelo://app?vid=3811e2d8-99ee-46f0-897c-cbc61f8f69de"},"vehicle_type_id":"4","last_reported":1686261953,"current_range_meters":400,"station_id":"","pricing_plan_id":"free"},{"bike_id":"df9b686f-3666-44a5-a684-a976322a033a","system_id":"levelo_inurba_marseille","lat":43.295523,"lon":5.422926,"is_reserved":false,"is_disabled":false,"rental_uris":{"android":"levelo://app?vid=df9b686f-3666-44a5-a684-a976322a033a","ios":"levelo://app?vid=df9b686f-3666-44a5-a684-a976322a033a"},"vehicle_type_id":"4","last_reported":1686261953,"current_range_meters":0,"station_id":"ce4bhph2rcd13ifvqhdg","pricing_plan_id":"free"},{"bike_id":"c359d20e-e047-4edf-88d6-9a6e487d8248","system_id":"levelo_inurba_marseille","lat":43.272116,"lon":5.391763,"is_reserved":false,"is_disabled":false,"rental_uris":{"android":"levelo://app?vid=c359d20e-e047-4edf-88d6-9a6e487d8248","ios":"levelo://app?vid=c359d20e-e047-4edf-88d6-9a6e487d8248"},"vehicle_type_id":"4","last_reported":1686261953,"current_range_meters":0,"station_id":"ce4bhhp2rcd13ifvqfm0","pricing_plan_id":"free"},{"bike_id":"e2c7e7fc-82f7-4d69-a8fe-2c197797f598","system_id":"levelo_inurba_marseille","lat":43.33048,"lon":5.42373,"is_reserved":false,"is_disabled":false,"rental_uris":{"android":"levelo://app?vid=e2c7e7fc-82f7-4d69-a8fe-2c197797f598","ios":"levelo://app?vid=e2c7e7fc-82f7-4d69-a8fe-2c197797f598"},"vehicle_type_id":"4","last_reported":1686261953,"current_range_meters":10400,"station_id":"","pricing_plan_id":"free"},{"bike_id":"d339d08a-bc5d-4960-a5a6-7c03c689a262","system_id":"levelo_inurba_marseille","lat":43.27824,"lon":5.40713,"is_reserved":false,"is_disabled":false,"rental_uris":{"android":"levelo://app?vid=d339d08a-bc5d-4960-a5a6-7c03c689a262","ios":"levelo://app?vid=d339d08a-bc5d-4960-a5a6-7c03c689a262"},"vehicle_type_id":"4","last_reported":1686261953,"current_range_meters":22000,"station_id":"ce4bhnh2rcd13ifvqgtg","pricing_plan_id":"free"},{"bike_id":"7e120fb1-3d99-4af3-9452-b3b0ed37c62f","system_id":"levelo_inurba_marseille","lat":43.278128,"lon":5.407195,"is_reserved":false,"is_disabled":false,"rental_uris":{"android":"levelo://app?vid=7e120fb1-3d99-4af3-9452-b3b0ed37c62f","ios":"levelo://app?vid=7e120fb1-3d99-4af3-9452-b3b0ed37c62f"},"vehicle_type_id":"4","last_reported":1686261953,"current_range_meters":4800,"station_id":"ce4bhnh2rcd13ifvqgtg","pricing_plan_id":"free"},{"bike_id":"58f40cf5-383f-4d18-bb68-236286a44e06","system_id":"levelo_inurba_marseille","lat":43.278128,"lon":5.407195,"is_reserved":false,"is_disabled":false,"rental_uris":{"android":"levelo://app?vid=58f40cf5-383f-4d18-bb68-236286a44e06","ios":"levelo://app?vid=58f40cf5-383f-4d18-bb68-236286a44e06"},"vehicle_type_id":"4","last_reported":1686261953,"current_range_meters":24000,"station_id":"ce4bhnh2rcd13ifvqgtg","pricing_plan_id":"free"},{"bike_id":"ce1cc44b-c8f9-499b-ac49-41783b12a29c","system_id":"levelo_inurba_marseille","lat":43.269467,"lon":5.386439,"is_reserved":false,"is_disabled":false,"rental_uris":{"android":"levelo://app?vid=ce1cc44b-c8f9-499b-ac49-41783b12a29c","ios":"levelo://app?vid=ce1cc44b-c8f9-499b-ac49-41783b12a29c"},"vehicle_type_id":"4","last_reported":1686261953,"current_range_meters":4400,"station_id":"ce4bhh92rcd13ifvqfh0","pricing_plan_id":"free"},{"bike_id":"530d4a7d-3551-4cc1-ae88-58ab8c4d2d6d","system_id":"levelo_inurba_marseille","lat":43.269467,"lon":5.386439,"is_reserved":false,"is_disabled":false,"rental_uris":{"android":"levelo://app?vid=530d4a7d-3551-4cc1-ae88-58ab8c4d2d6d","ios":"levelo://app?vid=530d4a7d-3551-4cc1-ae88-58ab8c4d2d6d"},"vehicle_type_id":"4","last_reported":1686261953,"current_range_meters":1200,"station_id":"ce4bhh92rcd13ifvqfh0","pricing_plan_id":"free"},{"bike_id":"cd1ef42a-cc6c-4223-9f79-31071cc74dad","system_id":"levelo_inurba_marseille","lat":43.28001,"lon":5.41664,"is_reserved":false,"is_disabled":false,"rental_uris":{"android":"levelo://app?vid=cd1ef42a-cc6c-4223-9f79-31071cc74dad","ios":"levelo://app?vid=cd1ef42a-cc6c-4223-9f79-31071cc74dad"},"vehicle_type_id":"4","last_reported":1686261953,"current_range_meters":0,"station_id":"ce4bho12rcd13ifvqh1g","pricing_plan_id":"free"},{"bike_id":"fca59586-d0b5-45ae-af4c-e83c1c9ea780","system_id":"levelo_inurba_marseille","lat":43.27999,"lon":5.41663,"is_reserved":false,"is_disabled":false,"rental_uris":{"android":"levelo://app?vid=fca59586-d0b5-45ae-af4c-e83c1c9ea780","ios":"levelo://app?vid=fca59586-d0b5-45ae-af4c-e83c1c9ea780"},"vehicle_type_id":"4","last_reported":1686261953,"current_range_meters":26800,"station_id":"ce4bho12rcd13ifvqh1g","pricing_plan_id":"free"},{"bike_id":"ff2cc78f-7b85-4f57-8813-fb3f11ba447a","system_id":"levelo_inurba_marseille","lat":43.27996,"lon":5.416624,"is_reserved":false,"is_disabled":false,"rental_uris":{"android":"levelo://app?vid=ff2cc78f-7b85-4f57-8813-fb3f11ba447a","ios":"levelo://app?vid=ff2cc78f-7b85-4f57-8813-fb3f11ba447a"},"vehicle_type_id":"4","last_reported":1686261953,"current_range_meters":15600,"station_id":"ce4bho12rcd13ifvqh1g","pricing_plan_id":"free"},{"bike_id":"7ae5529b-10b8-4968-be0e-d073cde10040","system_id":"levelo_inurba_marseille","lat":43.27996,"lon":5.416624,"is_reserved":false,"is_disabled":false,"rental_uris":{"android":"levelo://app?vid=7ae5529b-10b8-4968-be0e-d073cde10040","ios":"levelo://app?vid=7ae5529b-10b8-4968-be0e-d073cde10040"},"vehicle_type_id":"4","last_reported":1686261953,"current_range_meters":0,"station_id":"ce4bho12rcd13ifvqh1g","pricing_plan_id":"free"},{"bike_id":"34d60418-58f6-4938-b02a-dc7a5caaba68","system_id":"levelo_inurba_marseille","lat":43.3079,"lon":5.43519,"is_reserved":false,"is_disabled":false,"rental_uris":{"android":"levelo://app?vid=34d60418-58f6-4938-b02a-dc7a5caaba68","ios":"levelo://app?vid=34d60418-58f6-4938-b02a-dc7a5caaba68"},"vehicle_type_id":"4","last_reported":1686261953,"current_range_meters":21600,"station_id":"","pricing_plan_id":"free"},{"bike_id":"c56886e7-1c07-4e4e-8d95-1bfcba15fecf","system_id":"levelo_inurba_marseille","lat":43.308,"lon":5.43522,"is_reserved":false,"is_disabled":false,"rental_uris":{"android":"levelo://app?vid=c56886e7-1c07-4e4e-8d95-1bfcba15fecf","ios":"levelo://app?vid=c56886e7-1c07-4e4e-8d95-1bfcba15fecf"},"vehicle_type_id":"4","last_reported":1686261953,"current_range_meters":4000,"station_id":"","pricing_plan_id":"free"},{"bike_id":"20c5ba33-3bce-48d0-b978-27bd5d84aec7","system_id":"levelo_inurba_marseille","lat":43.2869,"lon":5.426,"is_reserved":false,"is_disabled":false,"rental_uris":{"android":"levelo://app?vid=20c5ba33-3bce-48d0-b978-27bd5d84aec7","ios":"levelo://app?vid=20c5ba33-3bce-48d0-b978-27bd5d84aec7"},"vehicle_type_id":"4","last_reported":1686261953,"current_range_meters":1600,"station_id":"","pricing_plan_id":"free"},{"bike_id":"b0f82b0d-4254-4710-af92-1b2e9f397767","system_id":"levelo_inurba_marseille","lat":43.26234,"lon":5.37046,"is_reserved":false,"is_disabled":false,"rental_uris":{"android":"levelo://app?vid=b0f82b0d-4254-4710-af92-1b2e9f397767","ios":"levelo://app?vid=b0f82b0d-4254-4710-af92-1b2e9f397767"},"vehicle_type_id":"4","last_reported":1686261953,"current_range_meters":22800,"station_id":"","pricing_plan_id":"free"},{"bike_id":"d8fe0172-c9bd-4da3-a325-96b0671853b0","system_id":"levelo_inurba_marseille","lat":43.298768,"lon":5.43643,"is_reserved":false,"is_disabled":false,"rental_uris":{"android":"levelo://app?vid=d8fe0172-c9bd-4da3-a325-96b0671853b0","ios":"levelo://app?vid=d8fe0172-c9bd-4da3-a325-96b0671853b0"},"vehicle_type_id":"4","last_reported":1686261953,"current_range_meters":400,"station_id":"ce4bhpp2rcd13ifvqhfg","pricing_plan_id":"free"},{"bike_id":"01cbac85-936b-4b0c-b64b-78852537f072","system_id":"levelo_inurba_marseille","lat":43.298768,"lon":5.43643,"is_reserved":false,"is_disabled":false,"rental_uris":{"android":"levelo://app?vid=01cbac85-936b-4b0c-b64b-78852537f072","ios":"levelo://app?vid=01cbac85-936b-4b0c-b64b-78852537f072"},"vehicle_type_id":"4","last_reported":1686261953,"current_range_meters":15600,"station_id":"ce4bhpp2rcd13ifvqhfg","pricing_plan_id":"free"},{"bike_id":"ae859341-ca45-42c7-b944-674abf298e2d","system_id":"levelo_inurba_marseille","lat":43.298768,"lon":5.43643,"is_reserved":false,"is_disabled":false,"rental_uris":{"android":"levelo://app?vid=ae859341-ca45-42c7-b944-674abf298e2d","ios":"levelo://app?vid=ae859341-ca45-42c7-b944-674abf298e2d"},"vehicle_type_id":"4","last_reported":1686261953,"current_range_meters":14000,"station_id":"ce4bhpp2rcd13ifvqhfg","pricing_plan_id":"free"},{"bike_id":"33720cf0-b2be-44e1-bf07-249e42b5dde3","system_id":"levelo_inurba_marseille","lat":43.298768,"lon":5.43643,"is_reserved":false,"is_disabled":false,"rental_uris":{"android":"levelo://app?vid=33720cf0-b2be-44e1-bf07-249e42b5dde3","ios":"levelo://app?vid=33720cf0-b2be-44e1-bf07-249e42b5dde3"},"vehicle_type_id":"4","last_reported":1686261953,"current_range_meters":0,"station_id":"ce4bhpp2rcd13ifvqhfg","pricing_plan_id":"free"},{"bike_id":"0abd466f-ae7a-4789-a218-e3b2c168a2b3","system_id":"levelo_inurba_marseille","lat":43.25961,"lon":5.3755,"is_reserved":false,"is_disabled":false,"rental_uris":{"android":"levelo://app?vid=0abd466f-ae7a-4789-a218-e3b2c168a2b3","ios":"levelo://app?vid=0abd466f-ae7a-4789-a218-e3b2c168a2b3"},"vehicle_type_id":"4","last_reported":1686261953,"current_range_meters":8800,"station_id":"","pricing_plan_id":"free"},{"bike_id":"1d34637b-a82a-4638-876a-d2fee8476a35","system_id":"levelo_inurba_marseille","lat":43.309076,"lon":5.368465,"is_reserved":false,"is_disabled":false,"rental_uris":{"android":"levelo://app?vid=1d34637b-a82a-4638-876a-d2fee8476a35","ios":"levelo://app?vid=1d34637b-a82a-4638-876a-d2fee8476a35"},"vehicle_type_id":"4","last_reported":1686261953,"current_range_meters":7200,"station_id":"ce4bgn92rcd13ifvqbvg","pricing_plan_id":"free"},{"bike_id":"5cfb36c4-020e-4302-aac4-e4d8a43b5a27","system_id":"levelo_inurba_marseille","lat":43.260909,"lon":5.397591,"is_reserved":false,"is_disabled":false,"rental_uris":{"android":"levelo://app?vid=5cfb36c4-020e-4302-aac4-e4d8a43b5a27","ios":"levelo://app?vid=5cfb36c4-020e-4302-aac4-e4d8a43b5a27"},"vehicle_type_id":"4","last_reported":1686261953,"current_range_meters":17200,"station_id":"ce4bhi12rcd13ifvqfq0","pricing_plan_id":"free"},{"bike_id":"6873a9c2-6ae4-4381-9d46-a1330a9f5351","system_id":"levelo_inurba_marseille","lat":43.28864,"lon":5.43917,"is_reserved":false,"is_disabled":false,"rental_uris":{"android":"levelo://app?vid=6873a9c2-6ae4-4381-9d46-a1330a9f5351","ios":"levelo://app?vid=6873a9c2-6ae4-4381-9d46-a1330a9f5351"},"vehicle_type_id":"4","last_reported":1686261953,"current_range_meters":27600,"station_id":"","pricing_plan_id":"free"},{"bike_id":"33fe5317-5ad5-4c21-8014-65ba684c0ffa","system_id":"levelo_inurba_marseille","lat":43.255756,"lon":5.382303,"is_reserved":false,"is_disabled":false,"rental_uris":{"android":"levelo://app?vid=33fe5317-5ad5-4c21-8014-65ba684c0ffa","ios":"levelo://app?vid=33fe5317-5ad5-4c21-8014-65ba684c0ffa"},"vehicle_type_id":"4","last_reported":1686261953,"current_range_meters":16800,"station_id":"ce4bhih2rcd13ifvqfs0","pricing_plan_id":"free"},{"bike_id":"dc9e0482-b620-40db-97b7-aee83dd09892","system_id":"levelo_inurba_marseille","lat":43.25581,"lon":5.38237,"is_reserved":false,"is_disabled":false,"rental_uris":{"android":"levelo://app?vid=dc9e0482-b620-40db-97b7-aee83dd09892","ios":"levelo://app?vid=dc9e0482-b620-40db-97b7-aee83dd09892"},"vehicle_type_id":"4","last_reported":1686261953,"current_range_meters":18800,"station_id":"ce4bhih2rcd13ifvqfs0","pricing_plan_id":"free"},{"bike_id":"a781a343-b241-4f95-ab3c-8b2df648c6cb","system_id":"levelo_inurba_marseille","lat":43.33312,"lon":5.44167,"is_reserved":false,"is_disabled":false,"rental_uris":{"android":"levelo://app?vid=a781a343-b241-4f95-ab3c-8b2df648c6cb","ios":"levelo://app?vid=a781a343-b241-4f95-ab3c-8b2df648c6cb"},"vehicle_type_id":"4","last_reported":1686261953,"current_range_meters":12000,"station_id":"","pricing_plan_id":"free"},{"bike_id":"63fe30b7-d672-4fb6-852e-019e800cd388","system_id":"levelo_inurba_marseille","lat":43.2707,"lon":5.42274,"is_reserved":false,"is_disabled":false,"rental_uris":{"android":"levelo://app?vid=63fe30b7-d672-4fb6-852e-019e800cd388","ios":"levelo://app?vid=63fe30b7-d672-4fb6-852e-019e800cd388"},"vehicle_type_id":"4","last_reported":1686261953,"current_range_meters":4800,"station_id":"ce4bhk92rcd13ifvqgb0","pricing_plan_id":"free"},{"bike_id":"db6155f0-739f-4f24-a3b8-ae520f6e2244","system_id":"levelo_inurba_marseille","lat":43.27068,"lon":5.42274,"is_reserved":false,"is_disabled":false,"rental_uris":{"android":"levelo://app?vid=db6155f0-739f-4f24-a3b8-ae520f6e2244","ios":"levelo://app?vid=db6155f0-739f-4f24-a3b8-ae520f6e2244"},"vehicle_type_id":"4","last_reported":1686261953,"current_range_meters":10400,"station_id":"ce4bhk92rcd13ifvqgb0","pricing_plan_id":"free"},{"bike_id":"cd96ffe2-0308-45de-b87e-166c53b5ea03","system_id":"levelo_inurba_marseille","lat":43.270721,"lon":5.422764,"is_reserved":false,"is_disabled":false,"rental_uris":{"android":"levelo://app?vid=cd96ffe2-0308-45de-b87e-166c53b5ea03","ios":"levelo://app?vid=cd96ffe2-0308-45de-b87e-166c53b5ea03"},"vehicle_type_id":"4","last_reported":1686261953,"current_range_meters":25200,"station_id":"ce4bhk92rcd13ifvqgb0","pricing_plan_id":"free"},{"bike_id":"079e4bd5-7897-4a8a-a75c-c940b9322859","system_id":"levelo_inurba_marseille","lat":43.270721,"lon":5.422764,"is_reserved":false,"is_disabled":false,"rental_uris":{"android":"levelo://app?vid=079e4bd5-7897-4a8a-a75c-c940b9322859","ios":"levelo://app?vid=079e4bd5-7897-4a8a-a75c-c940b9322859"},"vehicle_type_id":"4","last_reported":1686261953,"current_range_meters":19600,"station_id":"ce4bhk92rcd13ifvqgb0","pricing_plan_id":"free"},{"bike_id":"43b480f7-dcee-4422-8226-071dfdf90bb8","system_id":"levelo_inurba_marseille","lat":43.270721,"lon":5.422764,"is_reserved":false,"is_disabled":false,"rental_uris":{"android":"levelo://app?vid=43b480f7-dcee-4422-8226-071dfdf90bb8","ios":"levelo://app?vid=43b480f7-dcee-4422-8226-071dfdf90bb8"},"vehicle_type_id":"4","last_reported":1686261953,"current_range_meters":31200,"station_id":"ce4bhk92rcd13ifvqgb0","pricing_plan_id":"free"},{"bike_id":"eb7a06c4-6003-4c0c-bdb2-fb0198bf5fbb","system_id":"levelo_inurba_marseille","lat":43.258658,"lon":5.398935,"is_reserved":false,"is_disabled":false,"rental_uris":{"android":"levelo://app?vid=eb7a06c4-6003-4c0c-bdb2-fb0198bf5fbb","ios":"levelo://app?vid=eb7a06c4-6003-4c0c-bdb2-fb0198bf5fbb"},"vehicle_type_id":"4","last_reported":1686261953,"current_range_meters":12800,"station_id":"ce4bhl92rcd13ifvqghg","pricing_plan_id":"free"},{"bike_id":"2d164d25-32f6-449c-9d8b-52599c239737","system_id":"levelo_inurba_marseille","lat":43.26241,"lon":5.41311,"is_reserved":false,"is_disabled":false,"rental_uris":{"android":"levelo://app?vid=2d164d25-32f6-449c-9d8b-52599c239737","ios":"levelo://app?vid=2d164d25-32f6-449c-9d8b-52599c239737"},"vehicle_type_id":"4","last_reported":1686261953,"current_range_meters":6000,"station_id":"","pricing_plan_id":"free"},{"bike_id":"0185af5b-b7a3-4b7f-be55-246b918f63da","system_id":"levelo_inurba_marseille","lat":43.25934,"lon":5.40909,"is_reserved":false,"is_disabled":false,"rental_uris":{"android":"levelo://app?vid=0185af5b-b7a3-4b7f-be55-246b918f63da","ios":"levelo://app?vid=0185af5b-b7a3-4b7f-be55-246b918f63da"},"vehicle_type_id":"4","last_reported":1686261953,"current_range_meters":2400,"station_id":"","pricing_plan_id":"free"},{"bike_id":"a53c45c1-7ff9-4341-b144-cc4ed3336ca0","system_id":"levelo_inurba_marseille","lat":43.25931,"lon":5.40913,"is_reserved":false,"is_disabled":false,"rental_uris":{"android":"levelo://app?vid=a53c45c1-7ff9-4341-b144-cc4ed3336ca0","ios":"levelo://app?vid=a53c45c1-7ff9-4341-b144-cc4ed3336ca0"},"vehicle_type_id":"4","last_reported":1686261953,"current_range_meters":16400,"station_id":"","pricing_plan_id":"free"},{"bike_id":"fc315f8f-8481-4984-8057-b0ddc7fd51b7","system_id":"levelo_inurba_marseille","lat":43.2479,"lon":5.374457,"is_reserved":false,"is_disabled":false,"rental_uris":{"android":"levelo://app?vid=fc315f8f-8481-4984-8057-b0ddc7fd51b7","ios":"levelo://app?vid=fc315f8f-8481-4984-8057-b0ddc7fd51b7"},"vehicle_type_id":"4","last_reported":1686261953,"current_range_meters":800,"station_id":"ce4bhgh2rcd13ifvqfb0","pricing_plan_id":"free"},{"bike_id":"8afd25f9-4904-4f94-85bd-11fcb4ec2866","system_id":"levelo_inurba_marseille","lat":43.24693,"lon":5.382096,"is_reserved":false,"is_disabled":false,"rental_uris":{"android":"levelo://app?vid=8afd25f9-4904-4f94-85bd-11fcb4ec2866","ios":"levelo://app?vid=8afd25f9-4904-4f94-85bd-11fcb4ec2866"},"vehicle_type_id":"4","last_reported":1686261953,"current_range_meters":4000,"station_id":"ce4bhih2rcd13ifvqfr0","pricing_plan_id":"free"},{"bike_id":"940eacf2-046e-4c23-b58f-b9bf32cb37fa","system_id":"levelo_inurba_marseille","lat":43.245581,"lon":5.395069,"is_reserved":false,"is_disabled":false,"rental_uris":{"android":"levelo://app?vid=940eacf2-046e-4c23-b58f-b9bf32cb37fa","ios":"levelo://app?vid=940eacf2-046e-4c23-b58f-b9bf32cb37fa"},"vehicle_type_id":"4","last_reported":1686261953,"current_range_meters":28400,"station_id":"ce4bhlp2rcd13ifvqgjg","pricing_plan_id":"free"},{"bike_id":"0662262d-c1b5-43ed-a541-62735e4ddd22","system_id":"levelo_inurba_marseille","lat":43.244912,"lon":5.401913,"is_reserved":false,"is_disabled":false,"rental_uris":{"android":"levelo://app?vid=0662262d-c1b5-43ed-a541-62735e4ddd22","ios":"levelo://app?vid=0662262d-c1b5-43ed-a541-62735e4ddd22"},"vehicle_type_id":"4","last_reported":1686261953,"current_range_meters":0,"station_id":"ce4bhs92rcd13ifvqi0g","pricing_plan_id":"free"},{"bike_id":"d3b49f61-f9bd-43f3-a281-0a2fb9b51c91","system_id":"levelo_inurba_marseille","lat":43.23298,"lon":5.35286,"is_reserved":false,"is_disabled":false,"rental_uris":{"android":"levelo://app?vid=d3b49f61-f9bd-43f3-a281-0a2fb9b51c91","ios":"levelo://app?vid=d3b49f61-f9bd-43f3-a281-0a2fb9b51c91"},"vehicle_type_id":"4","last_reported":1686261953,"current_range_meters":21600,"station_id":"","pricing_plan_id":"free"},{"bike_id":"596bf2f0-220c-4ef6-a062-229e445f45f2","system_id":"levelo_inurba_marseille","lat":43.23249,"lon":5.35432,"is_reserved":false,"is_disabled":false,"rental_uris":{"android":"levelo://app?vid=596bf2f0-220c-4ef6-a062-229e445f45f2","ios":"levelo://app?vid=596bf2f0-220c-4ef6-a062-229e445f45f2"},"vehicle_type_id":"4","last_reported":1686261953,"current_range_meters":7600,"station_id":"","pricing_plan_id":"free"},{"bike_id":"97867c6b-fa3a-4070-903e-8d39067e29b7","system_id":"levelo_inurba_marseille","lat":43.231923,"lon":5.355545,"is_reserved":false,"is_disabled":false,"rental_uris":{"android":"levelo://app?vid=97867c6b-fa3a-4070-903e-8d39067e29b7","ios":"levelo://app?vid=97867c6b-fa3a-4070-903e-8d39067e29b7"},"vehicle_type_id":"4","last_reported":1686261953,"current_range_meters":15600,"station_id":"ce4bhu92rcd13ifvqi70","pricing_plan_id":"free"},{"bike_id":"2647aa63-f802-4de9-a145-f444dfe7013f","system_id":"levelo_inurba_marseille","lat":43.231793,"lon":5.400044,"is_reserved":false,"is_disabled":false,"rental_uris":{"android":"levelo://app?vid=2647aa63-f802-4de9-a145-f444dfe7013f","ios":"levelo://app?vid=2647aa63-f802-4de9-a145-f444dfe7013f"},"vehicle_type_id":"4","last_reported":1686261953,"current_range_meters":28000,"station_id":"ce4bhn12rcd13ifvqgqg","pricing_plan_id":"free"},{"bike_id":"9d317af0-f5f1-4f41-a6a7-b11c162bfb81","system_id":"levelo_inurba_marseille","lat":43.23187,"lon":5.39998,"is_reserved":false,"is_disabled":false,"rental_uris":{"android":"levelo://app?vid=9d317af0-f5f1-4f41-a6a7-b11c162bfb81","ios":"levelo://app?vid=9d317af0-f5f1-4f41-a6a7-b11c162bfb81"},"vehicle_type_id":"4","last_reported":1686261953,"current_range_meters":30000,"station_id":"ce4bhn12rcd13ifvqgqg","pricing_plan_id":"free"},{"bike_id":"58bdd804-da75-4d54-b358-be1b4b052690","system_id":"levelo_inurba_marseille","lat":43.231794,"lon":5.400052,"is_reserved":false,"is_disabled":false,"rental_uris":{"android":"levelo://app?vid=58bdd804-da75-4d54-b358-be1b4b052690","ios":"levelo://app?vid=58bdd804-da75-4d54-b358-be1b4b052690"},"vehicle_type_id":"4","last_reported":1686261953,"current_range_meters":31200,"station_id":"ce4bhn12rcd13ifvqgqg","pricing_plan_id":"free"},{"bike_id":"00fa260d-7703-42bd-8c51-d6b0c3fcb538","system_id":"levelo_inurba_marseille","lat":43.231794,"lon":5.400052,"is_reserved":false,"is_disabled":false,"rental_uris":{"android":"levelo://app?vid=00fa260d-7703-42bd-8c51-d6b0c3fcb538","ios":"levelo://app?vid=00fa260d-7703-42bd-8c51-d6b0c3fcb538"},"vehicle_type_id":"4","last_reported":1686261953,"current_range_meters":21600,"station_id":"ce4bhn12rcd13ifvqgqg","pricing_plan_id":"free"}]}}