{"last_updated":1767384746,"ttl":60,"version":"2.2","data":{"bikes":[{"bike_id":"5fb6044e-9e86-4cd7-8369-9dae8661f801","system_id":"levelo_inurba_marseille","lat":43.26548,"lon":5.40353,"is_reserved":false,"is_disabled":false,"rental_uris":{"android":"levelo://app?vid=5fb6044e-9e86-4cd7-8369-9dae8661f801","ios":"levelo://app?vid=5fb6044e-9e86-4cd7-8369-9dae8661f801"},"vehicle_type_id":"4","last_reported":1767384747,"current_range_meters":2800,"station_id":"ce4bhmp2rcd13ifvqgng","pricing_plan_id":"cebpf4jnsgd1na2vs0mg"},{"bike_id":"f8e67aac-476a-4040-b0b9-5c855833bda0","system_id":"levelo_inurba_marseille","lat":43.28489,"lon":5.38452,"is_reserved":false,"is_disabled":false,"rental_uris":{"android":"levelo://app?vid=f8e67aac-476a-4040-b0b9-5c855833bda0","ios":"levelo://app?vid=f8e67aac-476a-4040-b0b9-5c855833bda0"},"vehicle_type_id":"4","last_reported":1767384747,"current_range_meters":2800,"station_id":"ce4bh512rcd13ifvqe3g","pricing_plan_id":"cebpf4jnsgd1na2vs0mg"},{"bike_id":"74e3dc71-f5a9-4adf-93d0-fa404c863cde","system_id":"levelo_inurba_marseille","lat":43.27993,"lon":5.41652,"is_reserved":false,"is_disabled":false,"rental_uris":{"android":"levelo://app?vid=74e3dc71-f5a9-4adf-93d0-fa404c863cde","ios":"levelo://app?vid=74e3dc71-f5a9-4adf-93d0-fa404c863cde"},"vehicle_type_id":"4","last_reported":1767384747,"current_range_meters":2800,"station_id":"ce4bho12rcd13ifvqh1g","pricing_plan_id":"cebpf4jnsgd1na2vs0mg"},{"bike_id":"f2b8ed4e-5db1-4156-8df7-96211cf30f86","system_id":"levelo_inurba_marseille","lat":43.29022,"lon":5.38142,"is_reserved":false,"is_disabled":false,"rental_uris":{"android":"levelo://app?vid=f2b8ed4e-5db1-4156-8df7-96211cf30f86","ios":"levelo://app?vid=f2b8ed4e-5db1-4156-8df7-96211cf30f86"},"vehicle_type_id":"4","last_reported":1767384747,"current_range_meters":2800,"station_id":"ce4bh4p2rcd13ifvqe1g","pricing_plan_id":"cebpf4jnsgd1na2vs0mg"},{"bike_id":"85c0d9fd-9ae4-4d14-bbf5-3d50829a1b4d","system_id":"levelo_inurba_marseille","lat":43.29927,"lon":5.36536,"is_reserved":false,"is_disabled":false,"rental_uris":{"android":"levelo://app?vid=85c0d9fd-9ae4-4d14-bbf5-3d50829a1b4d","ios":"levelo://app?vid=85c0d9fd-9ae4-4d14-bbf5-3d50829a1b4d"},"vehicle_type_id":"4","last_reported":1767384747,"current_range_meters":3200,"station_id":"ce4bgm92rcd13ifvqbr0","pricing_plan_id":"cebpf4jnsgd1na2vs0mg"},{"bike_id":"1133aa94-34a9-48bc-9ba0-424c94ee30d0","system_id":"levelo_inurba_marseille","lat":43.2904,"lon":5.37556,"is_reserved":false,"is_disabled":false,"rental_uris":{"android":"levelo://app?vid=1133aa94-34a9-48bc-9ba0-424c94ee30d0","ios":"levelo://app?vid=1133aa94-34a9-48bc-9ba0-424c94ee30d0"},"vehicle_type_id":"4","last_reported":1767384747,"current_range_meters":3200,"station_id":"ce4bh692rcd13ifvqe90","pricing_plan_id":"cebpf4jnsgd1na2vs0mg"},{"bike_id":"3d2cd585-44d4-4d76-83f1-10d13c353d46","system_id":"levelo_inurba_marseille","lat":43.287192,"lon":5.373857,"is_reserved":false,"is_disabled":false,"rental_uris":{"android":"levelo://app?vid=3d2cd585-44d4-4d76-83f1-10d13c353d46","ios":"levelo://app?vid=3d2cd585-44d4-4d76-83f1-10d13c353d46"},"vehicle_type_id":"4","last_reported":1767384747,"current_range_meters":3200,"station_id":"ce4bh3p2rcd13ifvqdq0","pricing_plan_id":"cebpf4jnsgd1na2vs0mg"},{"bike_id":"ea5031e4-b749-4d48-ba29-71e8d8d5383b","system_id":"levelo_inurba_marseille","lat":43.26402,"lon":5.37394,"is_reserved":false,"is_disabled":false,"rental_uris":{"android":"levelo://app?vid=ea5031e4-b749-4d48-ba29-71e8d8d5383b","ios":"levelo://app?vid=ea5031e4-b749-4d48-ba29-71e8d8d5383b"},"vehicle_type_id":"4","last_reported":1767384747,"current_range_meters":3200,"station_id":"","pricing_plan_id":"cebpf4jnsgd1na2vs0mg"},{"bike_id":"ca2a4141-2d11-4724-ae9a-5df9c6e34715","system_id":"levelo_inurba_marseille","lat":43.24661,"lon":5.38871,"is_reserved":false,"is_disabled":false,"rental_uris":{"android":"levelo://app?vid=ca2a4141-2d11-4724-ae9a-5df9c6e34715","ios":"levelo://app?vid=ca2a4141-2d11-4724-ae9a-5df9c6e34715"},"vehicle_type_id":"4","last_reported":1767384747,"current_range_meters":3200,"station_id":"ce4bhg12rcd13ifvqf60","pricing_plan_id":"cebpf4jnsgd1na2vs0mg"},{"bike_id":"86ca6bec-0539-40d2-b670-a55984caadf3","system_id":"levelo_inurba_marseille","lat":43.24943,"lon":5.40495,"is_reserved":false,"is_disabled":false,"rental_uris":{"android":"levelo://app?vid=86ca6bec-0539-40d2-b670-a55984caadf3","ios":"levelo://app?vid=86ca6bec-0539-40d2-b670-a55984caadf3"},"vehicle_type_id":"4","last_reported":1767384747,"current_range_meters":3200,"station_id":"st_d2ngiaodas8pm72gd1h0","pricing_plan_id":"cebpf4jnsgd1na2vs0mg"},{"bike_id":"aa833da6-ec92-4f81-a928-c02f158d2c09","system_id":"levelo_inurba_marseille","lat":43.26262,"lon":5.40529,"is_reserved":false,"is_disabled":false,"rental_uris":{"android":"levelo://app?vid=aa833da6-ec92-4f81-a928-c02f158d2c09","ios":"levelo://app?vid=aa833da6-ec92-4f81-a928-c02f158d2c09"},"vehicle_type_id":"4","last_reported":1767384747,"current_range_meters":3200,"station_id":"","pricing_plan_id":"cebpf4jnsgd1na2vs0mg"},{"bike_id":"84e86dfc-b61a-42c1-93b8-a112038f791b","system_id":"levelo_inurba_marseille","lat":43.28614,"lon":5.35108,"is_reserved":false,"is_disabled":false,"rental_uris":{"android":"levelo://app?vid=84e86dfc-b61a-42c1-93b8-a112038f791b","ios":"levelo://app?vid=84e86dfc-b61a-42c1-93b8-a112038f791b"},"vehicle_type_id":"4","last_reported":1767384747,"current_range_meters":3200,"station_id":"ce4bhch2rcd13ifvqeug","pricing_plan_id":"cebpf4jnsgd1na2vs0mg"},{"bike_id":"02382ba1-c53a-4d54-ae09-ac85bbe6d34b","system_id":"levelo_inurba_marseille","lat":43.293087,"lon":5.374582,"is_reserved":false,"is_disabled":false,"rental_uris":{"android":"levelo://app?vid=02382ba1-c53a-4d54-ae09-ac85bbe6d34b","ios":"levelo://app?vid=02382ba1-c53a-4d54-ae09-ac85bbe6d34b"},"vehicle_type_id":"4","last_reported":1767384747,"current_range_meters":3600,"station_id":"ce4bgi12rcd13ifvqb70","pricing_plan_id":"cebpf4jnsgd1na2vs0mg"},{"bike_id":"92840846-0c51-4b75-b1e9-a8352316ac69","system_id":"levelo_inurba_marseille","lat":43.2861,"lon":5.3706,"is_reserved":false,"is_disabled":false,"rental_uris":{"android":"levelo://app?vid=92840846-0c51-4b75-b1e9-a8352316ac69","ios":"levelo://app?vid=92840846-0c51-4b75-b1e9-a8352316ac69"},"vehicle_type_id":"4","last_reported":1767384747,"current_range_meters":3600,"station_id":"ce4bht12rcd13ifvqi60","pricing_plan_id":"cebpf4jnsgd1na2vs0mg"},{"bike_id":"feea9714-6ac6-4d8c-975e-31e7bfa98f15","system_id":"levelo_inurba_marseille","lat":43.29541,"lon":5.385588,"is_reserved":false,"is_disabled":false,"rental_uris":{"android":"levelo://app?vid=feea9714-6ac6-4d8c-975e-31e7bfa98f15","ios":"levelo://app?vid=feea9714-6ac6-4d8c-975e-31e7bfa98f15"},"vehicle_type_id":"4","last_reported":1767384747,"current_range_meters":3600,"station_id":"ce4bgih2rcd13ifvqba0","pricing_plan_id":"cebpf4jnsgd1na2vs0mg"},{"bike_id":"71feabac-18bb-4c38-9f1c-553d18ed10d6","system_id":"levelo_inurba_marseille","lat":43.29603,"lon":5.37178,"is_reserved":false,"is_disabled":false,"rental_uris":{"android":"levelo://app?vid=71feabac-18bb-4c38-9f1c-553d18ed10d6","ios":"levelo://app?vid=71feabac-18bb-4c38-9f1c-553d18ed10d6"},"vehicle_type_id":"4","last_reported":1767384747,"current_range_meters":3600,"station_id":"ce4bgnh2rcd13ifvqc0g","pricing_plan_id":"cebpf4jnsgd1na2vs0mg"},{"bike_id":"40ddd74c-1e22-4da5-8163-a8af2ddf3f65","system_id":"levelo_inurba_marseille","lat":43.26507,"lon":5.3954,"is_reserved":false,"is_disabled":false,"rental_uris":{"android":"levelo://app?vid=40ddd74c-1e22-4da5-8163-a8af2ddf3f65","ios":"levelo://app?vid=40ddd74c-1e22-4da5-8163-a8af2ddf3f65"},"vehicle_type_id":"4","last_reported":1767384747,"current_range_meters":3600,"station_id":"ce4bhi12rcd13ifvqfq0","pricing_plan_id":"cebpf4jnsgd1na2vs0mg"},{"bike_id":"501a30d8-1458-430b-be72-32a5987aeab1","system_id":"levelo_inurba_marseille","lat":43.22921,"lon":5.35377,"is_reserved":false,"is_disabled":false,"rental_uris":{"android":"levelo://app?vid=501a30d8-1458-430b-be72-32a5987aeab1","ios":"levelo://app?vid=501a30d8-1458-430b-be72-32a5987aeab1"},"vehicle_type_id":"4","last_reported":1767384747,"current_range_meters":4000,"station_id":"cpo3532slgdg3j2ikp40","pricing_plan_id":"cebpf4jnsgd1na2vs0mg"},{"bike_id":"bf70f816-5530-446d-8627-00511ed09498","system_id":"levelo_inurba_marseille","lat":43.28345,"lon":5.38104,"is_reserved":false,"is_disabled":false,"rental_uris":{"android":"levelo://app?vid=bf70f816-5530-446d-8627-00511ed09498","ios":"levelo://app?vid=bf70f816-5530-446d-8627-00511ed09498"},"vehicle_type_id":"4","last_reported":1767384747,"current_range_meters":4000,"station_id":"ce4bh412rcd13ifvqdr0","pricing_plan_id":"cebpf4jnsgd1na2vs0mg"},{"bike_id":"c73faab9-bb6c-49a2-844c-b7693dd18a16","system_id":"levelo_inurba_marseille","lat":43.24801,"lon":5.3745,"is_reserved":false,"is_disabled":false,"rental_uris":{"android":"levelo://app?vid=c73faab9-bb6c-49a2-844c-b7693dd18a16","ios":"levelo://app?vid=c73faab9-bb6c-49a2-844c-b7693dd18a16"},"vehicle_type_id":"4","last_reported":1767384747,"current_range_meters":4000,"station_id":"ce4bhgh2rcd13ifvqfb0","pricing_plan_id":"cebpf4jnsgd1na2vs0mg"},{"bike_id":"3ee08b2f-90b4-41d3-952a-950e65bcad22","system_id":"levelo_inurba_marseille","lat":43.29945,"lon":5.3653,"is_reserved":false,"is_disabled":false,"rental_uris":{"android":"levelo://app?vid=3ee08b2f-90b4-41d3-952a-950e65bcad22","ios":"levelo://app?vid=3ee08b2f-90b4-41d3-952a-950e65bcad22"},"vehicle_type_id":"4","last_reported":1767384747,"current_range_meters":4000,"station_id":"ce4bgm92rcd13ifvqbr0","pricing_plan_id":"cebpf4jnsgd1na2vs0mg"},{"bike_id":"5ece2ba8-71c3-4ca5-913f-e9207975660a","system_id":"levelo_inurba_marseille","lat":43.22931,"lon":5.35377,"is_reserved":false,"is_disabled":false,"rental_uris":{"android":"levelo://app?vid=5ece2ba8-71c3-4ca5-913f-e9207975660a","ios":"levelo://app?vid=5ece2ba8-71c3-4ca5-913f-e9207975660a"},"vehicle_type_id":"4","last_reported":1767384747,"current_range_meters":4000,"station_id":"cpo3532slgdg3j2ikp40","pricing_plan_id":"cebpf4jnsgd1na2vs0mg"},{"bike_id":"d49fd2c9-dca5-4864-87e0-359520dd27b8","system_id":"levelo_inurba_marseille","lat":43.26133,"lon":5.39742,"is_reserved":false,"is_disabled":false,"rental_uris":{"android":"levelo://app?vid=d49fd2c9-dca5-4864-87e0-359520dd27b8","ios":"levelo://app?vid=d49fd2c9-dca5-4864-87e0-359520dd27b8"},"vehicle_type_id":"4","last_reported":1767384747,"current_range_meters":4000,"station_id":"","pricing_plan_id":"cebpf4jnsgd1na2vs0mg"},{"bike_id":"5d00fa71-10be-4ca1-b2c7-1ea1faad782f","system_id":"levelo_inurba_marseille","lat":43.29033,"lon":5.37799,"is_reserved":false,"is_disabled":false,"rental_uris":{"android":"levelo://app?vid=5d00fa71-10be-4ca1-b2c7-1ea1faad782f","ios":"levelo://app?vid=5d00fa71-10be-4ca1-b2c7-1ea1faad782f"},"vehicle_type_id":"4","last_reported":1767384747,"current_range_meters":4000,"station_id":"","pricing_plan_id":"cebpf4jnsgd1na2vs0mg"},{"bike_id":"511ef639-6465-4a99-b234-834e209f6dd9","system_id":"levelo_inurba_marseille","lat":43.28887,"lon":5.35965,"is_reserved":false,"is_disabled":false,"rental_uris":{"android":"levelo://app?vid=511ef639-6465-4a99-b234-834e209f6dd9","ios":"levelo://app?vid=511ef639-6465-4a99-b234-834e209f6dd9"},"vehicle_type_id":"4","last_reported":1767384747,"current_range_meters":4400,"station_id":"","pricing_plan_id":"cebpf4jnsgd1na2vs0mg"},{"bike_id":"e1bd9a54-ef5b-41c0-977d-301633065d5f","system_id":"levelo_inurba_marseille","lat":43.30201,"lon":5.3947,"is_reserved":false,"is_disabled":false,"rental_uris":{"android":"levelo://app?vid=e1bd9a54-ef5b-41c0-977d-301633065d5f","ios":"levelo://app?vid=e1bd9a54-ef5b-41c0-977d-301633065d5f"},"vehicle_type_id":"4","last_reported":1767384747,"current_range_meters":4400,"station_id":"ce4bh0p2rcd13ifvqd70","pricing_plan_id":"cebpf4jnsgd1na2vs0mg"},{"bike_id":"8b1044c7-9903-454d-8bf7-ca846b48a9e1","system_id":"levelo_inurba_marseille","lat":43.29062,"lon":5.3715,"is_reserved":false,"is_disabled":false,"rental_uris":{"android":"levelo://app?vid=8b1044c7-9903-454d-8bf7-ca846b48a9e1","ios":"levelo://app?vid=8b1044c7-9903-454d-8bf7-ca846b48a9e1"},"vehicle_type_id":"4","last_reported":1767384747,"current_range_meters":4400,"station_id":"ce4bh5p2rcd13ifvqe4g","pricing_plan_id":"cebpf4jnsgd1na2vs0mg"},{"bike_id":"a37546a5-5ed0-437a-8b08-467eedf47722","system_id":"levelo_inurba_marseille","lat":43.24546,"lon":5.3952,"is_reserved":false,"is_disabled":false,"rental_uris":{"android":"levelo://app?vid=a37546a5-5ed0-437a-8b08-467eedf47722","ios":"levelo://app?vid=a37546a5-5ed0-437a-8b08-467eedf47722"},"vehicle_type_id":"4","last_reported":1767384747,"current_range_meters":4400,"station_id":"ce4bhlp2rcd13ifvqgjg","pricing_plan_id":"cebpf4jnsgd1na2vs0mg"},{"bike_id":"c6c79b9f-6b16-4685-95fe-3b1708c3fc1e","system_id":"levelo_inurba_marseille","lat":43.28801,"lon":5.38835,"is_reserved":false,"is_disabled":false,"rental_uris":{"android":"levelo://app?vid=c6c79b9f-6b16-4685-95fe-3b1708c3fc1e","ios":"levelo://app?vid=c6c79b9f-6b16-4685-95fe-3b1708c3fc1e"},"vehicle_type_id":"4","last_reported":1767384747,"current_range_meters":4400,"station_id":"","pricing_plan_id":"cebpf4jnsgd1na2vs0mg"},{"bike_id":"ce52319a-461c-4f36-8839-d2f3ad7132f7","system_id":"levelo_inurba_marseille","lat":43.29273,"lon":5.38437,"is_reserved":false,"is_disabled":false,"rental_uris":{"android":"levelo://app?vid=ce52319a-461c-4f36-8839-d2f3ad7132f7","ios":"levelo://app?vid=ce52319a-461c-4f36-8839-d2f3ad7132f7"},"vehicle_type_id":"4","last_reported":1767384747,"current_range_meters":4400,"station_id":"ce4bh692rcd13ifvqea0","pricing_plan_id":"cebpf4jnsgd1na2vs0mg"},{"bike_id":"e4e8e267-4d9a-4fdc-89b5-cfa26e68d494","system_id":"levelo_inurba_marseille","lat":43.24172,"lon":5.36363,"is_reserved":false,"is_disabled":false,"rental_uris":{"android":"levelo://app?vid=e4e8e267-4d9a-4fdc-89b5-cfa26e68d494","ios":"levelo://app?vid=e4e8e267-4d9a-4fdc-89b5-cfa26e68d494"},"vehicle_type_id":"4","last_reported":1767384747,"current_range_meters":4400,"station_id":"cpo36qri1sfpv3e86is0","pricing_plan_id":"cebpf4jnsgd1na2vs0mg"},{"bike_id":"2c1cdf0e-48d8-4e2b-a4b1-5e1348b33c4a","system_id":"levelo_inurba_marseille","lat":43.27069,"lon":5.42263,"is_reserved":false,"is_disabled":false,"rental_uris":{"android":"levelo://app?vid=2c1cdf0e-48d8-4e2b-a4b1-5e1348b33c4a","ios":"levelo://app?vid=2c1cdf0e-48d8-4e2b-a4b1-5e1348b33c4a"},"vehicle_type_id":"4","last_reported":1767384747,"current_range_meters":4400,"station_id":"ce4bhk92rcd13ifvqgb0","pricing_plan_id":"cebpf4jnsgd1na2vs0mg"},{"bike_id":"8462f0b2-4b2f-44ca-b5bf-7dda602dcf91","system_id":"levelo_inurba_marseille","lat":43.26554,"lon":5.39003,"is_reserved":false,"is_disabled":false,"rental_uris":{"android":"levelo://app?vid=8462f0b2-4b2f-44ca-b5bf-7dda602dcf91","ios":"levelo://app?vid=8462f0b2-4b2f-44ca-b5bf-7dda602dcf91"},"vehicle_type_id":"4","last_reported":1767384747,"current_range_meters":4400,"station_id":"ce4bhe12rcd13ifvqf30","pricing_plan_id":"cebpf4jnsgd1na2vs0mg"},{"bike_id":"da51a696-5705-48cd-a174-f63e3c15d9de","system_id":"levelo_inurba_marseille","lat":43.28869,"lon":5.42511,"is_reserved":false,"is_disabled":false,"rental_uris":{"android":"levelo://app?vid=da51a696-5705-48cd-a174-f63e3c15d9de","ios":"levelo://app?vid=da51a696-5705-48cd-a174-f63e3c15d9de"},"vehicle_type_id":"4","last_reported":1767384747,"current_range_meters":4400,"station_id":"st_d3b462108ojc7389ooeg","pricing_plan_id":"cebpf4jnsgd1na2vs0mg"},{"bike_id":"92df6df4-2444-475a-aa85-9697f17ef647","system_id":"levelo_inurba_marseille","lat":43.27805,"lon":5.40726,"is_reserved":false,"is_disabled":false,"rental_uris":{"android":"levelo://app?vid=92df6df4-2444-475a-aa85-9697f17ef647","ios":"levelo://app?vid=92df6df4-2444-475a-aa85-9697f17ef647"},"vehicle_type_id":"4","last_reported":1767384747,"current_range_meters":4400,"station_id":"ce4bhnh2rcd13ifvqgtg","pricing_plan_id":"cebpf4jnsgd1na2vs0mg"},{"bike_id":"bebec6bc-9df3-406e-90bc-396ce2b3b0b3","system_id":"levelo_inurba_marseille","lat":43.26367,"lon":5.37405,"is_reserved":false,"is_disabled":false,"rental_uris":{"android":"levelo://app?vid=bebec6bc-9df3-406e-90bc-396ce2b3b0b3","ios":"levelo://app?vid=bebec6bc-9df3-406e-90bc-396ce2b3b0b3"},"vehicle_type_id":"4","last_reported":1767384747,"current_range_meters":4400,"station_id":"","pricing_plan_id":"cebpf4jnsgd1na2vs0mg"},{"bike_id":"62bbb4f8-cd37-4703-914d-4c2cbb4345e1","system_id":"levelo_inurba_marseille","lat":43.28066,"lon":5.39653,"is_reserved":false,"is_disabled":false,"rental_uris":{"android":"levelo://app?vid=62bbb4f8-cd37-4703-914d-4c2cbb4345e1","ios":"levelo://app?vid=62bbb4f8-cd37-4703-914d-4c2cbb4345e1"},"vehicle_type_id":"4","last_reported":1767384747,"current_range_meters":4800,"station_id":"ce4bho12rcd13ifvqh2g","pricing_plan_id":"cebpf4jnsgd1na2vs0mg"},{"bike_id":"87f30a61-e29a-462b-8dda-e2ad5484db21","system_id":"levelo_inurba_marseille","lat":43.29027,"lon":5.38624,"is_reserved":false,"is_disabled":false,"rental_uris":{"android":"levelo://app?vid=87f30a61-e29a-462b-8dda-e2ad5484db21","ios":"levelo://app?vid=87f30a61-e29a-462b-8dda-e2ad5484db21"},"vehicle_type_id":"4","last_reported":1767384747,"current_range_meters":4800,"station_id":"ce4bh4p2rcd13ifvqe0g","pricing_plan_id":"cebpf4jnsgd1na2vs0mg"},{"bike_id":"d4c6dc95-f402-4619-8161-a90cb01a834e","system_id":"levelo_inurba_marseille","lat":43.288613,"lon":5.425153,"is_reserved":false,"is_disabled":false,"rental_uris":{"android":"levelo://app?vid=d4c6dc95-f402-4619-8161-a90cb01a834e","ios":"levelo://app?vid=d4c6dc95-f402-4619-8161-a90cb01a834e"},"vehicle_type_id":"4","last_reported":1767384747,"current_range_meters":4800,"station_id":"st_d3b462108ojc7389ooeg","pricing_plan_id":"cebpf4jnsgd1na2vs0mg"},{"bike_id":"27eab711-3794-4c67-b72c-787e5b4b546b","system_id":"levelo_inurba_marseille","lat":43.25585,"lon":5.38223,"is_reserved":false,"is_disabled":false,"rental_uris":{"android":"levelo://app?vid=27eab711-3794-4c67-b72c-787e5b4b546b","ios":"levelo://app?vid=27eab711-3794-4c67-b72c-787e5b4b546b"},"vehicle_type_id":"4","last_reported":1767384747,"current_range_meters":4800,"station_id":"ce4bhih2rcd13ifvqfs0","pricing_plan_id":"cebpf4jnsgd1na2vs0mg"},{"bike_id":"d71e6199-e7a1-48fd-a2c1-b62e6725daa7","system_id":"levelo_inurba_marseille","lat":43.292704,"lon":5.384359,"is_reserved":false,"is_disabled":false,"rental_uris":{"android":"levelo://app?vid=d71e6199-e7a1-48fd-a2c1-b62e6725daa7","ios":"levelo://app?vid=d71e6199-e7a1-48fd-a2c1-b62e6725daa7"},"vehicle_type_id":"4","last_reported":1767384747,"current_range_meters":4800,"station_id":"ce4bh692rcd13ifvqea0","pricing_plan_id":"cebpf4jnsgd1na2vs0mg"},{"bike_id":"2573c545-f2d4-4ad8-9d30-55ccbf225a22","system_id":"levelo_inurba_marseille","lat":43.269157,"lon":5.368153,"is_reserved":false,"is_disabled":false,"rental_uris":{"android":"levelo://app?vid=2573c545-f2d4-4ad8-9d30-55ccbf225a22","ios":"levelo://app?vid=2573c545-f2d4-4ad8-9d30-55ccbf225a22"},"vehicle_type_id":"4","last_reported":1767384747,"current_range_meters":4800,"station_id":"","pricing_plan_id":"cebpf4jnsgd1na2vs0mg"},{"bike_id":"0748a164-2ea1-4e24-97eb-dc5eac5814b3","system_id":"levelo_inurba_marseille","lat":43.2994,"lon":5.36546,"is_reserved":false,"is_disabled":false,"rental_uris":{"android":"levelo://app?vid=0748a164-2ea1-4e24-97eb-dc5eac5814b3","ios":"levelo://app?vid=0748a164-2ea1-4e24-97eb-dc5eac5814b3"},"vehicle_type_id":"4","last_reported":1767384747,"current_range_meters":4800,"station_id":"ce4bgm92rcd13ifvqbr0","pricing_plan_id":"cebpf4jnsgd1na2vs0mg"},{"bike_id":"650cf425-f87e-4c30-9156-354d5fef94cd","system_id":"levelo_inurba_marseille","lat":43.30131,"lon":5.3676,"is_reserved":false,"is_disabled":false,"rental_uris":{"android":"levelo://app?vid=650cf425-f87e-4c30-9156-354d5fef94cd","ios":"levelo://app?vid=650cf425-f87e-4c30-9156-354d5fef94cd"},"vehicle_type_id":"4","last_reported":1767384747,"current_range_meters":4800,"station_id":"","pricing_plan_id":"cebpf4jnsgd1na2vs0mg"},{"bike_id":"eb29c3aa-f32a-40d5-9aee-e0083bcc217d","system_id":"levelo_inurba_marseille","lat":43.29003,"lon":5.35595,"is_reserved":false,"is_disabled":false,"rental_uris":{"android":"levelo://app?vid=eb29c3aa-f32a-40d5-9aee-e0083bcc217d","ios":"levelo://app?vid=eb29c3aa-f32a-40d5-9aee-e0083bcc217d"},"vehicle_type_id":"4","last_reported":1767384747,"current_range_meters":4800,"station_id":"ce4bhb92rcd13ifvqen0","pricing_plan_id":"cebpf4jnsgd1na2vs0mg"},{"bike_id":"3fd00cb0-0645-4a8c-874a-2e0df62cb4f5","system_id":"levelo_inurba_marseille","lat":43.29725,"lon":5.38001,"is_reserved":false,"is_disabled":false,"rental_uris":{"android":"levelo://app?vid=3fd00cb0-0645-4a8c-874a-2e0df62cb4f5","ios":"levelo://app?vid=3fd00cb0-0645-4a8c-874a-2e0df62cb4f5"},"vehicle_type_id":"4","last_reported":1767384747,"current_range_meters":4800,"station_id":"","pricing_plan_id":"cebpf4jnsgd1na2vs0mg"},{"bike_id":"16ee8b9c-b14b-4f54-b95e-4f4d21d0a1fa","system_id":"levelo_inurba_marseille","lat":43.290052,"lon":5.356163,"is_reserved":false,"is_disabled":false,"rental_uris":{"android":"levelo://app?vid=16ee8b9c-b14b-4f54-b95e-4f4d21d0a1fa","ios":"levelo://app?vid=16ee8b9c-b14b-4f54-b95e-4f4d21d0a1fa"},"vehicle_type_id":"4","last_reported":1767384747,"current_range_meters":4800,"station_id":"","pricing_plan_id":"cebpf4jnsgd1na2vs0mg"},{"bike_id":"31074345-6b13-45ef-b79c-26566c89aa06","system_id":"levelo_inurba_marseille","lat":43.31044,"lon":5.37135,"is_reserved":false,"is_disabled":false,"rental_uris":{"android":"levelo://app?vid=31074345-6b13-45ef-b79c-26566c89aa06","ios":"levelo://app?vid=31074345-6b13-45ef-b79c-26566c89aa06"},"vehicle_type_id":"4","last_reported":1767384747,"current_range_meters":5600,"station_id":"st_d4kl2rp97mjs73e7tdfg","pricing_plan_id":"cebpf4jnsgd1na2vs0mg"},{"bike_id":"ae9b9bf1-6148-4597-b7ba-fc09cf9817ae","system_id":"levelo_inurba_marseille","lat":43.28861,"lon":5.35835,"is_reserved":false,"is_disabled":false,"rental_uris":{"android":"levelo://app?vid=ae9b9bf1-6148-4597-b7ba-fc09cf9817ae","ios":"levelo://app?vid=ae9b9bf1-6148-4597-b7ba-fc09cf9817ae"},"vehicle_type_id":"4","last_reported":1767384747,"current_range_meters":5600,"station_id":"ce4bhb12rcd13ifvqem0","pricing_plan_id":"cebpf4jnsgd1na2vs0mg"},{"bike_id":"e2e3d8ff-b313-4743-8002-1fb728a030ab","system_id":"levelo_inurba_marseille","lat":43.28154,"lon":5.42634,"is_reserved":false,"is_disabled":false,"rental_uris":{"android":"levelo://app?vid=e2e3d8ff-b313-4743-8002-1fb728a030ab","ios":"levelo://app?vid=e2e3d8ff-b313-4743-8002-1fb728a030ab"},"vehicle_type_id":"4","last_reported":1767384747,"current_range_meters":5600,"station_id":"ce4bhnh2rcd13ifvqgug","pricing_plan_id":"cebpf4jnsgd1na2vs0mg"},{"bike_id":"e3b77d85-1618-4819-bab0-004b7943fca6","system_id":"levelo_inurba_marseille","lat":43.24817,"lon":5.37461,"is_reserved":false,"is_disabled":false,"rental_uris":{"android":"levelo://app?vid=e3b77d85-1618-4819-bab0-004b7943fca6","ios":"levelo://app?vid=e3b77d85-1618-4819-bab0-004b7943fca6"},"vehicle_type_id":"4","last_reported":1767384747,"current_range_meters":5600,"station_id":"ce4bhgh2rcd13ifvqfb0","pricing_plan_id":"cebpf4jnsgd1na2vs0mg"},{"bike_id":"7ac98c64-2424-49b0-be1b-1d86a6975c42","system_id":"levelo_inurba_marseille","lat":43.290018,"lon":5.35621,"is_reserved":false,"is_disabled":false,"rental_uris":{"android":"levelo://app?vid=7ac98c64-2424-49b0-be1b-1d86a6975c42","ios":"levelo://app?vid=7ac98c64-2424-49b0-be1b-1d86a6975c42"},"vehicle_type_id":"4","last_reported":1767384747,"current_range_meters":5600,"station_id":"ce4bhb92rcd13ifvqen0","pricing_plan_id":"cebpf4jnsgd1na2vs0mg"},{"bike_id":"adee5904-d2f9-48c4-ad58-68d27b5bb40a","system_id":"levelo_inurba_marseille","lat":43.2927,"lon":5.37677,"is_reserved":false,"is_disabled":false,"rental_uris":{"android":"levelo://app?vid=adee5904-d2f9-48c4-ad58-68d27b5bb40a","ios":"levelo://app?vid=adee5904-d2f9-48c4-ad58-68d27b5bb40a"},"vehicle_type_id":"4","last_reported":1767384747,"current_range_meters":5600,"station_id":"ce4bgi12rcd13ifvqb80","pricing_plan_id":"cebpf4jnsgd1na2vs0mg"},{"bike_id":"08793bdf-bae6-4989-a3e8-8fa2dc512947","system_id":"levelo_inurba_marseille","lat":43.21184,"lon":5.35083,"is_reserved":false,"is_disabled":false,"rental_uris":{"android":"levelo://app?vid=08793bdf-bae6-4989-a3e8-8fa2dc512947","ios":"levelo://app?vid=08793bdf-bae6-4989-a3e8-8fa2dc512947"},"vehicle_type_id":"4","last_reported":1767384747,"current_range_meters":5600,"station_id":"st_cvj6sg6p6f1abm77japg","pricing_plan_id":"cebpf4jnsgd1na2vs0mg"},{"bike_id":"1498f079-e300-4265-837b-8da7d97aca06","system_id":"levelo_inurba_marseille","lat":43.241681,"lon":5.363941,"is_reserved":false,"is_disabled":false,"rental_uris":{"android":"levelo://app?vid=1498f079-e300-4265-837b-8da7d97aca06","ios":"levelo://app?vid=1498f079-e300-4265-837b-8da7d97aca06"},"vehicle_type_id":"4","last_reported":1767384747,"current_range_meters":5600,"station_id":"cpo36qri1sfpv3e86is0","pricing_plan_id":"cebpf4jnsgd1na2vs0mg"},{"bike_id":"d19172e9-4830-4cd2-ad8c-633f8c9fb7d7","system_id":"levelo_inurba_marseille","lat":43.27063,"lon":5.38292,"is_reserved":false,"is_disabled":false,"rental_uris":{"android":"levelo://app?vid=d19172e9-4830-4cd2-ad8c-633f8c9fb7d7","ios":"levelo://app?vid=d19172e9-4830-4cd2-ad8c-633f8c9fb7d7"},"vehicle_type_id":"4","last_reported":1767384747,"current_range_meters":5600,"station_id":"st_d3n2fo6cfp8s73cte1j0","pricing_plan_id":"cebpf4jnsgd1na2vs0mg"},{"bike_id":"961a4b80-6a80-41fc-af4e-cb7c655480a6","system_id":"levelo_inurba_marseille","lat":43.28301,"lon":5.39753,"is_reserved":false,"is_disabled":true,"rental_uris":{"android":"levelo://app?vid=961a4b80-6a80-41fc-af4e-cb7c655480a6","ios":"levelo://app?vid=961a4b80-6a80-41fc-af4e-cb7c655480a6"},"vehicle_type_id":"4","last_reported":1767384747,"current_range_meters":5600,"station_id":"","pricing_plan_id":"cebpf4jnsgd1na2vs0mg"},{"bike_id":"ead7dd8d-77ea-4b67-b1fb-95ddc6c818a5","system_id":"levelo_inurba_marseille","lat":43.31403,"lon":5.38094,"is_reserved":false,"is_disabled":false,"rental_uris":{"android":"levelo://app?vid=ead7dd8d-77ea-4b67-b1fb-95ddc6c818a5","ios":"levelo://app?vid=ead7dd8d-77ea-4b67-b1fb-95ddc6c818a5"},"vehicle_type_id":"4","last_reported":1767384747,"current_range_meters":5600,"station_id":"","pricing_plan_id":"cebpf4jnsgd1na2vs0mg"},{"bike_id":"5c11d128-757a-46f8-b571-d4b1a2998ba5","system_id":"levelo_inurba_marseille","lat":43.29961,"lon":5.38496,"is_reserved":false,"is_disabled":false,"rental_uris":{"android":"levelo://app?vid=5c11d128-757a-46f8-b571-d4b1a2998ba5","ios":"levelo://app?vid=5c11d128-757a-46f8-b571-d4b1a2998ba5"},"vehicle_type_id":"4","last_reported":1767384747,"current_range_meters":5600,"station_id":"ce4bgj92rcd13ifvqbd0","pricing_plan_id":"cebpf4jnsgd1na2vs0mg"},{"bike_id":"1f67767c-059c-40ba-a3b2-a364fe0cad2a","system_id":"levelo_inurba_marseille","lat":43.27835,"lon":5.39188,"is_reserved":false,"is_disabled":false,"rental_uris":{"android":"levelo://app?vid=1f67767c-059c-40ba-a3b2-a364fe0cad2a","ios":"levelo://app?vid=1f67767c-059c-40ba-a3b2-a364fe0cad2a"},"vehicle_type_id":"4","last_reported":1767384747,"current_range_meters":5600,"station_id":"ce4bhjp2rcd13ifvqga0","pricing_plan_id":"cebpf4jnsgd1na2vs0mg"},{"bike_id":"78b78459-2eb0-4f42-ae5f-40339ddcabfe","system_id":"levelo_inurba_marseille","lat":43.29286,"lon":5.37607,"is_reserved":false,"is_disabled":false,"rental_uris":{"android":"levelo://app?vid=78b78459-2eb0-4f42-ae5f-40339ddcabfe","ios":"levelo://app?vid=78b78459-2eb0-4f42-ae5f-40339ddcabfe"},"vehicle_type_id":"4","last_reported":1767384747,"current_range_meters":5600,"station_id":"ce4bgi12rcd13ifvqb80","pricing_plan_id":"cebpf4jnsgd1na2vs0mg"},{"bike_id":"efd33062-2cef-445f-af98-648f578e9c2a","system_id":"levelo_inurba_marseille","lat":43.32624,"lon":5.41927,"is_reserved":false,"is_disabled":false,"rental_uris":{"android":"levelo://app?vid=efd33062-2cef-445f-af98-648f578e9c2a","ios":"levelo://app?vid=efd33062-2cef-445f-af98-648f578e9c2a"},"vehicle_type_id":"4","last_reported":1767384747,"current_range_meters":6000,"station_id":"","pricing_plan_id":"cebpf4jnsgd1na2vs0mg"},{"bike_id":"2b197aa8-e8aa-412e-bdb9-cf1a022e5dc2","system_id":"levelo_inurba_marseille","lat":43.2534,"lon":5.42163,"is_reserved":false,"is_disabled":false,"rental_uris":{"android":"levelo://app?vid=2b197aa8-e8aa-412e-bdb9-cf1a022e5dc2","ios":"levelo://app?vid=2b197aa8-e8aa-412e-bdb9-cf1a022e5dc2"},"vehicle_type_id":"4","last_reported":1767384747,"current_range_meters":6000,"station_id":"st_d2m65c5bi1j21697t3ng","pricing_plan_id":"cebpf4jnsgd1na2vs0mg"},{"bike_id":"3c3d3b90-eac7-43ca-ac27-3e6ae37cfde1","system_id":"levelo_inurba_marseille","lat":43.30126,"lon":5.39869,"is_reserved":false,"is_disabled":false,"rental_uris":{"android":"levelo://app?vid=3c3d3b90-eac7-43ca-ac27-3e6ae37cfde1","ios":"levelo://app?vid=3c3d3b90-eac7-43ca-ac27-3e6ae37cfde1"},"vehicle_type_id":"4","last_reported":1767384747,"current_range_meters":6000,"station_id":"ce4bh0h2rcd13ifvqd40","pricing_plan_id":"cebpf4jnsgd1na2vs0mg"},{"bike_id":"b52b444c-f60e-49fe-9928-a25308196a7e","system_id":"levelo_inurba_marseille","lat":43.225325,"lon":5.348313,"is_reserved":false,"is_disabled":false,"rental_uris":{"android":"levelo://app?vid=b52b444c-f60e-49fe-9928-a25308196a7e","ios":"levelo://app?vid=b52b444c-f60e-49fe-9928-a25308196a7e"},"vehicle_type_id":"4","last_reported":1767384747,"current_range_meters":6000,"station_id":"","pricing_plan_id":"cebpf4jnsgd1na2vs0mg"},{"bike_id":"888124a3-8ef7-45af-9406-e1a88d1b109a","system_id":"levelo_inurba_marseille","lat":43.29042,"lon":5.39959,"is_reserved":false,"is_disabled":false,"rental_uris":{"android":"levelo://app?vid=888124a3-8ef7-45af-9406-e1a88d1b109a","ios":"levelo://app?vid=888124a3-8ef7-45af-9406-e1a88d1b109a"},"vehicle_type_id":"4","last_reported":1767384747,"current_range_meters":6000,"station_id":"ce4bh392rcd13ifvqdm0","pricing_plan_id":"cebpf4jnsgd1na2vs0mg"},{"bike_id":"ab98afa8-4907-4b9f-b6c6-75e71a064cde","system_id":"levelo_inurba_marseille","lat":43.25729,"lon":5.41113,"is_reserved":false,"is_disabled":false,"rental_uris":{"android":"levelo://app?vid=ab98afa8-4907-4b9f-b6c6-75e71a064cde","ios":"levelo://app?vid=ab98afa8-4907-4b9f-b6c6-75e71a064cde"},"vehicle_type_id":"4","last_reported":1767384747,"current_range_meters":6000,"station_id":"ce4bhkp2rcd13ifvqgd0","pricing_plan_id":"cebpf4jnsgd1na2vs0mg"},{"bike_id":"6b34a822-c9f9-4f83-9b8b-49bde0d95675","system_id":"levelo_inurba_marseille","lat":43.28471,"lon":5.38418,"is_reserved":false,"is_disabled":false,"rental_uris":{"android":"levelo://app?vid=6b34a822-c9f9-4f83-9b8b-49bde0d95675","ios":"levelo://app?vid=6b34a822-c9f9-4f83-9b8b-49bde0d95675"},"vehicle_type_id":"4","last_reported":1767384747,"current_range_meters":6000,"station_id":"ce4bh512rcd13ifvqe3g","pricing_plan_id":"cebpf4jnsgd1na2vs0mg"},{"bike_id":"770adec0-43e5-4e4d-997f-51d8dafd046a","system_id":"levelo_inurba_marseille","lat":43.27829,"lon":5.39195,"is_reserved":false,"is_disabled":false,"rental_uris":{"android":"levelo://app?vid=770adec0-43e5-4e4d-997f-51d8dafd046a","ios":"levelo://app?vid=770adec0-43e5-4e4d-997f-51d8dafd046a"},"vehicle_type_id":"4","last_reported":1767384747,"current_range_meters":6000,"station_id":"ce4bhjp2rcd13ifvqga0","pricing_plan_id":"cebpf4jnsgd1na2vs0mg"},{"bike_id":"dffa7cf9-e9fd-4981-8663-7037965a966a","system_id":"levelo_inurba_marseille","lat":43.30176,"lon":5.37403,"is_reserved":false,"is_disabled":false,"rental_uris":{"android":"levelo://app?vid=dffa7cf9-e9fd-4981-8663-7037965a966a","ios":"levelo://app?vid=dffa7cf9-e9fd-4981-8663-7037965a966a"},"vehicle_type_id":"4","last_reported":1767384747,"current_range_meters":6000,"station_id":"ce4bgs92rcd13ifvqcc0","pricing_plan_id":"cebpf4jnsgd1na2vs0mg"},{"bike_id":"ead1444d-eac1-417f-b268-ce9ed5abb843","system_id":"levelo_inurba_marseille","lat":43.297,"lon":5.37287,"is_reserved":false,"is_disabled":false,"rental_uris":{"android":"levelo://app?vid=ead1444d-eac1-417f-b268-ce9ed5abb843","ios":"levelo://app?vid=ead1444d-eac1-417f-b268-ce9ed5abb843"},"vehicle_type_id":"4","last_reported":1767384747,"current_range_meters":6000,"station_id":"ce4bgk12rcd13ifvqbj0","pricing_plan_id":"cebpf4jnsgd1na2vs0mg"},{"bike_id":"0fe07df0-0792-452d-b498-83128575ac3a","system_id":"levelo_inurba_marseille","lat":43.2927,"lon":5.38423,"is_reserved":false,"is_disabled":false,"rental_uris":{"android":"levelo://app?vid=0fe07df0-0792-452d-b498-83128575ac3a","ios":"levelo://app?vid=0fe07df0-0792-452d-b498-83128575ac3a"},"vehicle_type_id":"4","last_reported":1767384747,"current_range_meters":6000,"station_id":"ce4bh692rcd13ifvqea0","pricing_plan_id":"cebpf4jnsgd1na2vs0mg"},{"bike_id":"71673f29-1dbb-4dc6-9280-1a5b5bc3d3a8","system_id":"levelo_inurba_marseille","lat":43.26932,"lon":5.38908,"is_reserved":false,"is_disabled":false,"rental_uris":{"android":"levelo://app?vid=71673f29-1dbb-4dc6-9280-1a5b5bc3d3a8","ios":"levelo://app?vid=71673f29-1dbb-4dc6-9280-1a5b5bc3d3a8"},"vehicle_type_id":"4","last_reported":1767384747,"current_range_meters":6000,"station_id":"ce4bhhh2rcd13ifvqfl0","pricing_plan_id":"cebpf4jnsgd1na2vs0mg"},{"bike_id":"f3a4c2fd-c27a-4ca6-bbe5-3949d2a88808","system_id":"levelo_inurba_marseille","lat":43.28573,"lon":5.42966,"is_reserved":false,"is_disabled":false,"rental_uris":{"android":"levelo://app?vid=f3a4c2fd-c27a-4ca6-bbe5-3949d2a88808","ios":"levelo://app?vid=f3a4c2fd-c27a-4ca6-bbe5-3949d2a88808"},"vehicle_type_id":"4","last_reported":1767384747,"current_range_meters":6000,"station_id":"","pricing_plan_id":"cebpf4jnsgd1na2vs0mg"},{"bike_id":"b3a5a229-667f-4d4f-93b0-a342ee918540","system_id":"levelo_inurba_marseille","lat":43.22935,"lon":5.35376,"is_reserved":false,"is_disabled":false,"rental_uris":{"android":"levelo://app?vid=b3a5a229-667f-4d4f-93b0-a342ee918540","ios":"levelo://app?vid=b3a5a229-667f-4d4f-93b0-a342ee918540"},"vehicle_type_id":"4","last_reported":1767384747,"current_range_meters":6000,"station_id":"cpo3532slgdg3j2ikp40","pricing_plan_id":"cebpf4jnsgd1na2vs0mg"},{"bike_id":"1e76a634-1236-4429-a6ca-562668962923","system_id":"levelo_inurba_marseille","lat":43.25215,"lon":5.39438,"is_reserved":false,"is_disabled":false,"rental_uris":{"android":"levelo://app?vid=1e76a634-1236-4429-a6ca-562668962923","ios":"levelo://app?vid=1e76a634-1236-4429-a6ca-562668962923"},"vehicle_type_id":"4","last_reported":1767384747,"current_range_meters":6400,"station_id":"","pricing_plan_id":"cebpf4jnsgd1na2vs0mg"},{"bike_id":"b7c65842-363d-43c4-92b2-529d07ea43d3","system_id":"levelo_inurba_marseille","lat":43.25852,"lon":5.39805,"is_reserved":false,"is_disabled":false,"rental_uris":{"android":"levelo://app?vid=b7c65842-363d-43c4-92b2-529d07ea43d3","ios":"levelo://app?vid=b7c65842-363d-43c4-92b2-529d07ea43d3"},"vehicle_type_id":"4","last_reported":1767384747,"current_range_meters":6400,"station_id":"","pricing_plan_id":"cebpf4jnsgd1na2vs0mg"},{"bike_id":"01acd4e1-39f3-4977-a75b-b398fd9d2b84","system_id":"levelo_inurba_marseille","lat":43.3125,"lon":5.36901,"is_reserved":false,"is_disabled":false,"rental_uris":{"android":"levelo://app?vid=01acd4e1-39f3-4977-a75b-b398fd9d2b84","ios":"levelo://app?vid=01acd4e1-39f3-4977-a75b-b398fd9d2b84"},"vehicle_type_id":"4","last_reported":1767384747,"current_range_meters":6400,"station_id":"ce4bgl92rcd13ifvqbq0","pricing_plan_id":"cebpf4jnsgd1na2vs0mg"},{"bike_id":"3b652abb-4144-4a5b-8035-ab28a7ba1f33","system_id":"levelo_inurba_marseille","lat":43.28132,"lon":5.42646,"is_reserved":false,"is_disabled":false,"rental_uris":{"android":"levelo://app?vid=3b652abb-4144-4a5b-8035-ab28a7ba1f33","ios":"levelo://app?vid=3b652abb-4144-4a5b-8035-ab28a7ba1f33"},"vehicle_type_id":"4","last_reported":1767384747,"current_range_meters":6400,"station_id":"ce4bhnh2rcd13ifvqgug","pricing_plan_id":"cebpf4jnsgd1na2vs0mg"},{"bike_id":"021e3b37-eded-4570-9563-b3c02625b5ec","system_id":"levelo_inurba_marseille","lat":43.27949,"lon":5.4104,"is_reserved":false,"is_disabled":true,"rental_uris":{"android":"levelo://app?vid=021e3b37-eded-4570-9563-b3c02625b5ec","ios":"levelo://app?vid=021e3b37-eded-4570-9563-b3c02625b5ec"},"vehicle_type_id":"4","last_reported":1767384747,"current_range_meters":6400,"station_id":"ce4bhnp2rcd13ifvqh0g","pricing_plan_id":"cebpf4jnsgd1na2vs0mg"},{"bike_id":"5d64b1d9-59fb-4d57-9b2b-5de60919d0d5","system_id":"levelo_inurba_marseille","lat":43.29215,"lon":5.37037,"is_reserved":false,"is_disabled":false,"rental_uris":{"android":"levelo://app?vid=5d64b1d9-59fb-4d57-9b2b-5de60919d0d5","ios":"levelo://app?vid=5d64b1d9-59fb-4d57-9b2b-5de60919d0d5"},"vehicle_type_id":"4","last_reported":1767384747,"current_range_meters":6400,"station_id":"","pricing_plan_id":"cebpf4jnsgd1na2vs0mg"},{"bike_id":"c96328dd-0bf3-4689-abd3-7be2c7f0275a","system_id":"levelo_inurba_marseille","lat":43.24953,"lon":5.40483,"is_reserved":false,"is_disabled":false,"rental_uris":{"android":"levelo://app?vid=c96328dd-0bf3-4689-abd3-7be2c7f0275a","ios":"levelo://app?vid=c96328dd-0bf3-4689-abd3-7be2c7f0275a"},"vehicle_type_id":"4","last_reported":1767384747,"current_range_meters":6400,"station_id":"st_d2ngiaodas8pm72gd1h0","pricing_plan_id":"cebpf4jnsgd1na2vs0mg"},{"bike_id":"f82d391f-fa54-4944-99a1-f43326016a14","system_id":"levelo_inurba_marseille","lat":43.31756,"lon":5.38983,"is_reserved":false,"is_disabled":false,"rental_uris":{"android":"levelo://app?vid=f82d391f-fa54-4944-99a1-f43326016a14","ios":"levelo://app?vid=f82d391f-fa54-4944-99a1-f43326016a14"},"vehicle_type_id":"4","last_reported":1767384747,"current_range_meters":6400,"station_id":"ce4bhqp2rcd13ifvqhng","pricing_plan_id":"cebpf4jnsgd1na2vs0mg"},{"bike_id":"6049a014-8dc3-46e9-ba2a-e2d3fbe7afc4","system_id":"levelo_inurba_marseille","lat":43.225338,"lon":5.348366,"is_reserved":false,"is_disabled":false,"rental_uris":{"android":"levelo://app?vid=6049a014-8dc3-46e9-ba2a-e2d3fbe7afc4","ios":"levelo://app?vid=6049a014-8dc3-46e9-ba2a-e2d3fbe7afc4"},"vehicle_type_id":"4","last_reported":1767384747,"current_range_meters":6400,"station_id":"","pricing_plan_id":"cebpf4jnsgd1na2vs0mg"},{"bike_id":"7c1849d3-ead0-4f1c-9f08-7c3764c4c219","system_id":"levelo_inurba_marseille","lat":43.23179,"lon":5.39987,"is_reserved":false,"is_disabled":false,"rental_uris":{"android":"levelo://app?vid=7c1849d3-ead0-4f1c-9f08-7c3764c4c219","ios":"levelo://app?vid=7c1849d3-ead0-4f1c-9f08-7c3764c4c219"},"vehicle_type_id":"4","last_reported":1767384747,"current_range_meters":6400,"station_id":"ce4bhn12rcd13ifvqgqg","pricing_plan_id":"cebpf4jnsgd1na2vs0mg"},{"bike_id":"d8431e58-d3e8-4456-9570-729e3ebbcc73","system_id":"levelo_inurba_marseille","lat":43.30155,"lon":5.37252,"is_reserved":false,"is_disabled":false,"rental_uris":{"android":"levelo://app?vid=d8431e58-d3e8-4456-9570-729e3ebbcc73","ios":"levelo://app?vid=d8431e58-d3e8-4456-9570-729e3ebbcc73"},"vehicle_type_id":"4","last_reported":1767384747,"current_range_meters":6400,"station_id":"","pricing_plan_id":"cebpf4jnsgd1na2vs0mg"},{"bike_id":"650654d1-6b19-458f-97df-c0f29c65087f","system_id":"levelo_inurba_marseille","lat":43.26501,"lon":5.39516,"is_reserved":false,"is_disabled":false,"rental_uris":{"android":"levelo://app?vid=650654d1-6b19-458f-97df-c0f29c65087f","ios":"levelo://app?vid=650654d1-6b19-458f-97df-c0f29c65087f"},"vehicle_type_id":"4","last_reported":1767384747,"current_range_meters":6400,"station_id":"ce4bhi12rcd13ifvqfq0","pricing_plan_id":"cebpf4jnsgd1na2vs0mg"},{"bike_id":"99070325-c1a2-425d-aa2c-f2976de310a9","system_id":"levelo_inurba_marseille","lat":43.32494,"lon":5.38278,"is_reserved":false,"is_disabled":false,"rental_uris":{"android":"levelo://app?vid=99070325-c1a2-425d-aa2c-f2976de310a9","ios":"levelo://app?vid=99070325-c1a2-425d-aa2c-f2976de310a9"},"vehicle_type_id":"4","last_reported":1767384747,"current_range_meters":6400,"station_id":"st_d4asgbiv49dc73anf9m0","pricing_plan_id":"cebpf4jnsgd1na2vs0mg"},{"bike_id":"7111ffcd-e35c-4931-9037-38e9fb585758","system_id":"levelo_inurba_marseille","lat":43.31358,"lon":5.36692,"is_reserved":false,"is_disabled":false,"rental_uris":{"android":"levelo://app?vid=7111ffcd-e35c-4931-9037-38e9fb585758","ios":"levelo://app?vid=7111ffcd-e35c-4931-9037-38e9fb585758"},"vehicle_type_id":"4","last_reported":1767384747,"current_range_meters":6400,"station_id":"ce4bgr92rcd13ifvqc6g","pricing_plan_id":"cebpf4jnsgd1na2vs0mg"},{"bike_id":"25f1743a-a2b2-454e-84ce-5c43f5ea30d3","system_id":"levelo_inurba_marseille","lat":43.29888,"lon":5.43668,"is_reserved":false,"is_disabled":false,"rental_uris":{"android":"levelo://app?vid=25f1743a-a2b2-454e-84ce-5c43f5ea30d3","ios":"levelo://app?vid=25f1743a-a2b2-454e-84ce-5c43f5ea30d3"},"vehicle_type_id":"4","last_reported":1767384747,"current_range_meters":6400,"station_id":"ce4bhpp2rcd13ifvqhfg","pricing_plan_id":"cebpf4jnsgd1na2vs0mg"},{"bike_id":"a42f82c9-2481-44c5-932a-b45b8f6bf468","system_id":"levelo_inurba_marseille","lat":43.29256,"lon":5.37629,"is_reserved":false,"is_disabled":false,"rental_uris":{"android":"levelo://app?vid=a42f82c9-2481-44c5-932a-b45b8f6bf468","ios":"levelo://app?vid=a42f82c9-2481-44c5-932a-b45b8f6bf468"},"vehicle_type_id":"4","last_reported":1767384747,"current_range_meters":6400,"station_id":"ce4bgi12rcd13ifvqb80","pricing_plan_id":"cebpf4jnsgd1na2vs0mg"},{"bike_id":"1f4701d5-d340-4df9-98f7-8c976bc059e9","system_id":"levelo_inurba_marseille","lat":43.28301,"lon":5.35041,"is_reserved":false,"is_disabled":false,"rental_uris":{"android":"levelo://app?vid=1f4701d5-d340-4df9-98f7-8c976bc059e9","ios":"levelo://app?vid=1f4701d5-d340-4df9-98f7-8c976bc059e9"},"vehicle_type_id":"4","last_reported":1767384747,"current_range_meters":6400,"station_id":"ce4bhbp2rcd13ifvqerg","pricing_plan_id":"cebpf4jnsgd1na2vs0mg"},{"bike_id":"8224caa3-15d0-456f-92e2-31899714d653","system_id":"levelo_inurba_marseille","lat":43.2994,"lon":5.36552,"is_reserved":false,"is_disabled":false,"rental_uris":{"android":"levelo://app?vid=8224caa3-15d0-456f-92e2-31899714d653","ios":"levelo://app?vid=8224caa3-15d0-456f-92e2-31899714d653"},"vehicle_type_id":"4","last_reported":1767384747,"current_range_meters":6400,"station_id":"ce4bgm92rcd13ifvqbr0","pricing_plan_id":"cebpf4jnsgd1na2vs0mg"},{"bike_id":"4982929f-e9ea-44a7-92da-b076dc2891f7","system_id":"levelo_inurba_marseille","lat":43.24997,"lon":5.38929,"is_reserved":false,"is_disabled":false,"rental_uris":{"android":"levelo://app?vid=4982929f-e9ea-44a7-92da-b076dc2891f7","ios":"levelo://app?vid=4982929f-e9ea-44a7-92da-b076dc2891f7"},"vehicle_type_id":"4","last_reported":1767384747,"current_range_meters":6400,"station_id":"ce4bhgp2rcd13ifvqfd0","pricing_plan_id":"cebpf4jnsgd1na2vs0mg"},{"bike_id":"e0decbbd-66f2-41ff-95bf-ae2a7b2f4e23","system_id":"levelo_inurba_marseille","lat":43.28625,"lon":5.42607,"is_reserved":false,"is_disabled":false,"rental_uris":{"android":"levelo://app?vid=e0decbbd-66f2-41ff-95bf-ae2a7b2f4e23","ios":"levelo://app?vid=e0decbbd-66f2-41ff-95bf-ae2a7b2f4e23"},"vehicle_type_id":"4","last_reported":1767384747,"current_range_meters":6400,"station_id":"","pricing_plan_id":"cebpf4jnsgd1na2vs0mg"},{"bike_id":"dc6b79d5-2f64-4e1d-a805-f82768f8f2a3","system_id":"levelo_inurba_marseille","lat":43.28997,"lon":5.35594,"is_reserved":false,"is_disabled":false,"rental_uris":{"android":"levelo://app?vid=dc6b79d5-2f64-4e1d-a805-f82768f8f2a3","ios":"levelo://app?vid=dc6b79d5-2f64-4e1d-a805-f82768f8f2a3"},"vehicle_type_id":"4","last_reported":1767384747,"current_range_meters":6400,"station_id":"ce4bhb92rcd13ifvqen0","pricing_plan_id":"cebpf4jnsgd1na2vs0mg"},{"bike_id":"d1daf411-ea8b-4880-a1f5-4ac753d36692","system_id":"levelo_inurba_marseille","lat":43.29266,"lon":5.38438,"is_reserved":false,"is_disabled":false,"rental_uris":{"android":"levelo://app?vid=d1daf411-ea8b-4880-a1f5-4ac753d36692","ios":"levelo://app?vid=d1daf411-ea8b-4880-a1f5-4ac753d36692"},"vehicle_type_id":"4","last_reported":1767384747,"current_range_meters":6400,"station_id":"ce4bh692rcd13ifvqea0","pricing_plan_id":"cebpf4jnsgd1na2vs0mg"},{"bike_id":"3ea63038-6c6b-45f0-b75e-c21acaf1cee5","system_id":"levelo_inurba_marseille","lat":43.27412,"lon":5.39357,"is_reserved":false,"is_disabled":false,"rental_uris":{"android":"levelo://app?vid=3ea63038-6c6b-45f0-b75e-c21acaf1cee5","ios":"levelo://app?vid=3ea63038-6c6b-45f0-b75e-c21acaf1cee5"},"vehicle_type_id":"4","last_reported":1767384747,"current_range_meters":6400,"station_id":"ce4bhdp2rcd13ifvqf20","pricing_plan_id":"cebpf4jnsgd1na2vs0mg"},{"bike_id":"490f755c-7a0b-4fb7-bd5b-cba7a4058351","system_id":"levelo_inurba_marseille","lat":43.30298,"lon":5.39208,"is_reserved":false,"is_disabled":false,"rental_uris":{"android":"levelo://app?vid=490f755c-7a0b-4fb7-bd5b-cba7a4058351","ios":"levelo://app?vid=490f755c-7a0b-4fb7-bd5b-cba7a4058351"},"vehicle_type_id":"4","last_reported":1767384747,"current_range_meters":6400,"station_id":"ce4bgkh2rcd13ifvqbk0","pricing_plan_id":"cebpf4jnsgd1na2vs0mg"},{"bike_id":"843a8932-9df1-4422-8c50-15114edb400a","system_id":"levelo_inurba_marseille","lat":43.28404,"lon":5.37509,"is_reserved":false,"is_disabled":false,"rental_uris":{"android":"levelo://app?vid=843a8932-9df1-4422-8c50-15114edb400a","ios":"levelo://app?vid=843a8932-9df1-4422-8c50-15114edb400a"},"vehicle_type_id":"4","last_reported":1767384747,"current_range_meters":6400,"station_id":"ce4bh412rcd13ifvqds0","pricing_plan_id":"cebpf4jnsgd1na2vs0mg"},{"bike_id":"4e9b7826-9833-4a84-8916-93badf36f6d2","system_id":"levelo_inurba_marseille","lat":43.225351,"lon":5.348319,"is_reserved":false,"is_disabled":false,"rental_uris":{"android":"levelo://app?vid=4e9b7826-9833-4a84-8916-93badf36f6d2","ios":"levelo://app?vid=4e9b7826-9833-4a84-8916-93badf36f6d2"},"vehicle_type_id":"4","last_reported":1767384747,"current_range_meters":6800,"station_id":"","pricing_plan_id":"cebpf4jnsgd1na2vs0mg"},{"bike_id":"9cd60386-b05b-46f8-9f2d-306997d41220","system_id":"levelo_inurba_marseille","lat":43.25837,"lon":5.39428,"is_reserved":false,"is_disabled":true,"rental_uris":{"android":"levelo://app?vid=9cd60386-b05b-46f8-9f2d-306997d41220","ios":"levelo://app?vid=9cd60386-b05b-46f8-9f2d-306997d41220"},"vehicle_type_id":"4","last_reported":1767384747,"current_range_meters":6800,"station_id":"ce4bhip2rcd13ifvqft0","pricing_plan_id":"cebpf4jnsgd1na2vs0mg"},{"bike_id":"e385eb1b-cb1e-49e6-8e0d-4d906b7d149f","system_id":"levelo_inurba_marseille","lat":43.2396,"lon":5.36628,"is_reserved":false,"is_disabled":false,"rental_uris":{"android":"levelo://app?vid=e385eb1b-cb1e-49e6-8e0d-4d906b7d149f","ios":"levelo://app?vid=e385eb1b-cb1e-49e6-8e0d-4d906b7d149f"},"vehicle_type_id":"4","last_reported":1767384747,"current_range_meters":6800,"station_id":"ce4bhi12rcd13ifvqfp0","pricing_plan_id":"cebpf4jnsgd1na2vs0mg"},{"bike_id":"f5e423ba-63e1-44dc-8ab3-725747e6e2fa","system_id":"levelo_inurba_marseille","lat":43.28723,"lon":5.36099,"is_reserved":false,"is_disabled":false,"rental_uris":{"android":"levelo://app?vid=f5e423ba-63e1-44dc-8ab3-725747e6e2fa","ios":"levelo://app?vid=f5e423ba-63e1-44dc-8ab3-725747e6e2fa"},"vehicle_type_id":"4","last_reported":1767384747,"current_range_meters":6800,"station_id":"cki0cbj6b192h4jlfktg","pricing_plan_id":"cebpf4jnsgd1na2vs0mg"},{"bike_id":"50a1ce80-e2ae-4637-b1b3-c5d653d75cd1","system_id":"levelo_inurba_marseille","lat":43.31884,"lon":5.3903,"is_reserved":false,"is_disabled":false,"rental_uris":{"android":"levelo://app?vid=50a1ce80-e2ae-4637-b1b3-c5d653d75cd1","ios":"levelo://app?vid=50a1ce80-e2ae-4637-b1b3-c5d653d75cd1"},"vehicle_type_id":"4","last_reported":1767384747,"current_range_meters":6800,"station_id":"","pricing_plan_id":"cebpf4jnsgd1na2vs0mg"},{"bike_id":"300e581f-335c-475a-962e-412400eb2da9","system_id":"levelo_inurba_marseille","lat":43.27194,"lon":5.40975,"is_reserved":false,"is_disabled":false,"rental_uris":{"android":"levelo://app?vid=300e581f-335c-475a-962e-412400eb2da9","ios":"levelo://app?vid=300e581f-335c-475a-962e-412400eb2da9"},"vehicle_type_id":"4","last_reported":1767384747,"current_range_meters":6800,"station_id":"ce4bhl12rcd13ifvqgf0","pricing_plan_id":"cebpf4jnsgd1na2vs0mg"},{"bike_id":"7eb527da-1a9a-480a-a474-299b2b0b83bd","system_id":"levelo_inurba_marseille","lat":43.25756,"lon":5.41119,"is_reserved":false,"is_disabled":false,"rental_uris":{"android":"levelo://app?vid=7eb527da-1a9a-480a-a474-299b2b0b83bd","ios":"levelo://app?vid=7eb527da-1a9a-480a-a474-299b2b0b83bd"},"vehicle_type_id":"4","last_reported":1767384747,"current_range_meters":6800,"station_id":"ce4bhkp2rcd13ifvqgd0","pricing_plan_id":"cebpf4jnsgd1na2vs0mg"},{"bike_id":"185e0c2e-84e6-4755-93a3-88817b0eaaae","system_id":"levelo_inurba_marseille","lat":43.23774,"lon":5.36625,"is_reserved":false,"is_disabled":false,"rental_uris":{"android":"levelo://app?vid=185e0c2e-84e6-4755-93a3-88817b0eaaae","ios":"levelo://app?vid=185e0c2e-84e6-4755-93a3-88817b0eaaae"},"vehicle_type_id":"4","last_reported":1767384747,"current_range_meters":6800,"station_id":"st_d3nk18o9ro0c73en2l3g","pricing_plan_id":"cebpf4jnsgd1na2vs0mg"},{"bike_id":"46223cac-50cf-45ac-ab87-36ce93841c20","system_id":"levelo_inurba_marseille","lat":43.33596,"lon":5.41025,"is_reserved":false,"is_disabled":false,"rental_uris":{"android":"levelo://app?vid=46223cac-50cf-45ac-ab87-36ce93841c20","ios":"levelo://app?vid=46223cac-50cf-45ac-ab87-36ce93841c20"},"vehicle_type_id":"4","last_reported":1767384747,"current_range_meters":6800,"station_id":"ce4bhqh2rcd13ifvqhmg","pricing_plan_id":"cebpf4jnsgd1na2vs0mg"},{"bike_id":"55f9780f-9aa0-427c-a474-447abae3b483","system_id":"levelo_inurba_marseille","lat":43.24165,"lon":5.36389,"is_reserved":false,"is_disabled":false,"rental_uris":{"android":"levelo://app?vid=55f9780f-9aa0-427c-a474-447abae3b483","ios":"levelo://app?vid=55f9780f-9aa0-427c-a474-447abae3b483"},"vehicle_type_id":"4","last_reported":1767384747,"current_range_meters":6800,"station_id":"cpo36qri1sfpv3e86is0","pricing_plan_id":"cebpf4jnsgd1na2vs0mg"},{"bike_id":"f89a7ab5-4f10-40db-80a7-7c57c53bb059","system_id":"levelo_inurba_marseille","lat":43.2672,"lon":5.40671,"is_reserved":false,"is_disabled":false,"rental_uris":{"android":"levelo://app?vid=f89a7ab5-4f10-40db-80a7-7c57c53bb059","ios":"levelo://app?vid=f89a7ab5-4f10-40db-80a7-7c57c53bb059"},"vehicle_type_id":"4","last_reported":1767384747,"current_range_meters":6800,"station_id":"","pricing_plan_id":"cebpf4jnsgd1na2vs0mg"},{"bike_id":"772124ba-5420-4e94-ba55-32ef5db59e17","system_id":"levelo_inurba_marseille","lat":43.28043,"lon":5.35333,"is_reserved":false,"is_disabled":false,"rental_uris":{"android":"levelo://app?vid=772124ba-5420-4e94-ba55-32ef5db59e17","ios":"levelo://app?vid=772124ba-5420-4e94-ba55-32ef5db59e17"},"vehicle_type_id":"4","last_reported":1767384747,"current_range_meters":6800,"station_id":"","pricing_plan_id":"cebpf4jnsgd1na2vs0mg"},{"bike_id":"cc67970e-0898-49e4-a870-5cb9a191e5f2","system_id":"levelo_inurba_marseille","lat":43.23785,"lon":5.36633,"is_reserved":false,"is_disabled":false,"rental_uris":{"android":"levelo://app?vid=cc67970e-0898-49e4-a870-5cb9a191e5f2","ios":"levelo://app?vid=cc67970e-0898-49e4-a870-5cb9a191e5f2"},"vehicle_type_id":"4","last_reported":1767384747,"current_range_meters":6800,"station_id":"st_d3nk18o9ro0c73en2l3g","pricing_plan_id":"cebpf4jnsgd1na2vs0mg"},{"bike_id":"81640354-1fdb-4e0c-8b2a-c31f90862a44","system_id":"levelo_inurba_marseille","lat":43.30504,"lon":5.39421,"is_reserved":false,"is_disabled":false,"rental_uris":{"android":"levelo://app?vid=81640354-1fdb-4e0c-8b2a-c31f90862a44","ios":"levelo://app?vid=81640354-1fdb-4e0c-8b2a-c31f90862a44"},"vehicle_type_id":"4","last_reported":1767384747,"current_range_meters":6800,"station_id":"","pricing_plan_id":"cebpf4jnsgd1na2vs0mg"},{"bike_id":"d0702e5b-f890-4b7f-969f-5a37ee2618de","system_id":"levelo_inurba_marseille","lat":43.24667,"lon":5.38147,"is_reserved":false,"is_disabled":false,"rental_uris":{"android":"levelo://app?vid=d0702e5b-f890-4b7f-969f-5a37ee2618de","ios":"levelo://app?vid=d0702e5b-f890-4b7f-969f-5a37ee2618de"},"vehicle_type_id":"4","last_reported":1767384747,"current_range_meters":6800,"station_id":"ce4bhih2rcd13ifvqfr0","pricing_plan_id":"cebpf4jnsgd1na2vs0mg"},{"bike_id":"aa4c0c3c-20a8-4dcd-8254-3a59efbed1dc","system_id":"levelo_inurba_marseille","lat":43.28426,"lon":5.38467,"is_reserved":false,"is_disabled":false,"rental_uris":{"android":"levelo://app?vid=aa4c0c3c-20a8-4dcd-8254-3a59efbed1dc","ios":"levelo://app?vid=aa4c0c3c-20a8-4dcd-8254-3a59efbed1dc"},"vehicle_type_id":"4","last_reported":1767384747,"current_range_meters":7200,"station_id":"","pricing_plan_id":"cebpf4jnsgd1na2vs0mg"},{"bike_id":"b62193e6-744b-4181-8bcc-23d13e78d12b","system_id":"levelo_inurba_marseille","lat":43.26558,"lon":5.40318,"is_reserved":false,"is_disabled":false,"rental_uris":{"android":"levelo://app?vid=b62193e6-744b-4181-8bcc-23d13e78d12b","ios":"levelo://app?vid=b62193e6-744b-4181-8bcc-23d13e78d12b"},"vehicle_type_id":"4","last_reported":1767384747,"current_range_meters":7200,"station_id":"ce4bhmp2rcd13ifvqgng","pricing_plan_id":"cebpf4jnsgd1na2vs0mg"},{"bike_id":"2b10c106-0ba3-44ab-ae92-439bc093d13c","system_id":"levelo_inurba_marseille","lat":43.28638,"lon":5.35101,"is_reserved":false,"is_disabled":false,"rental_uris":{"android":"levelo://app?vid=2b10c106-0ba3-44ab-ae92-439bc093d13c","ios":"levelo://app?vid=2b10c106-0ba3-44ab-ae92-439bc093d13c"},"vehicle_type_id":"4","last_reported":1767384747,"current_range_meters":7200,"station_id":"ce4bhch2rcd13ifvqeug","pricing_plan_id":"cebpf4jnsgd1na2vs0mg"},{"bike_id":"2d42aa17-c3b7-4399-a80f-3190c91cb12e","system_id":"levelo_inurba_marseille","lat":43.29811,"lon":5.44056,"is_reserved":false,"is_disabled":false,"rental_uris":{"android":"levelo://app?vid=2d42aa17-c3b7-4399-a80f-3190c91cb12e","ios":"levelo://app?vid=2d42aa17-c3b7-4399-a80f-3190c91cb12e"},"vehicle_type_id":"4","last_reported":1767384747,"current_range_meters":7200,"station_id":"st_d3jp68qikq2c7381ktn0","pricing_plan_id":"cebpf4jnsgd1na2vs0mg"},{"bike_id":"2b8bea13-f963-4af9-873f-0adbe68583d4","system_id":"levelo_inurba_marseille","lat":43.28859,"lon":5.42511,"is_reserved":false,"is_disabled":false,"rental_uris":{"android":"levelo://app?vid=2b8bea13-f963-4af9-873f-0adbe68583d4","ios":"levelo://app?vid=2b8bea13-f963-4af9-873f-0adbe68583d4"},"vehicle_type_id":"4","last_reported":1767384747,"current_range_meters":7200,"station_id":"st_d3b462108ojc7389ooeg","pricing_plan_id":"cebpf4jnsgd1na2vs0mg"},{"bike_id":"e6a18c23-c394-4a24-8761-89c1188fd805","system_id":"levelo_inurba_marseille","lat":43.27365,"lon":5.36249,"is_reserved":false,"is_disabled":false,"rental_uris":{"android":"levelo://app?vid=e6a18c23-c394-4a24-8761-89c1188fd805","ios":"levelo://app?vid=e6a18c23-c394-4a24-8761-89c1188fd805"},"vehicle_type_id":"4","last_reported":1767384747,"current_range_meters":7200,"station_id":"ce4bhbh2rcd13ifvqeo0","pricing_plan_id":"cebpf4jnsgd1na2vs0mg"},{"bike_id":"ac106ca6-d0a3-4dd3-9a3c-e70186cb307d","system_id":"levelo_inurba_marseille","lat":43.29278,"lon":5.3845,"is_reserved":false,"is_disabled":false,"rental_uris":{"android":"levelo://app?vid=ac106ca6-d0a3-4dd3-9a3c-e70186cb307d","ios":"levelo://app?vid=ac106ca6-d0a3-4dd3-9a3c-e70186cb307d"},"vehicle_type_id":"4","last_reported":1767384747,"current_range_meters":7200,"station_id":"ce4bh692rcd13ifvqea0","pricing_plan_id":"cebpf4jnsgd1na2vs0mg"},{"bike_id":"60a24bfa-71d1-4394-8423-89ffbc06474e","system_id":"levelo_inurba_marseille","lat":43.302939,"lon":5.376507,"is_reserved":false,"is_disabled":false,"rental_uris":{"android":"levelo://app?vid=60a24bfa-71d1-4394-8423-89ffbc06474e","ios":"levelo://app?vid=60a24bfa-71d1-4394-8423-89ffbc06474e"},"vehicle_type_id":"4","last_reported":1767384747,"current_range_meters":7200,"station_id":"","pricing_plan_id":"cebpf4jnsgd1na2vs0mg"},{"bike_id":"b6b7a146-8a76-4eb7-abd8-58e5d94b3994","system_id":"levelo_inurba_marseille","lat":43.246402,"lon":5.431311,"is_reserved":false,"is_disabled":false,"rental_uris":{"android":"levelo://app?vid=b6b7a146-8a76-4eb7-abd8-58e5d94b3994","ios":"levelo://app?vid=b6b7a146-8a76-4eb7-abd8-58e5d94b3994"},"vehicle_type_id":"4","last_reported":1767384747,"current_range_meters":7200,"station_id":"st_d2m6c4gdas8pm72e190g","pricing_plan_id":"cebpf4jnsgd1na2vs0mg"},{"bike_id":"9023abd3-dcf7-4670-81c1-83a43333ed78","system_id":"levelo_inurba_marseille","lat":43.29986,"lon":5.38534,"is_reserved":false,"is_disabled":false,"rental_uris":{"android":"levelo://app?vid=9023abd3-dcf7-4670-81c1-83a43333ed78","ios":"levelo://app?vid=9023abd3-dcf7-4670-81c1-83a43333ed78"},"vehicle_type_id":"4","last_reported":1767384747,"current_range_meters":7200,"station_id":"ce4bgj92rcd13ifvqbd0","pricing_plan_id":"cebpf4jnsgd1na2vs0mg"},{"bike_id":"b6633023-7126-4061-b725-029707af05dd","system_id":"levelo_inurba_marseille","lat":43.28093,"lon":5.39655,"is_reserved":false,"is_disabled":false,"rental_uris":{"android":"levelo://app?vid=b6633023-7126-4061-b725-029707af05dd","ios":"levelo://app?vid=b6633023-7126-4061-b725-029707af05dd"},"vehicle_type_id":"4","last_reported":1767384747,"current_range_meters":7200,"station_id":"ce4bho12rcd13ifvqh2g","pricing_plan_id":"cebpf4jnsgd1na2vs0mg"},{"bike_id":"275fe993-82e9-414f-ad4d-1f5394ebb649","system_id":"levelo_inurba_marseille","lat":43.29513,"lon":5.37498,"is_reserved":false,"is_disabled":false,"rental_uris":{"android":"levelo://app?vid=275fe993-82e9-414f-ad4d-1f5394ebb649","ios":"levelo://app?vid=275fe993-82e9-414f-ad4d-1f5394ebb649"},"vehicle_type_id":"4","last_reported":1767384747,"current_range_meters":7200,"station_id":"ce4bgkp2rcd13ifvqbmg","pricing_plan_id":"cebpf4jnsgd1na2vs0mg"},{"bike_id":"dc9feb7e-742c-4c15-83bb-7db4fa4848d4","system_id":"levelo_inurba_marseille","lat":43.32047,"lon":5.37184,"is_reserved":false,"is_disabled":false,"rental_uris":{"android":"levelo://app?vid=dc9feb7e-742c-4c15-83bb-7db4fa4848d4","ios":"levelo://app?vid=dc9feb7e-742c-4c15-83bb-7db4fa4848d4"},"vehicle_type_id":"4","last_reported":1767384747,"current_range_meters":7200,"station_id":"","pricing_plan_id":"cebpf4jnsgd1na2vs0mg"},{"bike_id":"68760415-b79d-45e2-af26-b3bf92005dff","system_id":"levelo_inurba_marseille","lat":43.29298,"lon":5.374606,"is_reserved":false,"is_disabled":false,"rental_uris":{"android":"levelo://app?vid=68760415-b79d-45e2-af26-b3bf92005dff","ios":"levelo://app?vid=68760415-b79d-45e2-af26-b3bf92005dff"},"vehicle_type_id":"4","last_reported":1767384747,"current_range_meters":7200,"station_id":"ce4bgi12rcd13ifvqb70","pricing_plan_id":"cebpf4jnsgd1na2vs0mg"},{"bike_id":"3ec44dab-28b8-4b5e-957d-d76f4fbaf546","system_id":"levelo_inurba_marseille","lat":43.30391,"lon":5.37761,"is_reserved":false,"is_disabled":false,"rental_uris":{"android":"levelo://app?vid=3ec44dab-28b8-4b5e-957d-d76f4fbaf546","ios":"levelo://app?vid=3ec44dab-28b8-4b5e-957d-d76f4fbaf546"},"vehicle_type_id":"4","last_reported":1767384747,"current_range_meters":7200,"station_id":"","pricing_plan_id":"cebpf4jnsgd1na2vs0mg"},{"bike_id":"a025210a-5c73-4718-a422-960259065f2a","system_id":"levelo_inurba_marseille","lat":43.25504,"lon":5.37619,"is_reserved":false,"is_disabled":false,"rental_uris":{"android":"levelo://app?vid=a025210a-5c73-4718-a422-960259065f2a","ios":"levelo://app?vid=a025210a-5c73-4718-a422-960259065f2a"},"vehicle_type_id":"4","last_reported":1767384747,"current_range_meters":7200,"station_id":"ce4bhh12rcd13ifvqff0","pricing_plan_id":"cebpf4jnsgd1na2vs0mg"},{"bike_id":"4930b15a-3055-46ef-b4ff-4f39799a0b26","system_id":"levelo_inurba_marseille","lat":43.299275,"lon":5.365184,"is_reserved":false,"is_disabled":false,"rental_uris":{"android":"levelo://app?vid=4930b15a-3055-46ef-b4ff-4f39799a0b26","ios":"levelo://app?vid=4930b15a-3055-46ef-b4ff-4f39799a0b26"},"vehicle_type_id":"4","last_reported":1767384747,"current_range_meters":7200,"station_id":"ce4bgm92rcd13ifvqbr0","pricing_plan_id":"cebpf4jnsgd1na2vs0mg"},{"bike_id":"1f3dd7a1-5535-4fc0-834e-8c50cf78bb81","system_id":"levelo_inurba_marseille","lat":43.29801,"lon":5.37607,"is_reserved":false,"is_disabled":false,"rental_uris":{"android":"levelo://app?vid=1f3dd7a1-5535-4fc0-834e-8c50cf78bb81","ios":"levelo://app?vid=1f3dd7a1-5535-4fc0-834e-8c50cf78bb81"},"vehicle_type_id":"4","last_reported":1767384747,"current_range_meters":7200,"station_id":"","pricing_plan_id":"cebpf4jnsgd1na2vs0mg"},{"bike_id":"91cb2a4e-20f3-491f-aaf3-92b41a5985d9","system_id":"levelo_inurba_marseille","lat":43.28479,"lon":5.38424,"is_reserved":false,"is_disabled":true,"rental_uris":{"android":"levelo://app?vid=91cb2a4e-20f3-491f-aaf3-92b41a5985d9","ios":"levelo://app?vid=91cb2a4e-20f3-491f-aaf3-92b41a5985d9"},"vehicle_type_id":"4","last_reported":1767384747,"current_range_meters":7200,"station_id":"ce4bh512rcd13ifvqe3g","pricing_plan_id":"cebpf4jnsgd1na2vs0mg"},{"bike_id":"a6b30b96-6422-4f6a-a539-620dc43a669f","system_id":"levelo_inurba_marseille","lat":43.28545,"lon":5.44101,"is_reserved":false,"is_disabled":false,"rental_uris":{"android":"levelo://app?vid=a6b30b96-6422-4f6a-a539-620dc43a669f","ios":"levelo://app?vid=a6b30b96-6422-4f6a-a539-620dc43a669f"},"vehicle_type_id":"4","last_reported":1767384747,"current_range_meters":7200,"station_id":"st_d3j3df2ikq2c7380ej80","pricing_plan_id":"cebpf4jnsgd1na2vs0mg"},{"bike_id":"465c2aa7-1647-4624-b6ed-1f27d58d95fd","system_id":"levelo_inurba_marseille","lat":43.28528,"lon":5.44102,"is_reserved":false,"is_disabled":false,"rental_uris":{"android":"levelo://app?vid=465c2aa7-1647-4624-b6ed-1f27d58d95fd","ios":"levelo://app?vid=465c2aa7-1647-4624-b6ed-1f27d58d95fd"},"vehicle_type_id":"4","last_reported":1767384747,"current_range_meters":7200,"station_id":"st_d3j3df2ikq2c7380ej80","pricing_plan_id":"cebpf4jnsgd1na2vs0mg"},{"bike_id":"363950eb-7bf0-4011-a7e5-27254c10a079","system_id":"levelo_inurba_marseille","lat":43.28922,"lon":5.38388,"is_reserved":false,"is_disabled":false,"rental_uris":{"android":"levelo://app?vid=363950eb-7bf0-4011-a7e5-27254c10a079","ios":"levelo://app?vid=363950eb-7bf0-4011-a7e5-27254c10a079"},"vehicle_type_id":"4","last_reported":1767384747,"current_range_meters":7200,"station_id":"ce4bh612rcd13ifvqe6g","pricing_plan_id":"cebpf4jnsgd1na2vs0mg"},{"bike_id":"193dd8fe-b45d-4073-8b5d-fc5e95976ec6","system_id":"levelo_inurba_marseille","lat":43.31766,"lon":5.39028,"is_reserved":false,"is_disabled":false,"rental_uris":{"android":"levelo://app?vid=193dd8fe-b45d-4073-8b5d-fc5e95976ec6","ios":"levelo://app?vid=193dd8fe-b45d-4073-8b5d-fc5e95976ec6"},"vehicle_type_id":"4","last_reported":1767384747,"current_range_meters":7200,"station_id":"ce4bhqp2rcd13ifvqhng","pricing_plan_id":"cebpf4jnsgd1na2vs0mg"},{"bike_id":"f4780819-6626-401c-a501-7c395cca16fa","system_id":"levelo_inurba_marseille","lat":43.27924,"lon":5.39578,"is_reserved":false,"is_disabled":false,"rental_uris":{"android":"levelo://app?vid=f4780819-6626-401c-a501-7c395cca16fa","ios":"levelo://app?vid=f4780819-6626-401c-a501-7c395cca16fa"},"vehicle_type_id":"4","last_reported":1767384747,"current_range_meters":7200,"station_id":"ce4bhf92rcd13ifvqf40","pricing_plan_id":"cebpf4jnsgd1na2vs0mg"},{"bike_id":"b7a7f393-bac1-4d3b-8526-e86a918344f7","system_id":"levelo_inurba_marseille","lat":43.23158,"lon":5.43709,"is_reserved":false,"is_disabled":false,"rental_uris":{"android":"levelo://app?vid=b7a7f393-bac1-4d3b-8526-e86a918344f7","ios":"levelo://app?vid=b7a7f393-bac1-4d3b-8526-e86a918344f7"},"vehicle_type_id":"4","last_reported":1767384747,"current_range_meters":7200,"station_id":"ce4bhmp2rcd13ifvqgog","pricing_plan_id":"cebpf4jnsgd1na2vs0mg"},{"bike_id":"42d77009-fa58-4df2-b896-ba647ada43e5","system_id":"levelo_inurba_marseille","lat":43.279093,"lon":5.404725,"is_reserved":false,"is_disabled":false,"rental_uris":{"android":"levelo://app?vid=42d77009-fa58-4df2-b896-ba647ada43e5","ios":"levelo://app?vid=42d77009-fa58-4df2-b896-ba647ada43e5"},"vehicle_type_id":"4","last_reported":1767384747,"current_range_meters":7200,"station_id":"","pricing_plan_id":"cebpf4jnsgd1na2vs0mg"},{"bike_id":"a33b53b8-2676-4768-b81a-05a976d90a3f","system_id":"levelo_inurba_marseille","lat":43.31276,"lon":5.40153,"is_reserved":false,"is_disabled":false,"rental_uris":{"android":"levelo://app?vid=a33b53b8-2676-4768-b81a-05a976d90a3f","ios":"levelo://app?vid=a33b53b8-2676-4768-b81a-05a976d90a3f"},"vehicle_type_id":"4","last_reported":1767384747,"current_range_meters":7200,"station_id":"ce4bh092rcd13ifvqd30","pricing_plan_id":"cebpf4jnsgd1na2vs0mg"},{"bike_id":"83e50346-c21e-466e-8922-aea3198152db","system_id":"levelo_inurba_marseille","lat":43.23777,"lon":5.36632,"is_reserved":false,"is_disabled":false,"rental_uris":{"android":"levelo://app?vid=83e50346-c21e-466e-8922-aea3198152db","ios":"levelo://app?vid=83e50346-c21e-466e-8922-aea3198152db"},"vehicle_type_id":"4","last_reported":1767384747,"current_range_meters":7200,"station_id":"st_d3nk18o9ro0c73en2l3g","pricing_plan_id":"cebpf4jnsgd1na2vs0mg"},{"bike_id":"81cc609d-cfe6-4065-8845-a63bab56615d","system_id":"levelo_inurba_marseille","lat":43.24669,"lon":5.38139,"is_reserved":false,"is_disabled":false,"rental_uris":{"android":"levelo://app?vid=81cc609d-cfe6-4065-8845-a63bab56615d","ios":"levelo://app?vid=81cc609d-cfe6-4065-8845-a63bab56615d"},"vehicle_type_id":"4","last_reported":1767384747,"current_range_meters":7200,"station_id":"ce4bhih2rcd13ifvqfr0","pricing_plan_id":"cebpf4jnsgd1na2vs0mg"},{"bike_id":"10f3bcfa-52fd-4457-a83a-e6849d98ff8f","system_id":"levelo_inurba_marseille","lat":43.24947,"lon":5.40483,"is_reserved":false,"is_disabled":false,"rental_uris":{"android":"levelo://app?vid=10f3bcfa-52fd-4457-a83a-e6849d98ff8f","ios":"levelo://app?vid=10f3bcfa-52fd-4457-a83a-e6849d98ff8f"},"vehicle_type_id":"4","last_reported":1767384747,"current_range_meters":8000,"station_id":"st_d2ngiaodas8pm72gd1h0","pricing_plan_id":"cebpf4jnsgd1na2vs0mg"},{"bike_id":"6dd8e8b5-7ce2-4a7a-9f76-de8624376801","system_id":"levelo_inurba_marseille","lat":43.24811,"lon":5.37447,"is_reserved":false,"is_disabled":false,"rental_uris":{"android":"levelo://app?vid=6dd8e8b5-7ce2-4a7a-9f76-de8624376801","ios":"levelo://app?vid=6dd8e8b5-7ce2-4a7a-9f76-de8624376801"},"vehicle_type_id":"4","last_reported":1767384747,"current_range_meters":8000,"station_id":"ce4bhgh2rcd13ifvqfb0","pricing_plan_id":"cebpf4jnsgd1na2vs0mg"},{"bike_id":"9feea015-e373-4e65-a8f2-66772efb3348","system_id":"levelo_inurba_marseille","lat":43.24754,"lon":5.37602,"is_reserved":false,"is_disabled":false,"rental_uris":{"android":"levelo://app?vid=9feea015-e373-4e65-a8f2-66772efb3348","ios":"levelo://app?vid=9feea015-e373-4e65-a8f2-66772efb3348"},"vehicle_type_id":"4","last_reported":1767384747,"current_range_meters":8000,"station_id":"","pricing_plan_id":"cebpf4jnsgd1na2vs0mg"},{"bike_id":"a69f5702-a727-4e11-b236-d1f7b2ff1174","system_id":"levelo_inurba_marseille","lat":43.30782,"lon":5.43534,"is_reserved":false,"is_disabled":false,"rental_uris":{"android":"levelo://app?vid=a69f5702-a727-4e11-b236-d1f7b2ff1174","ios":"levelo://app?vid=a69f5702-a727-4e11-b236-d1f7b2ff1174"},"vehicle_type_id":"4","last_reported":1767384747,"current_range_meters":8000,"station_id":"","pricing_plan_id":"cebpf4jnsgd1na2vs0mg"},{"bike_id":"d17e6fe2-7a1e-4970-bf2f-cb8626ca5cf3","system_id":"levelo_inurba_marseille","lat":43.28628,"lon":5.35066,"is_reserved":false,"is_disabled":false,"rental_uris":{"android":"levelo://app?vid=d17e6fe2-7a1e-4970-bf2f-cb8626ca5cf3","ios":"levelo://app?vid=d17e6fe2-7a1e-4970-bf2f-cb8626ca5cf3"},"vehicle_type_id":"4","last_reported":1767384747,"current_range_meters":8000,"station_id":"ce4bhch2rcd13ifvqeug","pricing_plan_id":"cebpf4jnsgd1na2vs0mg"},{"bike_id":"306081a2-d539-46c0-aa97-98b5e78347e1","system_id":"levelo_inurba_marseille","lat":43.30286,"lon":5.3771,"is_reserved":false,"is_disabled":false,"rental_uris":{"android":"levelo://app?vid=306081a2-d539-46c0-aa97-98b5e78347e1","ios":"levelo://app?vid=306081a2-d539-46c0-aa97-98b5e78347e1"},"vehicle_type_id":"4","last_reported":1767384747,"current_range_meters":8000,"station_id":"ce4bguh2rcd13ifvqcj0","pricing_plan_id":"cebpf4jnsgd1na2vs0mg"},{"bike_id":"c7520a13-b022-4cba-860a-1d0a7964595c","system_id":"levelo_inurba_marseille","lat":43.2306,"lon":5.35489,"is_reserved":false,"is_disabled":false,"rental_uris":{"android":"levelo://app?vid=c7520a13-b022-4cba-860a-1d0a7964595c","ios":"levelo://app?vid=c7520a13-b022-4cba-860a-1d0a7964595c"},"vehicle_type_id":"4","last_reported":1767384747,"current_range_meters":8000,"station_id":"cpo3342slgdg3j2ifvpg","pricing_plan_id":"cebpf4jnsgd1na2vs0mg"},{"bike_id":"046f6f6d-1f73-42b5-99cc-1960f79b5648","system_id":"levelo_inurba_marseille","lat":43.296241,"lon":5.373392,"is_reserved":false,"is_disabled":false,"rental_uris":{"android":"levelo://app?vid=046f6f6d-1f73-42b5-99cc-1960f79b5648","ios":"levelo://app?vid=046f6f6d-1f73-42b5-99cc-1960f79b5648"},"vehicle_type_id":"4","last_reported":1767384747,"current_range_meters":8000,"station_id":"","pricing_plan_id":"cebpf4jnsgd1na2vs0mg"},{"bike_id":"3e9b8a52-1c26-4230-9ad9-77fb07c3ca7e","system_id":"levelo_inurba_marseille","lat":43.314971,"lon":5.373154,"is_reserved":false,"is_disabled":false,"rental_uris":{"android":"levelo://app?vid=3e9b8a52-1c26-4230-9ad9-77fb07c3ca7e","ios":"levelo://app?vid=3e9b8a52-1c26-4230-9ad9-77fb07c3ca7e"},"vehicle_type_id":"4","last_reported":1767384747,"current_range_meters":8000,"station_id":"","pricing_plan_id":"cebpf4jnsgd1na2vs0mg"},{"bike_id":"222fb9ec-2875-4ac5-9c40-850f5a12dca5","system_id":"levelo_inurba_marseille","lat":43.26952,"lon":5.38623,"is_reserved":false,"is_disabled":false,"rental_uris":{"android":"levelo://app?vid=222fb9ec-2875-4ac5-9c40-850f5a12dca5","ios":"levelo://app?vid=222fb9ec-2875-4ac5-9c40-850f5a12dca5"},"vehicle_type_id":"4","last_reported":1767384747,"current_range_meters":8000,"station_id":"ce4bhh92rcd13ifvqfh0","pricing_plan_id":"cebpf4jnsgd1na2vs0mg"},{"bike_id":"1324860b-83ca-4a5c-ac5d-5e8f6006dada","system_id":"levelo_inurba_marseille","lat":43.28489,"lon":5.38438,"is_reserved":false,"is_disabled":false,"rental_uris":{"android":"levelo://app?vid=1324860b-83ca-4a5c-ac5d-5e8f6006dada","ios":"levelo://app?vid=1324860b-83ca-4a5c-ac5d-5e8f6006dada"},"vehicle_type_id":"4","last_reported":1767384747,"current_range_meters":8000,"station_id":"ce4bh512rcd13ifvqe3g","pricing_plan_id":"cebpf4jnsgd1na2vs0mg"},{"bike_id":"f3962737-94b9-4206-bf68-00425886742a","system_id":"levelo_inurba_marseille","lat":43.2439,"lon":5.37072,"is_reserved":false,"is_disabled":false,"rental_uris":{"android":"levelo://app?vid=f3962737-94b9-4206-bf68-00425886742a","ios":"levelo://app?vid=f3962737-94b9-4206-bf68-00425886742a"},"vehicle_type_id":"4","last_reported":1767384747,"current_range_meters":8000,"station_id":"ce4bhhh2rcd13ifvqfk0","pricing_plan_id":"cebpf4jnsgd1na2vs0mg"},{"bike_id":"1c049e5b-b3eb-4985-9f60-a621f5ea8094","system_id":"levelo_inurba_marseille","lat":43.3001,"lon":5.4032,"is_reserved":false,"is_disabled":false,"rental_uris":{"android":"levelo://app?vid=1c049e5b-b3eb-4985-9f60-a621f5ea8094","ios":"levelo://app?vid=1c049e5b-b3eb-4985-9f60-a621f5ea8094"},"vehicle_type_id":"4","last_reported":1767384747,"current_range_meters":8000,"station_id":"","pricing_plan_id":"cebpf4jnsgd1na2vs0mg"},{"bike_id":"4f349644-dd1b-43ff-a8cc-90b1f04cb3ca","system_id":"levelo_inurba_marseille","lat":43.28676,"lon":5.38634,"is_reserved":false,"is_disabled":false,"rental_uris":{"android":"levelo://app?vid=4f349644-dd1b-43ff-a8cc-90b1f04cb3ca","ios":"levelo://app?vid=4f349644-dd1b-43ff-a8cc-90b1f04cb3ca"},"vehicle_type_id":"4","last_reported":1767384747,"current_range_meters":8000,"station_id":"ce4bh492rcd13ifvqdug","pricing_plan_id":"cebpf4jnsgd1na2vs0mg"},{"bike_id":"bc37c0d9-122a-4d74-b3e1-5b0dc8a43908","system_id":"levelo_inurba_marseille","lat":43.28493,"lon":5.42858,"is_reserved":false,"is_disabled":false,"rental_uris":{"android":"levelo://app?vid=bc37c0d9-122a-4d74-b3e1-5b0dc8a43908","ios":"levelo://app?vid=bc37c0d9-122a-4d74-b3e1-5b0dc8a43908"},"vehicle_type_id":"4","last_reported":1767384747,"current_range_meters":8000,"station_id":"","pricing_plan_id":"cebpf4jnsgd1na2vs0mg"},{"bike_id":"0d6bb5ad-dcd1-405b-b68d-99b30db1c271","system_id":"levelo_inurba_marseille","lat":43.27881,"lon":5.38583,"is_reserved":false,"is_disabled":false,"rental_uris":{"android":"levelo://app?vid=0d6bb5ad-dcd1-405b-b68d-99b30db1c271","ios":"levelo://app?vid=0d6bb5ad-dcd1-405b-b68d-99b30db1c271"},"vehicle_type_id":"4","last_reported":1767384747,"current_range_meters":8000,"station_id":"","pricing_plan_id":"cebpf4jnsgd1na2vs0mg"},{"bike_id":"5b8e0877-74d0-4505-84b4-8c7975a373e7","system_id":"levelo_inurba_marseille","lat":43.29671,"lon":5.38013,"is_reserved":false,"is_disabled":false,"rental_uris":{"android":"levelo://app?vid=5b8e0877-74d0-4505-84b4-8c7975a373e7","ios":"levelo://app?vid=5b8e0877-74d0-4505-84b4-8c7975a373e7"},"vehicle_type_id":"4","last_reported":1767384747,"current_range_meters":8000,"station_id":"","pricing_plan_id":"cebpf4jnsgd1na2vs0mg"},{"bike_id":"c2743d53-fdfc-4b0e-a503-3f8efcd9d815","system_id":"levelo_inurba_marseille","lat":43.28424,"lon":5.34982,"is_reserved":false,"is_disabled":false,"rental_uris":{"android":"levelo://app?vid=c2743d53-fdfc-4b0e-a503-3f8efcd9d815","ios":"levelo://app?vid=c2743d53-fdfc-4b0e-a503-3f8efcd9d815"},"vehicle_type_id":"4","last_reported":1767384747,"current_range_meters":8000,"station_id":"ce4bhbh2rcd13ifvqepg","pricing_plan_id":"cebpf4jnsgd1na2vs0mg"},{"bike_id":"4112d758-8b5a-4b04-b303-7933aebc6667","system_id":"levelo_inurba_marseille","lat":43.30525,"lon":5.36533,"is_reserved":false,"is_disabled":false,"rental_uris":{"android":"levelo://app?vid=4112d758-8b5a-4b04-b303-7933aebc6667","ios":"levelo://app?vid=4112d758-8b5a-4b04-b303-7933aebc6667"},"vehicle_type_id":"4","last_reported":1767384747,"current_range_meters":8000,"station_id":"ce4bgs12rcd13ifvqcag","pricing_plan_id":"cebpf4jnsgd1na2vs0mg"},{"bike_id":"3f2d9d1c-a9b3-4e56-9509-79491b51120a","system_id":"levelo_inurba_marseille","lat":43.23192,"lon":5.35544,"is_reserved":false,"is_disabled":false,"rental_uris":{"android":"levelo://app?vid=3f2d9d1c-a9b3-4e56-9509-79491b51120a","ios":"levelo://app?vid=3f2d9d1c-a9b3-4e56-9509-79491b51120a"},"vehicle_type_id":"4","last_reported":1767384747,"current_range_meters":8000,"station_id":"ce4bhu92rcd13ifvqi70","pricing_plan_id":"cebpf4jnsgd1na2vs0mg"},{"bike_id":"ae0a9bd9-6387-49ec-8e3b-7424ca3d9e0b","system_id":"levelo_inurba_marseille","lat":43.315281,"lon":5.380261,"is_reserved":false,"is_disabled":false,"rental_uris":{"android":"levelo://app?vid=ae0a9bd9-6387-49ec-8e3b-7424ca3d9e0b","ios":"levelo://app?vid=ae0a9bd9-6387-49ec-8e3b-7424ca3d9e0b"},"vehicle_type_id":"4","last_reported":1767384747,"current_range_meters":8400,"station_id":"ce4bhsp2rcd13ifvqi50","pricing_plan_id":"cebpf4jnsgd1na2vs0mg"},{"bike_id":"27898b46-e466-4dcf-a393-7517603ca1f1","system_id":"levelo_inurba_marseille","lat":43.29277,"lon":5.40126,"is_reserved":false,"is_disabled":false,"rental_uris":{"android":"levelo://app?vid=27898b46-e466-4dcf-a393-7517603ca1f1","ios":"levelo://app?vid=27898b46-e466-4dcf-a393-7517603ca1f1"},"vehicle_type_id":"4","last_reported":1767384747,"current_range_meters":8400,"station_id":"ce4bh312rcd13ifvqdk0","pricing_plan_id":"cebpf4jnsgd1na2vs0mg"},{"bike_id":"081e0fab-3d03-4c48-bb94-cc3c47c837cb","system_id":"levelo_inurba_marseille","lat":43.23069,"lon":5.354965,"is_reserved":false,"is_disabled":true,"rental_uris":{"android":"levelo://app?vid=081e0fab-3d03-4c48-bb94-cc3c47c837cb","ios":"levelo://app?vid=081e0fab-3d03-4c48-bb94-cc3c47c837cb"},"vehicle_type_id":"4","last_reported":1767384747,"current_range_meters":8400,"station_id":"cpo3342slgdg3j2ifvpg","pricing_plan_id":"cebpf4jnsgd1na2vs0mg"},{"bike_id":"649b874c-2158-4c53-8651-f5e61cfdd6d4","system_id":"levelo_inurba_marseille","lat":43.22538,"lon":5.34837,"is_reserved":false,"is_disabled":false,"rental_uris":{"android":"levelo://app?vid=649b874c-2158-4c53-8651-f5e61cfdd6d4","ios":"levelo://app?vid=649b874c-2158-4c53-8651-f5e61cfdd6d4"},"vehicle_type_id":"4","last_reported":1767384747,"current_range_meters":8400,"station_id":"","pricing_plan_id":"cebpf4jnsgd1na2vs0mg"},{"bike_id":"61fae4ff-2397-4842-852a-e1069beef8c4","system_id":"levelo_inurba_marseille","lat":43.28507,"lon":5.44064,"is_reserved":false,"is_disabled":false,"rental_uris":{"android":"levelo://app?vid=61fae4ff-2397-4842-852a-e1069beef8c4","ios":"levelo://app?vid=61fae4ff-2397-4842-852a-e1069beef8c4"},"vehicle_type_id":"4","last_reported":1767384747,"current_range_meters":8400,"station_id":"st_d3j3df2ikq2c7380ej80","pricing_plan_id":"cebpf4jnsgd1na2vs0mg"},{"bike_id":"cacd189b-364d-4b1a-8882-a16ba27a8c11","system_id":"levelo_inurba_marseille","lat":43.23809,"lon":5.3662,"is_reserved":false,"is_disabled":false,"rental_uris":{"android":"levelo://app?vid=cacd189b-364d-4b1a-8882-a16ba27a8c11","ios":"levelo://app?vid=cacd189b-364d-4b1a-8882-a16ba27a8c11"},"vehicle_type_id":"4","last_reported":1767384747,"current_range_meters":8400,"station_id":"st_d3nk18o9ro0c73en2l3g","pricing_plan_id":"cebpf4jnsgd1na2vs0mg"},{"bike_id":"258998c6-7dec-4ca2-9e1b-20044f509518","system_id":"levelo_inurba_marseille","lat":43.306,"lon":5.36413,"is_reserved":false,"is_disabled":false,"rental_uris":{"android":"levelo://app?vid=258998c6-7dec-4ca2-9e1b-20044f509518","ios":"levelo://app?vid=258998c6-7dec-4ca2-9e1b-20044f509518"},"vehicle_type_id":"4","last_reported":1767384747,"current_range_meters":8400,"station_id":"","pricing_plan_id":"cebpf4jnsgd1na2vs0mg"},{"bike_id":"6f089a7e-e81b-483c-a174-dfec5ca5abcf","system_id":"levelo_inurba_marseille","lat":43.24071,"lon":5.377533,"is_reserved":false,"is_disabled":false,"rental_uris":{"android":"levelo://app?vid=6f089a7e-e81b-483c-a174-dfec5ca5abcf","ios":"levelo://app?vid=6f089a7e-e81b-483c-a174-dfec5ca5abcf"},"vehicle_type_id":"4","last_reported":1767384747,"current_range_meters":8400,"station_id":"ce4bhnp2rcd13ifvqgvg","pricing_plan_id":"cebpf4jnsgd1na2vs0mg"},{"bike_id":"a8d7b9c9-9770-4e82-9b2c-b9849dc5f248","system_id":"levelo_inurba_marseille","lat":43.27092,"lon":5.42264,"is_reserved":false,"is_disabled":false,"rental_uris":{"android":"levelo://app?vid=a8d7b9c9-9770-4e82-9b2c-b9849dc5f248","ios":"levelo://app?vid=a8d7b9c9-9770-4e82-9b2c-b9849dc5f248"},"vehicle_type_id":"4","last_reported":1767384747,"current_range_meters":8400,"station_id":"ce4bhk92rcd13ifvqgb0","pricing_plan_id":"cebpf4jnsgd1na2vs0mg"},{"bike_id":"70863109-1d9f-4cf0-8c43-29a5e3efd5a3","system_id":"levelo_inurba_marseille","lat":43.27994,"lon":5.40387,"is_reserved":false,"is_disabled":false,"rental_uris":{"android":"levelo://app?vid=70863109-1d9f-4cf0-8c43-29a5e3efd5a3","ios":"levelo://app?vid=70863109-1d9f-4cf0-8c43-29a5e3efd5a3"},"vehicle_type_id":"4","last_reported":1767384747,"current_range_meters":8400,"station_id":"","pricing_plan_id":"cebpf4jnsgd1na2vs0mg"},{"bike_id":"430881a2-ec0b-4a4c-b8c9-a5e85efe9cef","system_id":"levelo_inurba_marseille","lat":43.2559,"lon":5.38212,"is_reserved":false,"is_disabled":false,"rental_uris":{"android":"levelo://app?vid=430881a2-ec0b-4a4c-b8c9-a5e85efe9cef","ios":"levelo://app?vid=430881a2-ec0b-4a4c-b8c9-a5e85efe9cef"},"vehicle_type_id":"4","last_reported":1767384747,"current_range_meters":8400,"station_id":"ce4bhih2rcd13ifvqfs0","pricing_plan_id":"cebpf4jnsgd1na2vs0mg"},{"bike_id":"dc55e18c-67b4-4279-9e79-6b49129449a5","system_id":"levelo_inurba_marseille","lat":43.288464,"lon":5.454799,"is_reserved":false,"is_disabled":false,"rental_uris":{"android":"levelo://app?vid=dc55e18c-67b4-4279-9e79-6b49129449a5","ios":"levelo://app?vid=dc55e18c-67b4-4279-9e79-6b49129449a5"},"vehicle_type_id":"4","last_reported":1767384747,"current_range_meters":8400,"station_id":"","pricing_plan_id":"cebpf4jnsgd1na2vs0mg"},{"bike_id":"5d9168d6-f5e0-4ee1-84d2-cb5f1e22c876","system_id":"levelo_inurba_marseille","lat":43.243906,"lon":5.370462,"is_reserved":false,"is_disabled":false,"rental_uris":{"android":"levelo://app?vid=5d9168d6-f5e0-4ee1-84d2-cb5f1e22c876","ios":"levelo://app?vid=5d9168d6-f5e0-4ee1-84d2-cb5f1e22c876"},"vehicle_type_id":"4","last_reported":1767384747,"current_range_meters":8400,"station_id":"ce4bhhh2rcd13ifvqfk0","pricing_plan_id":"cebpf4jnsgd1na2vs0mg"},{"bike_id":"66a18265-0814-46f0-a50a-0dff8e5d11cf","system_id":"levelo_inurba_marseille","lat":43.265672,"lon":5.390152,"is_reserved":false,"is_disabled":false,"rental_uris":{"android":"levelo://app?vid=66a18265-0814-46f0-a50a-0dff8e5d11cf","ios":"levelo://app?vid=66a18265-0814-46f0-a50a-0dff8e5d11cf"},"vehicle_type_id":"4","last_reported":1767384747,"current_range_meters":8400,"station_id":"","pricing_plan_id":"cebpf4jnsgd1na2vs0mg"},{"bike_id":"2aad5c19-7962-4a02-9f37-3368ef728fe6","system_id":"levelo_inurba_marseille","lat":43.27503,"lon":5.42439,"is_reserved":false,"is_disabled":false,"rental_uris":{"android":"levelo://app?vid=2aad5c19-7962-4a02-9f37-3368ef728fe6","ios":"levelo://app?vid=2aad5c19-7962-4a02-9f37-3368ef728fe6"},"vehicle_type_id":"4","last_reported":1767384747,"current_range_meters":8800,"station_id":"ce4bhn92rcd13ifvqgrg","pricing_plan_id":"cebpf4jnsgd1na2vs0mg"},{"bike_id":"2f8d1c23-bf30-4c8b-bde5-3e3d9ba27835","system_id":"levelo_inurba_marseille","lat":43.2818,"lon":5.39034,"is_reserved":false,"is_disabled":false,"rental_uris":{"android":"levelo://app?vid=2f8d1c23-bf30-4c8b-bde5-3e3d9ba27835","ios":"levelo://app?vid=2f8d1c23-bf30-4c8b-bde5-3e3d9ba27835"},"vehicle_type_id":"4","last_reported":1767384747,"current_range_meters":8800,"station_id":"ce4bhn92rcd13ifvqgsg","pricing_plan_id":"cebpf4jnsgd1na2vs0mg"},{"bike_id":"bd20cbe2-eda3-4f39-93d1-adda95e404fc","system_id":"levelo_inurba_marseille","lat":43.27427,"lon":5.39369,"is_reserved":false,"is_disabled":true,"rental_uris":{"android":"levelo://app?vid=bd20cbe2-eda3-4f39-93d1-adda95e404fc","ios":"levelo://app?vid=bd20cbe2-eda3-4f39-93d1-adda95e404fc"},"vehicle_type_id":"4","last_reported":1767384747,"current_range_meters":8800,"station_id":"ce4bhdp2rcd13ifvqf20","pricing_plan_id":"cebpf4jnsgd1na2vs0mg"},{"bike_id":"607f6356-92f4-49b1-8436-7911c576c661","system_id":"levelo_inurba_marseille","lat":43.29273,"lon":5.37376,"is_reserved":false,"is_disabled":false,"rental_uris":{"android":"levelo://app?vid=607f6356-92f4-49b1-8436-7911c576c661","ios":"levelo://app?vid=607f6356-92f4-49b1-8436-7911c576c661"},"vehicle_type_id":"4","last_reported":1767384747,"current_range_meters":8800,"station_id":"","pricing_plan_id":"cebpf4jnsgd1na2vs0mg"},{"bike_id":"9255467e-14b4-4b38-a086-cb9c5423bc3f","system_id":"levelo_inurba_marseille","lat":43.29381,"lon":5.3785,"is_reserved":false,"is_disabled":false,"rental_uris":{"android":"levelo://app?vid=9255467e-14b4-4b38-a086-cb9c5423bc3f","ios":"levelo://app?vid=9255467e-14b4-4b38-a086-cb9c5423bc3f"},"vehicle_type_id":"4","last_reported":1767384747,"current_range_meters":8800,"station_id":"ce4bgjh2rcd13ifvqbf0","pricing_plan_id":"cebpf4jnsgd1na2vs0mg"},{"bike_id":"a198e26b-50f9-49f0-b8d9-745563c6a338","system_id":"levelo_inurba_marseille","lat":43.29262,"lon":5.38435,"is_reserved":false,"is_disabled":false,"rental_uris":{"android":"levelo://app?vid=a198e26b-50f9-49f0-b8d9-745563c6a338","ios":"levelo://app?vid=a198e26b-50f9-49f0-b8d9-745563c6a338"},"vehicle_type_id":"4","last_reported":1767384747,"current_range_meters":8800,"station_id":"ce4bh692rcd13ifvqea0","pricing_plan_id":"cebpf4jnsgd1na2vs0mg"},{"bike_id":"c71f86c2-6363-41d0-b8db-8f9291ee18b9","system_id":"levelo_inurba_marseille","lat":43.225353,"lon":5.348347,"is_reserved":false,"is_disabled":false,"rental_uris":{"android":"levelo://app?vid=c71f86c2-6363-41d0-b8db-8f9291ee18b9","ios":"levelo://app?vid=c71f86c2-6363-41d0-b8db-8f9291ee18b9"},"vehicle_type_id":"4","last_reported":1767384747,"current_range_meters":8800,"station_id":"","pricing_plan_id":"cebpf4jnsgd1na2vs0mg"},{"bike_id":"970d8c2c-15af-4190-934f-08ca78a14488","system_id":"levelo_inurba_marseille","lat":43.26559,"lon":5.37279,"is_reserved":false,"is_disabled":false,"rental_uris":{"android":"levelo://app?vid=970d8c2c-15af-4190-934f-08ca78a14488","ios":"levelo://app?vid=970d8c2c-15af-4190-934f-08ca78a14488"},"vehicle_type_id":"4","last_reported":1767384747,"current_range_meters":8800,"station_id":"ce4bhg12rcd13ifvqf70","pricing_plan_id":"cebpf4jnsgd1na2vs0mg"},{"bike_id":"e0effb5a-e8c9-4234-ae32-e89cc890b254","system_id":"levelo_inurba_marseille","lat":43.28868,"lon":5.42521,"is_reserved":false,"is_disabled":false,"rental_uris":{"android":"levelo://app?vid=e0effb5a-e8c9-4234-ae32-e89cc890b254","ios":"levelo://app?vid=e0effb5a-e8c9-4234-ae32-e89cc890b254"},"vehicle_type_id":"4","last_reported":1767384747,"current_range_meters":8800,"station_id":"st_d3b462108ojc7389ooeg","pricing_plan_id":"cebpf4jnsgd1na2vs0mg"},{"bike_id":"63141a2f-efcf-4cad-8eaa-6a7f7f21c924","system_id":"levelo_inurba_marseille","lat":43.28875,"lon":5.42515,"is_reserved":false,"is_disabled":false,"rental_uris":{"android":"levelo://app?vid=63141a2f-efcf-4cad-8eaa-6a7f7f21c924","ios":"levelo://app?vid=63141a2f-efcf-4cad-8eaa-6a7f7f21c924"},"vehicle_type_id":"4","last_reported":1767384747,"current_range_meters":8800,"station_id":"st_d3b462108ojc7389ooeg","pricing_plan_id":"cebpf4jnsgd1na2vs0mg"},{"bike_id":"a0c73c18-a5b0-42fa-9120-3aaca1a5da99","system_id":"levelo_inurba_marseille","lat":43.29245,"lon":5.38444,"is_reserved":false,"is_disabled":false,"rental_uris":{"android":"levelo://app?vid=a0c73c18-a5b0-42fa-9120-3aaca1a5da99","ios":"levelo://app?vid=a0c73c18-a5b0-42fa-9120-3aaca1a5da99"},"vehicle_type_id":"4","last_reported":1767384747,"current_range_meters":8800,"station_id":"ce4bh692rcd13ifvqea0","pricing_plan_id":"cebpf4jnsgd1na2vs0mg"},{"bike_id":"4eb49ed5-3edb-450d-a189-d84f0a121255","system_id":"levelo_inurba_marseille","lat":43.28865,"lon":5.35961,"is_reserved":false,"is_disabled":false,"rental_uris":{"android":"levelo://app?vid=4eb49ed5-3edb-450d-a189-d84f0a121255","ios":"levelo://app?vid=4eb49ed5-3edb-450d-a189-d84f0a121255"},"vehicle_type_id":"4","last_reported":1767384747,"current_range_meters":8800,"station_id":"","pricing_plan_id":"cebpf4jnsgd1na2vs0mg"},{"bike_id":"de1f1a2d-4043-44fb-8299-01c43f8f34a1","system_id":"levelo_inurba_marseille","lat":43.29301,"lon":5.37436,"is_reserved":false,"is_disabled":false,"rental_uris":{"android":"levelo://app?vid=de1f1a2d-4043-44fb-8299-01c43f8f34a1","ios":"levelo://app?vid=de1f1a2d-4043-44fb-8299-01c43f8f34a1"},"vehicle_type_id":"4","last_reported":1767384747,"current_range_meters":8800,"station_id":"ce4bgi12rcd13ifvqb70","pricing_plan_id":"cebpf4jnsgd1na2vs0mg"},{"bike_id":"b069e66b-3d24-44ee-a3b6-26964d74bee5","system_id":"levelo_inurba_marseille","lat":43.27983,"lon":5.40597,"is_reserved":false,"is_disabled":false,"rental_uris":{"android":"levelo://app?vid=b069e66b-3d24-44ee-a3b6-26964d74bee5","ios":"levelo://app?vid=b069e66b-3d24-44ee-a3b6-26964d74bee5"},"vehicle_type_id":"4","last_reported":1767384747,"current_range_meters":8800,"station_id":"","pricing_plan_id":"cebpf4jnsgd1na2vs0mg"},{"bike_id":"135f5aae-6876-4e42-bdaa-6c13991f4488","system_id":"levelo_inurba_marseille","lat":43.24164,"lon":5.3639,"is_reserved":false,"is_disabled":false,"rental_uris":{"android":"levelo://app?vid=135f5aae-6876-4e42-bdaa-6c13991f4488","ios":"levelo://app?vid=135f5aae-6876-4e42-bdaa-6c13991f4488"},"vehicle_type_id":"4","last_reported":1767384747,"current_range_meters":8800,"station_id":"cpo36qri1sfpv3e86is0","pricing_plan_id":"cebpf4jnsgd1na2vs0mg"},{"bike_id":"3ecab405-d6ca-4057-a83d-0721b8a2b9e2","system_id":"levelo_inurba_marseille","lat":43.25494,"lon":5.37621,"is_reserved":false,"is_disabled":false,"rental_uris":{"android":"levelo://app?vid=3ecab405-d6ca-4057-a83d-0721b8a2b9e2","ios":"levelo://app?vid=3ecab405-d6ca-4057-a83d-0721b8a2b9e2"},"vehicle_type_id":"4","last_reported":1767384747,"current_range_meters":8800,"station_id":"ce4bhh12rcd13ifvqff0","pricing_plan_id":"cebpf4jnsgd1na2vs0mg"},{"bike_id":"0adbbbca-aa96-4359-84ce-770238edac5c","system_id":"levelo_inurba_marseille","lat":43.26957,"lon":5.386278,"is_reserved":false,"is_disabled":false,"rental_uris":{"android":"levelo://app?vid=0adbbbca-aa96-4359-84ce-770238edac5c","ios":"levelo://app?vid=0adbbbca-aa96-4359-84ce-770238edac5c"},"vehicle_type_id":"4","last_reported":1767384747,"current_range_meters":8800,"station_id":"ce4bhh92rcd13ifvqfh0","pricing_plan_id":"cebpf4jnsgd1na2vs0mg"},{"bike_id":"583f6427-0a06-4fde-baee-45f76cb34b92","system_id":"levelo_inurba_marseille","lat":43.27171,"lon":5.4098,"is_reserved":false,"is_disabled":false,"rental_uris":{"android":"levelo://app?vid=583f6427-0a06-4fde-baee-45f76cb34b92","ios":"levelo://app?vid=583f6427-0a06-4fde-baee-45f76cb34b92"},"vehicle_type_id":"4","last_reported":1767384747,"current_range_meters":8800,"station_id":"ce4bhl12rcd13ifvqgf0","pricing_plan_id":"cebpf4jnsgd1na2vs0mg"},{"bike_id":"be34864a-9081-4de9-80b6-37a3cde517d0","system_id":"levelo_inurba_marseille","lat":43.28083,"lon":5.3966,"is_reserved":false,"is_disabled":false,"rental_uris":{"android":"levelo://app?vid=be34864a-9081-4de9-80b6-37a3cde517d0","ios":"levelo://app?vid=be34864a-9081-4de9-80b6-37a3cde517d0"},"vehicle_type_id":"4","last_reported":1767384747,"current_range_meters":8800,"station_id":"ce4bho12rcd13ifvqh2g","pricing_plan_id":"cebpf4jnsgd1na2vs0mg"},{"bike_id":"65131df1-0bed-43f7-938b-a392665de4f0","system_id":"levelo_inurba_marseille","lat":43.27111,"lon":5.42249,"is_reserved":false,"is_disabled":false,"rental_uris":{"android":"levelo://app?vid=65131df1-0bed-43f7-938b-a392665de4f0","ios":"levelo://app?vid=65131df1-0bed-43f7-938b-a392665de4f0"},"vehicle_type_id":"4","last_reported":1767384747,"current_range_meters":9200,"station_id":"ce4bhk92rcd13ifvqgb0","pricing_plan_id":"cebpf4jnsgd1na2vs0mg"},{"bike_id":"eaa366bf-7a72-4e10-a28b-31349d7b017f","system_id":"levelo_inurba_marseille","lat":43.25335,"lon":5.42164,"is_reserved":false,"is_disabled":false,"rental_uris":{"android":"levelo://app?vid=eaa366bf-7a72-4e10-a28b-31349d7b017f","ios":"levelo://app?vid=eaa366bf-7a72-4e10-a28b-31349d7b017f"},"vehicle_type_id":"4","last_reported":1767384747,"current_range_meters":9200,"station_id":"st_d2m65c5bi1j21697t3ng","pricing_plan_id":"cebpf4jnsgd1na2vs0mg"},{"bike_id":"1cb07a07-9f8b-49b3-899d-e4d88daca5ff","system_id":"levelo_inurba_marseille","lat":43.26022,"lon":5.40764,"is_reserved":false,"is_disabled":false,"rental_uris":{"android":"levelo://app?vid=1cb07a07-9f8b-49b3-899d-e4d88daca5ff","ios":"levelo://app?vid=1cb07a07-9f8b-49b3-899d-e4d88daca5ff"},"vehicle_type_id":"4","last_reported":1767384747,"current_range_meters":9200,"station_id":"","pricing_plan_id":"cebpf4jnsgd1na2vs0mg"},{"bike_id":"e729ef49-7751-4025-84a4-698c313d9a54","system_id":"levelo_inurba_marseille","lat":43.2961,"lon":5.37342,"is_reserved":false,"is_disabled":false,"rental_uris":{"android":"levelo://app?vid=e729ef49-7751-4025-84a4-698c313d9a54","ios":"levelo://app?vid=e729ef49-7751-4025-84a4-698c313d9a54"},"vehicle_type_id":"4","last_reported":1767384747,"current_range_meters":9200,"station_id":"","pricing_plan_id":"cebpf4jnsgd1na2vs0mg"},{"bike_id":"4fb25723-1375-41e2-805c-89675cf6e823","system_id":"levelo_inurba_marseille","lat":43.262076,"lon":5.378967,"is_reserved":false,"is_disabled":true,"rental_uris":{"android":"levelo://app?vid=4fb25723-1375-41e2-805c-89675cf6e823","ios":"levelo://app?vid=4fb25723-1375-41e2-805c-89675cf6e823"},"vehicle_type_id":"4","last_reported":1767384747,"current_range_meters":9200,"station_id":"ce4bhjp2rcd13ifvqg90","pricing_plan_id":"cebpf4jnsgd1na2vs0mg"},{"bike_id":"b1ea01e8-bfb1-4c5d-927e-78316f3a4fd0","system_id":"levelo_inurba_marseille","lat":43.24403,"lon":5.37049,"is_reserved":false,"is_disabled":false,"rental_uris":{"android":"levelo://app?vid=b1ea01e8-bfb1-4c5d-927e-78316f3a4fd0","ios":"levelo://app?vid=b1ea01e8-bfb1-4c5d-927e-78316f3a4fd0"},"vehicle_type_id":"4","last_reported":1767384747,"current_range_meters":9200,"station_id":"ce4bhhh2rcd13ifvqfk0","pricing_plan_id":"cebpf4jnsgd1na2vs0mg"},{"bike_id":"3b391aa1-1907-4005-88cc-7a9ac12c81d0","system_id":"levelo_inurba_marseille","lat":43.23957,"lon":5.36631,"is_reserved":false,"is_disabled":false,"rental_uris":{"android":"levelo://app?vid=3b391aa1-1907-4005-88cc-7a9ac12c81d0","ios":"levelo://app?vid=3b391aa1-1907-4005-88cc-7a9ac12c81d0"},"vehicle_type_id":"4","last_reported":1767384747,"current_range_meters":9200,"station_id":"ce4bhi12rcd13ifvqfp0","pricing_plan_id":"cebpf4jnsgd1na2vs0mg"},{"bike_id":"67bf8f90-a5df-42e7-b267-9ae66edff758","system_id":"levelo_inurba_marseille","lat":43.30589,"lon":5.376,"is_reserved":false,"is_disabled":false,"rental_uris":{"android":"levelo://app?vid=67bf8f90-a5df-42e7-b267-9ae66edff758","ios":"levelo://app?vid=67bf8f90-a5df-42e7-b267-9ae66edff758"},"vehicle_type_id":"4","last_reported":1767384747,"current_range_meters":9200,"station_id":"","pricing_plan_id":"cebpf4jnsgd1na2vs0mg"},{"bike_id":"c790d02f-cbdf-4606-b3fb-ac98385959db","system_id":"levelo_inurba_marseille","lat":43.26166,"lon":5.37439,"is_reserved":false,"is_disabled":false,"rental_uris":{"android":"levelo://app?vid=c790d02f-cbdf-4606-b3fb-ac98385959db","ios":"levelo://app?vid=c790d02f-cbdf-4606-b3fb-ac98385959db"},"vehicle_type_id":"4","last_reported":1767384747,"current_range_meters":9200,"station_id":"ce4bhgp2rcd13ifvqfc0","pricing_plan_id":"cebpf4jnsgd1na2vs0mg"},{"bike_id":"18dd4d05-a8da-4c1d-98af-c56e45c3c6b8","system_id":"levelo_inurba_marseille","lat":43.24809,"lon":5.37456,"is_reserved":false,"is_disabled":false,"rental_uris":{"android":"levelo://app?vid=18dd4d05-a8da-4c1d-98af-c56e45c3c6b8","ios":"levelo://app?vid=18dd4d05-a8da-4c1d-98af-c56e45c3c6b8"},"vehicle_type_id":"4","last_reported":1767384747,"current_range_meters":9200,"station_id":"ce4bhgh2rcd13ifvqfb0","pricing_plan_id":"cebpf4jnsgd1na2vs0mg"},{"bike_id":"8b720c35-4823-48af-825c-0c71ab5317be","system_id":"levelo_inurba_marseille","lat":43.27952,"lon":5.41031,"is_reserved":false,"is_disabled":true,"rental_uris":{"android":"levelo://app?vid=8b720c35-4823-48af-825c-0c71ab5317be","ios":"levelo://app?vid=8b720c35-4823-48af-825c-0c71ab5317be"},"vehicle_type_id":"4","last_reported":1767384747,"current_range_meters":9200,"station_id":"ce4bhnp2rcd13ifvqh0g","pricing_plan_id":"cebpf4jnsgd1na2vs0mg"},{"bike_id":"a5e341dd-f678-4ec1-a7c6-1c53bd98d5b6","system_id":"levelo_inurba_marseille","lat":43.29745,"lon":5.38043,"is_reserved":false,"is_disabled":false,"rental_uris":{"android":"levelo://app?vid=a5e341dd-f678-4ec1-a7c6-1c53bd98d5b6","ios":"levelo://app?vid=a5e341dd-f678-4ec1-a7c6-1c53bd98d5b6"},"vehicle_type_id":"4","last_reported":1767384747,"current_range_meters":9200,"station_id":"","pricing_plan_id":"cebpf4jnsgd1na2vs0mg"},{"bike_id":"d2cc4f58-2333-4ace-b042-ed5030a8336f","system_id":"levelo_inurba_marseille","lat":43.30123,"lon":5.43119,"is_reserved":false,"is_disabled":false,"rental_uris":{"android":"levelo://app?vid=d2cc4f58-2333-4ace-b042-ed5030a8336f","ios":"levelo://app?vid=d2cc4f58-2333-4ace-b042-ed5030a8336f"},"vehicle_type_id":"4","last_reported":1767384747,"current_range_meters":9200,"station_id":"st_d3js3co5814s73ftftug","pricing_plan_id":"cebpf4jnsgd1na2vs0mg"},{"bike_id":"02cb24cc-e062-4b73-80fd-141f91a697f7","system_id":"levelo_inurba_marseille","lat":43.31575,"lon":5.37625,"is_reserved":false,"is_disabled":false,"rental_uris":{"android":"levelo://app?vid=02cb24cc-e062-4b73-80fd-141f91a697f7","ios":"levelo://app?vid=02cb24cc-e062-4b73-80fd-141f91a697f7"},"vehicle_type_id":"4","last_reported":1767384747,"current_range_meters":9200,"station_id":"","pricing_plan_id":"cebpf4jnsgd1na2vs0mg"},{"bike_id":"0b31ed5e-05cc-4511-b941-6ae3cc699f3e","system_id":"levelo_inurba_marseille","lat":43.27931,"lon":5.41022,"is_reserved":false,"is_disabled":false,"rental_uris":{"android":"levelo://app?vid=0b31ed5e-05cc-4511-b941-6ae3cc699f3e","ios":"levelo://app?vid=0b31ed5e-05cc-4511-b941-6ae3cc699f3e"},"vehicle_type_id":"4","last_reported":1767384747,"current_range_meters":9200,"station_id":"ce4bhnp2rcd13ifvqh0g","pricing_plan_id":"cebpf4jnsgd1na2vs0mg"},{"bike_id":"0c7830cd-6cfd-400e-821d-e66f0fb9681c","system_id":"levelo_inurba_marseille","lat":43.29017,"lon":5.3812,"is_reserved":false,"is_disabled":false,"rental_uris":{"android":"levelo://app?vid=0c7830cd-6cfd-400e-821d-e66f0fb9681c","ios":"levelo://app?vid=0c7830cd-6cfd-400e-821d-e66f0fb9681c"},"vehicle_type_id":"4","last_reported":1767384747,"current_range_meters":9600,"station_id":"ce4bh4p2rcd13ifvqe1g","pricing_plan_id":"cebpf4jnsgd1na2vs0mg"},{"bike_id":"4278291f-1d21-4880-a0e3-52116de91cbe","system_id":"levelo_inurba_marseille","lat":43.22926,"lon":5.35369,"is_reserved":false,"is_disabled":false,"rental_uris":{"android":"levelo://app?vid=4278291f-1d21-4880-a0e3-52116de91cbe","ios":"levelo://app?vid=4278291f-1d21-4880-a0e3-52116de91cbe"},"vehicle_type_id":"4","last_reported":1767384747,"current_range_meters":9600,"station_id":"cpo3532slgdg3j2ikp40","pricing_plan_id":"cebpf4jnsgd1na2vs0mg"},{"bike_id":"ddadb22a-87ae-403a-8f50-fcfddb4a2105","system_id":"levelo_inurba_marseille","lat":43.28478,"lon":5.38418,"is_reserved":false,"is_disabled":false,"rental_uris":{"android":"levelo://app?vid=ddadb22a-87ae-403a-8f50-fcfddb4a2105","ios":"levelo://app?vid=ddadb22a-87ae-403a-8f50-fcfddb4a2105"},"vehicle_type_id":"4","last_reported":1767384747,"current_range_meters":9600,"station_id":"ce4bh512rcd13ifvqe3g","pricing_plan_id":"cebpf4jnsgd1na2vs0mg"},{"bike_id":"76ec9d64-19dc-4eb3-b663-a577b9c95d4a","system_id":"levelo_inurba_marseille","lat":43.30517,"lon":5.36541,"is_reserved":false,"is_disabled":false,"rental_uris":{"android":"levelo://app?vid=76ec9d64-19dc-4eb3-b663-a577b9c95d4a","ios":"levelo://app?vid=76ec9d64-19dc-4eb3-b663-a577b9c95d4a"},"vehicle_type_id":"4","last_reported":1767384747,"current_range_meters":9600,"station_id":"ce4bgs12rcd13ifvqcag","pricing_plan_id":"cebpf4jnsgd1na2vs0mg"},{"bike_id":"0bf0d1be-76e3-4eb9-a8da-c17edd92080c","system_id":"levelo_inurba_marseille","lat":43.280107,"lon":5.400015,"is_reserved":false,"is_disabled":false,"rental_uris":{"android":"levelo://app?vid=0bf0d1be-76e3-4eb9-a8da-c17edd92080c","ios":"levelo://app?vid=0bf0d1be-76e3-4eb9-a8da-c17edd92080c"},"vehicle_type_id":"4","last_reported":1767384747,"current_range_meters":9600,"station_id":"","pricing_plan_id":"cebpf4jnsgd1na2vs0mg"},{"bike_id":"50c49c36-164f-43ef-bcb0-c52d433fdcc7","system_id":"levelo_inurba_marseille","lat":43.31482,"lon":5.37259,"is_reserved":false,"is_disabled":false,"rental_uris":{"android":"levelo://app?vid=50c49c36-164f-43ef-bcb0-c52d433fdcc7","ios":"levelo://app?vid=50c49c36-164f-43ef-bcb0-c52d433fdcc7"},"vehicle_type_id":"4","last_reported":1767384747,"current_range_meters":9600,"station_id":"ce4bgt12rcd13ifvqcd0","pricing_plan_id":"cebpf4jnsgd1na2vs0mg"},{"bike_id":"be59f674-a0bd-4fc3-a219-9eada39112de","system_id":"levelo_inurba_marseille","lat":43.29954,"lon":5.37371,"is_reserved":false,"is_disabled":false,"rental_uris":{"android":"levelo://app?vid=be59f674-a0bd-4fc3-a219-9eada39112de","ios":"levelo://app?vid=be59f674-a0bd-4fc3-a219-9eada39112de"},"vehicle_type_id":"4","last_reported":1767384747,"current_range_meters":9600,"station_id":"","pricing_plan_id":"cebpf4jnsgd1na2vs0mg"},{"bike_id":"c081b0df-16a4-4b0d-b626-c3dbf4e263d1","system_id":"levelo_inurba_marseille","lat":43.299805,"lon":5.384797,"is_reserved":false,"is_disabled":false,"rental_uris":{"android":"levelo://app?vid=c081b0df-16a4-4b0d-b626-c3dbf4e263d1","ios":"levelo://app?vid=c081b0df-16a4-4b0d-b626-c3dbf4e263d1"},"vehicle_type_id":"4","last_reported":1767384747,"current_range_meters":9600,"station_id":"ce4bhb12rcd13ifvqel0","pricing_plan_id":"cebpf4jnsgd1na2vs0mg"},{"bike_id":"ea638709-b23b-49f9-bb68-7a4b9836ef60","system_id":"levelo_inurba_marseille","lat":43.29304,"lon":5.37436,"is_reserved":false,"is_disabled":false,"rental_uris":{"android":"levelo://app?vid=ea638709-b23b-49f9-bb68-7a4b9836ef60","ios":"levelo://app?vid=ea638709-b23b-49f9-bb68-7a4b9836ef60"},"vehicle_type_id":"4","last_reported":1767384747,"current_range_meters":9600,"station_id":"ce4bgi12rcd13ifvqb70","pricing_plan_id":"cebpf4jnsgd1na2vs0mg"},