{"last_updated":1774158299,"ttl":60,"version":"2.2","data":{"bikes":[{"bike_id":"ef4abc93-8501-4b16-a25e-ce88784f1326","system_id":"levelo_inurba_marseille","lat":43.30862,"lon":5.39652,"is_reserved":false,"is_disabled":false,"rental_uris":{"android":"levelo://app?vid=ef4abc93-8501-4b16-a25e-ce88784f1326","ios":"levelo://app?vid=ef4abc93-8501-4b16-a25e-ce88784f1326"},"vehicle_type_id":"4","last_reported":1774158299,"current_range_meters":2800,"station_id":"ce4bh012rcd13ifvqcv0","pricing_plan_id":"cebpf4jnsgd1na2vs0mg"},{"bike_id":"5672f140-f178-4766-bb60-5301b26a0e4e","system_id":"levelo_inurba_marseille","lat":43.28489,"lon":5.48387,"is_reserved":false,"is_disabled":false,"rental_uris":{"android":"levelo://app?vid=5672f140-f178-4766-bb60-5301b26a0e4e","ios":"levelo://app?vid=5672f140-f178-4766-bb60-5301b26a0e4e"},"vehicle_type_id":"4","last_reported":1774158299,"current_range_meters":2800,"station_id":"","pricing_plan_id":"cebpf4jnsgd1na2vs0mg"},{"bike_id":"c300e010-5eb9-4d7b-9e14-3cedf980c2f1","system_id":"levelo_inurba_marseille","lat":43.26208,"lon":5.37465,"is_reserved":false,"is_disabled":false,"rental_uris":{"android":"levelo://app?vid=c300e010-5eb9-4d7b-9e14-3cedf980c2f1","ios":"levelo://app?vid=c300e010-5eb9-4d7b-9e14-3cedf980c2f1"},"vehicle_type_id":"4","last_reported":1774158299,"current_range_meters":2800,"station_id":"ce4bhgp2rcd13ifvqfc0","pricing_plan_id":"cebpf4jnsgd1na2vs0mg"},{"bike_id":"e2420c11-4646-4145-aa2e-baedb91a43dc","system_id":"levelo_inurba_marseille","lat":43.32357,"lon":5.36703,"is_reserved":false,"is_disabled":false,"rental_uris":{"android":"levelo://app?vid=e2420c11-4646-4145-aa2e-baedb91a43dc","ios":"levelo://app?vid=e2420c11-4646-4145-aa2e-baedb91a43dc"},"vehicle_type_id":"4","last_reported":1774158299,"current_range_meters":2800,"station_id":"","pricing_plan_id":"cebpf4jnsgd1na2vs0mg"},{"bike_id":"aca02e18-5940-4457-bade-a83a3729d2e4","system_id":"levelo_inurba_marseille","lat":43.29501,"lon":5.43289,"is_reserved":false,"is_disabled":false,"rental_uris":{"android":"levelo://app?vid=aca02e18-5940-4457-bade-a83a3729d2e4","ios":"levelo://app?vid=aca02e18-5940-4457-bade-a83a3729d2e4"},"vehicle_type_id":"4","last_reported":1774158299,"current_range_meters":2800,"station_id":"st_d3j5ugp08ojc73fj9d10","pricing_plan_id":"cebpf4jnsgd1na2vs0mg"},{"bike_id":"73206cd7-297d-41e6-ad5c-9899f25346cd","system_id":"levelo_inurba_marseille","lat":43.27845,"lon":5.40664,"is_reserved":false,"is_disabled":false,"rental_uris":{"android":"levelo://app?vid=73206cd7-297d-41e6-ad5c-9899f25346cd","ios":"levelo://app?vid=73206cd7-297d-41e6-ad5c-9899f25346cd"},"vehicle_type_id":"4","last_reported":1774158299,"current_range_meters":2800,"station_id":"","pricing_plan_id":"cebpf4jnsgd1na2vs0mg"},{"bike_id":"be78ca0c-c7b6-4a78-bd34-4dfd5d353808","system_id":"levelo_inurba_marseille","lat":43.29799,"lon":5.39342,"is_reserved":false,"is_disabled":true,"rental_uris":{"android":"levelo://app?vid=be78ca0c-c7b6-4a78-bd34-4dfd5d353808","ios":"levelo://app?vid=be78ca0c-c7b6-4a78-bd34-4dfd5d353808"},"vehicle_type_id":"4","last_reported":1774158299,"current_range_meters":2800,"station_id":"chh1huq6cuj3fo74tm60","pricing_plan_id":"cebpf4jnsgd1na2vs0mg"},{"bike_id":"5223f186-acc3-4ed8-bd6b-47211c28bbd6","system_id":"levelo_inurba_marseille","lat":43.28478,"lon":5.38426,"is_reserved":false,"is_disabled":false,"rental_uris":{"android":"levelo://app?vid=5223f186-acc3-4ed8-bd6b-47211c28bbd6","ios":"levelo://app?vid=5223f186-acc3-4ed8-bd6b-47211c28bbd6"},"vehicle_type_id":"4","last_reported":1774158299,"current_range_meters":2800,"station_id":"ce4bh512rcd13ifvqe3g","pricing_plan_id":"cebpf4jnsgd1na2vs0mg"},{"bike_id":"adc5ac07-5147-43c6-b3e9-46b364b058d3","system_id":"levelo_inurba_marseille","lat":43.21754,"lon":5.34611,"is_reserved":false,"is_disabled":true,"rental_uris":{"android":"levelo://app?vid=adc5ac07-5147-43c6-b3e9-46b364b058d3","ios":"levelo://app?vid=adc5ac07-5147-43c6-b3e9-46b364b058d3"},"vehicle_type_id":"4","last_reported":1774158299,"current_range_meters":2800,"station_id":"st_cvj6r9ubvosntc0bgbag","pricing_plan_id":"cebpf4jnsgd1na2vs0mg"},{"bike_id":"26c4064a-9e58-408b-a63d-ddc74ff75dc1","system_id":"levelo_inurba_marseille","lat":43.28375,"lon":5.38648,"is_reserved":false,"is_disabled":false,"rental_uris":{"android":"levelo://app?vid=26c4064a-9e58-408b-a63d-ddc74ff75dc1","ios":"levelo://app?vid=26c4064a-9e58-408b-a63d-ddc74ff75dc1"},"vehicle_type_id":"4","last_reported":1774158299,"current_range_meters":2800,"station_id":"ce4bh492rcd13ifvqdvg","pricing_plan_id":"cebpf4jnsgd1na2vs0mg"},{"bike_id":"50d7be9c-19fe-4cc4-ad5d-b9e249079e96","system_id":"levelo_inurba_marseille","lat":43.28366,"lon":5.38656,"is_reserved":false,"is_disabled":false,"rental_uris":{"android":"levelo://app?vid=50d7be9c-19fe-4cc4-ad5d-b9e249079e96","ios":"levelo://app?vid=50d7be9c-19fe-4cc4-ad5d-b9e249079e96"},"vehicle_type_id":"4","last_reported":1774158299,"current_range_meters":3200,"station_id":"ce4bh492rcd13ifvqdvg","pricing_plan_id":"cebpf4jnsgd1na2vs0mg"},{"bike_id":"5c2aeccc-baa6-4b75-8ec1-e382dd8ba246","system_id":"levelo_inurba_marseille","lat":43.2975,"lon":5.42769,"is_reserved":false,"is_disabled":true,"rental_uris":{"android":"levelo://app?vid=5c2aeccc-baa6-4b75-8ec1-e382dd8ba246","ios":"levelo://app?vid=5c2aeccc-baa6-4b75-8ec1-e382dd8ba246"},"vehicle_type_id":"4","last_reported":1774158299,"current_range_meters":3200,"station_id":"st_d3md5207bmas73dh9klg","pricing_plan_id":"cebpf4jnsgd1na2vs0mg"},{"bike_id":"286fba00-1c70-49c5-9491-0b3044de24cb","system_id":"levelo_inurba_marseille","lat":43.26214,"lon":5.40469,"is_reserved":false,"is_disabled":true,"rental_uris":{"android":"levelo://app?vid=286fba00-1c70-49c5-9491-0b3044de24cb","ios":"levelo://app?vid=286fba00-1c70-49c5-9491-0b3044de24cb"},"vehicle_type_id":"4","last_reported":1774158299,"current_range_meters":3200,"station_id":"ce4bhmh2rcd13ifvqgmg","pricing_plan_id":"cebpf4jnsgd1na2vs0mg"},{"bike_id":"f3414e99-2d7c-4b03-96db-df8c1c6d3f2b","system_id":"levelo_inurba_marseille","lat":43.28467,"lon":5.48455,"is_reserved":false,"is_disabled":false,"rental_uris":{"android":"levelo://app?vid=f3414e99-2d7c-4b03-96db-df8c1c6d3f2b","ios":"levelo://app?vid=f3414e99-2d7c-4b03-96db-df8c1c6d3f2b"},"vehicle_type_id":"4","last_reported":1774158299,"current_range_meters":3200,"station_id":"st_d3svhcjqgbts73a3dn0g","pricing_plan_id":"cebpf4jnsgd1na2vs0mg"},{"bike_id":"138d1b51-ecf8-4142-8bb4-5ce2285fb5c1","system_id":"levelo_inurba_marseille","lat":43.28623,"lon":5.35096,"is_reserved":false,"is_disabled":false,"rental_uris":{"android":"levelo://app?vid=138d1b51-ecf8-4142-8bb4-5ce2285fb5c1","ios":"levelo://app?vid=138d1b51-ecf8-4142-8bb4-5ce2285fb5c1"},"vehicle_type_id":"4","last_reported":1774158299,"current_range_meters":3200,"station_id":"ce4bhch2rcd13ifvqeug","pricing_plan_id":"cebpf4jnsgd1na2vs0mg"},{"bike_id":"64dc53b9-439a-4355-ad28-e5f40e99fa84","system_id":"levelo_inurba_marseille","lat":43.32024,"lon":5.41029,"is_reserved":false,"is_disabled":false,"rental_uris":{"android":"levelo://app?vid=64dc53b9-439a-4355-ad28-e5f40e99fa84","ios":"levelo://app?vid=64dc53b9-439a-4355-ad28-e5f40e99fa84"},"vehicle_type_id":"4","last_reported":1774158299,"current_range_meters":3200,"station_id":"","pricing_plan_id":"cebpf4jnsgd1na2vs0mg"},{"bike_id":"a8c8307b-e1e9-4950-a785-578e1a82f805","system_id":"levelo_inurba_marseille","lat":43.31274,"lon":5.37866,"is_reserved":false,"is_disabled":false,"rental_uris":{"android":"levelo://app?vid=a8c8307b-e1e9-4950-a785-578e1a82f805","ios":"levelo://app?vid=a8c8307b-e1e9-4950-a785-578e1a82f805"},"vehicle_type_id":"4","last_reported":1774158299,"current_range_meters":3200,"station_id":"","pricing_plan_id":"cebpf4jnsgd1na2vs0mg"},{"bike_id":"962e3e51-db50-4f61-a079-9b1c6a103eb5","system_id":"levelo_inurba_marseille","lat":43.30963,"lon":5.36814,"is_reserved":false,"is_disabled":false,"rental_uris":{"android":"levelo://app?vid=962e3e51-db50-4f61-a079-9b1c6a103eb5","ios":"levelo://app?vid=962e3e51-db50-4f61-a079-9b1c6a103eb5"},"vehicle_type_id":"4","last_reported":1774158299,"current_range_meters":3200,"station_id":"","pricing_plan_id":"cebpf4jnsgd1na2vs0mg"},{"bike_id":"3727d6e3-4577-49ea-959e-93a5e09450a3","system_id":"levelo_inurba_marseille","lat":43.31429,"lon":5.40062,"is_reserved":false,"is_disabled":false,"rental_uris":{"android":"levelo://app?vid=3727d6e3-4577-49ea-959e-93a5e09450a3","ios":"levelo://app?vid=3727d6e3-4577-49ea-959e-93a5e09450a3"},"vehicle_type_id":"4","last_reported":1774158299,"current_range_meters":3200,"station_id":"","pricing_plan_id":"cebpf4jnsgd1na2vs0mg"},{"bike_id":"8aae69ee-1386-423b-94ef-ac35e377a153","system_id":"levelo_inurba_marseille","lat":43.31215,"lon":5.37265,"is_reserved":false,"is_disabled":false,"rental_uris":{"android":"levelo://app?vid=8aae69ee-1386-423b-94ef-ac35e377a153","ios":"levelo://app?vid=8aae69ee-1386-423b-94ef-ac35e377a153"},"vehicle_type_id":"4","last_reported":1774158299,"current_range_meters":3200,"station_id":"","pricing_plan_id":"cebpf4jnsgd1na2vs0mg"},{"bike_id":"2d0906ff-aeed-419b-83b6-fd2861496b8f","system_id":"levelo_inurba_marseille","lat":43.26233,"lon":5.40462,"is_reserved":false,"is_disabled":false,"rental_uris":{"android":"levelo://app?vid=2d0906ff-aeed-419b-83b6-fd2861496b8f","ios":"levelo://app?vid=2d0906ff-aeed-419b-83b6-fd2861496b8f"},"vehicle_type_id":"4","last_reported":1774158299,"current_range_meters":3200,"station_id":"ce4bhmh2rcd13ifvqgmg","pricing_plan_id":"cebpf4jnsgd1na2vs0mg"},{"bike_id":"f452a549-4919-4523-8be3-017b2a0a7f9d","system_id":"levelo_inurba_marseille","lat":43.29589,"lon":5.4011,"is_reserved":false,"is_disabled":false,"rental_uris":{"android":"levelo://app?vid=f452a549-4919-4523-8be3-017b2a0a7f9d","ios":"levelo://app?vid=f452a549-4919-4523-8be3-017b2a0a7f9d"},"vehicle_type_id":"4","last_reported":1774158299,"current_range_meters":3200,"station_id":"ce4bh3h2rcd13ifvqdo0","pricing_plan_id":"cebpf4jnsgd1na2vs0mg"},{"bike_id":"35b73513-84b1-4eff-a955-8e68d9d162e0","system_id":"levelo_inurba_marseille","lat":43.298,"lon":5.37053,"is_reserved":false,"is_disabled":false,"rental_uris":{"android":"levelo://app?vid=35b73513-84b1-4eff-a955-8e68d9d162e0","ios":"levelo://app?vid=35b73513-84b1-4eff-a955-8e68d9d162e0"},"vehicle_type_id":"4","last_reported":1774158299,"current_range_meters":3600,"station_id":"ce4bgop2rcd13ifvqc1g","pricing_plan_id":"cebpf4jnsgd1na2vs0mg"},{"bike_id":"278f7054-f255-42b7-b87e-903ee568e65a","system_id":"levelo_inurba_marseille","lat":43.28462,"lon":5.38473,"is_reserved":false,"is_disabled":true,"rental_uris":{"android":"levelo://app?vid=278f7054-f255-42b7-b87e-903ee568e65a","ios":"levelo://app?vid=278f7054-f255-42b7-b87e-903ee568e65a"},"vehicle_type_id":"4","last_reported":1774158299,"current_range_meters":3600,"station_id":"ce4bh512rcd13ifvqe3g","pricing_plan_id":"cebpf4jnsgd1na2vs0mg"},{"bike_id":"92f32112-8a58-4a2d-8380-c50aa46da344","system_id":"levelo_inurba_marseille","lat":43.24057,"lon":5.3635,"is_reserved":false,"is_disabled":false,"rental_uris":{"android":"levelo://app?vid=92f32112-8a58-4a2d-8380-c50aa46da344","ios":"levelo://app?vid=92f32112-8a58-4a2d-8380-c50aa46da344"},"vehicle_type_id":"4","last_reported":1774158299,"current_range_meters":3600,"station_id":"","pricing_plan_id":"cebpf4jnsgd1na2vs0mg"},{"bike_id":"e5889c18-6483-46e2-8e97-7aa7bb200275","system_id":"levelo_inurba_marseille","lat":43.24444,"lon":5.42548,"is_reserved":false,"is_disabled":false,"rental_uris":{"android":"levelo://app?vid=e5889c18-6483-46e2-8e97-7aa7bb200275","ios":"levelo://app?vid=e5889c18-6483-46e2-8e97-7aa7bb200275"},"vehicle_type_id":"4","last_reported":1774158299,"current_range_meters":3600,"station_id":"st_d4a3vfp97mjs738cd8kg","pricing_plan_id":"cebpf4jnsgd1na2vs0mg"},{"bike_id":"8648ff3d-a49d-4491-be6c-bab3f9812603","system_id":"levelo_inurba_marseille","lat":43.28285,"lon":5.43852,"is_reserved":false,"is_disabled":false,"rental_uris":{"android":"levelo://app?vid=8648ff3d-a49d-4491-be6c-bab3f9812603","ios":"levelo://app?vid=8648ff3d-a49d-4491-be6c-bab3f9812603"},"vehicle_type_id":"4","last_reported":1774158299,"current_range_meters":3600,"station_id":"","pricing_plan_id":"cebpf4jnsgd1na2vs0mg"},{"bike_id":"37752f22-4e24-4242-a38c-e44293abad6b","system_id":"levelo_inurba_marseille","lat":43.27974,"lon":5.38689,"is_reserved":false,"is_disabled":true,"rental_uris":{"android":"levelo://app?vid=37752f22-4e24-4242-a38c-e44293abad6b","ios":"levelo://app?vid=37752f22-4e24-4242-a38c-e44293abad6b"},"vehicle_type_id":"4","last_reported":1774158299,"current_range_meters":3600,"station_id":"ce4bhg12rcd13ifvqf80","pricing_plan_id":"cebpf4jnsgd1na2vs0mg"},{"bike_id":"d9c97143-42c6-4a06-98ff-6d527890b4d9","system_id":"levelo_inurba_marseille","lat":43.26548,"lon":5.39047,"is_reserved":false,"is_disabled":false,"rental_uris":{"android":"levelo://app?vid=d9c97143-42c6-4a06-98ff-6d527890b4d9","ios":"levelo://app?vid=d9c97143-42c6-4a06-98ff-6d527890b4d9"},"vehicle_type_id":"4","last_reported":1774158299,"current_range_meters":3600,"station_id":"ce4bhe12rcd13ifvqf30","pricing_plan_id":"cebpf4jnsgd1na2vs0mg"},{"bike_id":"a52ba6dc-1b15-4a85-8d00-b41ad0623a75","system_id":"levelo_inurba_marseille","lat":43.32365,"lon":5.3673,"is_reserved":false,"is_disabled":false,"rental_uris":{"android":"levelo://app?vid=a52ba6dc-1b15-4a85-8d00-b41ad0623a75","ios":"levelo://app?vid=a52ba6dc-1b15-4a85-8d00-b41ad0623a75"},"vehicle_type_id":"4","last_reported":1774158299,"current_range_meters":3600,"station_id":"ce4bhsh2rcd13ifvqi2g","pricing_plan_id":"cebpf4jnsgd1na2vs0mg"},{"bike_id":"47efb401-c51b-46fd-bc6f-b874c731d32b","system_id":"levelo_inurba_marseille","lat":43.29601,"lon":5.36737,"is_reserved":false,"is_disabled":true,"rental_uris":{"android":"levelo://app?vid=47efb401-c51b-46fd-bc6f-b874c731d32b","ios":"levelo://app?vid=47efb401-c51b-46fd-bc6f-b874c731d32b"},"vehicle_type_id":"4","last_reported":1774158299,"current_range_meters":3600,"station_id":"ce4bgph2rcd13ifvqc2g","pricing_plan_id":"cebpf4jnsgd1na2vs0mg"},{"bike_id":"72b84d48-ccdb-4db2-9f7f-8aecb34f71ce","system_id":"levelo_inurba_marseille","lat":43.30431,"lon":5.38879,"is_reserved":false,"is_disabled":false,"rental_uris":{"android":"levelo://app?vid=72b84d48-ccdb-4db2-9f7f-8aecb34f71ce","ios":"levelo://app?vid=72b84d48-ccdb-4db2-9f7f-8aecb34f71ce"},"vehicle_type_id":"4","last_reported":1774158299,"current_range_meters":3600,"station_id":"ce4bgk12rcd13ifvqbi0","pricing_plan_id":"cebpf4jnsgd1na2vs0mg"},{"bike_id":"21dcff95-3114-402a-9713-10e340a8f8dd","system_id":"levelo_inurba_marseille","lat":43.29293,"lon":5.37158,"is_reserved":false,"is_disabled":false,"rental_uris":{"android":"levelo://app?vid=21dcff95-3114-402a-9713-10e340a8f8dd","ios":"levelo://app?vid=21dcff95-3114-402a-9713-10e340a8f8dd"},"vehicle_type_id":"4","last_reported":1774158299,"current_range_meters":3600,"station_id":"ce4bgh92rcd13ifvqb40","pricing_plan_id":"cebpf4jnsgd1na2vs0mg"},{"bike_id":"799e5206-e569-46be-93f3-cb56e5726e56","system_id":"levelo_inurba_marseille","lat":43.26326,"lon":5.41106,"is_reserved":false,"is_disabled":false,"rental_uris":{"android":"levelo://app?vid=799e5206-e569-46be-93f3-cb56e5726e56","ios":"levelo://app?vid=799e5206-e569-46be-93f3-cb56e5726e56"},"vehicle_type_id":"4","last_reported":1774158299,"current_range_meters":3600,"station_id":"st_d4e5ca6na9uc73bfl5fg","pricing_plan_id":"cebpf4jnsgd1na2vs0mg"},{"bike_id":"b332751f-f7f1-4d9f-ac9b-db18c18c85b5","system_id":"levelo_inurba_marseille","lat":43.28822,"lon":5.35805,"is_reserved":false,"is_disabled":false,"rental_uris":{"android":"levelo://app?vid=b332751f-f7f1-4d9f-ac9b-db18c18c85b5","ios":"levelo://app?vid=b332751f-f7f1-4d9f-ac9b-db18c18c85b5"},"vehicle_type_id":"4","last_reported":1774158299,"current_range_meters":3600,"station_id":"ce4bhb12rcd13ifvqem0","pricing_plan_id":"cebpf4jnsgd1na2vs0mg"},{"bike_id":"57c6062f-8249-4e22-873a-9e5831c9b605","system_id":"levelo_inurba_marseille","lat":43.31265,"lon":5.38495,"is_reserved":false,"is_disabled":false,"rental_uris":{"android":"levelo://app?vid=57c6062f-8249-4e22-873a-9e5831c9b605","ios":"levelo://app?vid=57c6062f-8249-4e22-873a-9e5831c9b605"},"vehicle_type_id":"4","last_reported":1774158299,"current_range_meters":3600,"station_id":"","pricing_plan_id":"cebpf4jnsgd1na2vs0mg"},{"bike_id":"0112bef2-2ecc-46ce-961c-e922940a9456","system_id":"levelo_inurba_marseille","lat":43.29228,"lon":5.39282,"is_reserved":false,"is_disabled":false,"rental_uris":{"android":"levelo://app?vid=0112bef2-2ecc-46ce-961c-e922940a9456","ios":"levelo://app?vid=0112bef2-2ecc-46ce-961c-e922940a9456"},"vehicle_type_id":"4","last_reported":1774158299,"current_range_meters":4000,"station_id":"ce4bh192rcd13ifvqdd0","pricing_plan_id":"cebpf4jnsgd1na2vs0mg"},{"bike_id":"ac656c46-4691-458f-95ae-06026bff305e","system_id":"levelo_inurba_marseille","lat":43.28147,"lon":5.42646,"is_reserved":false,"is_disabled":false,"rental_uris":{"android":"levelo://app?vid=ac656c46-4691-458f-95ae-06026bff305e","ios":"levelo://app?vid=ac656c46-4691-458f-95ae-06026bff305e"},"vehicle_type_id":"4","last_reported":1774158299,"current_range_meters":4000,"station_id":"ce4bhnh2rcd13ifvqgug","pricing_plan_id":"cebpf4jnsgd1na2vs0mg"},{"bike_id":"34e58aa9-898e-4f2a-a0d3-cd7852da2d04","system_id":"levelo_inurba_marseille","lat":43.27817,"lon":5.40666,"is_reserved":false,"is_disabled":false,"rental_uris":{"android":"levelo://app?vid=34e58aa9-898e-4f2a-a0d3-cd7852da2d04","ios":"levelo://app?vid=34e58aa9-898e-4f2a-a0d3-cd7852da2d04"},"vehicle_type_id":"4","last_reported":1774158299,"current_range_meters":4000,"station_id":"ce4bhnh2rcd13ifvqgtg","pricing_plan_id":"cebpf4jnsgd1na2vs0mg"},{"bike_id":"e9f4da87-4ef0-4991-8f59-285ae87cdf27","system_id":"levelo_inurba_marseille","lat":43.26749,"lon":5.39482,"is_reserved":false,"is_disabled":false,"rental_uris":{"android":"levelo://app?vid=e9f4da87-4ef0-4991-8f59-285ae87cdf27","ios":"levelo://app?vid=e9f4da87-4ef0-4991-8f59-285ae87cdf27"},"vehicle_type_id":"4","last_reported":1774158299,"current_range_meters":4000,"station_id":"","pricing_plan_id":"cebpf4jnsgd1na2vs0mg"},{"bike_id":"71389fc3-a4c3-46c5-a0f9-4330fcbb165b","system_id":"levelo_inurba_marseille","lat":43.27943,"lon":5.41069,"is_reserved":false,"is_disabled":true,"rental_uris":{"android":"levelo://app?vid=71389fc3-a4c3-46c5-a0f9-4330fcbb165b","ios":"levelo://app?vid=71389fc3-a4c3-46c5-a0f9-4330fcbb165b"},"vehicle_type_id":"4","last_reported":1774158299,"current_range_meters":4000,"station_id":"ce4bhnp2rcd13ifvqh0g","pricing_plan_id":"cebpf4jnsgd1na2vs0mg"},{"bike_id":"fa19fa03-a955-4473-bb14-c0215f128c58","system_id":"levelo_inurba_marseille","lat":43.29787,"lon":5.37085,"is_reserved":false,"is_disabled":false,"rental_uris":{"android":"levelo://app?vid=fa19fa03-a955-4473-bb14-c0215f128c58","ios":"levelo://app?vid=fa19fa03-a955-4473-bb14-c0215f128c58"},"vehicle_type_id":"4","last_reported":1774158299,"current_range_meters":4000,"station_id":"ce4bgop2rcd13ifvqc1g","pricing_plan_id":"cebpf4jnsgd1na2vs0mg"},{"bike_id":"bfa999de-7a32-454a-b31e-f99ace51a3fc","system_id":"levelo_inurba_marseille","lat":43.28495,"lon":5.48378,"is_reserved":false,"is_disabled":false,"rental_uris":{"android":"levelo://app?vid=bfa999de-7a32-454a-b31e-f99ace51a3fc","ios":"levelo://app?vid=bfa999de-7a32-454a-b31e-f99ace51a3fc"},"vehicle_type_id":"4","last_reported":1774158299,"current_range_meters":4000,"station_id":"","pricing_plan_id":"cebpf4jnsgd1na2vs0mg"},{"bike_id":"171b2ff7-d16a-4006-90ee-82afd37785cf","system_id":"levelo_inurba_marseille","lat":43.30533,"lon":5.38438,"is_reserved":false,"is_disabled":false,"rental_uris":{"android":"levelo://app?vid=171b2ff7-d16a-4006-90ee-82afd37785cf","ios":"levelo://app?vid=171b2ff7-d16a-4006-90ee-82afd37785cf"},"vehicle_type_id":"4","last_reported":1774158299,"current_range_meters":4000,"station_id":"ce4bgg92rcd13ifvqb30","pricing_plan_id":"cebpf4jnsgd1na2vs0mg"},{"bike_id":"9e87f03a-9860-4893-845f-6c3c8a02a628","system_id":"levelo_inurba_marseille","lat":43.27435,"lon":5.39388,"is_reserved":false,"is_disabled":false,"rental_uris":{"android":"levelo://app?vid=9e87f03a-9860-4893-845f-6c3c8a02a628","ios":"levelo://app?vid=9e87f03a-9860-4893-845f-6c3c8a02a628"},"vehicle_type_id":"4","last_reported":1774158299,"current_range_meters":4000,"station_id":"ce4bhdp2rcd13ifvqf20","pricing_plan_id":"cebpf4jnsgd1na2vs0mg"},{"bike_id":"859eb8f2-2ef7-413f-8f8d-281cebdae90e","system_id":"levelo_inurba_marseille","lat":43.27055,"lon":5.40265,"is_reserved":false,"is_disabled":false,"rental_uris":{"android":"levelo://app?vid=859eb8f2-2ef7-413f-8f8d-281cebdae90e","ios":"levelo://app?vid=859eb8f2-2ef7-413f-8f8d-281cebdae90e"},"vehicle_type_id":"4","last_reported":1774158299,"current_range_meters":4000,"station_id":"ce4bhk92rcd13ifvqgc0","pricing_plan_id":"cebpf4jnsgd1na2vs0mg"},{"bike_id":"4b11e079-bb00-4636-9cda-72c733e64f87","system_id":"levelo_inurba_marseille","lat":43.30921,"lon":5.36839,"is_reserved":false,"is_disabled":false,"rental_uris":{"android":"levelo://app?vid=4b11e079-bb00-4636-9cda-72c733e64f87","ios":"levelo://app?vid=4b11e079-bb00-4636-9cda-72c733e64f87"},"vehicle_type_id":"4","last_reported":1774158299,"current_range_meters":4000,"station_id":"ce4bgn92rcd13ifvqbvg","pricing_plan_id":"cebpf4jnsgd1na2vs0mg"},{"bike_id":"9562cb1b-3eaf-4a03-a5e3-1337d62db9d4","system_id":"levelo_inurba_marseille","lat":43.28925,"lon":5.36367,"is_reserved":false,"is_disabled":false,"rental_uris":{"android":"levelo://app?vid=9562cb1b-3eaf-4a03-a5e3-1337d62db9d4","ios":"levelo://app?vid=9562cb1b-3eaf-4a03-a5e3-1337d62db9d4"},"vehicle_type_id":"4","last_reported":1774158299,"current_range_meters":4400,"station_id":"ce4bhc92rcd13ifvqetg","pricing_plan_id":"cebpf4jnsgd1na2vs0mg"},{"bike_id":"922b18cd-37dd-4d90-8953-8a50f6296f4b","system_id":"levelo_inurba_marseille","lat":43.24468,"lon":5.42537,"is_reserved":false,"is_disabled":false,"rental_uris":{"android":"levelo://app?vid=922b18cd-37dd-4d90-8953-8a50f6296f4b","ios":"levelo://app?vid=922b18cd-37dd-4d90-8953-8a50f6296f4b"},"vehicle_type_id":"4","last_reported":1774158299,"current_range_meters":4400,"station_id":"","pricing_plan_id":"cebpf4jnsgd1na2vs0mg"},{"bike_id":"b4e79cf1-3ca4-4b8d-b2f7-eb95462793aa","system_id":"levelo_inurba_marseille","lat":43.30536,"lon":5.36738,"is_reserved":false,"is_disabled":false,"rental_uris":{"android":"levelo://app?vid=b4e79cf1-3ca4-4b8d-b2f7-eb95462793aa","ios":"levelo://app?vid=b4e79cf1-3ca4-4b8d-b2f7-eb95462793aa"},"vehicle_type_id":"4","last_reported":1774158299,"current_range_meters":4400,"station_id":"ce4bgrp2rcd13ifvqc9g","pricing_plan_id":"cebpf4jnsgd1na2vs0mg"},{"bike_id":"8e70251c-8f02-4240-8304-f6a3026eaebe","system_id":"levelo_inurba_marseille","lat":43.30905,"lon":5.36882,"is_reserved":false,"is_disabled":false,"rental_uris":{"android":"levelo://app?vid=8e70251c-8f02-4240-8304-f6a3026eaebe","ios":"levelo://app?vid=8e70251c-8f02-4240-8304-f6a3026eaebe"},"vehicle_type_id":"4","last_reported":1774158299,"current_range_meters":4400,"station_id":"ce4bgn92rcd13ifvqbvg","pricing_plan_id":"cebpf4jnsgd1na2vs0mg"},{"bike_id":"abd6ba07-52c7-4e40-b166-c980d77f4377","system_id":"levelo_inurba_marseille","lat":43.27205,"lon":5.40982,"is_reserved":false,"is_disabled":false,"rental_uris":{"android":"levelo://app?vid=abd6ba07-52c7-4e40-b166-c980d77f4377","ios":"levelo://app?vid=abd6ba07-52c7-4e40-b166-c980d77f4377"},"vehicle_type_id":"4","last_reported":1774158299,"current_range_meters":4400,"station_id":"ce4bhl12rcd13ifvqgf0","pricing_plan_id":"cebpf4jnsgd1na2vs0mg"},{"bike_id":"b75b0ef9-58e6-489e-a8cf-7c4c4208dccd","system_id":"levelo_inurba_marseille","lat":43.27982,"lon":5.41662,"is_reserved":false,"is_disabled":false,"rental_uris":{"android":"levelo://app?vid=b75b0ef9-58e6-489e-a8cf-7c4c4208dccd","ios":"levelo://app?vid=b75b0ef9-58e6-489e-a8cf-7c4c4208dccd"},"vehicle_type_id":"4","last_reported":1774158299,"current_range_meters":4400,"station_id":"ce4bho12rcd13ifvqh1g","pricing_plan_id":"cebpf4jnsgd1na2vs0mg"},{"bike_id":"7735375d-1041-4f99-b2b7-719b8a41cb75","system_id":"levelo_inurba_marseille","lat":43.2815,"lon":5.42629,"is_reserved":false,"is_disabled":true,"rental_uris":{"android":"levelo://app?vid=7735375d-1041-4f99-b2b7-719b8a41cb75","ios":"levelo://app?vid=7735375d-1041-4f99-b2b7-719b8a41cb75"},"vehicle_type_id":"4","last_reported":1774158299,"current_range_meters":4400,"station_id":"ce4bhnh2rcd13ifvqgug","pricing_plan_id":"cebpf4jnsgd1na2vs0mg"},{"bike_id":"1ef365fb-488e-4c1c-85b8-5a9107b69030","system_id":"levelo_inurba_marseille","lat":43.3138,"lon":5.39728,"is_reserved":false,"is_disabled":false,"rental_uris":{"android":"levelo://app?vid=1ef365fb-488e-4c1c-85b8-5a9107b69030","ios":"levelo://app?vid=1ef365fb-488e-4c1c-85b8-5a9107b69030"},"vehicle_type_id":"4","last_reported":1774158299,"current_range_meters":4400,"station_id":"","pricing_plan_id":"cebpf4jnsgd1na2vs0mg"},{"bike_id":"f1f374c7-7df8-4ad3-87c0-64cf3efed19a","system_id":"levelo_inurba_marseille","lat":43.30721,"lon":5.37652,"is_reserved":false,"is_disabled":false,"rental_uris":{"android":"levelo://app?vid=f1f374c7-7df8-4ad3-87c0-64cf3efed19a","ios":"levelo://app?vid=f1f374c7-7df8-4ad3-87c0-64cf3efed19a"},"vehicle_type_id":"4","last_reported":1774158299,"current_range_meters":4800,"station_id":"","pricing_plan_id":"cebpf4jnsgd1na2vs0mg"},{"bike_id":"9895479c-7522-4c8b-996f-5f3e1c1b4f33","system_id":"levelo_inurba_marseille","lat":43.23776,"lon":5.36639,"is_reserved":false,"is_disabled":false,"rental_uris":{"android":"levelo://app?vid=9895479c-7522-4c8b-996f-5f3e1c1b4f33","ios":"levelo://app?vid=9895479c-7522-4c8b-996f-5f3e1c1b4f33"},"vehicle_type_id":"4","last_reported":1774158299,"current_range_meters":4800,"station_id":"st_d3nk18o9ro0c73en2l3g","pricing_plan_id":"cebpf4jnsgd1na2vs0mg"},{"bike_id":"37fd8b91-bebb-483f-9ede-850904204da2","system_id":"levelo_inurba_marseille","lat":43.33415,"lon":5.35705,"is_reserved":false,"is_disabled":false,"rental_uris":{"android":"levelo://app?vid=37fd8b91-bebb-483f-9ede-850904204da2","ios":"levelo://app?vid=37fd8b91-bebb-483f-9ede-850904204da2"},"vehicle_type_id":"4","last_reported":1774158299,"current_range_meters":4800,"station_id":"","pricing_plan_id":"cebpf4jnsgd1na2vs0mg"},{"bike_id":"1bf523a3-5926-4a56-bcae-e377f2ed8117","system_id":"levelo_inurba_marseille","lat":43.27948,"lon":5.41035,"is_reserved":false,"is_disabled":false,"rental_uris":{"android":"levelo://app?vid=1bf523a3-5926-4a56-bcae-e377f2ed8117","ios":"levelo://app?vid=1bf523a3-5926-4a56-bcae-e377f2ed8117"},"vehicle_type_id":"4","last_reported":1774158299,"current_range_meters":4800,"station_id":"ce4bhnp2rcd13ifvqh0g","pricing_plan_id":"cebpf4jnsgd1na2vs0mg"},{"bike_id":"53fe7d20-a0f2-42d5-9475-d517256919e4","system_id":"levelo_inurba_marseille","lat":43.29006,"lon":5.38634,"is_reserved":false,"is_disabled":false,"rental_uris":{"android":"levelo://app?vid=53fe7d20-a0f2-42d5-9475-d517256919e4","ios":"levelo://app?vid=53fe7d20-a0f2-42d5-9475-d517256919e4"},"vehicle_type_id":"4","last_reported":1774158299,"current_range_meters":4800,"station_id":"ce4bh4p2rcd13ifvqe0g","pricing_plan_id":"cebpf4jnsgd1na2vs0mg"},{"bike_id":"2cf76306-be49-40e2-b33f-3774877dc26e","system_id":"levelo_inurba_marseille","lat":43.28158,"lon":5.42679,"is_reserved":false,"is_disabled":false,"rental_uris":{"android":"levelo://app?vid=2cf76306-be49-40e2-b33f-3774877dc26e","ios":"levelo://app?vid=2cf76306-be49-40e2-b33f-3774877dc26e"},"vehicle_type_id":"4","last_reported":1774158299,"current_range_meters":4800,"station_id":"ce4bhnh2rcd13ifvqgug","pricing_plan_id":"cebpf4jnsgd1na2vs0mg"},{"bike_id":"b87d7938-28e4-46e7-994e-fdebd5392225","system_id":"levelo_inurba_marseille","lat":43.32099,"lon":5.36762,"is_reserved":false,"is_disabled":false,"rental_uris":{"android":"levelo://app?vid=b87d7938-28e4-46e7-994e-fdebd5392225","ios":"levelo://app?vid=b87d7938-28e4-46e7-994e-fdebd5392225"},"vehicle_type_id":"4","last_reported":1774158299,"current_range_meters":4800,"station_id":"ce4bhrh2rcd13ifvqhug","pricing_plan_id":"cebpf4jnsgd1na2vs0mg"},{"bike_id":"c1132910-04b4-46e1-a0d5-c4ac5cbe805d","system_id":"levelo_inurba_marseille","lat":43.26962,"lon":5.40296,"is_reserved":false,"is_disabled":false,"rental_uris":{"android":"levelo://app?vid=c1132910-04b4-46e1-a0d5-c4ac5cbe805d","ios":"levelo://app?vid=c1132910-04b4-46e1-a0d5-c4ac5cbe805d"},"vehicle_type_id":"4","last_reported":1774158299,"current_range_meters":5600,"station_id":"cjm6bp8fraef2m0cb0m0","pricing_plan_id":"cebpf4jnsgd1na2vs0mg"},{"bike_id":"f413c348-a67b-4ddf-af34-de557ab9d007","system_id":"levelo_inurba_marseille","lat":43.30669,"lon":5.40065,"is_reserved":false,"is_disabled":false,"rental_uris":{"android":"levelo://app?vid=f413c348-a67b-4ddf-af34-de557ab9d007","ios":"levelo://app?vid=f413c348-a67b-4ddf-af34-de557ab9d007"},"vehicle_type_id":"4","last_reported":1774158299,"current_range_meters":5600,"station_id":"ce4bh112rcd13ifvqda0","pricing_plan_id":"cebpf4jnsgd1na2vs0mg"},{"bike_id":"9666d726-062c-4a11-80ec-ca5e3a6441ca","system_id":"levelo_inurba_marseille","lat":43.27959,"lon":5.387,"is_reserved":false,"is_disabled":false,"rental_uris":{"android":"levelo://app?vid=9666d726-062c-4a11-80ec-ca5e3a6441ca","ios":"levelo://app?vid=9666d726-062c-4a11-80ec-ca5e3a6441ca"},"vehicle_type_id":"4","last_reported":1774158299,"current_range_meters":5600,"station_id":"ce4bhg12rcd13ifvqf80","pricing_plan_id":"cebpf4jnsgd1na2vs0mg"},{"bike_id":"077ba1f4-9955-44ea-8995-8df9c4ed43ac","system_id":"levelo_inurba_marseille","lat":43.3105,"lon":5.37118,"is_reserved":false,"is_disabled":false,"rental_uris":{"android":"levelo://app?vid=077ba1f4-9955-44ea-8995-8df9c4ed43ac","ios":"levelo://app?vid=077ba1f4-9955-44ea-8995-8df9c4ed43ac"},"vehicle_type_id":"4","last_reported":1774158299,"current_range_meters":5600,"station_id":"st_d4kl2rp97mjs73e7tdfg","pricing_plan_id":"cebpf4jnsgd1na2vs0mg"},{"bike_id":"b25f88b2-0e6e-4e7f-bc8e-ba5e25398223","system_id":"levelo_inurba_marseille","lat":43.30924,"lon":5.40129,"is_reserved":false,"is_disabled":false,"rental_uris":{"android":"levelo://app?vid=b25f88b2-0e6e-4e7f-bc8e-ba5e25398223","ios":"levelo://app?vid=b25f88b2-0e6e-4e7f-bc8e-ba5e25398223"},"vehicle_type_id":"4","last_reported":1774158299,"current_range_meters":5600,"station_id":"ce4bgvp2rcd13ifvqct0","pricing_plan_id":"cebpf4jnsgd1na2vs0mg"},{"bike_id":"e80e3045-8283-4d1d-b48f-693d799b5a5c","system_id":"levelo_inurba_marseille","lat":43.29475,"lon":5.43327,"is_reserved":false,"is_disabled":false,"rental_uris":{"android":"levelo://app?vid=e80e3045-8283-4d1d-b48f-693d799b5a5c","ios":"levelo://app?vid=e80e3045-8283-4d1d-b48f-693d799b5a5c"},"vehicle_type_id":"4","last_reported":1774158299,"current_range_meters":5600,"station_id":"st_d3j5ugp08ojc73fj9d10","pricing_plan_id":"cebpf4jnsgd1na2vs0mg"},{"bike_id":"5c964224-b7a1-45e9-979d-0b588b3cc015","system_id":"levelo_inurba_marseille","lat":43.29098,"lon":5.38153,"is_reserved":false,"is_disabled":true,"rental_uris":{"android":"levelo://app?vid=5c964224-b7a1-45e9-979d-0b588b3cc015","ios":"levelo://app?vid=5c964224-b7a1-45e9-979d-0b588b3cc015"},"vehicle_type_id":"4","last_reported":1774158299,"current_range_meters":5600,"station_id":"ce4bh512rcd13ifvqe2g","pricing_plan_id":"cebpf4jnsgd1na2vs0mg"},{"bike_id":"5206b1c0-ea28-4288-9fb7-15de647e09fa","system_id":"levelo_inurba_marseille","lat":43.33565,"lon":5.37434,"is_reserved":false,"is_disabled":false,"rental_uris":{"android":"levelo://app?vid=5206b1c0-ea28-4288-9fb7-15de647e09fa","ios":"levelo://app?vid=5206b1c0-ea28-4288-9fb7-15de647e09fa"},"vehicle_type_id":"4","last_reported":1774158299,"current_range_meters":5600,"station_id":"st_d46tts09ee8s73dlu43g","pricing_plan_id":"cebpf4jnsgd1na2vs0mg"},{"bike_id":"84dc3d68-1c59-4a3a-a8d1-cca6c5afc7c9","system_id":"levelo_inurba_marseille","lat":43.26939,"lon":5.38661,"is_reserved":false,"is_disabled":false,"rental_uris":{"android":"levelo://app?vid=84dc3d68-1c59-4a3a-a8d1-cca6c5afc7c9","ios":"levelo://app?vid=84dc3d68-1c59-4a3a-a8d1-cca6c5afc7c9"},"vehicle_type_id":"4","last_reported":1774158299,"current_range_meters":5600,"station_id":"ce4bhh92rcd13ifvqfh0","pricing_plan_id":"cebpf4jnsgd1na2vs0mg"},{"bike_id":"d9a2340f-4dc0-456b-89f0-454af4d93a65","system_id":"levelo_inurba_marseille","lat":43.28492,"lon":5.35146,"is_reserved":false,"is_disabled":false,"rental_uris":{"android":"levelo://app?vid=d9a2340f-4dc0-456b-89f0-454af4d93a65","ios":"levelo://app?vid=d9a2340f-4dc0-456b-89f0-454af4d93a65"},"vehicle_type_id":"4","last_reported":1774158299,"current_range_meters":5600,"station_id":"","pricing_plan_id":"cebpf4jnsgd1na2vs0mg"},{"bike_id":"eec1e70a-7a70-4f35-82df-f3727eb58f06","system_id":"levelo_inurba_marseille","lat":43.296,"lon":5.40165,"is_reserved":false,"is_disabled":false,"rental_uris":{"android":"levelo://app?vid=eec1e70a-7a70-4f35-82df-f3727eb58f06","ios":"levelo://app?vid=eec1e70a-7a70-4f35-82df-f3727eb58f06"},"vehicle_type_id":"4","last_reported":1774158299,"current_range_meters":5600,"station_id":"","pricing_plan_id":"cebpf4jnsgd1na2vs0mg"},{"bike_id":"703efbe1-feef-417d-a9e3-0fca1a7eab74","system_id":"levelo_inurba_marseille","lat":43.34947,"lon":5.37916,"is_reserved":false,"is_disabled":false,"rental_uris":{"android":"levelo://app?vid=703efbe1-feef-417d-a9e3-0fca1a7eab74","ios":"levelo://app?vid=703efbe1-feef-417d-a9e3-0fca1a7eab74"},"vehicle_type_id":"4","last_reported":1774158299,"current_range_meters":5600,"station_id":"","pricing_plan_id":"cebpf4jnsgd1na2vs0mg"},{"bike_id":"7df589a5-17f0-469b-9718-8c8cb28924d3","system_id":"levelo_inurba_marseille","lat":43.33159,"lon":5.37682,"is_reserved":false,"is_disabled":false,"rental_uris":{"android":"levelo://app?vid=7df589a5-17f0-469b-9718-8c8cb28924d3","ios":"levelo://app?vid=7df589a5-17f0-469b-9718-8c8cb28924d3"},"vehicle_type_id":"4","last_reported":1774158299,"current_range_meters":5600,"station_id":"st_d46cu089ee8s73dldbu0","pricing_plan_id":"cebpf4jnsgd1na2vs0mg"},{"bike_id":"0d715b3a-bf00-4b51-86f8-fa10dbeac6fa","system_id":"levelo_inurba_marseille","lat":43.25717,"lon":5.41918,"is_reserved":false,"is_disabled":false,"rental_uris":{"android":"levelo://app?vid=0d715b3a-bf00-4b51-86f8-fa10dbeac6fa","ios":"levelo://app?vid=0d715b3a-bf00-4b51-86f8-fa10dbeac6fa"},"vehicle_type_id":"4","last_reported":1774158299,"current_range_meters":5600,"station_id":"","pricing_plan_id":"cebpf4jnsgd1na2vs0mg"},{"bike_id":"77fd8b22-7cd5-4b6c-897d-023411de4a80","system_id":"levelo_inurba_marseille","lat":43.31264,"lon":5.36828,"is_reserved":false,"is_disabled":false,"rental_uris":{"android":"levelo://app?vid=77fd8b22-7cd5-4b6c-897d-023411de4a80","ios":"levelo://app?vid=77fd8b22-7cd5-4b6c-897d-023411de4a80"},"vehicle_type_id":"4","last_reported":1774158299,"current_range_meters":5600,"station_id":"","pricing_plan_id":"cebpf4jnsgd1na2vs0mg"},{"bike_id":"b6a0fd7c-52e7-425e-b7f0-202eb8ef440f","system_id":"levelo_inurba_marseille","lat":43.29519,"lon":5.37522,"is_reserved":false,"is_disabled":false,"rental_uris":{"android":"levelo://app?vid=b6a0fd7c-52e7-425e-b7f0-202eb8ef440f","ios":"levelo://app?vid=b6a0fd7c-52e7-425e-b7f0-202eb8ef440f"},"vehicle_type_id":"4","last_reported":1774158299,"current_range_meters":6000,"station_id":"ce4bgkp2rcd13ifvqbmg","pricing_plan_id":"cebpf4jnsgd1na2vs0mg"},{"bike_id":"ee8c0786-704b-4515-a31a-2e24ac80a01b","system_id":"levelo_inurba_marseille","lat":43.3353,"lon":5.37507,"is_reserved":false,"is_disabled":false,"rental_uris":{"android":"levelo://app?vid=ee8c0786-704b-4515-a31a-2e24ac80a01b","ios":"levelo://app?vid=ee8c0786-704b-4515-a31a-2e24ac80a01b"},"vehicle_type_id":"4","last_reported":1774158299,"current_range_meters":6000,"station_id":"st_d46tts09ee8s73dlu43g","pricing_plan_id":"cebpf4jnsgd1na2vs0mg"},{"bike_id":"892fb9a6-406d-439a-a99f-1c79b09f8c3a","system_id":"levelo_inurba_marseille","lat":43.30891,"lon":5.39626,"is_reserved":false,"is_disabled":false,"rental_uris":{"android":"levelo://app?vid=892fb9a6-406d-439a-a99f-1c79b09f8c3a","ios":"levelo://app?vid=892fb9a6-406d-439a-a99f-1c79b09f8c3a"},"vehicle_type_id":"4","last_reported":1774158299,"current_range_meters":6000,"station_id":"ce4bh012rcd13ifvqcv0","pricing_plan_id":"cebpf4jnsgd1na2vs0mg"},{"bike_id":"53663f10-c972-4dad-83a0-96ec19d2a37e","system_id":"levelo_inurba_marseille","lat":43.24992,"lon":5.38959,"is_reserved":false,"is_disabled":true,"rental_uris":{"android":"levelo://app?vid=53663f10-c972-4dad-83a0-96ec19d2a37e","ios":"levelo://app?vid=53663f10-c972-4dad-83a0-96ec19d2a37e"},"vehicle_type_id":"4","last_reported":1774158299,"current_range_meters":6000,"station_id":"ce4bhgp2rcd13ifvqfd0","pricing_plan_id":"cebpf4jnsgd1na2vs0mg"},{"bike_id":"c7cc5081-8a90-4664-8378-0ac0db8d74fb","system_id":"levelo_inurba_marseille","lat":43.29838,"lon":5.36677,"is_reserved":false,"is_disabled":false,"rental_uris":{"android":"levelo://app?vid=c7cc5081-8a90-4664-8378-0ac0db8d74fb","ios":"levelo://app?vid=c7cc5081-8a90-4664-8378-0ac0db8d74fb"},"vehicle_type_id":"4","last_reported":1774158299,"current_range_meters":6000,"station_id":"","pricing_plan_id":"cebpf4jnsgd1na2vs0mg"},{"bike_id":"a3937008-bd85-4217-8a76-18de4c3db7e7","system_id":"levelo_inurba_marseille","lat":43.31351,"lon":5.38501,"is_reserved":false,"is_disabled":false,"rental_uris":{"android":"levelo://app?vid=a3937008-bd85-4217-8a76-18de4c3db7e7","ios":"levelo://app?vid=a3937008-bd85-4217-8a76-18de4c3db7e7"},"vehicle_type_id":"4","last_reported":1774158299,"current_range_meters":6000,"station_id":"ce4bgt92rcd13ifvqcf0","pricing_plan_id":"cebpf4jnsgd1na2vs0mg"},{"bike_id":"d65bd890-bd76-40b1-a464-add252f480e6","system_id":"levelo_inurba_marseille","lat":43.31736,"lon":5.38999,"is_reserved":false,"is_disabled":false,"rental_uris":{"android":"levelo://app?vid=d65bd890-bd76-40b1-a464-add252f480e6","ios":"levelo://app?vid=d65bd890-bd76-40b1-a464-add252f480e6"},"vehicle_type_id":"4","last_reported":1774158299,"current_range_meters":6000,"station_id":"ce4bhqp2rcd13ifvqhng","pricing_plan_id":"cebpf4jnsgd1na2vs0mg"},{"bike_id":"772c118b-fc2d-4928-9dbe-f788fcb6ff52","system_id":"levelo_inurba_marseille","lat":43.28449,"lon":5.35891,"is_reserved":false,"is_disabled":false,"rental_uris":{"android":"levelo://app?vid=772c118b-fc2d-4928-9dbe-f788fcb6ff52","ios":"levelo://app?vid=772c118b-fc2d-4928-9dbe-f788fcb6ff52"},"vehicle_type_id":"4","last_reported":1774158299,"current_range_meters":6000,"station_id":"ce4bhah2rcd13ifvqei0","pricing_plan_id":"cebpf4jnsgd1na2vs0mg"},{"bike_id":"aea6d33a-b59a-4510-b75a-6add5d47ec12","system_id":"levelo_inurba_marseille","lat":43.31348,"lon":5.3971,"is_reserved":false,"is_disabled":false,"rental_uris":{"android":"levelo://app?vid=aea6d33a-b59a-4510-b75a-6add5d47ec12","ios":"levelo://app?vid=aea6d33a-b59a-4510-b75a-6add5d47ec12"},"vehicle_type_id":"4","last_reported":1774158299,"current_range_meters":6000,"station_id":"ce4bgvp2rcd13ifvqcu0","pricing_plan_id":"cebpf4jnsgd1na2vs0mg"},{"bike_id":"30488e53-a916-4576-8d60-08964688e945","system_id":"levelo_inurba_marseille","lat":43.30889,"lon":5.372,"is_reserved":false,"is_disabled":false,"rental_uris":{"android":"levelo://app?vid=30488e53-a916-4576-8d60-08964688e945","ios":"levelo://app?vid=30488e53-a916-4576-8d60-08964688e945"},"vehicle_type_id":"4","last_reported":1774158299,"current_range_meters":6000,"station_id":"ce4bguh2rcd13ifvqckg","pricing_plan_id":"cebpf4jnsgd1na2vs0mg"},{"bike_id":"e6475c08-c2b5-4384-9f5a-f76a9e6ed419","system_id":"levelo_inurba_marseille","lat":43.30103,"lon":5.39878,"is_reserved":false,"is_disabled":true,"rental_uris":{"android":"levelo://app?vid=e6475c08-c2b5-4384-9f5a-f76a9e6ed419","ios":"levelo://app?vid=e6475c08-c2b5-4384-9f5a-f76a9e6ed419"},"vehicle_type_id":"4","last_reported":1774158299,"current_range_meters":6000,"station_id":"ce4bh0h2rcd13ifvqd40","pricing_plan_id":"cebpf4jnsgd1na2vs0mg"},{"bike_id":"bb64248e-0e5d-4ee1-9d8f-d48a0dd77d66","system_id":"levelo_inurba_marseille","lat":43.21644,"lon":5.34526,"is_reserved":false,"is_disabled":false,"rental_uris":{"android":"levelo://app?vid=bb64248e-0e5d-4ee1-9d8f-d48a0dd77d66","ios":"levelo://app?vid=bb64248e-0e5d-4ee1-9d8f-d48a0dd77d66"},"vehicle_type_id":"4","last_reported":1774158299,"current_range_meters":6000,"station_id":"","pricing_plan_id":"cebpf4jnsgd1na2vs0mg"},{"bike_id":"881552ad-57ca-4484-9a05-f159c58f50d9","system_id":"levelo_inurba_marseille","lat":43.31697,"lon":5.38697,"is_reserved":false,"is_disabled":false,"rental_uris":{"android":"levelo://app?vid=881552ad-57ca-4484-9a05-f159c58f50d9","ios":"levelo://app?vid=881552ad-57ca-4484-9a05-f159c58f50d9"},"vehicle_type_id":"4","last_reported":1774158299,"current_range_meters":6000,"station_id":"","pricing_plan_id":"cebpf4jnsgd1na2vs0mg"},{"bike_id":"722e053a-dfaa-4885-bcd6-7130a7655c0c","system_id":"levelo_inurba_marseille","lat":43.28491,"lon":5.38556,"is_reserved":false,"is_disabled":false,"rental_uris":{"android":"levelo://app?vid=722e053a-dfaa-4885-bcd6-7130a7655c0c","ios":"levelo://app?vid=722e053a-dfaa-4885-bcd6-7130a7655c0c"},"vehicle_type_id":"4","last_reported":1774158299,"current_range_meters":6000,"station_id":"ce4bh8p2rcd13ifvqeb0","pricing_plan_id":"cebpf4jnsgd1na2vs0mg"},{"bike_id":"58930592-65f7-4192-ac2f-be7392b8805a","system_id":"levelo_inurba_marseille","lat":43.26163,"lon":5.40366,"is_reserved":false,"is_disabled":false,"rental_uris":{"android":"levelo://app?vid=58930592-65f7-4192-ac2f-be7392b8805a","ios":"levelo://app?vid=58930592-65f7-4192-ac2f-be7392b8805a"},"vehicle_type_id":"4","last_reported":1774158299,"current_range_meters":6400,"station_id":"ce4bhmh2rcd13ifvqgmg","pricing_plan_id":"cebpf4jnsgd1na2vs0mg"},{"bike_id":"df5ad533-8354-43dd-b4db-d4118becde63","system_id":"levelo_inurba_marseille","lat":43.28523,"lon":5.48309,"is_reserved":false,"is_disabled":false,"rental_uris":{"android":"levelo://app?vid=df5ad533-8354-43dd-b4db-d4118becde63","ios":"levelo://app?vid=df5ad533-8354-43dd-b4db-d4118becde63"},"vehicle_type_id":"4","last_reported":1774158299,"current_range_meters":6400,"station_id":"","pricing_plan_id":"cebpf4jnsgd1na2vs0mg"},{"bike_id":"853b60f9-9203-48d1-83d9-1955c5adb34b","system_id":"levelo_inurba_marseille","lat":43.31316,"lon":5.39697,"is_reserved":false,"is_disabled":false,"rental_uris":{"android":"levelo://app?vid=853b60f9-9203-48d1-83d9-1955c5adb34b","ios":"levelo://app?vid=853b60f9-9203-48d1-83d9-1955c5adb34b"},"vehicle_type_id":"4","last_reported":1774158299,"current_range_meters":6400,"station_id":"ce4bgvp2rcd13ifvqcu0","pricing_plan_id":"cebpf4jnsgd1na2vs0mg"},{"bike_id":"a4823bf6-691d-4e71-9c19-a170920024a9","system_id":"levelo_inurba_marseille","lat":43.2927,"lon":5.36837,"is_reserved":false,"is_disabled":false,"rental_uris":{"android":"levelo://app?vid=a4823bf6-691d-4e71-9c19-a170920024a9","ios":"levelo://app?vid=a4823bf6-691d-4e71-9c19-a170920024a9"},"vehicle_type_id":"4","last_reported":1774158299,"current_range_meters":6400,"station_id":"ce4bhbp2rcd13ifvqesg","pricing_plan_id":"cebpf4jnsgd1na2vs0mg"},{"bike_id":"f721eede-1e71-4cef-9890-26ca5dfe028e","system_id":"levelo_inurba_marseille","lat":43.25585,"lon":5.38223,"is_reserved":false,"is_disabled":false,"rental_uris":{"android":"levelo://app?vid=f721eede-1e71-4cef-9890-26ca5dfe028e","ios":"levelo://app?vid=f721eede-1e71-4cef-9890-26ca5dfe028e"},"vehicle_type_id":"4","last_reported":1774158299,"current_range_meters":6400,"station_id":"ce4bhih2rcd13ifvqfs0","pricing_plan_id":"cebpf4jnsgd1na2vs0mg"},{"bike_id":"5c57b442-e44c-4217-ae47-6fe16361dbee","system_id":"levelo_inurba_marseille","lat":43.29756,"lon":5.42767,"is_reserved":false,"is_disabled":false,"rental_uris":{"android":"levelo://app?vid=5c57b442-e44c-4217-ae47-6fe16361dbee","ios":"levelo://app?vid=5c57b442-e44c-4217-ae47-6fe16361dbee"},"vehicle_type_id":"4","last_reported":1774158299,"current_range_meters":6400,"station_id":"st_d3md5207bmas73dh9klg","pricing_plan_id":"cebpf4jnsgd1na2vs0mg"},{"bike_id":"7f49cfef-fa82-40c2-9530-fca463b27d0d","system_id":"levelo_inurba_marseille","lat":43.30885,"lon":5.39645,"is_reserved":false,"is_disabled":false,"rental_uris":{"android":"levelo://app?vid=7f49cfef-fa82-40c2-9530-fca463b27d0d","ios":"levelo://app?vid=7f49cfef-fa82-40c2-9530-fca463b27d0d"},"vehicle_type_id":"4","last_reported":1774158299,"current_range_meters":6400,"station_id":"ce4bh012rcd13ifvqcv0","pricing_plan_id":"cebpf4jnsgd1na2vs0mg"},{"bike_id":"2cd11bbe-ed2d-4401-ac74-aa88c1ac5db6","system_id":"levelo_inurba_marseille","lat":43.2945,"lon":5.39758,"is_reserved":false,"is_disabled":false,"rental_uris":{"android":"levelo://app?vid=2cd11bbe-ed2d-4401-ac74-aa88c1ac5db6","ios":"levelo://app?vid=2cd11bbe-ed2d-4401-ac74-aa88c1ac5db6"},"vehicle_type_id":"4","last_reported":1774158299,"current_range_meters":6400,"station_id":"ce4bh3h2rcd13ifvqdo0","pricing_plan_id":"cebpf4jnsgd1na2vs0mg"},{"bike_id":"fdc655d4-8c99-4d97-9c1e-46ec98ef8979","system_id":"levelo_inurba_marseille","lat":43.28597,"lon":5.35117,"is_reserved":false,"is_disabled":true,"rental_uris":{"android":"levelo://app?vid=fdc655d4-8c99-4d97-9c1e-46ec98ef8979","ios":"levelo://app?vid=fdc655d4-8c99-4d97-9c1e-46ec98ef8979"},"vehicle_type_id":"4","last_reported":1774158299,"current_range_meters":6800,"station_id":"ce4bhch2rcd13ifvqeug","pricing_plan_id":"cebpf4jnsgd1na2vs0mg"},{"bike_id":"39f4beb0-012a-4d3a-98c2-50c05feff499","system_id":"levelo_inurba_marseille","lat":43.28528,"lon":5.44107,"is_reserved":false,"is_disabled":false,"rental_uris":{"android":"levelo://app?vid=39f4beb0-012a-4d3a-98c2-50c05feff499","ios":"levelo://app?vid=39f4beb0-012a-4d3a-98c2-50c05feff499"},"vehicle_type_id":"4","last_reported":1774158299,"current_range_meters":6800,"station_id":"st_d3j3df2ikq2c7380ej80","pricing_plan_id":"cebpf4jnsgd1na2vs0mg"},{"bike_id":"684715c6-945f-4949-9133-64dec7838b4e","system_id":"levelo_inurba_marseille","lat":43.27203,"lon":5.39187,"is_reserved":false,"is_disabled":true,"rental_uris":{"android":"levelo://app?vid=684715c6-945f-4949-9133-64dec7838b4e","ios":"levelo://app?vid=684715c6-945f-4949-9133-64dec7838b4e"},"vehicle_type_id":"4","last_reported":1774158299,"current_range_meters":6800,"station_id":"ce4bhhp2rcd13ifvqfm0","pricing_plan_id":"cebpf4jnsgd1na2vs0mg"},{"bike_id":"b6fffe2f-9423-41b9-a53f-4ddbccd10965","system_id":"levelo_inurba_marseille","lat":43.33514,"lon":5.37479,"is_reserved":false,"is_disabled":false,"rental_uris":{"android":"levelo://app?vid=b6fffe2f-9423-41b9-a53f-4ddbccd10965","ios":"levelo://app?vid=b6fffe2f-9423-41b9-a53f-4ddbccd10965"},"vehicle_type_id":"4","last_reported":1774158299,"current_range_meters":6800,"station_id":"st_d46tts09ee8s73dlu43g","pricing_plan_id":"cebpf4jnsgd1na2vs0mg"},{"bike_id":"a4f838e5-c68f-4237-8d0e-a3cdd8fb2afc","system_id":"levelo_inurba_marseille","lat":43.30142,"lon":5.37412,"is_reserved":false,"is_disabled":false,"rental_uris":{"android":"levelo://app?vid=a4f838e5-c68f-4237-8d0e-a3cdd8fb2afc","ios":"levelo://app?vid=a4f838e5-c68f-4237-8d0e-a3cdd8fb2afc"},"vehicle_type_id":"4","last_reported":1774158299,"current_range_meters":6800,"station_id":"ce4bgs92rcd13ifvqcc0","pricing_plan_id":"cebpf4jnsgd1na2vs0mg"},{"bike_id":"f72d76b5-18e1-454b-afe7-6526fb898042","system_id":"levelo_inurba_marseille","lat":43.27064,"lon":5.38299,"is_reserved":false,"is_disabled":false,"rental_uris":{"android":"levelo://app?vid=f72d76b5-18e1-454b-afe7-6526fb898042","ios":"levelo://app?vid=f72d76b5-18e1-454b-afe7-6526fb898042"},"vehicle_type_id":"4","last_reported":1774158299,"current_range_meters":6800,"station_id":"st_d3n2fo6cfp8s73cte1j0","pricing_plan_id":"cebpf4jnsgd1na2vs0mg"},{"bike_id":"05496333-80b6-4d30-9b6b-46826e6dacaa","system_id":"levelo_inurba_marseille","lat":43.30152,"lon":5.38097,"is_reserved":false,"is_disabled":false,"rental_uris":{"android":"levelo://app?vid=05496333-80b6-4d30-9b6b-46826e6dacaa","ios":"levelo://app?vid=05496333-80b6-4d30-9b6b-46826e6dacaa"},"vehicle_type_id":"4","last_reported":1774158299,"current_range_meters":6800,"station_id":"ce4bgjp2rcd13ifvqbh0","pricing_plan_id":"cebpf4jnsgd1na2vs0mg"},{"bike_id":"14790cac-e721-4919-a5a0-db7e7a6e1d59","system_id":"levelo_inurba_marseille","lat":43.28865,"lon":5.35821,"is_reserved":false,"is_disabled":false,"rental_uris":{"android":"levelo://app?vid=14790cac-e721-4919-a5a0-db7e7a6e1d59","ios":"levelo://app?vid=14790cac-e721-4919-a5a0-db7e7a6e1d59"},"vehicle_type_id":"4","last_reported":1774158299,"current_range_meters":6800,"station_id":"ce4bhb12rcd13ifvqem0","pricing_plan_id":"cebpf4jnsgd1na2vs0mg"},{"bike_id":"13542ed8-b3ab-4457-bed0-fd2a2f796cb6","system_id":"levelo_inurba_marseille","lat":43.30124,"lon":5.38094,"is_reserved":false,"is_disabled":false,"rental_uris":{"android":"levelo://app?vid=13542ed8-b3ab-4457-bed0-fd2a2f796cb6","ios":"levelo://app?vid=13542ed8-b3ab-4457-bed0-fd2a2f796cb6"},"vehicle_type_id":"4","last_reported":1774158299,"current_range_meters":6800,"station_id":"ce4bgjp2rcd13ifvqbh0","pricing_plan_id":"cebpf4jnsgd1na2vs0mg"},{"bike_id":"4655b419-c73e-4d14-9457-58258dfd8582","system_id":"levelo_inurba_marseille","lat":43.31267,"lon":5.40172,"is_reserved":false,"is_disabled":false,"rental_uris":{"android":"levelo://app?vid=4655b419-c73e-4d14-9457-58258dfd8582","ios":"levelo://app?vid=4655b419-c73e-4d14-9457-58258dfd8582"},"vehicle_type_id":"4","last_reported":1774158299,"current_range_meters":6800,"station_id":"ce4bh092rcd13ifvqd30","pricing_plan_id":"cebpf4jnsgd1na2vs0mg"},{"bike_id":"280578b9-60d3-4d63-bb0d-4693a52f0b6d","system_id":"levelo_inurba_marseille","lat":43.29036,"lon":5.38118,"is_reserved":false,"is_disabled":true,"rental_uris":{"android":"levelo://app?vid=280578b9-60d3-4d63-bb0d-4693a52f0b6d","ios":"levelo://app?vid=280578b9-60d3-4d63-bb0d-4693a52f0b6d"},"vehicle_type_id":"4","last_reported":1774158299,"current_range_meters":6800,"station_id":"ce4bh4p2rcd13ifvqe1g","pricing_plan_id":"cebpf4jnsgd1na2vs0mg"},{"bike_id":"afaf009b-854b-4a4a-9a19-fdc9f27a88ec","system_id":"levelo_inurba_marseille","lat":43.29028,"lon":5.38658,"is_reserved":false,"is_disabled":true,"rental_uris":{"android":"levelo://app?vid=afaf009b-854b-4a4a-9a19-fdc9f27a88ec","ios":"levelo://app?vid=afaf009b-854b-4a4a-9a19-fdc9f27a88ec"},"vehicle_type_id":"4","last_reported":1774158299,"current_range_meters":6800,"station_id":"ce4bh4p2rcd13ifvqe0g","pricing_plan_id":"cebpf4jnsgd1na2vs0mg"},{"bike_id":"5369d941-756a-4a39-ae59-10b7c47d2be3","system_id":"levelo_inurba_marseille","lat":43.31043,"lon":5.37192,"is_reserved":false,"is_disabled":false,"rental_uris":{"android":"levelo://app?vid=5369d941-756a-4a39-ae59-10b7c47d2be3","ios":"levelo://app?vid=5369d941-756a-4a39-ae59-10b7c47d2be3"},"vehicle_type_id":"4","last_reported":1774158299,"current_range_meters":6800,"station_id":"st_d4kl2rp97mjs73e7tdfg","pricing_plan_id":"cebpf4jnsgd1na2vs0mg"},{"bike_id":"40262e6a-8dcf-49b7-a1fd-455d263e1d4f","system_id":"levelo_inurba_marseille","lat":43.29982,"lon":5.37192,"is_reserved":false,"is_disabled":false,"rental_uris":{"android":"levelo://app?vid=40262e6a-8dcf-49b7-a1fd-455d263e1d4f","ios":"levelo://app?vid=40262e6a-8dcf-49b7-a1fd-455d263e1d4f"},"vehicle_type_id":"4","last_reported":1774158299,"current_range_meters":6800,"station_id":"ce4bgr92rcd13ifvqc7g","pricing_plan_id":"cebpf4jnsgd1na2vs0mg"},{"bike_id":"d13beb39-6370-4275-bcf3-5e08790510bd","system_id":"levelo_inurba_marseille","lat":43.28536,"lon":5.44084,"is_reserved":false,"is_disabled":false,"rental_uris":{"android":"levelo://app?vid=d13beb39-6370-4275-bcf3-5e08790510bd","ios":"levelo://app?vid=d13beb39-6370-4275-bcf3-5e08790510bd"},"vehicle_type_id":"4","last_reported":1774158299,"current_range_meters":6800,"station_id":"st_d3j3df2ikq2c7380ej80","pricing_plan_id":"cebpf4jnsgd1na2vs0mg"},{"bike_id":"24892758-e1c8-4866-9ace-f6379bc81fdc","system_id":"levelo_inurba_marseille","lat":43.26367,"lon":5.41084,"is_reserved":false,"is_disabled":false,"rental_uris":{"android":"levelo://app?vid=24892758-e1c8-4866-9ace-f6379bc81fdc","ios":"levelo://app?vid=24892758-e1c8-4866-9ace-f6379bc81fdc"},"vehicle_type_id":"4","last_reported":1774158299,"current_range_meters":6800,"station_id":"st_d4e5ca6na9uc73bfl5fg","pricing_plan_id":"cebpf4jnsgd1na2vs0mg"},{"bike_id":"9428c957-f603-4346-9e68-4f9e4a780b24","system_id":"levelo_inurba_marseille","lat":43.21752,"lon":5.34603,"is_reserved":false,"is_disabled":true,"rental_uris":{"android":"levelo://app?vid=9428c957-f603-4346-9e68-4f9e4a780b24","ios":"levelo://app?vid=9428c957-f603-4346-9e68-4f9e4a780b24"},"vehicle_type_id":"4","last_reported":1774158299,"current_range_meters":7200,"station_id":"st_cvj6r9ubvosntc0bgbag","pricing_plan_id":"cebpf4jnsgd1na2vs0mg"},{"bike_id":"62ccf4a8-0426-42c8-92c7-60b92e2221c9","system_id":"levelo_inurba_marseille","lat":43.28479,"lon":5.48392,"is_reserved":false,"is_disabled":false,"rental_uris":{"android":"levelo://app?vid=62ccf4a8-0426-42c8-92c7-60b92e2221c9","ios":"levelo://app?vid=62ccf4a8-0426-42c8-92c7-60b92e2221c9"},"vehicle_type_id":"4","last_reported":1774158299,"current_range_meters":7200,"station_id":"","pricing_plan_id":"cebpf4jnsgd1na2vs0mg"},{"bike_id":"34c091fc-8184-4773-bd2e-dd88d75d3a2c","system_id":"levelo_inurba_marseille","lat":43.25753,"lon":5.37647,"is_reserved":false,"is_disabled":false,"rental_uris":{"android":"levelo://app?vid=34c091fc-8184-4773-bd2e-dd88d75d3a2c","ios":"levelo://app?vid=34c091fc-8184-4773-bd2e-dd88d75d3a2c"},"vehicle_type_id":"4","last_reported":1774158299,"current_range_meters":7200,"station_id":"","pricing_plan_id":"cebpf4jnsgd1na2vs0mg"},{"bike_id":"183fd90c-0052-4b2b-a72d-89bd5fb0a1bb","system_id":"levelo_inurba_marseille","lat":43.30968,"lon":5.43885,"is_reserved":false,"is_disabled":false,"rental_uris":{"android":"levelo://app?vid=183fd90c-0052-4b2b-a72d-89bd5fb0a1bb","ios":"levelo://app?vid=183fd90c-0052-4b2b-a72d-89bd5fb0a1bb"},"vehicle_type_id":"4","last_reported":1774158299,"current_range_meters":7200,"station_id":"","pricing_plan_id":"cebpf4jnsgd1na2vs0mg"},{"bike_id":"3f12e940-de87-4cda-8d19-b5ddb45a8f36","system_id":"levelo_inurba_marseille","lat":43.23132,"lon":5.3565,"is_reserved":false,"is_disabled":false,"rental_uris":{"android":"levelo://app?vid=3f12e940-de87-4cda-8d19-b5ddb45a8f36","ios":"levelo://app?vid=3f12e940-de87-4cda-8d19-b5ddb45a8f36"},"vehicle_type_id":"4","last_reported":1774158299,"current_range_meters":7200,"station_id":"","pricing_plan_id":"cebpf4jnsgd1na2vs0mg"},{"bike_id":"69f630a6-85ea-4fc6-96f9-826e9f19cc75","system_id":"levelo_inurba_marseille","lat":43.28992,"lon":5.38138,"is_reserved":false,"is_disabled":false,"rental_uris":{"android":"levelo://app?vid=69f630a6-85ea-4fc6-96f9-826e9f19cc75","ios":"levelo://app?vid=69f630a6-85ea-4fc6-96f9-826e9f19cc75"},"vehicle_type_id":"4","last_reported":1774158299,"current_range_meters":7200,"station_id":"ce4bh4p2rcd13ifvqe1g","pricing_plan_id":"cebpf4jnsgd1na2vs0mg"},{"bike_id":"037af263-c94a-46ee-b673-7aa7948320d5","system_id":"levelo_inurba_marseille","lat":43.29257,"lon":5.3844,"is_reserved":false,"is_disabled":true,"rental_uris":{"android":"levelo://app?vid=037af263-c94a-46ee-b673-7aa7948320d5","ios":"levelo://app?vid=037af263-c94a-46ee-b673-7aa7948320d5"},"vehicle_type_id":"4","last_reported":1774158299,"current_range_meters":7200,"station_id":"ce4bh692rcd13ifvqea0","pricing_plan_id":"cebpf4jnsgd1na2vs0mg"},{"bike_id":"7de6d0c9-bc6f-4a80-a9b0-1914a070d739","system_id":"levelo_inurba_marseille","lat":43.30149,"lon":5.38085,"is_reserved":false,"is_disabled":false,"rental_uris":{"android":"levelo://app?vid=7de6d0c9-bc6f-4a80-a9b0-1914a070d739","ios":"levelo://app?vid=7de6d0c9-bc6f-4a80-a9b0-1914a070d739"},"vehicle_type_id":"4","last_reported":1774158299,"current_range_meters":7200,"station_id":"ce4bgjp2rcd13ifvqbh0","pricing_plan_id":"cebpf4jnsgd1na2vs0mg"},{"bike_id":"a056b44c-3f74-478b-9324-c2fb58ef1ed2","system_id":"levelo_inurba_marseille","lat":43.30233,"lon":5.37381,"is_reserved":false,"is_disabled":false,"rental_uris":{"android":"levelo://app?vid=a056b44c-3f74-478b-9324-c2fb58ef1ed2","ios":"levelo://app?vid=a056b44c-3f74-478b-9324-c2fb58ef1ed2"},"vehicle_type_id":"4","last_reported":1774158299,"current_range_meters":7200,"station_id":"","pricing_plan_id":"cebpf4jnsgd1na2vs0mg"},{"bike_id":"b846518d-9413-4122-88c9-caec257fb279","system_id":"levelo_inurba_marseille","lat":43.30641,"lon":5.40084,"is_reserved":false,"is_disabled":false,"rental_uris":{"android":"levelo://app?vid=b846518d-9413-4122-88c9-caec257fb279","ios":"levelo://app?vid=b846518d-9413-4122-88c9-caec257fb279"},"vehicle_type_id":"4","last_reported":1774158299,"current_range_meters":7200,"station_id":"ce4bh112rcd13ifvqda0","pricing_plan_id":"cebpf4jnsgd1na2vs0mg"},{"bike_id":"f84df946-1fe9-4d68-b54f-3a23cc20fde7","system_id":"levelo_inurba_marseille","lat":43.29884,"lon":5.42082,"is_reserved":false,"is_disabled":false,"rental_uris":{"android":"levelo://app?vid=f84df946-1fe9-4d68-b54f-3a23cc20fde7","ios":"levelo://app?vid=f84df946-1fe9-4d68-b54f-3a23cc20fde7"},"vehicle_type_id":"4","last_reported":1774158299,"current_range_meters":7200,"station_id":"st_d6tc004otcvc738tfe70","pricing_plan_id":"cebpf4jnsgd1na2vs0mg"},{"bike_id":"bb2bb087-057b-42f3-9513-f048d27083cc","system_id":"levelo_inurba_marseille","lat":43.28174,"lon":5.42808,"is_reserved":false,"is_disabled":false,"rental_uris":{"android":"levelo://app?vid=bb2bb087-057b-42f3-9513-f048d27083cc","ios":"levelo://app?vid=bb2bb087-057b-42f3-9513-f048d27083cc"},"vehicle_type_id":"4","last_reported":1774158299,"current_range_meters":7200,"station_id":"","pricing_plan_id":"cebpf4jnsgd1na2vs0mg"},{"bike_id":"3c9ec287-5840-43e9-841e-079c32285e84","system_id":"levelo_inurba_marseille","lat":43.3316,"lon":5.37689,"is_reserved":false,"is_disabled":false,"rental_uris":{"android":"levelo://app?vid=3c9ec287-5840-43e9-841e-079c32285e84","ios":"levelo://app?vid=3c9ec287-5840-43e9-841e-079c32285e84"},"vehicle_type_id":"4","last_reported":1774158299,"current_range_meters":7200,"station_id":"st_d46cu089ee8s73dldbu0","pricing_plan_id":"cebpf4jnsgd1na2vs0mg"},{"bike_id":"91835384-6537-4626-9579-23e38e6a4a9b","system_id":"levelo_inurba_marseille","lat":43.28372,"lon":5.38645,"is_reserved":false,"is_disabled":false,"rental_uris":{"android":"levelo://app?vid=91835384-6537-4626-9579-23e38e6a4a9b","ios":"levelo://app?vid=91835384-6537-4626-9579-23e38e6a4a9b"},"vehicle_type_id":"4","last_reported":1774158299,"current_range_meters":7200,"station_id":"ce4bh492rcd13ifvqdvg","pricing_plan_id":"cebpf4jnsgd1na2vs0mg"},{"bike_id":"b19a626a-93cd-41bf-8d4f-8b63d7aeec08","system_id":"levelo_inurba_marseille","lat":43.30121,"lon":5.43905,"is_reserved":false,"is_disabled":false,"rental_uris":{"android":"levelo://app?vid=b19a626a-93cd-41bf-8d4f-8b63d7aeec08","ios":"levelo://app?vid=b19a626a-93cd-41bf-8d4f-8b63d7aeec08"},"vehicle_type_id":"4","last_reported":1774158299,"current_range_meters":7200,"station_id":"","pricing_plan_id":"cebpf4jnsgd1na2vs0mg"},{"bike_id":"dca4a088-ec93-42bb-9cb1-d7d2c0c64fc4","system_id":"levelo_inurba_marseille","lat":43.26193,"lon":5.40373,"is_reserved":false,"is_disabled":false,"rental_uris":{"android":"levelo://app?vid=dca4a088-ec93-42bb-9cb1-d7d2c0c64fc4","ios":"levelo://app?vid=dca4a088-ec93-42bb-9cb1-d7d2c0c64fc4"},"vehicle_type_id":"4","last_reported":1774158299,"current_range_meters":7200,"station_id":"ce4bhmh2rcd13ifvqgmg","pricing_plan_id":"cebpf4jnsgd1na2vs0mg"},{"bike_id":"9aab9186-cdfc-419e-b877-691d5aca870a","system_id":"levelo_inurba_marseille","lat":43.28239,"lon":5.39029,"is_reserved":false,"is_disabled":false,"rental_uris":{"android":"levelo://app?vid=9aab9186-cdfc-419e-b877-691d5aca870a","ios":"levelo://app?vid=9aab9186-cdfc-419e-b877-691d5aca870a"},"vehicle_type_id":"4","last_reported":1774158299,"current_range_meters":7200,"station_id":"ce4bhn92rcd13ifvqgsg","pricing_plan_id":"cebpf4jnsgd1na2vs0mg"},{"bike_id":"6768fb01-97ee-4f47-89cf-88cf0e1f3240","system_id":"levelo_inurba_marseille","lat":43.29882,"lon":5.39754,"is_reserved":false,"is_disabled":false,"rental_uris":{"android":"levelo://app?vid=6768fb01-97ee-4f47-89cf-88cf0e1f3240","ios":"levelo://app?vid=6768fb01-97ee-4f47-89cf-88cf0e1f3240"},"vehicle_type_id":"4","last_reported":1774158299,"current_range_meters":7200,"station_id":"ce4bh0h2rcd13ifvqd50","pricing_plan_id":"cebpf4jnsgd1na2vs0mg"},{"bike_id":"35939b35-432f-4730-9a4d-bca4477a51c8","system_id":"levelo_inurba_marseille","lat":43.32079,"lon":5.36797,"is_reserved":false,"is_disabled":false,"rental_uris":{"android":"levelo://app?vid=35939b35-432f-4730-9a4d-bca4477a51c8","ios":"levelo://app?vid=35939b35-432f-4730-9a4d-bca4477a51c8"},"vehicle_type_id":"4","last_reported":1774158299,"current_range_meters":7200,"station_id":"ce4bhrh2rcd13ifvqhug","pricing_plan_id":"cebpf4jnsgd1na2vs0mg"},{"bike_id":"dc45b164-1452-43fd-b987-428e9e588766","system_id":"levelo_inurba_marseille","lat":43.29765,"lon":5.37088,"is_reserved":false,"is_disabled":false,"rental_uris":{"android":"levelo://app?vid=dc45b164-1452-43fd-b987-428e9e588766","ios":"levelo://app?vid=dc45b164-1452-43fd-b987-428e9e588766"},"vehicle_type_id":"4","last_reported":1774158299,"current_range_meters":7200,"station_id":"ce4bgop2rcd13ifvqc1g","pricing_plan_id":"cebpf4jnsgd1na2vs0mg"},{"bike_id":"6c1ac590-511b-4ef3-b19a-055f363bbc14","system_id":"levelo_inurba_marseille","lat":43.29903,"lon":5.43656,"is_reserved":false,"is_disabled":false,"rental_uris":{"android":"levelo://app?vid=6c1ac590-511b-4ef3-b19a-055f363bbc14","ios":"levelo://app?vid=6c1ac590-511b-4ef3-b19a-055f363bbc14"},"vehicle_type_id":"4","last_reported":1774158299,"current_range_meters":7200,"station_id":"ce4bhpp2rcd13ifvqhfg","pricing_plan_id":"cebpf4jnsgd1na2vs0mg"},{"bike_id":"589e256a-566c-48aa-ba2e-bb8bec131139","system_id":"levelo_inurba_marseille","lat":43.27375,"lon":5.36265,"is_reserved":false,"is_disabled":true,"rental_uris":{"android":"levelo://app?vid=589e256a-566c-48aa-ba2e-bb8bec131139","ios":"levelo://app?vid=589e256a-566c-48aa-ba2e-bb8bec131139"},"vehicle_type_id":"4","last_reported":1774158299,"current_range_meters":8000,"station_id":"ce4bhbh2rcd13ifvqeo0","pricing_plan_id":"cebpf4jnsgd1na2vs0mg"},{"bike_id":"f8cc83d7-8cfc-43c5-a95c-950d60be7ca1","system_id":"levelo_inurba_marseille","lat":43.22916,"lon":5.35392,"is_reserved":false,"is_disabled":false,"rental_uris":{"android":"levelo://app?vid=f8cc83d7-8cfc-43c5-a95c-950d60be7ca1","ios":"levelo://app?vid=f8cc83d7-8cfc-43c5-a95c-950d60be7ca1"},"vehicle_type_id":"4","last_reported":1774158299,"current_range_meters":8000,"station_id":"cpo3532slgdg3j2ikp40","pricing_plan_id":"cebpf4jnsgd1na2vs0mg"},{"bike_id":"47b96676-e84f-4d03-9483-f6caa4a7c55a","system_id":"levelo_inurba_marseille","lat":43.28708,"lon":5.37942,"is_reserved":false,"is_disabled":false,"rental_uris":{"android":"levelo://app?vid=47b96676-e84f-4d03-9483-f6caa4a7c55a","ios":"levelo://app?vid=47b96676-e84f-4d03-9483-f6caa4a7c55a"},"vehicle_type_id":"4","last_reported":1774158299,"current_range_meters":8000,"station_id":"ce4bh9p2rcd13ifvqec0","pricing_plan_id":"cebpf4jnsgd1na2vs0mg"},{"bike_id":"21de157a-5e00-4554-aa09-05d9fd4473d6","system_id":"levelo_inurba_marseille","lat":43.24275,"lon":5.39578,"is_reserved":false,"is_disabled":true,"rental_uris":{"android":"levelo://app?vid=21de157a-5e00-4554-aa09-05d9fd4473d6","ios":"levelo://app?vid=21de157a-5e00-4554-aa09-05d9fd4473d6"},"vehicle_type_id":"4","last_reported":1774158299,"current_range_meters":8000,"station_id":"ce4bhn12rcd13ifvqgpg","pricing_plan_id":"cebpf4jnsgd1na2vs0mg"},{"bike_id":"069a31e1-8491-47f6-acb3-52f081dfc8d1","system_id":"levelo_inurba_marseille","lat":43.30302,"lon":5.36914,"is_reserved":false,"is_disabled":false,"rental_uris":{"android":"levelo://app?vid=069a31e1-8491-47f6-acb3-52f081dfc8d1","ios":"levelo://app?vid=069a31e1-8491-47f6-acb3-52f081dfc8d1"},"vehicle_type_id":"4","last_reported":1774158299,"current_range_meters":8000,"station_id":"ce4bgqh2rcd13ifvqc5g","pricing_plan_id":"cebpf4jnsgd1na2vs0mg"},{"bike_id":"80a4f7b4-7f8f-4780-99a0-f2be6a6da2c0","system_id":"levelo_inurba_marseille","lat":43.3138,"lon":5.38478,"is_reserved":false,"is_disabled":false,"rental_uris":{"android":"levelo://app?vid=80a4f7b4-7f8f-4780-99a0-f2be6a6da2c0","ios":"levelo://app?vid=80a4f7b4-7f8f-4780-99a0-f2be6a6da2c0"},"vehicle_type_id":"4","last_reported":1774158299,"current_range_meters":8000,"station_id":"ce4bgt92rcd13ifvqcf0","pricing_plan_id":"cebpf4jnsgd1na2vs0mg"},{"bike_id":"c66abed4-a510-467b-9fe2-a140744c1f13","system_id":"levelo_inurba_marseille","lat":43.31535,"lon":5.38029,"is_reserved":false,"is_disabled":false,"rental_uris":{"android":"levelo://app?vid=c66abed4-a510-467b-9fe2-a140744c1f13","ios":"levelo://app?vid=c66abed4-a510-467b-9fe2-a140744c1f13"},"vehicle_type_id":"4","last_reported":1774158299,"current_range_meters":8000,"station_id":"ce4bhsp2rcd13ifvqi50","pricing_plan_id":"cebpf4jnsgd1na2vs0mg"},{"bike_id":"4c3f08d4-34c7-4e1b-9255-baed674c1087","system_id":"levelo_inurba_marseille","lat":43.24137,"lon":5.36862,"is_reserved":false,"is_disabled":false,"rental_uris":{"android":"levelo://app?vid=4c3f08d4-34c7-4e1b-9255-baed674c1087","ios":"levelo://app?vid=4c3f08d4-34c7-4e1b-9255-baed674c1087"},"vehicle_type_id":"4","last_reported":1774158299,"current_range_meters":8000,"station_id":"","pricing_plan_id":"cebpf4jnsgd1na2vs0mg"},{"bike_id":"fbe2b78f-0e5e-4930-9a62-abb27986a4f0","system_id":"levelo_inurba_marseille","lat":43.30092,"lon":5.39084,"is_reserved":false,"is_disabled":false,"rental_uris":{"android":"levelo://app?vid=fbe2b78f-0e5e-4930-9a62-abb27986a4f0","ios":"levelo://app?vid=fbe2b78f-0e5e-4930-9a62-abb27986a4f0"},"vehicle_type_id":"4","last_reported":1774158299,"current_range_meters":8000,"station_id":"ce4bh192rcd13ifvqdb0","pricing_plan_id":"cebpf4jnsgd1na2vs0mg"},{"bike_id":"c6b8c288-7f12-44f1-b184-782c8c64e9d9","system_id":"levelo_inurba_marseille","lat":43.30869,"lon":5.36901,"is_reserved":false,"is_disabled":false,"rental_uris":{"android":"levelo://app?vid=c6b8c288-7f12-44f1-b184-782c8c64e9d9","ios":"levelo://app?vid=c6b8c288-7f12-44f1-b184-782c8c64e9d9"},"vehicle_type_id":"4","last_reported":1774158299,"current_range_meters":8000,"station_id":"","pricing_plan_id":"cebpf4jnsgd1na2vs0mg"},{"bike_id":"8827da7c-4553-4e45-8b96-33f6c2699a52","system_id":"levelo_inurba_marseille","lat":43.21757,"lon":5.34619,"is_reserved":false,"is_disabled":true,"rental_uris":{"android":"levelo://app?vid=8827da7c-4553-4e45-8b96-33f6c2699a52","ios":"levelo://app?vid=8827da7c-4553-4e45-8b96-33f6c2699a52"},"vehicle_type_id":"4","last_reported":1774158299,"current_range_meters":8000,"station_id":"st_cvj6r9ubvosntc0bgbag","pricing_plan_id":"cebpf4jnsgd1na2vs0mg"},{"bike_id":"c740e20c-eca7-406c-92dd-2b448718a645","system_id":"levelo_inurba_marseille","lat":43.28487,"lon":5.48374,"is_reserved":false,"is_disabled":false,"rental_uris":{"android":"levelo://app?vid=c740e20c-eca7-406c-92dd-2b448718a645","ios":"levelo://app?vid=c740e20c-eca7-406c-92dd-2b448718a645"},"vehicle_type_id":"4","last_reported":1774158299,"current_range_meters":8000,"station_id":"st_d3svhcjqgbts73a3dn0g","pricing_plan_id":"cebpf4jnsgd1na2vs0mg"},{"bike_id":"d40eaa64-a3b8-4e26-8b08-a6febafe1391","system_id":"levelo_inurba_marseille","lat":43.29767,"lon":5.37057,"is_reserved":false,"is_disabled":false,"rental_uris":{"android":"levelo://app?vid=d40eaa64-a3b8-4e26-8b08-a6febafe1391","ios":"levelo://app?vid=d40eaa64-a3b8-4e26-8b08-a6febafe1391"},"vehicle_type_id":"4","last_reported":1774158299,"current_range_meters":8400,"station_id":"ce4bgop2rcd13ifvqc1g","pricing_plan_id":"cebpf4jnsgd1na2vs0mg"},{"bike_id":"ef8cd562-295e-4308-aa28-51ee95bd4f8d","system_id":"levelo_inurba_marseille","lat":43.28165,"lon":5.42635,"is_reserved":false,"is_disabled":false,"rental_uris":{"android":"levelo://app?vid=ef8cd562-295e-4308-aa28-51ee95bd4f8d","ios":"levelo://app?vid=ef8cd562-295e-4308-aa28-51ee95bd4f8d"},"vehicle_type_id":"4","last_reported":1774158299,"current_range_meters":8400,"station_id":"ce4bhnh2rcd13ifvqgug","pricing_plan_id":"cebpf4jnsgd1na2vs0mg"},{"bike_id":"b6bd7335-6c6d-461c-80a2-97a8664a80f6","system_id":"levelo_inurba_marseille","lat":43.28403,"lon":5.37522,"is_reserved":false,"is_disabled":false,"rental_uris":{"android":"levelo://app?vid=b6bd7335-6c6d-461c-80a2-97a8664a80f6","ios":"levelo://app?vid=b6bd7335-6c6d-461c-80a2-97a8664a80f6"},"vehicle_type_id":"4","last_reported":1774158299,"current_range_meters":8400,"station_id":"ce4bh412rcd13ifvqds0","pricing_plan_id":"cebpf4jnsgd1na2vs0mg"},{"bike_id":"ab85e099-f6b8-463e-bd20-6ab65dba475b","system_id":"levelo_inurba_marseille","lat":43.23897,"lon":5.37465,"is_reserved":false,"is_disabled":false,"rental_uris":{"android":"levelo://app?vid=ab85e099-f6b8-463e-bd20-6ab65dba475b","ios":"levelo://app?vid=ab85e099-f6b8-463e-bd20-6ab65dba475b"},"vehicle_type_id":"4","last_reported":1774158299,"current_range_meters":8400,"station_id":"st_d6sm7csbq4hs73f8fpjg","pricing_plan_id":"cebpf4jnsgd1na2vs0mg"},{"bike_id":"348b028b-7113-4df9-8c29-432c15b7b280","system_id":"levelo_inurba_marseille","lat":43.23964,"lon":5.36616,"is_reserved":false,"is_disabled":true,"rental_uris":{"android":"levelo://app?vid=348b028b-7113-4df9-8c29-432c15b7b280","ios":"levelo://app?vid=348b028b-7113-4df9-8c29-432c15b7b280"},"vehicle_type_id":"4","last_reported":1774158299,"current_range_meters":8400,"station_id":"ce4bhi12rcd13ifvqfp0","pricing_plan_id":"cebpf4jnsgd1na2vs0mg"},{"bike_id":"54493c86-a4ae-4109-bfc7-0b88e6e19cc7","system_id":"levelo_inurba_marseille","lat":43.2738,"lon":5.36237,"is_reserved":false,"is_disabled":true,"rental_uris":{"android":"levelo://app?vid=54493c86-a4ae-4109-bfc7-0b88e6e19cc7","ios":"levelo://app?vid=54493c86-a4ae-4109-bfc7-0b88e6e19cc7"},"vehicle_type_id":"4","last_reported":1774158299,"current_range_meters":8400,"station_id":"ce4bhbh2rcd13ifvqeo0","pricing_plan_id":"cebpf4jnsgd1na2vs0mg"},{"bike_id":"1182e6ca-0fa4-4bde-b010-4b71c852ea66","system_id":"levelo_inurba_marseille","lat":43.24168,"lon":5.36384,"is_reserved":false,"is_disabled":false,"rental_uris":{"android":"levelo://app?vid=1182e6ca-0fa4-4bde-b010-4b71c852ea66","ios":"levelo://app?vid=1182e6ca-0fa4-4bde-b010-4b71c852ea66"},"vehicle_type_id":"4","last_reported":1774158299,"current_range_meters":8400,"station_id":"cpo36qri1sfpv3e86is0","pricing_plan_id":"cebpf4jnsgd1na2vs0mg"},{"bike_id":"f7d6c650-f32c-4f32-9970-3fed07f42d78","system_id":"levelo_inurba_marseille","lat":43.2697,"lon":5.38479,"is_reserved":false,"is_disabled":false,"rental_uris":{"android":"levelo://app?vid=f7d6c650-f32c-4f32-9970-3fed07f42d78","ios":"levelo://app?vid=f7d6c650-f32c-4f32-9970-3fed07f42d78"},"vehicle_type_id":"4","last_reported":1774158299,"current_range_meters":8400,"station_id":"","pricing_plan_id":"cebpf4jnsgd1na2vs0mg"},{"bike_id":"1251245c-8245-4039-a13b-eaa939230dc3","system_id":"levelo_inurba_marseille","lat":43.24988,"lon":5.38925,"is_reserved":false,"is_disabled":false,"rental_uris":{"android":"levelo://app?vid=1251245c-8245-4039-a13b-eaa939230dc3","ios":"levelo://app?vid=1251245c-8245-4039-a13b-eaa939230dc3"},"vehicle_type_id":"4","last_reported":1774158299,"current_range_meters":8400,"station_id":"ce4bhgp2rcd13ifvqfd0","pricing_plan_id":"cebpf4jnsgd1na2vs0mg"},{"bike_id":"cc696a92-d35f-424c-9e4d-00cc096b60f0","system_id":"levelo_inurba_marseille","lat":43.24175,"lon":5.36395,"is_reserved":false,"is_disabled":false,"rental_uris":{"android":"levelo://app?vid=cc696a92-d35f-424c-9e4d-00cc096b60f0","ios":"levelo://app?vid=cc696a92-d35f-424c-9e4d-00cc096b60f0"},"vehicle_type_id":"4","last_reported":1774158299,"current_range_meters":8400,"station_id":"cpo36qri1sfpv3e86is0","pricing_plan_id":"cebpf4jnsgd1na2vs0mg"},{"bike_id":"b48db811-f2cf-46ea-aa62-4aa4fcd788b4","system_id":"levelo_inurba_marseille","lat":43.2989,"lon":5.43664,"is_reserved":false,"is_disabled":false,"rental_uris":{"android":"levelo://app?vid=b48db811-f2cf-46ea-aa62-4aa4fcd788b4","ios":"levelo://app?vid=b48db811-f2cf-46ea-aa62-4aa4fcd788b4"},"vehicle_type_id":"4","last_reported":1774158299,"current_range_meters":8400,"station_id":"ce4bhpp2rcd13ifvqhfg","pricing_plan_id":"cebpf4jnsgd1na2vs0mg"},{"bike_id":"2d6d7c2d-62c0-410b-9072-ede78196496b","system_id":"levelo_inurba_marseille","lat":43.29843,"lon":5.43996,"is_reserved":false,"is_disabled":false,"rental_uris":{"android":"levelo://app?vid=2d6d7c2d-62c0-410b-9072-ede78196496b","ios":"levelo://app?vid=2d6d7c2d-62c0-410b-9072-ede78196496b"},"vehicle_type_id":"4","last_reported":1774158299,"current_range_meters":8400,"station_id":"","pricing_plan_id":"cebpf4jnsgd1na2vs0mg"},{"bike_id":"8294aced-9d8f-401e-9e74-4555a1438aad","system_id":"levelo_inurba_marseille","lat":43.31569,"lon":5.44539,"is_reserved":false,"is_disabled":false,"rental_uris":{"android":"levelo://app?vid=8294aced-9d8f-401e-9e74-4555a1438aad","ios":"levelo://app?vid=8294aced-9d8f-401e-9e74-4555a1438aad"},"vehicle_type_id":"4","last_reported":1774158299,"current_range_meters":8400,"station_id":"","pricing_plan_id":"cebpf4jnsgd1na2vs0mg"},{"bike_id":"8401c78f-dd98-40d3-a78c-b44db4992f67","system_id":"levelo_inurba_marseille","lat":43.31261,"lon":5.37643,"is_reserved":false,"is_disabled":false,"rental_uris":{"android":"levelo://app?vid=8401c78f-dd98-40d3-a78c-b44db4992f67","ios":"levelo://app?vid=8401c78f-dd98-40d3-a78c-b44db4992f67"},"vehicle_type_id":"4","last_reported":1774158299,"current_range_meters":8400,"station_id":"","pricing_plan_id":"cebpf4jnsgd1na2vs0mg"},{"bike_id":"4be772b0-70fb-4565-a7a2-840a9845edba","system_id":"levelo_inurba_marseille","lat":43.32583,"lon":5.37503,"is_reserved":false,"is_disabled":false,"rental_uris":{"android":"levelo://app?vid=4be772b0-70fb-4565-a7a2-840a9845edba","ios":"levelo://app?vid=4be772b0-70fb-4565-a7a2-840a9845edba"},"vehicle_type_id":"4","last_reported":1774158299,"current_range_meters":8400,"station_id":"","pricing_plan_id":"cebpf4jnsgd1na2vs0mg"},{"bike_id":"b41ba9fd-1286-49b2-bb79-3ecc772ffeae","system_id":"levelo_inurba_marseille","lat":43.32105,"lon":5.36737,"is_reserved":false,"is_disabled":false,"rental_uris":{"android":"levelo://app?vid=b41ba9fd-1286-49b2-bb79-3ecc772ffeae","ios":"levelo://app?vid=b41ba9fd-1286-49b2-bb79-3ecc772ffeae"},"vehicle_type_id":"4","last_reported":1774158299,"current_range_meters":8400,"station_id":"ce4bhrh2rcd13ifvqhug","pricing_plan_id":"cebpf4jnsgd1na2vs0mg"},{"bike_id":"0690b325-fe50-4fa6-b670-6614fb386746","system_id":"levelo_inurba_marseille","lat":43.28586,"lon":5.39951,"is_reserved":false,"is_disabled":false,"rental_uris":{"android":"levelo://app?vid=0690b325-fe50-4fa6-b670-6614fb386746","ios":"levelo://app?vid=0690b325-fe50-4fa6-b670-6614fb386746"},"vehicle_type_id":"4","last_reported":1774158299,"current_range_meters":8400,"station_id":"st_d4a7ka997mjs738ck50g","pricing_plan_id":"cebpf4jnsgd1na2vs0mg"},{"bike_id":"4dbcbb21-40ca-4c05-9c4d-91c43c42066a","system_id":"levelo_inurba_marseille","lat":43.26914,"lon":5.42052,"is_reserved":false,"is_disabled":false,"rental_uris":{"android":"levelo://app?vid=4dbcbb21-40ca-4c05-9c4d-91c43c42066a","ios":"levelo://app?vid=4dbcbb21-40ca-4c05-9c4d-91c43c42066a"},"vehicle_type_id":"4","last_reported":1774158299,"current_range_meters":8400,"station_id":"","pricing_plan_id":"cebpf4jnsgd1na2vs0mg"},{"bike_id":"d92fac84-f7c6-4576-83d3-9b7f9122cf30","system_id":"levelo_inurba_marseille","lat":43.24467,"lon":5.42541,"is_reserved":false,"is_disabled":false,"rental_uris":{"android":"levelo://app?vid=d92fac84-f7c6-4576-83d3-9b7f9122cf30","ios":"levelo://app?vid=d92fac84-f7c6-4576-83d3-9b7f9122cf30"},"vehicle_type_id":"4","last_reported":1774158299,"current_range_meters":8400,"station_id":"st_d4a3vfp97mjs738cd8kg","pricing_plan_id":"cebpf4jnsgd1na2vs0mg"},{"bike_id":"ecfaeba0-eb3e-4890-8290-078f45c79c6a","system_id":"levelo_inurba_marseille","lat":43.29744,"lon":5.364,"is_reserved":false,"is_disabled":false,"rental_uris":{"android":"levelo://app?vid=ecfaeba0-eb3e-4890-8290-078f45c79c6a","ios":"levelo://app?vid=ecfaeba0-eb3e-4890-8290-078f45c79c6a"},"vehicle_type_id":"4","last_reported":1774158299,"current_range_meters":8400,"station_id":"","pricing_plan_id":"cebpf4jnsgd1na2vs0mg"},{"bike_id":"76e3202f-50fd-4567-8d90-9ecb0c2a894c","system_id":"levelo_inurba_marseille","lat":43.3011,"lon":5.43117,"is_reserved":false,"is_disabled":false,"rental_uris":{"android":"levelo://app?vid=76e3202f-50fd-4567-8d90-9ecb0c2a894c","ios":"levelo://app?vid=76e3202f-50fd-4567-8d90-9ecb0c2a894c"},"vehicle_type_id":"4","last_reported":1774158299,"current_range_meters":8400,"station_id":"st_d3js3co5814s73ftftug","pricing_plan_id":"cebpf4jnsgd1na2vs0mg"},{"bike_id":"76b26924-278b-4413-bc71-94244ae001aa","system_id":"levelo_inurba_marseille","lat":43.3172,"lon":5.40467,"is_reserved":false,"is_disabled":false,"rental_uris":{"android":"levelo://app?vid=76b26924-278b-4413-bc71-94244ae001aa","ios":"levelo://app?vid=76b26924-278b-4413-bc71-94244ae001aa"},"vehicle_type_id":"4","last_reported":1774158299,"current_range_meters":8800,"station_id":"ce4bh012rcd13ifvqd00","pricing_plan_id":"cebpf4jnsgd1na2vs0mg"},{"bike_id":"73a3b26e-3a6d-4e68-b7f8-014d26b23e9a","system_id":"levelo_inurba_marseille","lat":43.31038,"lon":5.37901,"is_reserved":false,"is_disabled":false,"rental_uris":{"android":"levelo://app?vid=73a3b26e-3a6d-4e68-b7f8-014d26b23e9a","ios":"levelo://app?vid=73a3b26e-3a6d-4e68-b7f8-014d26b23e9a"},"vehicle_type_id":"4","last_reported":1774158299,"current_range_meters":8800,"station_id":"","pricing_plan_id":"cebpf4jnsgd1na2vs0mg"},{"bike_id":"b8282293-9e5d-44c0-961a-c4ad312c5b39","system_id":"levelo_inurba_marseille","lat":43.28463,"lon":5.48405,"is_reserved":false,"is_disabled":false,"rental_uris":{"android":"levelo://app?vid=b8282293-9e5d-44c0-961a-c4ad312c5b39","ios":"levelo://app?vid=b8282293-9e5d-44c0-961a-c4ad312c5b39"},"vehicle_type_id":"4","last_reported":1774158299,"current_range_meters":8800,"station_id":"st_d3svhcjqgbts73a3dn0g","pricing_plan_id":"cebpf4jnsgd1na2vs0mg"},{"bike_id":"c053b868-c2ee-4f2d-a9a7-293c7c11f502","system_id":"levelo_inurba_marseille","lat":43.31338,"lon":5.39696,"is_reserved":false,"is_disabled":false,"rental_uris":{"android":"levelo://app?vid=c053b868-c2ee-4f2d-a9a7-293c7c11f502","ios":"levelo://app?vid=c053b868-c2ee-4f2d-a9a7-293c7c11f502"},"vehicle_type_id":"4","last_reported":1774158299,"current_range_meters":8800,"station_id":"ce4bgvp2rcd13ifvqcu0","pricing_plan_id":"cebpf4jnsgd1na2vs0mg"},{"bike_id":"bb014a77-b4dd-49b3-80b4-21c6e7b2c2fe","system_id":"levelo_inurba_marseille","lat":43.27321,"lon":5.39088,"is_reserved":false,"is_disabled":true,"rental_uris":{"android":"levelo://app?vid=bb014a77-b4dd-49b3-80b4-21c6e7b2c2fe","ios":"levelo://app?vid=bb014a77-b4dd-49b3-80b4-21c6e7b2c2fe"},"vehicle_type_id":"4","last_reported":1774158299,"current_range_meters":8800,"station_id":"ce4bhgp2rcd13ifvqfe0","pricing_plan_id":"cebpf4jnsgd1na2vs0mg"},{"bike_id":"f26513af-706d-43cc-956c-9102569421f3","system_id":"levelo_inurba_marseille","lat":43.24643,"lon":5.39288,"is_reserved":false,"is_disabled":false,"rental_uris":{"android":"levelo://app?vid=f26513af-706d-43cc-956c-9102569421f3","ios":"levelo://app?vid=f26513af-706d-43cc-956c-9102569421f3"},"vehicle_type_id":"4","last_reported":1774158299,"current_range_meters":8800,"station_id":"","pricing_plan_id":"cebpf4jnsgd1na2vs0mg"},{"bike_id":"727a7cec-c0a4-42ee-b13e-1092ce84e6ac","system_id":"levelo_inurba_marseille","lat":43.25472,"lon":5.37612,"is_reserved":false,"is_disabled":true,"rental_uris":{"android":"levelo://app?vid=727a7cec-c0a4-42ee-b13e-1092ce84e6ac","ios":"levelo://app?vid=727a7cec-c0a4-42ee-b13e-1092ce84e6ac"},"vehicle_type_id":"4","last_reported":1774158299,"current_range_meters":8800,"station_id":"ce4bhh12rcd13ifvqff0","pricing_plan_id":"cebpf4jnsgd1na2vs0mg"},{"bike_id":"8ea47c96-5028-4ab9-bf42-7d772a67604e","system_id":"levelo_inurba_marseille","lat":43.31071,"lon":5.37163,"is_reserved":false,"is_disabled":false,"rental_uris":{"android":"levelo://app?vid=8ea47c96-5028-4ab9-bf42-7d772a67604e","ios":"levelo://app?vid=8ea47c96-5028-4ab9-bf42-7d772a67604e"},"vehicle_type_id":"4","last_reported":1774158299,"current_range_meters":8800,"station_id":"st_d4kl2rp97mjs73e7tdfg","pricing_plan_id":"cebpf4jnsgd1na2vs0mg"},{"bike_id":"014b2c60-e51a-453d-9790-b7677e44e2bc","system_id":"levelo_inurba_marseille","lat":43.28552,"lon":5.44119,"is_reserved":false,"is_disabled":false,"rental_uris":{"android":"levelo://app?vid=014b2c60-e51a-453d-9790-b7677e44e2bc","ios":"levelo://app?vid=014b2c60-e51a-453d-9790-b7677e44e2bc"},"vehicle_type_id":"4","last_reported":1774158299,"current_range_meters":8800,"station_id":"st_d3j3df2ikq2c7380ej80","pricing_plan_id":"cebpf4jnsgd1na2vs0mg"},{"bike_id":"c8bce134-97c4-4426-b939-85d1b3b365e4","system_id":"levelo_inurba_marseille","lat":43.2928,"lon":5.40879,"is_reserved":false,"is_disabled":false,"rental_uris":{"android":"levelo://app?vid=c8bce134-97c4-4426-b939-85d1b3b365e4","ios":"levelo://app?vid=c8bce134-97c4-4426-b939-85d1b3b365e4"},"vehicle_type_id":"4","last_reported":1774158299,"current_range_meters":8800,"station_id":"ce4bh192rcd13ifvqdc0","pricing_plan_id":"cebpf4jnsgd1na2vs0mg"},{"bike_id":"8134f6aa-938c-4d37-bb98-fe39b6e1811c","system_id":"levelo_inurba_marseille","lat":43.29247,"lon":5.40909,"is_reserved":false,"is_disabled":false,"rental_uris":{"android":"levelo://app?vid=8134f6aa-938c-4d37-bb98-fe39b6e1811c","ios":"levelo://app?vid=8134f6aa-938c-4d37-bb98-fe39b6e1811c"},"vehicle_type_id":"4","last_reported":1774158299,"current_range_meters":8800,"station_id":"ce4bh192rcd13ifvqdc0","pricing_plan_id":"cebpf4jnsgd1na2vs0mg"},{"bike_id":"4191f2f6-8301-4e11-ac66-a1152f793cca","system_id":"levelo_inurba_marseille","lat":43.31164,"lon":5.38747,"is_reserved":false,"is_disabled":false,"rental_uris":{"android":"levelo://app?vid=4191f2f6-8301-4e11-ac66-a1152f793cca","ios":"levelo://app?vid=4191f2f6-8301-4e11-ac66-a1152f793cca"},"vehicle_type_id":"4","last_reported":1774158299,"current_range_meters":8800,"station_id":"ce4bgv12rcd13ifvqcp0","pricing_plan_id":"cebpf4jnsgd1na2vs0mg"},{"bike_id":"1d3ccbe4-172b-4420-8816-e91033e4424e","system_id":"levelo_inurba_marseille","lat":43.27957,"lon":5.38722,"is_reserved":false,"is_disabled":false,"rental_uris":{"android":"levelo://app?vid=1d3ccbe4-172b-4420-8816-e91033e4424e","ios":"levelo://app?vid=1d3ccbe4-172b-4420-8816-e91033e4424e"},"vehicle_type_id":"4","last_reported":1774158299,"current_range_meters":9200,"station_id":"ce4bhg12rcd13ifvqf80","pricing_plan_id":"cebpf4jnsgd1na2vs0mg"},{"bike_id":"0955d8c3-9038-4ae4-9344-2ae0f75ca95c","system_id":"levelo_inurba_marseille","lat":43.24177,"lon":5.39732,"is_reserved":false,"is_disabled":false,"rental_uris":{"android":"levelo://app?vid=0955d8c3-9038-4ae4-9344-2ae0f75ca95c","ios":"levelo://app?vid=0955d8c3-9038-4ae4-9344-2ae0f75ca95c"},"vehicle_type_id":"4","last_reported":1774158299,"current_range_meters":9200,"station_id":"ce4bhn12rcd13ifvqgpg","pricing_plan_id":"cebpf4jnsgd1na2vs0mg"},{"bike_id":"e01229cc-485a-494e-bf79-14cb4a082f19","system_id":"levelo_inurba_marseille","lat":43.28354,"lon":5.38642,"is_reserved":false,"is_disabled":false,"rental_uris":{"android":"levelo://app?vid=e01229cc-485a-494e-bf79-14cb4a082f19","ios":"levelo://app?vid=e01229cc-485a-494e-bf79-14cb4a082f19"},"vehicle_type_id":"4","last_reported":1774158299,"current_range_meters":9200,"station_id":"ce4bh492rcd13ifvqdvg","pricing_plan_id":"cebpf4jnsgd1na2vs0mg"},{"bike_id":"f31af7da-bcce-4b34-9ba7-f01b9da1af25","system_id":"levelo_inurba_marseille","lat":43.24634,"lon":5.43495,"is_reserved":false,"is_disabled":true,"rental_uris":{"android":"levelo://app?vid=f31af7da-bcce-4b34-9ba7-f01b9da1af25","ios":"levelo://app?vid=f31af7da-bcce-4b34-9ba7-f01b9da1af25"},"vehicle_type_id":"4","last_reported":1774158299,"current_range_meters":9200,"station_id":"","pricing_plan_id":"cebpf4jnsgd1na2vs0mg"},{"bike_id":"c69d48c5-1fb1-4e25-8131-15d295e521fa","system_id":"levelo_inurba_marseille","lat":43.29074,"lon":5.37157,"is_reserved":false,"is_disabled":false,"rental_uris":{"android":"levelo://app?vid=c69d48c5-1fb1-4e25-8131-15d295e521fa","ios":"levelo://app?vid=c69d48c5-1fb1-4e25-8131-15d295e521fa"},"vehicle_type_id":"4","last_reported":1774158299,"current_range_meters":9200,"station_id":"ce4bh5p2rcd13ifvqe4g","pricing_plan_id":"cebpf4jnsgd1na2vs0mg"},{"bike_id":"59f675c7-3300-4b5c-9b6c-736612a162ac","system_id":"levelo_inurba_marseille","lat":43.3135,"lon":5.397,"is_reserved":false,"is_disabled":false,"rental_uris":{"android":"levelo://app?vid=59f675c7-3300-4b5c-9b6c-736612a162ac","ios":"levelo://app?vid=59f675c7-3300-4b5c-9b6c-736612a162ac"},"vehicle_type_id":"4","last_reported":1774158299,"current_range_meters":9200,"station_id":"ce4bgvp2rcd13ifvqcu0","pricing_plan_id":"cebpf4jnsgd1na2vs0mg"},{"bike_id":"be0bd703-edcf-469f-aea6-ef8d4bd6f6fc","system_id":"levelo_inurba_marseille","lat":43.23904,"lon":5.37442,"is_reserved":false,"is_disabled":false,"rental_uris":{"android":"levelo://app?vid=be0bd703-edcf-469f-aea6-ef8d4bd6f6fc","ios":"levelo://app?vid=be0bd703-edcf-469f-aea6-ef8d4bd6f6fc"},"vehicle_type_id":"4","last_reported":1774158299,"current_range_meters":9200,"station_id":"st_d6sm7csbq4hs73f8fpjg","pricing_plan_id":"cebpf4jnsgd1na2vs0mg"},{"bike_id":"3e617a73-7d2a-4bcc-bd8b-c8e14a46adc1","system_id":"levelo_inurba_marseille","lat":43.31064,"lon":5.37795,"is_reserved":false,"is_disabled":false,"rental_uris":{"android":"levelo://app?vid=3e617a73-7d2a-4bcc-bd8b-c8e14a46adc1","ios":"levelo://app?vid=3e617a73-7d2a-4bcc-bd8b-c8e14a46adc1"},"vehicle_type_id":"4","last_reported":1774158299,"current_range_meters":9200,"station_id":"ce4bgt92rcd13ifvqcg0","pricing_plan_id":"cebpf4jnsgd1na2vs0mg"},{"bike_id":"4231e657-f9f1-445a-8a2c-0ab1eabe9f5e","system_id":"levelo_inurba_marseille","lat":43.24372,"lon":5.37083,"is_reserved":false,"is_disabled":false,"rental_uris":{"android":"levelo://app?vid=4231e657-f9f1-445a-8a2c-0ab1eabe9f5e","ios":"levelo://app?vid=4231e657-f9f1-445a-8a2c-0ab1eabe9f5e"},"vehicle_type_id":"4","last_reported":1774158299,"current_range_meters":9200,"station_id":"ce4bhhh2rcd13ifvqfk0","pricing_plan_id":"cebpf4jnsgd1na2vs0mg"},{"bike_id":"0dc294e0-1f73-46fa-89e8-0f67671a83c2","system_id":"levelo_inurba_marseille","lat":43.29161,"lon":5.37134,"is_reserved":false,"is_disabled":true,"rental_uris":{"android":"levelo://app?vid=0dc294e0-1f73-46fa-89e8-0f67671a83c2","ios":"levelo://app?vid=0dc294e0-1f73-46fa-89e8-0f67671a83c2"},"vehicle_type_id":"4","last_reported":1774158299,"current_range_meters":9200,"station_id":"ce4bha92rcd13ifvqeh0","pricing_plan_id":"cebpf4jnsgd1na2vs0mg"},{"bike_id":"cf960eae-b383-41a4-a5f7-d4e246ad8ace","system_id":"levelo_inurba_marseille","lat":43.3057,"lon":5.37232,"is_reserved":false,"is_disabled":false,"rental_uris":{"android":"levelo://app?vid=cf960eae-b383-41a4-a5f7-d4e246ad8ace","ios":"levelo://app?vid=cf960eae-b383-41a4-a5f7-d4e246ad8ace"},"vehicle_type_id":"4","last_reported":1774158299,"current_range_meters":9200,"station_id":"ce4bgqh2rcd13ifvqc4g","pricing_plan_id":"cebpf4jnsgd1na2vs0mg"},{"bike_id":"d44fc0f0-2395-409c-91f8-8400fdd2e50e","system_id":"levelo_inurba_marseille","lat":43.30875,"lon":5.39655,"is_reserved":false,"is_disabled":false,"rental_uris":{"android":"levelo://app?vid=d44fc0f0-2395-409c-91f8-8400fdd2e50e","ios":"levelo://app?vid=d44fc0f0-2395-409c-91f8-8400fdd2e50e"},"vehicle_type_id":"4","last_reported":1774158299,"current_range_meters":9600,"station_id":"ce4bh012rcd13ifvqcv0","pricing_plan_id":"cebpf4jnsgd1na2vs0mg"},{"bike_id":"a372ad3c-ff60-4bc7-b820-28897cbec0bf","system_id":"levelo_inurba_marseille","lat":43.30118,"lon":5.38109,"is_reserved":false,"is_disabled":false,"rental_uris":{"android":"levelo://app?vid=a372ad3c-ff60-4bc7-b820-28897cbec0bf","ios":"levelo://app?vid=a372ad3c-ff60-4bc7-b820-28897cbec0bf"},"vehicle_type_id":"4","last_reported":1774158299,"current_range_meters":9600,"station_id":"ce4bgjp2rcd13ifvqbh0","pricing_plan_id":"cebpf4jnsgd1na2vs0mg"},{"bike_id":"d928d6a0-ac04-4448-bd38-9d352511fe30","system_id":"levelo_inurba_marseille","lat":43.25336,"lon":5.42168,"is_reserved":false,"is_disabled":false,"rental_uris":{"android":"levelo://app?vid=d928d6a0-ac04-4448-bd38-9d352511fe30","ios":"levelo://app?vid=d928d6a0-ac04-4448-bd38-9d352511fe30"},"vehicle_type_id":"4","last_reported":1774158299,"current_range_meters":9600,"station_id":"st_d2m65c5bi1j21697t3ng","pricing_plan_id":"cebpf4jnsgd1na2vs0mg"},{"bike_id":"62720dbe-285e-4d87-b724-c2f8f89cabe9","system_id":"levelo_inurba_marseille","lat":43.2849,"lon":5.38408,"is_reserved":false,"is_disabled":false,"rental_uris":{"android":"levelo://app?vid=62720dbe-285e-4d87-b724-c2f8f89cabe9","ios":"levelo://app?vid=62720dbe-285e-4d87-b724-c2f8f89cabe9"},"vehicle_type_id":"4","last_reported":1774158299,"current_range_meters":9600,"station_id":"ce4bh512rcd13ifvqe3g","pricing_plan_id":"cebpf4jnsgd1na2vs0mg"},{"bike_id":"f10997a7-599b-4a82-be79-5c369e7a5732","system_id":"levelo_inurba_marseille","lat":43.2926,"lon":5.40918,"is_reserved":false,"is_disabled":false,"rental_uris":{"android":"levelo://app?vid=f10997a7-599b-4a82-be79-5c369e7a5732","ios":"levelo://app?vid=f10997a7-599b-4a82-be79-5c369e7a5732"},"vehicle_type_id":"4","last_reported":1774158299,"current_range_meters":9600,"station_id":"ce4bh192rcd13ifvqdc0","pricing_plan_id":"cebpf4jnsgd1na2vs0mg"},{"bike_id":"5135b388-2c36-4537-be3f-d4aaec9eb489","system_id":"levelo_inurba_marseille","lat":43.32049,"lon":5.41576,"is_reserved":false,"is_disabled":true,"rental_uris":{"android":"levelo://app?vid=5135b388-2c36-4537-be3f-d4aaec9eb489","ios":"levelo://app?vid=5135b388-2c36-4537-be3f-d4aaec9eb489"},"vehicle_type_id":"4","last_reported":1774158299,"current_range_meters":9600,"station_id":"ce4bhq92rcd13ifvqhkg","pricing_plan_id":"cebpf4jnsgd1na2vs0mg"},{"bike_id":"8fe420e0-6dec-41b2-9eea-e30417641a3b","system_id":"levelo_inurba_marseille","lat":43.23343,"lon":5.41367,"is_reserved":false,"is_disabled":false,"rental_uris":{"android":"levelo://app?vid=8fe420e0-6dec-41b2-9eea-e30417641a3b","ios":"levelo://app?vid=8fe420e0-6dec-41b2-9eea-e30417641a3b"},"vehicle_type_id":"4","last_reported":1774158299,"current_range_meters":9600,"station_id":"","pricing_plan_id":"cebpf4jnsgd1na2vs0mg"},{"bike_id":"be27c081-d6c0-4feb-a587-965600a5f4f7","system_id":"levelo_inurba_marseille","lat":43.26368,"lon":5.41004,"is_reserved":false,"is_disabled":false,"rental_uris":{"android":"levelo://app?vid=be27c081-d6c0-4feb-a587-965600a5f4f7","ios":"levelo://app?vid=be27c081-d6c0-4feb-a587-965600a5f4f7"},"vehicle_type_id":"4","last_reported":1774158299,"current_range_meters":9600,"station_id":"st_d4e5ca6na9uc73bfl5fg","pricing_plan_id":"cebpf4jnsgd1na2vs0mg"},{"bike_id":"8dc63df6-ba4b-4a2c-b318-b22d273f6fbc","system_id":"levelo_inurba_marseille","lat":43.30313,"lon":5.39206,"is_reserved":false,"is_disabled":false,"rental_uris":{"android":"levelo://app?vid=8dc63df6-ba4b-4a2c-b318-b22d273f6fbc","ios":"levelo://app?vid=8dc63df6-ba4b-4a2c-b318-b22d273f6fbc"},"vehicle_type_id":"4","last_reported":1774158299,"current_range_meters":9600,"station_id":"ce4bgkh2rcd13ifvqbk0","pricing_plan_id":"cebpf4jnsgd1na2vs0mg"},{"bike_id":"63dd2998-89b2-41f5-9af0-8f2775e251ab","system_id":"levelo_inurba_marseille","lat":43.23904,"lon":5.37417,"is_reserved":false,"is_disabled":false,"rental_uris":{"android":"levelo://app?vid=63dd2998-89b2-41f5-9af0-8f2775e251ab","ios":"levelo://app?vid=63dd2998-89b2-41f5-9af0-8f2775e251ab"},"vehicle_type_id":"4","last_reported":1774158299,"current_range_meters":9600,"station_id":"st_d6sm7csbq4hs73f8fpjg","pricing_plan_id":"cebpf4jnsgd1na2vs0mg"},{"bike_id":"3a5ba4a4-1cd4-45b4-a774-5fec89f7240f","system_id":"levelo_inurba_marseille","lat":43.28471,"lon":5.48408,"is_reserved":false,"is_disabled":false,"rental_uris":{"android":"levelo://app?vid=3a5ba4a4-1cd4-45b4-a774-5fec89f7240f","ios":"levelo://app?vid=3a5ba4a4-1cd4-45b4-a774-5fec89f7240f"},"vehicle_type_id":"4","last_reported":1774158299,"current_range_meters":9600,"station_id":"st_d3svhcjqgbts73a3dn0g","pricing_plan_id":"cebpf4jnsgd1na2vs0mg"},{"bike_id":"e29fa5ae-14c6-4a72-a28a-f5d7dff9bf28","system_id":"levelo_inurba_marseille","lat":43.32982,"lon":5.36653,"is_reserved":false,"is_disabled":false,"rental_uris":{"android":"levelo://app?vid=e29fa5ae-14c6-4a72-a28a-f5d7dff9bf28","ios":"levelo://app?vid=e29fa5ae-14c6-4a72-a28a-f5d7dff9bf28"},"vehicle_type_id":"4","last_reported":1774158299,"current_range_meters":9600,"station_id":"","pricing_plan_id":"cebpf4jnsgd1na2vs0mg"},{"bike_id":"cc777a7e-f3d4-4026-819d-66c6f1a5d2b6","system_id":"levelo_inurba_marseille","lat":43.28896,"lon":5.43344,"is_reserved":false,"is_disabled":false,"rental_uris":{"android":"levelo://app?vid=cc777a7e-f3d4-4026-819d-66c6f1a5d2b6","ios":"levelo://app?vid=cc777a7e-f3d4-4026-819d-66c6f1a5d2b6"},"vehicle_type_id":"4","last_reported":1774158299,"current_range_meters":10000,"station_id":"","pricing_plan_id":"cebpf4jnsgd1na2vs0mg"},{"bike_id":"f78a220d-0c94-40e2-aaad-bf32cf057ac9","system_id":"levelo_inurba_marseille","lat":43.28526,"lon":5.44145,"is_reserved":false,"is_disabled":false,"rental_uris":{"android":"levelo://app?vid=f78a220d-0c94-40e2-aaad-bf32cf057ac9","ios":"levelo://app?vid=f78a220d-0c94-40e2-aaad-bf32cf057ac9"},"vehicle_type_id":"4","last_reported":1774158299,"current_range_meters":10000,"station_id":"st_d3j3df2ikq2c7380ej80","pricing_plan_id":"cebpf4jnsgd1na2vs0mg"},{"bike_id":"c4420246-b0aa-4f7f-b6f0-90f25ad97000","system_id":"levelo_inurba_marseille","lat":43.30789,"lon":5.38182,"is_reserved":false,"is_disabled":false,"rental_uris":{"android":"levelo://app?vid=c4420246-b0aa-4f7f-b6f0-90f25ad97000","ios":"levelo://app?vid=c4420246-b0aa-4f7f-b6f0-90f25ad97000"},"vehicle_type_id":"4","last_reported":1774158299,"current_range_meters":10000,"station_id":"ce4bgt12rcd13ifvqce0","pricing_plan_id":"cebpf4jnsgd1na2vs0mg"},{"bike_id":"a1614e97-0fde-4b88-a19f-d517decb1f27","system_id":"levelo_inurba_marseille","lat":43.3213,"lon":5.36791,"is_reserved":false,"is_disabled":false,"rental_uris":{"android":"levelo://app?vid=a1614e97-0fde-4b88-a19f-d517decb1f27","ios":"levelo://app?vid=a1614e97-0fde-4b88-a19f-d517decb1f27"},"vehicle_type_id":"4","last_reported":1774158299,"current_range_meters":10000,"station_id":"ce4bhrh2rcd13ifvqhug","pricing_plan_id":"cebpf4jnsgd1na2vs0mg"},{"bike_id":"8277d11f-2cbc-410a-a7ff-bb58423a5509","system_id":"levelo_inurba_marseille","lat":43.28346,"lon":5.38131,"is_reserved":false,"is_disabled":false,"rental_uris":{"android":"levelo://app?vid=8277d11f-2cbc-410a-a7ff-bb58423a5509","ios":"levelo://app?vid=8277d11f-2cbc-410a-a7ff-bb58423a5509"},"vehicle_type_id":"4","last_reported":1774158299,"current_range_meters":10000,"station_id":"ce4bh412rcd13ifvqdr0","pricing_plan_id":"cebpf4jnsgd1na2vs0mg"},{"bike_id":"0273712f-17e9-48aa-9e69-0ac0ce214834","system_id":"levelo_inurba_marseille","lat":43.2533,"lon":5.42149,"is_reserved":false,"is_disabled":false,"rental_uris":{"android":"levelo://app?vid=0273712f-17e9-48aa-9e69-0ac0ce214834","ios":"levelo://app?vid=0273712f-17e9-48aa-9e69-0ac0ce214834"},"vehicle_type_id":"4","last_reported":1774158299,"current_range_meters":10000,"station_id":"st_d2m65c5bi1j21697t3ng","pricing_plan_id":"cebpf4jnsgd1na2vs0mg"},{"bike_id":"f7aedbd1-1df1-4b1a-aef5-7cb9a05c14ec","system_id":"levelo_inurba_marseille","lat":43.28696,"lon":5.39998,"is_reserved":false,"is_disabled":false,"rental_uris":{"android":"levelo://app?vid=f7aedbd1-1df1-4b1a-aef5-7cb9a05c14ec","ios":"levelo://app?vid=f7aedbd1-1df1-4b1a-aef5-7cb9a05c14ec"},"vehicle_type_id":"4","last_reported":1774158299,"current_range_meters":10000,"station_id":"ce4bho92rcd13ifvqh3g","pricing_plan_id":"cebpf4jnsgd1na2vs0mg"},{"bike_id":"b3a01e08-d6e3-42c8-92ba-e15566b55c57","system_id":"levelo_inurba_marseille","lat":43.25968,"lon":5.40802,"is_reserved":false,"is_disabled":true,"rental_uris":{"android":"levelo://app?vid=b3a01e08-d6e3-42c8-92ba-e15566b55c57","ios":"levelo://app?vid=b3a01e08-d6e3-42c8-92ba-e15566b55c57"},"vehicle_type_id":"4","last_reported":1774158299,"current_range_meters":10000,"station_id":"ce4bhm92rcd13ifvqglg","pricing_plan_id":"cebpf4jnsgd1na2vs0mg"},{"bike_id":"ebde9368-c67c-463e-a604-75f89826b908","system_id":"levelo_inurba_marseille","lat":43.29618,"lon":5.39824,"is_reserved":false,"is_disabled":false,"rental_uris":{"android":"levelo://app?vid=ebde9368-c67c-463e-a604-75f89826b908","ios":"levelo://app?vid=ebde9368-c67c-463e-a604-75f89826b908"},"vehicle_type_id":"4","last_reported":1774158299,"current_range_meters":10000,"station_id":"","pricing_plan_id":"cebpf4jnsgd1na2vs0mg"},{"bike_id":"cf2b5c97-ce5a-429d-a47d-e52be80a15ff","system_id":"levelo_inurba_marseille","lat":43.24681,"lon":5.40092,"is_reserved":false,"is_disabled":false,"rental_uris":{"android":"levelo://app?vid=cf2b5c97-ce5a-429d-a47d-e52be80a15ff","ios":"levelo://app?vid=cf2b5c97-ce5a-429d-a47d-e52be80a15ff"},"vehicle_type_id":"4","last_reported":1774158299,"current_range_meters":10000,"station_id":"","pricing_plan_id":"cebpf4jnsgd1na2vs0mg"},{"bike_id":"4696be1a-03ad-459b-acfa-2ea1b934be2f","system_id":"levelo_inurba_marseille","lat":43.29264,"lon":5.40896,"is_reserved":false,"is_disabled":false,"rental_uris":{"android":"levelo://app?vid=4696be1a-03ad-459b-acfa-2ea1b934be2f","ios":"levelo://app?vid=4696be1a-03ad-459b-acfa-2ea1b934be2f"},"vehicle_type_id":"4","last_reported":1774158299,"current_range_meters":10000,"station_id":"ce4bh192rcd13ifvqdc0","pricing_plan_id":"cebpf4jnsgd1na2vs0mg"},{"bike_id":"92dd9d77-4896-43b1-971c-28499a0b045d","system_id":"levelo_inurba_marseille","lat":43.28222,"lon":5.40822,"is_reserved":false,"is_disabled":false,"rental_uris":{"android":"levelo://app?vid=92dd9d77-4896-43b1-971c-28499a0b045d","ios":"levelo://app?vid=92dd9d77-4896-43b1-971c-28499a0b045d"},"vehicle_type_id":"4","last_reported":1774158299,"current_range_meters":10000,"station_id":"","pricing_plan_id":"cebpf4jnsgd1na2vs0mg"},{"bike_id":"c13a6b3c-c14e-4ecc-9460-c79bd6a0f398","system_id":"levelo_inurba_marseille","lat":43.29946,"lon":5.41329,"is_reserved":false,"is_disabled":false,"rental_uris":{"android":"levelo://app?vid=c13a6b3c-c14e-4ecc-9460-c79bd6a0f398","ios":"levelo://app?vid=c13a6b3c-c14e-4ecc-9460-c79bd6a0f398"},"vehicle_type_id":"4","last_reported":1774158299,"current_range_meters":10000,"station_id":"ce4bhp12rcd13ifvqh9g","pricing_plan_id":"cebpf4jnsgd1na2vs0mg"},{"bike_id":"7340281b-0e78-4306-8a96-2b0449ebe341","system_id":"levelo_inurba_marseille","lat":43.26567,"lon":5.39037,"is_reserved":false,"is_disabled":false,"rental_uris":{"android":"levelo://app?vid=7340281b-0e78-4306-8a96-2b0449ebe341","ios":"levelo://app?vid=7340281b-0e78-4306-8a96-2b0449ebe341"},"vehicle_type_id":"4","last_reported":1774158299,"current_range_meters":10000,"station_id":"ce4bhe12rcd13ifvqf30","pricing_plan_id":"cebpf4jnsgd1na2vs0mg"},{"bike_id":"b9141419-e833-445d-b4bc-3df0c1c6d105","system_id":"levelo_inurba_marseille","lat":43.2834,"lon":5.38117,"is_reserved":false,"is_disabled":false,"rental_uris":{"android":"levelo://app?vid=b9141419-e833-445d-b4bc-3df0c1c6d105","ios":"levelo://app?vid=b9141419-e833-445d-b4bc-3df0c1c6d105"},"vehicle_type_id":"4","last_reported":1774158299,"current_range_meters":10800,"station_id":"ce4bh412rcd13ifvqdr0","pricing_plan_id":"cebpf4jnsgd1na2vs0mg"},{"bike_id":"9bd3f79a-0719-4c3f-b3c7-8051544625c1","system_id":"levelo_inurba_marseille","lat":43.26602,"lon":5.39162,"is_reserved":false,"is_disabled":true,"rental_uris":{"android":"levelo://app?vid=9bd3f79a-0719-4c3f-b3c7-8051544625c1","ios":"levelo://app?vid=9bd3f79a-0719-4c3f-b3c7-8051544625c1"},"vehicle_type_id":"4","last_reported":1774158299,"current_range_meters":10800,"station_id":"","pricing_plan_id":"cebpf4jnsgd1na2vs0mg"},{"bike_id":"7fc84e7f-16e2-4d18-8d28-12bb10ae662a","system_id":"levelo_inurba_marseille","lat":43.31435,"lon":5.44554,"is_reserved":false,"is_disabled":false,"rental_uris":{"android":"levelo://app?vid=7fc84e7f-16e2-4d18-8d28-12bb10ae662a","ios":"levelo://app?vid=7fc84e7f-16e2-4d18-8d28-12bb10ae662a"},"vehicle_type_id":"4","last_reported":1774158299,"current_range_meters":10800,"station_id":"","pricing_plan_id":"cebpf4jnsgd1na2vs0mg"},