{"last_updated":1743700121,"ttl":60,"version":"2.2","data":{"bikes":[{"bike_id":"31cc1d5c-3bb4-4b68-a702-768f1af4cdd2","system_id":"levelo_inurba_marseille","lat":43.2842,"lon":5.37519,"is_reserved":false,"is_disabled":false,"rental_uris":{"android":"levelo://app?vid=31cc1d5c-3bb4-4b68-a702-768f1af4cdd2","ios":"levelo://app?vid=31cc1d5c-3bb4-4b68-a702-768f1af4cdd2"},"vehicle_type_id":"4","last_reported":1743700121,"current_range_meters":2800,"station_id":"ce4bh412rcd13ifvqds0","pricing_plan_id":"cebpf4jnsgd1na2vs0mg"},{"bike_id":"069ffe38-8f65-4a56-aac0-7aa8975dbb44","system_id":"levelo_inurba_marseille","lat":43.29913,"lon":5.37488,"is_reserved":false,"is_disabled":false,"rental_uris":{"android":"levelo://app?vid=069ffe38-8f65-4a56-aac0-7aa8975dbb44","ios":"levelo://app?vid=069ffe38-8f65-4a56-aac0-7aa8975dbb44"},"vehicle_type_id":"4","last_reported":1743700121,"current_range_meters":2800,"station_id":"ce4bgjh2rcd13ifvqbg0","pricing_plan_id":"cebpf4jnsgd1na2vs0mg"},{"bike_id":"47a850c9-0944-4d59-a71f-2c95ccca3652","system_id":"levelo_inurba_marseille","lat":43.27943,"lon":5.41049,"is_reserved":false,"is_disabled":false,"rental_uris":{"android":"levelo://app?vid=47a850c9-0944-4d59-a71f-2c95ccca3652","ios":"levelo://app?vid=47a850c9-0944-4d59-a71f-2c95ccca3652"},"vehicle_type_id":"4","last_reported":1743700121,"current_range_meters":2800,"station_id":"ce4bhnp2rcd13ifvqh0g","pricing_plan_id":"cebpf4jnsgd1na2vs0mg"},{"bike_id":"442b2378-584a-451d-8deb-4d911de3a673","system_id":"levelo_inurba_marseille","lat":43.23059,"lon":5.35497,"is_reserved":false,"is_disabled":false,"rental_uris":{"android":"levelo://app?vid=442b2378-584a-451d-8deb-4d911de3a673","ios":"levelo://app?vid=442b2378-584a-451d-8deb-4d911de3a673"},"vehicle_type_id":"4","last_reported":1743700121,"current_range_meters":2800,"station_id":"cpo3342slgdg3j2ifvpg","pricing_plan_id":"cebpf4jnsgd1na2vs0mg"},{"bike_id":"4435f31d-dea9-404b-8104-599d8116678c","system_id":"levelo_inurba_marseille","lat":43.31123,"lon":5.37778,"is_reserved":false,"is_disabled":false,"rental_uris":{"android":"levelo://app?vid=4435f31d-dea9-404b-8104-599d8116678c","ios":"levelo://app?vid=4435f31d-dea9-404b-8104-599d8116678c"},"vehicle_type_id":"4","last_reported":1743700121,"current_range_meters":2800,"station_id":"ce4bgt92rcd13ifvqcg0","pricing_plan_id":"cebpf4jnsgd1na2vs0mg"},{"bike_id":"b3413b6b-2844-4146-b51b-647866a07ef2","system_id":"levelo_inurba_marseille","lat":43.28615,"lon":5.3511,"is_reserved":false,"is_disabled":false,"rental_uris":{"android":"levelo://app?vid=b3413b6b-2844-4146-b51b-647866a07ef2","ios":"levelo://app?vid=b3413b6b-2844-4146-b51b-647866a07ef2"},"vehicle_type_id":"4","last_reported":1743700121,"current_range_meters":2800,"station_id":"ce4bhch2rcd13ifvqeug","pricing_plan_id":"cebpf4jnsgd1na2vs0mg"},{"bike_id":"42312546-def8-4793-8cce-a0a785f57e15","system_id":"levelo_inurba_marseille","lat":43.29029,"lon":5.38145,"is_reserved":false,"is_disabled":false,"rental_uris":{"android":"levelo://app?vid=42312546-def8-4793-8cce-a0a785f57e15","ios":"levelo://app?vid=42312546-def8-4793-8cce-a0a785f57e15"},"vehicle_type_id":"4","last_reported":1743700121,"current_range_meters":2800,"station_id":"ce4bh4p2rcd13ifvqe1g","pricing_plan_id":"cebpf4jnsgd1na2vs0mg"},{"bike_id":"01001cb6-8f26-4caf-a333-9a5d5c439d53","system_id":"levelo_inurba_marseille","lat":43.24661,"lon":5.38178,"is_reserved":false,"is_disabled":false,"rental_uris":{"android":"levelo://app?vid=01001cb6-8f26-4caf-a333-9a5d5c439d53","ios":"levelo://app?vid=01001cb6-8f26-4caf-a333-9a5d5c439d53"},"vehicle_type_id":"4","last_reported":1743700121,"current_range_meters":2800,"station_id":"ce4bhih2rcd13ifvqfr0","pricing_plan_id":"cebpf4jnsgd1na2vs0mg"},{"bike_id":"7ad3f8b0-2e0f-4baf-a844-06a8cdfd28b5","system_id":"levelo_inurba_marseille","lat":43.293703,"lon":5.378512,"is_reserved":false,"is_disabled":false,"rental_uris":{"android":"levelo://app?vid=7ad3f8b0-2e0f-4baf-a844-06a8cdfd28b5","ios":"levelo://app?vid=7ad3f8b0-2e0f-4baf-a844-06a8cdfd28b5"},"vehicle_type_id":"4","last_reported":1743700121,"current_range_meters":2800,"station_id":"ce4bgjh2rcd13ifvqbf0","pricing_plan_id":"cebpf4jnsgd1na2vs0mg"},{"bike_id":"4292e08f-1038-4dcc-99f5-04d78541de5a","system_id":"levelo_inurba_marseille","lat":43.25582,"lon":5.38233,"is_reserved":false,"is_disabled":false,"rental_uris":{"android":"levelo://app?vid=4292e08f-1038-4dcc-99f5-04d78541de5a","ios":"levelo://app?vid=4292e08f-1038-4dcc-99f5-04d78541de5a"},"vehicle_type_id":"4","last_reported":1743700121,"current_range_meters":3200,"station_id":"ce4bhih2rcd13ifvqfs0","pricing_plan_id":"cebpf4jnsgd1na2vs0mg"},{"bike_id":"49caa730-7b16-4a5a-aceb-ff88fe35beea","system_id":"levelo_inurba_marseille","lat":43.31712,"lon":5.40472,"is_reserved":false,"is_disabled":false,"rental_uris":{"android":"levelo://app?vid=49caa730-7b16-4a5a-aceb-ff88fe35beea","ios":"levelo://app?vid=49caa730-7b16-4a5a-aceb-ff88fe35beea"},"vehicle_type_id":"4","last_reported":1743700121,"current_range_meters":3200,"station_id":"ce4bh012rcd13ifvqd00","pricing_plan_id":"cebpf4jnsgd1na2vs0mg"},{"bike_id":"b4f7a398-397f-4d0a-ac59-0571e3c71433","system_id":"levelo_inurba_marseille","lat":43.28684,"lon":5.38663,"is_reserved":false,"is_disabled":false,"rental_uris":{"android":"levelo://app?vid=b4f7a398-397f-4d0a-ac59-0571e3c71433","ios":"levelo://app?vid=b4f7a398-397f-4d0a-ac59-0571e3c71433"},"vehicle_type_id":"4","last_reported":1743700121,"current_range_meters":3200,"station_id":"ce4bh492rcd13ifvqdug","pricing_plan_id":"cebpf4jnsgd1na2vs0mg"},{"bike_id":"6dd0b526-6746-4c72-9546-fd074df902fd","system_id":"levelo_inurba_marseille","lat":43.2294,"lon":5.35379,"is_reserved":false,"is_disabled":false,"rental_uris":{"android":"levelo://app?vid=6dd0b526-6746-4c72-9546-fd074df902fd","ios":"levelo://app?vid=6dd0b526-6746-4c72-9546-fd074df902fd"},"vehicle_type_id":"4","last_reported":1743700121,"current_range_meters":3200,"station_id":"cpo3532slgdg3j2ikp40","pricing_plan_id":"cebpf4jnsgd1na2vs0mg"},{"bike_id":"27c1a669-fc81-4b2e-a315-f250306bf664","system_id":"levelo_inurba_marseille","lat":43.23186,"lon":5.39982,"is_reserved":false,"is_disabled":false,"rental_uris":{"android":"levelo://app?vid=27c1a669-fc81-4b2e-a315-f250306bf664","ios":"levelo://app?vid=27c1a669-fc81-4b2e-a315-f250306bf664"},"vehicle_type_id":"4","last_reported":1743700121,"current_range_meters":3200,"station_id":"ce4bhn12rcd13ifvqgqg","pricing_plan_id":"cebpf4jnsgd1na2vs0mg"},{"bike_id":"98b9000e-9e01-4f7f-bfe1-be4f1522b23c","system_id":"levelo_inurba_marseille","lat":43.28421,"lon":5.34987,"is_reserved":false,"is_disabled":false,"rental_uris":{"android":"levelo://app?vid=98b9000e-9e01-4f7f-bfe1-be4f1522b23c","ios":"levelo://app?vid=98b9000e-9e01-4f7f-bfe1-be4f1522b23c"},"vehicle_type_id":"4","last_reported":1743700121,"current_range_meters":3200,"station_id":"ce4bhbh2rcd13ifvqepg","pricing_plan_id":"cebpf4jnsgd1na2vs0mg"},{"bike_id":"00fab94d-c281-4d4b-b9de-eb333d8ef4b3","system_id":"levelo_inurba_marseille","lat":43.25512,"lon":5.37636,"is_reserved":false,"is_disabled":false,"rental_uris":{"android":"levelo://app?vid=00fab94d-c281-4d4b-b9de-eb333d8ef4b3","ios":"levelo://app?vid=00fab94d-c281-4d4b-b9de-eb333d8ef4b3"},"vehicle_type_id":"4","last_reported":1743700121,"current_range_meters":3200,"station_id":"ce4bhh12rcd13ifvqff0","pricing_plan_id":"cebpf4jnsgd1na2vs0mg"},{"bike_id":"292c6ca8-6d92-461c-8855-055948737f70","system_id":"levelo_inurba_marseille","lat":43.28935,"lon":5.36631,"is_reserved":false,"is_disabled":false,"rental_uris":{"android":"levelo://app?vid=292c6ca8-6d92-461c-8855-055948737f70","ios":"levelo://app?vid=292c6ca8-6d92-461c-8855-055948737f70"},"vehicle_type_id":"4","last_reported":1743700121,"current_range_meters":3200,"station_id":"ce4bhap2rcd13ifvqek0","pricing_plan_id":"cebpf4jnsgd1na2vs0mg"},{"bike_id":"3364e4f5-1011-4d87-9ea6-6547a5333933","system_id":"levelo_inurba_marseille","lat":43.29578,"lon":5.3674,"is_reserved":false,"is_disabled":false,"rental_uris":{"android":"levelo://app?vid=3364e4f5-1011-4d87-9ea6-6547a5333933","ios":"levelo://app?vid=3364e4f5-1011-4d87-9ea6-6547a5333933"},"vehicle_type_id":"4","last_reported":1743700121,"current_range_meters":3200,"station_id":"ce4bgph2rcd13ifvqc2g","pricing_plan_id":"cebpf4jnsgd1na2vs0mg"},{"bike_id":"e6b69cd2-f965-4a12-9e02-6f28a269f9f9","system_id":"levelo_inurba_marseille","lat":43.23043,"lon":5.35481,"is_reserved":false,"is_disabled":true,"rental_uris":{"android":"levelo://app?vid=e6b69cd2-f965-4a12-9e02-6f28a269f9f9","ios":"levelo://app?vid=e6b69cd2-f965-4a12-9e02-6f28a269f9f9"},"vehicle_type_id":"4","last_reported":1743700121,"current_range_meters":3600,"station_id":"cpo3342slgdg3j2ifvpg","pricing_plan_id":"cebpf4jnsgd1na2vs0mg"},{"bike_id":"5e72c11e-ff09-4f4a-a29c-35d6cb2a809b","system_id":"levelo_inurba_marseille","lat":43.29011,"lon":5.35607,"is_reserved":false,"is_disabled":false,"rental_uris":{"android":"levelo://app?vid=5e72c11e-ff09-4f4a-a29c-35d6cb2a809b","ios":"levelo://app?vid=5e72c11e-ff09-4f4a-a29c-35d6cb2a809b"},"vehicle_type_id":"4","last_reported":1743700121,"current_range_meters":3600,"station_id":"ce4bhb92rcd13ifvqen0","pricing_plan_id":"cebpf4jnsgd1na2vs0mg"},{"bike_id":"f830c529-59f9-46db-9bf3-1f79166b2ea9","system_id":"levelo_inurba_marseille","lat":43.27615,"lon":5.36114,"is_reserved":false,"is_disabled":false,"rental_uris":{"android":"levelo://app?vid=f830c529-59f9-46db-9bf3-1f79166b2ea9","ios":"levelo://app?vid=f830c529-59f9-46db-9bf3-1f79166b2ea9"},"vehicle_type_id":"4","last_reported":1743700121,"current_range_meters":6400,"station_id":"ce4bgj92rcd13ifvqbe0","pricing_plan_id":"cebpf4jnsgd1na2vs0mg"},{"bike_id":"3e5329f3-c0cd-422c-afb1-2f46242590da","system_id":"levelo_inurba_marseille","lat":43.31929,"lon":5.37558,"is_reserved":false,"is_disabled":false,"rental_uris":{"android":"levelo://app?vid=3e5329f3-c0cd-422c-afb1-2f46242590da","ios":"levelo://app?vid=3e5329f3-c0cd-422c-afb1-2f46242590da"},"vehicle_type_id":"4","last_reported":1743700121,"current_range_meters":3600,"station_id":"","pricing_plan_id":"cebpf4jnsgd1na2vs0mg"},{"bike_id":"6bdf5fc0-bc3b-41c4-829c-67b2a09730ac","system_id":"levelo_inurba_marseille","lat":43.28419,"lon":5.34987,"is_reserved":false,"is_disabled":false,"rental_uris":{"android":"levelo://app?vid=6bdf5fc0-bc3b-41c4-829c-67b2a09730ac","ios":"levelo://app?vid=6bdf5fc0-bc3b-41c4-829c-67b2a09730ac"},"vehicle_type_id":"4","last_reported":1743700121,"current_range_meters":3600,"station_id":"ce4bhbh2rcd13ifvqepg","pricing_plan_id":"cebpf4jnsgd1na2vs0mg"},{"bike_id":"922b40ff-81d2-4eb5-b75d-a353fb4115c8","system_id":"levelo_inurba_marseille","lat":43.28269,"lon":5.35057,"is_reserved":false,"is_disabled":false,"rental_uris":{"android":"levelo://app?vid=922b40ff-81d2-4eb5-b75d-a353fb4115c8","ios":"levelo://app?vid=922b40ff-81d2-4eb5-b75d-a353fb4115c8"},"vehicle_type_id":"4","last_reported":1743700121,"current_range_meters":3600,"station_id":"ce4bhbp2rcd13ifvqerg","pricing_plan_id":"cebpf4jnsgd1na2vs0mg"},{"bike_id":"aa2b10d5-4698-48b0-aa9a-57d64ed5d087","system_id":"levelo_inurba_marseille","lat":43.29434,"lon":5.3863,"is_reserved":false,"is_disabled":false,"rental_uris":{"android":"levelo://app?vid=aa2b10d5-4698-48b0-aa9a-57d64ed5d087","ios":"levelo://app?vid=aa2b10d5-4698-48b0-aa9a-57d64ed5d087"},"vehicle_type_id":"4","last_reported":1743700121,"current_range_meters":3600,"station_id":"ce4bh2h2rcd13ifvqdh0","pricing_plan_id":"cebpf4jnsgd1na2vs0mg"},{"bike_id":"3fb25925-8851-4724-8c1a-238b348d9a04","system_id":"levelo_inurba_marseille","lat":43.24186,"lon":5.39714,"is_reserved":false,"is_disabled":false,"rental_uris":{"android":"levelo://app?vid=3fb25925-8851-4724-8c1a-238b348d9a04","ios":"levelo://app?vid=3fb25925-8851-4724-8c1a-238b348d9a04"},"vehicle_type_id":"4","last_reported":1743700121,"current_range_meters":4000,"station_id":"ce4bhn12rcd13ifvqgpg","pricing_plan_id":"cebpf4jnsgd1na2vs0mg"},{"bike_id":"d805dfe8-72e7-4da0-be2f-9254f2867267","system_id":"levelo_inurba_marseille","lat":43.269562,"lon":5.386259,"is_reserved":false,"is_disabled":false,"rental_uris":{"android":"levelo://app?vid=d805dfe8-72e7-4da0-be2f-9254f2867267","ios":"levelo://app?vid=d805dfe8-72e7-4da0-be2f-9254f2867267"},"vehicle_type_id":"4","last_reported":1743700121,"current_range_meters":4000,"station_id":"ce4bhh92rcd13ifvqfh0","pricing_plan_id":"cebpf4jnsgd1na2vs0mg"},{"bike_id":"74e7067b-7f20-4da5-849a-8b6c41a85ba1","system_id":"levelo_inurba_marseille","lat":43.30301,"lon":5.3922,"is_reserved":false,"is_disabled":false,"rental_uris":{"android":"levelo://app?vid=74e7067b-7f20-4da5-849a-8b6c41a85ba1","ios":"levelo://app?vid=74e7067b-7f20-4da5-849a-8b6c41a85ba1"},"vehicle_type_id":"4","last_reported":1743700121,"current_range_meters":4000,"station_id":"ce4bgkh2rcd13ifvqbk0","pricing_plan_id":"cebpf4jnsgd1na2vs0mg"},{"bike_id":"d157a8ac-f1ea-480a-a1ee-9ac00962bb01","system_id":"levelo_inurba_marseille","lat":43.29549,"lon":5.42302,"is_reserved":false,"is_disabled":false,"rental_uris":{"android":"levelo://app?vid=d157a8ac-f1ea-480a-a1ee-9ac00962bb01","ios":"levelo://app?vid=d157a8ac-f1ea-480a-a1ee-9ac00962bb01"},"vehicle_type_id":"4","last_reported":1743700121,"current_range_meters":4000,"station_id":"ce4bhph2rcd13ifvqhdg","pricing_plan_id":"cebpf4jnsgd1na2vs0mg"},{"bike_id":"cc1595d8-1293-4a99-bc79-91c9265e3682","system_id":"levelo_inurba_marseille","lat":43.278943,"lon":5.387989,"is_reserved":false,"is_disabled":false,"rental_uris":{"android":"levelo://app?vid=cc1595d8-1293-4a99-bc79-91c9265e3682","ios":"levelo://app?vid=cc1595d8-1293-4a99-bc79-91c9265e3682"},"vehicle_type_id":"4","last_reported":1743700121,"current_range_meters":4000,"station_id":"ce4bhjp2rcd13ifvqg90","pricing_plan_id":"cebpf4jnsgd1na2vs0mg"},{"bike_id":"48ccb7a8-8751-4c6a-a819-2491083adae6","system_id":"levelo_inurba_marseille","lat":43.3043,"lon":5.39743,"is_reserved":false,"is_disabled":false,"rental_uris":{"android":"levelo://app?vid=48ccb7a8-8751-4c6a-a819-2491083adae6","ios":"levelo://app?vid=48ccb7a8-8751-4c6a-a819-2491083adae6"},"vehicle_type_id":"4","last_reported":1743700121,"current_range_meters":4000,"station_id":"ce4bh092rcd13ifvqd20","pricing_plan_id":"cebpf4jnsgd1na2vs0mg"},{"bike_id":"e4915dab-8eb6-4bb4-9aad-4b74193738b1","system_id":"levelo_inurba_marseille","lat":43.290039,"lon":5.356143,"is_reserved":false,"is_disabled":false,"rental_uris":{"android":"levelo://app?vid=e4915dab-8eb6-4bb4-9aad-4b74193738b1","ios":"levelo://app?vid=e4915dab-8eb6-4bb4-9aad-4b74193738b1"},"vehicle_type_id":"4","last_reported":1743700121,"current_range_meters":4400,"station_id":"ce4bh512rcd13ifvqe3g","pricing_plan_id":"cebpf4jnsgd1na2vs0mg"},{"bike_id":"c7853feb-6954-4f19-9b54-21a92c0724e5","system_id":"levelo_inurba_marseille","lat":43.29618,"lon":5.37729,"is_reserved":false,"is_disabled":false,"rental_uris":{"android":"levelo://app?vid=c7853feb-6954-4f19-9b54-21a92c0724e5","ios":"levelo://app?vid=c7853feb-6954-4f19-9b54-21a92c0724e5"},"vehicle_type_id":"4","last_reported":1743700121,"current_range_meters":3200,"station_id":"ce4bgi92rcd13ifvqb90","pricing_plan_id":"cebpf4jnsgd1na2vs0mg"},{"bike_id":"fda07554-4c04-4e50-bbac-e4d1eb8b50af","system_id":"levelo_inurba_marseille","lat":43.30651,"lon":5.40069,"is_reserved":false,"is_disabled":false,"rental_uris":{"android":"levelo://app?vid=fda07554-4c04-4e50-bbac-e4d1eb8b50af","ios":"levelo://app?vid=fda07554-4c04-4e50-bbac-e4d1eb8b50af"},"vehicle_type_id":"4","last_reported":1743700121,"current_range_meters":4400,"station_id":"ce4bh112rcd13ifvqda0","pricing_plan_id":"cebpf4jnsgd1na2vs0mg"},{"bike_id":"179d36d6-5494-4ad0-a6a1-5527b92e5697","system_id":"levelo_inurba_marseille","lat":43.23065,"lon":5.3549,"is_reserved":false,"is_disabled":false,"rental_uris":{"android":"levelo://app?vid=179d36d6-5494-4ad0-a6a1-5527b92e5697","ios":"levelo://app?vid=179d36d6-5494-4ad0-a6a1-5527b92e5697"},"vehicle_type_id":"4","last_reported":1743700121,"current_range_meters":4400,"station_id":"cpo3342slgdg3j2ifvpg","pricing_plan_id":"cebpf4jnsgd1na2vs0mg"},{"bike_id":"7885c146-899a-424c-a5b4-2e9bd9d7f215","system_id":"levelo_inurba_marseille","lat":43.28081,"lon":5.39658,"is_reserved":false,"is_disabled":false,"rental_uris":{"android":"levelo://app?vid=7885c146-899a-424c-a5b4-2e9bd9d7f215","ios":"levelo://app?vid=7885c146-899a-424c-a5b4-2e9bd9d7f215"},"vehicle_type_id":"4","last_reported":1743700121,"current_range_meters":4400,"station_id":"ce4bho12rcd13ifvqh2g","pricing_plan_id":"cebpf4jnsgd1na2vs0mg"},{"bike_id":"83aa3c8e-91bd-485c-a041-0adac5639e00","system_id":"levelo_inurba_marseille","lat":43.30583,"lon":5.3714,"is_reserved":false,"is_disabled":false,"rental_uris":{"android":"levelo://app?vid=83aa3c8e-91bd-485c-a041-0adac5639e00","ios":"levelo://app?vid=83aa3c8e-91bd-485c-a041-0adac5639e00"},"vehicle_type_id":"4","last_reported":1743700121,"current_range_meters":4800,"station_id":"","pricing_plan_id":"cebpf4jnsgd1na2vs0mg"},{"bike_id":"08db227a-b24c-4a47-86fe-674492868bd7","system_id":"levelo_inurba_marseille","lat":43.28087,"lon":5.39658,"is_reserved":false,"is_disabled":false,"rental_uris":{"android":"levelo://app?vid=08db227a-b24c-4a47-86fe-674492868bd7","ios":"levelo://app?vid=08db227a-b24c-4a47-86fe-674492868bd7"},"vehicle_type_id":"4","last_reported":1743700121,"current_range_meters":4800,"station_id":"ce4bho12rcd13ifvqh2g","pricing_plan_id":"cebpf4jnsgd1na2vs0mg"},{"bike_id":"cffe934f-cc0a-450d-a650-02081bca5bd8","system_id":"levelo_inurba_marseille","lat":43.30377,"lon":5.42485,"is_reserved":false,"is_disabled":false,"rental_uris":{"android":"levelo://app?vid=cffe934f-cc0a-450d-a650-02081bca5bd8","ios":"levelo://app?vid=cffe934f-cc0a-450d-a650-02081bca5bd8"},"vehicle_type_id":"4","last_reported":1743700121,"current_range_meters":4800,"station_id":"ce4bhoh2rcd13ifvqh6g","pricing_plan_id":"cebpf4jnsgd1na2vs0mg"},{"bike_id":"8566441d-e4fa-4640-9842-de509e72b68f","system_id":"levelo_inurba_marseille","lat":43.27384,"lon":5.3626,"is_reserved":false,"is_disabled":false,"rental_uris":{"android":"levelo://app?vid=8566441d-e4fa-4640-9842-de509e72b68f","ios":"levelo://app?vid=8566441d-e4fa-4640-9842-de509e72b68f"},"vehicle_type_id":"4","last_reported":1743700121,"current_range_meters":4800,"station_id":"ce4bhbh2rcd13ifvqeo0","pricing_plan_id":"cebpf4jnsgd1na2vs0mg"},{"bike_id":"64719657-74e5-4b44-b0bf-c40e88ab53a4","system_id":"levelo_inurba_marseille","lat":43.29272,"lon":5.38453,"is_reserved":false,"is_disabled":false,"rental_uris":{"android":"levelo://app?vid=64719657-74e5-4b44-b0bf-c40e88ab53a4","ios":"levelo://app?vid=64719657-74e5-4b44-b0bf-c40e88ab53a4"},"vehicle_type_id":"4","last_reported":1743700121,"current_range_meters":3600,"station_id":"ce4bh692rcd13ifvqea0","pricing_plan_id":"cebpf4jnsgd1na2vs0mg"},{"bike_id":"45a03a62-cba3-4c8c-96b4-cc5c74ca70cc","system_id":"levelo_inurba_marseille","lat":43.25818,"lon":5.39437,"is_reserved":false,"is_disabled":false,"rental_uris":{"android":"levelo://app?vid=45a03a62-cba3-4c8c-96b4-cc5c74ca70cc","ios":"levelo://app?vid=45a03a62-cba3-4c8c-96b4-cc5c74ca70cc"},"vehicle_type_id":"4","last_reported":1743700121,"current_range_meters":5600,"station_id":"ce4bhip2rcd13ifvqft0","pricing_plan_id":"cebpf4jnsgd1na2vs0mg"},{"bike_id":"7bc507c4-187b-4cb2-a5ef-07322f924baf","system_id":"levelo_inurba_marseille","lat":43.22932,"lon":5.35385,"is_reserved":false,"is_disabled":false,"rental_uris":{"android":"levelo://app?vid=7bc507c4-187b-4cb2-a5ef-07322f924baf","ios":"levelo://app?vid=7bc507c4-187b-4cb2-a5ef-07322f924baf"},"vehicle_type_id":"4","last_reported":1743700121,"current_range_meters":5600,"station_id":"cpo3532slgdg3j2ikp40","pricing_plan_id":"cebpf4jnsgd1na2vs0mg"},{"bike_id":"fe96a57c-5421-41b0-b627-e6cf33252810","system_id":"levelo_inurba_marseille","lat":43.28669,"lon":5.3635,"is_reserved":false,"is_disabled":false,"rental_uris":{"android":"levelo://app?vid=fe96a57c-5421-41b0-b627-e6cf33252810","ios":"levelo://app?vid=fe96a57c-5421-41b0-b627-e6cf33252810"},"vehicle_type_id":"4","last_reported":1743700121,"current_range_meters":5600,"station_id":"ce4bhah2rcd13ifvqej0","pricing_plan_id":"cebpf4jnsgd1na2vs0mg"},{"bike_id":"96847a01-9331-4aa3-933f-2c47388fd09b","system_id":"levelo_inurba_marseille","lat":43.25505,"lon":5.37651,"is_reserved":false,"is_disabled":false,"rental_uris":{"android":"levelo://app?vid=96847a01-9331-4aa3-933f-2c47388fd09b","ios":"levelo://app?vid=96847a01-9331-4aa3-933f-2c47388fd09b"},"vehicle_type_id":"4","last_reported":1743700121,"current_range_meters":4800,"station_id":"ce4bhh12rcd13ifvqff0","pricing_plan_id":"cebpf4jnsgd1na2vs0mg"},{"bike_id":"ff170f95-7379-4f7d-89fc-9f2f306b4405","system_id":"levelo_inurba_marseille","lat":43.250824,"lon":5.395386,"is_reserved":false,"is_disabled":false,"rental_uris":{"android":"levelo://app?vid=ff170f95-7379-4f7d-89fc-9f2f306b4405","ios":"levelo://app?vid=ff170f95-7379-4f7d-89fc-9f2f306b4405"},"vehicle_type_id":"4","last_reported":1743700121,"current_range_meters":5600,"station_id":"ce4bhm12rcd13ifvqgkg","pricing_plan_id":"cebpf4jnsgd1na2vs0mg"},{"bike_id":"56385e8a-eaf5-4eb5-8a2d-70fa805b0fd1","system_id":"levelo_inurba_marseille","lat":43.2466,"lon":5.38163,"is_reserved":false,"is_disabled":false,"rental_uris":{"android":"levelo://app?vid=56385e8a-eaf5-4eb5-8a2d-70fa805b0fd1","ios":"levelo://app?vid=56385e8a-eaf5-4eb5-8a2d-70fa805b0fd1"},"vehicle_type_id":"4","last_reported":1743700121,"current_range_meters":5600,"station_id":"ce4bhih2rcd13ifvqfr0","pricing_plan_id":"cebpf4jnsgd1na2vs0mg"},{"bike_id":"988a4b2a-1fca-4561-9342-57ad8b6adb1c","system_id":"levelo_inurba_marseille","lat":43.22938,"lon":5.35409,"is_reserved":false,"is_disabled":false,"rental_uris":{"android":"levelo://app?vid=988a4b2a-1fca-4561-9342-57ad8b6adb1c","ios":"levelo://app?vid=988a4b2a-1fca-4561-9342-57ad8b6adb1c"},"vehicle_type_id":"4","last_reported":1743700121,"current_range_meters":6000,"station_id":"cpo3532slgdg3j2ikp40","pricing_plan_id":"cebpf4jnsgd1na2vs0mg"},{"bike_id":"0d55ff7c-6752-4b60-8a2e-f99d7f02b8e1","system_id":"levelo_inurba_marseille","lat":43.26685,"lon":5.38264,"is_reserved":false,"is_disabled":false,"rental_uris":{"android":"levelo://app?vid=0d55ff7c-6752-4b60-8a2e-f99d7f02b8e1","ios":"levelo://app?vid=0d55ff7c-6752-4b60-8a2e-f99d7f02b8e1"},"vehicle_type_id":"4","last_reported":1743700121,"current_range_meters":6000,"station_id":"ce4bhg92rcd13ifvqf90","pricing_plan_id":"cebpf4jnsgd1na2vs0mg"},{"bike_id":"0d487a40-aff7-4e82-b053-0a74ca9082c4","system_id":"levelo_inurba_marseille","lat":43.29554,"lon":5.42293,"is_reserved":false,"is_disabled":false,"rental_uris":{"android":"levelo://app?vid=0d487a40-aff7-4e82-b053-0a74ca9082c4","ios":"levelo://app?vid=0d487a40-aff7-4e82-b053-0a74ca9082c4"},"vehicle_type_id":"4","last_reported":1743700121,"current_range_meters":6000,"station_id":"ce4bhph2rcd13ifvqhdg","pricing_plan_id":"cebpf4jnsgd1na2vs0mg"},{"bike_id":"1a92ebdb-e07c-4dd6-b5ea-9af2c3a96ea9","system_id":"levelo_inurba_marseille","lat":43.27977,"lon":5.38744,"is_reserved":false,"is_disabled":false,"rental_uris":{"android":"levelo://app?vid=1a92ebdb-e07c-4dd6-b5ea-9af2c3a96ea9","ios":"levelo://app?vid=1a92ebdb-e07c-4dd6-b5ea-9af2c3a96ea9"},"vehicle_type_id":"4","last_reported":1743700121,"current_range_meters":6000,"station_id":"ce4bhg12rcd13ifvqf80","pricing_plan_id":"cebpf4jnsgd1na2vs0mg"},{"bike_id":"22987ff2-118b-4b71-93b3-0a2bc3fe4d66","system_id":"levelo_inurba_marseille","lat":43.27947,"lon":5.41037,"is_reserved":false,"is_disabled":false,"rental_uris":{"android":"levelo://app?vid=22987ff2-118b-4b71-93b3-0a2bc3fe4d66","ios":"levelo://app?vid=22987ff2-118b-4b71-93b3-0a2bc3fe4d66"},"vehicle_type_id":"4","last_reported":1743700121,"current_range_meters":6000,"station_id":"ce4bhnp2rcd13ifvqh0g","pricing_plan_id":"cebpf4jnsgd1na2vs0mg"},{"bike_id":"4f289e29-f4e9-45d3-bd4f-83308745e543","system_id":"levelo_inurba_marseille","lat":43.23193,"lon":5.35557,"is_reserved":false,"is_disabled":false,"rental_uris":{"android":"levelo://app?vid=4f289e29-f4e9-45d3-bd4f-83308745e543","ios":"levelo://app?vid=4f289e29-f4e9-45d3-bd4f-83308745e543"},"vehicle_type_id":"4","last_reported":1743700121,"current_range_meters":6000,"station_id":"ce4bhu92rcd13ifvqi70","pricing_plan_id":"cebpf4jnsgd1na2vs0mg"},{"bike_id":"04556df8-715f-45d8-b288-9c8fd51282f9","system_id":"levelo_inurba_marseille","lat":43.231971,"lon":5.355531,"is_reserved":false,"is_disabled":false,"rental_uris":{"android":"levelo://app?vid=04556df8-715f-45d8-b288-9c8fd51282f9","ios":"levelo://app?vid=04556df8-715f-45d8-b288-9c8fd51282f9"},"vehicle_type_id":"4","last_reported":1743700121,"current_range_meters":6400,"station_id":"ce4bhu92rcd13ifvqi70","pricing_plan_id":"cebpf4jnsgd1na2vs0mg"},{"bike_id":"9994cdb3-a4e1-48c5-a878-a99a45a75f58","system_id":"levelo_inurba_marseille","lat":43.25496,"lon":5.37665,"is_reserved":false,"is_disabled":false,"rental_uris":{"android":"levelo://app?vid=9994cdb3-a4e1-48c5-a878-a99a45a75f58","ios":"levelo://app?vid=9994cdb3-a4e1-48c5-a878-a99a45a75f58"},"vehicle_type_id":"4","last_reported":1743700121,"current_range_meters":6400,"station_id":"ce4bhh12rcd13ifvqff0","pricing_plan_id":"cebpf4jnsgd1na2vs0mg"},{"bike_id":"f87e996c-206a-47d9-8697-84a2d463fdc3","system_id":"levelo_inurba_marseille","lat":43.23201,"lon":5.35571,"is_reserved":false,"is_disabled":false,"rental_uris":{"android":"levelo://app?vid=f87e996c-206a-47d9-8697-84a2d463fdc3","ios":"levelo://app?vid=f87e996c-206a-47d9-8697-84a2d463fdc3"},"vehicle_type_id":"4","last_reported":1743700121,"current_range_meters":6400,"station_id":"ce4bhu92rcd13ifvqi70","pricing_plan_id":"cebpf4jnsgd1na2vs0mg"},{"bike_id":"c722308d-6672-4420-ad41-5c37a12de0d3","system_id":"levelo_inurba_marseille","lat":43.28411,"lon":5.37507,"is_reserved":false,"is_disabled":false,"rental_uris":{"android":"levelo://app?vid=c722308d-6672-4420-ad41-5c37a12de0d3","ios":"levelo://app?vid=c722308d-6672-4420-ad41-5c37a12de0d3"},"vehicle_type_id":"4","last_reported":1743700121,"current_range_meters":6400,"station_id":"ce4bh412rcd13ifvqds0","pricing_plan_id":"cebpf4jnsgd1na2vs0mg"},{"bike_id":"3214d6d6-87a7-4873-b2fd-dd12127d0bf3","system_id":"levelo_inurba_marseille","lat":43.23155,"lon":5.4371,"is_reserved":false,"is_disabled":false,"rental_uris":{"android":"levelo://app?vid=3214d6d6-87a7-4873-b2fd-dd12127d0bf3","ios":"levelo://app?vid=3214d6d6-87a7-4873-b2fd-dd12127d0bf3"},"vehicle_type_id":"4","last_reported":1743700121,"current_range_meters":6400,"station_id":"ce4bhmp2rcd13ifvqgog","pricing_plan_id":"cebpf4jnsgd1na2vs0mg"},{"bike_id":"f963d4df-e668-4366-8876-89034cdd24da","system_id":"levelo_inurba_marseille","lat":43.2885,"lon":5.35849,"is_reserved":false,"is_disabled":false,"rental_uris":{"android":"levelo://app?vid=f963d4df-e668-4366-8876-89034cdd24da","ios":"levelo://app?vid=f963d4df-e668-4366-8876-89034cdd24da"},"vehicle_type_id":"4","last_reported":1743700121,"current_range_meters":6400,"station_id":"ce4bhb12rcd13ifvqem0","pricing_plan_id":"cebpf4jnsgd1na2vs0mg"},{"bike_id":"f201cc7e-0456-4ac2-8d4c-1c50dcc75a18","system_id":"levelo_inurba_marseille","lat":43.29565,"lon":5.42268,"is_reserved":false,"is_disabled":false,"rental_uris":{"android":"levelo://app?vid=f201cc7e-0456-4ac2-8d4c-1c50dcc75a18","ios":"levelo://app?vid=f201cc7e-0456-4ac2-8d4c-1c50dcc75a18"},"vehicle_type_id":"4","last_reported":1743700121,"current_range_meters":6400,"station_id":"ce4bhph2rcd13ifvqhdg","pricing_plan_id":"cebpf4jnsgd1na2vs0mg"},{"bike_id":"c941e7e9-8df4-41e3-8f02-462919d1dfab","system_id":"levelo_inurba_marseille","lat":43.2738,"lon":5.3624,"is_reserved":false,"is_disabled":false,"rental_uris":{"android":"levelo://app?vid=c941e7e9-8df4-41e3-8f02-462919d1dfab","ios":"levelo://app?vid=c941e7e9-8df4-41e3-8f02-462919d1dfab"},"vehicle_type_id":"4","last_reported":1743700121,"current_range_meters":6400,"station_id":"ce4bhbh2rcd13ifvqeo0","pricing_plan_id":"cebpf4jnsgd1na2vs0mg"},{"bike_id":"7acb474c-837c-4096-9021-647269ad5673","system_id":"levelo_inurba_marseille","lat":43.28345,"lon":5.38112,"is_reserved":false,"is_disabled":false,"rental_uris":{"android":"levelo://app?vid=7acb474c-837c-4096-9021-647269ad5673","ios":"levelo://app?vid=7acb474c-837c-4096-9021-647269ad5673"},"vehicle_type_id":"4","last_reported":1743700121,"current_range_meters":6000,"station_id":"ce4bh412rcd13ifvqdr0","pricing_plan_id":"cebpf4jnsgd1na2vs0mg"},{"bike_id":"9d13c440-da3b-4535-b70d-8105619f88bd","system_id":"levelo_inurba_marseille","lat":43.32366,"lon":5.389,"is_reserved":false,"is_disabled":true,"rental_uris":{"android":"levelo://app?vid=9d13c440-da3b-4535-b70d-8105619f88bd","ios":"levelo://app?vid=9d13c440-da3b-4535-b70d-8105619f88bd"},"vehicle_type_id":"4","last_reported":1743700121,"current_range_meters":6800,"station_id":"ce4bhqp2rcd13ifvqhog","pricing_plan_id":"cebpf4jnsgd1na2vs0mg"},{"bike_id":"fc070c86-9c68-4c0a-a23f-c4cb71d0cf97","system_id":"levelo_inurba_marseille","lat":43.2857,"lon":5.39486,"is_reserved":false,"is_disabled":false,"rental_uris":{"android":"levelo://app?vid=fc070c86-9c68-4c0a-a23f-c4cb71d0cf97","ios":"levelo://app?vid=fc070c86-9c68-4c0a-a23f-c4cb71d0cf97"},"vehicle_type_id":"4","last_reported":1743700121,"current_range_meters":6800,"station_id":"ce4bh292rcd13ifvqdg0","pricing_plan_id":"cebpf4jnsgd1na2vs0mg"},{"bike_id":"7f4f0a5b-bfc5-41b1-9ca8-7b777a0aeb4f","system_id":"levelo_inurba_marseille","lat":43.23083,"lon":5.355,"is_reserved":false,"is_disabled":false,"rental_uris":{"android":"levelo://app?vid=7f4f0a5b-bfc5-41b1-9ca8-7b777a0aeb4f","ios":"levelo://app?vid=7f4f0a5b-bfc5-41b1-9ca8-7b777a0aeb4f"},"vehicle_type_id":"4","last_reported":1743700121,"current_range_meters":6800,"station_id":"cpo3342slgdg3j2ifvpg","pricing_plan_id":"cebpf4jnsgd1na2vs0mg"},{"bike_id":"90b2f1ae-6eef-4585-8844-5c58c87cb2d5","system_id":"levelo_inurba_marseille","lat":43.2953,"lon":5.37507,"is_reserved":false,"is_disabled":false,"rental_uris":{"android":"levelo://app?vid=90b2f1ae-6eef-4585-8844-5c58c87cb2d5","ios":"levelo://app?vid=90b2f1ae-6eef-4585-8844-5c58c87cb2d5"},"vehicle_type_id":"4","last_reported":1743700121,"current_range_meters":6800,"station_id":"ce4bgkp2rcd13ifvqbmg","pricing_plan_id":"cebpf4jnsgd1na2vs0mg"},{"bike_id":"6ae3a20c-0309-4d34-9043-48636c9f02a0","system_id":"levelo_inurba_marseille","lat":43.26211,"lon":5.37935,"is_reserved":false,"is_disabled":false,"rental_uris":{"android":"levelo://app?vid=6ae3a20c-0309-4d34-9043-48636c9f02a0","ios":"levelo://app?vid=6ae3a20c-0309-4d34-9043-48636c9f02a0"},"vehicle_type_id":"4","last_reported":1743700121,"current_range_meters":6800,"station_id":"ce4bhjp2rcd13ifvqg90","pricing_plan_id":"cebpf4jnsgd1na2vs0mg"},{"bike_id":"6ee95226-f23d-4e5e-8b9a-4222466567e4","system_id":"levelo_inurba_marseille","lat":43.26223,"lon":5.40456,"is_reserved":false,"is_disabled":false,"rental_uris":{"android":"levelo://app?vid=6ee95226-f23d-4e5e-8b9a-4222466567e4","ios":"levelo://app?vid=6ee95226-f23d-4e5e-8b9a-4222466567e4"},"vehicle_type_id":"4","last_reported":1743700121,"current_range_meters":6800,"station_id":"","pricing_plan_id":"cebpf4jnsgd1na2vs0mg"},{"bike_id":"f29e1045-be55-4929-9442-a1ff88b36a82","system_id":"levelo_inurba_marseille","lat":43.30539,"lon":5.36563,"is_reserved":false,"is_disabled":false,"rental_uris":{"android":"levelo://app?vid=f29e1045-be55-4929-9442-a1ff88b36a82","ios":"levelo://app?vid=f29e1045-be55-4929-9442-a1ff88b36a82"},"vehicle_type_id":"4","last_reported":1743700121,"current_range_meters":6800,"station_id":"ce4bgs12rcd13ifvqcag","pricing_plan_id":"cebpf4jnsgd1na2vs0mg"},{"bike_id":"2e1d0491-8046-4a1c-910c-6d230f4ca468","system_id":"levelo_inurba_marseille","lat":43.30589,"lon":5.37396,"is_reserved":false,"is_disabled":false,"rental_uris":{"android":"levelo://app?vid=2e1d0491-8046-4a1c-910c-6d230f4ca468","ios":"levelo://app?vid=2e1d0491-8046-4a1c-910c-6d230f4ca468"},"vehicle_type_id":"4","last_reported":1743700121,"current_range_meters":6800,"station_id":"","pricing_plan_id":"cebpf4jnsgd1na2vs0mg"},{"bike_id":"37170583-cc6a-45f3-9af7-f5d3088ed75b","system_id":"levelo_inurba_marseille","lat":43.29975,"lon":5.38498,"is_reserved":false,"is_disabled":false,"rental_uris":{"android":"levelo://app?vid=37170583-cc6a-45f3-9af7-f5d3088ed75b","ios":"levelo://app?vid=37170583-cc6a-45f3-9af7-f5d3088ed75b"},"vehicle_type_id":"4","last_reported":1743700121,"current_range_meters":7200,"station_id":"ce4bgj92rcd13ifvqbd0","pricing_plan_id":"cebpf4jnsgd1na2vs0mg"},{"bike_id":"b6e8a908-5916-4c0d-b1b6-1b4a3ef7fdac","system_id":"levelo_inurba_marseille","lat":43.24163,"lon":5.36393,"is_reserved":false,"is_disabled":false,"rental_uris":{"android":"levelo://app?vid=b6e8a908-5916-4c0d-b1b6-1b4a3ef7fdac","ios":"levelo://app?vid=b6e8a908-5916-4c0d-b1b6-1b4a3ef7fdac"},"vehicle_type_id":"4","last_reported":1743700121,"current_range_meters":8000,"station_id":"cpo36qri1sfpv3e86is0","pricing_plan_id":"cebpf4jnsgd1na2vs0mg"},{"bike_id":"78d6b7cd-ac07-453b-bc94-98692716d8c6","system_id":"levelo_inurba_marseille","lat":43.2319,"lon":5.35562,"is_reserved":false,"is_disabled":false,"rental_uris":{"android":"levelo://app?vid=78d6b7cd-ac07-453b-bc94-98692716d8c6","ios":"levelo://app?vid=78d6b7cd-ac07-453b-bc94-98692716d8c6"},"vehicle_type_id":"4","last_reported":1743700121,"current_range_meters":7200,"station_id":"ce4bhu92rcd13ifvqi70","pricing_plan_id":"cebpf4jnsgd1na2vs0mg"},{"bike_id":"bc7296d4-40e5-4e42-961e-a7893d7bed4d","system_id":"levelo_inurba_marseille","lat":43.29954,"lon":5.36501,"is_reserved":false,"is_disabled":false,"rental_uris":{"android":"levelo://app?vid=bc7296d4-40e5-4e42-961e-a7893d7bed4d","ios":"levelo://app?vid=bc7296d4-40e5-4e42-961e-a7893d7bed4d"},"vehicle_type_id":"4","last_reported":1743700121,"current_range_meters":7200,"station_id":"ce4bgm92rcd13ifvqbr0","pricing_plan_id":"cebpf4jnsgd1na2vs0mg"},{"bike_id":"4e040e22-e30a-4e82-b55c-47f2033e0ad1","system_id":"levelo_inurba_marseille","lat":43.29271,"lon":5.38437,"is_reserved":false,"is_disabled":false,"rental_uris":{"android":"levelo://app?vid=4e040e22-e30a-4e82-b55c-47f2033e0ad1","ios":"levelo://app?vid=4e040e22-e30a-4e82-b55c-47f2033e0ad1"},"vehicle_type_id":"4","last_reported":1743700121,"current_range_meters":7200,"station_id":"ce4bh692rcd13ifvqea0","pricing_plan_id":"cebpf4jnsgd1na2vs0mg"},{"bike_id":"32a978e0-d0c2-43d4-9b03-19a5c41c27de","system_id":"levelo_inurba_marseille","lat":43.31077,"lon":5.38371,"is_reserved":false,"is_disabled":true,"rental_uris":{"android":"levelo://app?vid=32a978e0-d0c2-43d4-9b03-19a5c41c27de","ios":"levelo://app?vid=32a978e0-d0c2-43d4-9b03-19a5c41c27de"},"vehicle_type_id":"4","last_reported":1743700121,"current_range_meters":7200,"station_id":"ce4bgv92rcd13ifvqcr0","pricing_plan_id":"cebpf4jnsgd1na2vs0mg"},{"bike_id":"4b4a6d88-da31-47ac-ac98-9882efef7dde","system_id":"levelo_inurba_marseille","lat":43.25574,"lon":5.38244,"is_reserved":false,"is_disabled":false,"rental_uris":{"android":"levelo://app?vid=4b4a6d88-da31-47ac-ac98-9882efef7dde","ios":"levelo://app?vid=4b4a6d88-da31-47ac-ac98-9882efef7dde"},"vehicle_type_id":"4","last_reported":1743700121,"current_range_meters":7200,"station_id":"ce4bhih2rcd13ifvqfs0","pricing_plan_id":"cebpf4jnsgd1na2vs0mg"},{"bike_id":"6e0ac892-eb5a-4e58-b40d-44ea2a6de718","system_id":"levelo_inurba_marseille","lat":43.23194,"lon":5.3555,"is_reserved":false,"is_disabled":false,"rental_uris":{"android":"levelo://app?vid=6e0ac892-eb5a-4e58-b40d-44ea2a6de718","ios":"levelo://app?vid=6e0ac892-eb5a-4e58-b40d-44ea2a6de718"},"vehicle_type_id":"4","last_reported":1743700121,"current_range_meters":7200,"station_id":"ce4bhu92rcd13ifvqi70","pricing_plan_id":"cebpf4jnsgd1na2vs0mg"},{"bike_id":"6b8475fe-b541-4969-b82d-b3874ee084de","system_id":"levelo_inurba_marseille","lat":43.24178,"lon":5.39739,"is_reserved":false,"is_disabled":false,"rental_uris":{"android":"levelo://app?vid=6b8475fe-b541-4969-b82d-b3874ee084de","ios":"levelo://app?vid=6b8475fe-b541-4969-b82d-b3874ee084de"},"vehicle_type_id":"4","last_reported":1743700121,"current_range_meters":7200,"station_id":"ce4bhn12rcd13ifvqgpg","pricing_plan_id":"cebpf4jnsgd1na2vs0mg"},{"bike_id":"849a01f5-b1fe-473b-92f2-38f61bfaedcf","system_id":"levelo_inurba_marseille","lat":43.23155,"lon":5.43707,"is_reserved":false,"is_disabled":false,"rental_uris":{"android":"levelo://app?vid=849a01f5-b1fe-473b-92f2-38f61bfaedcf","ios":"levelo://app?vid=849a01f5-b1fe-473b-92f2-38f61bfaedcf"},"vehicle_type_id":"4","last_reported":1743700121,"current_range_meters":7200,"station_id":"ce4bhmp2rcd13ifvqgog","pricing_plan_id":"cebpf4jnsgd1na2vs0mg"},{"bike_id":"6ec2f5d8-194f-4880-9d8b-eab83b3217e2","system_id":"levelo_inurba_marseille","lat":43.280027,"lon":5.400222,"is_reserved":false,"is_disabled":false,"rental_uris":{"android":"levelo://app?vid=6ec2f5d8-194f-4880-9d8b-eab83b3217e2","ios":"levelo://app?vid=6ec2f5d8-194f-4880-9d8b-eab83b3217e2"},"vehicle_type_id":"4","last_reported":1743700121,"current_range_meters":7200,"station_id":"ce4bh192rcd13ifvqdc0","pricing_plan_id":"cebpf4jnsgd1na2vs0mg"},{"bike_id":"75dae32f-059a-4b5b-a5e8-963c6eda2f66","system_id":"levelo_inurba_marseille","lat":43.27517,"lon":5.41017,"is_reserved":false,"is_disabled":false,"rental_uris":{"android":"levelo://app?vid=75dae32f-059a-4b5b-a5e8-963c6eda2f66","ios":"levelo://app?vid=75dae32f-059a-4b5b-a5e8-963c6eda2f66"},"vehicle_type_id":"4","last_reported":1743700121,"current_range_meters":7200,"station_id":"","pricing_plan_id":"cebpf4jnsgd1na2vs0mg"},{"bike_id":"85ccbe54-8287-4be1-9f43-830af38e89ec","system_id":"levelo_inurba_marseille","lat":43.29267,"lon":5.3844,"is_reserved":false,"is_disabled":false,"rental_uris":{"android":"levelo://app?vid=85ccbe54-8287-4be1-9f43-830af38e89ec","ios":"levelo://app?vid=85ccbe54-8287-4be1-9f43-830af38e89ec"},"vehicle_type_id":"4","last_reported":1743700121,"current_range_meters":8000,"station_id":"ce4bh692rcd13ifvqea0","pricing_plan_id":"cebpf4jnsgd1na2vs0mg"},{"bike_id":"3374421a-949f-40b6-870f-59a2d8ba0de4","system_id":"levelo_inurba_marseille","lat":43.24177,"lon":5.36396,"is_reserved":false,"is_disabled":false,"rental_uris":{"android":"levelo://app?vid=3374421a-949f-40b6-870f-59a2d8ba0de4","ios":"levelo://app?vid=3374421a-949f-40b6-870f-59a2d8ba0de4"},"vehicle_type_id":"4","last_reported":1743700121,"current_range_meters":8000,"station_id":"cpo36qri1sfpv3e86is0","pricing_plan_id":"cebpf4jnsgd1na2vs0mg"},{"bike_id":"c2e6881a-04a3-4a38-9cc0-75cacf165e78","system_id":"levelo_inurba_marseille","lat":43.28832,"lon":5.364645,"is_reserved":false,"is_disabled":false,"rental_uris":{"android":"levelo://app?vid=c2e6881a-04a3-4a38-9cc0-75cacf165e78","ios":"levelo://app?vid=c2e6881a-04a3-4a38-9cc0-75cacf165e78"},"vehicle_type_id":"4","last_reported":1743700121,"current_range_meters":8400,"station_id":"","pricing_plan_id":"cebpf4jnsgd1na2vs0mg"},{"bike_id":"95e4c278-a39f-4d29-965c-d6898441070e","system_id":"levelo_inurba_marseille","lat":43.29274,"lon":5.3844,"is_reserved":false,"is_disabled":false,"rental_uris":{"android":"levelo://app?vid=95e4c278-a39f-4d29-965c-d6898441070e","ios":"levelo://app?vid=95e4c278-a39f-4d29-965c-d6898441070e"},"vehicle_type_id":"4","last_reported":1743700121,"current_range_meters":8000,"station_id":"ce4bh692rcd13ifvqea0","pricing_plan_id":"cebpf4jnsgd1na2vs0mg"},{"bike_id":"e1bcd518-a3a1-4a25-9b9e-794fbd0bdf0a","system_id":"levelo_inurba_marseille","lat":43.23958,"lon":5.36649,"is_reserved":false,"is_disabled":false,"rental_uris":{"android":"levelo://app?vid=e1bcd518-a3a1-4a25-9b9e-794fbd0bdf0a","ios":"levelo://app?vid=e1bcd518-a3a1-4a25-9b9e-794fbd0bdf0a"},"vehicle_type_id":"4","last_reported":1743700121,"current_range_meters":8000,"station_id":"ce4bhi12rcd13ifvqfp0","pricing_plan_id":"cebpf4jnsgd1na2vs0mg"},{"bike_id":"c9fb25a7-e723-41fe-abac-05d32f3d4f9d","system_id":"levelo_inurba_marseille","lat":43.26016,"lon":5.41736,"is_reserved":false,"is_disabled":false,"rental_uris":{"android":"levelo://app?vid=c9fb25a7-e723-41fe-abac-05d32f3d4f9d","ios":"levelo://app?vid=c9fb25a7-e723-41fe-abac-05d32f3d4f9d"},"vehicle_type_id":"4","last_reported":1743700121,"current_range_meters":8000,"station_id":"","pricing_plan_id":"cebpf4jnsgd1na2vs0mg"},{"bike_id":"15ea3e20-e3c1-434f-8b50-88d1ebba3f71","system_id":"levelo_inurba_marseille","lat":43.23196,"lon":5.35565,"is_reserved":false,"is_disabled":false,"rental_uris":{"android":"levelo://app?vid=15ea3e20-e3c1-434f-8b50-88d1ebba3f71","ios":"levelo://app?vid=15ea3e20-e3c1-434f-8b50-88d1ebba3f71"},"vehicle_type_id":"4","last_reported":1743700121,"current_range_meters":8000,"station_id":"ce4bhu92rcd13ifvqi70","pricing_plan_id":"cebpf4jnsgd1na2vs0mg"},{"bike_id":"b13d3432-293b-4902-a3f1-a51b231e2d99","system_id":"levelo_inurba_marseille","lat":43.28617,"lon":5.35103,"is_reserved":false,"is_disabled":false,"rental_uris":{"android":"levelo://app?vid=b13d3432-293b-4902-a3f1-a51b231e2d99","ios":"levelo://app?vid=b13d3432-293b-4902-a3f1-a51b231e2d99"},"vehicle_type_id":"4","last_reported":1743700121,"current_range_meters":8000,"station_id":"ce4bhch2rcd13ifvqeug","pricing_plan_id":"cebpf4jnsgd1na2vs0mg"},{"bike_id":"0890fa60-049f-44ea-96c8-ca3ae6292ced","system_id":"levelo_inurba_marseille","lat":43.24833,"lon":5.37422,"is_reserved":false,"is_disabled":false,"rental_uris":{"android":"levelo://app?vid=0890fa60-049f-44ea-96c8-ca3ae6292ced","ios":"levelo://app?vid=0890fa60-049f-44ea-96c8-ca3ae6292ced"},"vehicle_type_id":"4","last_reported":1743700121,"current_range_meters":8400,"station_id":"","pricing_plan_id":"cebpf4jnsgd1na2vs0mg"},{"bike_id":"b42e30f3-e4b2-4766-a2e5-dfd7324e86a1","system_id":"levelo_inurba_marseille","lat":43.23211,"lon":5.35553,"is_reserved":false,"is_disabled":false,"rental_uris":{"android":"levelo://app?vid=b42e30f3-e4b2-4766-a2e5-dfd7324e86a1","ios":"levelo://app?vid=b42e30f3-e4b2-4766-a2e5-dfd7324e86a1"},"vehicle_type_id":"4","last_reported":1743700121,"current_range_meters":8400,"station_id":"ce4bhu92rcd13ifvqi70","pricing_plan_id":"cebpf4jnsgd1na2vs0mg"},{"bike_id":"db253690-85f7-4eae-9a99-76df6b4cfdb6","system_id":"levelo_inurba_marseille","lat":43.27942,"lon":5.41042,"is_reserved":false,"is_disabled":false,"rental_uris":{"android":"levelo://app?vid=db253690-85f7-4eae-9a99-76df6b4cfdb6","ios":"levelo://app?vid=db253690-85f7-4eae-9a99-76df6b4cfdb6"},"vehicle_type_id":"4","last_reported":1743700121,"current_range_meters":8400,"station_id":"ce4bhnp2rcd13ifvqh0g","pricing_plan_id":"cebpf4jnsgd1na2vs0mg"},{"bike_id":"1e41463f-c19e-4172-9dc9-08ae7944c082","system_id":"levelo_inurba_marseille","lat":43.25503,"lon":5.376593,"is_reserved":false,"is_disabled":false,"rental_uris":{"android":"levelo://app?vid=1e41463f-c19e-4172-9dc9-08ae7944c082","ios":"levelo://app?vid=1e41463f-c19e-4172-9dc9-08ae7944c082"},"vehicle_type_id":"4","last_reported":1743700121,"current_range_meters":8400,"station_id":"ce4bhh12rcd13ifvqff0","pricing_plan_id":"cebpf4jnsgd1na2vs0mg"},{"bike_id":"71e55f99-90e5-4133-8167-5af8b2b35d7e","system_id":"levelo_inurba_marseille","lat":43.23063,"lon":5.35489,"is_reserved":false,"is_disabled":false,"rental_uris":{"android":"levelo://app?vid=71e55f99-90e5-4133-8167-5af8b2b35d7e","ios":"levelo://app?vid=71e55f99-90e5-4133-8167-5af8b2b35d7e"},"vehicle_type_id":"4","last_reported":1743700121,"current_range_meters":8400,"station_id":"cpo3342slgdg3j2ifvpg","pricing_plan_id":"cebpf4jnsgd1na2vs0mg"},{"bike_id":"976b17e3-1952-400c-8627-906a016af410","system_id":"levelo_inurba_marseille","lat":43.29973,"lon":5.37173,"is_reserved":false,"is_disabled":false,"rental_uris":{"android":"levelo://app?vid=976b17e3-1952-400c-8627-906a016af410","ios":"levelo://app?vid=976b17e3-1952-400c-8627-906a016af410"},"vehicle_type_id":"4","last_reported":1743700121,"current_range_meters":8400,"station_id":"ce4bgr92rcd13ifvqc7g","pricing_plan_id":"cebpf4jnsgd1na2vs0mg"},{"bike_id":"adda5e89-5623-4c82-aba2-edc673ca340f","system_id":"levelo_inurba_marseille","lat":43.28675,"lon":5.38677,"is_reserved":false,"is_disabled":false,"rental_uris":{"android":"levelo://app?vid=adda5e89-5623-4c82-aba2-edc673ca340f","ios":"levelo://app?vid=adda5e89-5623-4c82-aba2-edc673ca340f"},"vehicle_type_id":"4","last_reported":1743700121,"current_range_meters":8400,"station_id":"ce4bh492rcd13ifvqdug","pricing_plan_id":"cebpf4jnsgd1na2vs0mg"},{"bike_id":"54635517-2658-4bb4-9c54-147022cede2d","system_id":"levelo_inurba_marseille","lat":43.28935,"lon":5.36642,"is_reserved":false,"is_disabled":false,"rental_uris":{"android":"levelo://app?vid=54635517-2658-4bb4-9c54-147022cede2d","ios":"levelo://app?vid=54635517-2658-4bb4-9c54-147022cede2d"},"vehicle_type_id":"4","last_reported":1743700121,"current_range_meters":8400,"station_id":"ce4bhap2rcd13ifvqek0","pricing_plan_id":"cebpf4jnsgd1na2vs0mg"},{"bike_id":"b4ab96b8-b55f-442c-98bf-22ba91464e26","system_id":"levelo_inurba_marseille","lat":43.31724,"lon":5.42401,"is_reserved":false,"is_disabled":false,"rental_uris":{"android":"levelo://app?vid=b4ab96b8-b55f-442c-98bf-22ba91464e26","ios":"levelo://app?vid=b4ab96b8-b55f-442c-98bf-22ba91464e26"},"vehicle_type_id":"4","last_reported":1743700121,"current_range_meters":8400,"station_id":"ce4bhp92rcd13ifvqhbg","pricing_plan_id":"cebpf4jnsgd1na2vs0mg"},{"bike_id":"2d852c82-ae6a-4739-92da-48a433ac3774","system_id":"levelo_inurba_marseille","lat":43.28435,"lon":5.39236,"is_reserved":false,"is_disabled":false,"rental_uris":{"android":"levelo://app?vid=2d852c82-ae6a-4739-92da-48a433ac3774","ios":"levelo://app?vid=2d852c82-ae6a-4739-92da-48a433ac3774"},"vehicle_type_id":"4","last_reported":1743700121,"current_range_meters":8400,"station_id":"ce4bhoh2rcd13ifvqh5g","pricing_plan_id":"cebpf4jnsgd1na2vs0mg"},{"bike_id":"4a8d215f-728c-4424-bfbf-5faa62888e2d","system_id":"levelo_inurba_marseille","lat":43.295101,"lon":5.394076,"is_reserved":false,"is_disabled":true,"rental_uris":{"android":"levelo://app?vid=4a8d215f-728c-4424-bfbf-5faa62888e2d","ios":"levelo://app?vid=4a8d215f-728c-4424-bfbf-5faa62888e2d"},"vehicle_type_id":"4","last_reported":1743700121,"current_range_meters":8400,"station_id":"ce4bh292rcd13ifvqdf0","pricing_plan_id":"cebpf4jnsgd1na2vs0mg"},{"bike_id":"3076f34b-8a53-4a15-9c82-c3c1aea0cb56","system_id":"levelo_inurba_marseille","lat":43.27999,"lon":5.40025,"is_reserved":false,"is_disabled":false,"rental_uris":{"android":"levelo://app?vid=3076f34b-8a53-4a15-9c82-c3c1aea0cb56","ios":"levelo://app?vid=3076f34b-8a53-4a15-9c82-c3c1aea0cb56"},"vehicle_type_id":"4","last_reported":1743700121,"current_range_meters":8800,"station_id":"ce4bho92rcd13ifvqh4g","pricing_plan_id":"cebpf4jnsgd1na2vs0mg"},{"bike_id":"cd83c8ac-ed09-4369-9279-b6f36f2bbd3c","system_id":"levelo_inurba_marseille","lat":43.30816,"lon":5.38227,"is_reserved":false,"is_disabled":false,"rental_uris":{"android":"levelo://app?vid=cd83c8ac-ed09-4369-9279-b6f36f2bbd3c","ios":"levelo://app?vid=cd83c8ac-ed09-4369-9279-b6f36f2bbd3c"},"vehicle_type_id":"4","last_reported":1743700121,"current_range_meters":8800,"station_id":"","pricing_plan_id":"cebpf4jnsgd1na2vs0mg"},{"bike_id":"d5ca9471-edb9-49e2-b8bc-9d550f1c4eab","system_id":"levelo_inurba_marseille","lat":43.28617,"lon":5.35108,"is_reserved":false,"is_disabled":false,"rental_uris":{"android":"levelo://app?vid=d5ca9471-edb9-49e2-b8bc-9d550f1c4eab","ios":"levelo://app?vid=d5ca9471-edb9-49e2-b8bc-9d550f1c4eab"},"vehicle_type_id":"4","last_reported":1743700121,"current_range_meters":8800,"station_id":"ce4bhch2rcd13ifvqeug","pricing_plan_id":"cebpf4jnsgd1na2vs0mg"},{"bike_id":"e590fe23-e0aa-4322-a597-417c816f1dd9","system_id":"levelo_inurba_marseille","lat":43.27937,"lon":5.41056,"is_reserved":false,"is_disabled":false,"rental_uris":{"android":"levelo://app?vid=e590fe23-e0aa-4322-a597-417c816f1dd9","ios":"levelo://app?vid=e590fe23-e0aa-4322-a597-417c816f1dd9"},"vehicle_type_id":"4","last_reported":1743700121,"current_range_meters":8800,"station_id":"ce4bhnp2rcd13ifvqh0g","pricing_plan_id":"cebpf4jnsgd1na2vs0mg"},{"bike_id":"3a0b0f90-790c-4160-b50c-b4d5547d0490","system_id":"levelo_inurba_marseille","lat":43.303772,"lon":5.424879,"is_reserved":false,"is_disabled":false,"rental_uris":{"android":"levelo://app?vid=3a0b0f90-790c-4160-b50c-b4d5547d0490","ios":"levelo://app?vid=3a0b0f90-790c-4160-b50c-b4d5547d0490"},"vehicle_type_id":"4","last_reported":1743700121,"current_range_meters":9200,"station_id":"ce4bhoh2rcd13ifvqh6g","pricing_plan_id":"cebpf4jnsgd1na2vs0mg"},{"bike_id":"6d10d9b8-09cb-4b73-abb0-6027733af51f","system_id":"levelo_inurba_marseille","lat":43.29194,"lon":5.35813,"is_reserved":false,"is_disabled":false,"rental_uris":{"android":"levelo://app?vid=6d10d9b8-09cb-4b73-abb0-6027733af51f","ios":"levelo://app?vid=6d10d9b8-09cb-4b73-abb0-6027733af51f"},"vehicle_type_id":"4","last_reported":1743700121,"current_range_meters":9200,"station_id":"ce4bhb12rcd13ifvqel0","pricing_plan_id":"cebpf4jnsgd1na2vs0mg"},{"bike_id":"9997d0df-513c-40c7-bccf-09be1563fe5b","system_id":"levelo_inurba_marseille","lat":43.3036,"lon":5.4188,"is_reserved":false,"is_disabled":false,"rental_uris":{"android":"levelo://app?vid=9997d0df-513c-40c7-bccf-09be1563fe5b","ios":"levelo://app?vid=9997d0df-513c-40c7-bccf-09be1563fe5b"},"vehicle_type_id":"4","last_reported":1743700121,"current_range_meters":9200,"station_id":"ce4bhop2rcd13ifvqh7g","pricing_plan_id":"cebpf4jnsgd1na2vs0mg"},{"bike_id":"2c037394-38bc-4cb9-9d4a-40c49d8f54b5","system_id":"levelo_inurba_marseille","lat":43.28935,"lon":5.36644,"is_reserved":false,"is_disabled":false,"rental_uris":{"android":"levelo://app?vid=2c037394-38bc-4cb9-9d4a-40c49d8f54b5","ios":"levelo://app?vid=2c037394-38bc-4cb9-9d4a-40c49d8f54b5"},"vehicle_type_id":"4","last_reported":1743700121,"current_range_meters":9200,"station_id":"ce4bhap2rcd13ifvqek0","pricing_plan_id":"cebpf4jnsgd1na2vs0mg"},{"bike_id":"23e86ecc-92b3-423f-b9e6-2272fecd3c99","system_id":"levelo_inurba_marseille","lat":43.31714,"lon":5.3775,"is_reserved":false,"is_disabled":false,"rental_uris":{"android":"levelo://app?vid=23e86ecc-92b3-423f-b9e6-2272fecd3c99","ios":"levelo://app?vid=23e86ecc-92b3-423f-b9e6-2272fecd3c99"},"vehicle_type_id":"4","last_reported":1743700121,"current_range_meters":8800,"station_id":"ce4bgth2rcd13ifvqch0","pricing_plan_id":"cebpf4jnsgd1na2vs0mg"},{"bike_id":"8e65dfc5-af33-409e-bdba-9b2106eb84f3","system_id":"levelo_inurba_marseille","lat":43.30919,"lon":5.3685,"is_reserved":false,"is_disabled":false,"rental_uris":{"android":"levelo://app?vid=8e65dfc5-af33-409e-bdba-9b2106eb84f3","ios":"levelo://app?vid=8e65dfc5-af33-409e-bdba-9b2106eb84f3"},"vehicle_type_id":"4","last_reported":1743700121,"current_range_meters":9200,"station_id":"ce4bgn92rcd13ifvqbvg","pricing_plan_id":"cebpf4jnsgd1na2vs0mg"},{"bike_id":"58d176fe-78bf-4ee7-a2aa-fa7458e3744e","system_id":"levelo_inurba_marseille","lat":43.26551,"lon":5.37285,"is_reserved":false,"is_disabled":false,"rental_uris":{"android":"levelo://app?vid=58d176fe-78bf-4ee7-a2aa-fa7458e3744e","ios":"levelo://app?vid=58d176fe-78bf-4ee7-a2aa-fa7458e3744e"},"vehicle_type_id":"4","last_reported":1743700121,"current_range_meters":9200,"station_id":"ce4bhg12rcd13ifvqf70","pricing_plan_id":"cebpf4jnsgd1na2vs0mg"},{"bike_id":"813a93ff-7486-4ffd-bd38-7d2faa56f46d","system_id":"levelo_inurba_marseille","lat":43.27379,"lon":5.36256,"is_reserved":false,"is_disabled":false,"rental_uris":{"android":"levelo://app?vid=813a93ff-7486-4ffd-bd38-7d2faa56f46d","ios":"levelo://app?vid=813a93ff-7486-4ffd-bd38-7d2faa56f46d"},"vehicle_type_id":"4","last_reported":1743700121,"current_range_meters":9200,"station_id":"ce4bhbh2rcd13ifvqeo0","pricing_plan_id":"cebpf4jnsgd1na2vs0mg"},{"bike_id":"28304772-8ed5-4380-bd6d-63a096733a3a","system_id":"levelo_inurba_marseille","lat":43.25106,"lon":5.40325,"is_reserved":false,"is_disabled":false,"rental_uris":{"android":"levelo://app?vid=28304772-8ed5-4380-bd6d-63a096733a3a","ios":"levelo://app?vid=28304772-8ed5-4380-bd6d-63a096733a3a"},"vehicle_type_id":"4","last_reported":1743700121,"current_range_meters":9200,"station_id":"ce4bhlh2rcd13ifvqgig","pricing_plan_id":"cebpf4jnsgd1na2vs0mg"},{"bike_id":"0318b2db-affc-4ddc-afe3-731aa9e3c209","system_id":"levelo_inurba_marseille","lat":43.30608,"lon":5.3723,"is_reserved":false,"is_disabled":false,"rental_uris":{"android":"levelo://app?vid=0318b2db-affc-4ddc-afe3-731aa9e3c209","ios":"levelo://app?vid=0318b2db-affc-4ddc-afe3-731aa9e3c209"},"vehicle_type_id":"4","last_reported":1743700121,"current_range_meters":9200,"station_id":"ce4bgqh2rcd13ifvqc4g","pricing_plan_id":"cebpf4jnsgd1na2vs0mg"},{"bike_id":"ed4d7350-318a-444b-bf62-19f86e0514aa","system_id":"levelo_inurba_marseille","lat":43.27814,"lon":5.40737,"is_reserved":false,"is_disabled":false,"rental_uris":{"android":"levelo://app?vid=ed4d7350-318a-444b-bf62-19f86e0514aa","ios":"levelo://app?vid=ed4d7350-318a-444b-bf62-19f86e0514aa"},"vehicle_type_id":"4","last_reported":1743700121,"current_range_meters":9200,"station_id":"ce4bhnh2rcd13ifvqgtg","pricing_plan_id":"cebpf4jnsgd1na2vs0mg"},{"bike_id":"73d854ad-9eb6-4d68-8878-e9b2295ae65a","system_id":"levelo_inurba_marseille","lat":43.23034,"lon":5.35518,"is_reserved":false,"is_disabled":false,"rental_uris":{"android":"levelo://app?vid=73d854ad-9eb6-4d68-8878-e9b2295ae65a","ios":"levelo://app?vid=73d854ad-9eb6-4d68-8878-e9b2295ae65a"},"vehicle_type_id":"4","last_reported":1743700121,"current_range_meters":9600,"station_id":"cpo3342slgdg3j2ifvpg","pricing_plan_id":"cebpf4jnsgd1na2vs0mg"},{"bike_id":"e59c1a3b-50fa-4b5f-a51b-bde5dc8f275d","system_id":"levelo_inurba_marseille","lat":43.28264,"lon":5.3508,"is_reserved":false,"is_disabled":false,"rental_uris":{"android":"levelo://app?vid=e59c1a3b-50fa-4b5f-a51b-bde5dc8f275d","ios":"levelo://app?vid=e59c1a3b-50fa-4b5f-a51b-bde5dc8f275d"},"vehicle_type_id":"4","last_reported":1743700121,"current_range_meters":9600,"station_id":"ce4bhbp2rcd13ifvqerg","pricing_plan_id":"cebpf4jnsgd1na2vs0mg"},{"bike_id":"2c08ffdd-0cb4-48d6-8baa-52af97d6660d","system_id":"levelo_inurba_marseille","lat":43.27209,"lon":5.3919,"is_reserved":false,"is_disabled":true,"rental_uris":{"android":"levelo://app?vid=2c08ffdd-0cb4-48d6-8baa-52af97d6660d","ios":"levelo://app?vid=2c08ffdd-0cb4-48d6-8baa-52af97d6660d"},"vehicle_type_id":"4","last_reported":1743700121,"current_range_meters":9600,"station_id":"ce4bhhp2rcd13ifvqfm0","pricing_plan_id":"cebpf4jnsgd1na2vs0mg"},{"bike_id":"1332db18-e77f-4084-9e91-8cb56440097a","system_id":"levelo_inurba_marseille","lat":43.28276,"lon":5.35078,"is_reserved":false,"is_disabled":false,"rental_uris":{"android":"levelo://app?vid=1332db18-e77f-4084-9e91-8cb56440097a","ios":"levelo://app?vid=1332db18-e77f-4084-9e91-8cb56440097a"},"vehicle_type_id":"4","last_reported":1743700121,"current_range_meters":9600,"station_id":"ce4bhbp2rcd13ifvqerg","pricing_plan_id":"cebpf4jnsgd1na2vs0mg"},{"bike_id":"2635283e-ffd4-4c1f-b9e8-1b146ac4c8cc","system_id":"levelo_inurba_marseille","lat":43.30215,"lon":5.41929,"is_reserved":false,"is_disabled":false,"rental_uris":{"android":"levelo://app?vid=2635283e-ffd4-4c1f-b9e8-1b146ac4c8cc","ios":"levelo://app?vid=2635283e-ffd4-4c1f-b9e8-1b146ac4c8cc"},"vehicle_type_id":"4","last_reported":1743700121,"current_range_meters":9600,"station_id":"","pricing_plan_id":"cebpf4jnsgd1na2vs0mg"},{"bike_id":"7384c696-9bbc-4348-8007-afaf18ac050b","system_id":"levelo_inurba_marseille","lat":43.2901,"lon":5.35613,"is_reserved":false,"is_disabled":false,"rental_uris":{"android":"levelo://app?vid=7384c696-9bbc-4348-8007-afaf18ac050b","ios":"levelo://app?vid=7384c696-9bbc-4348-8007-afaf18ac050b"},"vehicle_type_id":"4","last_reported":1743700121,"current_range_meters":9600,"station_id":"ce4bhb92rcd13ifvqen0","pricing_plan_id":"cebpf4jnsgd1na2vs0mg"},{"bike_id":"5decc2e5-a7fc-4cfd-9400-8ba2cdf75f68","system_id":"levelo_inurba_marseille","lat":43.28707,"lon":5.39992,"is_reserved":false,"is_disabled":false,"rental_uris":{"android":"levelo://app?vid=5decc2e5-a7fc-4cfd-9400-8ba2cdf75f68","ios":"levelo://app?vid=5decc2e5-a7fc-4cfd-9400-8ba2cdf75f68"},"vehicle_type_id":"4","last_reported":1743700121,"current_range_meters":9600,"station_id":"ce4bho92rcd13ifvqh3g","pricing_plan_id":"cebpf4jnsgd1na2vs0mg"},{"bike_id":"70e5b39f-29e3-4ea9-aa83-5a60a8eec6f8","system_id":"levelo_inurba_marseille","lat":43.25049,"lon":5.41723,"is_reserved":false,"is_disabled":false,"rental_uris":{"android":"levelo://app?vid=70e5b39f-29e3-4ea9-aa83-5a60a8eec6f8","ios":"levelo://app?vid=70e5b39f-29e3-4ea9-aa83-5a60a8eec6f8"},"vehicle_type_id":"4","last_reported":1743700121,"current_range_meters":9600,"station_id":"","pricing_plan_id":"cebpf4jnsgd1na2vs0mg"},{"bike_id":"daa0c885-5130-4885-9203-01d25af11599","system_id":"levelo_inurba_marseille","lat":43.24998,"lon":5.38959,"is_reserved":false,"is_disabled":false,"rental_uris":{"android":"levelo://app?vid=daa0c885-5130-4885-9203-01d25af11599","ios":"levelo://app?vid=daa0c885-5130-4885-9203-01d25af11599"},"vehicle_type_id":"4","last_reported":1743700121,"current_range_meters":6400,"station_id":"ce4bhgp2rcd13ifvqfd0","pricing_plan_id":"cebpf4jnsgd1na2vs0mg"},{"bike_id":"f9a85478-22e3-4766-aa99-e8094ab59876","system_id":"levelo_inurba_marseille","lat":43.26809,"lon":5.40273,"is_reserved":false,"is_disabled":false,"rental_uris":{"android":"levelo://app?vid=f9a85478-22e3-4766-aa99-e8094ab59876","ios":"levelo://app?vid=f9a85478-22e3-4766-aa99-e8094ab59876"},"vehicle_type_id":"4","last_reported":1743700121,"current_range_meters":10000,"station_id":"ce501612rcd8frsf0b60","pricing_plan_id":"cebpf4jnsgd1na2vs0mg"},{"bike_id":"877e96ce-124a-4e14-a956-f3507977fbb3","system_id":"levelo_inurba_marseille","lat":43.289917,"lon":5.381429,"is_reserved":false,"is_disabled":false,"rental_uris":{"android":"levelo://app?vid=877e96ce-124a-4e14-a956-f3507977fbb3","ios":"levelo://app?vid=877e96ce-124a-4e14-a956-f3507977fbb3"},"vehicle_type_id":"4","last_reported":1743700121,"current_range_meters":10000,"station_id":"ce4bh492rcd13ifvqdug","pricing_plan_id":"cebpf4jnsgd1na2vs0mg"},{"bike_id":"a0bf43a8-6dc1-4d43-8c86-73cb9b02de7c","system_id":"levelo_inurba_marseille","lat":43.30902,"lon":5.36879,"is_reserved":false,"is_disabled":false,"rental_uris":{"android":"levelo://app?vid=a0bf43a8-6dc1-4d43-8c86-73cb9b02de7c","ios":"levelo://app?vid=a0bf43a8-6dc1-4d43-8c86-73cb9b02de7c"},"vehicle_type_id":"4","last_reported":1743700121,"current_range_meters":10000,"station_id":"ce4bgn92rcd13ifvqbvg","pricing_plan_id":"cebpf4jnsgd1na2vs0mg"},{"bike_id":"97196527-a6e6-40cf-a73b-7717f9c3b5b8","system_id":"levelo_inurba_marseille","lat":43.29198,"lon":5.35807,"is_reserved":false,"is_disabled":false,"rental_uris":{"android":"levelo://app?vid=97196527-a6e6-40cf-a73b-7717f9c3b5b8","ios":"levelo://app?vid=97196527-a6e6-40cf-a73b-7717f9c3b5b8"},"vehicle_type_id":"4","last_reported":1743700121,"current_range_meters":10000,"station_id":"ce4bhb12rcd13ifvqel0","pricing_plan_id":"cebpf4jnsgd1na2vs0mg"},{"bike_id":"3cf22d29-90b6-4c79-a643-886bc3743ca7","system_id":"levelo_inurba_marseille","lat":43.3343,"lon":5.40066,"is_reserved":false,"is_disabled":false,"rental_uris":{"android":"levelo://app?vid=3cf22d29-90b6-4c79-a643-886bc3743ca7","ios":"levelo://app?vid=3cf22d29-90b6-4c79-a643-886bc3743ca7"},"vehicle_type_id":"4","last_reported":1743700121,"current_range_meters":10000,"station_id":"","pricing_plan_id":"cebpf4jnsgd1na2vs0mg"},{"bike_id":"8fb6ad4a-8e84-48af-bf2e-30aa03533907","system_id":"levelo_inurba_marseille","lat":43.25081,"lon":5.39549,"is_reserved":false,"is_disabled":false,"rental_uris":{"android":"levelo://app?vid=8fb6ad4a-8e84-48af-bf2e-30aa03533907","ios":"levelo://app?vid=8fb6ad4a-8e84-48af-bf2e-30aa03533907"},"vehicle_type_id":"4","last_reported":1743700121,"current_range_meters":10000,"station_id":"ce4bhm12rcd13ifvqgkg","pricing_plan_id":"cebpf4jnsgd1na2vs0mg"},{"bike_id":"5aca124d-995b-49d2-8271-b944bc6b910e","system_id":"levelo_inurba_marseille","lat":43.29195,"lon":5.35807,"is_reserved":false,"is_disabled":false,"rental_uris":{"android":"levelo://app?vid=5aca124d-995b-49d2-8271-b944bc6b910e","ios":"levelo://app?vid=5aca124d-995b-49d2-8271-b944bc6b910e"},"vehicle_type_id":"4","last_reported":1743700121,"current_range_meters":10000,"station_id":"ce4bhb12rcd13ifvqel0","pricing_plan_id":"cebpf4jnsgd1na2vs0mg"},{"bike_id":"e3a29d38-a611-4b12-87ef-2fb8a21c41d5","system_id":"levelo_inurba_marseille","lat":43.22944,"lon":5.35402,"is_reserved":false,"is_disabled":false,"rental_uris":{"android":"levelo://app?vid=e3a29d38-a611-4b12-87ef-2fb8a21c41d5","ios":"levelo://app?vid=e3a29d38-a611-4b12-87ef-2fb8a21c41d5"},"vehicle_type_id":"4","last_reported":1743700121,"current_range_meters":10000,"station_id":"cpo3532slgdg3j2ikp40","pricing_plan_id":"cebpf4jnsgd1na2vs0mg"},{"bike_id":"5122ad34-7e86-490e-a68b-7f178671e351","system_id":"levelo_inurba_marseille","lat":43.28297,"lon":5.35084,"is_reserved":false,"is_disabled":false,"rental_uris":{"android":"levelo://app?vid=5122ad34-7e86-490e-a68b-7f178671e351","ios":"levelo://app?vid=5122ad34-7e86-490e-a68b-7f178671e351"},"vehicle_type_id":"4","last_reported":1743700121,"current_range_meters":10000,"station_id":"ce4bhbp2rcd13ifvqerg","pricing_plan_id":"cebpf4jnsgd1na2vs0mg"},{"bike_id":"a6ea1aec-0341-4f8a-aa57-8751baa05364","system_id":"levelo_inurba_marseille","lat":43.31738,"lon":5.37636,"is_reserved":false,"is_disabled":false,"rental_uris":{"android":"levelo://app?vid=a6ea1aec-0341-4f8a-aa57-8751baa05364","ios":"levelo://app?vid=a6ea1aec-0341-4f8a-aa57-8751baa05364"},"vehicle_type_id":"4","last_reported":1743700121,"current_range_meters":10000,"station_id":"","pricing_plan_id":"cebpf4jnsgd1na2vs0mg"},{"bike_id":"0dac6cbf-70aa-4c5b-9bd6-89ce0f38fbc3","system_id":"levelo_inurba_marseille","lat":43.31305,"lon":5.37348,"is_reserved":false,"is_disabled":false,"rental_uris":{"android":"levelo://app?vid=0dac6cbf-70aa-4c5b-9bd6-89ce0f38fbc3","ios":"levelo://app?vid=0dac6cbf-70aa-4c5b-9bd6-89ce0f38fbc3"},"vehicle_type_id":"4","last_reported":1743700121,"current_range_meters":10000,"station_id":"","pricing_plan_id":"cebpf4jnsgd1na2vs0mg"},{"bike_id":"c13336a2-47ce-488c-b5b6-77c01a3ac1d1","system_id":"levelo_inurba_marseille","lat":43.31895,"lon":5.40758,"is_reserved":false,"is_disabled":true,"rental_uris":{"android":"levelo://app?vid=c13336a2-47ce-488c-b5b6-77c01a3ac1d1","ios":"levelo://app?vid=c13336a2-47ce-488c-b5b6-77c01a3ac1d1"},"vehicle_type_id":"4","last_reported":1743700121,"current_range_meters":10000,"station_id":"ce4bhq12rcd13ifvqhig","pricing_plan_id":"cebpf4jnsgd1na2vs0mg"},{"bike_id":"63c19073-a7de-46ed-a396-8639743b910e","system_id":"levelo_inurba_marseille","lat":43.232,"lon":5.35554,"is_reserved":false,"is_disabled":false,"rental_uris":{"android":"levelo://app?vid=63c19073-a7de-46ed-a396-8639743b910e","ios":"levelo://app?vid=63c19073-a7de-46ed-a396-8639743b910e"},"vehicle_type_id":"4","last_reported":1743700121,"current_range_meters":10000,"station_id":"ce4bhu92rcd13ifvqi70","pricing_plan_id":"cebpf4jnsgd1na2vs0mg"},{"bike_id":"0c0e6e92-d189-4ff1-b11e-a905ea317793","system_id":"levelo_inurba_marseille","lat":43.294328,"lon":5.397528,"is_reserved":false,"is_disabled":false,"rental_uris":{"android":"levelo://app?vid=0c0e6e92-d189-4ff1-b11e-a905ea317793","ios":"levelo://app?vid=0c0e6e92-d189-4ff1-b11e-a905ea317793"},"vehicle_type_id":"4","last_reported":1743700121,"current_range_meters":10800,"station_id":"ce4bh3p2rcd13ifvqdp0","pricing_plan_id":"cebpf4jnsgd1na2vs0mg"},{"bike_id":"3fcdabd1-4ddc-41f6-92fe-0c5166929391","system_id":"levelo_inurba_marseille","lat":43.29942,"lon":5.36561,"is_reserved":false,"is_disabled":false,"rental_uris":{"android":"levelo://app?vid=3fcdabd1-4ddc-41f6-92fe-0c5166929391","ios":"levelo://app?vid=3fcdabd1-4ddc-41f6-92fe-0c5166929391"},"vehicle_type_id":"4","last_reported":1743700121,"current_range_meters":10800,"station_id":"ce4bgm92rcd13ifvqbr0","pricing_plan_id":"cebpf4jnsgd1na2vs0mg"},{"bike_id":"95c6afc1-751b-4335-9455-2a5c25d7f064","system_id":"levelo_inurba_marseille","lat":43.28912,"lon":5.36702,"is_reserved":false,"is_disabled":false,"rental_uris":{"android":"levelo://app?vid=95c6afc1-751b-4335-9455-2a5c25d7f064","ios":"levelo://app?vid=95c6afc1-751b-4335-9455-2a5c25d7f064"},"vehicle_type_id":"4","last_reported":1743700121,"current_range_meters":10800,"station_id":"","pricing_plan_id":"cebpf4jnsgd1na2vs0mg"},{"bike_id":"ee3ae286-a8c2-429c-afb5-c48c99d1344f","system_id":"levelo_inurba_marseille","lat":43.26807,"lon":5.40272,"is_reserved":false,"is_disabled":false,"rental_uris":{"android":"levelo://app?vid=ee3ae286-a8c2-429c-afb5-c48c99d1344f","ios":"levelo://app?vid=ee3ae286-a8c2-429c-afb5-c48c99d1344f"},"vehicle_type_id":"4","last_reported":1743700121,"current_range_meters":10800,"station_id":"ce501612rcd8frsf0b60","pricing_plan_id":"cebpf4jnsgd1na2vs0mg"},{"bike_id":"5c540eab-ece5-4a70-bad9-8ff578f521cb","system_id":"levelo_inurba_marseille","lat":43.28406,"lon":5.37514,"is_reserved":false,"is_disabled":false,"rental_uris":{"android":"levelo://app?vid=5c540eab-ece5-4a70-bad9-8ff578f521cb","ios":"levelo://app?vid=5c540eab-ece5-4a70-bad9-8ff578f521cb"},"vehicle_type_id":"4","last_reported":1743700121,"current_range_meters":10800,"station_id":"ce4bh412rcd13ifvqds0","pricing_plan_id":"cebpf4jnsgd1na2vs0mg"},{"bike_id":"efddeda7-6eb2-4c14-868d-fa0ce0b35ef3","system_id":"levelo_inurba_marseille","lat":43.31289,"lon":5.38277,"is_reserved":false,"is_disabled":false,"rental_uris":{"android":"levelo://app?vid=efddeda7-6eb2-4c14-868d-fa0ce0b35ef3","ios":"levelo://app?vid=efddeda7-6eb2-4c14-868d-fa0ce0b35ef3"},"vehicle_type_id":"4","last_reported":1743700121,"current_range_meters":10800,"station_id":"","pricing_plan_id":"cebpf4jnsgd1na2vs0mg"},{"bike_id":"4d021dc5-da23-461e-96b2-594066586ca8","system_id":"levelo_inurba_marseille","lat":43.27933,"lon":5.40857,"is_reserved":false,"is_disabled":false,"rental_uris":{"android":"levelo://app?vid=4d021dc5-da23-461e-96b2-594066586ca8","ios":"levelo://app?vid=4d021dc5-da23-461e-96b2-594066586ca8"},"vehicle_type_id":"4","last_reported":1743700121,"current_range_meters":10800,"station_id":"","pricing_plan_id":"cebpf4jnsgd1na2vs0mg"},{"bike_id":"1ff1dfb4-3317-4cb2-bd19-ace9b87ce6d9","system_id":"levelo_inurba_marseille","lat":43.25117,"lon":5.40317,"is_reserved":false,"is_disabled":false,"rental_uris":{"android":"levelo://app?vid=1ff1dfb4-3317-4cb2-bd19-ace9b87ce6d9","ios":"levelo://app?vid=1ff1dfb4-3317-4cb2-bd19-ace9b87ce6d9"},"vehicle_type_id":"4","last_reported":1743700121,"current_range_meters":10800,"station_id":"ce4bhlh2rcd13ifvqgig","pricing_plan_id":"cebpf4jnsgd1na2vs0mg"},{"bike_id":"7c8aa83d-7691-4e3b-9fdd-777e0d678d2a","system_id":"levelo_inurba_marseille","lat":43.24182,"lon":5.39725,"is_reserved":false,"is_disabled":false,"rental_uris":{"android":"levelo://app?vid=7c8aa83d-7691-4e3b-9fdd-777e0d678d2a","ios":"levelo://app?vid=7c8aa83d-7691-4e3b-9fdd-777e0d678d2a"},"vehicle_type_id":"4","last_reported":1743700121,"current_range_meters":10800,"station_id":"ce4bhn12rcd13ifvqgpg","pricing_plan_id":"cebpf4jnsgd1na2vs0mg"},{"bike_id":"84b6a9d6-3004-444d-8147-f056837e01b8","system_id":"levelo_inurba_marseille","lat":43.296196,"lon":5.371504,"is_reserved":false,"is_disabled":false,"rental_uris":{"android":"levelo://app?vid=84b6a9d6-3004-444d-8147-f056837e01b8","ios":"levelo://app?vid=84b6a9d6-3004-444d-8147-f056837e01b8"},"vehicle_type_id":"4","last_reported":1743700121,"current_range_meters":10800,"station_id":"ce4bgnh2rcd13ifvqc0g","pricing_plan_id":"cebpf4jnsgd1na2vs0mg"},{"bike_id":"2fa79cc2-8daf-4a65-b6ad-41968ea17d1d","system_id":"levelo_inurba_marseille","lat":43.304201,"lon":5.41287,"is_reserved":false,"is_disabled":false,"rental_uris":{"android":"levelo://app?vid=2fa79cc2-8daf-4a65-b6ad-41968ea17d1d","ios":"levelo://app?vid=2fa79cc2-8daf-4a65-b6ad-41968ea17d1d"},"vehicle_type_id":"4","last_reported":1743700121,"current_range_meters":11200,"station_id":"ce4bhp92rcd13ifvqhag","pricing_plan_id":"cebpf4jnsgd1na2vs0mg"},{"bike_id":"069feb28-9c06-4535-8070-12f86469d30d","system_id":"levelo_inurba_marseille","lat":43.28419,"lon":5.34981,"is_reserved":false,"is_disabled":false,"rental_uris":{"android":"levelo://app?vid=069feb28-9c06-4535-8070-12f86469d30d","ios":"levelo://app?vid=069feb28-9c06-4535-8070-12f86469d30d"},"vehicle_type_id":"4","last_reported":1743700121,"current_range_meters":11200,"station_id":"ce4bhbh2rcd13ifvqepg","pricing_plan_id":"cebpf4jnsgd1na2vs0mg"},{"bike_id":"3fcf251e-11b1-449f-adc4-532b5e52014a","system_id":"levelo_inurba_marseille","lat":43.29533,"lon":5.38552,"is_reserved":false,"is_disabled":false,"rental_uris":{"android":"levelo://app?vid=3fcf251e-11b1-449f-adc4-532b5e52014a","ios":"levelo://app?vid=3fcf251e-11b1-449f-adc4-532b5e52014a"},"vehicle_type_id":"4","last_reported":1743700121,"current_range_meters":11200,"station_id":"ce4bgih2rcd13ifvqba0","pricing_plan_id":"cebpf4jnsgd1na2vs0mg"},{"bike_id":"5231661a-6b23-4278-a0e6-7ef19e84336f","system_id":"levelo_inurba_marseille","lat":43.24548,"lon":5.39538,"is_reserved":false,"is_disabled":false,"rental_uris":{"android":"levelo://app?vid=5231661a-6b23-4278-a0e6-7ef19e84336f","ios":"levelo://app?vid=5231661a-6b23-4278-a0e6-7ef19e84336f"},"vehicle_type_id":"4","last_reported":1743700121,"current_range_meters":11200,"station_id":"ce4bhlp2rcd13ifvqgjg","pricing_plan_id":"cebpf4jnsgd1na2vs0mg"},{"bike_id":"c6dbfbad-c5e4-4444-9b15-94527aba01a5","system_id":"levelo_inurba_marseille","lat":43.30553,"lon":5.36541,"is_reserved":false,"is_disabled":true,"rental_uris":{"android":"levelo://app?vid=c6dbfbad-c5e4-4444-9b15-94527aba01a5","ios":"levelo://app?vid=c6dbfbad-c5e4-4444-9b15-94527aba01a5"},"vehicle_type_id":"4","last_reported":1743700121,"current_range_meters":11200,"station_id":"ce4bgs12rcd13ifvqcag","pricing_plan_id":"cebpf4jnsgd1na2vs0mg"},{"bike_id":"24e3653b-d452-4547-869a-08da5f3713f4","system_id":"levelo_inurba_marseille","lat":43.29528,"lon":5.37502,"is_reserved":false,"is_disabled":false,"rental_uris":{"android":"levelo://app?vid=24e3653b-d452-4547-869a-08da5f3713f4","ios":"levelo://app?vid=24e3653b-d452-4547-869a-08da5f3713f4"},"vehicle_type_id":"4","last_reported":1743700121,"current_range_meters":11200,"station_id":"ce4bgkp2rcd13ifvqbmg","pricing_plan_id":"cebpf4jnsgd1na2vs0mg"},{"bike_id":"d155e4a3-ffcb-4d28-aa5f-0a74f1e13cb6","system_id":"levelo_inurba_marseille","lat":43.25472,"lon":5.37656,"is_reserved":false,"is_disabled":false,"rental_uris":{"android":"levelo://app?vid=d155e4a3-ffcb-4d28-aa5f-0a74f1e13cb6","ios":"levelo://app?vid=d155e4a3-ffcb-4d28-aa5f-0a74f1e13cb6"},"vehicle_type_id":"4","last_reported":1743700121,"current_range_meters":11200,"station_id":"ce4bhh12rcd13ifvqff0","pricing_plan_id":"cebpf4jnsgd1na2vs0mg"},{"bike_id":"4882059e-a8eb-4daf-a7ce-0bc6ba2d898d","system_id":"levelo_inurba_marseille","lat":43.29255,"lon":5.38451,"is_reserved":false,"is_disabled":false,"rental_uris":{"android":"levelo://app?vid=4882059e-a8eb-4daf-a7ce-0bc6ba2d898d","ios":"levelo://app?vid=4882059e-a8eb-4daf-a7ce-0bc6ba2d898d"},"vehicle_type_id":"4","last_reported":1743700121,"current_range_meters":11600,"station_id":"ce4bh692rcd13ifvqea0","pricing_plan_id":"cebpf4jnsgd1na2vs0mg"},{"bike_id":"7aafecc6-162c-4e65-a83b-a414363ed47a","system_id":"levelo_inurba_marseille","lat":43.29865,"lon":5.3892,"is_reserved":false,"is_disabled":false,"rental_uris":{"android":"levelo://app?vid=7aafecc6-162c-4e65-a83b-a414363ed47a","ios":"levelo://app?vid=7aafecc6-162c-4e65-a83b-a414363ed47a"},"vehicle_type_id":"4","last_reported":1743700121,"current_range_meters":11600,"station_id":"ce4bh392rcd13ifvqdl0","pricing_plan_id":"cebpf4jnsgd1na2vs0mg"},{"bike_id":"0ffe0d0f-3edd-47a1-bb6d-2271cf25ad81","system_id":"levelo_inurba_marseille","lat":43.25121,"lon":5.40316,"is_reserved":false,"is_disabled":false,"rental_uris":{"android":"levelo://app?vid=0ffe0d0f-3edd-47a1-bb6d-2271cf25ad81","ios":"levelo://app?vid=0ffe0d0f-3edd-47a1-bb6d-2271cf25ad81"},"vehicle_type_id":"4","last_reported":1743700121,"current_range_meters":11200,"station_id":"ce4bhlh2rcd13ifvqgig","pricing_plan_id":"cebpf4jnsgd1na2vs0mg"},{"bike_id":"f97ebe6b-297e-45b0-86de-e5aa2cc3a2ad","system_id":"levelo_inurba_marseille","lat":43.271785,"lon":5.410078,"is_reserved":false,"is_disabled":false,"rental_uris":{"android":"levelo://app?vid=f97ebe6b-297e-45b0-86de-e5aa2cc3a2ad","ios":"levelo://app?vid=f97ebe6b-297e-45b0-86de-e5aa2cc3a2ad"},"vehicle_type_id":"4","last_reported":1743700121,"current_range_meters":11600,"station_id":"ce4bhl12rcd13ifvqgf0","pricing_plan_id":"cebpf4jnsgd1na2vs0mg"},{"bike_id":"f7632904-9cee-49f7-a0fa-aacfef493703","system_id":"levelo_inurba_marseille","lat":43.2293,"lon":5.35377,"is_reserved":false,"is_disabled":false,"rental_uris":{"android":"levelo://app?vid=f7632904-9cee-49f7-a0fa-aacfef493703","ios":"levelo://app?vid=f7632904-9cee-49f7-a0fa-aacfef493703"},"vehicle_type_id":"4","last_reported":1743700121,"current_range_meters":11600,"station_id":"cpo3532slgdg3j2ikp40","pricing_plan_id":"cebpf4jnsgd1na2vs0mg"},{"bike_id":"3eac8174-2816-45b8-a26e-a2bac3e3f9cf","system_id":"levelo_inurba_marseille","lat":43.29541,"lon":5.38545,"is_reserved":false,"is_disabled":false,"rental_uris":{"android":"levelo://app?vid=3eac8174-2816-45b8-a26e-a2bac3e3f9cf","ios":"levelo://app?vid=3eac8174-2816-45b8-a26e-a2bac3e3f9cf"},"vehicle_type_id":"4","last_reported":1743700121,"current_range_meters":11600,"station_id":"ce4bgih2rcd13ifvqba0","pricing_plan_id":"cebpf4jnsgd1na2vs0mg"},{"bike_id":"6963f34c-cec5-4b77-b141-317759deb336","system_id":"levelo_inurba_marseille","lat":43.29226,"lon":5.36071,"is_reserved":false,"is_disabled":false,"rental_uris":{"android":"levelo://app?vid=6963f34c-cec5-4b77-b141-317759deb336","ios":"levelo://app?vid=6963f34c-cec5-4b77-b141-317759deb336"},"vehicle_type_id":"4","last_reported":1743700121,"current_range_meters":11600,"station_id":"ce4bhbh2rcd13ifvqeqg","pricing_plan_id":"cebpf4jnsgd1na2vs0mg"},{"bike_id":"c6d3b00c-9749-443d-bcd6-ba00ed48fc80","system_id":"levelo_inurba_marseille","lat":43.28931,"lon":5.38397,"is_reserved":false,"is_disabled":false,"rental_uris":{"android":"levelo://app?vid=c6d3b00c-9749-443d-bcd6-ba00ed48fc80","ios":"levelo://app?vid=c6d3b00c-9749-443d-bcd6-ba00ed48fc80"},"vehicle_type_id":"4","last_reported":1743700121,"current_range_meters":11200,"station_id":"ce4bh612rcd13ifvqe6g","pricing_plan_id":"cebpf4jnsgd1na2vs0mg"},{"bike_id":"eb47c887-9308-434e-b430-d0c360e3f456","system_id":"levelo_inurba_marseille","lat":43.2848,"lon":5.38406,"is_reserved":false,"is_disabled":false,"rental_uris":{"android":"levelo://app?vid=eb47c887-9308-434e-b430-d0c360e3f456","ios":"levelo://app?vid=eb47c887-9308-434e-b430-d0c360e3f456"},"vehicle_type_id":"4","last_reported":1743700121,"current_range_meters":11600,"station_id":"ce4bh512rcd13ifvqe3g","pricing_plan_id":"cebpf4jnsgd1na2vs0mg"},{"bike_id":"72fd48d9-88cb-4944-b105-1efff245f1ff","system_id":"levelo_inurba_marseille","lat":43.28442,"lon":5.39181,"is_reserved":false,"is_disabled":true,"rental_uris":{"android":"levelo://app?vid=72fd48d9-88cb-4944-b105-1efff245f1ff","ios":"levelo://app?vid=72fd48d9-88cb-4944-b105-1efff245f1ff"},"vehicle_type_id":"4","last_reported":1743700121,"current_range_meters":12000,"station_id":"ce4bhoh2rcd13ifvqh5g","pricing_plan_id":"cebpf4jnsgd1na2vs0mg"},{"bike_id":"b1fc602d-8c5c-4bd9-9b28-62c83db8d134","system_id":"levelo_inurba_marseille","lat":43.295113,"lon":5.389466,"is_reserved":false,"is_disabled":false,"rental_uris":{"android":"levelo://app?vid=b1fc602d-8c5c-4bd9-9b28-62c83db8d134","ios":"levelo://app?vid=b1fc602d-8c5c-4bd9-9b28-62c83db8d134"},"vehicle_type_id":"4","last_reported":1743700121,"current_range_meters":12000,"station_id":"ce4bh3p2rcd13ifvqdp0","pricing_plan_id":"cebpf4jnsgd1na2vs0mg"},{"bike_id":"c493ad49-f2c7-4d05-b88b-22e73ed4d395","system_id":"levelo_inurba_marseille","lat":43.24806,"lon":5.37454,"is_reserved":false,"is_disabled":false,"rental_uris":{"android":"levelo://app?vid=c493ad49-f2c7-4d05-b88b-22e73ed4d395","ios":"levelo://app?vid=c493ad49-f2c7-4d05-b88b-22e73ed4d395"},"vehicle_type_id":"4","last_reported":1743700121,"current_range_meters":12000,"station_id":"ce4bhgh2rcd13ifvqfb0","pricing_plan_id":"cebpf4jnsgd1na2vs0mg"},{"bike_id":"75a1627a-f8b2-4d26-876c-fb911ad379a1","system_id":"levelo_inurba_marseille","lat":43.29268,"lon":5.3844,"is_reserved":false,"is_disabled":false,"rental_uris":{"android":"levelo://app?vid=75a1627a-f8b2-4d26-876c-fb911ad379a1","ios":"levelo://app?vid=75a1627a-f8b2-4d26-876c-fb911ad379a1"},"vehicle_type_id":"4","last_reported":1743700121,"current_range_meters":12000,"station_id":"ce4bh692rcd13ifvqea0","pricing_plan_id":"cebpf4jnsgd1na2vs0mg"},{"bike_id":"d04040d1-3df3-4261-a681-4b6c34d226d1","system_id":"levelo_inurba_marseille","lat":43.27381,"lon":5.36259,"is_reserved":false,"is_disabled":false,"rental_uris":{"android":"levelo://app?vid=d04040d1-3df3-4261-a681-4b6c34d226d1","ios":"levelo://app?vid=d04040d1-3df3-4261-a681-4b6c34d226d1"},"vehicle_type_id":"4","last_reported":1743700121,"current_range_meters":12000,"station_id":"ce4bhbh2rcd13ifvqeo0","pricing_plan_id":"cebpf4jnsgd1na2vs0mg"},{"bike_id":"453f3e5c-0253-4552-89b6-768b5577bd3e","system_id":"levelo_inurba_marseille","lat":43.28274,"lon":5.3508,"is_reserved":false,"is_disabled":false,"rental_uris":{"android":"levelo://app?vid=453f3e5c-0253-4552-89b6-768b5577bd3e","ios":"levelo://app?vid=453f3e5c-0253-4552-89b6-768b5577bd3e"},"vehicle_type_id":"4","last_reported":1743700121,"current_range_meters":12000,"station_id":"ce4bhbp2rcd13ifvqerg","pricing_plan_id":"cebpf4jnsgd1na2vs0mg"},{"bike_id":"785b2f0e-7d62-42c5-bd7e-93f3c8a74d6a","system_id":"levelo_inurba_marseille","lat":43.2842,"lon":5.34984,"is_reserved":false,"is_disabled":false,"rental_uris":{"android":"levelo://app?vid=785b2f0e-7d62-42c5-bd7e-93f3c8a74d6a","ios":"levelo://app?vid=785b2f0e-7d62-42c5-bd7e-93f3c8a74d6a"},"vehicle_type_id":"4","last_reported":1743700121,"current_range_meters":12000,"station_id":"ce4bhbh2rcd13ifvqepg","pricing_plan_id":"cebpf4jnsgd1na2vs0mg"},{"bike_id":"becd4d9c-f5b2-4018-aadd-5312c9b4ec50","system_id":"levelo_inurba_marseille","lat":43.23963,"lon":5.3663,"is_reserved":false,"is_disabled":false,"rental_uris":{"android":"levelo://app?vid=becd4d9c-f5b2-4018-aadd-5312c9b4ec50","ios":"levelo://app?vid=becd4d9c-f5b2-4018-aadd-5312c9b4ec50"},"vehicle_type_id":"4","last_reported":1743700121,"current_range_meters":12000,"station_id":"ce4bhi12rcd13ifvqfp0","pricing_plan_id":"cebpf4jnsgd1na2vs0mg"},{"bike_id":"df174648-77de-40cd-88ee-7b4229f7fe18","system_id":"levelo_inurba_marseille","lat":43.295121,"lon":5.375043,"is_reserved":false,"is_disabled":false,"rental_uris":{"android":"levelo://app?vid=df174648-77de-40cd-88ee-7b4229f7fe18","ios":"levelo://app?vid=df174648-77de-40cd-88ee-7b4229f7fe18"},"vehicle_type_id":"4","last_reported":1743700121,"current_range_meters":12000,"station_id":"ce4bgkp2rcd13ifvqbmg","pricing_plan_id":"cebpf4jnsgd1na2vs0mg"},{"bike_id":"63139285-137c-4e8d-8e95-6c2a275f8333","system_id":"levelo_inurba_marseille","lat":43.32088,"lon":5.36804,"is_reserved":false,"is_disabled":false,"rental_uris":{"android":"levelo://app?vid=63139285-137c-4e8d-8e95-6c2a275f8333","ios":"levelo://app?vid=63139285-137c-4e8d-8e95-6c2a275f8333"},"vehicle_type_id":"4","last_reported":1743700121,"current_range_meters":12000,"station_id":"ce4bhrh2rcd13ifvqhug","pricing_plan_id":"cebpf4jnsgd1na2vs0mg"},{"bike_id":"57a27ac4-a3c6-4053-86ec-45699790a38d","system_id":"levelo_inurba_marseille","lat":43.2559,"lon":5.38254,"is_reserved":false,"is_disabled":false,"rental_uris":{"android":"levelo://app?vid=57a27ac4-a3c6-4053-86ec-45699790a38d","ios":"levelo://app?vid=57a27ac4-a3c6-4053-86ec-45699790a38d"},"vehicle_type_id":"4","last_reported":1743700121,"current_range_meters":12000,"station_id":"ce4bhih2rcd13ifvqfs0","pricing_plan_id":"cebpf4jnsgd1na2vs0mg"},{"bike_id":"3c26d37c-a1ae-40d2-8948-97eeb0490610","system_id":"levelo_inurba_marseille","lat":43.286081,"lon":5.370586,"is_reserved":false,"is_disabled":false,"rental_uris":{"android":"levelo://app?vid=3c26d37c-a1ae-40d2-8948-97eeb0490610","ios":"levelo://app?vid=3c26d37c-a1ae-40d2-8948-97eeb0490610"},"vehicle_type_id":"4","last_reported":1743700121,"current_range_meters":12400,"station_id":"ce4bht12rcd13ifvqi60","pricing_plan_id":"cebpf4jnsgd1na2vs0mg"},{"bike_id":"c457b9c7-aa79-427b-a586-05626b6d92be","system_id":"levelo_inurba_marseille","lat":43.23196,"lon":5.35556,"is_reserved":false,"is_disabled":false,"rental_uris":{"android":"levelo://app?vid=c457b9c7-aa79-427b-a586-05626b6d92be","ios":"levelo://app?vid=c457b9c7-aa79-427b-a586-05626b6d92be"},"vehicle_type_id":"4","last_reported":1743700121,"current_range_meters":12400,"station_id":"ce4bhu92rcd13ifvqi70","pricing_plan_id":"cebpf4jnsgd1na2vs0mg"},{"bike_id":"df312f8f-ae14-4d84-8814-766e53d9e1c9","system_id":"levelo_inurba_marseille","lat":43.29263,"lon":5.38439,"is_reserved":false,"is_disabled":false,"rental_uris":{"android":"levelo://app?vid=df312f8f-ae14-4d84-8814-766e53d9e1c9","ios":"levelo://app?vid=df312f8f-ae14-4d84-8814-766e53d9e1c9"},"vehicle_type_id":"4","last_reported":1743700121,"current_range_meters":12400,"station_id":"ce4bh692rcd13ifvqea0","pricing_plan_id":"cebpf4jnsgd1na2vs0mg"},{"bike_id":"6828a273-3385-4362-823d-d4c2d47ece88","system_id":"levelo_inurba_marseille","lat":43.30942,"lon":5.36822,"is_reserved":false,"is_disabled":false,"rental_uris":{"android":"levelo://app?vid=6828a273-3385-4362-823d-d4c2d47ece88","ios":"levelo://app?vid=6828a273-3385-4362-823d-d4c2d47ece88"},"vehicle_type_id":"4","last_reported":1743700121,"current_range_meters":12400,"station_id":"ce4bgn92rcd13ifvqbvg","pricing_plan_id":"cebpf4jnsgd1na2vs0mg"},{"bike_id":"fcb10375-e69c-45ce-8dd0-a82535ec4247","system_id":"levelo_inurba_marseille","lat":43.30182,"lon":5.36615,"is_reserved":false,"is_disabled":false,"rental_uris":{"android":"levelo://app?vid=fcb10375-e69c-45ce-8dd0-a82535ec4247","ios":"levelo://app?vid=fcb10375-e69c-45ce-8dd0-a82535ec4247"},"vehicle_type_id":"4","last_reported":1743700121,"current_range_meters":12400,"station_id":"ce4bgrh2rcd13ifvqc8g","pricing_plan_id":"cebpf4jnsgd1na2vs0mg"},{"bike_id":"69c0db05-6ded-4dc6-9720-2452c83c1020","system_id":"levelo_inurba_marseille","lat":43.22946,"lon":5.35394,"is_reserved":false,"is_disabled":false,"rental_uris":{"android":"levelo://app?vid=69c0db05-6ded-4dc6-9720-2452c83c1020","ios":"levelo://app?vid=69c0db05-6ded-4dc6-9720-2452c83c1020"},"vehicle_type_id":"4","last_reported":1743700121,"current_range_meters":12400,"station_id":"cpo3532slgdg3j2ikp40","pricing_plan_id":"cebpf4jnsgd1na2vs0mg"},{"bike_id":"c8feeb94-9f31-4794-9815-cec03ca20297","system_id":"levelo_inurba_marseille","lat":43.246887,"lon":5.393773,"is_reserved":false,"is_disabled":false,"rental_uris":{"android":"levelo://app?vid=c8feeb94-9f31-4794-9815-cec03ca20297","ios":"levelo://app?vid=c8feeb94-9f31-4794-9815-cec03ca20297"},"vehicle_type_id":"4","last_reported":1743700121,"current_range_meters":12400,"station_id":"ce4bhih2rcd13ifvqfs0","pricing_plan_id":"cebpf4jnsgd1na2vs0mg"},{"bike_id":"fbeb6409-e1bf-49a0-92a9-a19546ca23d3","system_id":"levelo_inurba_marseille","lat":43.27808,"lon":5.40674,"is_reserved":false,"is_disabled":false,"rental_uris":{"android":"levelo://app?vid=fbeb6409-e1bf-49a0-92a9-a19546ca23d3","ios":"levelo://app?vid=fbeb6409-e1bf-49a0-92a9-a19546ca23d3"},"vehicle_type_id":"4","last_reported":1743700121,"current_range_meters":12400,"station_id":"ce4bhnh2rcd13ifvqgtg","pricing_plan_id":"cebpf4jnsgd1na2vs0mg"},{"bike_id":"5f46717b-05d1-4f34-a220-8087932d755b","system_id":"levelo_inurba_marseille","lat":43.30111,"lon":5.36951,"is_reserved":false,"is_disabled":false,"rental_uris":{"android":"levelo://app?vid=5f46717b-05d1-4f34-a220-8087932d755b","ios":"levelo://app?vid=5f46717b-05d1-4f34-a220-8087932d755b"},"vehicle_type_id":"4","last_reported":1743700121,"current_range_meters":12400,"station_id":"","pricing_plan_id":"cebpf4jnsgd1na2vs0mg"},{"bike_id":"6bae748d-6031-41ef-83a6-0e495485c08e","system_id":"levelo_inurba_marseille","lat":43.28853,"lon":5.35843,"is_reserved":false,"is_disabled":false,"rental_uris":{"android":"levelo://app?vid=6bae748d-6031-41ef-83a6-0e495485c08e","ios":"levelo://app?vid=6bae748d-6031-41ef-83a6-0e495485c08e"},"vehicle_type_id":"4","last_reported":1743700121,"current_range_meters":12400,"station_id":"ce4bhb12rcd13ifvqem0","pricing_plan_id":"cebpf4jnsgd1na2vs0mg"},{"bike_id":"6bca0a29-b040-49bc-b07b-918965c53d85","system_id":"levelo_inurba_marseille","lat":43.28945,"lon":5.36382,"is_reserved":false,"is_disabled":false,"rental_uris":{"android":"levelo://app?vid=6bca0a29-b040-49bc-b07b-918965c53d85","ios":"levelo://app?vid=6bca0a29-b040-49bc-b07b-918965c53d85"},"vehicle_type_id":"4","last_reported":1743700121,"current_range_meters":12800,"station_id":"ce4bhc92rcd13ifvqetg","pricing_plan_id":"cebpf4jnsgd1na2vs0mg"},{"bike_id":"da0ea7fa-6030-4c06-857e-09c3cabfeac0","system_id":"levelo_inurba_marseille","lat":43.2799,"lon":5.3875,"is_reserved":false,"is_disabled":false,"rental_uris":{"android":"levelo://app?vid=da0ea7fa-6030-4c06-857e-09c3cabfeac0","ios":"levelo://app?vid=da0ea7fa-6030-4c06-857e-09c3cabfeac0"},"vehicle_type_id":"4","last_reported":1743700121,"current_range_meters":12800,"station_id":"ce4bhg12rcd13ifvqf80","pricing_plan_id":"cebpf4jnsgd1na2vs0mg"},{"bike_id":"a6303451-5b45-435c-bf0e-748f94cc010d","system_id":"levelo_inurba_marseille","lat":43.23197,"lon":5.35584,"is_reserved":false,"is_disabled":false,"rental_uris":{"android":"levelo://app?vid=a6303451-5b45-435c-bf0e-748f94cc010d","ios":"levelo://app?vid=a6303451-5b45-435c-bf0e-748f94cc010d"},"vehicle_type_id":"4","last_reported":1743700121,"current_range_meters":12800,"station_id":"ce4bhu92rcd13ifvqi70","pricing_plan_id":"cebpf4jnsgd1na2vs0mg"},{"bike_id":"59db9786-7d0c-4870-b6e9-df9c4ab5f946","system_id":"levelo_inurba_marseille","lat":43.293197,"lon":5.371508,"is_reserved":false,"is_disabled":false,"rental_uris":{"android":"levelo://app?vid=59db9786-7d0c-4870-b6e9-df9c4ab5f946","ios":"levelo://app?vid=59db9786-7d0c-4870-b6e9-df9c4ab5f946"},"vehicle_type_id":"4","last_reported":1743700121,"current_range_meters":12800,"station_id":"ce4bh2h2rcd13ifvqdh0","pricing_plan_id":"cebpf4jnsgd1na2vs0mg"},{"bike_id":"2ce79519-064e-47c2-9b31-3251e8fa1905","system_id":"levelo_inurba_marseille","lat":43.252585,"lon":5.40226,"is_reserved":false,"is_disabled":false,"rental_uris":{"android":"levelo://app?vid=2ce79519-064e-47c2-9b31-3251e8fa1905","ios":"levelo://app?vid=2ce79519-064e-47c2-9b31-3251e8fa1905"},"vehicle_type_id":"4","last_reported":1743700121,"current_range_meters":12800,"station_id":"ce4bhlh2rcd13ifvqgig","pricing_plan_id":"cebpf4jnsgd1na2vs0mg"},{"bike_id":"1d90d0b2-7759-40db-8678-65deabff497c","system_id":"levelo_inurba_marseille","lat":43.2871,"lon":5.36079,"is_reserved":false,"is_disabled":false,"rental_uris":{"android":"levelo://app?vid=1d90d0b2-7759-40db-8678-65deabff497c","ios":"levelo://app?vid=1d90d0b2-7759-40db-8678-65deabff497c"},"vehicle_type_id":"4","last_reported":1743700121,"current_range_meters":12800,"station_id":"cki0cbj6b192h4jlfktg","pricing_plan_id":"cebpf4jnsgd1na2vs0mg"},{"bike_id":"ab57c845-12ba-42ac-95d8-a44f4dd1af0a","system_id":"levelo_inurba_marseille","lat":43.30898,"lon":5.37185,"is_reserved":false,"is_disabled":false,"rental_uris":{"android":"levelo://app?vid=ab57c845-12ba-42ac-95d8-a44f4dd1af0a","ios":"levelo://app?vid=ab57c845-12ba-42ac-95d8-a44f4dd1af0a"},"vehicle_type_id":"4","last_reported":1743700121,"current_range_meters":12800,"station_id":"ce4bguh2rcd13ifvqckg","pricing_plan_id":"cebpf4jnsgd1na2vs0mg"},{"bike_id":"025f268d-c761-4aa2-9c6f-5f832f228ed4","system_id":"levelo_inurba_marseille","lat":43.29932,"lon":5.36548,"is_reserved":false,"is_disabled":false,"rental_uris":{"android":"levelo://app?vid=025f268d-c761-4aa2-9c6f-5f832f228ed4","ios":"levelo://app?vid=025f268d-c761-4aa2-9c6f-5f832f228ed4"},"vehicle_type_id":"4","last_reported":1743700121,"current_range_meters":12800,"station_id":"ce4bgm92rcd13ifvqbr0","pricing_plan_id":"cebpf4jnsgd1na2vs0mg"},{"bike_id":"c611372a-1bd7-4682-a269-9a02ba50eeab","system_id":"levelo_inurba_marseille","lat":43.29981,"lon":5.38502,"is_reserved":false,"is_disabled":true,"rental_uris":{"android":"levelo://app?vid=c611372a-1bd7-4682-a269-9a02ba50eeab","ios":"levelo://app?vid=c611372a-1bd7-4682-a269-9a02ba50eeab"},"vehicle_type_id":"4","last_reported":1743700121,"current_range_meters":12800,"station_id":"ce4bgj92rcd13ifvqbd0","pricing_plan_id":"cebpf4jnsgd1na2vs0mg"},{"bike_id":"7b83d2ba-571d-486e-9da5-f118c5d41f62","system_id":"levelo_inurba_marseille","lat":43.26028,"lon":5.37548,"is_reserved":false,"is_disabled":false,"rental_uris":{"android":"levelo://app?vid=7b83d2ba-571d-486e-9da5-f118c5d41f62","ios":"levelo://app?vid=7b83d2ba-571d-486e-9da5-f118c5d41f62"},"vehicle_type_id":"4","last_reported":1743700121,"current_range_meters":12400,"station_id":"ce4bhgh2rcd13ifvqfa0","pricing_plan_id":"cebpf4jnsgd1na2vs0mg"},{"bike_id":"f1e5f20d-e5bb-4349-9a72-f7ab8a004414","system_id":"levelo_inurba_marseille","lat":43.30325,"lon":5.40446,"is_reserved":false,"is_disabled":true,"rental_uris":{"android":"levelo://app?vid=f1e5f20d-e5bb-4349-9a72-f7ab8a004414","ios":"levelo://app?vid=f1e5f20d-e5bb-4349-9a72-f7ab8a004414"},"vehicle_type_id":"4","last_reported":1743700121,"current_range_meters":12800,"station_id":"ce4bh012rcd13ifvqd10","pricing_plan_id":"cebpf4jnsgd1na2vs0mg"},{"bike_id":"a2cc56b1-ff5c-4d49-8794-6951d2d93f41","system_id":"levelo_inurba_marseille","lat":43.23957,"lon":5.36628,"is_reserved":false,"is_disabled":false,"rental_uris":{"android":"levelo://app?vid=a2cc56b1-ff5c-4d49-8794-6951d2d93f41","ios":"levelo://app?vid=a2cc56b1-ff5c-4d49-8794-6951d2d93f41"},"vehicle_type_id":"4","last_reported":1743700121,"current_range_meters":13600,"station_id":"ce4bhi12rcd13ifvqfp0","pricing_plan_id":"cebpf4jnsgd1na2vs0mg"},{"bike_id":"2907afc2-01ac-4aec-9b08-c3a75d8347bc","system_id":"levelo_inurba_marseille","lat":43.26222,"lon":5.40459,"is_reserved":false,"is_disabled":false,"rental_uris":{"android":"levelo://app?vid=2907afc2-01ac-4aec-9b08-c3a75d8347bc","ios":"levelo://app?vid=2907afc2-01ac-4aec-9b08-c3a75d8347bc"},"vehicle_type_id":"4","last_reported":1743700121,"current_range_meters":13600,"station_id":"ce4bhmh2rcd13ifvqgmg","pricing_plan_id":"cebpf4jnsgd1na2vs0mg"},{"bike_id":"33433097-89c0-439e-bc0d-aa3d0d891a60","system_id":"levelo_inurba_marseille","lat":43.27382,"lon":5.36219,"is_reserved":false,"is_disabled":false,"rental_uris":{"android":"levelo://app?vid=33433097-89c0-439e-bc0d-aa3d0d891a60","ios":"levelo://app?vid=33433097-89c0-439e-bc0d-aa3d0d891a60"},"vehicle_type_id":"4","last_reported":1743700121,"current_range_meters":13600,"station_id":"ce4bhbh2rcd13ifvqeo0","pricing_plan_id":"cebpf4jnsgd1na2vs0mg"},{"bike_id":"d126d5b7-9b80-4545-ada9-e50bec254514","system_id":"levelo_inurba_marseille","lat":43.32323,"lon":5.40624,"is_reserved":false,"is_disabled":false,"rental_uris":{"android":"levelo://app?vid=d126d5b7-9b80-4545-ada9-e50bec254514","ios":"levelo://app?vid=d126d5b7-9b80-4545-ada9-e50bec254514"},"vehicle_type_id":"4","last_reported":1743700121,"current_range_meters":13600,"station_id":"ce4bhq92rcd13ifvqhjg","pricing_plan_id":"cebpf4jnsgd1na2vs0mg"},{"bike_id":"bf4fc0ff-c436-4bbe-aef1-d5a47d892d57","system_id":"levelo_inurba_marseille","lat":43.28703,"lon":5.39974,"is_reserved":false,"is_disabled":false,"rental_uris":{"android":"levelo://app?vid=bf4fc0ff-c436-4bbe-aef1-d5a47d892d57","ios":"levelo://app?vid=bf4fc0ff-c436-4bbe-aef1-d5a47d892d57"},"vehicle_type_id":"4","last_reported":1743700121,"current_range_meters":13600,"station_id":"ce4bho92rcd13ifvqh3g","pricing_plan_id":"cebpf4jnsgd1na2vs0mg"},{"bike_id":"254860cc-630e-450e-ac74-8541b6219a59","system_id":"levelo_inurba_marseille","lat":43.297974,"lon":5.380905,"is_reserved":false,"is_disabled":false,"rental_uris":{"android":"levelo://app?vid=254860cc-630e-450e-ac74-8541b6219a59","ios":"levelo://app?vid=254860cc-630e-450e-ac74-8541b6219a59"},"vehicle_type_id":"4","last_reported":1743700121,"current_range_meters":14000,"station_id":"ce4bgip2rcd13ifvqbb0","pricing_plan_id":"cebpf4jnsgd1na2vs0mg"},{"bike_id":"0da307f0-a737-4f3f-8786-4dd451d57e79","system_id":"levelo_inurba_marseille","lat":43.30849,"lon":5.36753,"is_reserved":false,"is_disabled":false,"rental_uris":{"android":"levelo://app?vid=0da307f0-a737-4f3f-8786-4dd451d57e79","ios":"levelo://app?vid=0da307f0-a737-4f3f-8786-4dd451d57e79"},"vehicle_type_id":"4","last_reported":1743700121,"current_range_meters":14000,"station_id":"","pricing_plan_id":"cebpf4jnsgd1na2vs0mg"},{"bike_id":"a26113f2-d732-4c59-b631-7295bf1dc7b9","system_id":"levelo_inurba_marseille","lat":43.2901,"lon":5.35617,"is_reserved":false,"is_disabled":false,"rental_uris":{"android":"levelo://app?vid=a26113f2-d732-4c59-b631-7295bf1dc7b9","ios":"levelo://app?vid=a26113f2-d732-4c59-b631-7295bf1dc7b9"},"vehicle_type_id":"4","last_reported":1743700121,"current_range_meters":14000,"station_id":"ce4bhb92rcd13ifvqen0","pricing_plan_id":"cebpf4jnsgd1na2vs0mg"},{"bike_id":"5bff6e47-f335-4d5b-9a88-9e0a9952313c","system_id":"levelo_inurba_marseille","lat":43.28671,"lon":5.36353,"is_reserved":false,"is_disabled":false,"rental_uris":{"android":"levelo://app?vid=5bff6e47-f335-4d5b-9a88-9e0a9952313c","ios":"levelo://app?vid=5bff6e47-f335-4d5b-9a88-9e0a9952313c"},"vehicle_type_id":"4","last_reported":1743700121,"current_range_meters":14000,"station_id":"ce4bhah2rcd13ifvqej0","pricing_plan_id":"cebpf4jnsgd1na2vs0mg"},{"bike_id":"2ea1cfb0-e3e9-497e-ac90-8bdbcb47a313","system_id":"levelo_inurba_marseille","lat":43.29517,"lon":5.39409,"is_reserved":false,"is_disabled":false,"rental_uris":{"android":"levelo://app?vid=2ea1cfb0-e3e9-497e-ac90-8bdbcb47a313","ios":"levelo://app?vid=2ea1cfb0-e3e9-497e-ac90-8bdbcb47a313"},"vehicle_type_id":"4","last_reported":1743700121,"current_range_meters":14000,"station_id":"ce4bh292rcd13ifvqdf0","pricing_plan_id":"cebpf4jnsgd1na2vs0mg"},{"bike_id":"417bbe8c-29ba-49c8-9882-0736a290469e","system_id":"levelo_inurba_marseille","lat":43.28667,"lon":5.3636,"is_reserved":false,"is_disabled":false,"rental_uris":{"android":"levelo://app?vid=417bbe8c-29ba-49c8-9882-0736a290469e","ios":"levelo://app?vid=417bbe8c-29ba-49c8-9882-0736a290469e"},"vehicle_type_id":"4","last_reported":1743700121,"current_range_meters":14000,"station_id":"ce4bhah2rcd13ifvqej0","pricing_plan_id":"cebpf4jnsgd1na2vs0mg"},{"bike_id":"42f532f2-d7bd-4c2e-8810-585bc9998121","system_id":"levelo_inurba_marseille","lat":43.29271,"lon":5.38435,"is_reserved":false,"is_disabled":false,"rental_uris":{"android":"levelo://app?vid=42f532f2-d7bd-4c2e-8810-585bc9998121","ios":"levelo://app?vid=42f532f2-d7bd-4c2e-8810-585bc9998121"},"vehicle_type_id":"4","last_reported":1743700121,"current_range_meters":14000,"station_id":"ce4bh692rcd13ifvqea0","pricing_plan_id":"cebpf4jnsgd1na2vs0mg"},{"bike_id":"245ecaf1-c4c2-42a1-b02d-3b67e4cb0823","system_id":"levelo_inurba_marseille","lat":43.27378,"lon":5.36254,"is_reserved":false,"is_disabled":false,"rental_uris":{"android":"levelo://app?vid=245ecaf1-c4c2-42a1-b02d-3b67e4cb0823","ios":"levelo://app?vid=245ecaf1-c4c2-42a1-b02d-3b67e4cb0823"},"vehicle_type_id":"4","last_reported":1743700121,"current_range_meters":14000,"station_id":"ce4bhbh2rcd13ifvqeo0","pricing_plan_id":"cebpf4jnsgd1na2vs0mg"},{"bike_id":"74a13a18-430a-4f50-ba26-e7dfbad23482","system_id":"levelo_inurba_marseille","lat":43.23069,"lon":5.35498,"is_reserved":false,"is_disabled":false,"rental_uris":{"android":"levelo://app?vid=74a13a18-430a-4f50-ba26-e7dfbad23482","ios":"levelo://app?vid=74a13a18-430a-4f50-ba26-e7dfbad23482"},"vehicle_type_id":"4","last_reported":1743700121,"current_range_meters":14000,"station_id":"cpo3342slgdg3j2ifvpg","pricing_plan_id":"cebpf4jnsgd1na2vs0mg"},{"bike_id":"8be7f7a1-79e0-4a6c-9fc1-c11ac5211102","system_id":"levelo_inurba_marseille","lat":43.30651,"lon":5.40069,"is_reserved":false,"is_disabled":false,"rental_uris":{"android":"levelo://app?vid=8be7f7a1-79e0-4a6c-9fc1-c11ac5211102","ios":"levelo://app?vid=8be7f7a1-79e0-4a6c-9fc1-c11ac5211102"},"vehicle_type_id":"4","last_reported":1743700121,"current_range_meters":14000,"station_id":"ce4bh112rcd13ifvqda0","pricing_plan_id":"cebpf4jnsgd1na2vs0mg"},{"bike_id":"cf53b264-fd21-447d-8058-e11fd1cd9c53","system_id":"levelo_inurba_marseille","lat":43.29515,"lon":5.39041,"is_reserved":false,"is_disabled":false,"rental_uris":{"android":"levelo://app?vid=cf53b264-fd21-447d-8058-e11fd1cd9c53","ios":"levelo://app?vid=cf53b264-fd21-447d-8058-e11fd1cd9c53"},"vehicle_type_id":"4","last_reported":1743700121,"current_range_meters":14400,"station_id":"ce4bh3p2rcd13ifvqdp0","pricing_plan_id":"cebpf4jnsgd1na2vs0mg"},{"bike_id":"60ee674e-ec90-412c-8548-51ad8bafc10f","system_id":"levelo_inurba_marseille","lat":43.28618,"lon":5.35106,"is_reserved":false,"is_disabled":false,"rental_uris":{"android":"levelo://app?vid=60ee674e-ec90-412c-8548-51ad8bafc10f","ios":"levelo://app?vid=60ee674e-ec90-412c-8548-51ad8bafc10f"},"vehicle_type_id":"4","last_reported":1743700121,"current_range_meters":14400,"station_id":"ce4bhch2rcd13ifvqeug","pricing_plan_id":"cebpf4jnsgd1na2vs0mg"},{"bike_id":"266c3b32-3559-493d-8f0a-9a6f7ea354d8","system_id":"levelo_inurba_marseille","lat":43.29426,"lon":5.3862,"is_reserved":false,"is_disabled":false,"rental_uris":{"android":"levelo://app?vid=266c3b32-3559-493d-8f0a-9a6f7ea354d8","ios":"levelo://app?vid=266c3b32-3559-493d-8f0a-9a6f7ea354d8"},"vehicle_type_id":"4","last_reported":1743700121,"current_range_meters":14400,"station_id":"ce4bh2h2rcd13ifvqdh0","pricing_plan_id":"cebpf4jnsgd1na2vs0mg"},{"bike_id":"ed034283-1492-4da7-9409-35bdead80f30","system_id":"levelo_inurba_marseille","lat":43.30135,"lon":5.38792,"is_reserved":false,"is_disabled":true,"rental_uris":{"android":"levelo://app?vid=ed034283-1492-4da7-9409-35bdead80f30","ios":"levelo://app?vid=ed034283-1492-4da7-9409-35bdead80f30"},"vehicle_type_id":"4","last_reported":1743700121,"current_range_meters":14400,"station_id":"ce4bghh2rcd13ifvqb60","pricing_plan_id":"cebpf4jnsgd1na2vs0mg"},{"bike_id":"02c2bb0d-300e-4ed9-8ece-c644b52658fb","system_id":"levelo_inurba_marseille","lat":43.24806,"lon":5.3746,"is_reserved":false,"is_disabled":false,"rental_uris":{"android":"levelo://app?vid=02c2bb0d-300e-4ed9-8ece-c644b52658fb","ios":"levelo://app?vid=02c2bb0d-300e-4ed9-8ece-c644b52658fb"},"vehicle_type_id":"4","last_reported":1743700121,"current_range_meters":14400,"station_id":"ce4bhgh2rcd13ifvqfb0","pricing_plan_id":"cebpf4jnsgd1na2vs0mg"},{"bike_id":"65c86302-8ef0-46f4-ab6e-bac7149a2865","system_id":"levelo_inurba_marseille","lat":43.321102,"lon":5.367736,"is_reserved":false,"is_disabled":false,"rental_uris":{"android":"levelo://app?vid=65c86302-8ef0-46f4-ab6e-bac7149a2865","ios":"levelo://app?vid=65c86302-8ef0-46f4-ab6e-bac7149a2865"},"vehicle_type_id":"4","last_reported":1743700121,"current_range_meters":14400,"station_id":"ce4bhrh2rcd13ifvqhug","pricing_plan_id":"cebpf4jnsgd1na2vs0mg"},{"bike_id":"821620e4-ad6d-4bf4-9100-664ee25fd19f","system_id":"levelo_inurba_marseille","lat":43.29442,"lon":5.385625,"is_reserved":false,"is_disabled":false,"rental_uris":{"android":"levelo://app?vid=821620e4-ad6d-4bf4-9100-664ee25fd19f","ios":"levelo://app?vid=821620e4-ad6d-4bf4-9100-664ee25fd19f"},"vehicle_type_id":"4","last_reported":1743700121,"current_range_meters":14800,"station_id":"ce4bh2h2rcd13ifvqdh0","pricing_plan_id":"cebpf4jnsgd1na2vs0mg"},{"bike_id":"ddb9e5fd-b946-437d-8d87-c56aa6317826","system_id":"levelo_inurba_marseille","lat":43.29842,"lon":5.36273,"is_reserved":false,"is_disabled":false,"rental_uris":{"android":"levelo://app?vid=ddb9e5fd-b946-437d-8d87-c56aa6317826","ios":"levelo://app?vid=ddb9e5fd-b946-437d-8d87-c56aa6317826"},"vehicle_type_id":"4","last_reported":1743700121,"current_range_meters":14800,"station_id":"ce4bgpp2rcd13ifvqc3g","pricing_plan_id":"cebpf4jnsgd1na2vs0mg"},{"bike_id":"1d408561-284e-46b0-8b0a-40dfa2c12c82","system_id":"levelo_inurba_marseille","lat":43.2842,"lon":5.375,"is_reserved":false,"is_disabled":false,"rental_uris":{"android":"levelo://app?vid=1d408561-284e-46b0-8b0a-40dfa2c12c82","ios":"levelo://app?vid=1d408561-284e-46b0-8b0a-40dfa2c12c82"},