{"last_updated":1746728043,"ttl":60,"version":"2.2","data":{"bikes":[{"bike_id":"8b51ed22-4f41-4745-b242-d56566d1ecac","system_id":"levelo_inurba_marseille","lat":43.31326,"lon":5.39691,"is_reserved":false,"is_disabled":false,"rental_uris":{"android":"levelo://app?vid=8b51ed22-4f41-4745-b242-d56566d1ecac","ios":"levelo://app?vid=8b51ed22-4f41-4745-b242-d56566d1ecac"},"vehicle_type_id":"4","last_reported":1746728043,"current_range_meters":2800,"station_id":"ce4bgvp2rcd13ifvqcu0","pricing_plan_id":"cebpf4jnsgd1na2vs0mg"},{"bike_id":"3fb37536-7a66-4e94-a4d8-499725ffffd2","system_id":"levelo_inurba_marseille","lat":43.24563,"lon":5.41483,"is_reserved":false,"is_disabled":false,"rental_uris":{"android":"levelo://app?vid=3fb37536-7a66-4e94-a4d8-499725ffffd2","ios":"levelo://app?vid=3fb37536-7a66-4e94-a4d8-499725ffffd2"},"vehicle_type_id":"4","last_reported":1746728043,"current_range_meters":2800,"station_id":"","pricing_plan_id":"cebpf4jnsgd1na2vs0mg"},{"bike_id":"ae1ac0b8-c11b-4a29-ae13-063d8991568e","system_id":"levelo_inurba_marseille","lat":43.30957,"lon":5.39036,"is_reserved":false,"is_disabled":false,"rental_uris":{"android":"levelo://app?vid=ae1ac0b8-c11b-4a29-ae13-063d8991568e","ios":"levelo://app?vid=ae1ac0b8-c11b-4a29-ae13-063d8991568e"},"vehicle_type_id":"4","last_reported":1746728043,"current_range_meters":2800,"station_id":"ce4bgup2rcd13ifvqco0","pricing_plan_id":"cebpf4jnsgd1na2vs0mg"},{"bike_id":"8887e0e8-e295-4967-a901-b90e1ff63456","system_id":"levelo_inurba_marseille","lat":43.29047,"lon":5.35911,"is_reserved":false,"is_disabled":false,"rental_uris":{"android":"levelo://app?vid=8887e0e8-e295-4967-a901-b90e1ff63456","ios":"levelo://app?vid=8887e0e8-e295-4967-a901-b90e1ff63456"},"vehicle_type_id":"4","last_reported":1746728043,"current_range_meters":2800,"station_id":"ce4bha92rcd13ifvqeg0","pricing_plan_id":"cebpf4jnsgd1na2vs0mg"},{"bike_id":"48ac7486-d8cd-4e5e-8d2d-2bf31c1ae537","system_id":"levelo_inurba_marseille","lat":43.29023,"lon":5.38652,"is_reserved":false,"is_disabled":false,"rental_uris":{"android":"levelo://app?vid=48ac7486-d8cd-4e5e-8d2d-2bf31c1ae537","ios":"levelo://app?vid=48ac7486-d8cd-4e5e-8d2d-2bf31c1ae537"},"vehicle_type_id":"4","last_reported":1746728043,"current_range_meters":3200,"station_id":"ce4bh4p2rcd13ifvqe0g","pricing_plan_id":"cebpf4jnsgd1na2vs0mg"},{"bike_id":"6faafe5b-0283-4308-86b6-6a9233481921","system_id":"levelo_inurba_marseille","lat":43.2861,"lon":5.35101,"is_reserved":false,"is_disabled":true,"rental_uris":{"android":"levelo://app?vid=6faafe5b-0283-4308-86b6-6a9233481921","ios":"levelo://app?vid=6faafe5b-0283-4308-86b6-6a9233481921"},"vehicle_type_id":"4","last_reported":1746728043,"current_range_meters":3200,"station_id":"","pricing_plan_id":"cebpf4jnsgd1na2vs0mg"},{"bike_id":"c6e514f0-2590-4ada-8347-a9db8df5484b","system_id":"levelo_inurba_marseille","lat":43.29587,"lon":5.38104,"is_reserved":false,"is_disabled":false,"rental_uris":{"android":"levelo://app?vid=c6e514f0-2590-4ada-8347-a9db8df5484b","ios":"levelo://app?vid=c6e514f0-2590-4ada-8347-a9db8df5484b"},"vehicle_type_id":"4","last_reported":1746728043,"current_range_meters":3200,"station_id":"ce4bgl12rcd13ifvqbo0","pricing_plan_id":"cebpf4jnsgd1na2vs0mg"},{"bike_id":"1dd2d3af-7f4a-4ec3-a227-82d949051d98","system_id":"levelo_inurba_marseille","lat":43.28715,"lon":5.37936,"is_reserved":false,"is_disabled":false,"rental_uris":{"android":"levelo://app?vid=1dd2d3af-7f4a-4ec3-a227-82d949051d98","ios":"levelo://app?vid=1dd2d3af-7f4a-4ec3-a227-82d949051d98"},"vehicle_type_id":"4","last_reported":1746728043,"current_range_meters":2800,"station_id":"ce4bh9p2rcd13ifvqec0","pricing_plan_id":"cebpf4jnsgd1na2vs0mg"},{"bike_id":"354e2e3b-d77f-478f-b37d-9efffdece512","system_id":"levelo_inurba_marseille","lat":43.26555,"lon":5.37282,"is_reserved":false,"is_disabled":false,"rental_uris":{"android":"levelo://app?vid=354e2e3b-d77f-478f-b37d-9efffdece512","ios":"levelo://app?vid=354e2e3b-d77f-478f-b37d-9efffdece512"},"vehicle_type_id":"4","last_reported":1746728043,"current_range_meters":3200,"station_id":"ce4bhg12rcd13ifvqf70","pricing_plan_id":"cebpf4jnsgd1na2vs0mg"},{"bike_id":"172f3910-98ef-4a38-a4e1-b94a02b33ab8","system_id":"levelo_inurba_marseille","lat":43.31111,"lon":5.37776,"is_reserved":false,"is_disabled":false,"rental_uris":{"android":"levelo://app?vid=172f3910-98ef-4a38-a4e1-b94a02b33ab8","ios":"levelo://app?vid=172f3910-98ef-4a38-a4e1-b94a02b33ab8"},"vehicle_type_id":"4","last_reported":1746728043,"current_range_meters":2800,"station_id":"ce4bgt92rcd13ifvqcg0","pricing_plan_id":"cebpf4jnsgd1na2vs0mg"},{"bike_id":"991854c4-1230-4e70-98db-e2d381833a18","system_id":"levelo_inurba_marseille","lat":43.29019,"lon":5.38642,"is_reserved":false,"is_disabled":false,"rental_uris":{"android":"levelo://app?vid=991854c4-1230-4e70-98db-e2d381833a18","ios":"levelo://app?vid=991854c4-1230-4e70-98db-e2d381833a18"},"vehicle_type_id":"4","last_reported":1746728043,"current_range_meters":3200,"station_id":"ce4bh4p2rcd13ifvqe0g","pricing_plan_id":"cebpf4jnsgd1na2vs0mg"},{"bike_id":"b963bfd9-8afb-48ae-84d4-f0d69a44fd52","system_id":"levelo_inurba_marseille","lat":43.27574,"lon":5.38422,"is_reserved":false,"is_disabled":false,"rental_uris":{"android":"levelo://app?vid=b963bfd9-8afb-48ae-84d4-f0d69a44fd52","ios":"levelo://app?vid=b963bfd9-8afb-48ae-84d4-f0d69a44fd52"},"vehicle_type_id":"4","last_reported":1746728043,"current_range_meters":3600,"station_id":"ce4bhh92rcd13ifvqfi0","pricing_plan_id":"cebpf4jnsgd1na2vs0mg"},{"bike_id":"35d06f72-992a-40ea-acaa-feb9961fbf96","system_id":"levelo_inurba_marseille","lat":43.28712,"lon":5.37948,"is_reserved":false,"is_disabled":false,"rental_uris":{"android":"levelo://app?vid=35d06f72-992a-40ea-acaa-feb9961fbf96","ios":"levelo://app?vid=35d06f72-992a-40ea-acaa-feb9961fbf96"},"vehicle_type_id":"4","last_reported":1746728043,"current_range_meters":3600,"station_id":"ce4bh9p2rcd13ifvqec0","pricing_plan_id":"cebpf4jnsgd1na2vs0mg"},{"bike_id":"600eb914-8db9-4c46-a500-be5c88b58258","system_id":"levelo_inurba_marseille","lat":43.2952,"lon":5.39019,"is_reserved":false,"is_disabled":false,"rental_uris":{"android":"levelo://app?vid=600eb914-8db9-4c46-a500-be5c88b58258","ios":"levelo://app?vid=600eb914-8db9-4c46-a500-be5c88b58258"},"vehicle_type_id":"4","last_reported":1746728043,"current_range_meters":3600,"station_id":"ce4bh3p2rcd13ifvqdp0","pricing_plan_id":"cebpf4jnsgd1na2vs0mg"},{"bike_id":"86b30109-690b-4968-b6f4-a2d2e6ecebe9","system_id":"levelo_inurba_marseille","lat":43.2952,"lon":5.39392,"is_reserved":false,"is_disabled":false,"rental_uris":{"android":"levelo://app?vid=86b30109-690b-4968-b6f4-a2d2e6ecebe9","ios":"levelo://app?vid=86b30109-690b-4968-b6f4-a2d2e6ecebe9"},"vehicle_type_id":"4","last_reported":1746728043,"current_range_meters":3600,"station_id":"ce4bh292rcd13ifvqdf0","pricing_plan_id":"cebpf4jnsgd1na2vs0mg"},{"bike_id":"c27efd23-8775-458b-bfa0-9a230af6fbe6","system_id":"levelo_inurba_marseille","lat":43.26373,"lon":5.37768,"is_reserved":false,"is_disabled":false,"rental_uris":{"android":"levelo://app?vid=c27efd23-8775-458b-bfa0-9a230af6fbe6","ios":"levelo://app?vid=c27efd23-8775-458b-bfa0-9a230af6fbe6"},"vehicle_type_id":"4","last_reported":1746728043,"current_range_meters":3600,"station_id":"","pricing_plan_id":"cebpf4jnsgd1na2vs0mg"},{"bike_id":"19afd90c-fec4-41f4-8fd8-3137e8a1a1db","system_id":"levelo_inurba_marseille","lat":43.29029,"lon":5.38148,"is_reserved":false,"is_disabled":false,"rental_uris":{"android":"levelo://app?vid=19afd90c-fec4-41f4-8fd8-3137e8a1a1db","ios":"levelo://app?vid=19afd90c-fec4-41f4-8fd8-3137e8a1a1db"},"vehicle_type_id":"4","last_reported":1746728043,"current_range_meters":3600,"station_id":"ce4bh4p2rcd13ifvqe1g","pricing_plan_id":"cebpf4jnsgd1na2vs0mg"},{"bike_id":"fcb56575-5e69-4e07-9685-d64c79311893","system_id":"levelo_inurba_marseille","lat":43.31321,"lon":5.39672,"is_reserved":false,"is_disabled":false,"rental_uris":{"android":"levelo://app?vid=fcb56575-5e69-4e07-9685-d64c79311893","ios":"levelo://app?vid=fcb56575-5e69-4e07-9685-d64c79311893"},"vehicle_type_id":"4","last_reported":1746728043,"current_range_meters":3600,"station_id":"ce4bgvp2rcd13ifvqcu0","pricing_plan_id":"cebpf4jnsgd1na2vs0mg"},{"bike_id":"9199b220-d8b4-45f9-bdde-6dc418b864fa","system_id":"levelo_inurba_marseille","lat":43.28843,"lon":5.39301,"is_reserved":false,"is_disabled":false,"rental_uris":{"android":"levelo://app?vid=9199b220-d8b4-45f9-bdde-6dc418b864fa","ios":"levelo://app?vid=9199b220-d8b4-45f9-bdde-6dc418b864fa"},"vehicle_type_id":"4","last_reported":1746728043,"current_range_meters":3600,"station_id":"ce4bh2p2rcd13ifvqdi0","pricing_plan_id":"cebpf4jnsgd1na2vs0mg"},{"bike_id":"156125b9-0b21-4532-9164-87e9debf7afa","system_id":"levelo_inurba_marseille","lat":43.29271,"lon":5.36843,"is_reserved":false,"is_disabled":false,"rental_uris":{"android":"levelo://app?vid=156125b9-0b21-4532-9164-87e9debf7afa","ios":"levelo://app?vid=156125b9-0b21-4532-9164-87e9debf7afa"},"vehicle_type_id":"4","last_reported":1746728043,"current_range_meters":3600,"station_id":"ce4bhbp2rcd13ifvqesg","pricing_plan_id":"cebpf4jnsgd1na2vs0mg"},{"bike_id":"4ec93c86-717a-422c-9bc9-96b49f4c705f","system_id":"levelo_inurba_marseille","lat":43.29856,"lon":5.36282,"is_reserved":false,"is_disabled":false,"rental_uris":{"android":"levelo://app?vid=4ec93c86-717a-422c-9bc9-96b49f4c705f","ios":"levelo://app?vid=4ec93c86-717a-422c-9bc9-96b49f4c705f"},"vehicle_type_id":"4","last_reported":1746728043,"current_range_meters":4000,"station_id":"ce4bgpp2rcd13ifvqc3g","pricing_plan_id":"cebpf4jnsgd1na2vs0mg"},{"bike_id":"5885f33e-38ad-44dc-9d40-05409faee1a0","system_id":"levelo_inurba_marseille","lat":43.29649,"lon":5.40548,"is_reserved":false,"is_disabled":false,"rental_uris":{"android":"levelo://app?vid=5885f33e-38ad-44dc-9d40-05409faee1a0","ios":"levelo://app?vid=5885f33e-38ad-44dc-9d40-05409faee1a0"},"vehicle_type_id":"4","last_reported":1746728043,"current_range_meters":4000,"station_id":"ce4bh0h2rcd13ifvqd60","pricing_plan_id":"cebpf4jnsgd1na2vs0mg"},{"bike_id":"f355ef7d-ddc6-4ed6-b604-3aa234bfbb3c","system_id":"levelo_inurba_marseille","lat":43.30466,"lon":5.378898,"is_reserved":false,"is_disabled":true,"rental_uris":{"android":"levelo://app?vid=f355ef7d-ddc6-4ed6-b604-3aa234bfbb3c","ios":"levelo://app?vid=f355ef7d-ddc6-4ed6-b604-3aa234bfbb3c"},"vehicle_type_id":"4","last_reported":1746728043,"current_range_meters":4400,"station_id":"ce4bgup2rcd13ifvqcn0","pricing_plan_id":"cebpf4jnsgd1na2vs0mg"},{"bike_id":"fb70ba6c-c8c0-4401-b158-ed17f028387f","system_id":"levelo_inurba_marseille","lat":43.28718,"lon":5.37943,"is_reserved":false,"is_disabled":false,"rental_uris":{"android":"levelo://app?vid=fb70ba6c-c8c0-4401-b158-ed17f028387f","ios":"levelo://app?vid=fb70ba6c-c8c0-4401-b158-ed17f028387f"},"vehicle_type_id":"4","last_reported":1746728043,"current_range_meters":4400,"station_id":"ce4bh9p2rcd13ifvqec0","pricing_plan_id":"cebpf4jnsgd1na2vs0mg"},{"bike_id":"67ec731b-84e5-49af-96a7-2577c389fd51","system_id":"levelo_inurba_marseille","lat":43.29592,"lon":5.38103,"is_reserved":false,"is_disabled":false,"rental_uris":{"android":"levelo://app?vid=67ec731b-84e5-49af-96a7-2577c389fd51","ios":"levelo://app?vid=67ec731b-84e5-49af-96a7-2577c389fd51"},"vehicle_type_id":"4","last_reported":1746728043,"current_range_meters":4400,"station_id":"ce4bgl12rcd13ifvqbo0","pricing_plan_id":"cebpf4jnsgd1na2vs0mg"},{"bike_id":"64a0ff13-49e3-4782-b682-dad9bac0b55e","system_id":"levelo_inurba_marseille","lat":43.286118,"lon":5.370677,"is_reserved":false,"is_disabled":false,"rental_uris":{"android":"levelo://app?vid=64a0ff13-49e3-4782-b682-dad9bac0b55e","ios":"levelo://app?vid=64a0ff13-49e3-4782-b682-dad9bac0b55e"},"vehicle_type_id":"4","last_reported":1746728043,"current_range_meters":4400,"station_id":"","pricing_plan_id":"cebpf4jnsgd1na2vs0mg"},{"bike_id":"c5e4ae69-58b7-4ed4-8ade-8e4acc4f3f75","system_id":"levelo_inurba_marseille","lat":43.29265,"lon":5.37622,"is_reserved":false,"is_disabled":false,"rental_uris":{"android":"levelo://app?vid=c5e4ae69-58b7-4ed4-8ade-8e4acc4f3f75","ios":"levelo://app?vid=c5e4ae69-58b7-4ed4-8ade-8e4acc4f3f75"},"vehicle_type_id":"4","last_reported":1746728043,"current_range_meters":4400,"station_id":"ce4bgi12rcd13ifvqb80","pricing_plan_id":"cebpf4jnsgd1na2vs0mg"},{"bike_id":"1485c8fb-27a0-490e-a27c-c7d045fabf27","system_id":"levelo_inurba_marseille","lat":43.294203,"lon":5.386153,"is_reserved":false,"is_disabled":true,"rental_uris":{"android":"levelo://app?vid=1485c8fb-27a0-490e-a27c-c7d045fabf27","ios":"levelo://app?vid=1485c8fb-27a0-490e-a27c-c7d045fabf27"},"vehicle_type_id":"4","last_reported":1746728043,"current_range_meters":4800,"station_id":"ce4bh2h2rcd13ifvqdh0","pricing_plan_id":"cebpf4jnsgd1na2vs0mg"},{"bike_id":"7163c10b-c91d-4356-8aa0-d3e90701de85","system_id":"levelo_inurba_marseille","lat":43.30101,"lon":5.39071,"is_reserved":false,"is_disabled":false,"rental_uris":{"android":"levelo://app?vid=7163c10b-c91d-4356-8aa0-d3e90701de85","ios":"levelo://app?vid=7163c10b-c91d-4356-8aa0-d3e90701de85"},"vehicle_type_id":"4","last_reported":1746728043,"current_range_meters":4800,"station_id":"ce4bh192rcd13ifvqdb0","pricing_plan_id":"cebpf4jnsgd1na2vs0mg"},{"bike_id":"db45788f-d2bb-4e79-94a4-80b077b4a8e6","system_id":"levelo_inurba_marseille","lat":43.2984,"lon":5.36268,"is_reserved":false,"is_disabled":false,"rental_uris":{"android":"levelo://app?vid=db45788f-d2bb-4e79-94a4-80b077b4a8e6","ios":"levelo://app?vid=db45788f-d2bb-4e79-94a4-80b077b4a8e6"},"vehicle_type_id":"4","last_reported":1746728043,"current_range_meters":5600,"station_id":"ce4bgpp2rcd13ifvqc3g","pricing_plan_id":"cebpf4jnsgd1na2vs0mg"},{"bike_id":"d1e75f5d-6f5f-4d6f-9498-b99455bed201","system_id":"levelo_inurba_marseille","lat":43.28402,"lon":5.37508,"is_reserved":false,"is_disabled":false,"rental_uris":{"android":"levelo://app?vid=d1e75f5d-6f5f-4d6f-9498-b99455bed201","ios":"levelo://app?vid=d1e75f5d-6f5f-4d6f-9498-b99455bed201"},"vehicle_type_id":"4","last_reported":1746728043,"current_range_meters":5600,"station_id":"ce4bh412rcd13ifvqds0","pricing_plan_id":"cebpf4jnsgd1na2vs0mg"},{"bike_id":"e3788de6-3261-4866-a809-01e56580c373","system_id":"levelo_inurba_marseille","lat":43.24387,"lon":5.37067,"is_reserved":false,"is_disabled":false,"rental_uris":{"android":"levelo://app?vid=e3788de6-3261-4866-a809-01e56580c373","ios":"levelo://app?vid=e3788de6-3261-4866-a809-01e56580c373"},"vehicle_type_id":"4","last_reported":1746728043,"current_range_meters":6000,"station_id":"ce4bhhh2rcd13ifvqfk0","pricing_plan_id":"cebpf4jnsgd1na2vs0mg"},{"bike_id":"6f0df2e1-af48-460f-94bb-71ddc56610de","system_id":"levelo_inurba_marseille","lat":43.284195,"lon":5.375007,"is_reserved":false,"is_disabled":false,"rental_uris":{"android":"levelo://app?vid=6f0df2e1-af48-460f-94bb-71ddc56610de","ios":"levelo://app?vid=6f0df2e1-af48-460f-94bb-71ddc56610de"},"vehicle_type_id":"4","last_reported":1746728043,"current_range_meters":6000,"station_id":"ce4bh412rcd13ifvqds0","pricing_plan_id":"cebpf4jnsgd1na2vs0mg"},{"bike_id":"b686686a-82d1-4239-9002-50c3fef02c6b","system_id":"levelo_inurba_marseille","lat":43.27909,"lon":5.38014,"is_reserved":false,"is_disabled":false,"rental_uris":{"android":"levelo://app?vid=b686686a-82d1-4239-9002-50c3fef02c6b","ios":"levelo://app?vid=b686686a-82d1-4239-9002-50c3fef02c6b"},"vehicle_type_id":"4","last_reported":1746728043,"current_range_meters":6000,"station_id":"ce4bhf92rcd13ifvqf50","pricing_plan_id":"cebpf4jnsgd1na2vs0mg"},{"bike_id":"b8690500-2373-4788-a8d1-ef8199a72abf","system_id":"levelo_inurba_marseille","lat":43.294455,"lon":5.397542,"is_reserved":false,"is_disabled":false,"rental_uris":{"android":"levelo://app?vid=b8690500-2373-4788-a8d1-ef8199a72abf","ios":"levelo://app?vid=b8690500-2373-4788-a8d1-ef8199a72abf"},"vehicle_type_id":"4","last_reported":1746728043,"current_range_meters":6000,"station_id":"ce4bh3h2rcd13ifvqdo0","pricing_plan_id":"cebpf4jnsgd1na2vs0mg"},{"bike_id":"5443c7e6-8b4f-47d9-8792-ccf375f6264a","system_id":"levelo_inurba_marseille","lat":43.2396,"lon":5.36632,"is_reserved":false,"is_disabled":false,"rental_uris":{"android":"levelo://app?vid=5443c7e6-8b4f-47d9-8792-ccf375f6264a","ios":"levelo://app?vid=5443c7e6-8b4f-47d9-8792-ccf375f6264a"},"vehicle_type_id":"4","last_reported":1746728043,"current_range_meters":6400,"station_id":"ce4bhi12rcd13ifvqfp0","pricing_plan_id":"cebpf4jnsgd1na2vs0mg"},{"bike_id":"14e638c3-6ba0-4ad0-8ab0-153f53fa1fbe","system_id":"levelo_inurba_marseille","lat":43.22937,"lon":5.353837,"is_reserved":false,"is_disabled":false,"rental_uris":{"android":"levelo://app?vid=14e638c3-6ba0-4ad0-8ab0-153f53fa1fbe","ios":"levelo://app?vid=14e638c3-6ba0-4ad0-8ab0-153f53fa1fbe"},"vehicle_type_id":"4","last_reported":1746728043,"current_range_meters":6400,"station_id":"cpo3532slgdg3j2ikp40","pricing_plan_id":"cebpf4jnsgd1na2vs0mg"},{"bike_id":"b7bdbe3a-b7ec-4256-908f-dfa71835a5d1","system_id":"levelo_inurba_marseille","lat":43.291415,"lon":5.380757,"is_reserved":false,"is_disabled":false,"rental_uris":{"android":"levelo://app?vid=b7bdbe3a-b7ec-4256-908f-dfa71835a5d1","ios":"levelo://app?vid=b7bdbe3a-b7ec-4256-908f-dfa71835a5d1"},"vehicle_type_id":"4","last_reported":1746728043,"current_range_meters":6400,"station_id":"","pricing_plan_id":"cebpf4jnsgd1na2vs0mg"},{"bike_id":"a036d701-633c-4486-828e-2aa8a7b73042","system_id":"levelo_inurba_marseille","lat":43.28151,"lon":5.42642,"is_reserved":false,"is_disabled":false,"rental_uris":{"android":"levelo://app?vid=a036d701-633c-4486-828e-2aa8a7b73042","ios":"levelo://app?vid=a036d701-633c-4486-828e-2aa8a7b73042"},"vehicle_type_id":"4","last_reported":1746728043,"current_range_meters":6800,"station_id":"ce4bhnh2rcd13ifvqgug","pricing_plan_id":"cebpf4jnsgd1na2vs0mg"},{"bike_id":"4804d04f-edb0-465e-9385-024299b153d9","system_id":"levelo_inurba_marseille","lat":43.30882,"lon":5.39659,"is_reserved":false,"is_disabled":false,"rental_uris":{"android":"levelo://app?vid=4804d04f-edb0-465e-9385-024299b153d9","ios":"levelo://app?vid=4804d04f-edb0-465e-9385-024299b153d9"},"vehicle_type_id":"4","last_reported":1746728043,"current_range_meters":6800,"station_id":"ce4bh012rcd13ifvqcv0","pricing_plan_id":"cebpf4jnsgd1na2vs0mg"},{"bike_id":"5f1ce1ba-75a3-417d-aab8-8c95d1346f76","system_id":"levelo_inurba_marseille","lat":43.30894,"lon":5.37184,"is_reserved":false,"is_disabled":false,"rental_uris":{"android":"levelo://app?vid=5f1ce1ba-75a3-417d-aab8-8c95d1346f76","ios":"levelo://app?vid=5f1ce1ba-75a3-417d-aab8-8c95d1346f76"},"vehicle_type_id":"4","last_reported":1746728043,"current_range_meters":6800,"station_id":"ce4bguh2rcd13ifvqckg","pricing_plan_id":"cebpf4jnsgd1na2vs0mg"},{"bike_id":"bf0ef289-2ab8-4c63-86ca-0660c3aa42b8","system_id":"levelo_inurba_marseille","lat":43.2815,"lon":5.42649,"is_reserved":false,"is_disabled":false,"rental_uris":{"android":"levelo://app?vid=bf0ef289-2ab8-4c63-86ca-0660c3aa42b8","ios":"levelo://app?vid=bf0ef289-2ab8-4c63-86ca-0660c3aa42b8"},"vehicle_type_id":"4","last_reported":1746728043,"current_range_meters":6800,"station_id":"ce4bhnh2rcd13ifvqgug","pricing_plan_id":"cebpf4jnsgd1na2vs0mg"},{"bike_id":"30a57150-f7d3-44ff-a719-985e18fc9a3a","system_id":"levelo_inurba_marseille","lat":43.31111,"lon":5.37769,"is_reserved":false,"is_disabled":false,"rental_uris":{"android":"levelo://app?vid=30a57150-f7d3-44ff-a719-985e18fc9a3a","ios":"levelo://app?vid=30a57150-f7d3-44ff-a719-985e18fc9a3a"},"vehicle_type_id":"4","last_reported":1746728043,"current_range_meters":7200,"station_id":"ce4bgt92rcd13ifvqcg0","pricing_plan_id":"cebpf4jnsgd1na2vs0mg"},{"bike_id":"e9027ed5-cc10-44a7-8b6f-aeacc09540d4","system_id":"levelo_inurba_marseille","lat":43.30895,"lon":5.37202,"is_reserved":false,"is_disabled":false,"rental_uris":{"android":"levelo://app?vid=e9027ed5-cc10-44a7-8b6f-aeacc09540d4","ios":"levelo://app?vid=e9027ed5-cc10-44a7-8b6f-aeacc09540d4"},"vehicle_type_id":"4","last_reported":1746728043,"current_range_meters":6800,"station_id":"ce4bguh2rcd13ifvqckg","pricing_plan_id":"cebpf4jnsgd1na2vs0mg"},{"bike_id":"ba355935-4628-4a5e-aa1b-edca8987b2a0","system_id":"levelo_inurba_marseille","lat":43.30141,"lon":5.37404,"is_reserved":false,"is_disabled":false,"rental_uris":{"android":"levelo://app?vid=ba355935-4628-4a5e-aa1b-edca8987b2a0","ios":"levelo://app?vid=ba355935-4628-4a5e-aa1b-edca8987b2a0"},"vehicle_type_id":"4","last_reported":1746728043,"current_range_meters":7200,"station_id":"ce4bgs92rcd13ifvqcc0","pricing_plan_id":"cebpf4jnsgd1na2vs0mg"},{"bike_id":"81331d8f-4c39-4158-a362-5667c00d4753","system_id":"levelo_inurba_marseille","lat":43.24388,"lon":5.37062,"is_reserved":false,"is_disabled":false,"rental_uris":{"android":"levelo://app?vid=81331d8f-4c39-4158-a362-5667c00d4753","ios":"levelo://app?vid=81331d8f-4c39-4158-a362-5667c00d4753"},"vehicle_type_id":"4","last_reported":1746728043,"current_range_meters":7200,"station_id":"ce4bhhh2rcd13ifvqfk0","pricing_plan_id":"cebpf4jnsgd1na2vs0mg"},{"bike_id":"281649c1-53b5-46d5-a893-79bf19a488c9","system_id":"levelo_inurba_marseille","lat":43.27369,"lon":5.3626,"is_reserved":false,"is_disabled":false,"rental_uris":{"android":"levelo://app?vid=281649c1-53b5-46d5-a893-79bf19a488c9","ios":"levelo://app?vid=281649c1-53b5-46d5-a893-79bf19a488c9"},"vehicle_type_id":"4","last_reported":1746728043,"current_range_meters":7200,"station_id":"ce4bhbh2rcd13ifvqeo0","pricing_plan_id":"cebpf4jnsgd1na2vs0mg"},{"bike_id":"049dee66-f320-4a39-90d5-cac240a0fc35","system_id":"levelo_inurba_marseille","lat":43.27079,"lon":5.4227,"is_reserved":false,"is_disabled":false,"rental_uris":{"android":"levelo://app?vid=049dee66-f320-4a39-90d5-cac240a0fc35","ios":"levelo://app?vid=049dee66-f320-4a39-90d5-cac240a0fc35"},"vehicle_type_id":"4","last_reported":1746728043,"current_range_meters":6800,"station_id":"ce4bhk92rcd13ifvqgb0","pricing_plan_id":"cebpf4jnsgd1na2vs0mg"},{"bike_id":"6a65346c-7c57-4b38-a032-040ca4b8e8c3","system_id":"levelo_inurba_marseille","lat":43.29072,"lon":5.37141,"is_reserved":false,"is_disabled":false,"rental_uris":{"android":"levelo://app?vid=6a65346c-7c57-4b38-a032-040ca4b8e8c3","ios":"levelo://app?vid=6a65346c-7c57-4b38-a032-040ca4b8e8c3"},"vehicle_type_id":"4","last_reported":1746728043,"current_range_meters":6800,"station_id":"ce4bh5p2rcd13ifvqe4g","pricing_plan_id":"cebpf4jnsgd1na2vs0mg"},{"bike_id":"341f6043-e914-44c4-896b-32102a500281","system_id":"levelo_inurba_marseille","lat":43.31489,"lon":5.37309,"is_reserved":false,"is_disabled":false,"rental_uris":{"android":"levelo://app?vid=341f6043-e914-44c4-896b-32102a500281","ios":"levelo://app?vid=341f6043-e914-44c4-896b-32102a500281"},"vehicle_type_id":"4","last_reported":1746728043,"current_range_meters":8000,"station_id":"ce4bgt12rcd13ifvqcd0","pricing_plan_id":"cebpf4jnsgd1na2vs0mg"},{"bike_id":"aa89676c-c163-4eed-bd75-e97636d45dfd","system_id":"levelo_inurba_marseille","lat":43.24648,"lon":5.38895,"is_reserved":false,"is_disabled":false,"rental_uris":{"android":"levelo://app?vid=aa89676c-c163-4eed-bd75-e97636d45dfd","ios":"levelo://app?vid=aa89676c-c163-4eed-bd75-e97636d45dfd"},"vehicle_type_id":"4","last_reported":1746728043,"current_range_meters":8000,"station_id":"ce4bhg12rcd13ifvqf60","pricing_plan_id":"cebpf4jnsgd1na2vs0mg"},{"bike_id":"c91b378d-26a5-4ed8-99d4-6b3ec43dd75e","system_id":"levelo_inurba_marseille","lat":43.24086,"lon":5.37746,"is_reserved":false,"is_disabled":false,"rental_uris":{"android":"levelo://app?vid=c91b378d-26a5-4ed8-99d4-6b3ec43dd75e","ios":"levelo://app?vid=c91b378d-26a5-4ed8-99d4-6b3ec43dd75e"},"vehicle_type_id":"4","last_reported":1746728043,"current_range_meters":8000,"station_id":"ce4bhnp2rcd13ifvqgvg","pricing_plan_id":"cebpf4jnsgd1na2vs0mg"},{"bike_id":"eadc19b3-64a4-4861-9594-8f5e2f4e575f","system_id":"levelo_inurba_marseille","lat":43.27803,"lon":5.40707,"is_reserved":false,"is_disabled":false,"rental_uris":{"android":"levelo://app?vid=eadc19b3-64a4-4861-9594-8f5e2f4e575f","ios":"levelo://app?vid=eadc19b3-64a4-4861-9594-8f5e2f4e575f"},"vehicle_type_id":"4","last_reported":1746728043,"current_range_meters":8000,"station_id":"ce4bhnh2rcd13ifvqgtg","pricing_plan_id":"cebpf4jnsgd1na2vs0mg"},{"bike_id":"a08c08d8-6dba-4189-baf5-e27821e2741d","system_id":"levelo_inurba_marseille","lat":43.28459,"lon":5.38407,"is_reserved":false,"is_disabled":false,"rental_uris":{"android":"levelo://app?vid=a08c08d8-6dba-4189-baf5-e27821e2741d","ios":"levelo://app?vid=a08c08d8-6dba-4189-baf5-e27821e2741d"},"vehicle_type_id":"4","last_reported":1746728043,"current_range_meters":8000,"station_id":"ce4bh512rcd13ifvqe3g","pricing_plan_id":"cebpf4jnsgd1na2vs0mg"},{"bike_id":"1b81d4c9-0d1e-4fed-ad0b-30918834e903","system_id":"levelo_inurba_marseille","lat":43.30645,"lon":5.40092,"is_reserved":false,"is_disabled":false,"rental_uris":{"android":"levelo://app?vid=1b81d4c9-0d1e-4fed-ad0b-30918834e903","ios":"levelo://app?vid=1b81d4c9-0d1e-4fed-ad0b-30918834e903"},"vehicle_type_id":"4","last_reported":1746728043,"current_range_meters":8000,"station_id":"ce4bh112rcd13ifvqda0","pricing_plan_id":"cebpf4jnsgd1na2vs0mg"},{"bike_id":"38125369-ce27-4760-abed-d89c73ebcf16","system_id":"levelo_inurba_marseille","lat":43.24069,"lon":5.37758,"is_reserved":false,"is_disabled":false,"rental_uris":{"android":"levelo://app?vid=38125369-ce27-4760-abed-d89c73ebcf16","ios":"levelo://app?vid=38125369-ce27-4760-abed-d89c73ebcf16"},"vehicle_type_id":"4","last_reported":1746728043,"current_range_meters":8000,"station_id":"ce4bhnp2rcd13ifvqgvg","pricing_plan_id":"cebpf4jnsgd1na2vs0mg"},{"bike_id":"4e357578-b126-4f04-920e-633a8df0faf1","system_id":"levelo_inurba_marseille","lat":43.29533,"lon":5.39402,"is_reserved":false,"is_disabled":false,"rental_uris":{"android":"levelo://app?vid=4e357578-b126-4f04-920e-633a8df0faf1","ios":"levelo://app?vid=4e357578-b126-4f04-920e-633a8df0faf1"},"vehicle_type_id":"4","last_reported":1746728043,"current_range_meters":8000,"station_id":"ce4bh292rcd13ifvqdf0","pricing_plan_id":"cebpf4jnsgd1na2vs0mg"},{"bike_id":"f07d7cda-229c-4e20-9f30-b11d40b9bfd0","system_id":"levelo_inurba_marseille","lat":43.27073,"lon":5.42276,"is_reserved":false,"is_disabled":false,"rental_uris":{"android":"levelo://app?vid=f07d7cda-229c-4e20-9f30-b11d40b9bfd0","ios":"levelo://app?vid=f07d7cda-229c-4e20-9f30-b11d40b9bfd0"},"vehicle_type_id":"4","last_reported":1746728043,"current_range_meters":8000,"station_id":"ce4bhk92rcd13ifvqgb0","pricing_plan_id":"cebpf4jnsgd1na2vs0mg"},{"bike_id":"536cc50d-531e-4b72-a358-1d508651d37a","system_id":"levelo_inurba_marseille","lat":43.33601,"lon":5.41034,"is_reserved":false,"is_disabled":false,"rental_uris":{"android":"levelo://app?vid=536cc50d-531e-4b72-a358-1d508651d37a","ios":"levelo://app?vid=536cc50d-531e-4b72-a358-1d508651d37a"},"vehicle_type_id":"4","last_reported":1746728043,"current_range_meters":8400,"station_id":"ce4bhqh2rcd13ifvqhmg","pricing_plan_id":"cebpf4jnsgd1na2vs0mg"},{"bike_id":"24cf44f4-3771-45a8-9715-845fd5c646bd","system_id":"levelo_inurba_marseille","lat":43.2926,"lon":5.38433,"is_reserved":false,"is_disabled":false,"rental_uris":{"android":"levelo://app?vid=24cf44f4-3771-45a8-9715-845fd5c646bd","ios":"levelo://app?vid=24cf44f4-3771-45a8-9715-845fd5c646bd"},"vehicle_type_id":"4","last_reported":1746728043,"current_range_meters":8400,"station_id":"ce4bh692rcd13ifvqea0","pricing_plan_id":"cebpf4jnsgd1na2vs0mg"},{"bike_id":"82555da9-d65d-4bf6-9084-d261df839d9f","system_id":"levelo_inurba_marseille","lat":43.29419,"lon":5.38624,"is_reserved":false,"is_disabled":false,"rental_uris":{"android":"levelo://app?vid=82555da9-d65d-4bf6-9084-d261df839d9f","ios":"levelo://app?vid=82555da9-d65d-4bf6-9084-d261df839d9f"},"vehicle_type_id":"4","last_reported":1746728043,"current_range_meters":8400,"station_id":"ce4bh2h2rcd13ifvqdh0","pricing_plan_id":"cebpf4jnsgd1na2vs0mg"},{"bike_id":"bcd43df2-a954-4953-9a47-0ad5f0bea946","system_id":"levelo_inurba_marseille","lat":43.24995,"lon":5.38931,"is_reserved":false,"is_disabled":false,"rental_uris":{"android":"levelo://app?vid=bcd43df2-a954-4953-9a47-0ad5f0bea946","ios":"levelo://app?vid=bcd43df2-a954-4953-9a47-0ad5f0bea946"},"vehicle_type_id":"4","last_reported":1746728043,"current_range_meters":8400,"station_id":"ce4bhgp2rcd13ifvqfd0","pricing_plan_id":"cebpf4jnsgd1na2vs0mg"},{"bike_id":"881c097a-b180-44f5-9d6b-1f54f714978b","system_id":"levelo_inurba_marseille","lat":43.27069,"lon":5.42277,"is_reserved":false,"is_disabled":false,"rental_uris":{"android":"levelo://app?vid=881c097a-b180-44f5-9d6b-1f54f714978b","ios":"levelo://app?vid=881c097a-b180-44f5-9d6b-1f54f714978b"},"vehicle_type_id":"4","last_reported":1746728043,"current_range_meters":8400,"station_id":"ce4bhk92rcd13ifvqgb0","pricing_plan_id":"cebpf4jnsgd1na2vs0mg"},{"bike_id":"4ae7a83c-4508-4420-bdfc-fc011c19b67a","system_id":"levelo_inurba_marseille","lat":43.33767,"lon":5.37482,"is_reserved":false,"is_disabled":false,"rental_uris":{"android":"levelo://app?vid=4ae7a83c-4508-4420-bdfc-fc011c19b67a","ios":"levelo://app?vid=4ae7a83c-4508-4420-bdfc-fc011c19b67a"},"vehicle_type_id":"4","last_reported":1746728043,"current_range_meters":8400,"station_id":"","pricing_plan_id":"cebpf4jnsgd1na2vs0mg"},{"bike_id":"f9eccf82-21f4-4f9b-8f0c-30f5ba821db6","system_id":"levelo_inurba_marseille","lat":43.28566,"lon":5.39494,"is_reserved":false,"is_disabled":false,"rental_uris":{"android":"levelo://app?vid=f9eccf82-21f4-4f9b-8f0c-30f5ba821db6","ios":"levelo://app?vid=f9eccf82-21f4-4f9b-8f0c-30f5ba821db6"},"vehicle_type_id":"4","last_reported":1746728043,"current_range_meters":8400,"station_id":"ce4bh292rcd13ifvqdg0","pricing_plan_id":"cebpf4jnsgd1na2vs0mg"},{"bike_id":"28d06092-6749-4267-80bc-90e4165c24f3","system_id":"levelo_inurba_marseille","lat":43.30946,"lon":5.39032,"is_reserved":false,"is_disabled":false,"rental_uris":{"android":"levelo://app?vid=28d06092-6749-4267-80bc-90e4165c24f3","ios":"levelo://app?vid=28d06092-6749-4267-80bc-90e4165c24f3"},"vehicle_type_id":"4","last_reported":1746728043,"current_range_meters":8400,"station_id":"ce4bgup2rcd13ifvqco0","pricing_plan_id":"cebpf4jnsgd1na2vs0mg"},{"bike_id":"b15fe93b-1059-4d75-abd3-040e349ce402","system_id":"levelo_inurba_marseille","lat":43.30109,"lon":5.37008,"is_reserved":false,"is_disabled":false,"rental_uris":{"android":"levelo://app?vid=b15fe93b-1059-4d75-abd3-040e349ce402","ios":"levelo://app?vid=b15fe93b-1059-4d75-abd3-040e349ce402"},"vehicle_type_id":"4","last_reported":1746728043,"current_range_meters":8400,"station_id":"","pricing_plan_id":"cebpf4jnsgd1na2vs0mg"},{"bike_id":"94548bbc-0565-40b2-9e19-d4d8f4a3e175","system_id":"levelo_inurba_marseille","lat":43.23186,"lon":5.35566,"is_reserved":false,"is_disabled":true,"rental_uris":{"android":"levelo://app?vid=94548bbc-0565-40b2-9e19-d4d8f4a3e175","ios":"levelo://app?vid=94548bbc-0565-40b2-9e19-d4d8f4a3e175"},"vehicle_type_id":"4","last_reported":1746728043,"current_range_meters":8800,"station_id":"ce4bhu92rcd13ifvqi70","pricing_plan_id":"cebpf4jnsgd1na2vs0mg"},{"bike_id":"f86db841-c97a-468c-a4f5-9899b3f5b351","system_id":"levelo_inurba_marseille","lat":43.2694,"lon":5.4025,"is_reserved":false,"is_disabled":false,"rental_uris":{"android":"levelo://app?vid=f86db841-c97a-468c-a4f5-9899b3f5b351","ios":"levelo://app?vid=f86db841-c97a-468c-a4f5-9899b3f5b351"},"vehicle_type_id":"4","last_reported":1746728043,"current_range_meters":8400,"station_id":"cjm6bp8fraef2m0cb0m0","pricing_plan_id":"cebpf4jnsgd1na2vs0mg"},{"bike_id":"7dea83ba-f932-447c-a5b0-d74bea788181","system_id":"levelo_inurba_marseille","lat":43.29096,"lon":5.38128,"is_reserved":false,"is_disabled":false,"rental_uris":{"android":"levelo://app?vid=7dea83ba-f932-447c-a5b0-d74bea788181","ios":"levelo://app?vid=7dea83ba-f932-447c-a5b0-d74bea788181"},"vehicle_type_id":"4","last_reported":1746728043,"current_range_meters":8400,"station_id":"ce4bh512rcd13ifvqe2g","pricing_plan_id":"cebpf4jnsgd1na2vs0mg"},{"bike_id":"1f281ed5-8e05-43ba-b583-cf4e73bd4cb4","system_id":"levelo_inurba_marseille","lat":43.32111,"lon":5.36771,"is_reserved":false,"is_disabled":false,"rental_uris":{"android":"levelo://app?vid=1f281ed5-8e05-43ba-b583-cf4e73bd4cb4","ios":"levelo://app?vid=1f281ed5-8e05-43ba-b583-cf4e73bd4cb4"},"vehicle_type_id":"4","last_reported":1746728043,"current_range_meters":8800,"station_id":"ce4bhrh2rcd13ifvqhug","pricing_plan_id":"cebpf4jnsgd1na2vs0mg"},{"bike_id":"916d67d8-ccd1-41b8-923b-e1ce6259ee20","system_id":"levelo_inurba_marseille","lat":43.30757,"lon":5.37431,"is_reserved":false,"is_disabled":false,"rental_uris":{"android":"levelo://app?vid=916d67d8-ccd1-41b8-923b-e1ce6259ee20","ios":"levelo://app?vid=916d67d8-ccd1-41b8-923b-e1ce6259ee20"},"vehicle_type_id":"4","last_reported":1746728043,"current_range_meters":8800,"station_id":"","pricing_plan_id":"cebpf4jnsgd1na2vs0mg"},{"bike_id":"7b3de7e9-ed40-4bf2-82b0-fea92167b0a9","system_id":"levelo_inurba_marseille","lat":43.33025,"lon":5.39043,"is_reserved":false,"is_disabled":false,"rental_uris":{"android":"levelo://app?vid=7b3de7e9-ed40-4bf2-82b0-fea92167b0a9","ios":"levelo://app?vid=7b3de7e9-ed40-4bf2-82b0-fea92167b0a9"},"vehicle_type_id":"4","last_reported":1746728043,"current_range_meters":9200,"station_id":"ce4bhr92rcd13ifvqhrg","pricing_plan_id":"cebpf4jnsgd1na2vs0mg"},{"bike_id":"8b698a34-fbf5-484e-9ecb-26e22393bc90","system_id":"levelo_inurba_marseille","lat":43.330455,"lon":5.390536,"is_reserved":false,"is_disabled":false,"rental_uris":{"android":"levelo://app?vid=8b698a34-fbf5-484e-9ecb-26e22393bc90","ios":"levelo://app?vid=8b698a34-fbf5-484e-9ecb-26e22393bc90"},"vehicle_type_id":"4","last_reported":1746728043,"current_range_meters":9200,"station_id":"ce4bhr92rcd13ifvqhrg","pricing_plan_id":"cebpf4jnsgd1na2vs0mg"},{"bike_id":"d1c86e1c-7ee1-43c1-a580-eead1647472c","system_id":"levelo_inurba_marseille","lat":43.33605,"lon":5.41026,"is_reserved":false,"is_disabled":false,"rental_uris":{"android":"levelo://app?vid=d1c86e1c-7ee1-43c1-a580-eead1647472c","ios":"levelo://app?vid=d1c86e1c-7ee1-43c1-a580-eead1647472c"},"vehicle_type_id":"4","last_reported":1746728043,"current_range_meters":9200,"station_id":"ce4bhqh2rcd13ifvqhmg","pricing_plan_id":"cebpf4jnsgd1na2vs0mg"},{"bike_id":"1360226d-79bb-414c-afd7-b92a5538d71d","system_id":"levelo_inurba_marseille","lat":43.29031,"lon":5.38651,"is_reserved":false,"is_disabled":false,"rental_uris":{"android":"levelo://app?vid=1360226d-79bb-414c-afd7-b92a5538d71d","ios":"levelo://app?vid=1360226d-79bb-414c-afd7-b92a5538d71d"},"vehicle_type_id":"4","last_reported":1746728043,"current_range_meters":9200,"station_id":"ce4bh4p2rcd13ifvqe0g","pricing_plan_id":"cebpf4jnsgd1na2vs0mg"},{"bike_id":"3cd147c2-3b81-472b-86de-a98df533bb5f","system_id":"levelo_inurba_marseille","lat":43.27832,"lon":5.39205,"is_reserved":false,"is_disabled":false,"rental_uris":{"android":"levelo://app?vid=3cd147c2-3b81-472b-86de-a98df533bb5f","ios":"levelo://app?vid=3cd147c2-3b81-472b-86de-a98df533bb5f"},"vehicle_type_id":"4","last_reported":1746728043,"current_range_meters":9200,"station_id":"ce4bhjp2rcd13ifvqga0","pricing_plan_id":"cebpf4jnsgd1na2vs0mg"},{"bike_id":"35f36335-51c7-48bf-a321-437e1aea77da","system_id":"levelo_inurba_marseille","lat":43.32351,"lon":5.36615,"is_reserved":false,"is_disabled":false,"rental_uris":{"android":"levelo://app?vid=35f36335-51c7-48bf-a321-437e1aea77da","ios":"levelo://app?vid=35f36335-51c7-48bf-a321-437e1aea77da"},"vehicle_type_id":"4","last_reported":1746728043,"current_range_meters":9200,"station_id":"ce4bhsh2rcd13ifvqi2g","pricing_plan_id":"cebpf4jnsgd1na2vs0mg"},{"bike_id":"abf01b2d-6da9-4913-8ad7-e1ca1cd7cec1","system_id":"levelo_inurba_marseille","lat":43.30423,"lon":5.39739,"is_reserved":false,"is_disabled":false,"rental_uris":{"android":"levelo://app?vid=abf01b2d-6da9-4913-8ad7-e1ca1cd7cec1","ios":"levelo://app?vid=abf01b2d-6da9-4913-8ad7-e1ca1cd7cec1"},"vehicle_type_id":"4","last_reported":1746728043,"current_range_meters":9200,"station_id":"ce4bh092rcd13ifvqd20","pricing_plan_id":"cebpf4jnsgd1na2vs0mg"},{"bike_id":"e5c87194-c071-4782-86ae-17aecce51b18","system_id":"levelo_inurba_marseille","lat":43.28491,"lon":5.38584,"is_reserved":false,"is_disabled":false,"rental_uris":{"android":"levelo://app?vid=e5c87194-c071-4782-86ae-17aecce51b18","ios":"levelo://app?vid=e5c87194-c071-4782-86ae-17aecce51b18"},"vehicle_type_id":"4","last_reported":1746728043,"current_range_meters":9200,"station_id":"ce4bh8p2rcd13ifvqeb0","pricing_plan_id":"cebpf4jnsgd1na2vs0mg"},{"bike_id":"32177595-d9a1-4788-a257-808878a65913","system_id":"levelo_inurba_marseille","lat":43.29582,"lon":5.36199,"is_reserved":false,"is_disabled":false,"rental_uris":{"android":"levelo://app?vid=32177595-d9a1-4788-a257-808878a65913","ios":"levelo://app?vid=32177595-d9a1-4788-a257-808878a65913"},"vehicle_type_id":"4","last_reported":1746728043,"current_range_meters":9600,"station_id":"","pricing_plan_id":"cebpf4jnsgd1na2vs0mg"},{"bike_id":"d3ac2643-7197-4a46-b079-37ecb55bf390","system_id":"levelo_inurba_marseille","lat":43.24804,"lon":5.37469,"is_reserved":false,"is_disabled":false,"rental_uris":{"android":"levelo://app?vid=d3ac2643-7197-4a46-b079-37ecb55bf390","ios":"levelo://app?vid=d3ac2643-7197-4a46-b079-37ecb55bf390"},"vehicle_type_id":"4","last_reported":1746728043,"current_range_meters":9600,"station_id":"ce4bhgh2rcd13ifvqfb0","pricing_plan_id":"cebpf4jnsgd1na2vs0mg"},{"bike_id":"773cffff-6a64-43cb-b0a9-48bfa0f63a6f","system_id":"levelo_inurba_marseille","lat":43.29976,"lon":5.37176,"is_reserved":false,"is_disabled":false,"rental_uris":{"android":"levelo://app?vid=773cffff-6a64-43cb-b0a9-48bfa0f63a6f","ios":"levelo://app?vid=773cffff-6a64-43cb-b0a9-48bfa0f63a6f"},"vehicle_type_id":"4","last_reported":1746728043,"current_range_meters":9600,"station_id":"ce4bgr92rcd13ifvqc7g","pricing_plan_id":"cebpf4jnsgd1na2vs0mg"},{"bike_id":"3a3b92a1-64b7-4440-a056-be9a0240a2cb","system_id":"levelo_inurba_marseille","lat":43.30602,"lon":5.37236,"is_reserved":false,"is_disabled":false,"rental_uris":{"android":"levelo://app?vid=3a3b92a1-64b7-4440-a056-be9a0240a2cb","ios":"levelo://app?vid=3a3b92a1-64b7-4440-a056-be9a0240a2cb"},"vehicle_type_id":"4","last_reported":1746728043,"current_range_meters":9600,"station_id":"","pricing_plan_id":"cebpf4jnsgd1na2vs0mg"},{"bike_id":"bdb4c058-f68d-4d3c-92c2-605200a1d421","system_id":"levelo_inurba_marseille","lat":43.29899,"lon":5.38136,"is_reserved":false,"is_disabled":false,"rental_uris":{"android":"levelo://app?vid=bdb4c058-f68d-4d3c-92c2-605200a1d421","ios":"levelo://app?vid=bdb4c058-f68d-4d3c-92c2-605200a1d421"},"vehicle_type_id":"4","last_reported":1746728043,"current_range_meters":10000,"station_id":"ce4bgj12rcd13ifvqbc0","pricing_plan_id":"cebpf4jnsgd1na2vs0mg"},{"bike_id":"64dfbc0f-b542-429a-9086-6cc4b101bec8","system_id":"levelo_inurba_marseille","lat":43.28463,"lon":5.35882,"is_reserved":false,"is_disabled":false,"rental_uris":{"android":"levelo://app?vid=64dfbc0f-b542-429a-9086-6cc4b101bec8","ios":"levelo://app?vid=64dfbc0f-b542-429a-9086-6cc4b101bec8"},"vehicle_type_id":"4","last_reported":1746728043,"current_range_meters":10000,"station_id":"ce4bhah2rcd13ifvqei0","pricing_plan_id":"cebpf4jnsgd1na2vs0mg"},{"bike_id":"a2248abb-422d-4851-9d3a-41111983bb2b","system_id":"levelo_inurba_marseille","lat":43.22925,"lon":5.35378,"is_reserved":false,"is_disabled":false,"rental_uris":{"android":"levelo://app?vid=a2248abb-422d-4851-9d3a-41111983bb2b","ios":"levelo://app?vid=a2248abb-422d-4851-9d3a-41111983bb2b"},"vehicle_type_id":"4","last_reported":1746728043,"current_range_meters":10000,"station_id":"cpo3532slgdg3j2ikp40","pricing_plan_id":"cebpf4jnsgd1na2vs0mg"},{"bike_id":"175dc008-1421-4d36-9e64-aecacf912173","system_id":"levelo_inurba_marseille","lat":43.24169,"lon":5.36397,"is_reserved":false,"is_disabled":false,"rental_uris":{"android":"levelo://app?vid=175dc008-1421-4d36-9e64-aecacf912173","ios":"levelo://app?vid=175dc008-1421-4d36-9e64-aecacf912173"},"vehicle_type_id":"4","last_reported":1746728043,"current_range_meters":10800,"station_id":"cpo36qri1sfpv3e86is0","pricing_plan_id":"cebpf4jnsgd1na2vs0mg"},{"bike_id":"1da00c05-748e-45d7-baf5-f6eeb0cff7bc","system_id":"levelo_inurba_marseille","lat":43.30535,"lon":5.38432,"is_reserved":false,"is_disabled":false,"rental_uris":{"android":"levelo://app?vid=1da00c05-748e-45d7-baf5-f6eeb0cff7bc","ios":"levelo://app?vid=1da00c05-748e-45d7-baf5-f6eeb0cff7bc"},"vehicle_type_id":"4","last_reported":1746728043,"current_range_meters":10800,"station_id":"ce4bgg92rcd13ifvqb30","pricing_plan_id":"cebpf4jnsgd1na2vs0mg"},{"bike_id":"35e8d545-8f0a-4b08-81d3-1acb9b10f3ac","system_id":"levelo_inurba_marseille","lat":43.21748,"lon":5.346017,"is_reserved":false,"is_disabled":false,"rental_uris":{"android":"levelo://app?vid=35e8d545-8f0a-4b08-81d3-1acb9b10f3ac","ios":"levelo://app?vid=35e8d545-8f0a-4b08-81d3-1acb9b10f3ac"},"vehicle_type_id":"4","last_reported":1746728043,"current_range_meters":10800,"station_id":"","pricing_plan_id":"cebpf4jnsgd1na2vs0mg"},{"bike_id":"7d79cb93-b45b-41c7-b737-8fceef5b7d27","system_id":"levelo_inurba_marseille","lat":43.30327,"lon":5.36896,"is_reserved":false,"is_disabled":false,"rental_uris":{"android":"levelo://app?vid=7d79cb93-b45b-41c7-b737-8fceef5b7d27","ios":"levelo://app?vid=7d79cb93-b45b-41c7-b737-8fceef5b7d27"},"vehicle_type_id":"4","last_reported":1746728043,"current_range_meters":10800,"station_id":"ce4bgqh2rcd13ifvqc5g","pricing_plan_id":"cebpf4jnsgd1na2vs0mg"},{"bike_id":"fec2a894-0511-427e-a373-5fd0b1562f8c","system_id":"levelo_inurba_marseille","lat":43.30938,"lon":5.40144,"is_reserved":false,"is_disabled":false,"rental_uris":{"android":"levelo://app?vid=fec2a894-0511-427e-a373-5fd0b1562f8c","ios":"levelo://app?vid=fec2a894-0511-427e-a373-5fd0b1562f8c"},"vehicle_type_id":"4","last_reported":1746728043,"current_range_meters":10800,"station_id":"ce4bgvp2rcd13ifvqct0","pricing_plan_id":"cebpf4jnsgd1na2vs0mg"},{"bike_id":"e7d124be-ae65-48c6-9b51-296dd80ce066","system_id":"levelo_inurba_marseille","lat":43.28567,"lon":5.39491,"is_reserved":false,"is_disabled":false,"rental_uris":{"android":"levelo://app?vid=e7d124be-ae65-48c6-9b51-296dd80ce066","ios":"levelo://app?vid=e7d124be-ae65-48c6-9b51-296dd80ce066"},"vehicle_type_id":"4","last_reported":1746728043,"current_range_meters":10000,"station_id":"ce4bh292rcd13ifvqdg0","pricing_plan_id":"cebpf4jnsgd1na2vs0mg"},{"bike_id":"8e513055-65fa-4211-b0bf-2d1bba41504c","system_id":"levelo_inurba_marseille","lat":43.25727,"lon":5.41099,"is_reserved":false,"is_disabled":false,"rental_uris":{"android":"levelo://app?vid=8e513055-65fa-4211-b0bf-2d1bba41504c","ios":"levelo://app?vid=8e513055-65fa-4211-b0bf-2d1bba41504c"},"vehicle_type_id":"4","last_reported":1746728043,"current_range_meters":10800,"station_id":"ce4bhkp2rcd13ifvqgd0","pricing_plan_id":"cebpf4jnsgd1na2vs0mg"},{"bike_id":"83df5a3b-bee4-43c2-ab66-5cdd05e18bbc","system_id":"levelo_inurba_marseille","lat":43.29275,"lon":5.36838,"is_reserved":false,"is_disabled":true,"rental_uris":{"android":"levelo://app?vid=83df5a3b-bee4-43c2-ab66-5cdd05e18bbc","ios":"levelo://app?vid=83df5a3b-bee4-43c2-ab66-5cdd05e18bbc"},"vehicle_type_id":"4","last_reported":1746728043,"current_range_meters":11200,"station_id":"ce4bhbp2rcd13ifvqesg","pricing_plan_id":"cebpf4jnsgd1na2vs0mg"},{"bike_id":"809c8673-c032-46b9-aa07-62c38e26d44e","system_id":"levelo_inurba_marseille","lat":43.25048,"lon":5.38785,"is_reserved":false,"is_disabled":false,"rental_uris":{"android":"levelo://app?vid=809c8673-c032-46b9-aa07-62c38e26d44e","ios":"levelo://app?vid=809c8673-c032-46b9-aa07-62c38e26d44e"},"vehicle_type_id":"4","last_reported":1746728043,"current_range_meters":11200,"station_id":"","pricing_plan_id":"cebpf4jnsgd1na2vs0mg"},{"bike_id":"61b5c942-b605-499d-bed9-c84e56e09afe","system_id":"levelo_inurba_marseille","lat":43.3054,"lon":5.38424,"is_reserved":false,"is_disabled":false,"rental_uris":{"android":"levelo://app?vid=61b5c942-b605-499d-bed9-c84e56e09afe","ios":"levelo://app?vid=61b5c942-b605-499d-bed9-c84e56e09afe"},"vehicle_type_id":"4","last_reported":1746728043,"current_range_meters":11200,"station_id":"ce4bgg92rcd13ifvqb30","pricing_plan_id":"cebpf4jnsgd1na2vs0mg"},{"bike_id":"c09ef3da-f95c-41ae-9c22-d6e0dfb186a6","system_id":"levelo_inurba_marseille","lat":43.29907,"lon":5.38132,"is_reserved":false,"is_disabled":false,"rental_uris":{"android":"levelo://app?vid=c09ef3da-f95c-41ae-9c22-d6e0dfb186a6","ios":"levelo://app?vid=c09ef3da-f95c-41ae-9c22-d6e0dfb186a6"},"vehicle_type_id":"4","last_reported":1746728043,"current_range_meters":11200,"station_id":"ce4bgj12rcd13ifvqbc0","pricing_plan_id":"cebpf4jnsgd1na2vs0mg"},{"bike_id":"28f2d2bd-60e4-40d5-b724-58902b076511","system_id":"levelo_inurba_marseille","lat":43.27078,"lon":5.42263,"is_reserved":false,"is_disabled":false,"rental_uris":{"android":"levelo://app?vid=28f2d2bd-60e4-40d5-b724-58902b076511","ios":"levelo://app?vid=28f2d2bd-60e4-40d5-b724-58902b076511"},"vehicle_type_id":"4","last_reported":1746728043,"current_range_meters":11200,"station_id":"ce4bhk92rcd13ifvqgb0","pricing_plan_id":"cebpf4jnsgd1na2vs0mg"},{"bike_id":"251f1257-1aa0-43b4-9f14-8315debeb74f","system_id":"levelo_inurba_marseille","lat":43.29417,"lon":5.38625,"is_reserved":false,"is_disabled":false,"rental_uris":{"android":"levelo://app?vid=251f1257-1aa0-43b4-9f14-8315debeb74f","ios":"levelo://app?vid=251f1257-1aa0-43b4-9f14-8315debeb74f"},"vehicle_type_id":"4","last_reported":1746728043,"current_range_meters":11200,"station_id":"ce4bh2h2rcd13ifvqdh0","pricing_plan_id":"cebpf4jnsgd1na2vs0mg"},{"bike_id":"7faf3bde-e9ad-4409-acd9-10581a579549","system_id":"levelo_inurba_marseille","lat":43.3031,"lon":5.36887,"is_reserved":false,"is_disabled":false,"rental_uris":{"android":"levelo://app?vid=7faf3bde-e9ad-4409-acd9-10581a579549","ios":"levelo://app?vid=7faf3bde-e9ad-4409-acd9-10581a579549"},"vehicle_type_id":"4","last_reported":1746728043,"current_range_meters":11200,"station_id":"ce4bgqh2rcd13ifvqc5g","pricing_plan_id":"cebpf4jnsgd1na2vs0mg"},{"bike_id":"66e8dce7-ee95-486f-9d36-ac2b00e10d9a","system_id":"levelo_inurba_marseille","lat":43.25493,"lon":5.37652,"is_reserved":false,"is_disabled":false,"rental_uris":{"android":"levelo://app?vid=66e8dce7-ee95-486f-9d36-ac2b00e10d9a","ios":"levelo://app?vid=66e8dce7-ee95-486f-9d36-ac2b00e10d9a"},"vehicle_type_id":"4","last_reported":1746728043,"current_range_meters":11600,"station_id":"ce4bhh12rcd13ifvqff0","pricing_plan_id":"cebpf4jnsgd1na2vs0mg"},{"bike_id":"c1309e96-1766-4fb0-b270-9e9144823491","system_id":"levelo_inurba_marseille","lat":43.24165,"lon":5.36403,"is_reserved":false,"is_disabled":false,"rental_uris":{"android":"levelo://app?vid=c1309e96-1766-4fb0-b270-9e9144823491","ios":"levelo://app?vid=c1309e96-1766-4fb0-b270-9e9144823491"},"vehicle_type_id":"4","last_reported":1746728043,"current_range_meters":11600,"station_id":"cpo36qri1sfpv3e86is0","pricing_plan_id":"cebpf4jnsgd1na2vs0mg"},{"bike_id":"ccd2a4b9-366c-4fa6-9b91-50ebfb65cf2e","system_id":"levelo_inurba_marseille","lat":43.29883,"lon":5.38899,"is_reserved":false,"is_disabled":false,"rental_uris":{"android":"levelo://app?vid=ccd2a4b9-366c-4fa6-9b91-50ebfb65cf2e","ios":"levelo://app?vid=ccd2a4b9-366c-4fa6-9b91-50ebfb65cf2e"},"vehicle_type_id":"4","last_reported":1746728043,"current_range_meters":11200,"station_id":"ce4bh392rcd13ifvqdl0","pricing_plan_id":"cebpf4jnsgd1na2vs0mg"},{"bike_id":"6971f759-8594-489e-a8f6-9153c9a9c438","system_id":"levelo_inurba_marseille","lat":43.27694,"lon":5.41957,"is_reserved":false,"is_disabled":false,"rental_uris":{"android":"levelo://app?vid=6971f759-8594-489e-a8f6-9153c9a9c438","ios":"levelo://app?vid=6971f759-8594-489e-a8f6-9153c9a9c438"},"vehicle_type_id":"4","last_reported":1746728043,"current_range_meters":11600,"station_id":"","pricing_plan_id":"cebpf4jnsgd1na2vs0mg"},{"bike_id":"19b497f5-022e-48df-8516-8db4d8bb7cc4","system_id":"levelo_inurba_marseille","lat":43.27067,"lon":5.42278,"is_reserved":false,"is_disabled":false,"rental_uris":{"android":"levelo://app?vid=19b497f5-022e-48df-8516-8db4d8bb7cc4","ios":"levelo://app?vid=19b497f5-022e-48df-8516-8db4d8bb7cc4"},"vehicle_type_id":"4","last_reported":1746728043,"current_range_meters":11600,"station_id":"ce4bhk92rcd13ifvqgb0","pricing_plan_id":"cebpf4jnsgd1na2vs0mg"},{"bike_id":"8b365418-6e5c-4dcd-88b7-03d4a0968bd1","system_id":"levelo_inurba_marseille","lat":43.23197,"lon":5.39971,"is_reserved":false,"is_disabled":false,"rental_uris":{"android":"levelo://app?vid=8b365418-6e5c-4dcd-88b7-03d4a0968bd1","ios":"levelo://app?vid=8b365418-6e5c-4dcd-88b7-03d4a0968bd1"},"vehicle_type_id":"4","last_reported":1746728043,"current_range_meters":11600,"station_id":"ce4bhn12rcd13ifvqgqg","pricing_plan_id":"cebpf4jnsgd1na2vs0mg"},{"bike_id":"d623a79b-47b8-4b9f-9c12-166487837ba7","system_id":"levelo_inurba_marseille","lat":43.30407,"lon":5.36782,"is_reserved":false,"is_disabled":false,"rental_uris":{"android":"levelo://app?vid=d623a79b-47b8-4b9f-9c12-166487837ba7","ios":"levelo://app?vid=d623a79b-47b8-4b9f-9c12-166487837ba7"},"vehicle_type_id":"4","last_reported":1746728043,"current_range_meters":12000,"station_id":"","pricing_plan_id":"cebpf4jnsgd1na2vs0mg"},{"bike_id":"4fd968b6-5122-4f45-9536-44e3f44d1a08","system_id":"levelo_inurba_marseille","lat":43.2873,"lon":5.36073,"is_reserved":false,"is_disabled":false,"rental_uris":{"android":"levelo://app?vid=4fd968b6-5122-4f45-9536-44e3f44d1a08","ios":"levelo://app?vid=4fd968b6-5122-4f45-9536-44e3f44d1a08"},"vehicle_type_id":"4","last_reported":1746728043,"current_range_meters":12000,"station_id":"cki0cbj6b192h4jlfktg","pricing_plan_id":"cebpf4jnsgd1na2vs0mg"},{"bike_id":"4cd3a911-b468-4766-83d0-21b4a755ba9b","system_id":"levelo_inurba_marseille","lat":43.28612,"lon":5.35105,"is_reserved":false,"is_disabled":false,"rental_uris":{"android":"levelo://app?vid=4cd3a911-b468-4766-83d0-21b4a755ba9b","ios":"levelo://app?vid=4cd3a911-b468-4766-83d0-21b4a755ba9b"},"vehicle_type_id":"4","last_reported":1746728043,"current_range_meters":12400,"station_id":"","pricing_plan_id":"cebpf4jnsgd1na2vs0mg"},{"bike_id":"4c2d2877-f0c2-41ad-845e-460bd1e81706","system_id":"levelo_inurba_marseille","lat":43.243863,"lon":5.370557,"is_reserved":false,"is_disabled":false,"rental_uris":{"android":"levelo://app?vid=4c2d2877-f0c2-41ad-845e-460bd1e81706","ios":"levelo://app?vid=4c2d2877-f0c2-41ad-845e-460bd1e81706"},"vehicle_type_id":"4","last_reported":1746728043,"current_range_meters":12400,"station_id":"ce4bhhh2rcd13ifvqfk0","pricing_plan_id":"cebpf4jnsgd1na2vs0mg"},{"bike_id":"dff0d91e-0746-4eaa-8023-9a65f937f0d0","system_id":"levelo_inurba_marseille","lat":43.30792,"lon":5.38161,"is_reserved":false,"is_disabled":false,"rental_uris":{"android":"levelo://app?vid=dff0d91e-0746-4eaa-8023-9a65f937f0d0","ios":"levelo://app?vid=dff0d91e-0746-4eaa-8023-9a65f937f0d0"},"vehicle_type_id":"4","last_reported":1746728043,"current_range_meters":12400,"station_id":"ce4bgt12rcd13ifvqce0","pricing_plan_id":"cebpf4jnsgd1na2vs0mg"},{"bike_id":"d0801005-3d14-4c88-8840-4bfcc1e08f72","system_id":"levelo_inurba_marseille","lat":43.241686,"lon":5.36393,"is_reserved":false,"is_disabled":false,"rental_uris":{"android":"levelo://app?vid=d0801005-3d14-4c88-8840-4bfcc1e08f72","ios":"levelo://app?vid=d0801005-3d14-4c88-8840-4bfcc1e08f72"},"vehicle_type_id":"4","last_reported":1746728043,"current_range_meters":12400,"station_id":"cpo36qri1sfpv3e86is0","pricing_plan_id":"cebpf4jnsgd1na2vs0mg"},{"bike_id":"fe36cf45-2f83-4907-87cd-ce224e5eb19f","system_id":"levelo_inurba_marseille","lat":43.24651,"lon":5.38895,"is_reserved":false,"is_disabled":false,"rental_uris":{"android":"levelo://app?vid=fe36cf45-2f83-4907-87cd-ce224e5eb19f","ios":"levelo://app?vid=fe36cf45-2f83-4907-87cd-ce224e5eb19f"},"vehicle_type_id":"4","last_reported":1746728043,"current_range_meters":12400,"station_id":"ce4bhg12rcd13ifvqf60","pricing_plan_id":"cebpf4jnsgd1na2vs0mg"},{"bike_id":"1e56bbb1-5c57-4264-854a-1cf8a3e10fb9","system_id":"levelo_inurba_marseille","lat":43.307861,"lon":5.376373,"is_reserved":false,"is_disabled":false,"rental_uris":{"android":"levelo://app?vid=1e56bbb1-5c57-4264-854a-1cf8a3e10fb9","ios":"levelo://app?vid=1e56bbb1-5c57-4264-854a-1cf8a3e10fb9"},"vehicle_type_id":"4","last_reported":1746728043,"current_range_meters":12400,"station_id":"ce4bgv92rcd13ifvqcq0","pricing_plan_id":"cebpf4jnsgd1na2vs0mg"},{"bike_id":"87b13e8a-b9ef-4677-88b3-86cdfb51874e","system_id":"levelo_inurba_marseille","lat":43.30888,"lon":5.37196,"is_reserved":false,"is_disabled":false,"rental_uris":{"android":"levelo://app?vid=87b13e8a-b9ef-4677-88b3-86cdfb51874e","ios":"levelo://app?vid=87b13e8a-b9ef-4677-88b3-86cdfb51874e"},"vehicle_type_id":"4","last_reported":1746728043,"current_range_meters":12400,"station_id":"","pricing_plan_id":"cebpf4jnsgd1na2vs0mg"},{"bike_id":"caccb556-2ad0-45b8-84b8-819024dd44e6","system_id":"levelo_inurba_marseille","lat":43.298,"lon":5.3674,"is_reserved":false,"is_disabled":false,"rental_uris":{"android":"levelo://app?vid=caccb556-2ad0-45b8-84b8-819024dd44e6","ios":"levelo://app?vid=caccb556-2ad0-45b8-84b8-819024dd44e6"},"vehicle_type_id":"4","last_reported":1746728043,"current_range_meters":12800,"station_id":"","pricing_plan_id":"cebpf4jnsgd1na2vs0mg"},{"bike_id":"26e70a0b-b107-439b-8618-c49c15ae625b","system_id":"levelo_inurba_marseille","lat":43.25001,"lon":5.38924,"is_reserved":false,"is_disabled":false,"rental_uris":{"android":"levelo://app?vid=26e70a0b-b107-439b-8618-c49c15ae625b","ios":"levelo://app?vid=26e70a0b-b107-439b-8618-c49c15ae625b"},"vehicle_type_id":"4","last_reported":1746728043,"current_range_meters":12800,"station_id":"ce4bhgp2rcd13ifvqfd0","pricing_plan_id":"cebpf4jnsgd1na2vs0mg"},{"bike_id":"c3bc6e19-f418-4496-92eb-cc3c08bf6b88","system_id":"levelo_inurba_marseille","lat":43.32484,"lon":5.36554,"is_reserved":false,"is_disabled":false,"rental_uris":{"android":"levelo://app?vid=c3bc6e19-f418-4496-92eb-cc3c08bf6b88","ios":"levelo://app?vid=c3bc6e19-f418-4496-92eb-cc3c08bf6b88"},"vehicle_type_id":"4","last_reported":1746728043,"current_range_meters":12800,"station_id":"ce4bhs12rcd13ifvqhvg","pricing_plan_id":"cebpf4jnsgd1na2vs0mg"},{"bike_id":"fabf536f-f75e-4d9a-b4e4-57ea3234c443","system_id":"levelo_inurba_marseille","lat":43.29788,"lon":5.393489,"is_reserved":false,"is_disabled":false,"rental_uris":{"android":"levelo://app?vid=fabf536f-f75e-4d9a-b4e4-57ea3234c443","ios":"levelo://app?vid=fabf536f-f75e-4d9a-b4e4-57ea3234c443"},"vehicle_type_id":"4","last_reported":1746728043,"current_range_meters":12800,"station_id":"ce4bgn92rcd13ifvqbvg","pricing_plan_id":"cebpf4jnsgd1na2vs0mg"},{"bike_id":"8fa5584d-a028-44e7-8f53-4d5ec124d76b","system_id":"levelo_inurba_marseille","lat":43.31687,"lon":5.40472,"is_reserved":false,"is_disabled":false,"rental_uris":{"android":"levelo://app?vid=8fa5584d-a028-44e7-8f53-4d5ec124d76b","ios":"levelo://app?vid=8fa5584d-a028-44e7-8f53-4d5ec124d76b"},"vehicle_type_id":"4","last_reported":1746728043,"current_range_meters":12800,"station_id":"ce4bh012rcd13ifvqd00","pricing_plan_id":"cebpf4jnsgd1na2vs0mg"},{"bike_id":"ff47c92b-db73-42bd-99d4-eeb774bdf3be","system_id":"levelo_inurba_marseille","lat":43.31075,"lon":5.38355,"is_reserved":false,"is_disabled":true,"rental_uris":{"android":"levelo://app?vid=ff47c92b-db73-42bd-99d4-eeb774bdf3be","ios":"levelo://app?vid=ff47c92b-db73-42bd-99d4-eeb774bdf3be"},"vehicle_type_id":"4","last_reported":1746728043,"current_range_meters":12800,"station_id":"ce4bgv92rcd13ifvqcr0","pricing_plan_id":"cebpf4jnsgd1na2vs0mg"},{"bike_id":"a2309e80-b2ba-42c9-9c60-147f0babf9f9","system_id":"levelo_inurba_marseille","lat":43.30841,"lon":5.37039,"is_reserved":false,"is_disabled":false,"rental_uris":{"android":"levelo://app?vid=a2309e80-b2ba-42c9-9c60-147f0babf9f9","ios":"levelo://app?vid=a2309e80-b2ba-42c9-9c60-147f0babf9f9"},"vehicle_type_id":"4","last_reported":1746728043,"current_range_meters":13600,"station_id":"","pricing_plan_id":"cebpf4jnsgd1na2vs0mg"},{"bike_id":"89f953df-2061-408d-8f0d-6a2938e5443a","system_id":"levelo_inurba_marseille","lat":43.23653,"lon":5.40349,"is_reserved":false,"is_disabled":false,"rental_uris":{"android":"levelo://app?vid=89f953df-2061-408d-8f0d-6a2938e5443a","ios":"levelo://app?vid=89f953df-2061-408d-8f0d-6a2938e5443a"},"vehicle_type_id":"4","last_reported":1746728043,"current_range_meters":13600,"station_id":"","pricing_plan_id":"cebpf4jnsgd1na2vs0mg"},{"bike_id":"e6282093-23fb-41a9-859d-c0d9ad966535","system_id":"levelo_inurba_marseille","lat":43.316527,"lon":5.381663,"is_reserved":false,"is_disabled":false,"rental_uris":{"android":"levelo://app?vid=e6282093-23fb-41a9-859d-c0d9ad966535","ios":"levelo://app?vid=e6282093-23fb-41a9-859d-c0d9ad966535"},"vehicle_type_id":"4","last_reported":1746728043,"current_range_meters":13600,"station_id":"","pricing_plan_id":"cebpf4jnsgd1na2vs0mg"},{"bike_id":"54948e3e-7829-414d-be6e-23225259d3e1","system_id":"levelo_inurba_marseille","lat":43.29802,"lon":5.38095,"is_reserved":false,"is_disabled":false,"rental_uris":{"android":"levelo://app?vid=54948e3e-7829-414d-be6e-23225259d3e1","ios":"levelo://app?vid=54948e3e-7829-414d-be6e-23225259d3e1"},"vehicle_type_id":"4","last_reported":1746728043,"current_range_meters":13600,"station_id":"ce4bgip2rcd13ifvqbb0","pricing_plan_id":"cebpf4jnsgd1na2vs0mg"},{"bike_id":"d451a4b8-43bc-4064-9b70-e79ed29d9759","system_id":"levelo_inurba_marseille","lat":43.24805,"lon":5.37462,"is_reserved":false,"is_disabled":false,"rental_uris":{"android":"levelo://app?vid=d451a4b8-43bc-4064-9b70-e79ed29d9759","ios":"levelo://app?vid=d451a4b8-43bc-4064-9b70-e79ed29d9759"},"vehicle_type_id":"4","last_reported":1746728043,"current_range_meters":13600,"station_id":"ce4bhgh2rcd13ifvqfb0","pricing_plan_id":"cebpf4jnsgd1na2vs0mg"},{"bike_id":"5f2a4e8b-298c-423f-95ba-87ea60170e5a","system_id":"levelo_inurba_marseille","lat":43.2757,"lon":5.38412,"is_reserved":false,"is_disabled":false,"rental_uris":{"android":"levelo://app?vid=5f2a4e8b-298c-423f-95ba-87ea60170e5a","ios":"levelo://app?vid=5f2a4e8b-298c-423f-95ba-87ea60170e5a"},"vehicle_type_id":"4","last_reported":1746728043,"current_range_meters":13600,"station_id":"ce4bhh92rcd13ifvqfi0","pricing_plan_id":"cebpf4jnsgd1na2vs0mg"},{"bike_id":"6fe4edd0-5f22-45d0-9b9f-de7ebc144107","system_id":"levelo_inurba_marseille","lat":43.28032,"lon":5.3694,"is_reserved":false,"is_disabled":true,"rental_uris":{"android":"levelo://app?vid=6fe4edd0-5f22-45d0-9b9f-de7ebc144107","ios":"levelo://app?vid=6fe4edd0-5f22-45d0-9b9f-de7ebc144107"},"vehicle_type_id":"4","last_reported":1746728043,"current_range_meters":14000,"station_id":"ce4bha12rcd13ifvqef0","pricing_plan_id":"cebpf4jnsgd1na2vs0mg"},{"bike_id":"ec0b9493-0d0e-4089-bfc7-297014a1dc7c","system_id":"levelo_inurba_marseille","lat":43.28156,"lon":5.42654,"is_reserved":false,"is_disabled":false,"rental_uris":{"android":"levelo://app?vid=ec0b9493-0d0e-4089-bfc7-297014a1dc7c","ios":"levelo://app?vid=ec0b9493-0d0e-4089-bfc7-297014a1dc7c"},"vehicle_type_id":"4","last_reported":1746728043,"current_range_meters":14000,"station_id":"ce4bhnh2rcd13ifvqgug","pricing_plan_id":"cebpf4jnsgd1na2vs0mg"},{"bike_id":"17632095-7d1f-401b-a3dc-247ba2ac61f3","system_id":"levelo_inurba_marseille","lat":43.29272,"lon":5.38436,"is_reserved":false,"is_disabled":false,"rental_uris":{"android":"levelo://app?vid=17632095-7d1f-401b-a3dc-247ba2ac61f3","ios":"levelo://app?vid=17632095-7d1f-401b-a3dc-247ba2ac61f3"},"vehicle_type_id":"4","last_reported":1746728043,"current_range_meters":14000,"station_id":"ce4bh692rcd13ifvqea0","pricing_plan_id":"cebpf4jnsgd1na2vs0mg"},{"bike_id":"2783c336-68b3-4a20-8bbe-bac9b83fca6e","system_id":"levelo_inurba_marseille","lat":43.279986,"lon":5.400074,"is_reserved":false,"is_disabled":false,"rental_uris":{"android":"levelo://app?vid=2783c336-68b3-4a20-8bbe-bac9b83fca6e","ios":"levelo://app?vid=2783c336-68b3-4a20-8bbe-bac9b83fca6e"},"vehicle_type_id":"4","last_reported":1746728043,"current_range_meters":14000,"station_id":"ce4bho92rcd13ifvqh4g","pricing_plan_id":"cebpf4jnsgd1na2vs0mg"},{"bike_id":"c3acd782-7098-44a3-97a8-fe6287e24657","system_id":"levelo_inurba_marseille","lat":43.28931,"lon":5.36412,"is_reserved":false,"is_disabled":false,"rental_uris":{"android":"levelo://app?vid=c3acd782-7098-44a3-97a8-fe6287e24657","ios":"levelo://app?vid=c3acd782-7098-44a3-97a8-fe6287e24657"},"vehicle_type_id":"4","last_reported":1746728043,"current_range_meters":14000,"station_id":"ce4bhc92rcd13ifvqetg","pricing_plan_id":"cebpf4jnsgd1na2vs0mg"},{"bike_id":"2f524cea-e336-4aaf-a221-146a83860dd3","system_id":"levelo_inurba_marseille","lat":43.2993,"lon":5.3654,"is_reserved":false,"is_disabled":false,"rental_uris":{"android":"levelo://app?vid=2f524cea-e336-4aaf-a221-146a83860dd3","ios":"levelo://app?vid=2f524cea-e336-4aaf-a221-146a83860dd3"},"vehicle_type_id":"4","last_reported":1746728043,"current_range_meters":14000,"station_id":"ce4bgm92rcd13ifvqbr0","pricing_plan_id":"cebpf4jnsgd1na2vs0mg"},{"bike_id":"1897b6a2-ae96-4719-8680-fe7dbde0b33a","system_id":"levelo_inurba_marseille","lat":43.28029,"lon":5.3694,"is_reserved":false,"is_disabled":false,"rental_uris":{"android":"levelo://app?vid=1897b6a2-ae96-4719-8680-fe7dbde0b33a","ios":"levelo://app?vid=1897b6a2-ae96-4719-8680-fe7dbde0b33a"},"vehicle_type_id":"4","last_reported":1746728043,"current_range_meters":14400,"station_id":"ce4bha12rcd13ifvqef0","pricing_plan_id":"cebpf4jnsgd1na2vs0mg"},{"bike_id":"e7a99468-09f5-4430-a14a-379574d6e496","system_id":"levelo_inurba_marseille","lat":43.29685,"lon":5.36025,"is_reserved":false,"is_disabled":false,"rental_uris":{"android":"levelo://app?vid=e7a99468-09f5-4430-a14a-379574d6e496","ios":"levelo://app?vid=e7a99468-09f5-4430-a14a-379574d6e496"},"vehicle_type_id":"4","last_reported":1746728043,"current_range_meters":14400,"station_id":"","pricing_plan_id":"cebpf4jnsgd1na2vs0mg"},{"bike_id":"f476a551-0bce-4222-8c98-4883e55a1d2f","system_id":"levelo_inurba_marseille","lat":43.2895,"lon":5.38411,"is_reserved":false,"is_disabled":false,"rental_uris":{"android":"levelo://app?vid=f476a551-0bce-4222-8c98-4883e55a1d2f","ios":"levelo://app?vid=f476a551-0bce-4222-8c98-4883e55a1d2f"},"vehicle_type_id":"4","last_reported":1746728043,"current_range_meters":14800,"station_id":"ce4bh612rcd13ifvqe6g","pricing_plan_id":"cebpf4jnsgd1na2vs0mg"},{"bike_id":"14632825-7c0d-45b0-8007-9b4d5d5a19ec","system_id":"levelo_inurba_marseille","lat":43.29626,"lon":5.40595,"is_reserved":false,"is_disabled":false,"rental_uris":{"android":"levelo://app?vid=14632825-7c0d-45b0-8007-9b4d5d5a19ec","ios":"levelo://app?vid=14632825-7c0d-45b0-8007-9b4d5d5a19ec"},"vehicle_type_id":"4","last_reported":1746728043,"current_range_meters":14800,"station_id":"ce4bh0h2rcd13ifvqd60","pricing_plan_id":"cebpf4jnsgd1na2vs0mg"},{"bike_id":"b0f3f92d-8999-468a-9528-0914f61ea2fa","system_id":"levelo_inurba_marseille","lat":43.31266,"lon":5.40164,"is_reserved":false,"is_disabled":false,"rental_uris":{"android":"levelo://app?vid=b0f3f92d-8999-468a-9528-0914f61ea2fa","ios":"levelo://app?vid=b0f3f92d-8999-468a-9528-0914f61ea2fa"},"vehicle_type_id":"4","last_reported":1746728043,"current_range_meters":14800,"station_id":"ce4bh092rcd13ifvqd30","pricing_plan_id":"cebpf4jnsgd1na2vs0mg"},{"bike_id":"1e39b4d9-43d3-4366-94de-1dbba7a2c508","system_id":"levelo_inurba_marseille","lat":43.24649,"lon":5.38889,"is_reserved":false,"is_disabled":false,"rental_uris":{"android":"levelo://app?vid=1e39b4d9-43d3-4366-94de-1dbba7a2c508","ios":"levelo://app?vid=1e39b4d9-43d3-4366-94de-1dbba7a2c508"},"vehicle_type_id":"4","last_reported":1746728043,"current_range_meters":14800,"station_id":"ce4bhg12rcd13ifvqf60","pricing_plan_id":"cebpf4jnsgd1na2vs0mg"},{"bike_id":"ce014c40-9a98-49bd-be25-93b771de8a24","system_id":"levelo_inurba_marseille","lat":43.29184,"lon":5.35773,"is_reserved":false,"is_disabled":false,"rental_uris":{"android":"levelo://app?vid=ce014c40-9a98-49bd-be25-93b771de8a24","ios":"levelo://app?vid=ce014c40-9a98-49bd-be25-93b771de8a24"},"vehicle_type_id":"4","last_reported":1746728043,"current_range_meters":14800,"station_id":"ce4bhb12rcd13ifvqel0","pricing_plan_id":"cebpf4jnsgd1na2vs0mg"},{"bike_id":"c42d0137-01db-4e02-8a6e-f9af61ad1319","system_id":"levelo_inurba_marseille","lat":43.31485,"lon":5.37305,"is_reserved":false,"is_disabled":false,"rental_uris":{"android":"levelo://app?vid=c42d0137-01db-4e02-8a6e-f9af61ad1319","ios":"levelo://app?vid=c42d0137-01db-4e02-8a6e-f9af61ad1319"},"vehicle_type_id":"4","last_reported":1746728043,"current_range_meters":14800,"station_id":"ce4bgt12rcd13ifvqcd0","pricing_plan_id":"cebpf4jnsgd1na2vs0mg"},{"bike_id":"bb105588-60b3-4c5e-b7a3-07279396013a","system_id":"levelo_inurba_marseille","lat":43.30591,"lon":5.3936,"is_reserved":false,"is_disabled":false,"rental_uris":{"android":"levelo://app?vid=bb105588-60b3-4c5e-b7a3-07279396013a","ios":"levelo://app?vid=bb105588-60b3-4c5e-b7a3-07279396013a"},"vehicle_type_id":"4","last_reported":1746728043,"current_range_meters":15200,"station_id":"ce4bh0p2rcd13ifvqd80","pricing_plan_id":"cebpf4jnsgd1na2vs0mg"},{"bike_id":"2c327cbd-3522-4250-8c48-f17a7b957026","system_id":"levelo_inurba_marseille","lat":43.29595,"lon":5.38105,"is_reserved":false,"is_disabled":false,"rental_uris":{"android":"levelo://app?vid=2c327cbd-3522-4250-8c48-f17a7b957026","ios":"levelo://app?vid=2c327cbd-3522-4250-8c48-f17a7b957026"},"vehicle_type_id":"4","last_reported":1746728043,"current_range_meters":15200,"station_id":"ce4bgl12rcd13ifvqbo0","pricing_plan_id":"cebpf4jnsgd1na2vs0mg"},{"bike_id":"cacec4d0-2192-4d88-9d0c-fda2092e1840","system_id":"levelo_inurba_marseille","lat":43.28392,"lon":5.37517,"is_reserved":false,"is_disabled":true,"rental_uris":{"android":"levelo://app?vid=cacec4d0-2192-4d88-9d0c-fda2092e1840","ios":"levelo://app?vid=cacec4d0-2192-4d88-9d0c-fda2092e1840"},"vehicle_type_id":"4","last_reported":1746728043,"current_range_meters":16000,"station_id":"ce4bh412rcd13ifvqds0","pricing_plan_id":"cebpf4jnsgd1na2vs0mg"},{"bike_id":"e903ff3c-a168-4542-85c5-beeffdc26091","system_id":"levelo_inurba_marseille","lat":43.3028,"lon":5.37712,"is_reserved":false,"is_disabled":false,"rental_uris":{"android":"levelo://app?vid=e903ff3c-a168-4542-85c5-beeffdc26091","ios":"levelo://app?vid=e903ff3c-a168-4542-85c5-beeffdc26091"},"vehicle_type_id":"4","last_reported":1746728043,"current_range_meters":16000,"station_id":"ce4bguh2rcd13ifvqcj0","pricing_plan_id":"cebpf4jnsgd1na2vs0mg"},{"bike_id":"b0c54ead-2c9a-4d45-904a-5e1b9abf7338","system_id":"levelo_inurba_marseille","lat":43.27887,"lon":5.4407,"is_reserved":false,"is_disabled":false,"rental_uris":{"android":"levelo://app?vid=b0c54ead-2c9a-4d45-904a-5e1b9abf7338","ios":"levelo://app?vid=b0c54ead-2c9a-4d45-904a-5e1b9abf7338"},"vehicle_type_id":"4","last_reported":1746728043,"current_range_meters":16000,"station_id":"","pricing_plan_id":"cebpf4jnsgd1na2vs0mg"},{"bike_id":"0a471ecd-c07a-49f3-9ff1-84c4387fcf4b","system_id":"levelo_inurba_marseille","lat":43.28848,"lon":5.35842,"is_reserved":false,"is_disabled":false,"rental_uris":{"android":"levelo://app?vid=0a471ecd-c07a-49f3-9ff1-84c4387fcf4b","ios":"levelo://app?vid=0a471ecd-c07a-49f3-9ff1-84c4387fcf4b"},"vehicle_type_id":"4","last_reported":1746728043,"current_range_meters":16000,"station_id":"ce4bhb12rcd13ifvqem0","pricing_plan_id":"cebpf4jnsgd1na2vs0mg"},{"bike_id":"31d5a66b-07d0-4e2a-9265-7d0807e7dc13","system_id":"levelo_inurba_marseille","lat":43.26231,"lon":5.40454,"is_reserved":false,"is_disabled":false,"rental_uris":{"android":"levelo://app?vid=31d5a66b-07d0-4e2a-9265-7d0807e7dc13","ios":"levelo://app?vid=31d5a66b-07d0-4e2a-9265-7d0807e7dc13"},"vehicle_type_id":"4","last_reported":1746728043,"current_range_meters":16000,"station_id":"ce4bhmh2rcd13ifvqgmg","pricing_plan_id":"cebpf4jnsgd1na2vs0mg"},{"bike_id":"2e719a53-5bb7-4e06-8c27-2cf0eae6c9f7","system_id":"levelo_inurba_marseille","lat":43.29272,"lon":5.40108,"is_reserved":false,"is_disabled":true,"rental_uris":{"android":"levelo://app?vid=2e719a53-5bb7-4e06-8c27-2cf0eae6c9f7","ios":"levelo://app?vid=2e719a53-5bb7-4e06-8c27-2cf0eae6c9f7"},"vehicle_type_id":"4","last_reported":1746728043,"current_range_meters":16800,"station_id":"ce4bh312rcd13ifvqdk0","pricing_plan_id":"cebpf4jnsgd1na2vs0mg"},{"bike_id":"3f2c1636-23a3-482c-960a-17f372059acb","system_id":"levelo_inurba_marseille","lat":43.28354,"lon":5.38117,"is_reserved":false,"is_disabled":false,"rental_uris":{"android":"levelo://app?vid=3f2c1636-23a3-482c-960a-17f372059acb","ios":"levelo://app?vid=3f2c1636-23a3-482c-960a-17f372059acb"},"vehicle_type_id":"4","last_reported":1746728043,"current_range_meters":16800,"station_id":"ce4bh412rcd13ifvqdr0","pricing_plan_id":"cebpf4jnsgd1na2vs0mg"},{"bike_id":"ccf62313-6c7d-4d79-a5d7-ce161920e475","system_id":"levelo_inurba_marseille","lat":43.3237,"lon":5.367574,"is_reserved":false,"is_disabled":false,"rental_uris":{"android":"levelo://app?vid=ccf62313-6c7d-4d79-a5d7-ce161920e475","ios":"levelo://app?vid=ccf62313-6c7d-4d79-a5d7-ce161920e475"},"vehicle_type_id":"4","last_reported":1746728043,"current_range_meters":16800,"station_id":"ce4bhsh2rcd13ifvqi2g","pricing_plan_id":"cebpf4jnsgd1na2vs0mg"},{"bike_id":"be7c5d9d-6ac5-4bdb-8c7d-69f997e88e76","system_id":"levelo_inurba_marseille","lat":43.27813,"lon":5.40694,"is_reserved":false,"is_disabled":false,"rental_uris":{"android":"levelo://app?vid=be7c5d9d-6ac5-4bdb-8c7d-69f997e88e76","ios":"levelo://app?vid=be7c5d9d-6ac5-4bdb-8c7d-69f997e88e76"},"vehicle_type_id":"4","last_reported":1746728043,"current_range_meters":16800,"station_id":"ce4bhnh2rcd13ifvqgtg","pricing_plan_id":"cebpf4jnsgd1na2vs0mg"},{"bike_id":"0c64db15-5d2e-4f01-aa14-c9027bf8b1ea","system_id":"levelo_inurba_marseille","lat":43.28398,"lon":5.3751,"is_reserved":false,"is_disabled":false,"rental_uris":{"android":"levelo://app?vid=0c64db15-5d2e-4f01-aa14-c9027bf8b1ea","ios":"levelo://app?vid=0c64db15-5d2e-4f01-aa14-c9027bf8b1ea"},"vehicle_type_id":"4","last_reported":1746728043,"current_range_meters":16400,"station_id":"ce4bh412rcd13ifvqds0","pricing_plan_id":"cebpf4jnsgd1na2vs0mg"},{"bike_id":"f0f84a5d-0136-43ae-81a4-1d3ebb9aabf1","system_id":"levelo_inurba_marseille","lat":43.305603,"lon":5.382209,"is_reserved":false,"is_disabled":false,"rental_uris":{"android":"levelo://app?vid=f0f84a5d-0136-43ae-81a4-1d3ebb9aabf1","ios":"levelo://app?vid=f0f84a5d-0136-43ae-81a4-1d3ebb9aabf1"},"vehicle_type_id":"4","last_reported":1746728043,"current_range_meters":16800,"station_id":"ce4bh4p2rcd13ifvqe0g","pricing_plan_id":"cebpf4jnsgd1na2vs0mg"},{"bike_id":"4e75ccaa-b5d2-4134-adbf-6d4dc9734c4c","system_id":"levelo_inurba_marseille","lat":43.3054,"lon":5.38431,"is_reserved":false,"is_disabled":false,"rental_uris":{"android":"levelo://app?vid=4e75ccaa-b5d2-4134-adbf-6d4dc9734c4c","ios":"levelo://app?vid=4e75ccaa-b5d2-4134-adbf-6d4dc9734c4c"},"vehicle_type_id":"4","last_reported":1746728043,"current_range_meters":17200,"station_id":"ce4bgg92rcd13ifvqb30","pricing_plan_id":"cebpf4jnsgd1na2vs0mg"},{"bike_id":"0b8a58cc-84ce-4893-ace4-6001974b3519","system_id":"levelo_inurba_marseille","lat":43.30461,"lon":5.38895,"is_reserved":false,"is_disabled":true,"rental_uris":{"android":"levelo://app?vid=0b8a58cc-84ce-4893-ace4-6001974b3519","ios":"levelo://app?vid=0b8a58cc-84ce-4893-ace4-6001974b3519"},"vehicle_type_id":"4","last_reported":1746728043,"current_range_meters":17200,"station_id":"ce4bgk12rcd13ifvqbi0","pricing_plan_id":"cebpf4jnsgd1na2vs0mg"},{"bike_id":"b1ec041f-f625-470c-bae0-507c5e4e77ca","system_id":"levelo_inurba_marseille","lat":43.29778,"lon":5.39331,"is_reserved":false,"is_disabled":false,"rental_uris":{"android":"levelo://app?vid=b1ec041f-f625-470c-bae0-507c5e4e77ca","ios":"levelo://app?vid=b1ec041f-f625-470c-bae0-507c5e4e77ca"},"vehicle_type_id":"4","last_reported":1746728043,"current_range_meters":17200,"station_id":"chh1huq6cuj3fo74tm60","pricing_plan_id":"cebpf4jnsgd1na2vs0mg"},{"bike_id":"4836f59f-6baa-4b6d-b292-0d34ae631834","system_id":"levelo_inurba_marseille","lat":43.29309,"lon":5.37171,"is_reserved":false,"is_disabled":false,"rental_uris":{"android":"levelo://app?vid=4836f59f-6baa-4b6d-b292-0d34ae631834","ios":"levelo://app?vid=4836f59f-6baa-4b6d-b292-0d34ae631834"},"vehicle_type_id":"4","last_reported":1746728043,"current_range_meters":17200,"station_id":"ce4bgh92rcd13ifvqb40","pricing_plan_id":"cebpf4jnsgd1na2vs0mg"},{"bike_id":"3bdcbe10-16f9-4a32-9d26-2db895ad59ba","system_id":"levelo_inurba_marseille","lat":43.293906,"lon":5.378537,"is_reserved":false,"is_disabled":false,"rental_uris":{"android":"levelo://app?vid=3bdcbe10-16f9-4a32-9d26-2db895ad59ba","ios":"levelo://app?vid=3bdcbe10-16f9-4a32-9d26-2db895ad59ba"},"vehicle_type_id":"4","last_reported":1746728043,"current_range_meters":17200,"station_id":"ce4bgjh2rcd13ifvqbf0","pricing_plan_id":"cebpf4jnsgd1na2vs0mg"},{"bike_id":"087f16a0-2369-4b3b-bcf7-7c21cdb9b1c4","system_id":"levelo_inurba_marseille","lat":43.27567,"lon":5.38428,"is_reserved":false,"is_disabled":false,"rental_uris":{"android":"levelo://app?vid=087f16a0-2369-4b3b-bcf7-7c21cdb9b1c4","ios":"levelo://app?vid=087f16a0-2369-4b3b-bcf7-7c21cdb9b1c4"},"vehicle_type_id":"4","last_reported":1746728043,"current_range_meters":17200,"station_id":"ce4bhh92rcd13ifvqfi0","pricing_plan_id":"cebpf4jnsgd1na2vs0mg"},{"bike_id":"59c9eee2-2711-40e5-ad57-f78d6a66b9e3","system_id":"levelo_inurba_marseille","lat":43.25924,"lon":5.40908,"is_reserved":false,"is_disabled":false,"rental_uris":{"android":"levelo://app?vid=59c9eee2-2711-40e5-ad57-f78d6a66b9e3","ios":"levelo://app?vid=59c9eee2-2711-40e5-ad57-f78d6a66b9e3"},"vehicle_type_id":"4","last_reported":1746728043,"current_range_meters":17600,"station_id":"ce4bhm92rcd13ifvqglg","pricing_plan_id":"cebpf4jnsgd1na2vs0mg"},{"bike_id":"5a4fc0af-88b3-4efd-9173-a8855afb3b30","system_id":"levelo_inurba_marseille","lat":43.30049,"lon":5.36556,"is_reserved":false,"is_disabled":false,"rental_uris":{"android":"levelo://app?vid=5a4fc0af-88b3-4efd-9173-a8855afb3b30","ios":"levelo://app?vid=5a4fc0af-88b3-4efd-9173-a8855afb3b30"},"vehicle_type_id":"4","last_reported":1746728043,"current_range_meters":17600,"station_id":"","pricing_plan_id":"cebpf4jnsgd1na2vs0mg"},{"bike_id":"a5e93638-fd65-4041-acd2-1fa408a23755","system_id":"levelo_inurba_marseille","lat":43.306293,"lon":5.372072,"is_reserved":false,"is_disabled":false,"rental_uris":{"android":"levelo://app?vid=a5e93638-fd65-4041-acd2-1fa408a23755","ios":"levelo://app?vid=a5e93638-fd65-4041-acd2-1fa408a23755"},"vehicle_type_id":"4","last_reported":1746728043,"current_range_meters":17600,"station_id":"ce4bgqh2rcd13ifvqc4g","pricing_plan_id":"cebpf4jnsgd1na2vs0mg"},{"bike_id":"64e04a1d-7919-4ae1-80c2-9fed7ad258e4","system_id":"levelo_inurba_marseille","lat":43.24074,"lon":5.37763,"is_reserved":false,"is_disabled":false,"rental_uris":{"android":"levelo://app?vid=64e04a1d-7919-4ae1-80c2-9fed7ad258e4","ios":"levelo://app?vid=64e04a1d-7919-4ae1-80c2-9fed7ad258e4"},"vehicle_type_id":"4","last_reported":1746728043,"current_range_meters":17600,"station_id":"ce4bhnp2rcd13ifvqgvg","pricing_plan_id":"cebpf4jnsgd1na2vs0mg"},{"bike_id":"649e77ee-21fc-4541-89fd-d28f6fca8804","system_id":"levelo_inurba_marseille","lat":43.23194,"lon":5.35549,"is_reserved":false,"is_disabled":false,"rental_uris":{"android":"levelo://app?vid=649e77ee-21fc-4541-89fd-d28f6fca8804","ios":"levelo://app?vid=649e77ee-21fc-4541-89fd-d28f6fca8804"},"vehicle_type_id":"4","last_reported":1746728043,"current_range_meters":17200,"station_id":"ce4bhu92rcd13ifvqi70","pricing_plan_id":"cebpf4jnsgd1na2vs0mg"},{"bike_id":"430001e6-8c7f-4ffe-ad74-04cf41bfb13f","system_id":"levelo_inurba_marseille","lat":43.28002,"lon":5.40006,"is_reserved":false,"is_disabled":false,"rental_uris":{"android":"levelo://app?vid=430001e6-8c7f-4ffe-ad74-04cf41bfb13f","ios":"levelo://app?vid=430001e6-8c7f-4ffe-ad74-04cf41bfb13f"},"vehicle_type_id":"4","last_reported":1746728043,"current_range_meters":18000,"station_id":"ce4bho92rcd13ifvqh4g","pricing_plan_id":"cebpf4jnsgd1na2vs0mg"},{"bike_id":"e7b3db5e-5a0c-4e3b-8c7f-75793bbbfdde","system_id":"levelo_inurba_marseille","lat":43.29419,"lon":5.38613,"is_reserved":false,"is_disabled":true,"rental_uris":{"android":"levelo://app?vid=e7b3db5e-5a0c-4e3b-8c7f-75793bbbfdde","ios":"levelo://app?vid=e7b3db5e-5a0c-4e3b-8c7f-75793bbbfdde"},"vehicle_type_id":"4","last_reported":1746728043,"current_range_meters":18000,"station_id":"ce4bh2h2rcd13ifvqdh0","pricing_plan_id":"cebpf4jnsgd1na2vs0mg"},{"bike_id":"4efaf3e1-2ae8-477f-b7bd-2d3f1b623142","system_id":"levelo_inurba_marseille","lat":43.30644,"lon":5.40093,"is_reserved":false,"is_disabled":false,"rental_uris":{"android":"levelo://app?vid=4efaf3e1-2ae8-477f-b7bd-2d3f1b623142","ios":"levelo://app?vid=4efaf3e1-2ae8-477f-b7bd-2d3f1b623142"},"vehicle_type_id":"4","last_reported":1746728043,"current_range_meters":18000,"station_id":"ce4bh112rcd13ifvqda0","pricing_plan_id":"cebpf4jnsgd1na2vs0mg"},{"bike_id":"59fc9992-4a21-42e0-8c9e-33b78a1f9fb1","system_id":"levelo_inurba_marseille","lat":43.289366,"lon":5.366338,"is_reserved":false,"is_disabled":false,"rental_uris":{"android":"levelo://app?vid=59fc9992-4a21-42e0-8c9e-33b78a1f9fb1","ios":"levelo://app?vid=59fc9992-4a21-42e0-8c9e-33b78a1f9fb1"},"vehicle_type_id":"4","last_reported":1746728043,"current_range_meters":17600,"station_id":"ce4bhap2rcd13ifvqek0","pricing_plan_id":"cebpf4jnsgd1na2vs0mg"},{"bike_id":"44edd010-eb8a-49fc-8eed-c1065ff2d30d","system_id":"levelo_inurba_marseille","lat":43.30311,"lon":5.36901,"is_reserved":false,"is_disabled":false,"rental_uris":{"android":"levelo://app?vid=44edd010-eb8a-49fc-8eed-c1065ff2d30d","ios":"levelo://app?vid=44edd010-eb8a-49fc-8eed-c1065ff2d30d"},"vehicle_type_id":"4","last_reported":1746728043,"current_range_meters":18000,"station_id":"ce4bgqh2rcd13ifvqc5g","pricing_plan_id":"cebpf4jnsgd1na2vs0mg"},{"bike_id":"b1dd70a5-1a25-44c2-b9bd-25eb6dd1f9f4","system_id":"levelo_inurba_marseille","lat":43.296115,"lon":5.377407,"is_reserved":false,"is_disabled":true,"rental_uris":{"android":"levelo://app?vid=b1dd70a5-1a25-44c2-b9bd-25eb6dd1f9f4","ios":"levelo://app?vid=b1dd70a5-1a25-44c2-b9bd-25eb6dd1f9f4"},"vehicle_type_id":"4","last_reported":1746728043,"current_range_meters":18000,"station_id":"ce4bgi92rcd13ifvqb90","pricing_plan_id":"cebpf4jnsgd1na2vs0mg"},{"bike_id":"7d55dc17-fdf8-4e00-b78e-79e38a6c6658","system_id":"levelo_inurba_marseille","lat":43.29415,"lon":5.38629,"is_reserved":false,"is_disabled":false,"rental_uris":{"android":"levelo://app?vid=7d55dc17-fdf8-4e00-b78e-79e38a6c6658","ios":"levelo://app?vid=7d55dc17-fdf8-4e00-b78e-79e38a6c6658"},"vehicle_type_id":"4","last_reported":1746728043,"current_range_meters":18800,"station_id":"ce4bh2h2rcd13ifvqdh0","pricing_plan_id":"cebpf4jnsgd1na2vs0mg"},{"bike_id":"79ce68e4-bddb-4180-bd5f-7b5e696ec883","system_id":"levelo_inurba_marseille","lat":43.31892,"lon":5.40733,"is_reserved":false,"is_disabled":false,"rental_uris":{"android":"levelo://app?vid=79ce68e4-bddb-4180-bd5f-7b5e696ec883","ios":"levelo://app?vid=79ce68e4-bddb-4180-bd5f-7b5e696ec883"},"vehicle_type_id":"4","last_reported":1746728043,"current_range_meters":18800,"station_id":"ce4bhq12rcd13ifvqhig","pricing_plan_id":"cebpf4jnsgd1na2vs0mg"},{"bike_id":"754a71f3-878c-424b-920b-ddc69f3aa8ba","system_id":"levelo_inurba_marseille","lat":43.31756,"lon":5.39014,"is_reserved":false,"is_disabled":false,"rental_uris":{"android":"levelo://app?vid=754a71f3-878c-424b-920b-ddc69f3aa8ba","ios":"levelo://app?vid=754a71f3-878c-424b-920b-ddc69f3aa8ba"},"vehicle_type_id":"4","last_reported":1746728043,"current_range_meters":18800,"station_id":"ce4bhqp2rcd13ifvqhng","pricing_plan_id":"cebpf4jnsgd1na2vs0mg"},{"bike_id":"0cb542d0-661d-4a86-904d-249f6866850a","system_id":"levelo_inurba_marseille","lat":43.257186,"lon":5.41114,"is_reserved":false,"is_disabled":false,"rental_uris":{"android":"levelo://app?vid=0cb542d0-661d-4a86-904d-249f6866850a","ios":"levelo://app?vid=0cb542d0-661d-4a86-904d-249f6866850a"},"vehicle_type_id":"4","last_reported":1746728043,"current_range_meters":19200,"station_id":"ce4bhkp2rcd13ifvqgd0","pricing_plan_id":"cebpf4jnsgd1na2vs0mg"},{"bike_id":"0166e5a6-5e1e-43ea-b955-17cad81e37e0","system_id":"levelo_inurba_marseille","lat":43.24793,"lon":5.37462,"is_reserved":false,"is_disabled":false,"rental_uris":{"android":"levelo://app?vid=0166e5a6-5e1e-43ea-b955-17cad81e37e0","ios":"levelo://app?vid=0166e5a6-5e1e-43ea-b955-17cad81e37e0"},"vehicle_type_id":"4","last_reported":1746728043,"current_range_meters":19200,"station_id":"ce4bhgh2rcd13ifvqfb0","pricing_plan_id":"cebpf4jnsgd1na2vs0mg"},{"bike_id":"56117562-9c22-41ed-83f0-9ba0772fc885","system_id":"levelo_inurba_marseille","lat":43.24073,"lon":5.37761,"is_reserved":false,"is_disabled":false,"rental_uris":{"android":"levelo://app?vid=56117562-9c22-41ed-83f0-9ba0772fc885","ios":"levelo://app?vid=56117562-9c22-41ed-83f0-9ba0772fc885"},"vehicle_type_id":"4","last_reported":1746728043,"current_range_meters":19600,"station_id":"ce4bhnp2rcd13ifvqgvg","pricing_plan_id":"cebpf4jnsgd1na2vs0mg"},{"bike_id":"dcdbb441-b13f-4818-b966-ccbe08dbc7fa","system_id":"levelo_inurba_marseille","lat":43.2481,"lon":5.37449,"is_reserved":false,"is_disabled":false,"rental_uris":{"android":"levelo://app?vid=dcdbb441-b13f-4818-b966-ccbe08dbc7fa","ios":"levelo://app?vid=dcdbb441-b13f-4818-b966-ccbe08dbc7fa"},"vehicle_type_id":"4","last_reported":1746728043,"current_range_meters":19600,"station_id":"ce4bhgh2rcd13ifvqfb0","pricing_plan_id":"cebpf4jnsgd1na2vs0mg"},{"bike_id":"23b6cbc3-c43f-493c-8ca9-c9f4dad08321","system_id":"levelo_inurba_marseille","lat":43.30325,"lon":5.40435,"is_reserved":false,"is_disabled":false,"rental_uris":{"android":"levelo://app?vid=23b6cbc3-c43f-493c-8ca9-c9f4dad08321","ios":"levelo://app?vid=23b6cbc3-c43f-493c-8ca9-c9f4dad08321"},"vehicle_type_id":"4","last_reported":1746728043,"current_range_meters":19600,"station_id":"ce4bh012rcd13ifvqd10","pricing_plan_id":"cebpf4jnsgd1na2vs0mg"},{"bike_id":"70961b9e-395c-41e3-9a5a-02d5571308b7","system_id":"levelo_inurba_marseille","lat":43.28107,"lon":5.37833,"is_reserved":false,"is_disabled":false,"rental_uris":{"android":"levelo://app?vid=70961b9e-395c-41e3-9a5a-02d5571308b7","ios":"levelo://app?vid=70961b9e-395c-41e3-9a5a-02d5571308b7"},"vehicle_type_id":"4","last_reported":1746728043,"current_range_meters":19200,"station_id":"ce4bha12rcd13ifvqee0","pricing_plan_id":"cebpf4jnsgd1na2vs0mg"},{"bike_id":"610259d2-3159-4f60-85b2-480edc779a79","system_id":"levelo_inurba_marseille","lat":43.30603,"lon":5.3723,"is_reserved":false,"is_disabled":false,"rental_uris":{"android":"levelo://app?vid=610259d2-3159-4f60-85b2-480edc779a79","ios":"levelo://app?vid=610259d2-3159-4f60-85b2-480edc779a79"},"vehicle_type_id":"4","last_reported":1746728043,"current_range_meters":20000,"station_id":"ce4bgqh2rcd13ifvqc4g","pricing_plan_id":"cebpf4jnsgd1na2vs0mg"},{"bike_id":"4663190e-4d4f-47f9-9828-56ca5872fc01","system_id":"levelo_inurba_marseille","lat":43.28921,"lon":5.36635,"is_reserved":false,"is_disabled":false,"rental_uris":{"android":"levelo://app?vid=4663190e-4d4f-47f9-9828-56ca5872fc01","ios":"levelo://app?vid=4663190e-4d4f-47f9-9828-56ca5872fc01"},"vehicle_type_id":"4","last_reported":1746728043,"current_range_meters":20000,"station_id":"ce4bhap2rcd13ifvqek0","pricing_plan_id":"cebpf4jnsgd1na2vs0mg"},{"bike_id":"c687b974-de8e-4240-a2f6-21a2377ea2d2","system_id":"levelo_inurba_marseille","lat":43.29098,"lon":5.38121,"is_reserved":false,"is_disabled":false,"rental_uris":{"android":"levelo://app?vid=c687b974-de8e-4240-a2f6-21a2377ea2d2","ios":"levelo://app?vid=c687b974-de8e-4240-a2f6-21a2377ea2d2"},"vehicle_type_id":"4","last_reported":1746728043,"current_range_meters":19600,"station_id":"ce4bh512rcd13ifvqe2g","pricing_plan_id":"cebpf4jnsgd1na2vs0mg"},{"bike_id":"42f6946b-ea54-4144-9524-63cc5eaa7126","system_id":"levelo_inurba_marseille","lat":43.28436,"lon":5.358923,"is_reserved":false,"is_disabled":false,"rental_uris":{"android":"levelo://app?vid=42f6946b-ea54-4144-9524-63cc5eaa7126","ios":"levelo://app?vid=42f6946b-ea54-4144-9524-63cc5eaa7126"},"vehicle_type_id":"4","last_reported":1746728043,"current_range_meters":20000,"station_id":"ce4bhah2rcd13ifvqei0","pricing_plan_id":"cebpf4jnsgd1na2vs0mg"},{"bike_id":"eb5d8a6b-7579-41ef-b689-8f8dc734e07d","system_id":"levelo_inurba_marseille","lat":43.24169,"lon":5.364,"is_reserved":false,"is_disabled":false,"rental_uris":{"android":"levelo://app?vid=eb5d8a6b-7579-41ef-b689-8f8dc734e07d","ios":"levelo://app?vid=eb5d8a6b-7579-41ef-b689-8f8dc734e07d"},"vehicle_type_id":"4","last_reported":1746728043,"current_range_meters":20000,"station_id":"cpo36qri1sfpv3e86is0","pricing_plan_id":"cebpf4jnsgd1na2vs0mg"},{"bike_id":"630c3bcb-c410-4fdd-bfef-88e750494151","system_id":"levelo_inurba_marseille","lat":43.28157,"lon":5.42638,"is_reserved":false,"is_disabled":false,"rental_uris":{"android":"levelo://app?vid=630c3bcb-c410-4fdd-bfef-88e750494151","ios":"levelo://app?vid=630c3bcb-c410-4fdd-bfef-88e750494151"},"vehicle_type_id":"4","last_reported":1746728043,"current_range_meters":20000,"station_id":"ce4bhnh2rcd13ifvqgug","pricing_plan_id":"cebpf4jnsgd1na2vs0mg"},{"bike_id":"49ea43fd-5e18-47f3-9932-47beb07ae6ba","system_id":"levelo_inurba_marseille","lat":43.29261,"lon":5.38439,"is_reserved":false,"is_disabled":false,"rental_uris":{"android":"levelo://app?vid=49ea43fd-5e18-47f3-9932-47beb07ae6ba","ios":"levelo://app?vid=49ea43fd-5e18-47f3-9932-47beb07ae6ba"},"vehicle_type_id":"4","last_reported":1746728043,"current_range_meters":20000,"station_id":"ce4bh692rcd13ifvqea0","pricing_plan_id":"cebpf4jnsgd1na2vs0mg"},{"bike_id":"6bbb8cdf-b599-4949-9655-1e73a582cbc0","system_id":"levelo_inurba_marseille","lat":43.26558,"lon":5.37282,"is_reserved":false,"is_disabled":false,"rental_uris":{"android":"levelo://app?vid=6bbb8cdf-b599-4949-9655-1e73a582cbc0","ios":"levelo://app?vid=6bbb8cdf-b599-4949-9655-1e73a582cbc0"},"vehicle_type_id":"4","last_reported":1746728043,"current_range_meters":20400,"station_id":"ce4bhg12rcd13ifvqf70","pricing_plan_id":"cebpf4jnsgd1na2vs0mg"},{"bike_id":"c1041c9f-2085-470a-b13c-f88fd8323115","system_id":"levelo_inurba_marseille","lat":43.277484,"lon":5.386644,"is_reserved":false,"is_disabled":false,"rental_uris":{"android":"levelo://app?vid=c1041c9f-2085-470a-b13c-f88fd8323115","ios":"levelo://app?vid=c1041c9f-2085-470a-b13c-f88fd8323115"},"vehicle_type_id":"4","last_reported":1746728043,"current_range_meters":20400,"station_id":"","pricing_plan_id":"cebpf4jnsgd1na2vs0mg"},{"bike_id":"a508f26e-4aff-486d-889f-c112a432834c","system_id":"levelo_inurba_marseille","lat":43.28856,"lon":5.35843,"is_reserved":false,"is_disabled":false,"rental_uris":{"android":"levelo://app?vid=a508f26e-4aff-486d-889f-c112a432834c","ios":"levelo://app?vid=a508f26e-4aff-486d-889f-c112a432834c"},"vehicle_type_id":"4","last_reported":1746728043,"current_range_meters":20400,"station_id":"ce4bhb12rcd13ifvqem0","pricing_plan_id":"cebpf4jnsgd1na2vs0mg"},{"bike_id":"bd5ed745-4b7a-4ebd-80c8-680a7eba1257","system_id":"levelo_inurba_marseille","lat":43.28987,"lon":5.37829,"is_reserved":false,"is_disabled":false,"rental_uris":{"android":"levelo://app?vid=bd5ed745-4b7a-4ebd-80c8-680a7eba1257","ios":"levelo://app?vid=bd5ed745-4b7a-4ebd-80c8-680a7eba1257"},"vehicle_type_id":"4","last_reported":1746728043,"current_range_meters":20000,"station_id":"ce4bh9p2rcd13ifvqed0","pricing_plan_id":"cebpf4jnsgd1na2vs0mg"},{"bike_id":"5fb5fe2d-f096-4ee5-a59a-a956aea819ee","system_id":"levelo_inurba_marseille","lat":43.28418,"lon":5.37506,"is_reserved":false,"is_disabled":false,"rental_uris":{"android":"levelo://app?vid=5fb5fe2d-f096-4ee5-a59a-a956aea819ee","ios":"levelo://app?vid=5fb5fe2d-f096-4ee5-a59a-a956aea819ee"},"vehicle_type_id":"4","last_reported":1746728043,"current_range_meters":20400,"station_id":"ce4bh412rcd13ifvqds0","pricing_plan_id":"cebpf4jnsgd1na2vs0mg"},{"bike_id":"3f737d78-b8de-40eb-8488-3d0a3779623b","system_id":"levelo_inurba_marseille","lat":43.2909,"lon":5.38116,"is_reserved":false,"is_disabled":false,"rental_uris":{"android":"levelo://app?vid=3f737d78-b8de-40eb-8488-3d0a3779623b","ios":"levelo://app?vid=3f737d78-b8de-40eb-8488-3d0a3779623b"},"vehicle_type_id":"4","last_reported":1746728043,"current_range_meters":20400,"station_id":"ce4bh512rcd13ifvqe2g","pricing_plan_id":"cebpf4jnsgd1na2vs0mg"},{"bike_id":"577b6fa1-01aa-4b90-beb1-386dce7ef354","system_id":"levelo_inurba_marseille","lat":43.25937,"lon":5.40903,"is_reserved":false,"is_disabled":false,"rental_uris":{"android":"levelo://app?vid=577b6fa1-01aa-4b90-beb1-386dce7ef354","ios":"levelo://app?vid=577b6fa1-01aa-4b90-beb1-386dce7ef354"},"vehicle_type_id":"4","last_reported":1746728043,"current_range_meters":20400,"station_id":"ce4bhm92rcd13ifvqglg","pricing_plan_id":"cebpf4jnsgd1na2vs0mg"},{"bike_id":"31ea911c-b48b-4276-8179-a351830e2572","system_id":"levelo_inurba_marseille","lat":43.29042,"lon":5.35918,"is_reserved":false,"is_disabled":false,"rental_uris":{"android":"levelo://app?vid=31ea911c-b48b-4276-8179-a351830e2572","ios":"levelo://app?vid=31ea911c-b48b-4276-8179-a351830e2572"},"vehicle_type_id":"4","last_reported":1746728043,"current_range_meters":20400,"station_id":"ce4bha92rcd13ifvqeg0","pricing_plan_id":"cebpf4jnsgd1na2vs0mg"},{"bike_id":"fb7060e9-bf02-47da-863b-7384a49744dd","system_id":"levelo_inurba_marseille","lat":43.284045,"lon":5.375065,"is_reserved":false,"is_disabled":false,"rental_uris":{"android":"levelo://app?vid=fb7060e9-bf02-47da-863b-7384a49744dd","ios":"levelo://app?vid=fb7060e9-bf02-47da-863b-7384a49744dd"},"vehicle_type_id":"4","last_reported":1746728043,"current_range_meters":20800,"station_id":"ce4bh412rcd13ifvqds0","pricing_plan_id":"cebpf4jnsgd1na2vs0mg"},{"bike_id":"af1bdf4e-7c2c-43dd-896c-fd6c241552f3","system_id":"levelo_inurba_marseille","lat":43.24169,"lon":5.36395,"is_reserved":false,"is_disabled":false,"rental_uris":{"android":"levelo://app?vid=af1bdf4e-7c2c-43dd-896c-fd6c241552f3","ios":"levelo://app?vid=af1bdf4e-7c2c-43dd-896c-fd6c241552f3"},"vehicle_type_id":"4","last_reported":1746728043,"current_range_meters":20800,"station_id":"cpo36qri1sfpv3e86is0","pricing_plan_id":"cebpf4jnsgd1na2vs0mg"},{"bike_id":"cbb45d8c-f14a-4433-94c2-f9c173fc22f3","system_id":"levelo_inurba_marseille","lat":43.29259,"lon":5.37615,"is_reserved":false,"is_disabled":false,"rental_uris":{"android":"levelo://app?vid=cbb45d8c-f14a-4433-94c2-f9c173fc22f3","ios":"levelo://app?vid=cbb45d8c-f14a-4433-94c2-f9c173fc22f3"},"vehicle_type_id":"4","last_reported":1746728043,"current_range_meters":20800,"station_id":"ce4bgi12rcd13ifvqb80","pricing_plan_id":"cebpf4jnsgd1na2vs0mg"},{"bike_id":"9c363a6e-82fd-4fd1-b815-4031b6fd6eee","system_id":"levelo_inurba_marseille","lat":43.27173,"lon":5.4099,"is_reserved":false,"is_disabled":false,"rental_uris":{"android":"levelo://app?vid=9c363a6e-82fd-4fd1-b815-4031b6fd6eee","ios":"levelo://app?vid=9c363a6e-82fd-4fd1-b815-4031b6fd6eee"},"vehicle_type_id":"4","last_reported":1746728043,"current_range_meters":20800,"station_id":"ce4bhl12rcd13ifvqgf0","pricing_plan_id":"cebpf4jnsgd1na2vs0mg"},{"bike_id":"565441c7-ac53-429d-96ac-cfc495d33929","system_id":"levelo_inurba_marseille","lat":43.29256,"lon":5.3844,"is_reserved":false,"is_disabled":false,"rental_uris":{"android":"levelo://app?vid=565441c7-ac53-429d-96ac-cfc495d33929","ios":"levelo://app?vid=565441c7-ac53-429d-96ac-cfc495d33929"},"vehicle_type_id":"4","last_reported":1746728043,"current_range_meters":20800,"station_id":"ce4bh692rcd13ifvqea0","pricing_plan_id":"cebpf4jnsgd1na2vs0mg"},{"bike_id":"d4fd8720-79ef-4c4e-a9a8-b9f01e0ad2d5","system_id":"levelo_inurba_marseille","lat":43.29266,"lon":5.38441,"is_reserved":false,"is_disabled":false,"rental_uris":{"android":"levelo://app?vid=d4fd8720-79ef-4c4e-a9a8-b9f01e0ad2d5","ios":"levelo://app?vid=d4fd8720-79ef-4c4e-a9a8-b9f01e0ad2d5"},"vehicle_type_id":"4","last_reported":1746728043,"current_range_meters":21600,"station_id":"ce4bh692rcd13ifvqea0","pricing_plan_id":"cebpf4jnsgd1na2vs0mg"},{"bike_id":"65cceaa4-27f0-4c80-9fa8-6e67e479ba77","system_id":"levelo_inurba_marseille","lat":43.28713,"lon":5.37942,"is_reserved":false,"is_disabled":false,"rental_uris":{"android":"levelo://app?vid=65cceaa4-27f0-4c80-9fa8-6e67e479ba77","ios":"levelo://app?vid=65cceaa4-27f0-4c80-9fa8-6e67e479ba77"},"vehicle_type_id":"4","last_reported":1746728043,"current_range_meters":21600,"station_id":"ce4bh9p2rcd13ifvqec0","pricing_plan_id":"cebpf4jnsgd1na2vs0mg"},{"bike_id":"ec340087-3aa6-4ad3-b01b-86ac69163dc2","system_id":"levelo_inurba_marseille","lat":43.25585,"lon":5.38239,"is_reserved":false,"is_disabled":false,"rental_uris":{"android":"levelo://app?vid=ec340087-3aa6-4ad3-b01b-86ac69163dc2","ios":"levelo://app?vid=ec340087-3aa6-4ad3-b01b-86ac69163dc2"},"vehicle_type_id":"4","last_reported":1746728043,"current_range_meters":21600,"station_id":"ce4bhih2rcd13ifvqfs0","pricing_plan_id":"cebpf4jnsgd1na2vs0mg"},{"bike_id":"b09fb74d-aa31-4720-8691-4677190dffc7","system_id":"levelo_inurba_marseille","lat":43.2991,"lon":5.37489,"is_reserved":false,"is_disabled":false,"rental_uris":{"android":"levelo://app?vid=b09fb74d-aa31-4720-8691-4677190dffc7","ios":"levelo://app?vid=b09fb74d-aa31-4720-8691-4677190dffc7"},"vehicle_type_id":"4","last_reported":1746728043,"current_range_meters":21600,"station_id":"ce4bgjh2rcd13ifvqbg0","pricing_plan_id":"cebpf4jnsgd1na2vs0mg"},{"bike_id":"f85c2bc1-406b-4aae-869c-e6f07a8de899","system_id":"levelo_inurba_marseille","lat":43.301819,"lon":5.393747,"is_reserved":false,"is_disabled":false,"rental_uris":{"android":"levelo://app?vid=f85c2bc1-406b-4aae-869c-e6f07a8de899","ios":"levelo://app?vid=f85c2bc1-406b-4aae-869c-e6f07a8de899"},"vehicle_type_id":"4","last_reported":1746728043,"current_range_meters":22000,"station_id":"ce4bh0p2rcd13ifvqd70","pricing_plan_id":"cebpf4jnsgd1na2vs0mg"},{"bike_id":"af07f2ba-567d-41f6-80a1-9b5cec286faf","system_id":"levelo_inurba_marseille","lat":43.22968,"lon":5.3533,"is_reserved":false,"is_disabled":true,"rental_uris":{"android":"levelo://app?vid=af07f2ba-567d-41f6-80a1-9b5cec286faf","ios":"levelo://app?vid=af07f2ba-567d-41f6-80a1-9b5cec286faf"},"vehicle_type_id":"4","last_reported":1746728043,"current_range_meters":22000,"station_id":"","pricing_plan_id":"cebpf4jnsgd1na2vs0mg"},{"bike_id":"0c864a10-0881-4c97-8d7f-fab80615e611","system_id":"levelo_inurba_marseille","lat":43.29249,"lon":5.38447,"is_reserved":false,"is_disabled":false,"rental_uris":{"android":"levelo://app?vid=0c864a10-0881-4c97-8d7f-fab80615e611","ios":"levelo://app?vid=0c864a10-0881-4c97-8d7f-fab80615e611"},"vehicle_type_id":"4","last_reported":1746728043,"current_range_meters":22400,"station_id":"ce4bh692rcd13ifvqea0","pricing_plan_id":"cebpf4jnsgd1na2vs0mg"},{"bike_id":"545e5687-b7df-4883-81be-75a8925d5f91","system_id":"levelo_inurba_marseille","lat":43.337444,"lon":5.374475,"is_reserved":false,"is_disabled":false,"rental_uris":{"android":"levelo://app?vid=545e5687-b7df-4883-81be-75a8925d5f91","ios":"levelo://app?vid=545e5687-b7df-4883-81be-75a8925d5f91"},"vehicle_type_id":"4","last_reported":1746728043,"current_range_meters":22400,"station_id":"","pricing_plan_id":"cebpf4jnsgd1na2vs0mg"},{"bike_id":"d44aafc1-73cc-4bc4-9568-4bfeabc8840f","system_id":"levelo_inurba_marseille","lat":43.30308,"lon":5.36888,"is_reserved":false,"is_disabled":false,"rental_uris":{"android":"levelo://app?vid=d44aafc1-73cc-4bc4-9568-4bfeabc8840f","ios":"levelo://app?vid=d44aafc1-73cc-4bc4-9568-4bfeabc8840f"},"vehicle_type_id":"4","last_reported":1746728043,"current_range_meters":22400,"station_id":"ce4bgqh2rcd13ifvqc5g","pricing_plan_id":"cebpf4jnsgd1na2vs0mg"},{"bike_id":"fc2577e7-1497-425b-9d4f-ab8d7dc843c6","system_id":"levelo_inurba_marseille","lat":43.33771,"lon":5.37485,"is_reserved":false,"is_disabled":false,"rental_uris":{"android":"levelo://app?vid=fc2577e7-1497-425b-9d4f-ab8d7dc843c6","ios":"levelo://app?vid=fc2577e7-1497-425b-9d4f-ab8d7dc843c6"},"vehicle_type_id":"4","last_reported":1746728043,"current_range_meters":22800,"station_id":"","pricing_plan_id":"cebpf4jnsgd1na2vs0mg"},{"bike_id":"abe10e6f-ce19-4605-897a-7b81ef1de127","system_id":"levelo_inurba_marseille","lat":43.307983,"lon":5.381492,"is_reserved":false,"is_disabled":false,"rental_uris":{"android":"levelo://app?vid=abe10e6f-ce19-4605-897a-7b81ef1de127","ios":"levelo://app?vid=abe10e6f-ce19-4605-897a-7b81ef1de127"},"vehicle_type_id":"4","last_reported":1746728043,"current_range_meters":22800,"station_id":"ce4bgt12rcd13ifvqce0","pricing_plan_id":"cebpf4jnsgd1na2vs0mg"},{"bike_id":"3e7c6aae-b2bc-4dc1-ae18-e8b01d55045f","system_id":"levelo_inurba_marseille","lat":43.24633,"lon":5.43656,"is_reserved":false,"is_disabled":false,"rental_uris":{"android":"levelo://app?vid=3e7c6aae-b2bc-4dc1-ae18-e8b01d55045f","ios":"levelo://app?vid=3e7c6aae-b2bc-4dc1-ae18-e8b01d55045f"},"vehicle_type_id":"4","last_reported":1746728043,"current_range_meters":22800,"station_id":"","pricing_plan_id":"cebpf4jnsgd1na2vs0mg"},{"bike_id":"a884fa0a-d99c-46f3-b254-bc4f804d80db","system_id":"levelo_inurba_marseille","lat":43.28928,"lon":5.38401,"is_reserved":false,"is_disabled":false,"rental_uris":{"android":"levelo://app?vid=a884fa0a-d99c-46f3-b254-bc4f804d80db","ios":"levelo://app?vid=a884fa0a-d99c-46f3-b254-bc4f804d80db"},"vehicle_type_id":"4","last_reported":1746728043,"current_range_meters":22400,"station_id":"ce4bh612rcd13ifvqe6g","pricing_plan_id":"cebpf4jnsgd1na2vs0mg"},{"bike_id":"4da32d7c-fef9-4b37-925a-2b54c5fc5f79","system_id":"levelo_inurba_marseille","lat":43.28417,"lon":5.37514,"is_reserved":false,"is_disabled":false,"rental_uris":{"android":"levelo://app?vid=4da32d7c-fef9-4b37-925a-2b54c5fc5f79","ios":"levelo://app?vid=4da32d7c-fef9-4b37-925a-2b54c5fc5f79"},"vehicle_type_id":"4","last_reported":1746728043,"current_range_meters":22800,"station_id":"ce4bh412rcd13ifvqds0","pricing_plan_id":"cebpf4jnsgd1na2vs0mg"},{"bike_id":"62a841bc-ecb9-4110-a38c-cf2beb7c11c6","system_id":"levelo_inurba_marseille","lat":43.2781,"lon":5.40704,"is_reserved":false,"is_disabled":false,"rental_uris":{"android":"levelo://app?vid=62a841bc-ecb9-4110-a38c-cf2beb7c11c6","ios":"levelo://app?vid=62a841bc-ecb9-4110-a38c-cf2beb7c11c6"},"vehicle_type_id":"4","last_reported":1746728043,"current_range_meters":23200,"station_id":"ce4bhnh2rcd13ifvqgtg","pricing_plan_id":"cebpf4jnsgd1na2vs0mg"},{"bike_id":"7115133a-0fd0-405e-809e-52cad7e4f5dd","system_id":"levelo_inurba_marseille","lat":43.23965,"lon":5.36634,"is_reserved":false,"is_disabled":false,"rental_uris":{"android":"levelo://app?vid=7115133a-0fd0-405e-809e-52cad7e4f5dd","ios":"levelo://app?vid=7115133a-0fd0-405e-809e-52cad7e4f5dd"},"vehicle_type_id":"4","last_reported":1746728043,"current_range_meters":23200,"station_id":"ce4bhi12rcd13ifvqfp0","pricing_plan_id":"cebpf4jnsgd1na2vs0mg"},{"bike_id":"91715f2a-f393-4a99-90d7-1639f0b4acbc","system_id":"levelo_inurba_marseille","lat":43.24174,"lon":5.3973,"is_reserved":false,"is_disabled":false,"rental_uris":{"android":"levelo://app?vid=91715f2a-f393-4a99-90d7-1639f0b4acbc","ios":"levelo://app?vid=91715f2a-f393-4a99-90d7-1639f0b4acbc"},"vehicle_type_id":"4","last_reported":1746728043,"current_range_meters":23200,"station_id":"ce4bhn12rcd13ifvqgpg","pricing_plan_id":"cebpf4jnsgd1na2vs0mg"},{"bike_id":"3837c0b4-c74a-4d99-987b-a35e65a331c1","system_id":"levelo_inurba_marseille","lat":43.2861,"lon":5.37061,"is_reserved":false,"is_disabled":false,"rental_uris":{"android":"levelo://app?vid=3837c0b4-c74a-4d99-987b-a35e65a331c1","ios":"levelo://app?vid=3837c0b4-c74a-4d99-987b-a35e65a331c1"},"vehicle_type_id":"4","last_reported":1746728043,"current_range_meters":23200,"station_id":"ce4bht12rcd13ifvqi60","pricing_plan_id":"cebpf4jnsgd1na2vs0mg"},{"bike_id":"acbf5a53-905b-4163-b823-c4f386fdd8ec","system_id":"levelo_inurba_marseille","lat":43.24165,"lon":5.36394,"is_reserved":false,"is_disabled":false,"rental_uris":{"android":"levelo://app?vid=acbf5a53-905b-4163-b823-c4f386fdd8ec","ios":"levelo://app?vid=acbf5a53-905b-4163-b823-c4f386fdd8ec"},"vehicle_type_id":"4","last_reported":1746728043,"current_range_meters":23200,"station_id":"cpo36qri1sfpv3e86is0","pricing_plan_id":"cebpf4jnsgd1na2vs0mg"},