{"last_updated":1748463093,"ttl":60,"version":"2.2","data":{"bikes":[{"bike_id":"55d42eeb-6b71-4987-a0f2-3d758b10d43e","system_id":"levelo_inurba_marseille","lat":43.33771,"lon":5.37424,"is_reserved":false,"is_disabled":true,"rental_uris":{"android":"levelo://app?vid=55d42eeb-6b71-4987-a0f2-3d758b10d43e","ios":"levelo://app?vid=55d42eeb-6b71-4987-a0f2-3d758b10d43e"},"vehicle_type_id":"4","last_reported":1748463093,"current_range_meters":0,"station_id":"","pricing_plan_id":"cebpf4jnsgd1na2vs0mg"},{"bike_id":"7f4b6069-304f-4d75-a8b9-d3db83a055ca","system_id":"levelo_inurba_marseille","lat":43.21754,"lon":5.346,"is_reserved":false,"is_disabled":true,"rental_uris":{"android":"levelo://app?vid=7f4b6069-304f-4d75-a8b9-d3db83a055ca","ios":"levelo://app?vid=7f4b6069-304f-4d75-a8b9-d3db83a055ca"},"vehicle_type_id":"4","last_reported":1748463093,"current_range_meters":0,"station_id":"","pricing_plan_id":"cebpf4jnsgd1na2vs0mg"},{"bike_id":"b7fe4621-b706-42f0-9085-4811142f84e8","system_id":"levelo_inurba_marseille","lat":43.337499,"lon":5.374469,"is_reserved":false,"is_disabled":true,"rental_uris":{"android":"levelo://app?vid=b7fe4621-b706-42f0-9085-4811142f84e8","ios":"levelo://app?vid=b7fe4621-b706-42f0-9085-4811142f84e8"},"vehicle_type_id":"4","last_reported":1748463093,"current_range_meters":0,"station_id":"","pricing_plan_id":"cebpf4jnsgd1na2vs0mg"},{"bike_id":"ad402f0f-3192-410c-afac-8cf064a40c6d","system_id":"levelo_inurba_marseille","lat":43.337444,"lon":5.374475,"is_reserved":false,"is_disabled":true,"rental_uris":{"android":"levelo://app?vid=ad402f0f-3192-410c-afac-8cf064a40c6d","ios":"levelo://app?vid=ad402f0f-3192-410c-afac-8cf064a40c6d"},"vehicle_type_id":"4","last_reported":1748463093,"current_range_meters":0,"station_id":"","pricing_plan_id":"cebpf4jnsgd1na2vs0mg"},{"bike_id":"b94757ee-f5bd-4122-87e1-4c1fd1830138","system_id":"levelo_inurba_marseille","lat":43.29257,"lon":5.38435,"is_reserved":false,"is_disabled":true,"rental_uris":{"android":"levelo://app?vid=b94757ee-f5bd-4122-87e1-4c1fd1830138","ios":"levelo://app?vid=b94757ee-f5bd-4122-87e1-4c1fd1830138"},"vehicle_type_id":"4","last_reported":1748463093,"current_range_meters":0,"station_id":"","pricing_plan_id":"cebpf4jnsgd1na2vs0mg"},{"bike_id":"80dc1064-d63f-4a22-ad21-d8abd70986c0","system_id":"levelo_inurba_marseille","lat":43.337722,"lon":5.374848,"is_reserved":false,"is_disabled":true,"rental_uris":{"android":"levelo://app?vid=80dc1064-d63f-4a22-ad21-d8abd70986c0","ios":"levelo://app?vid=80dc1064-d63f-4a22-ad21-d8abd70986c0"},"vehicle_type_id":"4","last_reported":1748463093,"current_range_meters":0,"station_id":"","pricing_plan_id":"cebpf4jnsgd1na2vs0mg"},{"bike_id":"1dbb8f11-1353-41ce-8587-bd80e2c15d60","system_id":"levelo_inurba_marseille","lat":43.24357,"lon":5.3852,"is_reserved":false,"is_disabled":true,"rental_uris":{"android":"levelo://app?vid=1dbb8f11-1353-41ce-8587-bd80e2c15d60","ios":"levelo://app?vid=1dbb8f11-1353-41ce-8587-bd80e2c15d60"},"vehicle_type_id":"4","last_reported":1748463093,"current_range_meters":0,"station_id":"","pricing_plan_id":"cebpf4jnsgd1na2vs0mg"},{"bike_id":"e082a7e3-9601-48a8-99c3-8e25f2736751","system_id":"levelo_inurba_marseille","lat":43.24967,"lon":5.382,"is_reserved":false,"is_disabled":true,"rental_uris":{"android":"levelo://app?vid=e082a7e3-9601-48a8-99c3-8e25f2736751","ios":"levelo://app?vid=e082a7e3-9601-48a8-99c3-8e25f2736751"},"vehicle_type_id":"4","last_reported":1748463093,"current_range_meters":0,"station_id":"","pricing_plan_id":"cebpf4jnsgd1na2vs0mg"},{"bike_id":"2fd7e160-685c-4858-b57b-dcaef27a8e94","system_id":"levelo_inurba_marseille","lat":43.230331,"lon":5.401847,"is_reserved":false,"is_disabled":true,"rental_uris":{"android":"levelo://app?vid=2fd7e160-685c-4858-b57b-dcaef27a8e94","ios":"levelo://app?vid=2fd7e160-685c-4858-b57b-dcaef27a8e94"},"vehicle_type_id":"4","last_reported":1748463093,"current_range_meters":0,"station_id":"","pricing_plan_id":"cebpf4jnsgd1na2vs0mg"},{"bike_id":"e59c7e86-3fc2-46e6-b160-2efe0afab8ba","system_id":"levelo_inurba_marseille","lat":43.299713,"lon":5.38483,"is_reserved":false,"is_disabled":false,"rental_uris":{"android":"levelo://app?vid=e59c7e86-3fc2-46e6-b160-2efe0afab8ba","ios":"levelo://app?vid=e59c7e86-3fc2-46e6-b160-2efe0afab8ba"},"vehicle_type_id":"4","last_reported":1748463093,"current_range_meters":0,"station_id":"ce4bgj92rcd13ifvqbd0","pricing_plan_id":"cebpf4jnsgd1na2vs0mg"},{"bike_id":"4fd40bee-263b-4add-a06b-dbe7259b0995","system_id":"levelo_inurba_marseille","lat":43.295957,"lon":5.381049,"is_reserved":false,"is_disabled":true,"rental_uris":{"android":"levelo://app?vid=4fd40bee-263b-4add-a06b-dbe7259b0995","ios":"levelo://app?vid=4fd40bee-263b-4add-a06b-dbe7259b0995"},"vehicle_type_id":"4","last_reported":1748463093,"current_range_meters":0,"station_id":"ce4bgl12rcd13ifvqbo0","pricing_plan_id":"cebpf4jnsgd1na2vs0mg"},{"bike_id":"edf3792f-21d0-4d10-9c03-4fc0b8ad8d43","system_id":"levelo_inurba_marseille","lat":43.3106,"lon":5.383453,"is_reserved":false,"is_disabled":true,"rental_uris":{"android":"levelo://app?vid=edf3792f-21d0-4d10-9c03-4fc0b8ad8d43","ios":"levelo://app?vid=edf3792f-21d0-4d10-9c03-4fc0b8ad8d43"},"vehicle_type_id":"4","last_reported":1748463093,"current_range_meters":0,"station_id":"ce4bgv92rcd13ifvqcr0","pricing_plan_id":"cebpf4jnsgd1na2vs0mg"},{"bike_id":"f360ae10-a972-4e49-8f98-df4c4c30ac3d","system_id":"levelo_inurba_marseille","lat":43.29041,"lon":5.39975,"is_reserved":false,"is_disabled":true,"rental_uris":{"android":"levelo://app?vid=f360ae10-a972-4e49-8f98-df4c4c30ac3d","ios":"levelo://app?vid=f360ae10-a972-4e49-8f98-df4c4c30ac3d"},"vehicle_type_id":"4","last_reported":1748463093,"current_range_meters":0,"station_id":"ce4bh392rcd13ifvqdm0","pricing_plan_id":"cebpf4jnsgd1na2vs0mg"},{"bike_id":"282eb04e-4b2c-4240-aceb-ad36b389035c","system_id":"levelo_inurba_marseille","lat":43.28375,"lon":5.38618,"is_reserved":false,"is_disabled":true,"rental_uris":{"android":"levelo://app?vid=282eb04e-4b2c-4240-aceb-ad36b389035c","ios":"levelo://app?vid=282eb04e-4b2c-4240-aceb-ad36b389035c"},"vehicle_type_id":"4","last_reported":1748463093,"current_range_meters":0,"station_id":"ce4bh492rcd13ifvqdvg","pricing_plan_id":"cebpf4jnsgd1na2vs0mg"},{"bike_id":"53dd6f20-216e-4cab-a1f9-deda2fcc4ca3","system_id":"levelo_inurba_marseille","lat":43.29076,"lon":5.37176,"is_reserved":false,"is_disabled":true,"rental_uris":{"android":"levelo://app?vid=53dd6f20-216e-4cab-a1f9-deda2fcc4ca3","ios":"levelo://app?vid=53dd6f20-216e-4cab-a1f9-deda2fcc4ca3"},"vehicle_type_id":"4","last_reported":1748463093,"current_range_meters":0,"station_id":"ce4bh5p2rcd13ifvqe4g","pricing_plan_id":"cebpf4jnsgd1na2vs0mg"},{"bike_id":"5bbd89c8-ca17-4fc8-8571-fa5ed28f9a96","system_id":"levelo_inurba_marseille","lat":43.28454,"lon":5.35886,"is_reserved":false,"is_disabled":true,"rental_uris":{"android":"levelo://app?vid=5bbd89c8-ca17-4fc8-8571-fa5ed28f9a96","ios":"levelo://app?vid=5bbd89c8-ca17-4fc8-8571-fa5ed28f9a96"},"vehicle_type_id":"4","last_reported":1748463093,"current_range_meters":0,"station_id":"ce4bhah2rcd13ifvqei0","pricing_plan_id":"cebpf4jnsgd1na2vs0mg"},{"bike_id":"15a42de9-a3af-4663-93ad-453f0b884e8f","system_id":"levelo_inurba_marseille","lat":43.26164,"lon":5.37397,"is_reserved":false,"is_disabled":true,"rental_uris":{"android":"levelo://app?vid=15a42de9-a3af-4663-93ad-453f0b884e8f","ios":"levelo://app?vid=15a42de9-a3af-4663-93ad-453f0b884e8f"},"vehicle_type_id":"4","last_reported":1748463093,"current_range_meters":0,"station_id":"ce4bhgp2rcd13ifvqfc0","pricing_plan_id":"cebpf4jnsgd1na2vs0mg"},{"bike_id":"d5ccf03c-5171-444d-8fd1-2dc7323d662c","system_id":"levelo_inurba_marseille","lat":43.26199,"lon":5.3745,"is_reserved":false,"is_disabled":true,"rental_uris":{"android":"levelo://app?vid=d5ccf03c-5171-444d-8fd1-2dc7323d662c","ios":"levelo://app?vid=d5ccf03c-5171-444d-8fd1-2dc7323d662c"},"vehicle_type_id":"4","last_reported":1748463093,"current_range_meters":0,"station_id":"ce4bhgp2rcd13ifvqfc0","pricing_plan_id":"cebpf4jnsgd1na2vs0mg"},{"bike_id":"e4f56ead-cea9-47ef-a862-b1baaa403a6c","system_id":"levelo_inurba_marseille","lat":43.26483,"lon":5.39542,"is_reserved":false,"is_disabled":true,"rental_uris":{"android":"levelo://app?vid=e4f56ead-cea9-47ef-a862-b1baaa403a6c","ios":"levelo://app?vid=e4f56ead-cea9-47ef-a862-b1baaa403a6c"},"vehicle_type_id":"4","last_reported":1748463093,"current_range_meters":0,"station_id":"ce4bhi12rcd13ifvqfq0","pricing_plan_id":"cebpf4jnsgd1na2vs0mg"},{"bike_id":"e73357c5-67ed-4075-84be-4246c5fbde4a","system_id":"levelo_inurba_marseille","lat":43.23154,"lon":5.43713,"is_reserved":false,"is_disabled":true,"rental_uris":{"android":"levelo://app?vid=e73357c5-67ed-4075-84be-4246c5fbde4a","ios":"levelo://app?vid=e73357c5-67ed-4075-84be-4246c5fbde4a"},"vehicle_type_id":"4","last_reported":1748463093,"current_range_meters":0,"station_id":"ce4bhmp2rcd13ifvqgog","pricing_plan_id":"cebpf4jnsgd1na2vs0mg"},{"bike_id":"ac941aa7-ae64-4e06-9ba9-ae9b002a5c62","system_id":"levelo_inurba_marseille","lat":43.30371,"lon":5.42487,"is_reserved":false,"is_disabled":true,"rental_uris":{"android":"levelo://app?vid=ac941aa7-ae64-4e06-9ba9-ae9b002a5c62","ios":"levelo://app?vid=ac941aa7-ae64-4e06-9ba9-ae9b002a5c62"},"vehicle_type_id":"4","last_reported":1748463093,"current_range_meters":0,"station_id":"ce4bhoh2rcd13ifvqh6g","pricing_plan_id":"cebpf4jnsgd1na2vs0mg"},{"bike_id":"0d16491c-abaf-49ec-8676-8595a7c9f9c4","system_id":"levelo_inurba_marseille","lat":43.30417,"lon":5.41282,"is_reserved":false,"is_disabled":true,"rental_uris":{"android":"levelo://app?vid=0d16491c-abaf-49ec-8676-8595a7c9f9c4","ios":"levelo://app?vid=0d16491c-abaf-49ec-8676-8595a7c9f9c4"},"vehicle_type_id":"4","last_reported":1748463093,"current_range_meters":0,"station_id":"ce4bhop2rcd13ifvqh8g","pricing_plan_id":"cebpf4jnsgd1na2vs0mg"},{"bike_id":"bc554b9f-2071-4757-ad49-3ebb887229cd","system_id":"levelo_inurba_marseille","lat":43.3171,"lon":5.43693,"is_reserved":false,"is_disabled":true,"rental_uris":{"android":"levelo://app?vid=bc554b9f-2071-4757-ad49-3ebb887229cd","ios":"levelo://app?vid=bc554b9f-2071-4757-ad49-3ebb887229cd"},"vehicle_type_id":"4","last_reported":1748463093,"current_range_meters":0,"station_id":"ce4bhp92rcd13ifvqhcg","pricing_plan_id":"cebpf4jnsgd1na2vs0mg"},{"bike_id":"3dcb201d-de81-4b3c-b43b-0dd0cfb79b79","system_id":"levelo_inurba_marseille","lat":43.31536,"lon":5.38019,"is_reserved":false,"is_disabled":true,"rental_uris":{"android":"levelo://app?vid=3dcb201d-de81-4b3c-b43b-0dd0cfb79b79","ios":"levelo://app?vid=3dcb201d-de81-4b3c-b43b-0dd0cfb79b79"},"vehicle_type_id":"4","last_reported":1748463093,"current_range_meters":0,"station_id":"ce4bhsp2rcd13ifvqi50","pricing_plan_id":"cebpf4jnsgd1na2vs0mg"},{"bike_id":"9c135680-911b-4840-8586-0118a43842f4","system_id":"levelo_inurba_marseille","lat":43.30949,"lon":5.39049,"is_reserved":false,"is_disabled":true,"rental_uris":{"android":"levelo://app?vid=9c135680-911b-4840-8586-0118a43842f4","ios":"levelo://app?vid=9c135680-911b-4840-8586-0118a43842f4"},"vehicle_type_id":"4","last_reported":1748463093,"current_range_meters":400,"station_id":"ce4bgup2rcd13ifvqco0","pricing_plan_id":"cebpf4jnsgd1na2vs0mg"},{"bike_id":"ea07e08c-1ee9-4866-b749-2c51c122af9e","system_id":"levelo_inurba_marseille","lat":43.30594,"lon":5.39354,"is_reserved":false,"is_disabled":true,"rental_uris":{"android":"levelo://app?vid=ea07e08c-1ee9-4866-b749-2c51c122af9e","ios":"levelo://app?vid=ea07e08c-1ee9-4866-b749-2c51c122af9e"},"vehicle_type_id":"4","last_reported":1748463093,"current_range_meters":400,"station_id":"ce4bh0p2rcd13ifvqd80","pricing_plan_id":"cebpf4jnsgd1na2vs0mg"},{"bike_id":"ff1eb1da-d46e-4601-904c-03701b3048fd","system_id":"levelo_inurba_marseille","lat":43.29803,"lon":5.40395,"is_reserved":false,"is_disabled":true,"rental_uris":{"android":"levelo://app?vid=ff1eb1da-d46e-4601-904c-03701b3048fd","ios":"levelo://app?vid=ff1eb1da-d46e-4601-904c-03701b3048fd"},"vehicle_type_id":"4","last_reported":1748463093,"current_range_meters":800,"station_id":"ce4bh112rcd13ifvqd90","pricing_plan_id":"cebpf4jnsgd1na2vs0mg"},{"bike_id":"7152fc67-f6ba-4e79-b0e3-5a331e76b51a","system_id":"levelo_inurba_marseille","lat":43.29261,"lon":5.38445,"is_reserved":false,"is_disabled":true,"rental_uris":{"android":"levelo://app?vid=7152fc67-f6ba-4e79-b0e3-5a331e76b51a","ios":"levelo://app?vid=7152fc67-f6ba-4e79-b0e3-5a331e76b51a"},"vehicle_type_id":"4","last_reported":1748463093,"current_range_meters":800,"station_id":"ce4bh692rcd13ifvqea0","pricing_plan_id":"cebpf4jnsgd1na2vs0mg"},{"bike_id":"a0a36b1a-98cf-4220-b8ed-bc2e11b8a5b5","system_id":"levelo_inurba_marseille","lat":43.246482,"lon":5.388903,"is_reserved":false,"is_disabled":true,"rental_uris":{"android":"levelo://app?vid=a0a36b1a-98cf-4220-b8ed-bc2e11b8a5b5","ios":"levelo://app?vid=a0a36b1a-98cf-4220-b8ed-bc2e11b8a5b5"},"vehicle_type_id":"4","last_reported":1748463093,"current_range_meters":800,"station_id":"ce4bhg12rcd13ifvqf60","pricing_plan_id":"cebpf4jnsgd1na2vs0mg"},{"bike_id":"5aefb386-e416-4906-998c-ff23207edc6c","system_id":"levelo_inurba_marseille","lat":43.21753,"lon":5.34595,"is_reserved":false,"is_disabled":true,"rental_uris":{"android":"levelo://app?vid=5aefb386-e416-4906-998c-ff23207edc6c","ios":"levelo://app?vid=5aefb386-e416-4906-998c-ff23207edc6c"},"vehicle_type_id":"4","last_reported":1748463093,"current_range_meters":800,"station_id":"st_cvj6r9ubvosntc0bgbag","pricing_plan_id":"cebpf4jnsgd1na2vs0mg"},{"bike_id":"cd0f94c5-3b2d-456e-821a-2192aefc2f26","system_id":"levelo_inurba_marseille","lat":43.309434,"lon":5.40134,"is_reserved":false,"is_disabled":true,"rental_uris":{"android":"levelo://app?vid=cd0f94c5-3b2d-456e-821a-2192aefc2f26","ios":"levelo://app?vid=cd0f94c5-3b2d-456e-821a-2192aefc2f26"},"vehicle_type_id":"4","last_reported":1748463093,"current_range_meters":1200,"station_id":"ce4bgvp2rcd13ifvqct0","pricing_plan_id":"cebpf4jnsgd1na2vs0mg"},{"bike_id":"6dacff98-1e42-4396-adda-afb538df04c6","system_id":"levelo_inurba_marseille","lat":43.28847,"lon":5.39321,"is_reserved":false,"is_disabled":true,"rental_uris":{"android":"levelo://app?vid=6dacff98-1e42-4396-adda-afb538df04c6","ios":"levelo://app?vid=6dacff98-1e42-4396-adda-afb538df04c6"},"vehicle_type_id":"4","last_reported":1748463093,"current_range_meters":1200,"station_id":"ce4bh2p2rcd13ifvqdi0","pricing_plan_id":"cebpf4jnsgd1na2vs0mg"},{"bike_id":"051fc28a-ef65-47e3-bc33-b345252806a3","system_id":"levelo_inurba_marseille","lat":43.29027,"lon":5.39969,"is_reserved":false,"is_disabled":true,"rental_uris":{"android":"levelo://app?vid=051fc28a-ef65-47e3-bc33-b345252806a3","ios":"levelo://app?vid=051fc28a-ef65-47e3-bc33-b345252806a3"},"vehicle_type_id":"4","last_reported":1748463093,"current_range_meters":1200,"station_id":"ce4bh392rcd13ifvqdm0","pricing_plan_id":"cebpf4jnsgd1na2vs0mg"},{"bike_id":"eee5e576-3784-41cd-b6f9-c8036906c35d","system_id":"levelo_inurba_marseille","lat":43.29257,"lon":5.38436,"is_reserved":false,"is_disabled":true,"rental_uris":{"android":"levelo://app?vid=eee5e576-3784-41cd-b6f9-c8036906c35d","ios":"levelo://app?vid=eee5e576-3784-41cd-b6f9-c8036906c35d"},"vehicle_type_id":"4","last_reported":1748463093,"current_range_meters":1200,"station_id":"ce4bh692rcd13ifvqea0","pricing_plan_id":"cebpf4jnsgd1na2vs0mg"},{"bike_id":"47a83c21-68e1-4415-b5f4-5eb241b63f7e","system_id":"levelo_inurba_marseille","lat":43.28108,"lon":5.37823,"is_reserved":false,"is_disabled":true,"rental_uris":{"android":"levelo://app?vid=47a83c21-68e1-4415-b5f4-5eb241b63f7e","ios":"levelo://app?vid=47a83c21-68e1-4415-b5f4-5eb241b63f7e"},"vehicle_type_id":"4","last_reported":1748463093,"current_range_meters":1200,"station_id":"ce4bha12rcd13ifvqee0","pricing_plan_id":"cebpf4jnsgd1na2vs0mg"},{"bike_id":"d9663838-c3ef-4f7e-89b0-582c517c45d5","system_id":"levelo_inurba_marseille","lat":43.27667,"lon":5.38884,"is_reserved":false,"is_disabled":true,"rental_uris":{"android":"levelo://app?vid=d9663838-c3ef-4f7e-89b0-582c517c45d5","ios":"levelo://app?vid=d9663838-c3ef-4f7e-89b0-582c517c45d5"},"vehicle_type_id":"4","last_reported":1748463093,"current_range_meters":1200,"station_id":"ce4bhi12rcd13ifvqfo0","pricing_plan_id":"cebpf4jnsgd1na2vs0mg"},{"bike_id":"1be25f1a-182d-41f2-8d4f-cf02fa7aa93b","system_id":"levelo_inurba_marseille","lat":43.2816,"lon":5.42632,"is_reserved":false,"is_disabled":true,"rental_uris":{"android":"levelo://app?vid=1be25f1a-182d-41f2-8d4f-cf02fa7aa93b","ios":"levelo://app?vid=1be25f1a-182d-41f2-8d4f-cf02fa7aa93b"},"vehicle_type_id":"4","last_reported":1748463093,"current_range_meters":1200,"station_id":"ce4bhnh2rcd13ifvqgug","pricing_plan_id":"cebpf4jnsgd1na2vs0mg"},{"bike_id":"ef53bb08-3221-45a4-aeab-27ec5b84f36b","system_id":"levelo_inurba_marseille","lat":43.30735,"lon":5.42439,"is_reserved":false,"is_disabled":true,"rental_uris":{"android":"levelo://app?vid=ef53bb08-3221-45a4-aeab-27ec5b84f36b","ios":"levelo://app?vid=ef53bb08-3221-45a4-aeab-27ec5b84f36b"},"vehicle_type_id":"4","last_reported":1748463093,"current_range_meters":1200,"station_id":"st_cvj6ca6bvosntc0bfgr0","pricing_plan_id":"cebpf4jnsgd1na2vs0mg"},{"bike_id":"5cae80cb-6798-4283-b151-5131b2b28c71","system_id":"levelo_inurba_marseille","lat":43.2679,"lon":5.39408,"is_reserved":false,"is_disabled":true,"rental_uris":{"android":"levelo://app?vid=5cae80cb-6798-4283-b151-5131b2b28c71","ios":"levelo://app?vid=5cae80cb-6798-4283-b151-5131b2b28c71"},"vehicle_type_id":"4","last_reported":1748463093,"current_range_meters":1600,"station_id":"ce4bhh12rcd13ifvqfg0","pricing_plan_id":"cebpf4jnsgd1na2vs0mg"},{"bike_id":"19ddf677-f666-41e6-a571-99f0082e0a79","system_id":"levelo_inurba_marseille","lat":43.23121,"lon":5.36618,"is_reserved":false,"is_disabled":true,"rental_uris":{"android":"levelo://app?vid=19ddf677-f666-41e6-a571-99f0082e0a79","ios":"levelo://app?vid=19ddf677-f666-41e6-a571-99f0082e0a79"},"vehicle_type_id":"4","last_reported":1748463093,"current_range_meters":2000,"station_id":"","pricing_plan_id":"cebpf4jnsgd1na2vs0mg"},{"bike_id":"6911331f-28ea-44ce-967f-d77fafa510c3","system_id":"levelo_inurba_marseille","lat":43.29601,"lon":5.37727,"is_reserved":false,"is_disabled":false,"rental_uris":{"android":"levelo://app?vid=6911331f-28ea-44ce-967f-d77fafa510c3","ios":"levelo://app?vid=6911331f-28ea-44ce-967f-d77fafa510c3"},"vehicle_type_id":"4","last_reported":1748463093,"current_range_meters":2000,"station_id":"ce4bgi92rcd13ifvqb90","pricing_plan_id":"cebpf4jnsgd1na2vs0mg"},{"bike_id":"ee443bfd-3a66-4508-a619-6ec60ddc1cb1","system_id":"levelo_inurba_marseille","lat":43.28938,"lon":5.36633,"is_reserved":false,"is_disabled":true,"rental_uris":{"android":"levelo://app?vid=ee443bfd-3a66-4508-a619-6ec60ddc1cb1","ios":"levelo://app?vid=ee443bfd-3a66-4508-a619-6ec60ddc1cb1"},"vehicle_type_id":"4","last_reported":1748463093,"current_range_meters":2000,"station_id":"ce4bhap2rcd13ifvqek0","pricing_plan_id":"cebpf4jnsgd1na2vs0mg"},{"bike_id":"f4c45e95-54cf-46e5-83c5-d89c27c9a69c","system_id":"levelo_inurba_marseille","lat":43.27305,"lon":5.41588,"is_reserved":false,"is_disabled":false,"rental_uris":{"android":"levelo://app?vid=f4c45e95-54cf-46e5-83c5-d89c27c9a69c","ios":"levelo://app?vid=f4c45e95-54cf-46e5-83c5-d89c27c9a69c"},"vehicle_type_id":"4","last_reported":1748463093,"current_range_meters":2800,"station_id":"","pricing_plan_id":"cebpf4jnsgd1na2vs0mg"},{"bike_id":"240845dc-3554-46af-a1c5-65cb62e9dc2c","system_id":"levelo_inurba_marseille","lat":43.27387,"lon":5.36229,"is_reserved":false,"is_disabled":false,"rental_uris":{"android":"levelo://app?vid=240845dc-3554-46af-a1c5-65cb62e9dc2c","ios":"levelo://app?vid=240845dc-3554-46af-a1c5-65cb62e9dc2c"},"vehicle_type_id":"4","last_reported":1748463093,"current_range_meters":2800,"station_id":"","pricing_plan_id":"cebpf4jnsgd1na2vs0mg"},{"bike_id":"443004d0-5e76-4011-aa1d-e28b9d37d601","system_id":"levelo_inurba_marseille","lat":43.3159,"lon":5.36908,"is_reserved":false,"is_disabled":false,"rental_uris":{"android":"levelo://app?vid=443004d0-5e76-4011-aa1d-e28b9d37d601","ios":"levelo://app?vid=443004d0-5e76-4011-aa1d-e28b9d37d601"},"vehicle_type_id":"4","last_reported":1748463093,"current_range_meters":2800,"station_id":"","pricing_plan_id":"cebpf4jnsgd1na2vs0mg"},{"bike_id":"95905bdb-1cb7-4f3d-94bb-8ac9edfe1a32","system_id":"levelo_inurba_marseille","lat":43.26227,"lon":5.40455,"is_reserved":false,"is_disabled":false,"rental_uris":{"android":"levelo://app?vid=95905bdb-1cb7-4f3d-94bb-8ac9edfe1a32","ios":"levelo://app?vid=95905bdb-1cb7-4f3d-94bb-8ac9edfe1a32"},"vehicle_type_id":"4","last_reported":1748463093,"current_range_meters":2800,"station_id":"ce4bhmh2rcd13ifvqgmg","pricing_plan_id":"cebpf4jnsgd1na2vs0mg"},{"bike_id":"b6a201e9-b5ee-47c2-a3ad-b6088e85f055","system_id":"levelo_inurba_marseille","lat":43.32122,"lon":5.36766,"is_reserved":false,"is_disabled":false,"rental_uris":{"android":"levelo://app?vid=b6a201e9-b5ee-47c2-a3ad-b6088e85f055","ios":"levelo://app?vid=b6a201e9-b5ee-47c2-a3ad-b6088e85f055"},"vehicle_type_id":"4","last_reported":1748463093,"current_range_meters":2800,"station_id":"ce4bhrh2rcd13ifvqhug","pricing_plan_id":"cebpf4jnsgd1na2vs0mg"},{"bike_id":"a6fede81-4f9d-4edb-82a9-b2d9f709f4e2","system_id":"levelo_inurba_marseille","lat":43.27909,"lon":5.395833,"is_reserved":false,"is_disabled":false,"rental_uris":{"android":"levelo://app?vid=a6fede81-4f9d-4edb-82a9-b2d9f709f4e2","ios":"levelo://app?vid=a6fede81-4f9d-4edb-82a9-b2d9f709f4e2"},"vehicle_type_id":"4","last_reported":1748463093,"current_range_meters":3200,"station_id":"ce4bhf92rcd13ifvqf40","pricing_plan_id":"cebpf4jnsgd1na2vs0mg"},{"bike_id":"f819e741-785c-4777-8961-36bbabeca46f","system_id":"levelo_inurba_marseille","lat":43.293074,"lon":5.371714,"is_reserved":false,"is_disabled":false,"rental_uris":{"android":"levelo://app?vid=f819e741-785c-4777-8961-36bbabeca46f","ios":"levelo://app?vid=f819e741-785c-4777-8961-36bbabeca46f"},"vehicle_type_id":"4","last_reported":1748463093,"current_range_meters":3600,"station_id":"","pricing_plan_id":"cebpf4jnsgd1na2vs0mg"},{"bike_id":"658a3173-993a-420e-baac-64692dead9f5","system_id":"levelo_inurba_marseille","lat":43.307115,"lon":5.395306,"is_reserved":false,"is_disabled":false,"rental_uris":{"android":"levelo://app?vid=658a3173-993a-420e-baac-64692dead9f5","ios":"levelo://app?vid=658a3173-993a-420e-baac-64692dead9f5"},"vehicle_type_id":"4","last_reported":1748463093,"current_range_meters":3600,"station_id":"ce4bh012rcd13ifvqcv0","pricing_plan_id":"cebpf4jnsgd1na2vs0mg"},{"bike_id":"675d39ed-b813-4817-99f5-cc20f0946702","system_id":"levelo_inurba_marseille","lat":43.29885,"lon":5.38922,"is_reserved":false,"is_disabled":false,"rental_uris":{"android":"levelo://app?vid=675d39ed-b813-4817-99f5-cc20f0946702","ios":"levelo://app?vid=675d39ed-b813-4817-99f5-cc20f0946702"},"vehicle_type_id":"4","last_reported":1748463093,"current_range_meters":3600,"station_id":"ce4bh392rcd13ifvqdl0","pricing_plan_id":"cebpf4jnsgd1na2vs0mg"},{"bike_id":"c817bdd0-a9be-4cd5-9ab8-658243d39c89","system_id":"levelo_inurba_marseille","lat":43.25001,"lon":5.38923,"is_reserved":false,"is_disabled":false,"rental_uris":{"android":"levelo://app?vid=c817bdd0-a9be-4cd5-9ab8-658243d39c89","ios":"levelo://app?vid=c817bdd0-a9be-4cd5-9ab8-658243d39c89"},"vehicle_type_id":"4","last_reported":1748463093,"current_range_meters":3600,"station_id":"ce4bhgp2rcd13ifvqfd0","pricing_plan_id":"cebpf4jnsgd1na2vs0mg"},{"bike_id":"fbd4c51c-5c21-44d2-a96b-aace6f632a60","system_id":"levelo_inurba_marseille","lat":43.28158,"lon":5.42643,"is_reserved":false,"is_disabled":false,"rental_uris":{"android":"levelo://app?vid=fbd4c51c-5c21-44d2-a96b-aace6f632a60","ios":"levelo://app?vid=fbd4c51c-5c21-44d2-a96b-aace6f632a60"},"vehicle_type_id":"4","last_reported":1748463093,"current_range_meters":3600,"station_id":"ce4bhnh2rcd13ifvqgug","pricing_plan_id":"cebpf4jnsgd1na2vs0mg"},{"bike_id":"92cca2c4-5ad8-4a53-a17f-5b47bfb1827d","system_id":"levelo_inurba_marseille","lat":43.286941,"lon":5.399715,"is_reserved":false,"is_disabled":true,"rental_uris":{"android":"levelo://app?vid=92cca2c4-5ad8-4a53-a17f-5b47bfb1827d","ios":"levelo://app?vid=92cca2c4-5ad8-4a53-a17f-5b47bfb1827d"},"vehicle_type_id":"4","last_reported":1748463093,"current_range_meters":3600,"station_id":"ce4bho92rcd13ifvqh3g","pricing_plan_id":"cebpf4jnsgd1na2vs0mg"},{"bike_id":"96899a86-1944-4901-8c92-0ddaf69b0b9f","system_id":"levelo_inurba_marseille","lat":43.27376,"lon":5.36254,"is_reserved":false,"is_disabled":false,"rental_uris":{"android":"levelo://app?vid=96899a86-1944-4901-8c92-0ddaf69b0b9f","ios":"levelo://app?vid=96899a86-1944-4901-8c92-0ddaf69b0b9f"},"vehicle_type_id":"4","last_reported":1748463093,"current_range_meters":4000,"station_id":"ce4bhbh2rcd13ifvqeo0","pricing_plan_id":"cebpf4jnsgd1na2vs0mg"},{"bike_id":"8f873e24-264b-446b-82f7-9634ff6df46c","system_id":"levelo_inurba_marseille","lat":43.27571,"lon":5.38418,"is_reserved":false,"is_disabled":false,"rental_uris":{"android":"levelo://app?vid=8f873e24-264b-446b-82f7-9634ff6df46c","ios":"levelo://app?vid=8f873e24-264b-446b-82f7-9634ff6df46c"},"vehicle_type_id":"4","last_reported":1748463093,"current_range_meters":4000,"station_id":"ce4bhh92rcd13ifvqfi0","pricing_plan_id":"cebpf4jnsgd1na2vs0mg"},{"bike_id":"bfc5dcbd-ddec-4ab8-9dc8-2f838da83bbd","system_id":"levelo_inurba_marseille","lat":43.29313,"lon":5.37172,"is_reserved":false,"is_disabled":false,"rental_uris":{"android":"levelo://app?vid=bfc5dcbd-ddec-4ab8-9dc8-2f838da83bbd","ios":"levelo://app?vid=bfc5dcbd-ddec-4ab8-9dc8-2f838da83bbd"},"vehicle_type_id":"4","last_reported":1748463093,"current_range_meters":4400,"station_id":"ce4bgh92rcd13ifvqb40","pricing_plan_id":"cebpf4jnsgd1na2vs0mg"},{"bike_id":"3dc6a7ae-cdc6-4571-a0d6-4540fb65684f","system_id":"levelo_inurba_marseille","lat":43.30788,"lon":5.37638,"is_reserved":false,"is_disabled":false,"rental_uris":{"android":"levelo://app?vid=3dc6a7ae-cdc6-4571-a0d6-4540fb65684f","ios":"levelo://app?vid=3dc6a7ae-cdc6-4571-a0d6-4540fb65684f"},"vehicle_type_id":"4","last_reported":1748463093,"current_range_meters":4400,"station_id":"ce4bgv92rcd13ifvqcq0","pricing_plan_id":"cebpf4jnsgd1na2vs0mg"},{"bike_id":"ac56d814-6f49-4b26-84c9-ccd4d8b5c17c","system_id":"levelo_inurba_marseille","lat":43.28718,"lon":5.36081,"is_reserved":false,"is_disabled":false,"rental_uris":{"android":"levelo://app?vid=ac56d814-6f49-4b26-84c9-ccd4d8b5c17c","ios":"levelo://app?vid=ac56d814-6f49-4b26-84c9-ccd4d8b5c17c"},"vehicle_type_id":"4","last_reported":1748463093,"current_range_meters":4800,"station_id":"","pricing_plan_id":"cebpf4jnsgd1na2vs0mg"},{"bike_id":"eaf16c9d-8698-4bea-8ce7-f3aa4b241afe","system_id":"levelo_inurba_marseille","lat":43.28863,"lon":5.35854,"is_reserved":false,"is_disabled":false,"rental_uris":{"android":"levelo://app?vid=eaf16c9d-8698-4bea-8ce7-f3aa4b241afe","ios":"levelo://app?vid=eaf16c9d-8698-4bea-8ce7-f3aa4b241afe"},"vehicle_type_id":"4","last_reported":1748463093,"current_range_meters":4800,"station_id":"ce4bhb12rcd13ifvqem0","pricing_plan_id":"cebpf4jnsgd1na2vs0mg"},{"bike_id":"4738f8ea-ec4f-46be-9a47-688738b3ad48","system_id":"levelo_inurba_marseille","lat":43.31685,"lon":5.40475,"is_reserved":false,"is_disabled":false,"rental_uris":{"android":"levelo://app?vid=4738f8ea-ec4f-46be-9a47-688738b3ad48","ios":"levelo://app?vid=4738f8ea-ec4f-46be-9a47-688738b3ad48"},"vehicle_type_id":"4","last_reported":1748463093,"current_range_meters":5600,"station_id":"ce4bh012rcd13ifvqd00","pricing_plan_id":"cebpf4jnsgd1na2vs0mg"},{"bike_id":"5478d2e9-42bf-48fc-9868-545d0002b5a0","system_id":"levelo_inurba_marseille","lat":43.27837,"lon":5.39212,"is_reserved":false,"is_disabled":false,"rental_uris":{"android":"levelo://app?vid=5478d2e9-42bf-48fc-9868-545d0002b5a0","ios":"levelo://app?vid=5478d2e9-42bf-48fc-9868-545d0002b5a0"},"vehicle_type_id":"4","last_reported":1748463093,"current_range_meters":5600,"station_id":"ce4bhjp2rcd13ifvqga0","pricing_plan_id":"cebpf4jnsgd1na2vs0mg"},{"bike_id":"191ae870-6942-49d4-b470-d1fc532343a4","system_id":"levelo_inurba_marseille","lat":43.3266,"lon":5.40989,"is_reserved":false,"is_disabled":false,"rental_uris":{"android":"levelo://app?vid=191ae870-6942-49d4-b470-d1fc532343a4","ios":"levelo://app?vid=191ae870-6942-49d4-b470-d1fc532343a4"},"vehicle_type_id":"4","last_reported":1748463093,"current_range_meters":5600,"station_id":"ce4bhpp2rcd13ifvqhgg","pricing_plan_id":"cebpf4jnsgd1na2vs0mg"},{"bike_id":"a5f90b1e-a09e-40ad-8d54-7442721c8689","system_id":"levelo_inurba_marseille","lat":43.24612,"lon":5.39225,"is_reserved":false,"is_disabled":false,"rental_uris":{"android":"levelo://app?vid=a5f90b1e-a09e-40ad-8d54-7442721c8689","ios":"levelo://app?vid=a5f90b1e-a09e-40ad-8d54-7442721c8689"},"vehicle_type_id":"4","last_reported":1748463093,"current_range_meters":6000,"station_id":"","pricing_plan_id":"cebpf4jnsgd1na2vs0mg"},{"bike_id":"4096668a-3af6-4e1e-b1ce-50a19616e8fc","system_id":"levelo_inurba_marseille","lat":43.284161,"lon":5.349902,"is_reserved":false,"is_disabled":false,"rental_uris":{"android":"levelo://app?vid=4096668a-3af6-4e1e-b1ce-50a19616e8fc","ios":"levelo://app?vid=4096668a-3af6-4e1e-b1ce-50a19616e8fc"},"vehicle_type_id":"4","last_reported":1748463093,"current_range_meters":6000,"station_id":"ce4bgg92rcd13ifvqb30","pricing_plan_id":"cebpf4jnsgd1na2vs0mg"},{"bike_id":"fc6b6901-cba8-4e9c-a0ae-a6798c04f3fe","system_id":"levelo_inurba_marseille","lat":43.31706,"lon":5.37764,"is_reserved":false,"is_disabled":false,"rental_uris":{"android":"levelo://app?vid=fc6b6901-cba8-4e9c-a0ae-a6798c04f3fe","ios":"levelo://app?vid=fc6b6901-cba8-4e9c-a0ae-a6798c04f3fe"},"vehicle_type_id":"4","last_reported":1748463093,"current_range_meters":6000,"station_id":"ce4bgth2rcd13ifvqch0","pricing_plan_id":"cebpf4jnsgd1na2vs0mg"},{"bike_id":"3738ef45-c10f-4deb-af53-1a8ac06c2116","system_id":"levelo_inurba_marseille","lat":43.28945,"lon":5.36637,"is_reserved":false,"is_disabled":false,"rental_uris":{"android":"levelo://app?vid=3738ef45-c10f-4deb-af53-1a8ac06c2116","ios":"levelo://app?vid=3738ef45-c10f-4deb-af53-1a8ac06c2116"},"vehicle_type_id":"4","last_reported":1748463093,"current_range_meters":6000,"station_id":"ce4bhap2rcd13ifvqek0","pricing_plan_id":"cebpf4jnsgd1na2vs0mg"},{"bike_id":"46c0bae4-c588-4bf5-a599-d1e4ce2b22ac","system_id":"levelo_inurba_marseille","lat":43.24543,"lon":5.39522,"is_reserved":false,"is_disabled":false,"rental_uris":{"android":"levelo://app?vid=46c0bae4-c588-4bf5-a599-d1e4ce2b22ac","ios":"levelo://app?vid=46c0bae4-c588-4bf5-a599-d1e4ce2b22ac"},"vehicle_type_id":"4","last_reported":1748463093,"current_range_meters":6000,"station_id":"ce4bhlp2rcd13ifvqgjg","pricing_plan_id":"cebpf4jnsgd1na2vs0mg"},{"bike_id":"6a6fd867-d419-4230-9648-48c9c377d3eb","system_id":"levelo_inurba_marseille","lat":43.250958,"lon":5.395175,"is_reserved":false,"is_disabled":false,"rental_uris":{"android":"levelo://app?vid=6a6fd867-d419-4230-9648-48c9c377d3eb","ios":"levelo://app?vid=6a6fd867-d419-4230-9648-48c9c377d3eb"},"vehicle_type_id":"4","last_reported":1748463093,"current_range_meters":6000,"station_id":"ce4bhm12rcd13ifvqgkg","pricing_plan_id":"cebpf4jnsgd1na2vs0mg"},{"bike_id":"9e043bb1-2a40-4bce-b047-8881425319ed","system_id":"levelo_inurba_marseille","lat":43.30149,"lon":5.38082,"is_reserved":false,"is_disabled":false,"rental_uris":{"android":"levelo://app?vid=9e043bb1-2a40-4bce-b047-8881425319ed","ios":"levelo://app?vid=9e043bb1-2a40-4bce-b047-8881425319ed"},"vehicle_type_id":"4","last_reported":1748463093,"current_range_meters":6400,"station_id":"ce4bgjp2rcd13ifvqbh0","pricing_plan_id":"cebpf4jnsgd1na2vs0mg"},{"bike_id":"0e298602-0967-4a15-8f4b-da3075b94a79","system_id":"levelo_inurba_marseille","lat":43.24813,"lon":5.37452,"is_reserved":false,"is_disabled":false,"rental_uris":{"android":"levelo://app?vid=0e298602-0967-4a15-8f4b-da3075b94a79","ios":"levelo://app?vid=0e298602-0967-4a15-8f4b-da3075b94a79"},"vehicle_type_id":"4","last_reported":1748463093,"current_range_meters":6400,"station_id":"ce4bhgh2rcd13ifvqfb0","pricing_plan_id":"cebpf4jnsgd1na2vs0mg"},{"bike_id":"db1992ae-8df0-45a1-a5da-5a7c5ed89646","system_id":"levelo_inurba_marseille","lat":43.26217,"lon":5.37441,"is_reserved":false,"is_disabled":false,"rental_uris":{"android":"levelo://app?vid=db1992ae-8df0-45a1-a5da-5a7c5ed89646","ios":"levelo://app?vid=db1992ae-8df0-45a1-a5da-5a7c5ed89646"},"vehicle_type_id":"4","last_reported":1748463093,"current_range_meters":6400,"station_id":"ce4bhgp2rcd13ifvqfc0","pricing_plan_id":"cebpf4jnsgd1na2vs0mg"},{"bike_id":"dea19d00-383b-409e-acf7-65588c93a9ca","system_id":"levelo_inurba_marseille","lat":43.255,"lon":5.37648,"is_reserved":false,"is_disabled":false,"rental_uris":{"android":"levelo://app?vid=dea19d00-383b-409e-acf7-65588c93a9ca","ios":"levelo://app?vid=dea19d00-383b-409e-acf7-65588c93a9ca"},"vehicle_type_id":"4","last_reported":1748463093,"current_range_meters":6400,"station_id":"ce4bhh12rcd13ifvqff0","pricing_plan_id":"cebpf4jnsgd1na2vs0mg"},{"bike_id":"143f1450-a317-45f8-875a-2787ca9ec5c8","system_id":"levelo_inurba_marseille","lat":43.25504,"lon":5.37649,"is_reserved":false,"is_disabled":false,"rental_uris":{"android":"levelo://app?vid=143f1450-a317-45f8-875a-2787ca9ec5c8","ios":"levelo://app?vid=143f1450-a317-45f8-875a-2787ca9ec5c8"},"vehicle_type_id":"4","last_reported":1748463093,"current_range_meters":6400,"station_id":"ce4bhh12rcd13ifvqff0","pricing_plan_id":"cebpf4jnsgd1na2vs0mg"},{"bike_id":"87b395fb-0dfd-464d-b68d-3afc622e0d48","system_id":"levelo_inurba_marseille","lat":43.295419,"lon":5.394735,"is_reserved":false,"is_disabled":false,"rental_uris":{"android":"levelo://app?vid=87b395fb-0dfd-464d-b68d-3afc622e0d48","ios":"levelo://app?vid=87b395fb-0dfd-464d-b68d-3afc622e0d48"},"vehicle_type_id":"4","last_reported":1748463093,"current_range_meters":6800,"station_id":"","pricing_plan_id":"cebpf4jnsgd1na2vs0mg"},{"bike_id":"1a9deaa6-5b0b-41ea-a3a0-9c49f0de8473","system_id":"levelo_inurba_marseille","lat":43.29322,"lon":5.411756,"is_reserved":false,"is_disabled":false,"rental_uris":{"android":"levelo://app?vid=1a9deaa6-5b0b-41ea-a3a0-9c49f0de8473","ios":"levelo://app?vid=1a9deaa6-5b0b-41ea-a3a0-9c49f0de8473"},"vehicle_type_id":"4","last_reported":1748463093,"current_range_meters":6800,"station_id":"","pricing_plan_id":"cebpf4jnsgd1na2vs0mg"},{"bike_id":"d781b4ed-0856-4d7e-825c-34591f92d48d","system_id":"levelo_inurba_marseille","lat":43.29969,"lon":5.38489,"is_reserved":false,"is_disabled":false,"rental_uris":{"android":"levelo://app?vid=d781b4ed-0856-4d7e-825c-34591f92d48d","ios":"levelo://app?vid=d781b4ed-0856-4d7e-825c-34591f92d48d"},"vehicle_type_id":"4","last_reported":1748463093,"current_range_meters":6800,"station_id":"ce4bgj92rcd13ifvqbd0","pricing_plan_id":"cebpf4jnsgd1na2vs0mg"},{"bike_id":"f3e022c5-af15-41b1-98d1-dd3986f8542a","system_id":"levelo_inurba_marseille","lat":43.29008,"lon":5.35616,"is_reserved":false,"is_disabled":false,"rental_uris":{"android":"levelo://app?vid=f3e022c5-af15-41b1-98d1-dd3986f8542a","ios":"levelo://app?vid=f3e022c5-af15-41b1-98d1-dd3986f8542a"},"vehicle_type_id":"4","last_reported":1748463093,"current_range_meters":6800,"station_id":"ce4bhb92rcd13ifvqen0","pricing_plan_id":"cebpf4jnsgd1na2vs0mg"},{"bike_id":"697f1bc0-ae34-4ad9-8ede-6a27c99a6ea7","system_id":"levelo_inurba_marseille","lat":43.28007,"lon":5.41658,"is_reserved":false,"is_disabled":false,"rental_uris":{"android":"levelo://app?vid=697f1bc0-ae34-4ad9-8ede-6a27c99a6ea7","ios":"levelo://app?vid=697f1bc0-ae34-4ad9-8ede-6a27c99a6ea7"},"vehicle_type_id":"4","last_reported":1748463093,"current_range_meters":6800,"station_id":"ce4bho12rcd13ifvqh1g","pricing_plan_id":"cebpf4jnsgd1na2vs0mg"},{"bike_id":"b0699ab7-0cef-41f6-879c-b66ce18aff02","system_id":"levelo_inurba_marseille","lat":43.2761,"lon":5.36115,"is_reserved":false,"is_disabled":false,"rental_uris":{"android":"levelo://app?vid=b0699ab7-0cef-41f6-879c-b66ce18aff02","ios":"levelo://app?vid=b0699ab7-0cef-41f6-879c-b66ce18aff02"},"vehicle_type_id":"4","last_reported":1748463093,"current_range_meters":7200,"station_id":"ce4bgj92rcd13ifvqbe0","pricing_plan_id":"cebpf4jnsgd1na2vs0mg"},{"bike_id":"6595edd8-f6c5-43de-9b73-30ef41d96c74","system_id":"levelo_inurba_marseille","lat":43.23173,"lon":5.39978,"is_reserved":false,"is_disabled":false,"rental_uris":{"android":"levelo://app?vid=6595edd8-f6c5-43de-9b73-30ef41d96c74","ios":"levelo://app?vid=6595edd8-f6c5-43de-9b73-30ef41d96c74"},"vehicle_type_id":"4","last_reported":1748463093,"current_range_meters":7200,"station_id":"ce4bhn12rcd13ifvqgqg","pricing_plan_id":"cebpf4jnsgd1na2vs0mg"},{"bike_id":"7dde676c-38c9-4b2b-8b31-2e8abd3218c3","system_id":"levelo_inurba_marseille","lat":43.28153,"lon":5.42638,"is_reserved":false,"is_disabled":false,"rental_uris":{"android":"levelo://app?vid=7dde676c-38c9-4b2b-8b31-2e8abd3218c3","ios":"levelo://app?vid=7dde676c-38c9-4b2b-8b31-2e8abd3218c3"},"vehicle_type_id":"4","last_reported":1748463093,"current_range_meters":7200,"station_id":"ce4bhnh2rcd13ifvqgug","pricing_plan_id":"cebpf4jnsgd1na2vs0mg"},{"bike_id":"f0e44009-6064-4d67-80b4-0bb60ffccf01","system_id":"levelo_inurba_marseille","lat":43.28543,"lon":5.36655,"is_reserved":false,"is_disabled":false,"rental_uris":{"android":"levelo://app?vid=f0e44009-6064-4d67-80b4-0bb60ffccf01","ios":"levelo://app?vid=f0e44009-6064-4d67-80b4-0bb60ffccf01"},"vehicle_type_id":"4","last_reported":1748463093,"current_range_meters":8000,"station_id":"","pricing_plan_id":"cebpf4jnsgd1na2vs0mg"},{"bike_id":"a03f4828-4c76-4959-bc2b-ff0643a96389","system_id":"levelo_inurba_marseille","lat":43.29598,"lon":5.38097,"is_reserved":false,"is_disabled":false,"rental_uris":{"android":"levelo://app?vid=a03f4828-4c76-4959-bc2b-ff0643a96389","ios":"levelo://app?vid=a03f4828-4c76-4959-bc2b-ff0643a96389"},"vehicle_type_id":"4","last_reported":1748463093,"current_range_meters":8000,"station_id":"ce4bgl12rcd13ifvqbo0","pricing_plan_id":"cebpf4jnsgd1na2vs0mg"},{"bike_id":"7b4ccc05-5f7d-4e9f-b6c7-524b5b80f2c8","system_id":"levelo_inurba_marseille","lat":43.30952,"lon":5.39024,"is_reserved":false,"is_disabled":false,"rental_uris":{"android":"levelo://app?vid=7b4ccc05-5f7d-4e9f-b6c7-524b5b80f2c8","ios":"levelo://app?vid=7b4ccc05-5f7d-4e9f-b6c7-524b5b80f2c8"},"vehicle_type_id":"4","last_reported":1748463093,"current_range_meters":8000,"station_id":"ce4bgup2rcd13ifvqco0","pricing_plan_id":"cebpf4jnsgd1na2vs0mg"},{"bike_id":"828c9c20-6f75-4835-a373-87fcd67fe6c3","system_id":"levelo_inurba_marseille","lat":43.28438,"lon":5.35898,"is_reserved":false,"is_disabled":false,"rental_uris":{"android":"levelo://app?vid=828c9c20-6f75-4835-a373-87fcd67fe6c3","ios":"levelo://app?vid=828c9c20-6f75-4835-a373-87fcd67fe6c3"},"vehicle_type_id":"4","last_reported":1748463093,"current_range_meters":8000,"station_id":"ce4bhah2rcd13ifvqei0","pricing_plan_id":"cebpf4jnsgd1na2vs0mg"},{"bike_id":"903af1ca-1009-44e6-930e-3dbbb610a029","system_id":"levelo_inurba_marseille","lat":43.26195,"lon":5.37445,"is_reserved":false,"is_disabled":false,"rental_uris":{"android":"levelo://app?vid=903af1ca-1009-44e6-930e-3dbbb610a029","ios":"levelo://app?vid=903af1ca-1009-44e6-930e-3dbbb610a029"},"vehicle_type_id":"4","last_reported":1748463093,"current_range_meters":8000,"station_id":"ce4bhgp2rcd13ifvqfc0","pricing_plan_id":"cebpf4jnsgd1na2vs0mg"},{"bike_id":"fe688649-2aeb-4147-9d66-455b2ad0c7fc","system_id":"levelo_inurba_marseille","lat":43.256154,"lon":5.382485,"is_reserved":false,"is_disabled":false,"rental_uris":{"android":"levelo://app?vid=fe688649-2aeb-4147-9d66-455b2ad0c7fc","ios":"levelo://app?vid=fe688649-2aeb-4147-9d66-455b2ad0c7fc"},"vehicle_type_id":"4","last_reported":1748463093,"current_range_meters":8000,"station_id":"ce4bhih2rcd13ifvqfs0","pricing_plan_id":"cebpf4jnsgd1na2vs0mg"},{"bike_id":"b80ee325-09b2-4724-993d-4f8d3707c41c","system_id":"levelo_inurba_marseille","lat":43.25862,"lon":5.39902,"is_reserved":false,"is_disabled":false,"rental_uris":{"android":"levelo://app?vid=b80ee325-09b2-4724-993d-4f8d3707c41c","ios":"levelo://app?vid=b80ee325-09b2-4724-993d-4f8d3707c41c"},"vehicle_type_id":"4","last_reported":1748463093,"current_range_meters":8000,"station_id":"ce4bhl92rcd13ifvqghg","pricing_plan_id":"cebpf4jnsgd1na2vs0mg"},{"bike_id":"e7c8a9b9-0f7e-4f93-8f26-86f0646a609e","system_id":"levelo_inurba_marseille","lat":43.33107,"lon":5.38525,"is_reserved":false,"is_disabled":false,"rental_uris":{"android":"levelo://app?vid=e7c8a9b9-0f7e-4f93-8f26-86f0646a609e","ios":"levelo://app?vid=e7c8a9b9-0f7e-4f93-8f26-86f0646a609e"},"vehicle_type_id":"4","last_reported":1748463093,"current_range_meters":8400,"station_id":"","pricing_plan_id":"cebpf4jnsgd1na2vs0mg"},{"bike_id":"fafc91fb-b4dd-4c00-9f59-571ee3d32731","system_id":"levelo_inurba_marseille","lat":43.30535,"lon":5.38431,"is_reserved":false,"is_disabled":false,"rental_uris":{"android":"levelo://app?vid=fafc91fb-b4dd-4c00-9f59-571ee3d32731","ios":"levelo://app?vid=fafc91fb-b4dd-4c00-9f59-571ee3d32731"},"vehicle_type_id":"4","last_reported":1748463093,"current_range_meters":8400,"station_id":"ce4bgg92rcd13ifvqb30","pricing_plan_id":"cebpf4jnsgd1na2vs0mg"},{"bike_id":"524b402d-83ef-4088-9a8d-5fe7be6e768c","system_id":"levelo_inurba_marseille","lat":43.2763,"lon":5.36104,"is_reserved":false,"is_disabled":false,"rental_uris":{"android":"levelo://app?vid=524b402d-83ef-4088-9a8d-5fe7be6e768c","ios":"levelo://app?vid=524b402d-83ef-4088-9a8d-5fe7be6e768c"},"vehicle_type_id":"4","last_reported":1748463093,"current_range_meters":8400,"station_id":"ce4bgj92rcd13ifvqbe0","pricing_plan_id":"cebpf4jnsgd1na2vs0mg"},{"bike_id":"5e969931-2147-4ca7-a991-453bf62bde74","system_id":"levelo_inurba_marseille","lat":43.31686,"lon":5.40471,"is_reserved":false,"is_disabled":false,"rental_uris":{"android":"levelo://app?vid=5e969931-2147-4ca7-a991-453bf62bde74","ios":"levelo://app?vid=5e969931-2147-4ca7-a991-453bf62bde74"},"vehicle_type_id":"4","last_reported":1748463093,"current_range_meters":8400,"station_id":"ce4bh012rcd13ifvqd00","pricing_plan_id":"cebpf4jnsgd1na2vs0mg"},{"bike_id":"594fa21a-e4ec-4adb-b66e-58ef99b2c5c6","system_id":"levelo_inurba_marseille","lat":43.24813,"lon":5.37449,"is_reserved":false,"is_disabled":false,"rental_uris":{"android":"levelo://app?vid=594fa21a-e4ec-4adb-b66e-58ef99b2c5c6","ios":"levelo://app?vid=594fa21a-e4ec-4adb-b66e-58ef99b2c5c6"},"vehicle_type_id":"4","last_reported":1748463093,"current_range_meters":8400,"station_id":"ce4bhgh2rcd13ifvqfb0","pricing_plan_id":"cebpf4jnsgd1na2vs0mg"},{"bike_id":"9167ea6a-ce66-49ff-859f-3ca7c151003d","system_id":"levelo_inurba_marseille","lat":43.2418,"lon":5.39726,"is_reserved":false,"is_disabled":false,"rental_uris":{"android":"levelo://app?vid=9167ea6a-ce66-49ff-859f-3ca7c151003d","ios":"levelo://app?vid=9167ea6a-ce66-49ff-859f-3ca7c151003d"},"vehicle_type_id":"4","last_reported":1748463093,"current_range_meters":8400,"station_id":"ce4bhn12rcd13ifvqgpg","pricing_plan_id":"cebpf4jnsgd1na2vs0mg"},{"bike_id":"3969e034-6d3c-48e8-9d22-093e0b860025","system_id":"levelo_inurba_marseille","lat":43.28003,"lon":5.4001,"is_reserved":false,"is_disabled":false,"rental_uris":{"android":"levelo://app?vid=3969e034-6d3c-48e8-9d22-093e0b860025","ios":"levelo://app?vid=3969e034-6d3c-48e8-9d22-093e0b860025"},"vehicle_type_id":"4","last_reported":1748463093,"current_range_meters":8400,"station_id":"ce4bho92rcd13ifvqh4g","pricing_plan_id":"cebpf4jnsgd1na2vs0mg"},{"bike_id":"6d7cfdcd-f061-4eee-b4e5-78d9b6729328","system_id":"levelo_inurba_marseille","lat":43.329983,"lon":5.438544,"is_reserved":false,"is_disabled":false,"rental_uris":{"android":"levelo://app?vid=6d7cfdcd-f061-4eee-b4e5-78d9b6729328","ios":"levelo://app?vid=6d7cfdcd-f061-4eee-b4e5-78d9b6729328"},"vehicle_type_id":"4","last_reported":1748463093,"current_range_meters":8800,"station_id":"","pricing_plan_id":"cebpf4jnsgd1na2vs0mg"},{"bike_id":"ac8a7bb9-aa83-4728-82f7-4ec72f272da2","system_id":"levelo_inurba_marseille","lat":43.30424,"lon":5.39746,"is_reserved":false,"is_disabled":false,"rental_uris":{"android":"levelo://app?vid=ac8a7bb9-aa83-4728-82f7-4ec72f272da2","ios":"levelo://app?vid=ac8a7bb9-aa83-4728-82f7-4ec72f272da2"},"vehicle_type_id":"4","last_reported":1748463093,"current_range_meters":8800,"station_id":"ce4bh092rcd13ifvqd20","pricing_plan_id":"cebpf4jnsgd1na2vs0mg"},{"bike_id":"451c88e7-ee3e-4321-bb4d-d292d9704cdd","system_id":"levelo_inurba_marseille","lat":43.29035,"lon":5.38645,"is_reserved":false,"is_disabled":false,"rental_uris":{"android":"levelo://app?vid=451c88e7-ee3e-4321-bb4d-d292d9704cdd","ios":"levelo://app?vid=451c88e7-ee3e-4321-bb4d-d292d9704cdd"},"vehicle_type_id":"4","last_reported":1748463093,"current_range_meters":8800,"station_id":"ce4bh4p2rcd13ifvqe0g","pricing_plan_id":"cebpf4jnsgd1na2vs0mg"},{"bike_id":"264ee064-e8a1-41ea-a1cf-4f5131b85401","system_id":"levelo_inurba_marseille","lat":43.29008,"lon":5.35611,"is_reserved":false,"is_disabled":false,"rental_uris":{"android":"levelo://app?vid=264ee064-e8a1-41ea-a1cf-4f5131b85401","ios":"levelo://app?vid=264ee064-e8a1-41ea-a1cf-4f5131b85401"},"vehicle_type_id":"4","last_reported":1748463093,"current_range_meters":8800,"station_id":"ce4bhb92rcd13ifvqen0","pricing_plan_id":"cebpf4jnsgd1na2vs0mg"},{"bike_id":"69668f6a-b606-4365-8526-2700f81f1bc7","system_id":"levelo_inurba_marseille","lat":43.26207,"lon":5.37437,"is_reserved":false,"is_disabled":false,"rental_uris":{"android":"levelo://app?vid=69668f6a-b606-4365-8526-2700f81f1bc7","ios":"levelo://app?vid=69668f6a-b606-4365-8526-2700f81f1bc7"},"vehicle_type_id":"4","last_reported":1748463093,"current_range_meters":8800,"station_id":"ce4bhgp2rcd13ifvqfc0","pricing_plan_id":"cebpf4jnsgd1na2vs0mg"},{"bike_id":"16578a9c-c460-4d38-be25-a20250881a73","system_id":"levelo_inurba_marseille","lat":43.32233,"lon":5.38414,"is_reserved":false,"is_disabled":false,"rental_uris":{"android":"levelo://app?vid=16578a9c-c460-4d38-be25-a20250881a73","ios":"levelo://app?vid=16578a9c-c460-4d38-be25-a20250881a73"},"vehicle_type_id":"4","last_reported":1748463093,"current_range_meters":9200,"station_id":"","pricing_plan_id":"cebpf4jnsgd1na2vs0mg"},{"bike_id":"e2ebb4fc-52b7-4765-a522-5fbddd6b48b6","system_id":"levelo_inurba_marseille","lat":43.29531,"lon":5.38546,"is_reserved":false,"is_disabled":false,"rental_uris":{"android":"levelo://app?vid=e2ebb4fc-52b7-4765-a522-5fbddd6b48b6","ios":"levelo://app?vid=e2ebb4fc-52b7-4765-a522-5fbddd6b48b6"},"vehicle_type_id":"4","last_reported":1748463093,"current_range_meters":9200,"station_id":"ce4bgih2rcd13ifvqba0","pricing_plan_id":"cebpf4jnsgd1na2vs0mg"},{"bike_id":"8e5885ce-edde-458f-9468-db58ada7cdb6","system_id":"levelo_inurba_marseille","lat":43.29595,"lon":5.38089,"is_reserved":false,"is_disabled":false,"rental_uris":{"android":"levelo://app?vid=8e5885ce-edde-458f-9468-db58ada7cdb6","ios":"levelo://app?vid=8e5885ce-edde-458f-9468-db58ada7cdb6"},"vehicle_type_id":"4","last_reported":1748463093,"current_range_meters":9200,"station_id":"ce4bgl12rcd13ifvqbo0","pricing_plan_id":"cebpf4jnsgd1na2vs0mg"},{"bike_id":"1c2331db-6afc-4812-8d29-cfcf4d8df420","system_id":"levelo_inurba_marseille","lat":43.2989,"lon":5.38894,"is_reserved":false,"is_disabled":false,"rental_uris":{"android":"levelo://app?vid=1c2331db-6afc-4812-8d29-cfcf4d8df420","ios":"levelo://app?vid=1c2331db-6afc-4812-8d29-cfcf4d8df420"},"vehicle_type_id":"4","last_reported":1748463093,"current_range_meters":9200,"station_id":"ce4bh392rcd13ifvqdl0","pricing_plan_id":"cebpf4jnsgd1na2vs0mg"},{"bike_id":"a2a91c7a-e3d6-424e-affe-31488fc11490","system_id":"levelo_inurba_marseille","lat":43.27373,"lon":5.36243,"is_reserved":false,"is_disabled":false,"rental_uris":{"android":"levelo://app?vid=a2a91c7a-e3d6-424e-affe-31488fc11490","ios":"levelo://app?vid=a2a91c7a-e3d6-424e-affe-31488fc11490"},"vehicle_type_id":"4","last_reported":1748463093,"current_range_meters":9200,"station_id":"ce4bhbh2rcd13ifvqeo0","pricing_plan_id":"cebpf4jnsgd1na2vs0mg"},{"bike_id":"3b6883fc-b1b8-4919-a71b-9e592f7bed7d","system_id":"levelo_inurba_marseille","lat":43.2861,"lon":5.35105,"is_reserved":false,"is_disabled":false,"rental_uris":{"android":"levelo://app?vid=3b6883fc-b1b8-4919-a71b-9e592f7bed7d","ios":"levelo://app?vid=3b6883fc-b1b8-4919-a71b-9e592f7bed7d"},"vehicle_type_id":"4","last_reported":1748463093,"current_range_meters":9200,"station_id":"ce4bhch2rcd13ifvqeug","pricing_plan_id":"cebpf4jnsgd1na2vs0mg"},{"bike_id":"f4056d53-d356-4b9a-9211-fbe28e21c8bf","system_id":"levelo_inurba_marseille","lat":43.24814,"lon":5.37457,"is_reserved":false,"is_disabled":false,"rental_uris":{"android":"levelo://app?vid=f4056d53-d356-4b9a-9211-fbe28e21c8bf","ios":"levelo://app?vid=f4056d53-d356-4b9a-9211-fbe28e21c8bf"},"vehicle_type_id":"4","last_reported":1748463093,"current_range_meters":9200,"station_id":"ce4bhgh2rcd13ifvqfb0","pricing_plan_id":"cebpf4jnsgd1na2vs0mg"},{"bike_id":"be4b293e-8744-4637-8ca2-a3e9032e9cec","system_id":"levelo_inurba_marseille","lat":43.22927,"lon":5.35385,"is_reserved":false,"is_disabled":false,"rental_uris":{"android":"levelo://app?vid=be4b293e-8744-4637-8ca2-a3e9032e9cec","ios":"levelo://app?vid=be4b293e-8744-4637-8ca2-a3e9032e9cec"},"vehicle_type_id":"4","last_reported":1748463093,"current_range_meters":9200,"station_id":"cpo3532slgdg3j2ikp40","pricing_plan_id":"cebpf4jnsgd1na2vs0mg"},{"bike_id":"f2b1b74a-98ed-411b-a481-f5ef39d819ee","system_id":"levelo_inurba_marseille","lat":43.29608,"lon":5.37732,"is_reserved":false,"is_disabled":false,"rental_uris":{"android":"levelo://app?vid=f2b1b74a-98ed-411b-a481-f5ef39d819ee","ios":"levelo://app?vid=f2b1b74a-98ed-411b-a481-f5ef39d819ee"},"vehicle_type_id":"4","last_reported":1748463093,"current_range_meters":9600,"station_id":"ce4bgi92rcd13ifvqb90","pricing_plan_id":"cebpf4jnsgd1na2vs0mg"},{"bike_id":"017f3649-6fb1-496d-bae6-2dceef2b4dae","system_id":"levelo_inurba_marseille","lat":43.29797,"lon":5.40407,"is_reserved":false,"is_disabled":false,"rental_uris":{"android":"levelo://app?vid=017f3649-6fb1-496d-bae6-2dceef2b4dae","ios":"levelo://app?vid=017f3649-6fb1-496d-bae6-2dceef2b4dae"},"vehicle_type_id":"4","last_reported":1748463093,"current_range_meters":9600,"station_id":"ce4bh112rcd13ifvqd90","pricing_plan_id":"cebpf4jnsgd1na2vs0mg"},{"bike_id":"f64945c1-ffc9-4789-9985-9fb4cbe7250b","system_id":"levelo_inurba_marseille","lat":43.30644,"lon":5.401,"is_reserved":false,"is_disabled":false,"rental_uris":{"android":"levelo://app?vid=f64945c1-ffc9-4789-9985-9fb4cbe7250b","ios":"levelo://app?vid=f64945c1-ffc9-4789-9985-9fb4cbe7250b"},"vehicle_type_id":"4","last_reported":1748463093,"current_range_meters":9600,"station_id":"ce4bh112rcd13ifvqda0","pricing_plan_id":"cebpf4jnsgd1na2vs0mg"},{"bike_id":"674fd476-3f2c-4822-92ba-db6c45ef6927","system_id":"levelo_inurba_marseille","lat":43.294128,"lon":5.386246,"is_reserved":false,"is_disabled":false,"rental_uris":{"android":"levelo://app?vid=674fd476-3f2c-4822-92ba-db6c45ef6927","ios":"levelo://app?vid=674fd476-3f2c-4822-92ba-db6c45ef6927"},"vehicle_type_id":"4","last_reported":1748463093,"current_range_meters":9600,"station_id":"ce4bh2h2rcd13ifvqdh0","pricing_plan_id":"cebpf4jnsgd1na2vs0mg"},{"bike_id":"1308050e-a7d8-427f-bac3-1f4f14fdad9a","system_id":"levelo_inurba_marseille","lat":43.27555,"lon":5.38421,"is_reserved":false,"is_disabled":false,"rental_uris":{"android":"levelo://app?vid=1308050e-a7d8-427f-bac3-1f4f14fdad9a","ios":"levelo://app?vid=1308050e-a7d8-427f-bac3-1f4f14fdad9a"},"vehicle_type_id":"4","last_reported":1748463093,"current_range_meters":9600,"station_id":"ce4bhh92rcd13ifvqfi0","pricing_plan_id":"cebpf4jnsgd1na2vs0mg"},{"bike_id":"47cb22f9-c6af-4c58-900b-156d0914853b","system_id":"levelo_inurba_marseille","lat":43.31362,"lon":5.38495,"is_reserved":false,"is_disabled":false,"rental_uris":{"android":"levelo://app?vid=47cb22f9-c6af-4c58-900b-156d0914853b","ios":"levelo://app?vid=47cb22f9-c6af-4c58-900b-156d0914853b"},"vehicle_type_id":"4","last_reported":1748463093,"current_range_meters":10000,"station_id":"ce4bgt92rcd13ifvqcf0","pricing_plan_id":"cebpf4jnsgd1na2vs0mg"},{"bike_id":"6b4c845b-28f2-4789-8025-0ebd2af33459","system_id":"levelo_inurba_marseille","lat":43.28106,"lon":5.37836,"is_reserved":false,"is_disabled":false,"rental_uris":{"android":"levelo://app?vid=6b4c845b-28f2-4789-8025-0ebd2af33459","ios":"levelo://app?vid=6b4c845b-28f2-4789-8025-0ebd2af33459"},"vehicle_type_id":"4","last_reported":1748463093,"current_range_meters":10000,"station_id":"ce4bha12rcd13ifvqee0","pricing_plan_id":"cebpf4jnsgd1na2vs0mg"},{"bike_id":"837ac862-978b-4d2d-bdcc-6ef41a6f0938","system_id":"levelo_inurba_marseille","lat":43.31713,"lon":5.43698,"is_reserved":false,"is_disabled":false,"rental_uris":{"android":"levelo://app?vid=837ac862-978b-4d2d-bdcc-6ef41a6f0938","ios":"levelo://app?vid=837ac862-978b-4d2d-bdcc-6ef41a6f0938"},"vehicle_type_id":"4","last_reported":1748463093,"current_range_meters":10000,"station_id":"ce4bhp92rcd13ifvqhcg","pricing_plan_id":"cebpf4jnsgd1na2vs0mg"},{"bike_id":"20216ba5-61bf-44de-983d-1d2b80d544f3","system_id":"levelo_inurba_marseille","lat":43.21755,"lon":5.34597,"is_reserved":false,"is_disabled":false,"rental_uris":{"android":"levelo://app?vid=20216ba5-61bf-44de-983d-1d2b80d544f3","ios":"levelo://app?vid=20216ba5-61bf-44de-983d-1d2b80d544f3"},"vehicle_type_id":"4","last_reported":1748463093,"current_range_meters":10000,"station_id":"st_cvj6r9ubvosntc0bgbag","pricing_plan_id":"cebpf4jnsgd1na2vs0mg"},{"bike_id":"6d2f49d4-4079-41f0-a189-90db2e417369","system_id":"levelo_inurba_marseille","lat":43.33023,"lon":5.390451,"is_reserved":false,"is_disabled":false,"rental_uris":{"android":"levelo://app?vid=6d2f49d4-4079-41f0-a189-90db2e417369","ios":"levelo://app?vid=6d2f49d4-4079-41f0-a189-90db2e417369"},"vehicle_type_id":"4","last_reported":1748463093,"current_range_meters":10800,"station_id":"","pricing_plan_id":"cebpf4jnsgd1na2vs0mg"},{"bike_id":"f3a56624-8e82-4d0b-8087-233885c2758d","system_id":"levelo_inurba_marseille","lat":43.29771,"lon":5.39153,"is_reserved":false,"is_disabled":false,"rental_uris":{"android":"levelo://app?vid=f3a56624-8e82-4d0b-8087-233885c2758d","ios":"levelo://app?vid=f3a56624-8e82-4d0b-8087-233885c2758d"},"vehicle_type_id":"4","last_reported":1748463093,"current_range_meters":10800,"station_id":"","pricing_plan_id":"cebpf4jnsgd1na2vs0mg"},{"bike_id":"2f650bb1-6027-4191-83d2-16315820a0a7","system_id":"levelo_inurba_marseille","lat":43.299865,"lon":5.373656,"is_reserved":false,"is_disabled":false,"rental_uris":{"android":"levelo://app?vid=2f650bb1-6027-4191-83d2-16315820a0a7","ios":"levelo://app?vid=2f650bb1-6027-4191-83d2-16315820a0a7"},"vehicle_type_id":"4","last_reported":1748463093,"current_range_meters":10800,"station_id":"","pricing_plan_id":"cebpf4jnsgd1na2vs0mg"},{"bike_id":"e96e6ad8-66a5-4a74-9b8a-04311f0e6684","system_id":"levelo_inurba_marseille","lat":43.330996,"lon":5.389506,"is_reserved":false,"is_disabled":false,"rental_uris":{"android":"levelo://app?vid=e96e6ad8-66a5-4a74-9b8a-04311f0e6684","ios":"levelo://app?vid=e96e6ad8-66a5-4a74-9b8a-04311f0e6684"},"vehicle_type_id":"4","last_reported":1748463093,"current_range_meters":10800,"station_id":"","pricing_plan_id":"cebpf4jnsgd1na2vs0mg"},{"bike_id":"c84f8025-f392-4efb-8662-faa8b7ebbd21","system_id":"levelo_inurba_marseille","lat":43.295066,"lon":5.374448,"is_reserved":false,"is_disabled":false,"rental_uris":{"android":"levelo://app?vid=c84f8025-f392-4efb-8662-faa8b7ebbd21","ios":"levelo://app?vid=c84f8025-f392-4efb-8662-faa8b7ebbd21"},"vehicle_type_id":"4","last_reported":1748463093,"current_range_meters":10800,"station_id":"ce4bgh92rcd13ifvqb50","pricing_plan_id":"cebpf4jnsgd1na2vs0mg"},{"bike_id":"b3896cb9-31cf-4f46-9386-86d6cddcef70","system_id":"levelo_inurba_marseille","lat":43.2762,"lon":5.36104,"is_reserved":false,"is_disabled":false,"rental_uris":{"android":"levelo://app?vid=b3896cb9-31cf-4f46-9386-86d6cddcef70","ios":"levelo://app?vid=b3896cb9-31cf-4f46-9386-86d6cddcef70"},"vehicle_type_id":"4","last_reported":1748463093,"current_range_meters":10800,"station_id":"ce4bgj92rcd13ifvqbe0","pricing_plan_id":"cebpf4jnsgd1na2vs0mg"},{"bike_id":"26f17bb6-711a-4221-b913-2f45cfa7753f","system_id":"levelo_inurba_marseille","lat":43.29711,"lon":5.37687,"is_reserved":false,"is_disabled":false,"rental_uris":{"android":"levelo://app?vid=26f17bb6-711a-4221-b913-2f45cfa7753f","ios":"levelo://app?vid=26f17bb6-711a-4221-b913-2f45cfa7753f"},"vehicle_type_id":"4","last_reported":1748463093,"current_range_meters":10800,"station_id":"ce4bgkh2rcd13ifvqbl0","pricing_plan_id":"cebpf4jnsgd1na2vs0mg"},{"bike_id":"20795f93-dfcb-4d17-a396-e3027ac3fe8f","system_id":"levelo_inurba_marseille","lat":43.28695,"lon":5.37398,"is_reserved":false,"is_disabled":false,"rental_uris":{"android":"levelo://app?vid=20795f93-dfcb-4d17-a396-e3027ac3fe8f","ios":"levelo://app?vid=20795f93-dfcb-4d17-a396-e3027ac3fe8f"},"vehicle_type_id":"4","last_reported":1748463093,"current_range_meters":10800,"station_id":"ce4bh3p2rcd13ifvqdq0","pricing_plan_id":"cebpf4jnsgd1na2vs0mg"},{"bike_id":"4cc61b8f-4c01-4546-8ebd-d18463ac0092","system_id":"levelo_inurba_marseille","lat":43.28993,"lon":5.35618,"is_reserved":false,"is_disabled":false,"rental_uris":{"android":"levelo://app?vid=4cc61b8f-4c01-4546-8ebd-d18463ac0092","ios":"levelo://app?vid=4cc61b8f-4c01-4546-8ebd-d18463ac0092"},"vehicle_type_id":"4","last_reported":1748463093,"current_range_meters":10800,"station_id":"ce4bhb92rcd13ifvqen0","pricing_plan_id":"cebpf4jnsgd1na2vs0mg"},{"bike_id":"11ab2fe2-df1c-4f5e-8061-3a7e90502bf7","system_id":"levelo_inurba_marseille","lat":43.26032,"lon":5.375471,"is_reserved":false,"is_disabled":false,"rental_uris":{"android":"levelo://app?vid=11ab2fe2-df1c-4f5e-8061-3a7e90502bf7","ios":"levelo://app?vid=11ab2fe2-df1c-4f5e-8061-3a7e90502bf7"},"vehicle_type_id":"4","last_reported":1748463093,"current_range_meters":10800,"station_id":"ce4bhgh2rcd13ifvqfa0","pricing_plan_id":"cebpf4jnsgd1na2vs0mg"},{"bike_id":"a73cadd1-5e79-4dfd-bc55-1522564c4df0","system_id":"levelo_inurba_marseille","lat":43.2551,"lon":5.37659,"is_reserved":false,"is_disabled":false,"rental_uris":{"android":"levelo://app?vid=a73cadd1-5e79-4dfd-bc55-1522564c4df0","ios":"levelo://app?vid=a73cadd1-5e79-4dfd-bc55-1522564c4df0"},"vehicle_type_id":"4","last_reported":1748463093,"current_range_meters":10800,"station_id":"ce4bhh12rcd13ifvqff0","pricing_plan_id":"cebpf4jnsgd1na2vs0mg"},{"bike_id":"247d9efb-32a4-4fb4-b454-4c5933d33414","system_id":"levelo_inurba_marseille","lat":43.2587,"lon":5.39892,"is_reserved":false,"is_disabled":false,"rental_uris":{"android":"levelo://app?vid=247d9efb-32a4-4fb4-b454-4c5933d33414","ios":"levelo://app?vid=247d9efb-32a4-4fb4-b454-4c5933d33414"},"vehicle_type_id":"4","last_reported":1748463093,"current_range_meters":10800,"station_id":"ce4bhl92rcd13ifvqghg","pricing_plan_id":"cebpf4jnsgd1na2vs0mg"},{"bike_id":"31c3b208-56cd-46d6-99c4-93414088c6fa","system_id":"levelo_inurba_marseille","lat":43.28155,"lon":5.42624,"is_reserved":false,"is_disabled":false,"rental_uris":{"android":"levelo://app?vid=31c3b208-56cd-46d6-99c4-93414088c6fa","ios":"levelo://app?vid=31c3b208-56cd-46d6-99c4-93414088c6fa"},"vehicle_type_id":"4","last_reported":1748463093,"current_range_meters":10800,"station_id":"ce4bhnh2rcd13ifvqgug","pricing_plan_id":"cebpf4jnsgd1na2vs0mg"},{"bike_id":"3b3f20fb-be76-498a-a9f5-ae1aa0fc1802","system_id":"levelo_inurba_marseille","lat":43.28005,"lon":5.41666,"is_reserved":false,"is_disabled":false,"rental_uris":{"android":"levelo://app?vid=3b3f20fb-be76-498a-a9f5-ae1aa0fc1802","ios":"levelo://app?vid=3b3f20fb-be76-498a-a9f5-ae1aa0fc1802"},"vehicle_type_id":"4","last_reported":1748463093,"current_range_meters":10800,"station_id":"ce4bho12rcd13ifvqh1g","pricing_plan_id":"cebpf4jnsgd1na2vs0mg"},{"bike_id":"e2695898-3d8e-445c-b107-83d988a84c50","system_id":"levelo_inurba_marseille","lat":43.28032,"lon":5.36952,"is_reserved":false,"is_disabled":false,"rental_uris":{"android":"levelo://app?vid=e2695898-3d8e-445c-b107-83d988a84c50","ios":"levelo://app?vid=e2695898-3d8e-445c-b107-83d988a84c50"},"vehicle_type_id":"4","last_reported":1748463093,"current_range_meters":11200,"station_id":"ce4bha12rcd13ifvqef0","pricing_plan_id":"cebpf4jnsgd1na2vs0mg"},{"bike_id":"08fbb7f0-10de-4946-a42f-890babd1b26f","system_id":"levelo_inurba_marseille","lat":43.27372,"lon":5.36249,"is_reserved":false,"is_disabled":false,"rental_uris":{"android":"levelo://app?vid=08fbb7f0-10de-4946-a42f-890babd1b26f","ios":"levelo://app?vid=08fbb7f0-10de-4946-a42f-890babd1b26f"},"vehicle_type_id":"4","last_reported":1748463093,"current_range_meters":11200,"station_id":"ce4bhbh2rcd13ifvqeo0","pricing_plan_id":"cebpf4jnsgd1na2vs0mg"},{"bike_id":"7325584c-55c0-4bdb-966d-aff769420239","system_id":"levelo_inurba_marseille","lat":43.27325,"lon":5.39114,"is_reserved":false,"is_disabled":false,"rental_uris":{"android":"levelo://app?vid=7325584c-55c0-4bdb-966d-aff769420239","ios":"levelo://app?vid=7325584c-55c0-4bdb-966d-aff769420239"},"vehicle_type_id":"4","last_reported":1748463093,"current_range_meters":11200,"station_id":"ce4bhgp2rcd13ifvqfe0","pricing_plan_id":"cebpf4jnsgd1na2vs0mg"},{"bike_id":"1839a72b-1f19-439f-ba17-e7974ed596b4","system_id":"levelo_inurba_marseille","lat":43.32109,"lon":5.37475,"is_reserved":false,"is_disabled":false,"rental_uris":{"android":"levelo://app?vid=1839a72b-1f19-439f-ba17-e7974ed596b4","ios":"levelo://app?vid=1839a72b-1f19-439f-ba17-e7974ed596b4"},"vehicle_type_id":"4","last_reported":1748463093,"current_range_meters":11600,"station_id":"","pricing_plan_id":"cebpf4jnsgd1na2vs0mg"},{"bike_id":"c6a3b10d-495e-4c55-a75b-775faec46d04","system_id":"levelo_inurba_marseille","lat":43.29607,"lon":5.38096,"is_reserved":false,"is_disabled":false,"rental_uris":{"android":"levelo://app?vid=c6a3b10d-495e-4c55-a75b-775faec46d04","ios":"levelo://app?vid=c6a3b10d-495e-4c55-a75b-775faec46d04"},"vehicle_type_id":"4","last_reported":1748463093,"current_range_meters":11600,"station_id":"ce4bgl12rcd13ifvqbo0","pricing_plan_id":"cebpf4jnsgd1na2vs0mg"},{"bike_id":"db46cd93-68ce-4316-819a-93bc3d72015d","system_id":"levelo_inurba_marseille","lat":43.24805,"lon":5.37454,"is_reserved":false,"is_disabled":false,"rental_uris":{"android":"levelo://app?vid=db46cd93-68ce-4316-819a-93bc3d72015d","ios":"levelo://app?vid=db46cd93-68ce-4316-819a-93bc3d72015d"},"vehicle_type_id":"4","last_reported":1748463093,"current_range_meters":11600,"station_id":"ce4bhgh2rcd13ifvqfb0","pricing_plan_id":"cebpf4jnsgd1na2vs0mg"},{"bike_id":"87bbad0c-8c28-481d-9de5-144650e2492b","system_id":"levelo_inurba_marseille","lat":43.24811,"lon":5.37471,"is_reserved":false,"is_disabled":false,"rental_uris":{"android":"levelo://app?vid=87bbad0c-8c28-481d-9de5-144650e2492b","ios":"levelo://app?vid=87bbad0c-8c28-481d-9de5-144650e2492b"},"vehicle_type_id":"4","last_reported":1748463093,"current_range_meters":11600,"station_id":"ce4bhgh2rcd13ifvqfb0","pricing_plan_id":"cebpf4jnsgd1na2vs0mg"},{"bike_id":"3f0b52ca-7a8f-4041-a40d-cfd32ceb637a","system_id":"levelo_inurba_marseille","lat":43.26195,"lon":5.3745,"is_reserved":false,"is_disabled":false,"rental_uris":{"android":"levelo://app?vid=3f0b52ca-7a8f-4041-a40d-cfd32ceb637a","ios":"levelo://app?vid=3f0b52ca-7a8f-4041-a40d-cfd32ceb637a"},"vehicle_type_id":"4","last_reported":1748463093,"current_range_meters":11600,"station_id":"ce4bhgp2rcd13ifvqfc0","pricing_plan_id":"cebpf4jnsgd1na2vs0mg"},{"bike_id":"61b14401-4371-410e-97a4-9d823c67ce1c","system_id":"levelo_inurba_marseille","lat":43.27575,"lon":5.38435,"is_reserved":false,"is_disabled":false,"rental_uris":{"android":"levelo://app?vid=61b14401-4371-410e-97a4-9d823c67ce1c","ios":"levelo://app?vid=61b14401-4371-410e-97a4-9d823c67ce1c"},"vehicle_type_id":"4","last_reported":1748463093,"current_range_meters":11600,"station_id":"ce4bhh92rcd13ifvqfi0","pricing_plan_id":"cebpf4jnsgd1na2vs0mg"},{"bike_id":"22771043-09b1-43eb-91e0-5c845144e1e3","system_id":"levelo_inurba_marseille","lat":43.27685,"lon":5.40894,"is_reserved":false,"is_disabled":false,"rental_uris":{"android":"levelo://app?vid=22771043-09b1-43eb-91e0-5c845144e1e3","ios":"levelo://app?vid=22771043-09b1-43eb-91e0-5c845144e1e3"},"vehicle_type_id":"4","last_reported":1748463093,"current_range_meters":12000,"station_id":"","pricing_plan_id":"cebpf4jnsgd1na2vs0mg"},{"bike_id":"3013266d-03ec-4779-8d20-2e5da0a480f7","system_id":"levelo_inurba_marseille","lat":43.31658,"lon":5.38791,"is_reserved":false,"is_disabled":false,"rental_uris":{"android":"levelo://app?vid=3013266d-03ec-4779-8d20-2e5da0a480f7","ios":"levelo://app?vid=3013266d-03ec-4779-8d20-2e5da0a480f7"},"vehicle_type_id":"4","last_reported":1748463093,"current_range_meters":12000,"station_id":"","pricing_plan_id":"cebpf4jnsgd1na2vs0mg"},{"bike_id":"96bf7d08-63e4-41b5-823b-055035469b02","system_id":"levelo_inurba_marseille","lat":43.29535,"lon":5.38545,"is_reserved":false,"is_disabled":false,"rental_uris":{"android":"levelo://app?vid=96bf7d08-63e4-41b5-823b-055035469b02","ios":"levelo://app?vid=96bf7d08-63e4-41b5-823b-055035469b02"},"vehicle_type_id":"4","last_reported":1748463093,"current_range_meters":12000,"station_id":"ce4bgih2rcd13ifvqba0","pricing_plan_id":"cebpf4jnsgd1na2vs0mg"},{"bike_id":"b179e4b7-ff3b-40e2-b4b3-7c30eca12cc5","system_id":"levelo_inurba_marseille","lat":43.28485,"lon":5.3842,"is_reserved":false,"is_disabled":false,"rental_uris":{"android":"levelo://app?vid=b179e4b7-ff3b-40e2-b4b3-7c30eca12cc5","ios":"levelo://app?vid=b179e4b7-ff3b-40e2-b4b3-7c30eca12cc5"},"vehicle_type_id":"4","last_reported":1748463093,"current_range_meters":12000,"station_id":"ce4bh512rcd13ifvqe3g","pricing_plan_id":"cebpf4jnsgd1na2vs0mg"},{"bike_id":"a2a40c2d-5bc3-4a02-8059-5bc34e49d193","system_id":"levelo_inurba_marseille","lat":43.28077,"lon":5.37834,"is_reserved":false,"is_disabled":false,"rental_uris":{"android":"levelo://app?vid=a2a40c2d-5bc3-4a02-8059-5bc34e49d193","ios":"levelo://app?vid=a2a40c2d-5bc3-4a02-8059-5bc34e49d193"},"vehicle_type_id":"4","last_reported":1748463093,"current_range_meters":12000,"station_id":"ce4bha12rcd13ifvqee0","pricing_plan_id":"cebpf4jnsgd1na2vs0mg"},{"bike_id":"640ab82b-53f0-4a38-866a-52d0678e2c7f","system_id":"levelo_inurba_marseille","lat":43.280288,"lon":5.369407,"is_reserved":false,"is_disabled":false,"rental_uris":{"android":"levelo://app?vid=640ab82b-53f0-4a38-866a-52d0678e2c7f","ios":"levelo://app?vid=640ab82b-53f0-4a38-866a-52d0678e2c7f"},"vehicle_type_id":"4","last_reported":1748463093,"current_range_meters":12000,"station_id":"ce4bha12rcd13ifvqef0","pricing_plan_id":"cebpf4jnsgd1na2vs0mg"},{"bike_id":"64c38c6e-598d-4c31-9505-5867e96a2810","system_id":"levelo_inurba_marseille","lat":43.28448,"lon":5.35881,"is_reserved":false,"is_disabled":false,"rental_uris":{"android":"levelo://app?vid=64c38c6e-598d-4c31-9505-5867e96a2810","ios":"levelo://app?vid=64c38c6e-598d-4c31-9505-5867e96a2810"},"vehicle_type_id":"4","last_reported":1748463093,"current_range_meters":12000,"station_id":"ce4bhah2rcd13ifvqei0","pricing_plan_id":"cebpf4jnsgd1na2vs0mg"},{"bike_id":"7e21b4c5-84e6-49b9-999a-4fa6883be7c5","system_id":"levelo_inurba_marseille","lat":43.28418,"lon":5.34982,"is_reserved":false,"is_disabled":false,"rental_uris":{"android":"levelo://app?vid=7e21b4c5-84e6-49b9-999a-4fa6883be7c5","ios":"levelo://app?vid=7e21b4c5-84e6-49b9-999a-4fa6883be7c5"},"vehicle_type_id":"4","last_reported":1748463093,"current_range_meters":12000,"station_id":"ce4bhbh2rcd13ifvqepg","pricing_plan_id":"cebpf4jnsgd1na2vs0mg"},{"bike_id":"30bab0e6-fb61-482b-bba7-ea0f0434c289","system_id":"levelo_inurba_marseille","lat":43.24546,"lon":5.3952,"is_reserved":false,"is_disabled":false,"rental_uris":{"android":"levelo://app?vid=30bab0e6-fb61-482b-bba7-ea0f0434c289","ios":"levelo://app?vid=30bab0e6-fb61-482b-bba7-ea0f0434c289"},"vehicle_type_id":"4","last_reported":1748463093,"current_range_meters":12000,"station_id":"ce4bhlp2rcd13ifvqgjg","pricing_plan_id":"cebpf4jnsgd1na2vs0mg"},{"bike_id":"5bda20a1-4642-4989-8aa9-61ce114b94f8","system_id":"levelo_inurba_marseille","lat":43.24182,"lon":5.39729,"is_reserved":false,"is_disabled":false,"rental_uris":{"android":"levelo://app?vid=5bda20a1-4642-4989-8aa9-61ce114b94f8","ios":"levelo://app?vid=5bda20a1-4642-4989-8aa9-61ce114b94f8"},"vehicle_type_id":"4","last_reported":1748463093,"current_range_meters":12000,"station_id":"ce4bhn12rcd13ifvqgpg","pricing_plan_id":"cebpf4jnsgd1na2vs0mg"},{"bike_id":"47f55a1f-8588-4781-bc30-f75474d90e6f","system_id":"levelo_inurba_marseille","lat":43.24188,"lon":5.39726,"is_reserved":false,"is_disabled":false,"rental_uris":{"android":"levelo://app?vid=47f55a1f-8588-4781-bc30-f75474d90e6f","ios":"levelo://app?vid=47f55a1f-8588-4781-bc30-f75474d90e6f"},"vehicle_type_id":"4","last_reported":1748463093,"current_range_meters":12000,"station_id":"ce4bhn12rcd13ifvqgpg","pricing_plan_id":"cebpf4jnsgd1na2vs0mg"},{"bike_id":"419fc225-c3a2-4a0f-9816-8f1f2bc41e75","system_id":"levelo_inurba_marseille","lat":43.23204,"lon":5.35551,"is_reserved":false,"is_disabled":false,"rental_uris":{"android":"levelo://app?vid=419fc225-c3a2-4a0f-9816-8f1f2bc41e75","ios":"levelo://app?vid=419fc225-c3a2-4a0f-9816-8f1f2bc41e75"},"vehicle_type_id":"4","last_reported":1748463093,"current_range_meters":12000,"station_id":"ce4bhu92rcd13ifvqi70","pricing_plan_id":"cebpf4jnsgd1na2vs0mg"},{"bike_id":"a7b28dad-b0e3-4373-84c9-ca1db05de1f6","system_id":"levelo_inurba_marseille","lat":43.30002,"lon":5.38369,"is_reserved":false,"is_disabled":false,"rental_uris":{"android":"levelo://app?vid=a7b28dad-b0e3-4373-84c9-ca1db05de1f6","ios":"levelo://app?vid=a7b28dad-b0e3-4373-84c9-ca1db05de1f6"},"vehicle_type_id":"4","last_reported":1748463093,"current_range_meters":12400,"station_id":"","pricing_plan_id":"cebpf4jnsgd1na2vs0mg"},{"bike_id":"7270ff1a-574f-4ae9-8b4f-de038997e410","system_id":"levelo_inurba_marseille","lat":43.30863,"lon":5.3963,"is_reserved":false,"is_disabled":false,"rental_uris":{"android":"levelo://app?vid=7270ff1a-574f-4ae9-8b4f-de038997e410","ios":"levelo://app?vid=7270ff1a-574f-4ae9-8b4f-de038997e410"},"vehicle_type_id":"4","last_reported":1748463093,"current_range_meters":12400,"station_id":"","pricing_plan_id":"cebpf4jnsgd1na2vs0mg"},{"bike_id":"63616c72-9029-44e6-98de-a040d6b5ecfb","system_id":"levelo_inurba_marseille","lat":43.3216,"lon":5.36747,"is_reserved":false,"is_disabled":false,"rental_uris":{"android":"levelo://app?vid=63616c72-9029-44e6-98de-a040d6b5ecfb","ios":"levelo://app?vid=63616c72-9029-44e6-98de-a040d6b5ecfb"},"vehicle_type_id":"4","last_reported":1748463093,"current_range_meters":12400,"station_id":"","pricing_plan_id":"cebpf4jnsgd1na2vs0mg"},{"bike_id":"34947d76-9f89-40c9-a3f1-086d000aa683","system_id":"levelo_inurba_marseille","lat":43.29536,"lon":5.38538,"is_reserved":false,"is_disabled":false,"rental_uris":{"android":"levelo://app?vid=34947d76-9f89-40c9-a3f1-086d000aa683","ios":"levelo://app?vid=34947d76-9f89-40c9-a3f1-086d000aa683"},"vehicle_type_id":"4","last_reported":1748463093,"current_range_meters":12400,"station_id":"ce4bgih2rcd13ifvqba0","pricing_plan_id":"cebpf4jnsgd1na2vs0mg"},{"bike_id":"002aa8c7-040b-4757-8331-bb1615803057","system_id":"levelo_inurba_marseille","lat":43.29789,"lon":5.38087,"is_reserved":false,"is_disabled":false,"rental_uris":{"android":"levelo://app?vid=002aa8c7-040b-4757-8331-bb1615803057","ios":"levelo://app?vid=002aa8c7-040b-4757-8331-bb1615803057"},"vehicle_type_id":"4","last_reported":1748463093,"current_range_meters":12400,"station_id":"ce4bgip2rcd13ifvqbb0","pricing_plan_id":"cebpf4jnsgd1na2vs0mg"},{"bike_id":"94a05a87-4da6-436f-a9f9-a9eb6f84315b","system_id":"levelo_inurba_marseille","lat":43.30783,"lon":5.38164,"is_reserved":false,"is_disabled":false,"rental_uris":{"android":"levelo://app?vid=94a05a87-4da6-436f-a9f9-a9eb6f84315b","ios":"levelo://app?vid=94a05a87-4da6-436f-a9f9-a9eb6f84315b"},"vehicle_type_id":"4","last_reported":1748463093,"current_range_meters":12400,"station_id":"ce4bgt12rcd13ifvqce0","pricing_plan_id":"cebpf4jnsgd1na2vs0mg"},{"bike_id":"f1703d91-9edc-402b-8253-f7082d8db3df","system_id":"levelo_inurba_marseille","lat":43.28104,"lon":5.37837,"is_reserved":false,"is_disabled":false,"rental_uris":{"android":"levelo://app?vid=f1703d91-9edc-402b-8253-f7082d8db3df","ios":"levelo://app?vid=f1703d91-9edc-402b-8253-f7082d8db3df"},"vehicle_type_id":"4","last_reported":1748463093,"current_range_meters":12400,"station_id":"ce4bha12rcd13ifvqee0","pricing_plan_id":"cebpf4jnsgd1na2vs0mg"},{"bike_id":"847031ec-c235-4f90-8158-8e4eae043a67","system_id":"levelo_inurba_marseille","lat":43.28936,"lon":5.366372,"is_reserved":false,"is_disabled":false,"rental_uris":{"android":"levelo://app?vid=847031ec-c235-4f90-8158-8e4eae043a67","ios":"levelo://app?vid=847031ec-c235-4f90-8158-8e4eae043a67"},"vehicle_type_id":"4","last_reported":1748463093,"current_range_meters":12400,"station_id":"ce4bhap2rcd13ifvqek0","pricing_plan_id":"cebpf4jnsgd1na2vs0mg"},{"bike_id":"c791b162-f969-4a54-9010-7bbc6e180952","system_id":"levelo_inurba_marseille","lat":43.2481,"lon":5.37454,"is_reserved":false,"is_disabled":false,"rental_uris":{"android":"levelo://app?vid=c791b162-f969-4a54-9010-7bbc6e180952","ios":"levelo://app?vid=c791b162-f969-4a54-9010-7bbc6e180952"},"vehicle_type_id":"4","last_reported":1748463093,"current_range_meters":12400,"station_id":"ce4bhgh2rcd13ifvqfb0","pricing_plan_id":"cebpf4jnsgd1na2vs0mg"},{"bike_id":"aadac860-d43c-4062-897b-20d300d16764","system_id":"levelo_inurba_marseille","lat":43.26799,"lon":5.4026,"is_reserved":false,"is_disabled":false,"rental_uris":{"android":"levelo://app?vid=aadac860-d43c-4062-897b-20d300d16764","ios":"levelo://app?vid=aadac860-d43c-4062-897b-20d300d16764"},"vehicle_type_id":"4","last_reported":1748463093,"current_range_meters":12400,"station_id":"ce501612rcd8frsf0b60","pricing_plan_id":"cebpf4jnsgd1na2vs0mg"},{"bike_id":"a8df0f50-e238-464d-9f62-ca42e984d069","system_id":"levelo_inurba_marseille","lat":43.295288,"lon":5.385412,"is_reserved":false,"is_disabled":false,"rental_uris":{"android":"levelo://app?vid=a8df0f50-e238-464d-9f62-ca42e984d069","ios":"levelo://app?vid=a8df0f50-e238-464d-9f62-ca42e984d069"},"vehicle_type_id":"4","last_reported":1748463093,"current_range_meters":12800,"station_id":"ce4bgih2rcd13ifvqba0","pricing_plan_id":"cebpf4jnsgd1na2vs0mg"},{"bike_id":"c8f8cada-952b-4566-ac70-2030e1bf4cd7","system_id":"levelo_inurba_marseille","lat":43.296,"lon":5.38099,"is_reserved":false,"is_disabled":false,"rental_uris":{"android":"levelo://app?vid=c8f8cada-952b-4566-ac70-2030e1bf4cd7","ios":"levelo://app?vid=c8f8cada-952b-4566-ac70-2030e1bf4cd7"},"vehicle_type_id":"4","last_reported":1748463093,"current_range_meters":12800,"station_id":"ce4bgl12rcd13ifvqbo0","pricing_plan_id":"cebpf4jnsgd1na2vs0mg"},{"bike_id":"0603fdef-962c-40c4-b855-4c9e46b350ac","system_id":"levelo_inurba_marseille","lat":43.29255,"lon":5.38442,"is_reserved":false,"is_disabled":false,"rental_uris":{"android":"levelo://app?vid=0603fdef-962c-40c4-b855-4c9e46b350ac","ios":"levelo://app?vid=0603fdef-962c-40c4-b855-4c9e46b350ac"},"vehicle_type_id":"4","last_reported":1748463093,"current_range_meters":12800,"station_id":"ce4bh692rcd13ifvqea0","pricing_plan_id":"cebpf4jnsgd1na2vs0mg"},{"bike_id":"b47ce3f2-45e6-4352-bf69-d101f5f5325b","system_id":"levelo_inurba_marseille","lat":43.27367,"lon":5.36247,"is_reserved":false,"is_disabled":false,"rental_uris":{"android":"levelo://app?vid=b47ce3f2-45e6-4352-bf69-d101f5f5325b","ios":"levelo://app?vid=b47ce3f2-45e6-4352-bf69-d101f5f5325b"},"vehicle_type_id":"4","last_reported":1748463093,"current_range_meters":12800,"station_id":"ce4bhbh2rcd13ifvqeo0","pricing_plan_id":"cebpf4jnsgd1na2vs0mg"},{"bike_id":"64b22879-d403-45ea-8808-ac2a00a62108","system_id":"levelo_inurba_marseille","lat":43.29223,"lon":5.36073,"is_reserved":false,"is_disabled":false,"rental_uris":{"android":"levelo://app?vid=64b22879-d403-45ea-8808-ac2a00a62108","ios":"levelo://app?vid=64b22879-d403-45ea-8808-ac2a00a62108"},"vehicle_type_id":"4","last_reported":1748463093,"current_range_meters":12800,"station_id":"ce4bhbh2rcd13ifvqeqg","pricing_plan_id":"cebpf4jnsgd1na2vs0mg"},{"bike_id":"0b3c6073-412c-4928-932e-c191cc6778a6","system_id":"levelo_inurba_marseille","lat":43.24812,"lon":5.37456,"is_reserved":false,"is_disabled":false,"rental_uris":{"android":"levelo://app?vid=0b3c6073-412c-4928-932e-c191cc6778a6","ios":"levelo://app?vid=0b3c6073-412c-4928-932e-c191cc6778a6"},"vehicle_type_id":"4","last_reported":1748463093,"current_range_meters":12800,"station_id":"ce4bhgh2rcd13ifvqfb0","pricing_plan_id":"cebpf4jnsgd1na2vs0mg"},{"bike_id":"25c8e570-5052-40c4-b2f0-e69c7dc4b204","system_id":"levelo_inurba_marseille","lat":43.26195,"lon":5.37444,"is_reserved":false,"is_disabled":false,"rental_uris":{"android":"levelo://app?vid=25c8e570-5052-40c4-b2f0-e69c7dc4b204","ios":"levelo://app?vid=25c8e570-5052-40c4-b2f0-e69c7dc4b204"},"vehicle_type_id":"4","last_reported":1748463093,"current_range_meters":12800,"station_id":"ce4bhgp2rcd13ifvqfc0","pricing_plan_id":"cebpf4jnsgd1na2vs0mg"},{"bike_id":"cf56ca3a-9667-40b3-b31a-fbe1289b5f3b","system_id":"levelo_inurba_marseille","lat":43.27619,"lon":5.36102,"is_reserved":false,"is_disabled":false,"rental_uris":{"android":"levelo://app?vid=cf56ca3a-9667-40b3-b31a-fbe1289b5f3b","ios":"levelo://app?vid=cf56ca3a-9667-40b3-b31a-fbe1289b5f3b"},"vehicle_type_id":"4","last_reported":1748463093,"current_range_meters":13600,"station_id":"ce4bgj92rcd13ifvqbe0","pricing_plan_id":"cebpf4jnsgd1na2vs0mg"},{"bike_id":"5dc8f759-3804-479b-acab-92a17e89526f","system_id":"levelo_inurba_marseille","lat":43.313564,"lon":5.384928,"is_reserved":false,"is_disabled":false,"rental_uris":{"android":"levelo://app?vid=5dc8f759-3804-479b-acab-92a17e89526f","ios":"levelo://app?vid=5dc8f759-3804-479b-acab-92a17e89526f"},"vehicle_type_id":"4","last_reported":1748463093,"current_range_meters":13600,"station_id":"ce4bgt92rcd13ifvqcf0","pricing_plan_id":"cebpf4jnsgd1na2vs0mg"},{"bike_id":"5e319154-3254-42b6-934e-5d9b1c4e2070","system_id":"levelo_inurba_marseille","lat":43.3088,"lon":5.39652,"is_reserved":false,"is_disabled":false,"rental_uris":{"android":"levelo://app?vid=5e319154-3254-42b6-934e-5d9b1c4e2070","ios":"levelo://app?vid=5e319154-3254-42b6-934e-5d9b1c4e2070"},"vehicle_type_id":"4","last_reported":1748463093,"current_range_meters":13600,"station_id":"ce4bh012rcd13ifvqcv0","pricing_plan_id":"cebpf4jnsgd1na2vs0mg"},{"bike_id":"62b6aeb1-c229-48d0-ad99-4056a73a8dce","system_id":"levelo_inurba_marseille","lat":43.29536,"lon":5.38856,"is_reserved":false,"is_disabled":false,"rental_uris":{"android":"levelo://app?vid=62b6aeb1-c229-48d0-ad99-4056a73a8dce","ios":"levelo://app?vid=62b6aeb1-c229-48d0-ad99-4056a73a8dce"},"vehicle_type_id":"4","last_reported":1748463093,"current_range_meters":13600,"station_id":"ce4bh3p2rcd13ifvqdp0","pricing_plan_id":"cebpf4jnsgd1na2vs0mg"},{"bike_id":"87eee157-b9a1-4629-a67f-35c0758860ff","system_id":"levelo_inurba_marseille","lat":43.292572,"lon":5.384301,"is_reserved":false,"is_disabled":false,"rental_uris":{"android":"levelo://app?vid=87eee157-b9a1-4629-a67f-35c0758860ff","ios":"levelo://app?vid=87eee157-b9a1-4629-a67f-35c0758860ff"},"vehicle_type_id":"4","last_reported":1748463093,"current_range_meters":13600,"station_id":"ce4bh692rcd13ifvqea0","pricing_plan_id":"cebpf4jnsgd1na2vs0mg"},{"bike_id":"6aee7286-7c1c-4b5f-a14b-2b7840021176","system_id":"levelo_inurba_marseille","lat":43.271791,"lon":5.410001,"is_reserved":false,"is_disabled":false,"rental_uris":{"android":"levelo://app?vid=6aee7286-7c1c-4b5f-a14b-2b7840021176","ios":"levelo://app?vid=6aee7286-7c1c-4b5f-a14b-2b7840021176"},"vehicle_type_id":"4","last_reported":1748463093,"current_range_meters":13600,"station_id":"ce4bhl12rcd13ifvqgf0","pricing_plan_id":"cebpf4jnsgd1na2vs0mg"},{"bike_id":"2b8cf201-3f6a-4001-9ca8-0b486ebce4e1","system_id":"levelo_inurba_marseille","lat":43.281562,"lon":5.42647,"is_reserved":false,"is_disabled":false,"rental_uris":{"android":"levelo://app?vid=2b8cf201-3f6a-4001-9ca8-0b486ebce4e1","ios":"levelo://app?vid=2b8cf201-3f6a-4001-9ca8-0b486ebce4e1"},"vehicle_type_id":"4","last_reported":1748463093,"current_range_meters":13600,"station_id":"ce4bhnh2rcd13ifvqgug","pricing_plan_id":"cebpf4jnsgd1na2vs0mg"},{"bike_id":"1d5a8c95-86e3-4ea9-b788-f9a593b643f3","system_id":"levelo_inurba_marseille","lat":43.31165,"lon":5.38714,"is_reserved":false,"is_disabled":false,"rental_uris":{"android":"levelo://app?vid=1d5a8c95-86e3-4ea9-b788-f9a593b643f3","ios":"levelo://app?vid=1d5a8c95-86e3-4ea9-b788-f9a593b643f3"},"vehicle_type_id":"4","last_reported":1748463093,"current_range_meters":14000,"station_id":"ce4bgv12rcd13ifvqcp0","pricing_plan_id":"cebpf4jnsgd1na2vs0mg"},{"bike_id":"1aa239ac-1011-49f7-adfd-feb01c1694e9","system_id":"levelo_inurba_marseille","lat":43.281029,"lon":5.378404,"is_reserved":false,"is_disabled":false,"rental_uris":{"android":"levelo://app?vid=1aa239ac-1011-49f7-adfd-feb01c1694e9","ios":"levelo://app?vid=1aa239ac-1011-49f7-adfd-feb01c1694e9"},"vehicle_type_id":"4","last_reported":1748463093,"current_range_meters":14000,"station_id":"ce4bha12rcd13ifvqee0","pricing_plan_id":"cebpf4jnsgd1na2vs0mg"},{"bike_id":"c57c718f-151a-4fc6-8de3-82ed5d4966e3","system_id":"levelo_inurba_marseille","lat":43.28111,"lon":5.37839,"is_reserved":false,"is_disabled":false,"rental_uris":{"android":"levelo://app?vid=c57c718f-151a-4fc6-8de3-82ed5d4966e3","ios":"levelo://app?vid=c57c718f-151a-4fc6-8de3-82ed5d4966e3"},"vehicle_type_id":"4","last_reported":1748463093,"current_range_meters":14000,"station_id":"ce4bha12rcd13ifvqee0","pricing_plan_id":"cebpf4jnsgd1na2vs0mg"},{"bike_id":"cc82bd18-1b33-41c6-a2e5-a5acd49b702d","system_id":"levelo_inurba_marseille","lat":43.28035,"lon":5.36947,"is_reserved":false,"is_disabled":false,"rental_uris":{"android":"levelo://app?vid=cc82bd18-1b33-41c6-a2e5-a5acd49b702d","ios":"levelo://app?vid=cc82bd18-1b33-41c6-a2e5-a5acd49b702d"},"vehicle_type_id":"4","last_reported":1748463093,"current_range_meters":14000,"station_id":"ce4bha12rcd13ifvqef0","pricing_plan_id":"cebpf4jnsgd1na2vs0mg"},{"bike_id":"d6ebabd0-55dc-4460-98a4-11127636995e","system_id":"levelo_inurba_marseille","lat":43.27835,"lon":5.39208,"is_reserved":false,"is_disabled":false,"rental_uris":{"android":"levelo://app?vid=d6ebabd0-55dc-4460-98a4-11127636995e","ios":"levelo://app?vid=d6ebabd0-55dc-4460-98a4-11127636995e"},"vehicle_type_id":"4","last_reported":1748463093,"current_range_meters":14000,"station_id":"ce4bhjp2rcd13ifvqga0","pricing_plan_id":"cebpf4jnsgd1na2vs0mg"},{"bike_id":"b7d0182b-44ef-4781-8968-d21fb3c02045","system_id":"levelo_inurba_marseille","lat":43.25087,"lon":5.39519,"is_reserved":false,"is_disabled":false,"rental_uris":{"android":"levelo://app?vid=b7d0182b-44ef-4781-8968-d21fb3c02045","ios":"levelo://app?vid=b7d0182b-44ef-4781-8968-d21fb3c02045"},"vehicle_type_id":"4","last_reported":1748463093,"current_range_meters":14000,"station_id":"ce4bhm12rcd13ifvqgkg","pricing_plan_id":"cebpf4jnsgd1na2vs0mg"},{"bike_id":"636b769d-0333-446b-8474-e92d94c129fb","system_id":"levelo_inurba_marseille","lat":43.28148,"lon":5.42638,"is_reserved":false,"is_disabled":false,"rental_uris":{"android":"levelo://app?vid=636b769d-0333-446b-8474-e92d94c129fb","ios":"levelo://app?vid=636b769d-0333-446b-8474-e92d94c129fb"},"vehicle_type_id":"4","last_reported":1748463093,"current_range_meters":14000,"station_id":"ce4bhnh2rcd13ifvqgug","pricing_plan_id":"cebpf4jnsgd1na2vs0mg"},{"bike_id":"14ae7dda-70b1-4b33-86c1-9a8cfee4783f","system_id":"levelo_inurba_marseille","lat":43.24082,"lon":5.37765,"is_reserved":false,"is_disabled":false,"rental_uris":{"android":"levelo://app?vid=14ae7dda-70b1-4b33-86c1-9a8cfee4783f","ios":"levelo://app?vid=14ae7dda-70b1-4b33-86c1-9a8cfee4783f"},"vehicle_type_id":"4","last_reported":1748463093,"current_range_meters":14000,"station_id":"ce4bhnp2rcd13ifvqgvg","pricing_plan_id":"cebpf4jnsgd1na2vs0mg"},{"bike_id":"4213c940-dc97-46db-a6a4-052614fff09e","system_id":"levelo_inurba_marseille","lat":43.276141,"lon":5.361037,"is_reserved":false,"is_disabled":false,"rental_uris":{"android":"levelo://app?vid=4213c940-dc97-46db-a6a4-052614fff09e","ios":"levelo://app?vid=4213c940-dc97-46db-a6a4-052614fff09e"},"vehicle_type_id":"4","last_reported":1748463093,"current_range_meters":14400,"station_id":"ce4bgj92rcd13ifvqbe0","pricing_plan_id":"cebpf4jnsgd1na2vs0mg"},{"bike_id":"4e0ef700-9d74-4ca4-be65-142493faeb7b","system_id":"levelo_inurba_marseille","lat":43.29909,"lon":5.37468,"is_reserved":false,"is_disabled":false,"rental_uris":{"android":"levelo://app?vid=4e0ef700-9d74-4ca4-be65-142493faeb7b","ios":"levelo://app?vid=4e0ef700-9d74-4ca4-be65-142493faeb7b"},"vehicle_type_id":"4","last_reported":1748463093,"current_range_meters":14400,"station_id":"ce4bgjh2rcd13ifvqbg0","pricing_plan_id":"cebpf4jnsgd1na2vs0mg"},{"bike_id":"926b9d63-01fb-4a84-b7bc-8378220ea7e7","system_id":"levelo_inurba_marseille","lat":43.29852,"lon":5.36283,"is_reserved":false,"is_disabled":false,"rental_uris":{"android":"levelo://app?vid=926b9d63-01fb-4a84-b7bc-8378220ea7e7","ios":"levelo://app?vid=926b9d63-01fb-4a84-b7bc-8378220ea7e7"},"vehicle_type_id":"4","last_reported":1748463093,"current_range_meters":14400,"station_id":"ce4bgpp2rcd13ifvqc3g","pricing_plan_id":"cebpf4jnsgd1na2vs0mg"},{"bike_id":"4efe5bc4-a8d1-4889-b0b6-0ef133d73d9e","system_id":"levelo_inurba_marseille","lat":43.29428,"lon":5.38618,"is_reserved":false,"is_disabled":false,"rental_uris":{"android":"levelo://app?vid=4efe5bc4-a8d1-4889-b0b6-0ef133d73d9e","ios":"levelo://app?vid=4efe5bc4-a8d1-4889-b0b6-0ef133d73d9e"},"vehicle_type_id":"4","last_reported":1748463093,"current_range_meters":14400,"station_id":"ce4bh2h2rcd13ifvqdh0","pricing_plan_id":"cebpf4jnsgd1na2vs0mg"},{"bike_id":"d0092243-69a9-45a7-91ff-7b501ec5ab85","system_id":"levelo_inurba_marseille","lat":43.29574,"lon":5.3997,"is_reserved":false,"is_disabled":false,"rental_uris":{"android":"levelo://app?vid=d0092243-69a9-45a7-91ff-7b501ec5ab85","ios":"levelo://app?vid=d0092243-69a9-45a7-91ff-7b501ec5ab85"},"vehicle_type_id":"4","last_reported":1748463093,"current_range_meters":14400,"station_id":"ce4bh312rcd13ifvqdj0","pricing_plan_id":"cebpf4jnsgd1na2vs0mg"},{"bike_id":"3a44b427-635c-4151-a15f-521b47226020","system_id":"levelo_inurba_marseille","lat":43.2954,"lon":5.38536,"is_reserved":false,"is_disabled":false,"rental_uris":{"android":"levelo://app?vid=3a44b427-635c-4151-a15f-521b47226020","ios":"levelo://app?vid=3a44b427-635c-4151-a15f-521b47226020"},"vehicle_type_id":"4","last_reported":1748463093,"current_range_meters":14800,"station_id":"ce4bgih2rcd13ifvqba0","pricing_plan_id":"cebpf4jnsgd1na2vs0mg"},{"bike_id":"15bf3e40-09e3-4e7b-bfcf-690caee25668","system_id":"levelo_inurba_marseille","lat":43.31716,"lon":5.3775,"is_reserved":false,"is_disabled":false,"rental_uris":{"android":"levelo://app?vid=15bf3e40-09e3-4e7b-bfcf-690caee25668","ios":"levelo://app?vid=15bf3e40-09e3-4e7b-bfcf-690caee25668"},"vehicle_type_id":"4","last_reported":1748463093,"current_range_meters":14800,"station_id":"ce4bgth2rcd13ifvqch0","pricing_plan_id":"cebpf4jnsgd1na2vs0mg"},{"bike_id":"a1154aa5-6ab6-4358-9e67-6d5b2315a3d0","system_id":"levelo_inurba_marseille","lat":43.3117,"lon":5.38719,"is_reserved":false,"is_disabled":false,"rental_uris":{"android":"levelo://app?vid=a1154aa5-6ab6-4358-9e67-6d5b2315a3d0","ios":"levelo://app?vid=a1154aa5-6ab6-4358-9e67-6d5b2315a3d0"},"vehicle_type_id":"4","last_reported":1748463093,"current_range_meters":14800,"station_id":"ce4bgv12rcd13ifvqcp0","pricing_plan_id":"cebpf4jnsgd1na2vs0mg"},{"bike_id":"f625d238-0f18-4e84-9908-7a128d4970fc","system_id":"levelo_inurba_marseille","lat":43.25491,"lon":5.37652,"is_reserved":false,"is_disabled":false,"rental_uris":{"android":"levelo://app?vid=f625d238-0f18-4e84-9908-7a128d4970fc","ios":"levelo://app?vid=f625d238-0f18-4e84-9908-7a128d4970fc"},"vehicle_type_id":"4","last_reported":1748463093,"current_range_meters":14800,"station_id":"ce4bhh12rcd13ifvqff0","pricing_plan_id":"cebpf4jnsgd1na2vs0mg"},{"bike_id":"dab9916b-8b91-430e-844d-defc111f365a","system_id":"levelo_inurba_marseille","lat":43.26949,"lon":5.38633,"is_reserved":false,"is_disabled":false,"rental_uris":{"android":"levelo://app?vid=dab9916b-8b91-430e-844d-defc111f365a","ios":"levelo://app?vid=dab9916b-8b91-430e-844d-defc111f365a"},"vehicle_type_id":"4","last_reported":1748463093,"current_range_meters":14800,"station_id":"ce4bhh92rcd13ifvqfh0","pricing_plan_id":"cebpf4jnsgd1na2vs0mg"},{"bike_id":"d1160911-5dba-4a70-bdeb-2e5a47931200","system_id":"levelo_inurba_marseille","lat":43.280067,"lon":5.416636,"is_reserved":false,"is_disabled":false,"rental_uris":{"android":"levelo://app?vid=d1160911-5dba-4a70-bdeb-2e5a47931200","ios":"levelo://app?vid=d1160911-5dba-4a70-bdeb-2e5a47931200"},"vehicle_type_id":"4","last_reported":1748463093,"current_range_meters":14800,"station_id":"ce4bho12rcd13ifvqh1g","pricing_plan_id":"cebpf4jnsgd1na2vs0mg"},{"bike_id":"74596cad-01b8-4827-9b35-ca1f4056673c","system_id":"levelo_inurba_marseille","lat":43.32393,"lon":5.38361,"is_reserved":false,"is_disabled":false,"rental_uris":{"android":"levelo://app?vid=74596cad-01b8-4827-9b35-ca1f4056673c","ios":"levelo://app?vid=74596cad-01b8-4827-9b35-ca1f4056673c"},"vehicle_type_id":"4","last_reported":1748463093,"current_range_meters":15200,"station_id":"","pricing_plan_id":"cebpf4jnsgd1na2vs0mg"},{"bike_id":"389757c0-c06f-412d-b756-eb992e4affec","system_id":"levelo_inurba_marseille","lat":43.29596,"lon":5.38095,"is_reserved":false,"is_disabled":false,"rental_uris":{"android":"levelo://app?vid=389757c0-c06f-412d-b756-eb992e4affec","ios":"levelo://app?vid=389757c0-c06f-412d-b756-eb992e4affec"},"vehicle_type_id":"4","last_reported":1748463093,"current_range_meters":15200,"station_id":"ce4bgl12rcd13ifvqbo0","pricing_plan_id":"cebpf4jnsgd1na2vs0mg"},{"bike_id":"14988431-1709-4133-9f49-dfcb4575a5d2","system_id":"levelo_inurba_marseille","lat":43.29845,"lon":5.36274,"is_reserved":false,"is_disabled":false,"rental_uris":{"android":"levelo://app?vid=14988431-1709-4133-9f49-dfcb4575a5d2","ios":"levelo://app?vid=14988431-1709-4133-9f49-dfcb4575a5d2"},"vehicle_type_id":"4","last_reported":1748463093,"current_range_meters":15200,"station_id":"ce4bgpp2rcd13ifvqc3g","pricing_plan_id":"cebpf4jnsgd1na2vs0mg"},{"bike_id":"2d4332f3-aa46-4df5-a8ac-30101536916b","system_id":"levelo_inurba_marseille","lat":43.28345,"lon":5.38104,"is_reserved":false,"is_disabled":false,"rental_uris":{"android":"levelo://app?vid=2d4332f3-aa46-4df5-a8ac-30101536916b","ios":"levelo://app?vid=2d4332f3-aa46-4df5-a8ac-30101536916b"},"vehicle_type_id":"4","last_reported":1748463093,"current_range_meters":15200,"station_id":"ce4bh412rcd13ifvqdr0","pricing_plan_id":"cebpf4jnsgd1na2vs0mg"},{"bike_id":"6fbac3aa-3cd7-44f3-b06f-1b43890db99b","system_id":"levelo_inurba_marseille","lat":43.26206,"lon":5.37444,"is_reserved":false,"is_disabled":false,"rental_uris":{"android":"levelo://app?vid=6fbac3aa-3cd7-44f3-b06f-1b43890db99b","ios":"levelo://app?vid=6fbac3aa-3cd7-44f3-b06f-1b43890db99b"},"vehicle_type_id":"4","last_reported":1748463093,"current_range_meters":15200,"station_id":"ce4bhgp2rcd13ifvqfc0","pricing_plan_id":"cebpf4jnsgd1na2vs0mg"},{"bike_id":"19c319b8-cb5c-4a9f-a123-c087da106c08","system_id":"levelo_inurba_marseille","lat":43.25935,"lon":5.4092,"is_reserved":false,"is_disabled":false,"rental_uris":{"android":"levelo://app?vid=19c319b8-cb5c-4a9f-a123-c087da106c08","ios":"levelo://app?vid=19c319b8-cb5c-4a9f-a123-c087da106c08"},"vehicle_type_id":"4","last_reported":1748463093,"current_range_meters":15200,"station_id":"ce4bhm92rcd13ifvqglg","pricing_plan_id":"cebpf4jnsgd1na2vs0mg"},{"bike_id":"42dca157-bdb0-4361-8022-7979135f94aa","system_id":"levelo_inurba_marseille","lat":43.28549,"lon":5.36678,"is_reserved":false,"is_disabled":false,"rental_uris":{"android":"levelo://app?vid=42dca157-bdb0-4361-8022-7979135f94aa","ios":"levelo://app?vid=42dca157-bdb0-4361-8022-7979135f94aa"},"vehicle_type_id":"4","last_reported":1748463093,"current_range_meters":16000,"station_id":"","pricing_plan_id":"cebpf4jnsgd1na2vs0mg"},{"bike_id":"1a29311b-963b-43b7-aadc-e18eff1d401c","system_id":"levelo_inurba_marseille","lat":43.281065,"lon":5.438945,"is_reserved":false,"is_disabled":false,"rental_uris":{"android":"levelo://app?vid=1a29311b-963b-43b7-aadc-e18eff1d401c","ios":"levelo://app?vid=1a29311b-963b-43b7-aadc-e18eff1d401c"},"vehicle_type_id":"4","last_reported":1748463093,"current_range_meters":16000,"station_id":"","pricing_plan_id":"cebpf4jnsgd1na2vs0mg"},{"bike_id":"3fcecb82-9ea2-41f0-8739-06c55777dd86","system_id":"levelo_inurba_marseille","lat":43.28114,"lon":5.3784,"is_reserved":false,"is_disabled":false,"rental_uris":{"android":"levelo://app?vid=3fcecb82-9ea2-41f0-8739-06c55777dd86","ios":"levelo://app?vid=3fcecb82-9ea2-41f0-8739-06c55777dd86"},"vehicle_type_id":"4","last_reported":1748463093,"current_range_meters":16000,"station_id":"ce4bha12rcd13ifvqee0","pricing_plan_id":"cebpf4jnsgd1na2vs0mg"},{"bike_id":"ab8a74ee-3eee-4bc7-995d-22f8a779238c","system_id":"levelo_inurba_marseille","lat":43.27383,"lon":5.36248,"is_reserved":false,"is_disabled":false,"rental_uris":{"android":"levelo://app?vid=ab8a74ee-3eee-4bc7-995d-22f8a779238c","ios":"levelo://app?vid=ab8a74ee-3eee-4bc7-995d-22f8a779238c"},"vehicle_type_id":"4","last_reported":1748463093,"current_range_meters":16000,"station_id":"ce4bhbh2rcd13ifvqeo0","pricing_plan_id":"cebpf4jnsgd1na2vs0mg"},{"bike_id":"41d74f9d-043f-415e-856c-e76e9f217fb9","system_id":"levelo_inurba_marseille","lat":43.2788,"lon":5.39541,"is_reserved":false,"is_disabled":false,"rental_uris":{"android":"levelo://app?vid=41d74f9d-043f-415e-856c-e76e9f217fb9","ios":"levelo://app?vid=41d74f9d-043f-415e-856c-e76e9f217fb9"},"vehicle_type_id":"4","last_reported":1748463093,"current_range_meters":16000,"station_id":"ce4bhf92rcd13ifvqf40","pricing_plan_id":"cebpf4jnsgd1na2vs0mg"},{"bike_id":"a9fc2815-f1d9-45f9-91c3-2b4157864ad7","system_id":"levelo_inurba_marseille","lat":43.27976,"lon":5.3873,"is_reserved":false,"is_disabled":false,"rental_uris":{"android":"levelo://app?vid=a9fc2815-f1d9-45f9-91c3-2b4157864ad7","ios":"levelo://app?vid=a9fc2815-f1d9-45f9-91c3-2b4157864ad7"},"vehicle_type_id":"4","last_reported":1748463093,"current_range_meters":16000,"station_id":"ce4bhg12rcd13ifvqf80","pricing_plan_id":"cebpf4jnsgd1na2vs0mg"},{"bike_id":"b77d0452-9992-445a-9820-18ca0dfefcdc","system_id":"levelo_inurba_marseille","lat":43.24808,"lon":5.37457,"is_reserved":false,"is_disabled":false,"rental_uris":{"android":"levelo://app?vid=b77d0452-9992-445a-9820-18ca0dfefcdc","ios":"levelo://app?vid=b77d0452-9992-445a-9820-18ca0dfefcdc"},"vehicle_type_id":"4","last_reported":1748463093,"current_range_meters":16000,"station_id":"ce4bhgh2rcd13ifvqfb0","pricing_plan_id":"cebpf4jnsgd1na2vs0mg"},{"bike_id":"39b6dbd8-0489-4c5c-8c37-706ea99fe370","system_id":"levelo_inurba_marseille","lat":43.27565,"lon":5.3842,"is_reserved":false,"is_disabled":false,"rental_uris":{"android":"levelo://app?vid=39b6dbd8-0489-4c5c-8c37-706ea99fe370","ios":"levelo://app?vid=39b6dbd8-0489-4c5c-8c37-706ea99fe370"},"vehicle_type_id":"4","last_reported":1748463093,"current_range_meters":16000,"station_id":"ce4bhh92rcd13ifvqfi0","pricing_plan_id":"cebpf4jnsgd1na2vs0mg"},{"bike_id":"267d0f1d-15b8-4cb1-8f4f-52fe1b1a034a","system_id":"levelo_inurba_marseille","lat":43.2953,"lon":5.38546,"is_reserved":false,"is_disabled":false,"rental_uris":{"android":"levelo://app?vid=267d0f1d-15b8-4cb1-8f4f-52fe1b1a034a","ios":"levelo://app?vid=267d0f1d-15b8-4cb1-8f4f-52fe1b1a034a"},"vehicle_type_id":"4","last_reported":1748463093,"current_range_meters":16400,"station_id":"ce4bgih2rcd13ifvqba0","pricing_plan_id":"cebpf4jnsgd1na2vs0mg"},{"bike_id":"f6cb97fb-f193-4b34-8371-c6ddb8fbd4ad","system_id":"levelo_inurba_marseille","lat":43.29969,"lon":5.38495,"is_reserved":false,"is_disabled":false,"rental_uris":{"android":"levelo://app?vid=f6cb97fb-f193-4b34-8371-c6ddb8fbd4ad","ios":"levelo://app?vid=f6cb97fb-f193-4b34-8371-c6ddb8fbd4ad"},"vehicle_type_id":"4","last_reported":1748463093,"current_range_meters":16400,"station_id":"ce4bgj92rcd13ifvqbd0","pricing_plan_id":"cebpf4jnsgd1na2vs0mg"},{"bike_id":"0215bf3e-7a53-4bf5-8266-43341444823b","system_id":"levelo_inurba_marseille","lat":43.29691,"lon":5.37285,"is_reserved":false,"is_disabled":false,"rental_uris":{"android":"levelo://app?vid=0215bf3e-7a53-4bf5-8266-43341444823b","ios":"levelo://app?vid=0215bf3e-7a53-4bf5-8266-43341444823b"},"vehicle_type_id":"4","last_reported":1748463093,"current_range_meters":16400,"station_id":"ce4bgk12rcd13ifvqbj0","pricing_plan_id":"cebpf4jnsgd1na2vs0mg"},{"bike_id":"eafc0732-02f8-4bd3-ab60-779656dca6ea","system_id":"levelo_inurba_marseille","lat":43.30084,"lon":5.3908,"is_reserved":false,"is_disabled":false,"rental_uris":{"android":"levelo://app?vid=eafc0732-02f8-4bd3-ab60-779656dca6ea","ios":"levelo://app?vid=eafc0732-02f8-4bd3-ab60-779656dca6ea"},"vehicle_type_id":"4","last_reported":1748463093,"current_range_meters":16400,"station_id":"ce4bh192rcd13ifvqdb0","pricing_plan_id":"cebpf4jnsgd1na2vs0mg"},{"bike_id":"4d1e7c52-7cfa-42a7-aef8-0c0c70549609","system_id":"levelo_inurba_marseille","lat":43.292552,"lon":5.38425,"is_reserved":false,"is_disabled":false,"rental_uris":{"android":"levelo://app?vid=4d1e7c52-7cfa-42a7-aef8-0c0c70549609","ios":"levelo://app?vid=4d1e7c52-7cfa-42a7-aef8-0c0c70549609"},"vehicle_type_id":"4","last_reported":1748463093,"current_range_meters":16400,"station_id":"ce4bh692rcd13ifvqea0","pricing_plan_id":"cebpf4jnsgd1na2vs0mg"},{"bike_id":"fbe8a0d7-b944-4e01-a221-f6cccdf300fe","system_id":"levelo_inurba_marseille","lat":43.28856,"lon":5.35851,"is_reserved":false,"is_disabled":false,"rental_uris":{"android":"levelo://app?vid=fbe8a0d7-b944-4e01-a221-f6cccdf300fe","ios":"levelo://app?vid=fbe8a0d7-b944-4e01-a221-f6cccdf300fe"},"vehicle_type_id":"4","last_reported":1748463093,"current_range_meters":16400,"station_id":"ce4bhb12rcd13ifvqem0","pricing_plan_id":"cebpf4jnsgd1na2vs0mg"},{"bike_id":"221eab07-12e0-4f23-8c3a-9f3c22311a6b","system_id":"levelo_inurba_marseille","lat":43.2319,"lon":5.39983,"is_reserved":false,"is_disabled":false,"rental_uris":{"android":"levelo://app?vid=221eab07-12e0-4f23-8c3a-9f3c22311a6b","ios":"levelo://app?vid=221eab07-12e0-4f23-8c3a-9f3c22311a6b"},"vehicle_type_id":"4","last_reported":1748463093,"current_range_meters":16400,"station_id":"ce4bhn12rcd13ifvqgqg","pricing_plan_id":"cebpf4jnsgd1na2vs0mg"},{"bike_id":"999a79ff-70b9-4287-ae67-8eb104630dc6","system_id":"levelo_inurba_marseille","lat":43.28,"lon":5.40011,"is_reserved":false,"is_disabled":false,"rental_uris":{"android":"levelo://app?vid=999a79ff-70b9-4287-ae67-8eb104630dc6","ios":"levelo://app?vid=999a79ff-70b9-4287-ae67-8eb104630dc6"},"vehicle_type_id":"4","last_reported":1748463093,"current_range_meters":16400,"station_id":"ce4bho92rcd13ifvqh4g","pricing_plan_id":"cebpf4jnsgd1na2vs0mg"},{"bike_id":"b6b43926-121c-44e0-853c-b84b3f1037cc","system_id":"levelo_inurba_marseille","lat":43.29558,"lon":5.42291,"is_reserved":false,"is_disabled":false,"rental_uris":{"android":"levelo://app?vid=b6b43926-121c-44e0-853c-b84b3f1037cc","ios":"levelo://app?vid=b6b43926-121c-44e0-853c-b84b3f1037cc"},"vehicle_type_id":"4","last_reported":1748463093,"current_range_meters":16400,"station_id":"ce4bhph2rcd13ifvqhdg","pricing_plan_id":"cebpf4jnsgd1na2vs0mg"},{"bike_id":"f5733814-9732-4748-bcc9-3b2fac8e1564","system_id":"levelo_inurba_marseille","lat":43.31256,"lon":5.37829,"is_reserved":false,"is_disabled":false,"rental_uris":{"android":"levelo://app?vid=f5733814-9732-4748-bcc9-3b2fac8e1564","ios":"levelo://app?vid=f5733814-9732-4748-bcc9-3b2fac8e1564"},"vehicle_type_id":"4","last_reported":1748463093,"current_range_meters":16800,"station_id":"","pricing_plan_id":"cebpf4jnsgd1na2vs0mg"},{"bike_id":"b5690457-41aa-4dcd-962f-f066c4a5247c","system_id":"levelo_inurba_marseille","lat":43.29319,"lon":5.37146,"is_reserved":false,"is_disabled":false,"rental_uris":{"android":"levelo://app?vid=b5690457-41aa-4dcd-962f-f066c4a5247c","ios":"levelo://app?vid=b5690457-41aa-4dcd-962f-f066c4a5247c"},