{"last_updated":1779054211,"ttl":60,"version":"2.2","data":{"bikes":[{"bike_id":"1370786a-49ef-48cb-b770-7376a0939f3b","system_id":"levelo_inurba_marseille","lat":43.32367,"lon":5.36711,"is_reserved":false,"is_disabled":false,"rental_uris":{"android":"levelo://app?vid=1370786a-49ef-48cb-b770-7376a0939f3b","ios":"levelo://app?vid=1370786a-49ef-48cb-b770-7376a0939f3b"},"vehicle_type_id":"4","last_reported":1779054211,"current_range_meters":2800,"station_id":"","pricing_plan_id":"cebpf4jnsgd1na2vs0mg"},{"bike_id":"c9b8c22e-e4a4-431e-81d1-866a9cbbba40","system_id":"levelo_inurba_marseille","lat":43.21743,"lon":5.34604,"is_reserved":false,"is_disabled":true,"rental_uris":{"android":"levelo://app?vid=c9b8c22e-e4a4-431e-81d1-866a9cbbba40","ios":"levelo://app?vid=c9b8c22e-e4a4-431e-81d1-866a9cbbba40"},"vehicle_type_id":"4","last_reported":1779054211,"current_range_meters":2800,"station_id":"st_cvj6r9ubvosntc0bgbag","pricing_plan_id":"cebpf4jnsgd1na2vs0mg"},{"bike_id":"29d50ea6-f0f1-4454-a95a-5177b6a24eef","system_id":"levelo_inurba_marseille","lat":43.23186,"lon":5.39992,"is_reserved":false,"is_disabled":false,"rental_uris":{"android":"levelo://app?vid=29d50ea6-f0f1-4454-a95a-5177b6a24eef","ios":"levelo://app?vid=29d50ea6-f0f1-4454-a95a-5177b6a24eef"},"vehicle_type_id":"4","last_reported":1779054211,"current_range_meters":2800,"station_id":"ce4bhn12rcd13ifvqgqg","pricing_plan_id":"cebpf4jnsgd1na2vs0mg"},{"bike_id":"4b584b91-6611-441f-bd8d-f46ade499770","system_id":"levelo_inurba_marseille","lat":43.3189,"lon":5.368,"is_reserved":false,"is_disabled":false,"rental_uris":{"android":"levelo://app?vid=4b584b91-6611-441f-bd8d-f46ade499770","ios":"levelo://app?vid=4b584b91-6611-441f-bd8d-f46ade499770"},"vehicle_type_id":"4","last_reported":1779054211,"current_range_meters":2800,"station_id":"st_d6o2h0d0559c73evc1b0","pricing_plan_id":"cebpf4jnsgd1na2vs0mg"},{"bike_id":"a4ef27c6-14af-4352-8eae-12622ec32150","system_id":"levelo_inurba_marseille","lat":43.31703,"lon":5.43676,"is_reserved":false,"is_disabled":false,"rental_uris":{"android":"levelo://app?vid=a4ef27c6-14af-4352-8eae-12622ec32150","ios":"levelo://app?vid=a4ef27c6-14af-4352-8eae-12622ec32150"},"vehicle_type_id":"4","last_reported":1779054211,"current_range_meters":2800,"station_id":"ce4bhp92rcd13ifvqhcg","pricing_plan_id":"cebpf4jnsgd1na2vs0mg"},{"bike_id":"0e9222e4-f911-468c-98b0-8a6409e684b3","system_id":"levelo_inurba_marseille","lat":43.295261,"lon":5.385503,"is_reserved":false,"is_disabled":false,"rental_uris":{"android":"levelo://app?vid=0e9222e4-f911-468c-98b0-8a6409e684b3","ios":"levelo://app?vid=0e9222e4-f911-468c-98b0-8a6409e684b3"},"vehicle_type_id":"4","last_reported":1779054211,"current_range_meters":2800,"station_id":"ce4bgih2rcd13ifvqba0","pricing_plan_id":"cebpf4jnsgd1na2vs0mg"},{"bike_id":"48c67157-14f5-415f-b343-352016afa9dc","system_id":"levelo_inurba_marseille","lat":43.25523,"lon":5.37668,"is_reserved":false,"is_disabled":false,"rental_uris":{"android":"levelo://app?vid=48c67157-14f5-415f-b343-352016afa9dc","ios":"levelo://app?vid=48c67157-14f5-415f-b343-352016afa9dc"},"vehicle_type_id":"4","last_reported":1779054211,"current_range_meters":2800,"station_id":"ce4bhh12rcd13ifvqff0","pricing_plan_id":"cebpf4jnsgd1na2vs0mg"},{"bike_id":"65031c68-348f-4db9-854c-9e4fca32803c","system_id":"levelo_inurba_marseille","lat":43.3082,"lon":5.40225,"is_reserved":false,"is_disabled":false,"rental_uris":{"android":"levelo://app?vid=65031c68-348f-4db9-854c-9e4fca32803c","ios":"levelo://app?vid=65031c68-348f-4db9-854c-9e4fca32803c"},"vehicle_type_id":"4","last_reported":1779054211,"current_range_meters":3200,"station_id":"","pricing_plan_id":"cebpf4jnsgd1na2vs0mg"},{"bike_id":"488a9249-ab10-459b-b8bf-98cb3bc718b8","system_id":"levelo_inurba_marseille","lat":43.22563,"lon":5.416,"is_reserved":false,"is_disabled":false,"rental_uris":{"android":"levelo://app?vid=488a9249-ab10-459b-b8bf-98cb3bc718b8","ios":"levelo://app?vid=488a9249-ab10-459b-b8bf-98cb3bc718b8"},"vehicle_type_id":"4","last_reported":1779054211,"current_range_meters":3200,"station_id":"st_d2o4gvlbi1j2169b742g","pricing_plan_id":"cebpf4jnsgd1na2vs0mg"},{"bike_id":"d883c0f7-a56b-4c01-b096-561a0103c603","system_id":"levelo_inurba_marseille","lat":43.28715,"lon":5.46694,"is_reserved":false,"is_disabled":false,"rental_uris":{"android":"levelo://app?vid=d883c0f7-a56b-4c01-b096-561a0103c603","ios":"levelo://app?vid=d883c0f7-a56b-4c01-b096-561a0103c603"},"vehicle_type_id":"4","last_reported":1779054211,"current_range_meters":3200,"station_id":"st_d6tc3vkotcvc738tfjhg","pricing_plan_id":"cebpf4jnsgd1na2vs0mg"},{"bike_id":"d6518041-a467-441f-926a-e49dca80e3b2","system_id":"levelo_inurba_marseille","lat":43.29171,"lon":5.37157,"is_reserved":false,"is_disabled":false,"rental_uris":{"android":"levelo://app?vid=d6518041-a467-441f-926a-e49dca80e3b2","ios":"levelo://app?vid=d6518041-a467-441f-926a-e49dca80e3b2"},"vehicle_type_id":"4","last_reported":1779054211,"current_range_meters":3200,"station_id":"ce4bha92rcd13ifvqeh0","pricing_plan_id":"cebpf4jnsgd1na2vs0mg"},{"bike_id":"2e108468-d288-4b33-ad0a-131180b70fbc","system_id":"levelo_inurba_marseille","lat":43.25572,"lon":5.38237,"is_reserved":false,"is_disabled":false,"rental_uris":{"android":"levelo://app?vid=2e108468-d288-4b33-ad0a-131180b70fbc","ios":"levelo://app?vid=2e108468-d288-4b33-ad0a-131180b70fbc"},"vehicle_type_id":"4","last_reported":1779054211,"current_range_meters":3200,"station_id":"ce4bhih2rcd13ifvqfs0","pricing_plan_id":"cebpf4jnsgd1na2vs0mg"},{"bike_id":"71de3602-30e6-4e1c-b30e-31801efa5ed3","system_id":"levelo_inurba_marseille","lat":43.23901,"lon":5.37465,"is_reserved":false,"is_disabled":true,"rental_uris":{"android":"levelo://app?vid=71de3602-30e6-4e1c-b30e-31801efa5ed3","ios":"levelo://app?vid=71de3602-30e6-4e1c-b30e-31801efa5ed3"},"vehicle_type_id":"4","last_reported":1779054211,"current_range_meters":3200,"station_id":"st_d6sm7csbq4hs73f8fpjg","pricing_plan_id":"cebpf4jnsgd1na2vs0mg"},{"bike_id":"ef05a466-74a6-428e-9978-e7fb138ca4ee","system_id":"levelo_inurba_marseille","lat":43.26577,"lon":5.39014,"is_reserved":false,"is_disabled":true,"rental_uris":{"android":"levelo://app?vid=ef05a466-74a6-428e-9978-e7fb138ca4ee","ios":"levelo://app?vid=ef05a466-74a6-428e-9978-e7fb138ca4ee"},"vehicle_type_id":"4","last_reported":1779054211,"current_range_meters":3200,"station_id":"ce4bhe12rcd13ifvqf30","pricing_plan_id":"cebpf4jnsgd1na2vs0mg"},{"bike_id":"f58c35b5-8301-4cac-a2ed-65f4f0b95ed5","system_id":"levelo_inurba_marseille","lat":43.25509,"lon":5.3765,"is_reserved":false,"is_disabled":true,"rental_uris":{"android":"levelo://app?vid=f58c35b5-8301-4cac-a2ed-65f4f0b95ed5","ios":"levelo://app?vid=f58c35b5-8301-4cac-a2ed-65f4f0b95ed5"},"vehicle_type_id":"4","last_reported":1779054211,"current_range_meters":3200,"station_id":"ce4bhh12rcd13ifvqff0","pricing_plan_id":"cebpf4jnsgd1na2vs0mg"},{"bike_id":"a72ed776-a4c5-4fa7-8b4f-299ef308f60d","system_id":"levelo_inurba_marseille","lat":43.225281,"lon":5.348366,"is_reserved":false,"is_disabled":true,"rental_uris":{"android":"levelo://app?vid=a72ed776-a4c5-4fa7-8b4f-299ef308f60d","ios":"levelo://app?vid=a72ed776-a4c5-4fa7-8b4f-299ef308f60d"},"vehicle_type_id":"4","last_reported":1779054211,"current_range_meters":3200,"station_id":"st_cvj5dfep6f1abm77gieg","pricing_plan_id":"cebpf4jnsgd1na2vs0mg"},{"bike_id":"d1230100-c5e8-4966-85ce-a87daddc86c2","system_id":"levelo_inurba_marseille","lat":43.27906,"lon":5.38006,"is_reserved":false,"is_disabled":false,"rental_uris":{"android":"levelo://app?vid=d1230100-c5e8-4966-85ce-a87daddc86c2","ios":"levelo://app?vid=d1230100-c5e8-4966-85ce-a87daddc86c2"},"vehicle_type_id":"4","last_reported":1779054211,"current_range_meters":3200,"station_id":"ce4bhf92rcd13ifvqf50","pricing_plan_id":"cebpf4jnsgd1na2vs0mg"},{"bike_id":"b7a01b0e-f840-4aea-bff1-50db1e406712","system_id":"levelo_inurba_marseille","lat":43.26214,"lon":5.375,"is_reserved":false,"is_disabled":false,"rental_uris":{"android":"levelo://app?vid=b7a01b0e-f840-4aea-bff1-50db1e406712","ios":"levelo://app?vid=b7a01b0e-f840-4aea-bff1-50db1e406712"},"vehicle_type_id":"4","last_reported":1779054211,"current_range_meters":3600,"station_id":"","pricing_plan_id":"cebpf4jnsgd1na2vs0mg"},{"bike_id":"4dfbbb73-3c53-4e8a-8d3c-17d14069b634","system_id":"levelo_inurba_marseille","lat":43.31703,"lon":5.40477,"is_reserved":false,"is_disabled":false,"rental_uris":{"android":"levelo://app?vid=4dfbbb73-3c53-4e8a-8d3c-17d14069b634","ios":"levelo://app?vid=4dfbbb73-3c53-4e8a-8d3c-17d14069b634"},"vehicle_type_id":"4","last_reported":1779054211,"current_range_meters":3600,"station_id":"ce4bh012rcd13ifvqd00","pricing_plan_id":"cebpf4jnsgd1na2vs0mg"},{"bike_id":"6344d1cd-896c-42a6-81a4-d85da2032866","system_id":"levelo_inurba_marseille","lat":43.30894,"lon":5.37216,"is_reserved":false,"is_disabled":false,"rental_uris":{"android":"levelo://app?vid=6344d1cd-896c-42a6-81a4-d85da2032866","ios":"levelo://app?vid=6344d1cd-896c-42a6-81a4-d85da2032866"},"vehicle_type_id":"4","last_reported":1779054211,"current_range_meters":3600,"station_id":"ce4bguh2rcd13ifvqckg","pricing_plan_id":"cebpf4jnsgd1na2vs0mg"},{"bike_id":"021a3014-354f-4f07-84a6-c9b58284be2e","system_id":"levelo_inurba_marseille","lat":43.27674,"lon":5.41372,"is_reserved":false,"is_disabled":false,"rental_uris":{"android":"levelo://app?vid=021a3014-354f-4f07-84a6-c9b58284be2e","ios":"levelo://app?vid=021a3014-354f-4f07-84a6-c9b58284be2e"},"vehicle_type_id":"4","last_reported":1779054211,"current_range_meters":3600,"station_id":"","pricing_plan_id":"cebpf4jnsgd1na2vs0mg"},{"bike_id":"9d314296-2d3f-4806-acb2-c15ff60f6689","system_id":"levelo_inurba_marseille","lat":43.2534,"lon":5.42171,"is_reserved":false,"is_disabled":false,"rental_uris":{"android":"levelo://app?vid=9d314296-2d3f-4806-acb2-c15ff60f6689","ios":"levelo://app?vid=9d314296-2d3f-4806-acb2-c15ff60f6689"},"vehicle_type_id":"4","last_reported":1779054211,"current_range_meters":3600,"station_id":"st_d2m65c5bi1j21697t3ng","pricing_plan_id":"cebpf4jnsgd1na2vs0mg"},{"bike_id":"09019b8f-43cb-4afc-bcf8-80b1bdffe622","system_id":"levelo_inurba_marseille","lat":43.28462,"lon":5.35856,"is_reserved":false,"is_disabled":false,"rental_uris":{"android":"levelo://app?vid=09019b8f-43cb-4afc-bcf8-80b1bdffe622","ios":"levelo://app?vid=09019b8f-43cb-4afc-bcf8-80b1bdffe622"},"vehicle_type_id":"4","last_reported":1779054211,"current_range_meters":3600,"station_id":"ce4bhah2rcd13ifvqei0","pricing_plan_id":"cebpf4jnsgd1na2vs0mg"},{"bike_id":"637515a2-a8d9-4c2c-86b7-31e5d523d148","system_id":"levelo_inurba_marseille","lat":43.29023,"lon":5.38128,"is_reserved":false,"is_disabled":false,"rental_uris":{"android":"levelo://app?vid=637515a2-a8d9-4c2c-86b7-31e5d523d148","ios":"levelo://app?vid=637515a2-a8d9-4c2c-86b7-31e5d523d148"},"vehicle_type_id":"4","last_reported":1779054211,"current_range_meters":3600,"station_id":"ce4bh4p2rcd13ifvqe1g","pricing_plan_id":"cebpf4jnsgd1na2vs0mg"},{"bike_id":"6a6aae50-57e9-45a1-b44e-15449f93cd34","system_id":"levelo_inurba_marseille","lat":43.29767,"lon":5.42763,"is_reserved":false,"is_disabled":false,"rental_uris":{"android":"levelo://app?vid=6a6aae50-57e9-45a1-b44e-15449f93cd34","ios":"levelo://app?vid=6a6aae50-57e9-45a1-b44e-15449f93cd34"},"vehicle_type_id":"4","last_reported":1779054211,"current_range_meters":3600,"station_id":"st_d3md5207bmas73dh9klg","pricing_plan_id":"cebpf4jnsgd1na2vs0mg"},{"bike_id":"d7f2ec52-1f3e-4741-adba-7f30cc0a3e6f","system_id":"levelo_inurba_marseille","lat":43.26041,"lon":5.37566,"is_reserved":false,"is_disabled":true,"rental_uris":{"android":"levelo://app?vid=d7f2ec52-1f3e-4741-adba-7f30cc0a3e6f","ios":"levelo://app?vid=d7f2ec52-1f3e-4741-adba-7f30cc0a3e6f"},"vehicle_type_id":"4","last_reported":1779054211,"current_range_meters":3600,"station_id":"ce4bhgh2rcd13ifvqfa0","pricing_plan_id":"cebpf4jnsgd1na2vs0mg"},{"bike_id":"1083eafc-a501-41a5-817d-cf807bb2321f","system_id":"levelo_inurba_marseille","lat":43.24966,"lon":5.40485,"is_reserved":false,"is_disabled":false,"rental_uris":{"android":"levelo://app?vid=1083eafc-a501-41a5-817d-cf807bb2321f","ios":"levelo://app?vid=1083eafc-a501-41a5-817d-cf807bb2321f"},"vehicle_type_id":"4","last_reported":1779054211,"current_range_meters":3600,"station_id":"st_d2ngiaodas8pm72gd1h0","pricing_plan_id":"cebpf4jnsgd1na2vs0mg"},{"bike_id":"71918cea-b617-4f68-aa50-3e8772137752","system_id":"levelo_inurba_marseille","lat":43.29283,"lon":5.40122,"is_reserved":false,"is_disabled":false,"rental_uris":{"android":"levelo://app?vid=71918cea-b617-4f68-aa50-3e8772137752","ios":"levelo://app?vid=71918cea-b617-4f68-aa50-3e8772137752"},"vehicle_type_id":"4","last_reported":1779054211,"current_range_meters":3600,"station_id":"ce4bh312rcd13ifvqdk0","pricing_plan_id":"cebpf4jnsgd1na2vs0mg"},{"bike_id":"713b946b-b66f-4e8c-be78-9cd8e1e4aa55","system_id":"levelo_inurba_marseille","lat":43.29024,"lon":5.38641,"is_reserved":false,"is_disabled":false,"rental_uris":{"android":"levelo://app?vid=713b946b-b66f-4e8c-be78-9cd8e1e4aa55","ios":"levelo://app?vid=713b946b-b66f-4e8c-be78-9cd8e1e4aa55"},"vehicle_type_id":"4","last_reported":1779054211,"current_range_meters":3600,"station_id":"ce4bh4p2rcd13ifvqe0g","pricing_plan_id":"cebpf4jnsgd1na2vs0mg"},{"bike_id":"7ecc22d2-335d-4ea0-ac77-260eccfc3b68","system_id":"levelo_inurba_marseille","lat":43.31894,"lon":5.40738,"is_reserved":false,"is_disabled":true,"rental_uris":{"android":"levelo://app?vid=7ecc22d2-335d-4ea0-ac77-260eccfc3b68","ios":"levelo://app?vid=7ecc22d2-335d-4ea0-ac77-260eccfc3b68"},"vehicle_type_id":"4","last_reported":1779054211,"current_range_meters":3600,"station_id":"ce4bhq12rcd13ifvqhig","pricing_plan_id":"cebpf4jnsgd1na2vs0mg"},{"bike_id":"ca2df6c4-747e-4854-b151-8951666e0132","system_id":"levelo_inurba_marseille","lat":43.290405,"lon":5.399632,"is_reserved":false,"is_disabled":false,"rental_uris":{"android":"levelo://app?vid=ca2df6c4-747e-4854-b151-8951666e0132","ios":"levelo://app?vid=ca2df6c4-747e-4854-b151-8951666e0132"},"vehicle_type_id":"4","last_reported":1779054211,"current_range_meters":4000,"station_id":"ce4bh392rcd13ifvqdm0","pricing_plan_id":"cebpf4jnsgd1na2vs0mg"},{"bike_id":"95b5aa74-b3e0-4286-ab92-7f4c507d6172","system_id":"levelo_inurba_marseille","lat":43.23066,"lon":5.35492,"is_reserved":false,"is_disabled":false,"rental_uris":{"android":"levelo://app?vid=95b5aa74-b3e0-4286-ab92-7f4c507d6172","ios":"levelo://app?vid=95b5aa74-b3e0-4286-ab92-7f4c507d6172"},"vehicle_type_id":"4","last_reported":1779054211,"current_range_meters":4000,"station_id":"cpo3342slgdg3j2ifvpg","pricing_plan_id":"cebpf4jnsgd1na2vs0mg"},{"bike_id":"940de901-e49a-4481-9a4d-a458e5281c73","system_id":"levelo_inurba_marseille","lat":43.27907,"lon":5.38003,"is_reserved":false,"is_disabled":false,"rental_uris":{"android":"levelo://app?vid=940de901-e49a-4481-9a4d-a458e5281c73","ios":"levelo://app?vid=940de901-e49a-4481-9a4d-a458e5281c73"},"vehicle_type_id":"4","last_reported":1779054211,"current_range_meters":4000,"station_id":"ce4bhf92rcd13ifvqf50","pricing_plan_id":"cebpf4jnsgd1na2vs0mg"},{"bike_id":"dc210f91-085a-4684-a4ce-04d864ad8ec6","system_id":"levelo_inurba_marseille","lat":43.24799,"lon":5.37441,"is_reserved":false,"is_disabled":false,"rental_uris":{"android":"levelo://app?vid=dc210f91-085a-4684-a4ce-04d864ad8ec6","ios":"levelo://app?vid=dc210f91-085a-4684-a4ce-04d864ad8ec6"},"vehicle_type_id":"4","last_reported":1779054211,"current_range_meters":4000,"station_id":"ce4bhgh2rcd13ifvqfb0","pricing_plan_id":"cebpf4jnsgd1na2vs0mg"},{"bike_id":"a243d7de-11c4-4400-ac36-a45ec0199c9a","system_id":"levelo_inurba_marseille","lat":43.30422,"lon":5.41284,"is_reserved":false,"is_disabled":false,"rental_uris":{"android":"levelo://app?vid=a243d7de-11c4-4400-ac36-a45ec0199c9a","ios":"levelo://app?vid=a243d7de-11c4-4400-ac36-a45ec0199c9a"},"vehicle_type_id":"4","last_reported":1779054211,"current_range_meters":4000,"station_id":"ce4bhop2rcd13ifvqh8g","pricing_plan_id":"cebpf4jnsgd1na2vs0mg"},{"bike_id":"85c7a1e9-924e-441b-83a1-c4b03c0f12d4","system_id":"levelo_inurba_marseille","lat":43.29293,"lon":5.3746,"is_reserved":false,"is_disabled":false,"rental_uris":{"android":"levelo://app?vid=85c7a1e9-924e-441b-83a1-c4b03c0f12d4","ios":"levelo://app?vid=85c7a1e9-924e-441b-83a1-c4b03c0f12d4"},"vehicle_type_id":"4","last_reported":1779054211,"current_range_meters":4000,"station_id":"ce4bgi12rcd13ifvqb70","pricing_plan_id":"cebpf4jnsgd1na2vs0mg"},{"bike_id":"aa9d571d-618a-4a5c-a72d-c16ef134e655","system_id":"levelo_inurba_marseille","lat":43.28375,"lon":5.45941,"is_reserved":false,"is_disabled":false,"rental_uris":{"android":"levelo://app?vid=aa9d571d-618a-4a5c-a72d-c16ef134e655","ios":"levelo://app?vid=aa9d571d-618a-4a5c-a72d-c16ef134e655"},"vehicle_type_id":"4","last_reported":1779054211,"current_range_meters":4000,"station_id":"ce4bhgh2rcd13ifvqfa0","pricing_plan_id":"cebpf4jnsgd1na2vs0mg"},{"bike_id":"904f06ba-3a45-4118-bbf1-7f6e176ea00d","system_id":"levelo_inurba_marseille","lat":43.32544,"lon":5.41451,"is_reserved":false,"is_disabled":false,"rental_uris":{"android":"levelo://app?vid=904f06ba-3a45-4118-bbf1-7f6e176ea00d","ios":"levelo://app?vid=904f06ba-3a45-4118-bbf1-7f6e176ea00d"},"vehicle_type_id":"4","last_reported":1779054211,"current_range_meters":4400,"station_id":"ce4bhq12rcd13ifvqhhg","pricing_plan_id":"cebpf4jnsgd1na2vs0mg"},{"bike_id":"35f2520e-22cb-4771-8ede-a4578a877e0b","system_id":"levelo_inurba_marseille","lat":43.29599,"lon":5.38099,"is_reserved":false,"is_disabled":false,"rental_uris":{"android":"levelo://app?vid=35f2520e-22cb-4771-8ede-a4578a877e0b","ios":"levelo://app?vid=35f2520e-22cb-4771-8ede-a4578a877e0b"},"vehicle_type_id":"4","last_reported":1779054211,"current_range_meters":4400,"station_id":"ce4bgl12rcd13ifvqbo0","pricing_plan_id":"cebpf4jnsgd1na2vs0mg"},{"bike_id":"c4d175a0-6d02-4fdd-a32c-668209eec0c9","system_id":"levelo_inurba_marseille","lat":43.30224,"lon":5.39457,"is_reserved":false,"is_disabled":false,"rental_uris":{"android":"levelo://app?vid=c4d175a0-6d02-4fdd-a32c-668209eec0c9","ios":"levelo://app?vid=c4d175a0-6d02-4fdd-a32c-668209eec0c9"},"vehicle_type_id":"4","last_reported":1779054211,"current_range_meters":4400,"station_id":"ce4bh0p2rcd13ifvqd70","pricing_plan_id":"cebpf4jnsgd1na2vs0mg"},{"bike_id":"40fb7786-8cc1-4d48-93b3-a3ba0d965e6c","system_id":"levelo_inurba_marseille","lat":43.290672,"lon":5.37572,"is_reserved":false,"is_disabled":false,"rental_uris":{"android":"levelo://app?vid=40fb7786-8cc1-4d48-93b3-a3ba0d965e6c","ios":"levelo://app?vid=40fb7786-8cc1-4d48-93b3-a3ba0d965e6c"},"vehicle_type_id":"4","last_reported":1779054211,"current_range_meters":4400,"station_id":"ce4bh692rcd13ifvqe90","pricing_plan_id":"cebpf4jnsgd1na2vs0mg"},{"bike_id":"1d06564d-ea73-4d68-ab30-68a567adc035","system_id":"levelo_inurba_marseille","lat":43.31055,"lon":5.37166,"is_reserved":false,"is_disabled":false,"rental_uris":{"android":"levelo://app?vid=1d06564d-ea73-4d68-ab30-68a567adc035","ios":"levelo://app?vid=1d06564d-ea73-4d68-ab30-68a567adc035"},"vehicle_type_id":"4","last_reported":1779054211,"current_range_meters":4400,"station_id":"st_d4kl2rp97mjs73e7tdfg","pricing_plan_id":"cebpf4jnsgd1na2vs0mg"},{"bike_id":"13427265-7fc6-43dc-8049-93594f404dad","system_id":"levelo_inurba_marseille","lat":43.23965,"lon":5.36614,"is_reserved":false,"is_disabled":false,"rental_uris":{"android":"levelo://app?vid=13427265-7fc6-43dc-8049-93594f404dad","ios":"levelo://app?vid=13427265-7fc6-43dc-8049-93594f404dad"},"vehicle_type_id":"4","last_reported":1779054211,"current_range_meters":4400,"station_id":"ce4bhi12rcd13ifvqfp0","pricing_plan_id":"cebpf4jnsgd1na2vs0mg"},{"bike_id":"2a0cb435-1794-48a4-bd84-9cf497919159","system_id":"levelo_inurba_marseille","lat":43.30159,"lon":5.37421,"is_reserved":false,"is_disabled":false,"rental_uris":{"android":"levelo://app?vid=2a0cb435-1794-48a4-bd84-9cf497919159","ios":"levelo://app?vid=2a0cb435-1794-48a4-bd84-9cf497919159"},"vehicle_type_id":"4","last_reported":1779054211,"current_range_meters":4400,"station_id":"ce4bgs92rcd13ifvqcc0","pricing_plan_id":"cebpf4jnsgd1na2vs0mg"},{"bike_id":"ee617cb3-d828-445a-bbbf-fc4ee3217bb1","system_id":"levelo_inurba_marseille","lat":43.25088,"lon":5.39528,"is_reserved":false,"is_disabled":false,"rental_uris":{"android":"levelo://app?vid=ee617cb3-d828-445a-bbbf-fc4ee3217bb1","ios":"levelo://app?vid=ee617cb3-d828-445a-bbbf-fc4ee3217bb1"},"vehicle_type_id":"4","last_reported":1779054211,"current_range_meters":4400,"station_id":"ce4bhm12rcd13ifvqgkg","pricing_plan_id":"cebpf4jnsgd1na2vs0mg"},{"bike_id":"0bd112c5-ad94-44c5-8026-def3fcc04c7d","system_id":"levelo_inurba_marseille","lat":43.27993,"lon":5.40025,"is_reserved":false,"is_disabled":false,"rental_uris":{"android":"levelo://app?vid=0bd112c5-ad94-44c5-8026-def3fcc04c7d","ios":"levelo://app?vid=0bd112c5-ad94-44c5-8026-def3fcc04c7d"},"vehicle_type_id":"4","last_reported":1779054211,"current_range_meters":4400,"station_id":"ce4bho92rcd13ifvqh4g","pricing_plan_id":"cebpf4jnsgd1na2vs0mg"},{"bike_id":"6ea549ac-7bfc-4340-a751-1ad0220932fc","system_id":"levelo_inurba_marseille","lat":43.28718,"lon":5.37934,"is_reserved":false,"is_disabled":false,"rental_uris":{"android":"levelo://app?vid=6ea549ac-7bfc-4340-a751-1ad0220932fc","ios":"levelo://app?vid=6ea549ac-7bfc-4340-a751-1ad0220932fc"},"vehicle_type_id":"4","last_reported":1779054211,"current_range_meters":4400,"station_id":"ce4bh9p2rcd13ifvqec0","pricing_plan_id":"cebpf4jnsgd1na2vs0mg"},{"bike_id":"de531965-79d0-44d4-900c-04591c31f4fc","system_id":"levelo_inurba_marseille","lat":43.24401,"lon":5.37101,"is_reserved":false,"is_disabled":false,"rental_uris":{"android":"levelo://app?vid=de531965-79d0-44d4-900c-04591c31f4fc","ios":"levelo://app?vid=de531965-79d0-44d4-900c-04591c31f4fc"},"vehicle_type_id":"4","last_reported":1779054211,"current_range_meters":4400,"station_id":"ce4bhhh2rcd13ifvqfk0","pricing_plan_id":"cebpf4jnsgd1na2vs0mg"},{"bike_id":"069e4ffc-e146-485c-92d8-f22bf845ffcd","system_id":"levelo_inurba_marseille","lat":43.28686,"lon":5.46667,"is_reserved":false,"is_disabled":false,"rental_uris":{"android":"levelo://app?vid=069e4ffc-e146-485c-92d8-f22bf845ffcd","ios":"levelo://app?vid=069e4ffc-e146-485c-92d8-f22bf845ffcd"},"vehicle_type_id":"4","last_reported":1779054211,"current_range_meters":4400,"station_id":"st_d6tc3vkotcvc738tfjhg","pricing_plan_id":"cebpf4jnsgd1na2vs0mg"},{"bike_id":"352abe87-3f67-44e7-96d1-22cedf0a3518","system_id":"levelo_inurba_marseille","lat":43.24805,"lon":5.3744,"is_reserved":false,"is_disabled":false,"rental_uris":{"android":"levelo://app?vid=352abe87-3f67-44e7-96d1-22cedf0a3518","ios":"levelo://app?vid=352abe87-3f67-44e7-96d1-22cedf0a3518"},"vehicle_type_id":"4","last_reported":1779054211,"current_range_meters":4800,"station_id":"ce4bhgh2rcd13ifvqfb0","pricing_plan_id":"cebpf4jnsgd1na2vs0mg"},{"bike_id":"27e9b89b-e903-41aa-8edf-e0093b69b2d7","system_id":"levelo_inurba_marseille","lat":43.29266,"lon":5.38444,"is_reserved":false,"is_disabled":false,"rental_uris":{"android":"levelo://app?vid=27e9b89b-e903-41aa-8edf-e0093b69b2d7","ios":"levelo://app?vid=27e9b89b-e903-41aa-8edf-e0093b69b2d7"},"vehicle_type_id":"4","last_reported":1779054211,"current_range_meters":4800,"station_id":"ce4bh692rcd13ifvqea0","pricing_plan_id":"cebpf4jnsgd1na2vs0mg"},{"bike_id":"8a349f9a-7a6f-4e4a-bd59-7a7e88f1c2e3","system_id":"levelo_inurba_marseille","lat":43.29286,"lon":5.40132,"is_reserved":false,"is_disabled":false,"rental_uris":{"android":"levelo://app?vid=8a349f9a-7a6f-4e4a-bd59-7a7e88f1c2e3","ios":"levelo://app?vid=8a349f9a-7a6f-4e4a-bd59-7a7e88f1c2e3"},"vehicle_type_id":"4","last_reported":1779054211,"current_range_meters":4800,"station_id":"ce4bh312rcd13ifvqdk0","pricing_plan_id":"cebpf4jnsgd1na2vs0mg"},{"bike_id":"afc2a5b0-1c9b-4ade-a260-751814005a03","system_id":"levelo_inurba_marseille","lat":43.24931,"lon":5.38941,"is_reserved":false,"is_disabled":false,"rental_uris":{"android":"levelo://app?vid=afc2a5b0-1c9b-4ade-a260-751814005a03","ios":"levelo://app?vid=afc2a5b0-1c9b-4ade-a260-751814005a03"},"vehicle_type_id":"4","last_reported":1779054211,"current_range_meters":4800,"station_id":"","pricing_plan_id":"cebpf4jnsgd1na2vs0mg"},{"bike_id":"855e13db-2be5-4101-96e1-db7dac9c0ba6","system_id":"levelo_inurba_marseille","lat":43.30356,"lon":5.42459,"is_reserved":false,"is_disabled":false,"rental_uris":{"android":"levelo://app?vid=855e13db-2be5-4101-96e1-db7dac9c0ba6","ios":"levelo://app?vid=855e13db-2be5-4101-96e1-db7dac9c0ba6"},"vehicle_type_id":"4","last_reported":1779054211,"current_range_meters":4800,"station_id":"ce4bhoh2rcd13ifvqh6g","pricing_plan_id":"cebpf4jnsgd1na2vs0mg"},{"bike_id":"58c2f4c0-4bec-4781-9d6a-61ef7bc8b17c","system_id":"levelo_inurba_marseille","lat":43.24034,"lon":5.36251,"is_reserved":false,"is_disabled":false,"rental_uris":{"android":"levelo://app?vid=58c2f4c0-4bec-4781-9d6a-61ef7bc8b17c","ios":"levelo://app?vid=58c2f4c0-4bec-4781-9d6a-61ef7bc8b17c"},"vehicle_type_id":"4","last_reported":1779054211,"current_range_meters":4800,"station_id":"","pricing_plan_id":"cebpf4jnsgd1na2vs0mg"},{"bike_id":"635f34a3-678d-4553-bdcb-0ef3784f1cfe","system_id":"levelo_inurba_marseille","lat":43.28422,"lon":5.37506,"is_reserved":false,"is_disabled":false,"rental_uris":{"android":"levelo://app?vid=635f34a3-678d-4553-bdcb-0ef3784f1cfe","ios":"levelo://app?vid=635f34a3-678d-4553-bdcb-0ef3784f1cfe"},"vehicle_type_id":"4","last_reported":1779054211,"current_range_meters":4800,"station_id":"ce4bh412rcd13ifvqds0","pricing_plan_id":"cebpf4jnsgd1na2vs0mg"},{"bike_id":"b0aa670a-3e8f-477a-933e-d5701f3b09df","system_id":"levelo_inurba_marseille","lat":43.24808,"lon":5.37443,"is_reserved":false,"is_disabled":false,"rental_uris":{"android":"levelo://app?vid=b0aa670a-3e8f-477a-933e-d5701f3b09df","ios":"levelo://app?vid=b0aa670a-3e8f-477a-933e-d5701f3b09df"},"vehicle_type_id":"4","last_reported":1779054211,"current_range_meters":4800,"station_id":"ce4bhgh2rcd13ifvqfb0","pricing_plan_id":"cebpf4jnsgd1na2vs0mg"},{"bike_id":"d77966f0-5c13-40db-9d14-10601a4afd72","system_id":"levelo_inurba_marseille","lat":43.26805,"lon":5.40827,"is_reserved":false,"is_disabled":false,"rental_uris":{"android":"levelo://app?vid=d77966f0-5c13-40db-9d14-10601a4afd72","ios":"levelo://app?vid=d77966f0-5c13-40db-9d14-10601a4afd72"},"vehicle_type_id":"4","last_reported":1779054211,"current_range_meters":4800,"station_id":"","pricing_plan_id":"cebpf4jnsgd1na2vs0mg"},{"bike_id":"0baeead3-5057-46f7-9ab7-624502f6039c","system_id":"levelo_inurba_marseille","lat":43.292801,"lon":5.401149,"is_reserved":false,"is_disabled":true,"rental_uris":{"android":"levelo://app?vid=0baeead3-5057-46f7-9ab7-624502f6039c","ios":"levelo://app?vid=0baeead3-5057-46f7-9ab7-624502f6039c"},"vehicle_type_id":"4","last_reported":1779054211,"current_range_meters":5600,"station_id":"ce4bh312rcd13ifvqdk0","pricing_plan_id":"cebpf4jnsgd1na2vs0mg"},{"bike_id":"54fde902-aa3c-457a-b571-90fafcd914f0","system_id":"levelo_inurba_marseille","lat":43.25209,"lon":5.37422,"is_reserved":false,"is_disabled":false,"rental_uris":{"android":"levelo://app?vid=54fde902-aa3c-457a-b571-90fafcd914f0","ios":"levelo://app?vid=54fde902-aa3c-457a-b571-90fafcd914f0"},"vehicle_type_id":"4","last_reported":1779054211,"current_range_meters":5600,"station_id":"","pricing_plan_id":"cebpf4jnsgd1na2vs0mg"},{"bike_id":"fb86733b-144b-4c0a-83c9-ab7086be4c18","system_id":"levelo_inurba_marseille","lat":43.27974,"lon":5.38739,"is_reserved":false,"is_disabled":true,"rental_uris":{"android":"levelo://app?vid=fb86733b-144b-4c0a-83c9-ab7086be4c18","ios":"levelo://app?vid=fb86733b-144b-4c0a-83c9-ab7086be4c18"},"vehicle_type_id":"4","last_reported":1779054211,"current_range_meters":5600,"station_id":"ce4bhg12rcd13ifvqf80","pricing_plan_id":"cebpf4jnsgd1na2vs0mg"},{"bike_id":"b702e4f7-f82f-4454-9af6-c50764d95921","system_id":"levelo_inurba_marseille","lat":43.31726,"lon":5.43688,"is_reserved":false,"is_disabled":false,"rental_uris":{"android":"levelo://app?vid=b702e4f7-f82f-4454-9af6-c50764d95921","ios":"levelo://app?vid=b702e4f7-f82f-4454-9af6-c50764d95921"},"vehicle_type_id":"4","last_reported":1779054211,"current_range_meters":5600,"station_id":"ce4bhp92rcd13ifvqhcg","pricing_plan_id":"cebpf4jnsgd1na2vs0mg"},{"bike_id":"869868af-da2f-4335-ab81-9458410bd7e6","system_id":"levelo_inurba_marseille","lat":43.29983,"lon":5.37157,"is_reserved":false,"is_disabled":false,"rental_uris":{"android":"levelo://app?vid=869868af-da2f-4335-ab81-9458410bd7e6","ios":"levelo://app?vid=869868af-da2f-4335-ab81-9458410bd7e6"},"vehicle_type_id":"4","last_reported":1779054211,"current_range_meters":5600,"station_id":"ce4bgr92rcd13ifvqc7g","pricing_plan_id":"cebpf4jnsgd1na2vs0mg"},{"bike_id":"62e124b0-0fa9-48e3-bb60-a59d309e83b1","system_id":"levelo_inurba_marseille","lat":43.28005,"lon":5.40015,"is_reserved":false,"is_disabled":false,"rental_uris":{"android":"levelo://app?vid=62e124b0-0fa9-48e3-bb60-a59d309e83b1","ios":"levelo://app?vid=62e124b0-0fa9-48e3-bb60-a59d309e83b1"},"vehicle_type_id":"4","last_reported":1779054211,"current_range_meters":5600,"station_id":"ce4bho92rcd13ifvqh4g","pricing_plan_id":"cebpf4jnsgd1na2vs0mg"},{"bike_id":"b3f6493c-d013-4c08-8527-9e057dfa45f6","system_id":"levelo_inurba_marseille","lat":43.29304,"lon":5.37449,"is_reserved":false,"is_disabled":true,"rental_uris":{"android":"levelo://app?vid=b3f6493c-d013-4c08-8527-9e057dfa45f6","ios":"levelo://app?vid=b3f6493c-d013-4c08-8527-9e057dfa45f6"},"vehicle_type_id":"4","last_reported":1779054211,"current_range_meters":5600,"station_id":"ce4bgi12rcd13ifvqb70","pricing_plan_id":"cebpf4jnsgd1na2vs0mg"},{"bike_id":"c88718d1-c585-42c7-a165-977901d60dbd","system_id":"levelo_inurba_marseille","lat":43.28705,"lon":5.39995,"is_reserved":false,"is_disabled":false,"rental_uris":{"android":"levelo://app?vid=c88718d1-c585-42c7-a165-977901d60dbd","ios":"levelo://app?vid=c88718d1-c585-42c7-a165-977901d60dbd"},"vehicle_type_id":"4","last_reported":1779054211,"current_range_meters":5600,"station_id":"ce4bho92rcd13ifvqh3g","pricing_plan_id":"cebpf4jnsgd1na2vs0mg"},{"bike_id":"eecc2b6c-aeb0-4088-ab82-0596e29b46f6","system_id":"levelo_inurba_marseille","lat":43.27413,"lon":5.39409,"is_reserved":false,"is_disabled":true,"rental_uris":{"android":"levelo://app?vid=eecc2b6c-aeb0-4088-ab82-0596e29b46f6","ios":"levelo://app?vid=eecc2b6c-aeb0-4088-ab82-0596e29b46f6"},"vehicle_type_id":"4","last_reported":1779054211,"current_range_meters":5600,"station_id":"ce4bhdp2rcd13ifvqf20","pricing_plan_id":"cebpf4jnsgd1na2vs0mg"},{"bike_id":"af2d2bd4-1d04-46a8-9f96-08a235bb6257","system_id":"levelo_inurba_marseille","lat":43.29061,"lon":5.37553,"is_reserved":false,"is_disabled":false,"rental_uris":{"android":"levelo://app?vid=af2d2bd4-1d04-46a8-9f96-08a235bb6257","ios":"levelo://app?vid=af2d2bd4-1d04-46a8-9f96-08a235bb6257"},"vehicle_type_id":"4","last_reported":1779054211,"current_range_meters":5600,"station_id":"ce4bh692rcd13ifvqe90","pricing_plan_id":"cebpf4jnsgd1na2vs0mg"},{"bike_id":"79e2106e-833e-40e9-ac05-1acfc4f58992","system_id":"levelo_inurba_marseille","lat":43.28953,"lon":5.36621,"is_reserved":false,"is_disabled":false,"rental_uris":{"android":"levelo://app?vid=79e2106e-833e-40e9-ac05-1acfc4f58992","ios":"levelo://app?vid=79e2106e-833e-40e9-ac05-1acfc4f58992"},"vehicle_type_id":"4","last_reported":1779054211,"current_range_meters":5600,"station_id":"ce4bhap2rcd13ifvqek0","pricing_plan_id":"cebpf4jnsgd1na2vs0mg"},{"bike_id":"05ffc7d1-0a64-48a4-9641-3709c1177aee","system_id":"levelo_inurba_marseille","lat":43.3043,"lon":5.39744,"is_reserved":false,"is_disabled":false,"rental_uris":{"android":"levelo://app?vid=05ffc7d1-0a64-48a4-9641-3709c1177aee","ios":"levelo://app?vid=05ffc7d1-0a64-48a4-9641-3709c1177aee"},"vehicle_type_id":"4","last_reported":1779054211,"current_range_meters":5600,"station_id":"ce4bh092rcd13ifvqd20","pricing_plan_id":"cebpf4jnsgd1na2vs0mg"},{"bike_id":"3efc5418-0080-42b2-b21f-0f718531947f","system_id":"levelo_inurba_marseille","lat":43.296,"lon":5.38094,"is_reserved":false,"is_disabled":false,"rental_uris":{"android":"levelo://app?vid=3efc5418-0080-42b2-b21f-0f718531947f","ios":"levelo://app?vid=3efc5418-0080-42b2-b21f-0f718531947f"},"vehicle_type_id":"4","last_reported":1779054211,"current_range_meters":5600,"station_id":"ce4bgl12rcd13ifvqbo0","pricing_plan_id":"cebpf4jnsgd1na2vs0mg"},{"bike_id":"3900a74d-d376-4602-9776-27aec9e5302b","system_id":"levelo_inurba_marseille","lat":43.30255,"lon":5.40062,"is_reserved":false,"is_disabled":false,"rental_uris":{"android":"levelo://app?vid=3900a74d-d376-4602-9776-27aec9e5302b","ios":"levelo://app?vid=3900a74d-d376-4602-9776-27aec9e5302b"},"vehicle_type_id":"4","last_reported":1779054211,"current_range_meters":5600,"station_id":"ce4bgvh2rcd13ifvqcs0","pricing_plan_id":"cebpf4jnsgd1na2vs0mg"},{"bike_id":"4d3d050c-033f-41df-9f1e-316f361d1168","system_id":"levelo_inurba_marseille","lat":43.30111,"lon":5.39053,"is_reserved":false,"is_disabled":false,"rental_uris":{"android":"levelo://app?vid=4d3d050c-033f-41df-9f1e-316f361d1168","ios":"levelo://app?vid=4d3d050c-033f-41df-9f1e-316f361d1168"},"vehicle_type_id":"4","last_reported":1779054211,"current_range_meters":5600,"station_id":"ce4bh192rcd13ifvqdb0","pricing_plan_id":"cebpf4jnsgd1na2vs0mg"},{"bike_id":"4a5c3066-1571-49b5-a67a-b8b186a9e7a4","system_id":"levelo_inurba_marseille","lat":43.30129,"lon":5.39867,"is_reserved":false,"is_disabled":false,"rental_uris":{"android":"levelo://app?vid=4a5c3066-1571-49b5-a67a-b8b186a9e7a4","ios":"levelo://app?vid=4a5c3066-1571-49b5-a67a-b8b186a9e7a4"},"vehicle_type_id":"4","last_reported":1779054211,"current_range_meters":5600,"station_id":"ce4bh0h2rcd13ifvqd40","pricing_plan_id":"cebpf4jnsgd1na2vs0mg"},{"bike_id":"f1cd0890-3e2d-4ace-99cd-3f5cc88ecf21","system_id":"levelo_inurba_marseille","lat":43.3191,"lon":5.36803,"is_reserved":false,"is_disabled":false,"rental_uris":{"android":"levelo://app?vid=f1cd0890-3e2d-4ace-99cd-3f5cc88ecf21","ios":"levelo://app?vid=f1cd0890-3e2d-4ace-99cd-3f5cc88ecf21"},"vehicle_type_id":"4","last_reported":1779054211,"current_range_meters":6000,"station_id":"st_d6o2h0d0559c73evc1b0","pricing_plan_id":"cebpf4jnsgd1na2vs0mg"},{"bike_id":"54ab9ce3-2b91-42b0-a7d8-1383a1442009","system_id":"levelo_inurba_marseille","lat":43.22568,"lon":5.41616,"is_reserved":false,"is_disabled":false,"rental_uris":{"android":"levelo://app?vid=54ab9ce3-2b91-42b0-a7d8-1383a1442009","ios":"levelo://app?vid=54ab9ce3-2b91-42b0-a7d8-1383a1442009"},"vehicle_type_id":"4","last_reported":1779054211,"current_range_meters":6000,"station_id":"st_d2o4gvlbi1j2169b742g","pricing_plan_id":"cebpf4jnsgd1na2vs0mg"},{"bike_id":"de29a9df-666a-46db-9192-1896c223c980","system_id":"levelo_inurba_marseille","lat":43.29489,"lon":5.43303,"is_reserved":false,"is_disabled":false,"rental_uris":{"android":"levelo://app?vid=de29a9df-666a-46db-9192-1896c223c980","ios":"levelo://app?vid=de29a9df-666a-46db-9192-1896c223c980"},"vehicle_type_id":"4","last_reported":1779054211,"current_range_meters":6000,"station_id":"st_d3j5ugp08ojc73fj9d10","pricing_plan_id":"cebpf4jnsgd1na2vs0mg"},{"bike_id":"e7769197-75a5-4ebd-8a7c-258a71c3d79f","system_id":"levelo_inurba_marseille","lat":43.27617,"lon":5.361,"is_reserved":false,"is_disabled":false,"rental_uris":{"android":"levelo://app?vid=e7769197-75a5-4ebd-8a7c-258a71c3d79f","ios":"levelo://app?vid=e7769197-75a5-4ebd-8a7c-258a71c3d79f"},"vehicle_type_id":"4","last_reported":1779054211,"current_range_meters":6000,"station_id":"ce4bhbh2rcd13ifvqeqg","pricing_plan_id":"cebpf4jnsgd1na2vs0mg"},{"bike_id":"62491268-7d1b-4037-9dd7-2d4c13008b92","system_id":"levelo_inurba_marseille","lat":43.30783,"lon":5.37069,"is_reserved":false,"is_disabled":false,"rental_uris":{"android":"levelo://app?vid=62491268-7d1b-4037-9dd7-2d4c13008b92","ios":"levelo://app?vid=62491268-7d1b-4037-9dd7-2d4c13008b92"},"vehicle_type_id":"4","last_reported":1779054211,"current_range_meters":6000,"station_id":"","pricing_plan_id":"cebpf4jnsgd1na2vs0mg"},{"bike_id":"c332725f-1433-4df6-83da-b09f7d9eca8a","system_id":"levelo_inurba_marseille","lat":43.28884,"lon":5.42525,"is_reserved":false,"is_disabled":false,"rental_uris":{"android":"levelo://app?vid=c332725f-1433-4df6-83da-b09f7d9eca8a","ios":"levelo://app?vid=c332725f-1433-4df6-83da-b09f7d9eca8a"},"vehicle_type_id":"4","last_reported":1779054211,"current_range_meters":6000,"station_id":"st_d3b462108ojc7389ooeg","pricing_plan_id":"cebpf4jnsgd1na2vs0mg"},{"bike_id":"d61a5bad-5179-4144-83df-8466c8572fc4","system_id":"levelo_inurba_marseille","lat":43.2396,"lon":5.36621,"is_reserved":false,"is_disabled":false,"rental_uris":{"android":"levelo://app?vid=d61a5bad-5179-4144-83df-8466c8572fc4","ios":"levelo://app?vid=d61a5bad-5179-4144-83df-8466c8572fc4"},"vehicle_type_id":"4","last_reported":1779054211,"current_range_meters":6000,"station_id":"ce4bhi12rcd13ifvqfp0","pricing_plan_id":"cebpf4jnsgd1na2vs0mg"},{"bike_id":"7b127ec7-0070-45dd-9ff1-e1878546b350","system_id":"levelo_inurba_marseille","lat":43.28272,"lon":5.35045,"is_reserved":false,"is_disabled":true,"rental_uris":{"android":"levelo://app?vid=7b127ec7-0070-45dd-9ff1-e1878546b350","ios":"levelo://app?vid=7b127ec7-0070-45dd-9ff1-e1878546b350"},"vehicle_type_id":"4","last_reported":1779054211,"current_range_meters":6000,"station_id":"ce4bhbp2rcd13ifvqerg","pricing_plan_id":"cebpf4jnsgd1na2vs0mg"},{"bike_id":"421a4a3e-070b-4452-b4ee-f31cd3d87611","system_id":"levelo_inurba_marseille","lat":43.301793,"lon":5.366064,"is_reserved":false,"is_disabled":false,"rental_uris":{"android":"levelo://app?vid=421a4a3e-070b-4452-b4ee-f31cd3d87611","ios":"levelo://app?vid=421a4a3e-070b-4452-b4ee-f31cd3d87611"},"vehicle_type_id":"4","last_reported":1779054211,"current_range_meters":6000,"station_id":"ce4bgrh2rcd13ifvqc8g","pricing_plan_id":"cebpf4jnsgd1na2vs0mg"},{"bike_id":"fb32d163-c477-4aa0-97a7-e411303b0a42","system_id":"levelo_inurba_marseille","lat":43.21195,"lon":5.35075,"is_reserved":false,"is_disabled":false,"rental_uris":{"android":"levelo://app?vid=fb32d163-c477-4aa0-97a7-e411303b0a42","ios":"levelo://app?vid=fb32d163-c477-4aa0-97a7-e411303b0a42"},"vehicle_type_id":"4","last_reported":1779054211,"current_range_meters":6000,"station_id":"st_cvj6sg6p6f1abm77japg","pricing_plan_id":"cebpf4jnsgd1na2vs0mg"},{"bike_id":"c6e93e06-3823-44a1-9183-7579cebb2f07","system_id":"levelo_inurba_marseille","lat":43.29257,"lon":5.38402,"is_reserved":false,"is_disabled":false,"rental_uris":{"android":"levelo://app?vid=c6e93e06-3823-44a1-9183-7579cebb2f07","ios":"levelo://app?vid=c6e93e06-3823-44a1-9183-7579cebb2f07"},"vehicle_type_id":"4","last_reported":1779054211,"current_range_meters":6000,"station_id":"ce4bh692rcd13ifvqea0","pricing_plan_id":"cebpf4jnsgd1na2vs0mg"},{"bike_id":"29a1fef6-22a0-4877-9ff6-b425becb2d10","system_id":"levelo_inurba_marseille","lat":43.292,"lon":5.39305,"is_reserved":false,"is_disabled":false,"rental_uris":{"android":"levelo://app?vid=29a1fef6-22a0-4877-9ff6-b425becb2d10","ios":"levelo://app?vid=29a1fef6-22a0-4877-9ff6-b425becb2d10"},"vehicle_type_id":"4","last_reported":1779054211,"current_range_meters":6000,"station_id":"ce4bh192rcd13ifvqdd0","pricing_plan_id":"cebpf4jnsgd1na2vs0mg"},{"bike_id":"4f9c05a9-48cd-4271-bffa-29556b30148b","system_id":"levelo_inurba_marseille","lat":43.29314,"lon":5.40288,"is_reserved":false,"is_disabled":false,"rental_uris":{"android":"levelo://app?vid=4f9c05a9-48cd-4271-bffa-29556b30148b","ios":"levelo://app?vid=4f9c05a9-48cd-4271-bffa-29556b30148b"},"vehicle_type_id":"4","last_reported":1779054211,"current_range_meters":6000,"station_id":"","pricing_plan_id":"cebpf4jnsgd1na2vs0mg"},{"bike_id":"df4672e2-3eea-4479-8560-fa0fb94b9cdd","system_id":"levelo_inurba_marseille","lat":43.28662,"lon":5.36339,"is_reserved":false,"is_disabled":false,"rental_uris":{"android":"levelo://app?vid=df4672e2-3eea-4479-8560-fa0fb94b9cdd","ios":"levelo://app?vid=df4672e2-3eea-4479-8560-fa0fb94b9cdd"},"vehicle_type_id":"4","last_reported":1779054211,"current_range_meters":6000,"station_id":"ce4bhah2rcd13ifvqej0","pricing_plan_id":"cebpf4jnsgd1na2vs0mg"},{"bike_id":"a4dcb63d-da5e-4e93-abca-967325ccef1b","system_id":"levelo_inurba_marseille","lat":43.23896,"lon":5.37451,"is_reserved":false,"is_disabled":true,"rental_uris":{"android":"levelo://app?vid=a4dcb63d-da5e-4e93-abca-967325ccef1b","ios":"levelo://app?vid=a4dcb63d-da5e-4e93-abca-967325ccef1b"},"vehicle_type_id":"4","last_reported":1779054211,"current_range_meters":6000,"station_id":"st_d6sm7csbq4hs73f8fpjg","pricing_plan_id":"cebpf4jnsgd1na2vs0mg"},{"bike_id":"471c599a-d317-44fb-91c7-b181a7263dd1","system_id":"levelo_inurba_marseille","lat":43.24074,"lon":5.37765,"is_reserved":false,"is_disabled":false,"rental_uris":{"android":"levelo://app?vid=471c599a-d317-44fb-91c7-b181a7263dd1","ios":"levelo://app?vid=471c599a-d317-44fb-91c7-b181a7263dd1"},"vehicle_type_id":"4","last_reported":1779054211,"current_range_meters":6000,"station_id":"ce4bhnp2rcd13ifvqgvg","pricing_plan_id":"cebpf4jnsgd1na2vs0mg"},{"bike_id":"ff96d811-7acd-442f-bffc-91ddc6f46614","system_id":"levelo_inurba_marseille","lat":43.28724,"lon":5.36088,"is_reserved":false,"is_disabled":false,"rental_uris":{"android":"levelo://app?vid=ff96d811-7acd-442f-bffc-91ddc6f46614","ios":"levelo://app?vid=ff96d811-7acd-442f-bffc-91ddc6f46614"},"vehicle_type_id":"4","last_reported":1779054211,"current_range_meters":6000,"station_id":"cki0cbj6b192h4jlfktg","pricing_plan_id":"cebpf4jnsgd1na2vs0mg"},{"bike_id":"832d64bf-bfdb-444d-bc03-658089b5ad2a","system_id":"levelo_inurba_marseille","lat":43.27411,"lon":5.36274,"is_reserved":false,"is_disabled":false,"rental_uris":{"android":"levelo://app?vid=832d64bf-bfdb-444d-bc03-658089b5ad2a","ios":"levelo://app?vid=832d64bf-bfdb-444d-bc03-658089b5ad2a"},"vehicle_type_id":"4","last_reported":1779054211,"current_range_meters":6000,"station_id":"","pricing_plan_id":"cebpf4jnsgd1na2vs0mg"},{"bike_id":"d26debdb-f469-4a13-a8ba-292bb0c749cd","system_id":"levelo_inurba_marseille","lat":43.22945,"lon":5.35387,"is_reserved":false,"is_disabled":false,"rental_uris":{"android":"levelo://app?vid=d26debdb-f469-4a13-a8ba-292bb0c749cd","ios":"levelo://app?vid=d26debdb-f469-4a13-a8ba-292bb0c749cd"},"vehicle_type_id":"4","last_reported":1779054211,"current_range_meters":6400,"station_id":"cpo3532slgdg3j2ikp40","pricing_plan_id":"cebpf4jnsgd1na2vs0mg"},{"bike_id":"2e6d9c2d-e110-4ca9-9279-088d56aa12bd","system_id":"levelo_inurba_marseille","lat":43.30245,"lon":5.40034,"is_reserved":false,"is_disabled":false,"rental_uris":{"android":"levelo://app?vid=2e6d9c2d-e110-4ca9-9279-088d56aa12bd","ios":"levelo://app?vid=2e6d9c2d-e110-4ca9-9279-088d56aa12bd"},"vehicle_type_id":"4","last_reported":1779054211,"current_range_meters":6400,"station_id":"ce4bgvh2rcd13ifvqcs0","pricing_plan_id":"cebpf4jnsgd1na2vs0mg"},{"bike_id":"c25116ee-36e8-4385-ac6a-936536f8e0ec","system_id":"levelo_inurba_marseille","lat":43.26575,"lon":5.42158,"is_reserved":false,"is_disabled":false,"rental_uris":{"android":"levelo://app?vid=c25116ee-36e8-4385-ac6a-936536f8e0ec","ios":"levelo://app?vid=c25116ee-36e8-4385-ac6a-936536f8e0ec"},"vehicle_type_id":"4","last_reported":1779054211,"current_range_meters":6400,"station_id":"","pricing_plan_id":"cebpf4jnsgd1na2vs0mg"},{"bike_id":"ce532fcd-5557-4a28-a00e-d605ccf8c010","system_id":"levelo_inurba_marseille","lat":43.24396,"lon":5.37046,"is_reserved":false,"is_disabled":false,"rental_uris":{"android":"levelo://app?vid=ce532fcd-5557-4a28-a00e-d605ccf8c010","ios":"levelo://app?vid=ce532fcd-5557-4a28-a00e-d605ccf8c010"},"vehicle_type_id":"4","last_reported":1779054211,"current_range_meters":6400,"station_id":"ce4bhhh2rcd13ifvqfk0","pricing_plan_id":"cebpf4jnsgd1na2vs0mg"},{"bike_id":"28ea8ab8-f68c-422d-ae62-5dda211f8abb","system_id":"levelo_inurba_marseille","lat":43.32092,"lon":5.36794,"is_reserved":false,"is_disabled":false,"rental_uris":{"android":"levelo://app?vid=28ea8ab8-f68c-422d-ae62-5dda211f8abb","ios":"levelo://app?vid=28ea8ab8-f68c-422d-ae62-5dda211f8abb"},"vehicle_type_id":"4","last_reported":1779054211,"current_range_meters":6400,"station_id":"ce4bhrh2rcd13ifvqhug","pricing_plan_id":"cebpf4jnsgd1na2vs0mg"},{"bike_id":"b4d3a7ef-d996-48f2-a414-1f9c8040bb8f","system_id":"levelo_inurba_marseille","lat":43.27504,"lon":5.42459,"is_reserved":false,"is_disabled":false,"rental_uris":{"android":"levelo://app?vid=b4d3a7ef-d996-48f2-a414-1f9c8040bb8f","ios":"levelo://app?vid=b4d3a7ef-d996-48f2-a414-1f9c8040bb8f"},"vehicle_type_id":"4","last_reported":1779054211,"current_range_meters":6400,"station_id":"ce4bhn92rcd13ifvqgrg","pricing_plan_id":"cebpf4jnsgd1na2vs0mg"},{"bike_id":"b52d7a7b-a3c4-405a-9c6b-19e0e280a3f2","system_id":"levelo_inurba_marseille","lat":43.28663,"lon":5.36346,"is_reserved":false,"is_disabled":false,"rental_uris":{"android":"levelo://app?vid=b52d7a7b-a3c4-405a-9c6b-19e0e280a3f2","ios":"levelo://app?vid=b52d7a7b-a3c4-405a-9c6b-19e0e280a3f2"},"vehicle_type_id":"4","last_reported":1779054211,"current_range_meters":6400,"station_id":"ce4bhah2rcd13ifvqej0","pricing_plan_id":"cebpf4jnsgd1na2vs0mg"},{"bike_id":"6f2c2415-0abc-4a6d-81e0-d4315cd25937","system_id":"levelo_inurba_marseille","lat":43.29315,"lon":5.40145,"is_reserved":false,"is_disabled":false,"rental_uris":{"android":"levelo://app?vid=6f2c2415-0abc-4a6d-81e0-d4315cd25937","ios":"levelo://app?vid=6f2c2415-0abc-4a6d-81e0-d4315cd25937"},"vehicle_type_id":"4","last_reported":1779054211,"current_range_meters":6400,"station_id":"","pricing_plan_id":"cebpf4jnsgd1na2vs0mg"},{"bike_id":"1b82594f-1d27-48bc-a51f-c5dfbc34e8a2","system_id":"levelo_inurba_marseille","lat":43.23181,"lon":5.39982,"is_reserved":false,"is_disabled":false,"rental_uris":{"android":"levelo://app?vid=1b82594f-1d27-48bc-a51f-c5dfbc34e8a2","ios":"levelo://app?vid=1b82594f-1d27-48bc-a51f-c5dfbc34e8a2"},"vehicle_type_id":"4","last_reported":1779054211,"current_range_meters":6400,"station_id":"ce4bhn12rcd13ifvqgqg","pricing_plan_id":"cebpf4jnsgd1na2vs0mg"},{"bike_id":"b1a83a13-4601-4cc8-b069-9b93072b6870","system_id":"levelo_inurba_marseille","lat":43.32109,"lon":5.36774,"is_reserved":false,"is_disabled":false,"rental_uris":{"android":"levelo://app?vid=b1a83a13-4601-4cc8-b069-9b93072b6870","ios":"levelo://app?vid=b1a83a13-4601-4cc8-b069-9b93072b6870"},"vehicle_type_id":"4","last_reported":1779054211,"current_range_meters":6400,"station_id":"ce4bhrh2rcd13ifvqhug","pricing_plan_id":"cebpf4jnsgd1na2vs0mg"},{"bike_id":"37e8354e-ce39-4030-9881-babd9feb5321","system_id":"levelo_inurba_marseille","lat":43.23966,"lon":5.36624,"is_reserved":false,"is_disabled":false,"rental_uris":{"android":"levelo://app?vid=37e8354e-ce39-4030-9881-babd9feb5321","ios":"levelo://app?vid=37e8354e-ce39-4030-9881-babd9feb5321"},"vehicle_type_id":"4","last_reported":1779054211,"current_range_meters":6800,"station_id":"ce4bhi12rcd13ifvqfp0","pricing_plan_id":"cebpf4jnsgd1na2vs0mg"},{"bike_id":"c42cd8aa-b86d-4b0d-a8bd-91284919ac1c","system_id":"levelo_inurba_marseille","lat":43.24391,"lon":5.37045,"is_reserved":false,"is_disabled":false,"rental_uris":{"android":"levelo://app?vid=c42cd8aa-b86d-4b0d-a8bd-91284919ac1c","ios":"levelo://app?vid=c42cd8aa-b86d-4b0d-a8bd-91284919ac1c"},"vehicle_type_id":"4","last_reported":1779054211,"current_range_meters":6800,"station_id":"ce4bhhh2rcd13ifvqfk0","pricing_plan_id":"cebpf4jnsgd1na2vs0mg"},{"bike_id":"2986fb6d-029a-46c2-a508-7b31795b62a0","system_id":"levelo_inurba_marseille","lat":43.27848,"lon":5.40689,"is_reserved":false,"is_disabled":false,"rental_uris":{"android":"levelo://app?vid=2986fb6d-029a-46c2-a508-7b31795b62a0","ios":"levelo://app?vid=2986fb6d-029a-46c2-a508-7b31795b62a0"},"vehicle_type_id":"4","last_reported":1779054211,"current_range_meters":6800,"station_id":"ce4bhnh2rcd13ifvqgtg","pricing_plan_id":"cebpf4jnsgd1na2vs0mg"},{"bike_id":"00f07221-40ec-4f62-9b59-bb0756e8fce8","system_id":"levelo_inurba_marseille","lat":43.2721,"lon":5.39184,"is_reserved":false,"is_disabled":true,"rental_uris":{"android":"levelo://app?vid=00f07221-40ec-4f62-9b59-bb0756e8fce8","ios":"levelo://app?vid=00f07221-40ec-4f62-9b59-bb0756e8fce8"},"vehicle_type_id":"4","last_reported":1779054211,"current_range_meters":6800,"station_id":"ce4bhhp2rcd13ifvqfm0","pricing_plan_id":"cebpf4jnsgd1na2vs0mg"},{"bike_id":"5f6900ba-259e-4899-b1c6-79e14c1eb135","system_id":"levelo_inurba_marseille","lat":43.21199,"lon":5.35104,"is_reserved":false,"is_disabled":false,"rental_uris":{"android":"levelo://app?vid=5f6900ba-259e-4899-b1c6-79e14c1eb135","ios":"levelo://app?vid=5f6900ba-259e-4899-b1c6-79e14c1eb135"},"vehicle_type_id":"4","last_reported":1779054211,"current_range_meters":6800,"station_id":"st_cvj6sg6p6f1abm77japg","pricing_plan_id":"cebpf4jnsgd1na2vs0mg"},{"bike_id":"5c088cbe-f367-4c53-832b-92dcbcd67f3b","system_id":"levelo_inurba_marseille","lat":43.24648,"lon":5.38891,"is_reserved":false,"is_disabled":false,"rental_uris":{"android":"levelo://app?vid=5c088cbe-f367-4c53-832b-92dcbcd67f3b","ios":"levelo://app?vid=5c088cbe-f367-4c53-832b-92dcbcd67f3b"},"vehicle_type_id":"4","last_reported":1779054211,"current_range_meters":6800,"station_id":"ce4bhg12rcd13ifvqf60","pricing_plan_id":"cebpf4jnsgd1na2vs0mg"},{"bike_id":"8a1d19c1-4998-48cc-919f-a7da99fe2397","system_id":"levelo_inurba_marseille","lat":43.27814,"lon":5.39205,"is_reserved":false,"is_disabled":true,"rental_uris":{"android":"levelo://app?vid=8a1d19c1-4998-48cc-919f-a7da99fe2397","ios":"levelo://app?vid=8a1d19c1-4998-48cc-919f-a7da99fe2397"},"vehicle_type_id":"4","last_reported":1779054211,"current_range_meters":6800,"station_id":"ce4bhjp2rcd13ifvqga0","pricing_plan_id":"cebpf4jnsgd1na2vs0mg"},{"bike_id":"dd6df5b2-52b8-49a8-91cf-d826100f9526","system_id":"levelo_inurba_marseille","lat":43.32463,"lon":5.3657,"is_reserved":false,"is_disabled":false,"rental_uris":{"android":"levelo://app?vid=dd6df5b2-52b8-49a8-91cf-d826100f9526","ios":"levelo://app?vid=dd6df5b2-52b8-49a8-91cf-d826100f9526"},"vehicle_type_id":"4","last_reported":1779054211,"current_range_meters":6800,"station_id":"ce4bhs12rcd13ifvqhvg","pricing_plan_id":"cebpf4jnsgd1na2vs0mg"},{"bike_id":"1a604e1b-7247-4bf8-8da3-cd73d8358a5b","system_id":"levelo_inurba_marseille","lat":43.24327,"lon":5.38422,"is_reserved":false,"is_disabled":false,"rental_uris":{"android":"levelo://app?vid=1a604e1b-7247-4bf8-8da3-cd73d8358a5b","ios":"levelo://app?vid=1a604e1b-7247-4bf8-8da3-cd73d8358a5b"},"vehicle_type_id":"4","last_reported":1779054211,"current_range_meters":6800,"station_id":"","pricing_plan_id":"cebpf4jnsgd1na2vs0mg"},{"bike_id":"bd6c6a18-b185-4ca4-bf72-37723228331c","system_id":"levelo_inurba_marseille","lat":43.26861,"lon":5.39494,"is_reserved":false,"is_disabled":false,"rental_uris":{"android":"levelo://app?vid=bd6c6a18-b185-4ca4-bf72-37723228331c","ios":"levelo://app?vid=bd6c6a18-b185-4ca4-bf72-37723228331c"},"vehicle_type_id":"4","last_reported":1779054211,"current_range_meters":6800,"station_id":"","pricing_plan_id":"cebpf4jnsgd1na2vs0mg"},{"bike_id":"dc010552-4fa4-4712-b126-f1fe6f2b27b6","system_id":"levelo_inurba_marseille","lat":43.28105,"lon":5.37807,"is_reserved":false,"is_disabled":false,"rental_uris":{"android":"levelo://app?vid=dc010552-4fa4-4712-b126-f1fe6f2b27b6","ios":"levelo://app?vid=dc010552-4fa4-4712-b126-f1fe6f2b27b6"},"vehicle_type_id":"4","last_reported":1779054211,"current_range_meters":6800,"station_id":"ce4bha12rcd13ifvqee0","pricing_plan_id":"cebpf4jnsgd1na2vs0mg"},{"bike_id":"3709e2eb-1cc1-449a-a8a9-9b35e8235906","system_id":"levelo_inurba_marseille","lat":43.26364,"lon":5.4106,"is_reserved":false,"is_disabled":false,"rental_uris":{"android":"levelo://app?vid=3709e2eb-1cc1-449a-a8a9-9b35e8235906","ios":"levelo://app?vid=3709e2eb-1cc1-449a-a8a9-9b35e8235906"},"vehicle_type_id":"4","last_reported":1779054211,"current_range_meters":6800,"station_id":"st_d4e5ca6na9uc73bfl5fg","pricing_plan_id":"cebpf4jnsgd1na2vs0mg"},{"bike_id":"41ded781-3ab4-4404-8a64-8293b4fa5a47","system_id":"levelo_inurba_marseille","lat":43.3025,"lon":5.40044,"is_reserved":false,"is_disabled":false,"rental_uris":{"android":"levelo://app?vid=41ded781-3ab4-4404-8a64-8293b4fa5a47","ios":"levelo://app?vid=41ded781-3ab4-4404-8a64-8293b4fa5a47"},"vehicle_type_id":"4","last_reported":1779054211,"current_range_meters":6800,"station_id":"ce4bgvh2rcd13ifvqcs0","pricing_plan_id":"cebpf4jnsgd1na2vs0mg"},{"bike_id":"9e878235-dd2c-4199-9aa8-8698ea6e9314","system_id":"levelo_inurba_marseille","lat":43.25101,"lon":5.39524,"is_reserved":false,"is_disabled":false,"rental_uris":{"android":"levelo://app?vid=9e878235-dd2c-4199-9aa8-8698ea6e9314","ios":"levelo://app?vid=9e878235-dd2c-4199-9aa8-8698ea6e9314"},"vehicle_type_id":"4","last_reported":1779054211,"current_range_meters":6800,"station_id":"ce4bhm12rcd13ifvqgkg","pricing_plan_id":"cebpf4jnsgd1na2vs0mg"},{"bike_id":"d815c488-0cf1-4d4b-bacb-68d62f5a9580","system_id":"levelo_inurba_marseille","lat":43.31255,"lon":5.36799,"is_reserved":false,"is_disabled":false,"rental_uris":{"android":"levelo://app?vid=d815c488-0cf1-4d4b-bacb-68d62f5a9580","ios":"levelo://app?vid=d815c488-0cf1-4d4b-bacb-68d62f5a9580"},"vehicle_type_id":"4","last_reported":1779054211,"current_range_meters":6800,"station_id":"","pricing_plan_id":"cebpf4jnsgd1na2vs0mg"},{"bike_id":"afe11141-8996-42c9-8f0d-1bd1997a7530","system_id":"levelo_inurba_marseille","lat":43.29664,"lon":5.37769,"is_reserved":false,"is_disabled":false,"rental_uris":{"android":"levelo://app?vid=afe11141-8996-42c9-8f0d-1bd1997a7530","ios":"levelo://app?vid=afe11141-8996-42c9-8f0d-1bd1997a7530"},"vehicle_type_id":"4","last_reported":1779054211,"current_range_meters":7200,"station_id":"","pricing_plan_id":"cebpf4jnsgd1na2vs0mg"},{"bike_id":"4594bcf5-4027-4564-aa74-8f0911cfd6ee","system_id":"levelo_inurba_marseille","lat":43.26589,"lon":5.39711,"is_reserved":false,"is_disabled":false,"rental_uris":{"android":"levelo://app?vid=4594bcf5-4027-4564-aa74-8f0911cfd6ee","ios":"levelo://app?vid=4594bcf5-4027-4564-aa74-8f0911cfd6ee"},"vehicle_type_id":"4","last_reported":1779054211,"current_range_meters":7200,"station_id":"","pricing_plan_id":"cebpf4jnsgd1na2vs0mg"},{"bike_id":"dae64e63-b5b1-472f-bd6c-4583689cf002","system_id":"levelo_inurba_marseille","lat":43.31705,"lon":5.40494,"is_reserved":false,"is_disabled":false,"rental_uris":{"android":"levelo://app?vid=dae64e63-b5b1-472f-bd6c-4583689cf002","ios":"levelo://app?vid=dae64e63-b5b1-472f-bd6c-4583689cf002"},"vehicle_type_id":"4","last_reported":1779054211,"current_range_meters":7200,"station_id":"ce4bh012rcd13ifvqd00","pricing_plan_id":"cebpf4jnsgd1na2vs0mg"},{"bike_id":"a5a2318a-33d9-4e58-8414-86b09ee999c4","system_id":"levelo_inurba_marseille","lat":43.28002,"lon":5.40008,"is_reserved":false,"is_disabled":false,"rental_uris":{"android":"levelo://app?vid=a5a2318a-33d9-4e58-8414-86b09ee999c4","ios":"levelo://app?vid=a5a2318a-33d9-4e58-8414-86b09ee999c4"},"vehicle_type_id":"4","last_reported":1779054211,"current_range_meters":7200,"station_id":"ce4bho92rcd13ifvqh4g","pricing_plan_id":"cebpf4jnsgd1na2vs0mg"},{"bike_id":"3a47ff7b-1495-4b38-ba63-866198f72bba","system_id":"levelo_inurba_marseille","lat":43.30947,"lon":5.3904,"is_reserved":false,"is_disabled":false,"rental_uris":{"android":"levelo://app?vid=3a47ff7b-1495-4b38-ba63-866198f72bba","ios":"levelo://app?vid=3a47ff7b-1495-4b38-ba63-866198f72bba"},"vehicle_type_id":"4","last_reported":1779054211,"current_range_meters":7200,"station_id":"ce4bgup2rcd13ifvqco0","pricing_plan_id":"cebpf4jnsgd1na2vs0mg"},{"bike_id":"1fbce2f5-da80-4e48-bf50-ba3a76552067","system_id":"levelo_inurba_marseille","lat":43.30942,"lon":5.39051,"is_reserved":false,"is_disabled":true,"rental_uris":{"android":"levelo://app?vid=1fbce2f5-da80-4e48-bf50-ba3a76552067","ios":"levelo://app?vid=1fbce2f5-da80-4e48-bf50-ba3a76552067"},"vehicle_type_id":"4","last_reported":1779054211,"current_range_meters":7200,"station_id":"ce4bgup2rcd13ifvqco0","pricing_plan_id":"cebpf4jnsgd1na2vs0mg"},{"bike_id":"2dd5fc7e-d719-41ed-b4b5-8b59beb997f3","system_id":"levelo_inurba_marseille","lat":43.29432,"lon":5.39762,"is_reserved":false,"is_disabled":false,"rental_uris":{"android":"levelo://app?vid=2dd5fc7e-d719-41ed-b4b5-8b59beb997f3","ios":"levelo://app?vid=2dd5fc7e-d719-41ed-b4b5-8b59beb997f3"},"vehicle_type_id":"4","last_reported":1779054211,"current_range_meters":7200,"station_id":"ce4bh3h2rcd13ifvqdo0","pricing_plan_id":"cebpf4jnsgd1na2vs0mg"},{"bike_id":"0c7fc7e6-13dd-4503-982c-8e557ba72f04","system_id":"levelo_inurba_marseille","lat":43.29077,"lon":5.37163,"is_reserved":false,"is_disabled":true,"rental_uris":{"android":"levelo://app?vid=0c7fc7e6-13dd-4503-982c-8e557ba72f04","ios":"levelo://app?vid=0c7fc7e6-13dd-4503-982c-8e557ba72f04"},"vehicle_type_id":"4","last_reported":1779054211,"current_range_meters":7200,"station_id":"ce4bh5p2rcd13ifvqe4g","pricing_plan_id":"cebpf4jnsgd1na2vs0mg"},{"bike_id":"2d7c74b1-3e33-42fb-af03-1aa65310216f","system_id":"levelo_inurba_marseille","lat":43.30653,"lon":5.40102,"is_reserved":false,"is_disabled":false,"rental_uris":{"android":"levelo://app?vid=2d7c74b1-3e33-42fb-af03-1aa65310216f","ios":"levelo://app?vid=2d7c74b1-3e33-42fb-af03-1aa65310216f"},"vehicle_type_id":"4","last_reported":1779054211,"current_range_meters":7200,"station_id":"ce4bh112rcd13ifvqda0","pricing_plan_id":"cebpf4jnsgd1na2vs0mg"},{"bike_id":"b1c8c55f-8388-42fc-b752-af9b47cf48fa","system_id":"levelo_inurba_marseille","lat":43.26214,"lon":5.37439,"is_reserved":false,"is_disabled":false,"rental_uris":{"android":"levelo://app?vid=b1c8c55f-8388-42fc-b752-af9b47cf48fa","ios":"levelo://app?vid=b1c8c55f-8388-42fc-b752-af9b47cf48fa"},"vehicle_type_id":"4","last_reported":1779054211,"current_range_meters":7200,"station_id":"ce4bhgp2rcd13ifvqfc0","pricing_plan_id":"cebpf4jnsgd1na2vs0mg"},{"bike_id":"c3d0b567-c57c-4ef1-bea5-b14352133d76","system_id":"levelo_inurba_marseille","lat":43.25339,"lon":5.42131,"is_reserved":false,"is_disabled":false,"rental_uris":{"android":"levelo://app?vid=c3d0b567-c57c-4ef1-bea5-b14352133d76","ios":"levelo://app?vid=c3d0b567-c57c-4ef1-bea5-b14352133d76"},"vehicle_type_id":"4","last_reported":1779054211,"current_range_meters":7200,"station_id":"st_d2m65c5bi1j21697t3ng","pricing_plan_id":"cebpf4jnsgd1na2vs0mg"},{"bike_id":"d694a24c-448f-40d3-93b9-cd4f3b5cfb26","system_id":"levelo_inurba_marseille","lat":43.24955,"lon":5.40493,"is_reserved":false,"is_disabled":false,"rental_uris":{"android":"levelo://app?vid=d694a24c-448f-40d3-93b9-cd4f3b5cfb26","ios":"levelo://app?vid=d694a24c-448f-40d3-93b9-cd4f3b5cfb26"},"vehicle_type_id":"4","last_reported":1779054211,"current_range_meters":7200,"station_id":"st_d2ngiaodas8pm72gd1h0","pricing_plan_id":"cebpf4jnsgd1na2vs0mg"},{"bike_id":"2e3ea795-a6bf-458f-844c-e7760666b217","system_id":"levelo_inurba_marseille","lat":43.21179,"lon":5.3509,"is_reserved":false,"is_disabled":false,"rental_uris":{"android":"levelo://app?vid=2e3ea795-a6bf-458f-844c-e7760666b217","ios":"levelo://app?vid=2e3ea795-a6bf-458f-844c-e7760666b217"},"vehicle_type_id":"4","last_reported":1779054211,"current_range_meters":7200,"station_id":"st_cvj6sg6p6f1abm77japg","pricing_plan_id":"cebpf4jnsgd1na2vs0mg"},{"bike_id":"4ffd0320-caf1-4818-8470-812f3e330d06","system_id":"levelo_inurba_marseille","lat":43.28283,"lon":5.35071,"is_reserved":false,"is_disabled":true,"rental_uris":{"android":"levelo://app?vid=4ffd0320-caf1-4818-8470-812f3e330d06","ios":"levelo://app?vid=4ffd0320-caf1-4818-8470-812f3e330d06"},"vehicle_type_id":"4","last_reported":1779054211,"current_range_meters":7200,"station_id":"ce4bhbp2rcd13ifvqerg","pricing_plan_id":"cebpf4jnsgd1na2vs0mg"},{"bike_id":"bb9cd75a-b7c6-451a-ae1b-ccad6972075c","system_id":"levelo_inurba_marseille","lat":43.337444,"lon":5.374475,"is_reserved":false,"is_disabled":false,"rental_uris":{"android":"levelo://app?vid=bb9cd75a-b7c6-451a-ae1b-ccad6972075c","ios":"levelo://app?vid=bb9cd75a-b7c6-451a-ae1b-ccad6972075c"},"vehicle_type_id":"4","last_reported":1779054211,"current_range_meters":7200,"station_id":"","pricing_plan_id":"cebpf4jnsgd1na2vs0mg"},{"bike_id":"8dc7b2ad-9120-4009-8c05-65cfd51c493c","system_id":"levelo_inurba_marseille","lat":43.29868,"lon":5.38942,"is_reserved":false,"is_disabled":false,"rental_uris":{"android":"levelo://app?vid=8dc7b2ad-9120-4009-8c05-65cfd51c493c","ios":"levelo://app?vid=8dc7b2ad-9120-4009-8c05-65cfd51c493c"},"vehicle_type_id":"4","last_reported":1779054211,"current_range_meters":7200,"station_id":"ce4bh392rcd13ifvqdl0","pricing_plan_id":"cebpf4jnsgd1na2vs0mg"},{"bike_id":"0ab4d095-2343-49ac-9cf5-8431ecc99ec0","system_id":"levelo_inurba_marseille","lat":43.30136,"lon":5.38774,"is_reserved":false,"is_disabled":false,"rental_uris":{"android":"levelo://app?vid=0ab4d095-2343-49ac-9cf5-8431ecc99ec0","ios":"levelo://app?vid=0ab4d095-2343-49ac-9cf5-8431ecc99ec0"},"vehicle_type_id":"4","last_reported":1779054211,"current_range_meters":7200,"station_id":"ce4bghh2rcd13ifvqb60","pricing_plan_id":"cebpf4jnsgd1na2vs0mg"},{"bike_id":"0625ea84-8105-448f-87d5-411c05db2009","system_id":"levelo_inurba_marseille","lat":43.29815,"lon":5.41676,"is_reserved":false,"is_disabled":false,"rental_uris":{"android":"levelo://app?vid=0625ea84-8105-448f-87d5-411c05db2009","ios":"levelo://app?vid=0625ea84-8105-448f-87d5-411c05db2009"},"vehicle_type_id":"4","last_reported":1779054211,"current_range_meters":7200,"station_id":"","pricing_plan_id":"cebpf4jnsgd1na2vs0mg"},{"bike_id":"e6118e42-e6a4-411e-879d-8ecc423252b3","system_id":"levelo_inurba_marseille","lat":43.28972,"lon":5.3783,"is_reserved":false,"is_disabled":false,"rental_uris":{"android":"levelo://app?vid=e6118e42-e6a4-411e-879d-8ecc423252b3","ios":"levelo://app?vid=e6118e42-e6a4-411e-879d-8ecc423252b3"},"vehicle_type_id":"4","last_reported":1779054211,"current_range_meters":7200,"station_id":"ce4bh9p2rcd13ifvqed0","pricing_plan_id":"cebpf4jnsgd1na2vs0mg"},{"bike_id":"43442916-2496-4a59-9563-08917babadbf","system_id":"levelo_inurba_marseille","lat":43.28665,"lon":5.38685,"is_reserved":false,"is_disabled":false,"rental_uris":{"android":"levelo://app?vid=43442916-2496-4a59-9563-08917babadbf","ios":"levelo://app?vid=43442916-2496-4a59-9563-08917babadbf"},"vehicle_type_id":"4","last_reported":1779054211,"current_range_meters":7200,"station_id":"ce4bh492rcd13ifvqdug","pricing_plan_id":"cebpf4jnsgd1na2vs0mg"},{"bike_id":"11f149fb-1408-4969-a9ff-b85a4b651e7c","system_id":"levelo_inurba_marseille","lat":43.26372,"lon":5.41074,"is_reserved":false,"is_disabled":false,"rental_uris":{"android":"levelo://app?vid=11f149fb-1408-4969-a9ff-b85a4b651e7c","ios":"levelo://app?vid=11f149fb-1408-4969-a9ff-b85a4b651e7c"},"vehicle_type_id":"4","last_reported":1779054211,"current_range_meters":7200,"station_id":"st_d4e5ca6na9uc73bfl5fg","pricing_plan_id":"cebpf4jnsgd1na2vs0mg"},{"bike_id":"6276bff5-4581-47e4-a8e1-b655b8d14bf7","system_id":"levelo_inurba_marseille","lat":43.31231,"lon":5.37808,"is_reserved":false,"is_disabled":false,"rental_uris":{"android":"levelo://app?vid=6276bff5-4581-47e4-a8e1-b655b8d14bf7","ios":"levelo://app?vid=6276bff5-4581-47e4-a8e1-b655b8d14bf7"},"vehicle_type_id":"4","last_reported":1779054211,"current_range_meters":7200,"station_id":"","pricing_plan_id":"cebpf4jnsgd1na2vs0mg"},{"bike_id":"44d62942-015e-4e08-aa58-a151f9d82f40","system_id":"levelo_inurba_marseille","lat":43.25091,"lon":5.39507,"is_reserved":false,"is_disabled":false,"rental_uris":{"android":"levelo://app?vid=44d62942-015e-4e08-aa58-a151f9d82f40","ios":"levelo://app?vid=44d62942-015e-4e08-aa58-a151f9d82f40"},"vehicle_type_id":"4","last_reported":1779054211,"current_range_meters":8000,"station_id":"ce4bhm12rcd13ifvqgkg","pricing_plan_id":"cebpf4jnsgd1na2vs0mg"},{"bike_id":"b33fe95e-35af-4b58-b9e7-0c6a8caa8110","system_id":"levelo_inurba_marseille","lat":43.29783,"lon":5.39354,"is_reserved":false,"is_disabled":false,"rental_uris":{"android":"levelo://app?vid=b33fe95e-35af-4b58-b9e7-0c6a8caa8110","ios":"levelo://app?vid=b33fe95e-35af-4b58-b9e7-0c6a8caa8110"},"vehicle_type_id":"4","last_reported":1779054211,"current_range_meters":8000,"station_id":"chh1huq6cuj3fo74tm60","pricing_plan_id":"cebpf4jnsgd1na2vs0mg"},{"bike_id":"c802a554-9fb5-4e10-819d-3615d5152820","system_id":"levelo_inurba_marseille","lat":43.23969,"lon":5.36619,"is_reserved":false,"is_disabled":false,"rental_uris":{"android":"levelo://app?vid=c802a554-9fb5-4e10-819d-3615d5152820","ios":"levelo://app?vid=c802a554-9fb5-4e10-819d-3615d5152820"},"vehicle_type_id":"4","last_reported":1779054211,"current_range_meters":8000,"station_id":"ce4bhi12rcd13ifvqfp0","pricing_plan_id":"cebpf4jnsgd1na2vs0mg"},{"bike_id":"47a2a6ef-37cb-4def-a862-a0fa35fdf816","system_id":"levelo_inurba_marseille","lat":43.29596,"lon":5.36729,"is_reserved":false,"is_disabled":false,"rental_uris":{"android":"levelo://app?vid=47a2a6ef-37cb-4def-a862-a0fa35fdf816","ios":"levelo://app?vid=47a2a6ef-37cb-4def-a862-a0fa35fdf816"},"vehicle_type_id":"4","last_reported":1779054211,"current_range_meters":8000,"station_id":"ce4bgph2rcd13ifvqc2g","pricing_plan_id":"cebpf4jnsgd1na2vs0mg"},{"bike_id":"75e7518c-c79c-4b62-8637-9308e20f07f0","system_id":"levelo_inurba_marseille","lat":43.26549,"lon":5.37282,"is_reserved":false,"is_disabled":false,"rental_uris":{"android":"levelo://app?vid=75e7518c-c79c-4b62-8637-9308e20f07f0","ios":"levelo://app?vid=75e7518c-c79c-4b62-8637-9308e20f07f0"},"vehicle_type_id":"4","last_reported":1779054211,"current_range_meters":8000,"station_id":"ce4bhg12rcd13ifvqf70","pricing_plan_id":"cebpf4jnsgd1na2vs0mg"},{"bike_id":"a07fc93a-0889-42f5-b604-e39f1548e4a2","system_id":"levelo_inurba_marseille","lat":43.27992,"lon":5.40016,"is_reserved":false,"is_disabled":false,"rental_uris":{"android":"levelo://app?vid=a07fc93a-0889-42f5-b604-e39f1548e4a2","ios":"levelo://app?vid=a07fc93a-0889-42f5-b604-e39f1548e4a2"},"vehicle_type_id":"4","last_reported":1779054211,"current_range_meters":8000,"station_id":"ce4bho92rcd13ifvqh4g","pricing_plan_id":"cebpf4jnsgd1na2vs0mg"},{"bike_id":"4280f3b9-7424-4daa-b934-ee7e1773b5ea","system_id":"levelo_inurba_marseille","lat":43.27068,"lon":5.38317,"is_reserved":false,"is_disabled":false,"rental_uris":{"android":"levelo://app?vid=4280f3b9-7424-4daa-b934-ee7e1773b5ea","ios":"levelo://app?vid=4280f3b9-7424-4daa-b934-ee7e1773b5ea"},"vehicle_type_id":"4","last_reported":1779054211,"current_range_meters":8000,"station_id":"st_d3n2fo6cfp8s73cte1j0","pricing_plan_id":"cebpf4jnsgd1na2vs0mg"},{"bike_id":"332f0f18-438c-4d98-a30f-6bc7a8ac3ae6","system_id":"levelo_inurba_marseille","lat":43.28613,"lon":5.39869,"is_reserved":false,"is_disabled":false,"rental_uris":{"android":"levelo://app?vid=332f0f18-438c-4d98-a30f-6bc7a8ac3ae6","ios":"levelo://app?vid=332f0f18-438c-4d98-a30f-6bc7a8ac3ae6"},"vehicle_type_id":"4","last_reported":1779054211,"current_range_meters":8000,"station_id":"st_d4a7ka997mjs738ck50g","pricing_plan_id":"cebpf4jnsgd1na2vs0mg"},{"bike_id":"b81bfa2d-bdf1-466c-8696-75a73b68ab5f","system_id":"levelo_inurba_marseille","lat":43.24172,"lon":5.36406,"is_reserved":false,"is_disabled":true,"rental_uris":{"android":"levelo://app?vid=b81bfa2d-bdf1-466c-8696-75a73b68ab5f","ios":"levelo://app?vid=b81bfa2d-bdf1-466c-8696-75a73b68ab5f"},"vehicle_type_id":"4","last_reported":1779054211,"current_range_meters":8000,"station_id":"cpo36qri1sfpv3e86is0","pricing_plan_id":"cebpf4jnsgd1na2vs0mg"},{"bike_id":"b4ae7491-4de9-456b-9b55-95710a619028","system_id":"levelo_inurba_marseille","lat":43.29213,"lon":5.36081,"is_reserved":false,"is_disabled":false,"rental_uris":{"android":"levelo://app?vid=b4ae7491-4de9-456b-9b55-95710a619028","ios":"levelo://app?vid=b4ae7491-4de9-456b-9b55-95710a619028"},"vehicle_type_id":"4","last_reported":1779054211,"current_range_meters":8000,"station_id":"ce4bhbh2rcd13ifvqeqg","pricing_plan_id":"cebpf4jnsgd1na2vs0mg"},{"bike_id":"4403e0f2-3728-4b55-9ee7-4919ddfa29cf","system_id":"levelo_inurba_marseille","lat":43.29724,"lon":5.4162,"is_reserved":false,"is_disabled":false,"rental_uris":{"android":"levelo://app?vid=4403e0f2-3728-4b55-9ee7-4919ddfa29cf","ios":"levelo://app?vid=4403e0f2-3728-4b55-9ee7-4919ddfa29cf"},"vehicle_type_id":"4","last_reported":1779054211,"current_range_meters":8000,"station_id":"","pricing_plan_id":"cebpf4jnsgd1na2vs0mg"},{"bike_id":"59751aaa-1388-4dd9-98e1-46458591d8bf","system_id":"levelo_inurba_marseille","lat":43.32575,"lon":5.39926,"is_reserved":false,"is_disabled":false,"rental_uris":{"android":"levelo://app?vid=59751aaa-1388-4dd9-98e1-46458591d8bf","ios":"levelo://app?vid=59751aaa-1388-4dd9-98e1-46458591d8bf"},"vehicle_type_id":"4","last_reported":1779054211,"current_range_meters":8000,"station_id":"","pricing_plan_id":"cebpf4jnsgd1na2vs0mg"},{"bike_id":"2a0f5a5f-e48d-4a40-83ca-b49fb42d8f35","system_id":"levelo_inurba_marseille","lat":43.29263,"lon":5.38443,"is_reserved":false,"is_disabled":false,"rental_uris":{"android":"levelo://app?vid=2a0f5a5f-e48d-4a40-83ca-b49fb42d8f35","ios":"levelo://app?vid=2a0f5a5f-e48d-4a40-83ca-b49fb42d8f35"},"vehicle_type_id":"4","last_reported":1779054211,"current_range_meters":8000,"station_id":"ce4bh692rcd13ifvqea0","pricing_plan_id":"cebpf4jnsgd1na2vs0mg"},{"bike_id":"1d095693-2450-4994-a078-b31dc5ce940a","system_id":"levelo_inurba_marseille","lat":43.28645,"lon":5.3779,"is_reserved":false,"is_disabled":false,"rental_uris":{"android":"levelo://app?vid=1d095693-2450-4994-a078-b31dc5ce940a","ios":"levelo://app?vid=1d095693-2450-4994-a078-b31dc5ce940a"},"vehicle_type_id":"4","last_reported":1779054211,"current_range_meters":8000,"station_id":"","pricing_plan_id":"cebpf4jnsgd1na2vs0mg"},{"bike_id":"126735d8-a6b3-4888-aa40-5a961ac244e7","system_id":"levelo_inurba_marseille","lat":43.3189,"lon":5.36796,"is_reserved":false,"is_disabled":false,"rental_uris":{"android":"levelo://app?vid=126735d8-a6b3-4888-aa40-5a961ac244e7","ios":"levelo://app?vid=126735d8-a6b3-4888-aa40-5a961ac244e7"},"vehicle_type_id":"4","last_reported":1779054211,"current_range_meters":8000,"station_id":"st_d6o2h0d0559c73evc1b0","pricing_plan_id":"cebpf4jnsgd1na2vs0mg"},{"bike_id":"5b20d758-5f48-43ef-bae2-273e9d505dcd","system_id":"levelo_inurba_marseille","lat":43.29619,"lon":5.38116,"is_reserved":false,"is_disabled":false,"rental_uris":{"android":"levelo://app?vid=5b20d758-5f48-43ef-bae2-273e9d505dcd","ios":"levelo://app?vid=5b20d758-5f48-43ef-bae2-273e9d505dcd"},"vehicle_type_id":"4","last_reported":1779054211,"current_range_meters":8000,"station_id":"ce4bgl12rcd13ifvqbo0","pricing_plan_id":"cebpf4jnsgd1na2vs0mg"},{"bike_id":"a1637fae-cad0-4d79-b358-a47ebcc91caf","system_id":"levelo_inurba_marseille","lat":43.2787,"lon":5.38556,"is_reserved":false,"is_disabled":false,"rental_uris":{"android":"levelo://app?vid=a1637fae-cad0-4d79-b358-a47ebcc91caf","ios":"levelo://app?vid=a1637fae-cad0-4d79-b358-a47ebcc91caf"},"vehicle_type_id":"4","last_reported":1779054211,"current_range_meters":8000,"station_id":"","pricing_plan_id":"cebpf4jnsgd1na2vs0mg"},{"bike_id":"ba9139b3-b8e8-4c83-a23a-5acff42cf9ab","system_id":"levelo_inurba_marseille","lat":43.24966,"lon":5.40521,"is_reserved":false,"is_disabled":false,"rental_uris":{"android":"levelo://app?vid=ba9139b3-b8e8-4c83-a23a-5acff42cf9ab","ios":"levelo://app?vid=ba9139b3-b8e8-4c83-a23a-5acff42cf9ab"},"vehicle_type_id":"4","last_reported":1779054211,"current_range_meters":8000,"station_id":"st_d2ngiaodas8pm72gd1h0","pricing_plan_id":"cebpf4jnsgd1na2vs0mg"},{"bike_id":"a00582bb-14ee-4488-b76d-e923712179d5","system_id":"levelo_inurba_marseille","lat":43.22566,"lon":5.41614,"is_reserved":false,"is_disabled":false,"rental_uris":{"android":"levelo://app?vid=a00582bb-14ee-4488-b76d-e923712179d5","ios":"levelo://app?vid=a00582bb-14ee-4488-b76d-e923712179d5"},"vehicle_type_id":"4","last_reported":1779054211,"current_range_meters":8000,"station_id":"st_d2o4gvlbi1j2169b742g","pricing_plan_id":"cebpf4jnsgd1na2vs0mg"},{"bike_id":"616a37b9-2d39-4d33-aa08-3afeee8eb5cc","system_id":"levelo_inurba_marseille","lat":43.2481,"lon":5.37457,"is_reserved":false,"is_disabled":false,"rental_uris":{"android":"levelo://app?vid=616a37b9-2d39-4d33-aa08-3afeee8eb5cc","ios":"levelo://app?vid=616a37b9-2d39-4d33-aa08-3afeee8eb5cc"},"vehicle_type_id":"4","last_reported":1779054211,"current_range_meters":8000,"station_id":"ce4bhgh2rcd13ifvqfb0","pricing_plan_id":"cebpf4jnsgd1na2vs0mg"},{"bike_id":"8eec7ab5-ecfd-4c0b-8455-8aedde689e50","system_id":"levelo_inurba_marseille","lat":43.29013,"lon":5.38127,"is_reserved":false,"is_disabled":false,"rental_uris":{"android":"levelo://app?vid=8eec7ab5-ecfd-4c0b-8455-8aedde689e50","ios":"levelo://app?vid=8eec7ab5-ecfd-4c0b-8455-8aedde689e50"},"vehicle_type_id":"4","last_reported":1779054211,"current_range_meters":8000,"station_id":"ce4bh4p2rcd13ifvqe1g","pricing_plan_id":"cebpf4jnsgd1na2vs0mg"},{"bike_id":"c607e0b1-2b1d-4776-bf18-1bde0ba0cad9","system_id":"levelo_inurba_marseille","lat":43.29776,"lon":5.37085,"is_reserved":false,"is_disabled":false,"rental_uris":{"android":"levelo://app?vid=c607e0b1-2b1d-4776-bf18-1bde0ba0cad9","ios":"levelo://app?vid=c607e0b1-2b1d-4776-bf18-1bde0ba0cad9"},"vehicle_type_id":"4","last_reported":1779054211,"current_range_meters":8000,"station_id":"ce4bgop2rcd13ifvqc1g","pricing_plan_id":"cebpf4jnsgd1na2vs0mg"},{"bike_id":"e2a000ce-dcb8-4ea0-a726-21acbdc29397","system_id":"levelo_inurba_marseille","lat":43.30419,"lon":5.41307,"is_reserved":false,"is_disabled":false,"rental_uris":{"android":"levelo://app?vid=e2a000ce-dcb8-4ea0-a726-21acbdc29397","ios":"levelo://app?vid=e2a000ce-dcb8-4ea0-a726-21acbdc29397"},"vehicle_type_id":"4","last_reported":1779054211,"current_range_meters":8000,"station_id":"ce4bhop2rcd13ifvqh8g","pricing_plan_id":"cebpf4jnsgd1na2vs0mg"},{"bike_id":"67e76aeb-e290-4d9f-a86a-a4195e2bcdfa","system_id":"levelo_inurba_marseille","lat":43.32107,"lon":5.36766,"is_reserved":false,"is_disabled":false,"rental_uris":{"android":"levelo://app?vid=67e76aeb-e290-4d9f-a86a-a4195e2bcdfa","ios":"levelo://app?vid=67e76aeb-e290-4d9f-a86a-a4195e2bcdfa"},"vehicle_type_id":"4","last_reported":1779054211,"current_range_meters":8000,"station_id":"ce4bhrh2rcd13ifvqhug","pricing_plan_id":"cebpf4jnsgd1na2vs0mg"},{"bike_id":"8f9937f3-c536-45b0-80fa-7127a471059b","system_id":"levelo_inurba_marseille","lat":43.28701,"lon":5.46676,"is_reserved":false,"is_disabled":false,"rental_uris":{"android":"levelo://app?vid=8f9937f3-c536-45b0-80fa-7127a471059b","ios":"levelo://app?vid=8f9937f3-c536-45b0-80fa-7127a471059b"},"vehicle_type_id":"4","last_reported":1779054211,"current_range_meters":8000,"station_id":"st_d6tc3vkotcvc738tfjhg","pricing_plan_id":"cebpf4jnsgd1na2vs0mg"},{"bike_id":"6adcefd4-5da8-42e2-8b68-86fc98bbdd70","system_id":"levelo_inurba_marseille","lat":43.31363,"lon":5.44149,"is_reserved":false,"is_disabled":false,"rental_uris":{"android":"levelo://app?vid=6adcefd4-5da8-42e2-8b68-86fc98bbdd70","ios":"levelo://app?vid=6adcefd4-5da8-42e2-8b68-86fc98bbdd70"},"vehicle_type_id":"4","last_reported":1779054211,"current_range_meters":8000,"station_id":"","pricing_plan_id":"cebpf4jnsgd1na2vs0mg"},{"bike_id":"616c5c84-9b14-431b-b112-9402b7ccf9f1","system_id":"levelo_inurba_marseille","lat":43.30213,"lon":5.39465,"is_reserved":false,"is_disabled":false,"rental_uris":{"android":"levelo://app?vid=616c5c84-9b14-431b-b112-9402b7ccf9f1","ios":"levelo://app?vid=616c5c84-9b14-431b-b112-9402b7ccf9f1"},"vehicle_type_id":"4","last_reported":1779054211,"current_range_meters":8000,"station_id":"ce4bh0p2rcd13ifvqd70","pricing_plan_id":"cebpf4jnsgd1na2vs0mg"},{"bike_id":"eb8ebb0d-c874-4c4f-9aef-bd9f11e8a2ff","system_id":"levelo_inurba_marseille","lat":43.2997,"lon":5.37167,"is_reserved":false,"is_disabled":false,"rental_uris":{"android":"levelo://app?vid=eb8ebb0d-c874-4c4f-9aef-bd9f11e8a2ff","ios":"levelo://app?vid=eb8ebb0d-c874-4c4f-9aef-bd9f11e8a2ff"},"vehicle_type_id":"4","last_reported":1779054211,"current_range_meters":8000,"station_id":"ce4bgr92rcd13ifvqc7g","pricing_plan_id":"cebpf4jnsgd1na2vs0mg"},{"bike_id":"cddca771-c3fb-4d89-8226-8a70f32ae088","system_id":"levelo_inurba_marseille","lat":43.26224,"lon":5.40439,"is_reserved":false,"is_disabled":true,"rental_uris":{"android":"levelo://app?vid=cddca771-c3fb-4d89-8226-8a70f32ae088","ios":"levelo://app?vid=cddca771-c3fb-4d89-8226-8a70f32ae088"},"vehicle_type_id":"4","last_reported":1779054211,"current_range_meters":8000,"station_id":"ce4bhmh2rcd13ifvqgmg","pricing_plan_id":"cebpf4jnsgd1na2vs0mg"},{"bike_id":"627b26f3-84b0-47c1-9a7d-7d4e921513f2","system_id":"levelo_inurba_marseille","lat":43.29187,"lon":5.39309,"is_reserved":false,"is_disabled":false,"rental_uris":{"android":"levelo://app?vid=627b26f3-84b0-47c1-9a7d-7d4e921513f2","ios":"levelo://app?vid=627b26f3-84b0-47c1-9a7d-7d4e921513f2"},"vehicle_type_id":"4","last_reported":1779054211,"current_range_meters":8400,"station_id":"ce4bh192rcd13ifvqdd0","pricing_plan_id":"cebpf4jnsgd1na2vs0mg"},{"bike_id":"96cd2606-e013-4501-8dde-4120dbdd0512","system_id":"levelo_inurba_marseille","lat":43.33538,"lon":5.37462,"is_reserved":false,"is_disabled":false,"rental_uris":{"android":"levelo://app?vid=96cd2606-e013-4501-8dde-4120dbdd0512","ios":"levelo://app?vid=96cd2606-e013-4501-8dde-4120dbdd0512"},"vehicle_type_id":"4","last_reported":1779054211,"current_range_meters":8400,"station_id":"st_d46tts09ee8s73dlu43g","pricing_plan_id":"cebpf4jnsgd1na2vs0mg"},{"bike_id":"fb13ce5a-b947-4685-af35-f885d7c76828","system_id":"levelo_inurba_marseille","lat":43.26218,"lon":5.40457,"is_reserved":false,"is_disabled":false,"rental_uris":{"android":"levelo://app?vid=fb13ce5a-b947-4685-af35-f885d7c76828","ios":"levelo://app?vid=fb13ce5a-b947-4685-af35-f885d7c76828"},"vehicle_type_id":"4","last_reported":1779054211,"current_range_meters":8400,"station_id":"ce4bhmh2rcd13ifvqgmg","pricing_plan_id":"cebpf4jnsgd1na2vs0mg"},{"bike_id":"e62efea3-6562-47c6-809b-481f65f6b77a","system_id":"levelo_inurba_marseille","lat":43.239647,"lon":5.366361,"is_reserved":false,"is_disabled":false,"rental_uris":{"android":"levelo://app?vid=e62efea3-6562-47c6-809b-481f65f6b77a","ios":"levelo://app?vid=e62efea3-6562-47c6-809b-481f65f6b77a"},"vehicle_type_id":"4","last_reported":1779054211,"current_range_meters":8400,"station_id":"ce4bhi12rcd13ifvqfp0","pricing_plan_id":"cebpf4jnsgd1na2vs0mg"},{"bike_id":"72903579-8fd6-484f-b59e-c52adf730e7d","system_id":"levelo_inurba_marseille","lat":43.28576,"lon":5.39471,"is_reserved":false,"is_disabled":false,"rental_uris":{"android":"levelo://app?vid=72903579-8fd6-484f-b59e-c52adf730e7d","ios":"levelo://app?vid=72903579-8fd6-484f-b59e-c52adf730e7d"},"vehicle_type_id":"4","last_reported":1779054211,"current_range_meters":8400,"station_id":"ce4bh292rcd13ifvqdg0","pricing_plan_id":"cebpf4jnsgd1na2vs0mg"},{"bike_id":"9c504b61-4d98-4542-991c-e93eb43429cc","system_id":"levelo_inurba_marseille","lat":43.29572,"lon":5.39963,"is_reserved":false,"is_disabled":false,"rental_uris":{"android":"levelo://app?vid=9c504b61-4d98-4542-991c-e93eb43429cc","ios":"levelo://app?vid=9c504b61-4d98-4542-991c-e93eb43429cc"},"vehicle_type_id":"4","last_reported":1779054211,"current_range_meters":8400,"station_id":"ce4bh312rcd13ifvqdj0","pricing_plan_id":"cebpf4jnsgd1na2vs0mg"},{"bike_id":"8ce725bf-3fdc-443e-9866-f5b8bb9f4297","system_id":"levelo_inurba_marseille","lat":43.300128,"lon":5.388946,"is_reserved":false,"is_disabled":false,"rental_uris":{"android":"levelo://app?vid=8ce725bf-3fdc-443e-9866-f5b8bb9f4297","ios":"levelo://app?vid=8ce725bf-3fdc-443e-9866-f5b8bb9f4297"},"vehicle_type_id":"4","last_reported":1779054211,"current_range_meters":8400,"station_id":"","pricing_plan_id":"cebpf4jnsgd1na2vs0mg"},{"bike_id":"a7450a4a-671c-4579-bd7c-c4eb2bffe00f","system_id":"levelo_inurba_marseille","lat":43.288587,"lon":5.425307,"is_reserved":false,"is_disabled":false,"rental_uris":{"android":"levelo://app?vid=a7450a4a-671c-4579-bd7c-c4eb2bffe00f","ios":"levelo://app?vid=a7450a4a-671c-4579-bd7c-c4eb2bffe00f"},"vehicle_type_id":"4","last_reported":1779054211,"current_range_meters":8400,"station_id":"st_d3b462108ojc7389ooeg","pricing_plan_id":"cebpf4jnsgd1na2vs0mg"},{"bike_id":"429a4c8b-5dbf-4efe-b06c-07b9b631e0c8","system_id":"levelo_inurba_marseille","lat":43.29421,"lon":5.39742,"is_reserved":false,"is_disabled":false,"rental_uris":{"android":"levelo://app?vid=429a4c8b-5dbf-4efe-b06c-07b9b631e0c8","ios":"levelo://app?vid=429a4c8b-5dbf-4efe-b06c-07b9b631e0c8"},"vehicle_type_id":"4","last_reported":1779054211,"current_range_meters":8400,"station_id":"ce4bh3h2rcd13ifvqdo0","pricing_plan_id":"cebpf4jnsgd1na2vs0mg"},{"bike_id":"265c693f-c560-4fcb-a211-c19c9830e5d6","system_id":"levelo_inurba_marseille","lat":43.24669,"lon":5.38152,"is_reserved":false,"is_disabled":false,"rental_uris":{"android":"levelo://app?vid=265c693f-c560-4fcb-a211-c19c9830e5d6","ios":"levelo://app?vid=265c693f-c560-4fcb-a211-c19c9830e5d6"},"vehicle_type_id":"4","last_reported":1779054211,"current_range_meters":8400,"station_id":"ce4bhih2rcd13ifvqfr0","pricing_plan_id":"cebpf4jnsgd1na2vs0mg"},{"bike_id":"dbff2f56-fecc-4566-9e72-f251e59a0a58","system_id":"levelo_inurba_marseille","lat":43.22555,"lon":5.41633,"is_reserved":false,"is_disabled":false,"rental_uris":{"android":"levelo://app?vid=dbff2f56-fecc-4566-9e72-f251e59a0a58","ios":"levelo://app?vid=dbff2f56-fecc-4566-9e72-f251e59a0a58"},"vehicle_type_id":"4","last_reported":1779054211,"current_range_meters":8400,"station_id":"st_d2o4gvlbi1j2169b742g","pricing_plan_id":"cebpf4jnsgd1na2vs0mg"},{"bike_id":"5d23e7ca-539a-488d-b581-4fc9ac04d4bf","system_id":"levelo_inurba_marseille","lat":43.24816,"lon":5.37442,"is_reserved":false,"is_disabled":false,"rental_uris":{"android":"levelo://app?vid=5d23e7ca-539a-488d-b581-4fc9ac04d4bf","ios":"levelo://app?vid=5d23e7ca-539a-488d-b581-4fc9ac04d4bf"},"vehicle_type_id":"4","last_reported":1779054211,"current_range_meters":8400,"station_id":"ce4bhgh2rcd13ifvqfb0","pricing_plan_id":"cebpf4jnsgd1na2vs0mg"},{"bike_id":"2965f993-c553-4a93-b31f-7339498805aa","system_id":"levelo_inurba_marseille","lat":43.29233,"lon":5.36064,"is_reserved":false,"is_disabled":true,"rental_uris":{"android":"levelo://app?vid=2965f993-c553-4a93-b31f-7339498805aa","ios":"levelo://app?vid=2965f993-c553-4a93-b31f-7339498805aa"},"vehicle_type_id":"4","last_reported":1779054211,"current_range_meters":8400,"station_id":"ce4bhbh2rcd13ifvqeqg","pricing_plan_id":"cebpf4jnsgd1na2vs0mg"},{"bike_id":"8efef881-1519-49b8-95df-1da3bd7d822c","system_id":"levelo_inurba_marseille","lat":43.23964,"lon":5.36622,"is_reserved":false,"is_disabled":false,"rental_uris":{"android":"levelo://app?vid=8efef881-1519-49b8-95df-1da3bd7d822c","ios":"levelo://app?vid=8efef881-1519-49b8-95df-1da3bd7d822c"},"vehicle_type_id":"4","last_reported":1779054211,"current_range_meters":8400,"station_id":"ce4bhi12rcd13ifvqfp0","pricing_plan_id":"cebpf4jnsgd1na2vs0mg"},{"bike_id":"41d7edf7-f6c8-4a98-9eaa-4733fd81d56a","system_id":"levelo_inurba_marseille","lat":43.30132,"lon":5.38772,"is_reserved":false,"is_disabled":false,"rental_uris":{"android":"levelo://app?vid=41d7edf7-f6c8-4a98-9eaa-4733fd81d56a","ios":"levelo://app?vid=41d7edf7-f6c8-4a98-9eaa-4733fd81d56a"},"vehicle_type_id":"4","last_reported":1779054211,"current_range_meters":8400,"station_id":"ce4bghh2rcd13ifvqb60","pricing_plan_id":"cebpf4jnsgd1na2vs0mg"},{"bike_id":"50a6d4b0-42a5-49b2-a746-3042908bb0af","system_id":"levelo_inurba_marseille","lat":43.29182,"lon":5.39313,"is_reserved":false,"is_disabled":false,"rental_uris":{"android":"levelo://app?vid=50a6d4b0-42a5-49b2-a746-3042908bb0af","ios":"levelo://app?vid=50a6d4b0-42a5-49b2-a746-3042908bb0af"},"vehicle_type_id":"4","last_reported":1779054211,"current_range_meters":8400,"station_id":"ce4bh192rcd13ifvqdd0","pricing_plan_id":"cebpf4jnsgd1na2vs0mg"},{"bike_id":"befe5ac7-a4a9-4723-ba13-48c6f1b53b93","system_id":"levelo_inurba_marseille","lat":43.2119,"lon":5.35083,"is_reserved":false,"is_disabled":false,"rental_uris":{"android":"levelo://app?vid=befe5ac7-a4a9-4723-ba13-48c6f1b53b93","ios":"levelo://app?vid=befe5ac7-a4a9-4723-ba13-48c6f1b53b93"},"vehicle_type_id":"4","last_reported":1779054211,"current_range_meters":8400,"station_id":"st_cvj6sg6p6f1abm77japg","pricing_plan_id":"cebpf4jnsgd1na2vs0mg"},{"bike_id":"2f4b3587-bc7f-4f93-abe8-e0e70970735e","system_id":"levelo_inurba_marseille","lat":43.25338,"lon":5.41354,"is_reserved":false,"is_disabled":false,"rental_uris":{"android":"levelo://app?vid=2f4b3587-bc7f-4f93-abe8-e0e70970735e","ios":"levelo://app?vid=2f4b3587-bc7f-4f93-abe8-e0e70970735e"},"vehicle_type_id":"4","last_reported":1779054211,"current_range_meters":8400,"station_id":"","pricing_plan_id":"cebpf4jnsgd1na2vs0mg"},{"bike_id":"56c86d02-852a-4053-adc4-56486980ded1","system_id":"levelo_inurba_marseille","lat":43.29536,"lon":5.42255,"is_reserved":false,"is_disabled":false,"rental_uris":{"android":"levelo://app?vid=56c86d02-852a-4053-adc4-56486980ded1","ios":"levelo://app?vid=56c86d02-852a-4053-adc4-56486980ded1"},"vehicle_type_id":"4","last_reported":1779054211,"current_range_meters":8400,"station_id":"ce4bhph2rcd13ifvqhdg","pricing_plan_id":"cebpf4jnsgd1na2vs0mg"},{"bike_id":"0b286f1a-d86e-4fbd-a050-1a92445a4f6a","system_id":"levelo_inurba_marseille","lat":43.24383,"lon":5.37043,"is_reserved":false,"is_disabled":false,"rental_uris":{"android":"levelo://app?vid=0b286f1a-d86e-4fbd-a050-1a92445a4f6a","ios":"levelo://app?vid=0b286f1a-d86e-4fbd-a050-1a92445a4f6a"},"vehicle_type_id":"4","last_reported":1779054211,"current_range_meters":8400,"station_id":"ce4bhhh2rcd13ifvqfk0","pricing_plan_id":"cebpf4jnsgd1na2vs0mg"},{"bike_id":"b45c502e-8bbc-41be-9d91-b250f09e95f9","system_id":"levelo_inurba_marseille","lat":43.29611,"lon":5.38114,"is_reserved":false,"is_disabled":false,"rental_uris":{"android":"levelo://app?vid=b45c502e-8bbc-41be-9d91-b250f09e95f9","ios":"levelo://app?vid=b45c502e-8bbc-41be-9d91-b250f09e95f9"},"vehicle_type_id":"4","last_reported":1779054211,"current_range_meters":8400,"station_id":"ce4bgl12rcd13ifvqbo0","pricing_plan_id":"cebpf4jnsgd1na2vs0mg"},{"bike_id":"61d0f610-d76d-4e72-a50c-77105c920c33","system_id":"levelo_inurba_marseille","lat":43.3323,"lon":5.40565,"is_reserved":false,"is_disabled":false,"rental_uris":{"android":"levelo://app?vid=61d0f610-d76d-4e72-a50c-77105c920c33","ios":"levelo://app?vid=61d0f610-d76d-4e72-a50c-77105c920c33"},"vehicle_type_id":"4","last_reported":1779054211,"current_range_meters":8400,"station_id":"","pricing_plan_id":"cebpf4jnsgd1na2vs0mg"},{"bike_id":"a0008197-06ff-4b74-806e-09886a3dd2ff","system_id":"levelo_inurba_marseille","lat":43.29863,"lon":5.39299,"is_reserved":false,"is_disabled":false,"rental_uris":{"android":"levelo://app?vid=a0008197-06ff-4b74-806e-09886a3dd2ff","ios":"levelo://app?vid=a0008197-06ff-4b74-806e-09886a3dd2ff"},"vehicle_type_id":"4","last_reported":1779054211,"current_range_meters":8400,"station_id":"","pricing_plan_id":"cebpf4jnsgd1na2vs0mg"},{"bike_id":"e3d04140-e23d-4c23-bd48-d627585a28c0","system_id":"levelo_inurba_marseille","lat":43.33162,"lon":5.3766,"is_reserved":false,"is_disabled":false,"rental_uris":{"android":"levelo://app?vid=e3d04140-e23d-4c23-bd48-d627585a28c0","ios":"levelo://app?vid=e3d04140-e23d-4c23-bd48-d627585a28c0"},"vehicle_type_id":"4","last_reported":1779054211,"current_range_meters":8400,"station_id":"st_d46cu089ee8s73dldbu0","pricing_plan_id":"cebpf4jnsgd1na2vs0mg"},{"bike_id":"fbb53be6-be53-4202-85b4-d967d58b1c12","system_id":"levelo_inurba_marseille","lat":43.30941,"lon":5.40136,"is_reserved":false,"is_disabled":false,"rental_uris":{"android":"levelo://app?vid=fbb53be6-be53-4202-85b4-d967d58b1c12","ios":"levelo://app?vid=fbb53be6-be53-4202-85b4-d967d58b1c12"},"vehicle_type_id":"4","last_reported":1779054211,"current_range_meters":8400,"station_id":"ce4bgvp2rcd13ifvqct0","pricing_plan_id":"cebpf4jnsgd1na2vs0mg"},{"bike_id":"4937000e-a85e-459c-837a-fc091ea51bdb","system_id":"levelo_inurba_marseille","lat":43.28484,"lon":5.38582,"is_reserved":false,"is_disabled":false,"rental_uris":{"android":"levelo://app?vid=4937000e-a85e-459c-837a-fc091ea51bdb","ios":"levelo://app?vid=4937000e-a85e-459c-837a-fc091ea51bdb"},"vehicle_type_id":"4","last_reported":1779054211,"current_range_meters":8400,"station_id":"ce4bh8p2rcd13ifvqeb0","pricing_plan_id":"cebpf4jnsgd1na2vs0mg"},{"bike_id":"8e4799d3-dd59-4d32-a3d8-cc709da0bea3","system_id":"levelo_inurba_marseille","lat":43.28156,"lon":5.42639,"is_reserved":false,"is_disabled":false,"rental_uris":{"android":"levelo://app?vid=8e4799d3-dd59-4d32-a3d8-cc709da0bea3","ios":"levelo://app?vid=8e4799d3-dd59-4d32-a3d8-cc709da0bea3"},"vehicle_type_id":"4","last_reported":1779054211,"current_range_meters":8400,"station_id":"ce4bhnh2rcd13ifvqgug","pricing_plan_id":"cebpf4jnsgd1na2vs0mg"},{"bike_id":"e500f2f6-9c74-40a0-8fce-504348e9a402","system_id":"levelo_inurba_marseille","lat":43.32492,"lon":5.36551,"is_reserved":false,"is_disabled":false,"rental_uris":{"android":"levelo://app?vid=e500f2f6-9c74-40a0-8fce-504348e9a402","ios":"levelo://app?vid=e500f2f6-9c74-40a0-8fce-504348e9a402"},"vehicle_type_id":"4","last_reported":1779054211,"current_range_meters":8400,"station_id":"ce4bhs12rcd13ifvqhvg","pricing_plan_id":"cebpf4jnsgd1na2vs0mg"},{"bike_id":"e6d03995-08d1-4379-9c6c-96373c082519","system_id":"levelo_inurba_marseille","lat":43.28942,"lon":5.3548,"is_reserved":false,"is_disabled":false,"rental_uris":{"android":"levelo://app?vid=e6d03995-08d1-4379-9c6c-96373c082519","ios":"levelo://app?vid=e6d03995-08d1-4379-9c6c-96373c082519"},"vehicle_type_id":"4","last_reported":1779054211,"current_range_meters":8800,"station_id":"","pricing_plan_id":"cebpf4jnsgd1na2vs0mg"},{"bike_id":"d4ea90bf-a26c-453b-bf91-16ea2c5b0bd9","system_id":"levelo_inurba_marseille","lat":43.29354,"lon":5.40251,"is_reserved":false,"is_disabled":false,"rental_uris":{"android":"levelo://app?vid=d4ea90bf-a26c-453b-bf91-16ea2c5b0bd9","ios":"levelo://app?vid=d4ea90bf-a26c-453b-bf91-16ea2c5b0bd9"},"vehicle_type_id":"4","last_reported":1779054211,"current_range_meters":8800,"station_id":"","pricing_plan_id":"cebpf4jnsgd1na2vs0mg"},{"bike_id":"75794905-d9f9-42ec-a578-71c212750199","system_id":"levelo_inurba_marseille","lat":43.337444,"lon":5.374475,"is_reserved":false,"is_disabled":false,"rental_uris":{"android":"levelo://app?vid=75794905-d9f9-42ec-a578-71c212750199","ios":"levelo://app?vid=75794905-d9f9-42ec-a578-71c212750199"},"vehicle_type_id":"4","last_reported":1779054211,"current_range_meters":8800,"station_id":"","pricing_plan_id":"cebpf4jnsgd1na2vs0mg"},{"bike_id":"8f0c0dd7-145d-41cf-a326-eb083f41ef4c","system_id":"levelo_inurba_marseille","lat":43.26524,"lon":5.37273,"is_reserved":false,"is_disabled":false,"rental_uris":{"android":"levelo://app?vid=8f0c0dd7-145d-41cf-a326-eb083f41ef4c","ios":"levelo://app?vid=8f0c0dd7-145d-41cf-a326-eb083f41ef4c"},"vehicle_type_id":"4","last_reported":1779054211,"current_range_meters":8800,"station_id":"","pricing_plan_id":"cebpf4jnsgd1na2vs0mg"},{"bike_id":"fd66b076-4903-4e1a-82ee-235597d47707","system_id":"levelo_inurba_marseille","lat":43.28627,"lon":5.39872,"is_reserved":false,"is_disabled":false,"rental_uris":{"android":"levelo://app?vid=fd66b076-4903-4e1a-82ee-235597d47707","ios":"levelo://app?vid=fd66b076-4903-4e1a-82ee-235597d47707"},"vehicle_type_id":"4","last_reported":1779054211,"current_range_meters":8800,"station_id":"st_d4a7ka997mjs738ck50g","pricing_plan_id":"cebpf4jnsgd1na2vs0mg"},{"bike_id":"21f34737-facf-4bc5-b6cf-b912c6a451e5","system_id":"levelo_inurba_marseille","lat":43.29872,"lon":5.38921,"is_reserved":false,"is_disabled":false,"rental_uris":{"android":"levelo://app?vid=21f34737-facf-4bc5-b6cf-b912c6a451e5","ios":"levelo://app?vid=21f34737-facf-4bc5-b6cf-b912c6a451e5"},"vehicle_type_id":"4","last_reported":1779054211,"current_range_meters":8800,"station_id":"ce4bh392rcd13ifvqdl0","pricing_plan_id":"cebpf4jnsgd1na2vs0mg"},{"bike_id":"7ab1b8b5-bff4-4466-add7-5f3f1e3d2b28","system_id":"levelo_inurba_marseille","lat":43.23786,"lon":5.36632,"is_reserved":false,"is_disabled":false,"rental_uris":{"android":"levelo://app?vid=7ab1b8b5-bff4-4466-add7-5f3f1e3d2b28","ios":"levelo://app?vid=7ab1b8b5-bff4-4466-add7-5f3f1e3d2b28"},"vehicle_type_id":"4","last_reported":1779054211,"current_range_meters":8800,"station_id":"st_d3nk18o9ro0c73en2l3g","pricing_plan_id":"cebpf4jnsgd1na2vs0mg"},{"bike_id":"3452190b-e0b3-413e-8970-a255d2bfdf9a","system_id":"levelo_inurba_marseille","lat":43.29268,"lon":5.36859,"is_reserved":false,"is_disabled":true,"rental_uris":{"android":"levelo://app?vid=3452190b-e0b3-413e-8970-a255d2bfdf9a","ios":"levelo://app?vid=3452190b-e0b3-413e-8970-a255d2bfdf9a"},"vehicle_type_id":"4","last_reported":1779054211,"current_range_meters":8800,"station_id":"ce4bhbp2rcd13ifvqesg","pricing_plan_id":"cebpf4jnsgd1na2vs0mg"},{"bike_id":"4b3b8830-b0b7-4006-abe3-549fa9b1cf7a","system_id":"levelo_inurba_marseille","lat":43.23974,"lon":5.36614,"is_reserved":false,"is_disabled":false,"rental_uris":{"android":"levelo://app?vid=4b3b8830-b0b7-4006-abe3-549fa9b1cf7a","ios":"levelo://app?vid=4b3b8830-b0b7-4006-abe3-549fa9b1cf7a"},"vehicle_type_id":"4","last_reported":1779054211,"current_range_meters":8800,"station_id":"ce4bhi12rcd13ifvqfp0","pricing_plan_id":"cebpf4jnsgd1na2vs0mg"},{"bike_id":"567c49c0-7ff7-4d34-a58e-cec560e41a32","system_id":"levelo_inurba_marseille","lat":43.306,"lon":5.39354,"is_reserved":false,"is_disabled":false,"rental_uris":{"android":"levelo://app?vid=567c49c0-7ff7-4d34-a58e-cec560e41a32","ios":"levelo://app?vid=567c49c0-7ff7-4d34-a58e-cec560e41a32"},"vehicle_type_id":"4","last_reported":1779054211,"current_range_meters":8800,"station_id":"ce4bh0p2rcd13ifvqd80","pricing_plan_id":"cebpf4jnsgd1na2vs0mg"},{"bike_id":"519ff981-81ed-4d16-a2ab-39926335ec07","system_id":"levelo_inurba_marseille","lat":43.306,"lon":5.36561,"is_reserved":false,"is_disabled":false,"rental_uris":{"android":"levelo://app?vid=519ff981-81ed-4d16-a2ab-39926335ec07","ios":"levelo://app?vid=519ff981-81ed-4d16-a2ab-39926335ec07"},"vehicle_type_id":"4","last_reported":1779054211,"current_range_meters":8800,"station_id":"ce4bgs12rcd13ifvqcag","pricing_plan_id":"cebpf4jnsgd1na2vs0mg"},{"bike_id":"81d61a73-c808-4ed5-836a-9f3f261c498a","system_id":"levelo_inurba_marseille","lat":43.32328,"lon":5.36721,"is_reserved":false,"is_disabled":false,"rental_uris":{"android":"levelo://app?vid=81d61a73-c808-4ed5-836a-9f3f261c498a","ios":"levelo://app?vid=81d61a73-c808-4ed5-836a-9f3f261c498a"},"vehicle_type_id":"4","last_reported":1779054211,"current_range_meters":8800,"station_id":"ce4bhsh2rcd13ifvqi2g","pricing_plan_id":"cebpf4jnsgd1na2vs0mg"},{"bike_id":"bb5f542e-e832-49df-8721-a590dd9bc680","system_id":"levelo_inurba_marseille","lat":43.32096,"lon":5.36755,"is_reserved":false,"is_disabled":false,"rental_uris":{"android":"levelo://app?vid=bb5f542e-e832-49df-8721-a590dd9bc680","ios":"levelo://app?vid=bb5f542e-e832-49df-8721-a590dd9bc680"},"vehicle_type_id":"4","last_reported":1779054211,"current_range_meters":8800,"station_id":"ce4bhrh2rcd13ifvqhug","pricing_plan_id":"cebpf4jnsgd1na2vs0mg"},{"bike_id":"4769f653-6dce-4e43-b4a1-4a44ffd9fa0e","system_id":"levelo_inurba_marseille","lat":43.29269,"lon":5.37592,"is_reserved":false,"is_disabled":true,"rental_uris":{"android":"levelo://app?vid=4769f653-6dce-4e43-b4a1-4a44ffd9fa0e","ios":"levelo://app?vid=4769f653-6dce-4e43-b4a1-4a44ffd9fa0e"},"vehicle_type_id":"4","last_reported":1779054211,"current_range_meters":8800,"station_id":"ce4bgi12rcd13ifvqb80","pricing_plan_id":"cebpf4jnsgd1na2vs0mg"},{"bike_id":"50e7b976-351f-48b6-9fb9-ddeb2f830757","system_id":"levelo_inurba_marseille","lat":43.29181,"lon":5.38597,"is_reserved":false,"is_disabled":false,"rental_uris":{"android":"levelo://app?vid=50e7b976-351f-48b6-9fb9-ddeb2f830757","ios":"levelo://app?vid=50e7b976-351f-48b6-9fb9-ddeb2f830757"},"vehicle_type_id":"4","last_reported":1779054211,"current_range_meters":8800,"station_id":"","pricing_plan_id":"cebpf4jnsgd1na2vs0mg"},{"bike_id":"5dc1e003-282c-417b-8f5c-e263d2482cf6","system_id":"levelo_inurba_marseille","lat":43.3136,"lon":5.38487,"is_reserved":false,"is_disabled":false,"rental_uris":{"android":"levelo://app?vid=5dc1e003-282c-417b-8f5c-e263d2482cf6","ios":"levelo://app?vid=5dc1e003-282c-417b-8f5c-e263d2482cf6"},"vehicle_type_id":"4","last_reported":1779054211,"current_range_meters":8800,"station_id":"ce4bgt92rcd13ifvqcf0","pricing_plan_id":"cebpf4jnsgd1na2vs0mg"},{"bike_id":"80e4f318-6a3b-4b06-a938-1c4875ecf0cc","system_id":"levelo_inurba_marseille","lat":43.26199,"lon":5.37471,"is_reserved":false,"is_disabled":false,"rental_uris":{"android":"levelo://app?vid=80e4f318-6a3b-4b06-a938-1c4875ecf0cc","ios":"levelo://app?vid=80e4f318-6a3b-4b06-a938-1c4875ecf0cc"},"vehicle_type_id":"4","last_reported":1779054211,"current_range_meters":8800,"station_id":"ce4bhgp2rcd13ifvqfc0","pricing_plan_id":"cebpf4jnsgd1na2vs0mg"},{"bike_id":"92b19a60-a2fd-4e82-9c33-7c86dda985b7","system_id":"levelo_inurba_marseille","lat":43.30211,"lon":5.3946,"is_reserved":false,"is_disabled":false,"rental_uris":{"android":"levelo://app?vid=92b19a60-a2fd-4e82-9c33-7c86dda985b7","ios":"levelo://app?vid=92b19a60-a2fd-4e82-9c33-7c86dda985b7"},"vehicle_type_id":"4","last_reported":1779054211,"current_range_meters":8800,"station_id":"ce4bh0p2rcd13ifvqd70","pricing_plan_id":"cebpf4jnsgd1na2vs0mg"},{"bike_id":"4684f16a-d254-43c2-940a-0908b03a75d4","system_id":"levelo_inurba_marseille","lat":43.21198,"lon":5.35056,"is_reserved":false,"is_disabled":false,"rental_uris":{"android":"levelo://app?vid=4684f16a-d254-43c2-940a-0908b03a75d4","ios":"levelo://app?vid=4684f16a-d254-43c2-940a-0908b03a75d4"},"vehicle_type_id":"4","last_reported":1779054211,"current_range_meters":8800,"station_id":"st_cvj6sg6p6f1abm77japg","pricing_plan_id":"cebpf4jnsgd1na2vs0mg"},{"bike_id":"3559dd3e-32a8-470e-8fd0-bf47affe14c2","system_id":"levelo_inurba_marseille","lat":43.25857,"lon":5.39892,"is_reserved":false,"is_disabled":true,"rental_uris":{"android":"levelo://app?vid=3559dd3e-32a8-470e-8fd0-bf47affe14c2","ios":"levelo://app?vid=3559dd3e-32a8-470e-8fd0-bf47affe14c2"},"vehicle_type_id":"4","last_reported":1779054211,"current_range_meters":9200,"station_id":"ce4bhl92rcd13ifvqghg","pricing_plan_id":"cebpf4jnsgd1na2vs0mg"},{"bike_id":"f3ae63f7-e390-4d41-be1a-b86f2c916720","system_id":"levelo_inurba_marseille","lat":43.297882,"lon":5.393411,"is_reserved":false,"is_disabled":false,"rental_uris":{"android":"levelo://app?vid=f3ae63f7-e390-4d41-be1a-b86f2c916720","ios":"levelo://app?vid=f3ae63f7-e390-4d41-be1a-b86f2c916720"},"vehicle_type_id":"4","last_reported":1779054211,"current_range_meters":9200,"station_id":"chh1huq6cuj3fo74tm60","pricing_plan_id":"cebpf4jnsgd1na2vs0mg"},{"bike_id":"59c9e449-65f1-4bd2-8b58-12d0d1fb232f","system_id":"levelo_inurba_marseille","lat":43.28459,"lon":5.35883,"is_reserved":false,"is_disabled":false,"rental_uris":{"android":"levelo://app?vid=59c9e449-65f1-4bd2-8b58-12d0d1fb232f","ios":"levelo://app?vid=59c9e449-65f1-4bd2-8b58-12d0d1fb232f"},"vehicle_type_id":"4","last_reported":1779054211,"current_range_meters":9200,"station_id":"ce4bhah2rcd13ifvqei0","pricing_plan_id":"cebpf4jnsgd1na2vs0mg"},{"bike_id":"ab61302e-5433-4e29-80db-e3a2884133f2","system_id":"levelo_inurba_marseille","lat":43.28692,"lon":5.4668,"is_reserved":false,"is_disabled":false,"rental_uris":{"android":"levelo://app?vid=ab61302e-5433-4e29-80db-e3a2884133f2","ios":"levelo://app?vid=ab61302e-5433-4e29-80db-e3a2884133f2"},"vehicle_type_id":"4","last_reported":1779054211,"current_range_meters":9200,"station_id":"st_d6tc3vkotcvc738tfjhg","pricing_plan_id":"cebpf4jnsgd1na2vs0mg"},{"bike_id":"49a1fac7-739c-4f88-ad65-1587e6f38e2e","system_id":"levelo_inurba_marseille","lat":43.23881,"lon":5.3745,"is_reserved":false,"is_disabled":false,"rental_uris":{"android":"levelo://app?vid=49a1fac7-739c-4f88-ad65-1587e6f38e2e","ios":"levelo://app?vid=49a1fac7-739c-4f88-ad65-1587e6f38e2e"},"vehicle_type_id":"4","last_reported":1779054211,"current_range_meters":9200,"station_id":"st_d6sm7csbq4hs73f8fpjg","pricing_plan_id":"cebpf4jnsgd1na2vs0mg"},