{"last_updated":1735682896,"ttl":60,"version":"2.2","data":{"bikes":[{"bike_id":"2f56c5dc-0755-4629-adf9-4349a3b8ebb1","system_id":"levelo_inurba_marseille","lat":43.28149,"lon":5.42638,"is_reserved":false,"is_disabled":false,"rental_uris":{"android":"levelo://app?vid=2f56c5dc-0755-4629-adf9-4349a3b8ebb1","ios":"levelo://app?vid=2f56c5dc-0755-4629-adf9-4349a3b8ebb1"},"vehicle_type_id":"4","last_reported":1735682896,"current_range_meters":26000,"station_id":"ce4bhnh2rcd13ifvqgug","pricing_plan_id":"cebpf4jnsgd1na2vs0mg"},{"bike_id":"7e7ea298-a0f1-43f6-ad61-33f7bfccc079","system_id":"levelo_inurba_marseille","lat":43.24814,"lon":5.37463,"is_reserved":false,"is_disabled":false,"rental_uris":{"android":"levelo://app?vid=7e7ea298-a0f1-43f6-ad61-33f7bfccc079","ios":"levelo://app?vid=7e7ea298-a0f1-43f6-ad61-33f7bfccc079"},"vehicle_type_id":"4","last_reported":1735682896,"current_range_meters":38800,"station_id":"ce4bhgh2rcd13ifvqfb0","pricing_plan_id":"cebpf4jnsgd1na2vs0mg"},{"bike_id":"eebc4850-6ef9-46e6-b48b-57b8c062b998","system_id":"levelo_inurba_marseille","lat":43.28709,"lon":5.37933,"is_reserved":false,"is_disabled":true,"rental_uris":{"android":"levelo://app?vid=eebc4850-6ef9-46e6-b48b-57b8c062b998","ios":"levelo://app?vid=eebc4850-6ef9-46e6-b48b-57b8c062b998"},"vehicle_type_id":"4","last_reported":1735682896,"current_range_meters":20400,"station_id":"ce4bh9p2rcd13ifvqec0","pricing_plan_id":"cebpf4jnsgd1na2vs0mg"},{"bike_id":"d06b5da1-2f20-4593-9d79-0cd21b76f9bd","system_id":"levelo_inurba_marseille","lat":43.2784,"lon":5.39192,"is_reserved":false,"is_disabled":false,"rental_uris":{"android":"levelo://app?vid=d06b5da1-2f20-4593-9d79-0cd21b76f9bd","ios":"levelo://app?vid=d06b5da1-2f20-4593-9d79-0cd21b76f9bd"},"vehicle_type_id":"4","last_reported":1735682896,"current_range_meters":39200,"station_id":"ce4bhjp2rcd13ifvqga0","pricing_plan_id":"cebpf4jnsgd1na2vs0mg"},{"bike_id":"4dbd558f-a25e-45d7-bf79-38d3817f23c4","system_id":"levelo_inurba_marseille","lat":43.3022,"lon":5.39476,"is_reserved":false,"is_disabled":true,"rental_uris":{"android":"levelo://app?vid=4dbd558f-a25e-45d7-bf79-38d3817f23c4","ios":"levelo://app?vid=4dbd558f-a25e-45d7-bf79-38d3817f23c4"},"vehicle_type_id":"4","last_reported":1735682896,"current_range_meters":0,"station_id":"ce4bh0p2rcd13ifvqd70","pricing_plan_id":"cebpf4jnsgd1na2vs0mg"},{"bike_id":"30675ccc-9ef1-40b1-963e-228cee2b4741","system_id":"levelo_inurba_marseille","lat":43.2795,"lon":5.41047,"is_reserved":false,"is_disabled":true,"rental_uris":{"android":"levelo://app?vid=30675ccc-9ef1-40b1-963e-228cee2b4741","ios":"levelo://app?vid=30675ccc-9ef1-40b1-963e-228cee2b4741"},"vehicle_type_id":"4","last_reported":1735682896,"current_range_meters":23200,"station_id":"ce4bhnp2rcd13ifvqh0g","pricing_plan_id":"cebpf4jnsgd1na2vs0mg"},{"bike_id":"a911ad56-f075-4daa-a2af-dfa20e116258","system_id":"levelo_inurba_marseille","lat":43.27563,"lon":5.38402,"is_reserved":false,"is_disabled":false,"rental_uris":{"android":"levelo://app?vid=a911ad56-f075-4daa-a2af-dfa20e116258","ios":"levelo://app?vid=a911ad56-f075-4daa-a2af-dfa20e116258"},"vehicle_type_id":"4","last_reported":1735682896,"current_range_meters":12800,"station_id":"ce4bhh92rcd13ifvqfi0","pricing_plan_id":"cebpf4jnsgd1na2vs0mg"},{"bike_id":"3991aac2-ec7f-43c8-801f-23e11845f2d6","system_id":"levelo_inurba_marseille","lat":43.28186,"lon":5.42655,"is_reserved":false,"is_disabled":false,"rental_uris":{"android":"levelo://app?vid=3991aac2-ec7f-43c8-801f-23e11845f2d6","ios":"levelo://app?vid=3991aac2-ec7f-43c8-801f-23e11845f2d6"},"vehicle_type_id":"4","last_reported":1735682896,"current_range_meters":38800,"station_id":"ce4bhnh2rcd13ifvqgug","pricing_plan_id":"cebpf4jnsgd1na2vs0mg"},{"bike_id":"a84c903a-16f0-44ed-becd-c6849674ff70","system_id":"levelo_inurba_marseille","lat":43.229256,"lon":5.353766,"is_reserved":false,"is_disabled":false,"rental_uris":{"android":"levelo://app?vid=a84c903a-16f0-44ed-becd-c6849674ff70","ios":"levelo://app?vid=a84c903a-16f0-44ed-becd-c6849674ff70"},"vehicle_type_id":"4","last_reported":1735682896,"current_range_meters":8000,"station_id":"cpo3532slgdg3j2ikp40","pricing_plan_id":"cebpf4jnsgd1na2vs0mg"},{"bike_id":"8d025c11-b5b4-4d30-94be-1950a10e6712","system_id":"levelo_inurba_marseille","lat":43.28689,"lon":5.38654,"is_reserved":false,"is_disabled":false,"rental_uris":{"android":"levelo://app?vid=8d025c11-b5b4-4d30-94be-1950a10e6712","ios":"levelo://app?vid=8d025c11-b5b4-4d30-94be-1950a10e6712"},"vehicle_type_id":"4","last_reported":1735682896,"current_range_meters":38800,"station_id":"ce4bh492rcd13ifvqdug","pricing_plan_id":"cebpf4jnsgd1na2vs0mg"},{"bike_id":"fd8f4633-afe2-4be6-b0e9-8ae7cf81f111","system_id":"levelo_inurba_marseille","lat":43.28846,"lon":5.35846,"is_reserved":false,"is_disabled":false,"rental_uris":{"android":"levelo://app?vid=fd8f4633-afe2-4be6-b0e9-8ae7cf81f111","ios":"levelo://app?vid=fd8f4633-afe2-4be6-b0e9-8ae7cf81f111"},"vehicle_type_id":"4","last_reported":1735682896,"current_range_meters":35600,"station_id":"ce4bhb12rcd13ifvqem0","pricing_plan_id":"cebpf4jnsgd1na2vs0mg"},{"bike_id":"2883c41c-39eb-4845-acae-69dc461c442a","system_id":"levelo_inurba_marseille","lat":43.29746,"lon":5.37667,"is_reserved":false,"is_disabled":false,"rental_uris":{"android":"levelo://app?vid=2883c41c-39eb-4845-acae-69dc461c442a","ios":"levelo://app?vid=2883c41c-39eb-4845-acae-69dc461c442a"},"vehicle_type_id":"4","last_reported":1735682896,"current_range_meters":38400,"station_id":"ce4bgkh2rcd13ifvqbl0","pricing_plan_id":"cebpf4jnsgd1na2vs0mg"},{"bike_id":"8ad09b60-3a79-4fc1-9f8d-63dc687108f3","system_id":"levelo_inurba_marseille","lat":43.337444,"lon":5.374475,"is_reserved":false,"is_disabled":false,"rental_uris":{"android":"levelo://app?vid=8ad09b60-3a79-4fc1-9f8d-63dc687108f3","ios":"levelo://app?vid=8ad09b60-3a79-4fc1-9f8d-63dc687108f3"},"vehicle_type_id":"4","last_reported":1735682896,"current_range_meters":37600,"station_id":"","pricing_plan_id":"cebpf4jnsgd1na2vs0mg"},{"bike_id":"aaf2847c-1c33-449a-8a3d-243e799ec2b1","system_id":"levelo_inurba_marseille","lat":43.2397,"lon":5.36627,"is_reserved":false,"is_disabled":false,"rental_uris":{"android":"levelo://app?vid=aaf2847c-1c33-449a-8a3d-243e799ec2b1","ios":"levelo://app?vid=aaf2847c-1c33-449a-8a3d-243e799ec2b1"},"vehicle_type_id":"4","last_reported":1735682896,"current_range_meters":38800,"station_id":"ce4bhi12rcd13ifvqfp0","pricing_plan_id":"cebpf4jnsgd1na2vs0mg"},{"bike_id":"58ed0d8b-f84c-45b4-bfb5-d53028993fff","system_id":"levelo_inurba_marseille","lat":43.29538,"lon":5.38539,"is_reserved":false,"is_disabled":false,"rental_uris":{"android":"levelo://app?vid=58ed0d8b-f84c-45b4-bfb5-d53028993fff","ios":"levelo://app?vid=58ed0d8b-f84c-45b4-bfb5-d53028993fff"},"vehicle_type_id":"4","last_reported":1735682896,"current_range_meters":10800,"station_id":"ce4bgih2rcd13ifvqba0","pricing_plan_id":"cebpf4jnsgd1na2vs0mg"},{"bike_id":"5430a545-a0f1-45ad-a500-b4193006fdcf","system_id":"levelo_inurba_marseille","lat":43.2319,"lon":5.35568,"is_reserved":false,"is_disabled":false,"rental_uris":{"android":"levelo://app?vid=5430a545-a0f1-45ad-a500-b4193006fdcf","ios":"levelo://app?vid=5430a545-a0f1-45ad-a500-b4193006fdcf"},"vehicle_type_id":"4","last_reported":1735682896,"current_range_meters":28400,"station_id":"ce4bhu92rcd13ifvqi70","pricing_plan_id":"cebpf4jnsgd1na2vs0mg"},{"bike_id":"69cd2585-5330-4ff1-bebd-9e077966ee68","system_id":"levelo_inurba_marseille","lat":43.25503,"lon":5.37649,"is_reserved":false,"is_disabled":false,"rental_uris":{"android":"levelo://app?vid=69cd2585-5330-4ff1-bebd-9e077966ee68","ios":"levelo://app?vid=69cd2585-5330-4ff1-bebd-9e077966ee68"},"vehicle_type_id":"4","last_reported":1735682896,"current_range_meters":27600,"station_id":"ce4bhh12rcd13ifvqff0","pricing_plan_id":"cebpf4jnsgd1na2vs0mg"},{"bike_id":"6e1c4718-254a-4d40-8026-73892ae658db","system_id":"levelo_inurba_marseille","lat":43.2861,"lon":5.37057,"is_reserved":false,"is_disabled":false,"rental_uris":{"android":"levelo://app?vid=6e1c4718-254a-4d40-8026-73892ae658db","ios":"levelo://app?vid=6e1c4718-254a-4d40-8026-73892ae658db"},"vehicle_type_id":"4","last_reported":1735682896,"current_range_meters":36800,"station_id":"ce4bht12rcd13ifvqi60","pricing_plan_id":"cebpf4jnsgd1na2vs0mg"},{"bike_id":"824dff05-92e2-41ca-b397-8ce5eeeb8764","system_id":"levelo_inurba_marseille","lat":43.29267,"lon":5.38451,"is_reserved":false,"is_disabled":false,"rental_uris":{"android":"levelo://app?vid=824dff05-92e2-41ca-b397-8ce5eeeb8764","ios":"levelo://app?vid=824dff05-92e2-41ca-b397-8ce5eeeb8764"},"vehicle_type_id":"4","last_reported":1735682896,"current_range_meters":21600,"station_id":"ce4bh692rcd13ifvqea0","pricing_plan_id":"cebpf4jnsgd1na2vs0mg"},{"bike_id":"d1b43656-444a-4c4e-9bbc-6942224e2fdb","system_id":"levelo_inurba_marseille","lat":43.29267,"lon":5.38435,"is_reserved":false,"is_disabled":false,"rental_uris":{"android":"levelo://app?vid=d1b43656-444a-4c4e-9bbc-6942224e2fdb","ios":"levelo://app?vid=d1b43656-444a-4c4e-9bbc-6942224e2fdb"},"vehicle_type_id":"4","last_reported":1735682896,"current_range_meters":24800,"station_id":"ce4bh692rcd13ifvqea0","pricing_plan_id":"cebpf4jnsgd1na2vs0mg"},{"bike_id":"406c72fc-c815-4840-861a-36d7f7f2fd01","system_id":"levelo_inurba_marseille","lat":43.23198,"lon":5.35556,"is_reserved":false,"is_disabled":false,"rental_uris":{"android":"levelo://app?vid=406c72fc-c815-4840-861a-36d7f7f2fd01","ios":"levelo://app?vid=406c72fc-c815-4840-861a-36d7f7f2fd01"},"vehicle_type_id":"4","last_reported":1735682896,"current_range_meters":28800,"station_id":"ce4bhu92rcd13ifvqi70","pricing_plan_id":"cebpf4jnsgd1na2vs0mg"},{"bike_id":"dfa4c1c3-3888-4ef7-8b55-ce266d021f7a","system_id":"levelo_inurba_marseille","lat":43.30289,"lon":5.37703,"is_reserved":false,"is_disabled":false,"rental_uris":{"android":"levelo://app?vid=dfa4c1c3-3888-4ef7-8b55-ce266d021f7a","ios":"levelo://app?vid=dfa4c1c3-3888-4ef7-8b55-ce266d021f7a"},"vehicle_type_id":"4","last_reported":1735682896,"current_range_meters":38800,"station_id":"ce4bguh2rcd13ifvqcj0","pricing_plan_id":"cebpf4jnsgd1na2vs0mg"},{"bike_id":"d08aed72-c4aa-4b14-9e94-1554d28646fc","system_id":"levelo_inurba_marseille","lat":43.23962,"lon":5.36631,"is_reserved":false,"is_disabled":false,"rental_uris":{"android":"levelo://app?vid=d08aed72-c4aa-4b14-9e94-1554d28646fc","ios":"levelo://app?vid=d08aed72-c4aa-4b14-9e94-1554d28646fc"},"vehicle_type_id":"4","last_reported":1735682896,"current_range_meters":38800,"station_id":"ce4bhi12rcd13ifvqfp0","pricing_plan_id":"cebpf4jnsgd1na2vs0mg"},{"bike_id":"1e9e3505-f98d-4ac7-b45c-e821968c5506","system_id":"levelo_inurba_marseille","lat":43.23188,"lon":5.35557,"is_reserved":false,"is_disabled":false,"rental_uris":{"android":"levelo://app?vid=1e9e3505-f98d-4ac7-b45c-e821968c5506","ios":"levelo://app?vid=1e9e3505-f98d-4ac7-b45c-e821968c5506"},"vehicle_type_id":"4","last_reported":1735682896,"current_range_meters":14800,"station_id":"ce4bhu92rcd13ifvqi70","pricing_plan_id":"cebpf4jnsgd1na2vs0mg"},{"bike_id":"fa0ffbf5-c540-45a0-950b-189a6c02fea6","system_id":"levelo_inurba_marseille","lat":43.3088,"lon":5.39644,"is_reserved":false,"is_disabled":false,"rental_uris":{"android":"levelo://app?vid=fa0ffbf5-c540-45a0-950b-189a6c02fea6","ios":"levelo://app?vid=fa0ffbf5-c540-45a0-950b-189a6c02fea6"},"vehicle_type_id":"4","last_reported":1735682896,"current_range_meters":38400,"station_id":"ce4bh012rcd13ifvqcv0","pricing_plan_id":"cebpf4jnsgd1na2vs0mg"},{"bike_id":"cfe106c9-317a-4dfe-a370-65e124f77347","system_id":"levelo_inurba_marseille","lat":43.25727,"lon":5.41112,"is_reserved":false,"is_disabled":false,"rental_uris":{"android":"levelo://app?vid=cfe106c9-317a-4dfe-a370-65e124f77347","ios":"levelo://app?vid=cfe106c9-317a-4dfe-a370-65e124f77347"},"vehicle_type_id":"4","last_reported":1735682896,"current_range_meters":14000,"station_id":"ce4bhkp2rcd13ifvqgd0","pricing_plan_id":"cebpf4jnsgd1na2vs0mg"},{"bike_id":"29e41b02-be52-4633-b267-4292f5ed1d1a","system_id":"levelo_inurba_marseille","lat":43.25864,"lon":5.3991,"is_reserved":false,"is_disabled":false,"rental_uris":{"android":"levelo://app?vid=29e41b02-be52-4633-b267-4292f5ed1d1a","ios":"levelo://app?vid=29e41b02-be52-4633-b267-4292f5ed1d1a"},"vehicle_type_id":"4","last_reported":1735682896,"current_range_meters":7200,"station_id":"ce4bhl92rcd13ifvqghg","pricing_plan_id":"cebpf4jnsgd1na2vs0mg"},{"bike_id":"b0928a81-61c8-44a5-9776-8fe493d1a25a","system_id":"levelo_inurba_marseille","lat":43.30351,"lon":5.41871,"is_reserved":false,"is_disabled":false,"rental_uris":{"android":"levelo://app?vid=b0928a81-61c8-44a5-9776-8fe493d1a25a","ios":"levelo://app?vid=b0928a81-61c8-44a5-9776-8fe493d1a25a"},"vehicle_type_id":"4","last_reported":1735682896,"current_range_meters":19200,"station_id":"ce4bhop2rcd13ifvqh7g","pricing_plan_id":"cebpf4jnsgd1na2vs0mg"},{"bike_id":"33983055-44ea-40aa-bb4f-155c6180cf1b","system_id":"levelo_inurba_marseille","lat":43.29277,"lon":5.40107,"is_reserved":false,"is_disabled":false,"rental_uris":{"android":"levelo://app?vid=33983055-44ea-40aa-bb4f-155c6180cf1b","ios":"levelo://app?vid=33983055-44ea-40aa-bb4f-155c6180cf1b"},"vehicle_type_id":"4","last_reported":1735682896,"current_range_meters":24800,"station_id":"ce4bh312rcd13ifvqdk0","pricing_plan_id":"cebpf4jnsgd1na2vs0mg"},{"bike_id":"4b312642-a9fb-4e5b-bdfb-f8db303b358a","system_id":"levelo_inurba_marseille","lat":43.29608,"lon":5.37719,"is_reserved":false,"is_disabled":false,"rental_uris":{"android":"levelo://app?vid=4b312642-a9fb-4e5b-bdfb-f8db303b358a","ios":"levelo://app?vid=4b312642-a9fb-4e5b-bdfb-f8db303b358a"},"vehicle_type_id":"4","last_reported":1735682896,"current_range_meters":30000,"station_id":"ce4bgi92rcd13ifvqb90","pricing_plan_id":"cebpf4jnsgd1na2vs0mg"},{"bike_id":"dd006384-15fd-4933-aa71-736562a193fd","system_id":"levelo_inurba_marseille","lat":43.29272,"lon":5.36835,"is_reserved":false,"is_disabled":false,"rental_uris":{"android":"levelo://app?vid=dd006384-15fd-4933-aa71-736562a193fd","ios":"levelo://app?vid=dd006384-15fd-4933-aa71-736562a193fd"},"vehicle_type_id":"4","last_reported":1735682896,"current_range_meters":27600,"station_id":"ce4bhbp2rcd13ifvqesg","pricing_plan_id":"cebpf4jnsgd1na2vs0mg"},{"bike_id":"ff49d49a-53c3-499a-b296-89a67f332a8a","system_id":"levelo_inurba_marseille","lat":43.2417,"lon":5.36397,"is_reserved":false,"is_disabled":false,"rental_uris":{"android":"levelo://app?vid=ff49d49a-53c3-499a-b296-89a67f332a8a","ios":"levelo://app?vid=ff49d49a-53c3-499a-b296-89a67f332a8a"},"vehicle_type_id":"4","last_reported":1735682896,"current_range_meters":35200,"station_id":"cpo36qri1sfpv3e86is0","pricing_plan_id":"cebpf4jnsgd1na2vs0mg"},{"bike_id":"d81c8165-dc3a-4de5-b810-47dd44801b4a","system_id":"levelo_inurba_marseille","lat":43.28385,"lon":5.35,"is_reserved":false,"is_disabled":false,"rental_uris":{"android":"levelo://app?vid=d81c8165-dc3a-4de5-b810-47dd44801b4a","ios":"levelo://app?vid=d81c8165-dc3a-4de5-b810-47dd44801b4a"},"vehicle_type_id":"4","last_reported":1735682896,"current_range_meters":22000,"station_id":"ce4bhbh2rcd13ifvqepg","pricing_plan_id":"cebpf4jnsgd1na2vs0mg"},{"bike_id":"ed7d9e0f-da0c-4e3b-92b3-fd3afce87e08","system_id":"levelo_inurba_marseille","lat":43.32481,"lon":5.36564,"is_reserved":false,"is_disabled":false,"rental_uris":{"android":"levelo://app?vid=ed7d9e0f-da0c-4e3b-92b3-fd3afce87e08","ios":"levelo://app?vid=ed7d9e0f-da0c-4e3b-92b3-fd3afce87e08"},"vehicle_type_id":"4","last_reported":1735682896,"current_range_meters":31200,"station_id":"ce4bhs12rcd13ifvqhvg","pricing_plan_id":"cebpf4jnsgd1na2vs0mg"},{"bike_id":"c3ba5b5b-015c-4689-95a9-abcb1279b90e","system_id":"levelo_inurba_marseille","lat":43.24662,"lon":5.38902,"is_reserved":false,"is_disabled":false,"rental_uris":{"android":"levelo://app?vid=c3ba5b5b-015c-4689-95a9-abcb1279b90e","ios":"levelo://app?vid=c3ba5b5b-015c-4689-95a9-abcb1279b90e"},"vehicle_type_id":"4","last_reported":1735682896,"current_range_meters":38800,"station_id":"ce4bhg12rcd13ifvqf60","pricing_plan_id":"cebpf4jnsgd1na2vs0mg"},{"bike_id":"027085de-3c06-4c90-8099-b9537f78e863","system_id":"levelo_inurba_marseille","lat":43.23165,"lon":5.43667,"is_reserved":false,"is_disabled":false,"rental_uris":{"android":"levelo://app?vid=027085de-3c06-4c90-8099-b9537f78e863","ios":"levelo://app?vid=027085de-3c06-4c90-8099-b9537f78e863"},"vehicle_type_id":"4","last_reported":1735682896,"current_range_meters":37600,"station_id":"ce4bhmp2rcd13ifvqgog","pricing_plan_id":"cebpf4jnsgd1na2vs0mg"},{"bike_id":"6f050945-ef0c-4f82-84d6-39ca4492af9c","system_id":"levelo_inurba_marseille","lat":43.28615,"lon":5.35102,"is_reserved":false,"is_disabled":false,"rental_uris":{"android":"levelo://app?vid=6f050945-ef0c-4f82-84d6-39ca4492af9c","ios":"levelo://app?vid=6f050945-ef0c-4f82-84d6-39ca4492af9c"},"vehicle_type_id":"4","last_reported":1735682896,"current_range_meters":12000,"station_id":"ce4bhch2rcd13ifvqeug","pricing_plan_id":"cebpf4jnsgd1na2vs0mg"},{"bike_id":"74398e1e-5516-4da0-a6a8-f5573193682d","system_id":"levelo_inurba_marseille","lat":43.29262,"lon":5.36841,"is_reserved":false,"is_disabled":false,"rental_uris":{"android":"levelo://app?vid=74398e1e-5516-4da0-a6a8-f5573193682d","ios":"levelo://app?vid=74398e1e-5516-4da0-a6a8-f5573193682d"},"vehicle_type_id":"4","last_reported":1735682896,"current_range_meters":4000,"station_id":"ce4bhbp2rcd13ifvqesg","pricing_plan_id":"cebpf4jnsgd1na2vs0mg"},{"bike_id":"d8f753da-bb1d-460e-9b5c-f17ba3b2167d","system_id":"levelo_inurba_marseille","lat":43.31325,"lon":5.397,"is_reserved":false,"is_disabled":false,"rental_uris":{"android":"levelo://app?vid=d8f753da-bb1d-460e-9b5c-f17ba3b2167d","ios":"levelo://app?vid=d8f753da-bb1d-460e-9b5c-f17ba3b2167d"},"vehicle_type_id":"4","last_reported":1735682896,"current_range_meters":38000,"station_id":"ce4bgvp2rcd13ifvqcu0","pricing_plan_id":"cebpf4jnsgd1na2vs0mg"},{"bike_id":"317bbece-85f5-4709-8e50-643ba25a75ff","system_id":"levelo_inurba_marseille","lat":43.33869,"lon":5.37452,"is_reserved":false,"is_disabled":false,"rental_uris":{"android":"levelo://app?vid=317bbece-85f5-4709-8e50-643ba25a75ff","ios":"levelo://app?vid=317bbece-85f5-4709-8e50-643ba25a75ff"},"vehicle_type_id":"4","last_reported":1735682896,"current_range_meters":34000,"station_id":"","pricing_plan_id":"cebpf4jnsgd1na2vs0mg"},{"bike_id":"e7774da4-c308-4bfa-aba8-31efca07b3a0","system_id":"levelo_inurba_marseille","lat":43.33741,"lon":5.37467,"is_reserved":false,"is_disabled":false,"rental_uris":{"android":"levelo://app?vid=e7774da4-c308-4bfa-aba8-31efca07b3a0","ios":"levelo://app?vid=e7774da4-c308-4bfa-aba8-31efca07b3a0"},"vehicle_type_id":"4","last_reported":1735682896,"current_range_meters":11200,"station_id":"","pricing_plan_id":"cebpf4jnsgd1na2vs0mg"},{"bike_id":"e4175cfc-38a5-43ed-9767-8b1ef3183563","system_id":"levelo_inurba_marseille","lat":43.29249,"lon":5.38312,"is_reserved":false,"is_disabled":false,"rental_uris":{"android":"levelo://app?vid=e4175cfc-38a5-43ed-9767-8b1ef3183563","ios":"levelo://app?vid=e4175cfc-38a5-43ed-9767-8b1ef3183563"},"vehicle_type_id":"4","last_reported":1735682896,"current_range_meters":30800,"station_id":"","pricing_plan_id":"cebpf4jnsgd1na2vs0mg"},{"bike_id":"3c18d4e7-6357-4663-bac6-d2292e7508ee","system_id":"levelo_inurba_marseille","lat":43.30242,"lon":5.40064,"is_reserved":false,"is_disabled":false,"rental_uris":{"android":"levelo://app?vid=3c18d4e7-6357-4663-bac6-d2292e7508ee","ios":"levelo://app?vid=3c18d4e7-6357-4663-bac6-d2292e7508ee"},"vehicle_type_id":"4","last_reported":1735682896,"current_range_meters":18000,"station_id":"ce4bgvh2rcd13ifvqcs0","pricing_plan_id":"cebpf4jnsgd1na2vs0mg"},{"bike_id":"ad09079b-2a66-443a-a13d-b1f84ab569d5","system_id":"levelo_inurba_marseille","lat":43.24994,"lon":5.38927,"is_reserved":false,"is_disabled":false,"rental_uris":{"android":"levelo://app?vid=ad09079b-2a66-443a-a13d-b1f84ab569d5","ios":"levelo://app?vid=ad09079b-2a66-443a-a13d-b1f84ab569d5"},"vehicle_type_id":"4","last_reported":1735682896,"current_range_meters":38800,"station_id":"ce4bhgp2rcd13ifvqfd0","pricing_plan_id":"cebpf4jnsgd1na2vs0mg"},{"bike_id":"55cdd24f-9e2e-41e5-9590-d69333b5dd4a","system_id":"levelo_inurba_marseille","lat":43.28846,"lon":5.35832,"is_reserved":false,"is_disabled":false,"rental_uris":{"android":"levelo://app?vid=55cdd24f-9e2e-41e5-9590-d69333b5dd4a","ios":"levelo://app?vid=55cdd24f-9e2e-41e5-9590-d69333b5dd4a"},"vehicle_type_id":"4","last_reported":1735682896,"current_range_meters":12400,"station_id":"ce4bhb12rcd13ifvqem0","pricing_plan_id":"cebpf4jnsgd1na2vs0mg"},{"bike_id":"1d38c632-f230-4f97-863c-d4275b1efe0a","system_id":"levelo_inurba_marseille","lat":43.29536,"lon":5.38534,"is_reserved":false,"is_disabled":false,"rental_uris":{"android":"levelo://app?vid=1d38c632-f230-4f97-863c-d4275b1efe0a","ios":"levelo://app?vid=1d38c632-f230-4f97-863c-d4275b1efe0a"},"vehicle_type_id":"4","last_reported":1735682896,"current_range_meters":38400,"station_id":"ce4bgih2rcd13ifvqba0","pricing_plan_id":"cebpf4jnsgd1na2vs0mg"},{"bike_id":"c278032b-df77-488d-af3e-52fd8e42875a","system_id":"levelo_inurba_marseille","lat":43.29243,"lon":5.36875,"is_reserved":false,"is_disabled":false,"rental_uris":{"android":"levelo://app?vid=c278032b-df77-488d-af3e-52fd8e42875a","ios":"levelo://app?vid=c278032b-df77-488d-af3e-52fd8e42875a"},"vehicle_type_id":"4","last_reported":1735682896,"current_range_meters":28800,"station_id":"ce4bhbp2rcd13ifvqesg","pricing_plan_id":"cebpf4jnsgd1na2vs0mg"},{"bike_id":"6f1ca680-cd82-46c7-9ed3-8bfc427bedf8","system_id":"levelo_inurba_marseille","lat":43.28104,"lon":5.3783,"is_reserved":false,"is_disabled":false,"rental_uris":{"android":"levelo://app?vid=6f1ca680-cd82-46c7-9ed3-8bfc427bedf8","ios":"levelo://app?vid=6f1ca680-cd82-46c7-9ed3-8bfc427bedf8"},"vehicle_type_id":"4","last_reported":1735682896,"current_range_meters":26000,"station_id":"ce4bha12rcd13ifvqee0","pricing_plan_id":"cebpf4jnsgd1na2vs0mg"},{"bike_id":"af234e48-b9c3-432f-8fef-f435ebe153e9","system_id":"levelo_inurba_marseille","lat":43.29414,"lon":5.3863,"is_reserved":false,"is_disabled":false,"rental_uris":{"android":"levelo://app?vid=af234e48-b9c3-432f-8fef-f435ebe153e9","ios":"levelo://app?vid=af234e48-b9c3-432f-8fef-f435ebe153e9"},"vehicle_type_id":"4","last_reported":1735682896,"current_range_meters":38800,"station_id":"ce4bh2h2rcd13ifvqdh0","pricing_plan_id":"cebpf4jnsgd1na2vs0mg"},{"bike_id":"8aee6e51-ec03-4d1e-a7f9-0bc033449db3","system_id":"levelo_inurba_marseille","lat":43.28423,"lon":5.37515,"is_reserved":false,"is_disabled":false,"rental_uris":{"android":"levelo://app?vid=8aee6e51-ec03-4d1e-a7f9-0bc033449db3","ios":"levelo://app?vid=8aee6e51-ec03-4d1e-a7f9-0bc033449db3"},"vehicle_type_id":"4","last_reported":1735682896,"current_range_meters":35600,"station_id":"ce4bh412rcd13ifvqds0","pricing_plan_id":"cebpf4jnsgd1na2vs0mg"},{"bike_id":"da3075ee-8070-42f9-8350-58e475a60c82","system_id":"levelo_inurba_marseille","lat":43.27572,"lon":5.38377,"is_reserved":false,"is_disabled":false,"rental_uris":{"android":"levelo://app?vid=da3075ee-8070-42f9-8350-58e475a60c82","ios":"levelo://app?vid=da3075ee-8070-42f9-8350-58e475a60c82"},"vehicle_type_id":"4","last_reported":1735682896,"current_range_meters":38800,"station_id":"ce4bhh92rcd13ifvqfi0","pricing_plan_id":"cebpf4jnsgd1na2vs0mg"},{"bike_id":"201d3095-2daa-41b3-a3b9-f477b54ffd04","system_id":"levelo_inurba_marseille","lat":43.3087,"lon":5.39643,"is_reserved":false,"is_disabled":false,"rental_uris":{"android":"levelo://app?vid=201d3095-2daa-41b3-a3b9-f477b54ffd04","ios":"levelo://app?vid=201d3095-2daa-41b3-a3b9-f477b54ffd04"},"vehicle_type_id":"4","last_reported":1735682896,"current_range_meters":32000,"station_id":"ce4bh012rcd13ifvqcv0","pricing_plan_id":"cebpf4jnsgd1na2vs0mg"},{"bike_id":"975380f4-c5df-4cfd-9b61-420a13d3179a","system_id":"levelo_inurba_marseille","lat":43.29006,"lon":5.35608,"is_reserved":false,"is_disabled":false,"rental_uris":{"android":"levelo://app?vid=975380f4-c5df-4cfd-9b61-420a13d3179a","ios":"levelo://app?vid=975380f4-c5df-4cfd-9b61-420a13d3179a"},"vehicle_type_id":"4","last_reported":1735682896,"current_range_meters":3200,"station_id":"ce4bhb92rcd13ifvqen0","pricing_plan_id":"cebpf4jnsgd1na2vs0mg"},{"bike_id":"c273c979-a3b2-4402-9e00-c9c98b3cd4e5","system_id":"levelo_inurba_marseille","lat":43.29897,"lon":5.39719,"is_reserved":false,"is_disabled":false,"rental_uris":{"android":"levelo://app?vid=c273c979-a3b2-4402-9e00-c9c98b3cd4e5","ios":"levelo://app?vid=c273c979-a3b2-4402-9e00-c9c98b3cd4e5"},"vehicle_type_id":"4","last_reported":1735682896,"current_range_meters":35600,"station_id":"ce4bh0h2rcd13ifvqd50","pricing_plan_id":"cebpf4jnsgd1na2vs0mg"},{"bike_id":"937f8497-d57e-424f-82e0-8441fcdb971d","system_id":"levelo_inurba_marseille","lat":43.29278,"lon":5.40117,"is_reserved":false,"is_disabled":false,"rental_uris":{"android":"levelo://app?vid=937f8497-d57e-424f-82e0-8441fcdb971d","ios":"levelo://app?vid=937f8497-d57e-424f-82e0-8441fcdb971d"},"vehicle_type_id":"4","last_reported":1735682896,"current_range_meters":36800,"station_id":"ce4bh312rcd13ifvqdk0","pricing_plan_id":"cebpf4jnsgd1na2vs0mg"},{"bike_id":"c754264e-2257-42b1-89f9-0bf9a740ba42","system_id":"levelo_inurba_marseille","lat":43.27571,"lon":5.38416,"is_reserved":false,"is_disabled":false,"rental_uris":{"android":"levelo://app?vid=c754264e-2257-42b1-89f9-0bf9a740ba42","ios":"levelo://app?vid=c754264e-2257-42b1-89f9-0bf9a740ba42"},"vehicle_type_id":"4","last_reported":1735682896,"current_range_meters":28800,"station_id":"ce4bhh92rcd13ifvqfi0","pricing_plan_id":"cebpf4jnsgd1na2vs0mg"},{"bike_id":"4f7aa6e0-3d8e-4c80-8003-70d1bf2f97b1","system_id":"levelo_inurba_marseille","lat":43.29906,"lon":5.39721,"is_reserved":false,"is_disabled":false,"rental_uris":{"android":"levelo://app?vid=4f7aa6e0-3d8e-4c80-8003-70d1bf2f97b1","ios":"levelo://app?vid=4f7aa6e0-3d8e-4c80-8003-70d1bf2f97b1"},"vehicle_type_id":"4","last_reported":1735682896,"current_range_meters":12400,"station_id":"ce4bh0h2rcd13ifvqd50","pricing_plan_id":"cebpf4jnsgd1na2vs0mg"},{"bike_id":"e95e1d18-be2d-43cf-8701-273a30d23bf3","system_id":"levelo_inurba_marseille","lat":43.28406,"lon":5.37498,"is_reserved":false,"is_disabled":false,"rental_uris":{"android":"levelo://app?vid=e95e1d18-be2d-43cf-8701-273a30d23bf3","ios":"levelo://app?vid=e95e1d18-be2d-43cf-8701-273a30d23bf3"},"vehicle_type_id":"4","last_reported":1735682896,"current_range_meters":12800,"station_id":"ce4bh412rcd13ifvqds0","pricing_plan_id":"cebpf4jnsgd1na2vs0mg"},{"bike_id":"b6c8d252-a8ce-43b1-a60c-c58406833311","system_id":"levelo_inurba_marseille","lat":43.27172,"lon":5.40992,"is_reserved":false,"is_disabled":false,"rental_uris":{"android":"levelo://app?vid=b6c8d252-a8ce-43b1-a60c-c58406833311","ios":"levelo://app?vid=b6c8d252-a8ce-43b1-a60c-c58406833311"},"vehicle_type_id":"4","last_reported":1735682896,"current_range_meters":15200,"station_id":"ce4bhl12rcd13ifvqgf0","pricing_plan_id":"cebpf4jnsgd1na2vs0mg"},{"bike_id":"dba8a92c-2275-4093-99da-0983fec95827","system_id":"levelo_inurba_marseille","lat":43.29301,"lon":5.37142,"is_reserved":false,"is_disabled":false,"rental_uris":{"android":"levelo://app?vid=dba8a92c-2275-4093-99da-0983fec95827","ios":"levelo://app?vid=dba8a92c-2275-4093-99da-0983fec95827"},"vehicle_type_id":"4","last_reported":1735682896,"current_range_meters":22000,"station_id":"ce4bgh92rcd13ifvqb40","pricing_plan_id":"cebpf4jnsgd1na2vs0mg"},{"bike_id":"6611339c-c6f1-4ce8-9613-d42f5088a636","system_id":"levelo_inurba_marseille","lat":43.2683,"lon":5.40248,"is_reserved":false,"is_disabled":false,"rental_uris":{"android":"levelo://app?vid=6611339c-c6f1-4ce8-9613-d42f5088a636","ios":"levelo://app?vid=6611339c-c6f1-4ce8-9613-d42f5088a636"},"vehicle_type_id":"4","last_reported":1735682896,"current_range_meters":38800,"station_id":"ce501612rcd8frsf0b60","pricing_plan_id":"cebpf4jnsgd1na2vs0mg"},{"bike_id":"ff774cb1-0eba-40f9-85a7-0efb7ac703ab","system_id":"levelo_inurba_marseille","lat":43.29066,"lon":5.3716,"is_reserved":false,"is_disabled":false,"rental_uris":{"android":"levelo://app?vid=ff774cb1-0eba-40f9-85a7-0efb7ac703ab","ios":"levelo://app?vid=ff774cb1-0eba-40f9-85a7-0efb7ac703ab"},"vehicle_type_id":"4","last_reported":1735682896,"current_range_meters":38000,"station_id":"ce4bh5p2rcd13ifvqe4g","pricing_plan_id":"cebpf4jnsgd1na2vs0mg"},{"bike_id":"f1ae0bf8-0350-41dd-95ca-65a425c0e4b6","system_id":"levelo_inurba_marseille","lat":43.30317,"lon":5.36893,"is_reserved":false,"is_disabled":false,"rental_uris":{"android":"levelo://app?vid=f1ae0bf8-0350-41dd-95ca-65a425c0e4b6","ios":"levelo://app?vid=f1ae0bf8-0350-41dd-95ca-65a425c0e4b6"},"vehicle_type_id":"4","last_reported":1735682896,"current_range_meters":39200,"station_id":"ce4bgqh2rcd13ifvqc5g","pricing_plan_id":"cebpf4jnsgd1na2vs0mg"},{"bike_id":"4b27b836-d8fb-4e3f-8fe5-e8c3aa40e817","system_id":"levelo_inurba_marseille","lat":43.29168,"lon":5.3715,"is_reserved":false,"is_disabled":false,"rental_uris":{"android":"levelo://app?vid=4b27b836-d8fb-4e3f-8fe5-e8c3aa40e817","ios":"levelo://app?vid=4b27b836-d8fb-4e3f-8fe5-e8c3aa40e817"},"vehicle_type_id":"4","last_reported":1735682896,"current_range_meters":37600,"station_id":"ce4bha92rcd13ifvqeh0","pricing_plan_id":"cebpf4jnsgd1na2vs0mg"},{"bike_id":"a871e8bb-4f17-4f79-8bac-42efdc696fa0","system_id":"levelo_inurba_marseille","lat":43.29,"lon":5.35603,"is_reserved":false,"is_disabled":false,"rental_uris":{"android":"levelo://app?vid=a871e8bb-4f17-4f79-8bac-42efdc696fa0","ios":"levelo://app?vid=a871e8bb-4f17-4f79-8bac-42efdc696fa0"},"vehicle_type_id":"4","last_reported":1735682896,"current_range_meters":38800,"station_id":"ce4bhb92rcd13ifvqen0","pricing_plan_id":"cebpf4jnsgd1na2vs0mg"},{"bike_id":"66904ebc-b41f-4abd-8292-e454b64bd708","system_id":"levelo_inurba_marseille","lat":43.30908,"lon":5.36848,"is_reserved":false,"is_disabled":false,"rental_uris":{"android":"levelo://app?vid=66904ebc-b41f-4abd-8292-e454b64bd708","ios":"levelo://app?vid=66904ebc-b41f-4abd-8292-e454b64bd708"},"vehicle_type_id":"4","last_reported":1735682896,"current_range_meters":33600,"station_id":"ce4bgn92rcd13ifvqbvg","pricing_plan_id":"cebpf4jnsgd1na2vs0mg"},{"bike_id":"d625e588-11c3-4fb0-bbf8-82531f0a858d","system_id":"levelo_inurba_marseille","lat":43.28855,"lon":5.39324,"is_reserved":false,"is_disabled":false,"rental_uris":{"android":"levelo://app?vid=d625e588-11c3-4fb0-bbf8-82531f0a858d","ios":"levelo://app?vid=d625e588-11c3-4fb0-bbf8-82531f0a858d"},"vehicle_type_id":"4","last_reported":1735682896,"current_range_meters":37600,"station_id":"ce4bh2p2rcd13ifvqdi0","pricing_plan_id":"cebpf4jnsgd1na2vs0mg"},{"bike_id":"ea47b593-6d95-4f05-b0d8-fecf8b2e9d0e","system_id":"levelo_inurba_marseille","lat":43.29269,"lon":5.38445,"is_reserved":false,"is_disabled":false,"rental_uris":{"android":"levelo://app?vid=ea47b593-6d95-4f05-b0d8-fecf8b2e9d0e","ios":"levelo://app?vid=ea47b593-6d95-4f05-b0d8-fecf8b2e9d0e"},"vehicle_type_id":"4","last_reported":1735682896,"current_range_meters":22000,"station_id":"ce4bh692rcd13ifvqea0","pricing_plan_id":"cebpf4jnsgd1na2vs0mg"},{"bike_id":"ba936ddb-3421-4c87-83fc-05fd5470238a","system_id":"levelo_inurba_marseille","lat":43.29446,"lon":5.39743,"is_reserved":false,"is_disabled":false,"rental_uris":{"android":"levelo://app?vid=ba936ddb-3421-4c87-83fc-05fd5470238a","ios":"levelo://app?vid=ba936ddb-3421-4c87-83fc-05fd5470238a"},"vehicle_type_id":"4","last_reported":1735682896,"current_range_meters":36400,"station_id":"ce4bh3h2rcd13ifvqdo0","pricing_plan_id":"cebpf4jnsgd1na2vs0mg"},{"bike_id":"0c10fc4c-f4e4-4369-b3ba-724607513d27","system_id":"levelo_inurba_marseille","lat":43.29009,"lon":5.38634,"is_reserved":false,"is_disabled":false,"rental_uris":{"android":"levelo://app?vid=0c10fc4c-f4e4-4369-b3ba-724607513d27","ios":"levelo://app?vid=0c10fc4c-f4e4-4369-b3ba-724607513d27"},"vehicle_type_id":"4","last_reported":1735682896,"current_range_meters":32000,"station_id":"ce4bh4p2rcd13ifvqe0g","pricing_plan_id":"cebpf4jnsgd1na2vs0mg"},{"bike_id":"edc4275d-5591-4bbe-8f28-4c856b8c851d","system_id":"levelo_inurba_marseille","lat":43.29807,"lon":5.38083,"is_reserved":false,"is_disabled":false,"rental_uris":{"android":"levelo://app?vid=edc4275d-5591-4bbe-8f28-4c856b8c851d","ios":"levelo://app?vid=edc4275d-5591-4bbe-8f28-4c856b8c851d"},"vehicle_type_id":"4","last_reported":1735682896,"current_range_meters":38800,"station_id":"ce4bgip2rcd13ifvqbb0","pricing_plan_id":"cebpf4jnsgd1na2vs0mg"},{"bike_id":"2f46ed5f-d621-4960-be21-137d8f9ca518","system_id":"levelo_inurba_marseille","lat":43.29268,"lon":5.38448,"is_reserved":false,"is_disabled":true,"rental_uris":{"android":"levelo://app?vid=2f46ed5f-d621-4960-be21-137d8f9ca518","ios":"levelo://app?vid=2f46ed5f-d621-4960-be21-137d8f9ca518"},"vehicle_type_id":"4","last_reported":1735682896,"current_range_meters":38800,"station_id":"ce4bh692rcd13ifvqea0","pricing_plan_id":"cebpf4jnsgd1na2vs0mg"},{"bike_id":"cc5ab863-37a3-4d9c-87e5-b15150741dee","system_id":"levelo_inurba_marseille","lat":43.295288,"lon":5.385453,"is_reserved":false,"is_disabled":false,"rental_uris":{"android":"levelo://app?vid=cc5ab863-37a3-4d9c-87e5-b15150741dee","ios":"levelo://app?vid=cc5ab863-37a3-4d9c-87e5-b15150741dee"},"vehicle_type_id":"4","last_reported":1735682896,"current_range_meters":38400,"station_id":"ce4bgih2rcd13ifvqba0","pricing_plan_id":"cebpf4jnsgd1na2vs0mg"},{"bike_id":"a87e4111-653d-4c79-b009-b173a2dd1186","system_id":"levelo_inurba_marseille","lat":43.29019,"lon":5.38631,"is_reserved":false,"is_disabled":false,"rental_uris":{"android":"levelo://app?vid=a87e4111-653d-4c79-b009-b173a2dd1186","ios":"levelo://app?vid=a87e4111-653d-4c79-b009-b173a2dd1186"},"vehicle_type_id":"4","last_reported":1735682896,"current_range_meters":12400,"station_id":"ce4bh4p2rcd13ifvqe0g","pricing_plan_id":"cebpf4jnsgd1na2vs0mg"},{"bike_id":"639b1b7e-a520-422b-992a-cdb2f1d5c2c7","system_id":"levelo_inurba_marseille","lat":43.28354,"lon":5.38629,"is_reserved":false,"is_disabled":true,"rental_uris":{"android":"levelo://app?vid=639b1b7e-a520-422b-992a-cdb2f1d5c2c7","ios":"levelo://app?vid=639b1b7e-a520-422b-992a-cdb2f1d5c2c7"},"vehicle_type_id":"4","last_reported":1735682896,"current_range_meters":0,"station_id":"ce4bh492rcd13ifvqdvg","pricing_plan_id":"cebpf4jnsgd1na2vs0mg"},{"bike_id":"21348762-b24d-4b2d-bc68-84e9f0125c38","system_id":"levelo_inurba_marseille","lat":43.22931,"lon":5.35373,"is_reserved":false,"is_disabled":false,"rental_uris":{"android":"levelo://app?vid=21348762-b24d-4b2d-bc68-84e9f0125c38","ios":"levelo://app?vid=21348762-b24d-4b2d-bc68-84e9f0125c38"},"vehicle_type_id":"4","last_reported":1735682896,"current_range_meters":38000,"station_id":"cpo3532slgdg3j2ikp40","pricing_plan_id":"cebpf4jnsgd1na2vs0mg"},{"bike_id":"438f62e1-444c-47f0-807e-4b56363321fe","system_id":"levelo_inurba_marseille","lat":43.29021,"lon":5.38631,"is_reserved":false,"is_disabled":false,"rental_uris":{"android":"levelo://app?vid=438f62e1-444c-47f0-807e-4b56363321fe","ios":"levelo://app?vid=438f62e1-444c-47f0-807e-4b56363321fe"},"vehicle_type_id":"4","last_reported":1735682896,"current_range_meters":37600,"station_id":"ce4bh4p2rcd13ifvqe0g","pricing_plan_id":"cebpf4jnsgd1na2vs0mg"},{"bike_id":"9c017f86-baf5-4f45-8d53-2d2982a0c140","system_id":"levelo_inurba_marseille","lat":43.28106,"lon":5.37832,"is_reserved":false,"is_disabled":false,"rental_uris":{"android":"levelo://app?vid=9c017f86-baf5-4f45-8d53-2d2982a0c140","ios":"levelo://app?vid=9c017f86-baf5-4f45-8d53-2d2982a0c140"},"vehicle_type_id":"4","last_reported":1735682896,"current_range_meters":36800,"station_id":"ce4bha12rcd13ifvqee0","pricing_plan_id":"cebpf4jnsgd1na2vs0mg"},{"bike_id":"30a49652-d136-44e4-a4d9-d7c1b83f0627","system_id":"levelo_inurba_marseille","lat":43.337444,"lon":5.374475,"is_reserved":false,"is_disabled":false,"rental_uris":{"android":"levelo://app?vid=30a49652-d136-44e4-a4d9-d7c1b83f0627","ios":"levelo://app?vid=30a49652-d136-44e4-a4d9-d7c1b83f0627"},"vehicle_type_id":"4","last_reported":1735682896,"current_range_meters":17200,"station_id":"","pricing_plan_id":"cebpf4jnsgd1na2vs0mg"},{"bike_id":"1683a6ff-78df-47d7-8bd3-e1c7b6de1a98","system_id":"levelo_inurba_marseille","lat":43.31735,"lon":5.40438,"is_reserved":false,"is_disabled":false,"rental_uris":{"android":"levelo://app?vid=1683a6ff-78df-47d7-8bd3-e1c7b6de1a98","ios":"levelo://app?vid=1683a6ff-78df-47d7-8bd3-e1c7b6de1a98"},"vehicle_type_id":"4","last_reported":1735682896,"current_range_meters":22400,"station_id":"","pricing_plan_id":"cebpf4jnsgd1na2vs0mg"},{"bike_id":"665e6b3c-635d-4d6e-8212-3141211de017","system_id":"levelo_inurba_marseille","lat":43.29298,"lon":5.37453,"is_reserved":false,"is_disabled":false,"rental_uris":{"android":"levelo://app?vid=665e6b3c-635d-4d6e-8212-3141211de017","ios":"levelo://app?vid=665e6b3c-635d-4d6e-8212-3141211de017"},"vehicle_type_id":"4","last_reported":1735682896,"current_range_meters":34800,"station_id":"ce4bgi12rcd13ifvqb70","pricing_plan_id":"cebpf4jnsgd1na2vs0mg"},{"bike_id":"5b744b90-1060-437b-b3d1-3a60c6232327","system_id":"levelo_inurba_marseille","lat":43.279183,"lon":5.395863,"is_reserved":false,"is_disabled":false,"rental_uris":{"android":"levelo://app?vid=5b744b90-1060-437b-b3d1-3a60c6232327","ios":"levelo://app?vid=5b744b90-1060-437b-b3d1-3a60c6232327"},"vehicle_type_id":"4","last_reported":1735682896,"current_range_meters":18800,"station_id":"ce4bhf92rcd13ifvqf40","pricing_plan_id":"cebpf4jnsgd1na2vs0mg"},{"bike_id":"d80e9bec-0f8d-442d-adeb-8a9f45ad9450","system_id":"levelo_inurba_marseille","lat":43.2835,"lon":5.38094,"is_reserved":false,"is_disabled":false,"rental_uris":{"android":"levelo://app?vid=d80e9bec-0f8d-442d-adeb-8a9f45ad9450","ios":"levelo://app?vid=d80e9bec-0f8d-442d-adeb-8a9f45ad9450"},"vehicle_type_id":"4","last_reported":1735682896,"current_range_meters":23200,"station_id":"ce4bh412rcd13ifvqdr0","pricing_plan_id":"cebpf4jnsgd1na2vs0mg"},{"bike_id":"121ed049-1e17-4de4-96db-abaaf3e440dc","system_id":"levelo_inurba_marseille","lat":43.27194,"lon":5.39155,"is_reserved":false,"is_disabled":false,"rental_uris":{"android":"levelo://app?vid=121ed049-1e17-4de4-96db-abaaf3e440dc","ios":"levelo://app?vid=121ed049-1e17-4de4-96db-abaaf3e440dc"},"vehicle_type_id":"4","last_reported":1735682896,"current_range_meters":27600,"station_id":"ce4bhhp2rcd13ifvqfm0","pricing_plan_id":"cebpf4jnsgd1na2vs0mg"},{"bike_id":"2bc360b1-f2cf-4e42-9ed8-20fd82863dcb","system_id":"levelo_inurba_marseille","lat":43.29626,"lon":5.37165,"is_reserved":false,"is_disabled":false,"rental_uris":{"android":"levelo://app?vid=2bc360b1-f2cf-4e42-9ed8-20fd82863dcb","ios":"levelo://app?vid=2bc360b1-f2cf-4e42-9ed8-20fd82863dcb"},"vehicle_type_id":"4","last_reported":1735682896,"current_range_meters":14400,"station_id":"ce4bgnh2rcd13ifvqc0g","pricing_plan_id":"cebpf4jnsgd1na2vs0mg"},{"bike_id":"cd74a333-9a1d-4930-b287-4902bed467c1","system_id":"levelo_inurba_marseille","lat":43.30819,"lon":5.38138,"is_reserved":false,"is_disabled":false,"rental_uris":{"android":"levelo://app?vid=cd74a333-9a1d-4930-b287-4902bed467c1","ios":"levelo://app?vid=cd74a333-9a1d-4930-b287-4902bed467c1"},"vehicle_type_id":"4","last_reported":1735682896,"current_range_meters":6800,"station_id":"ce4bgt12rcd13ifvqce0","pricing_plan_id":"cebpf4jnsgd1na2vs0mg"},{"bike_id":"d996ebe6-a085-4671-8aef-57e91ba860dc","system_id":"levelo_inurba_marseille","lat":43.26794,"lon":5.40256,"is_reserved":false,"is_disabled":false,"rental_uris":{"android":"levelo://app?vid=d996ebe6-a085-4671-8aef-57e91ba860dc","ios":"levelo://app?vid=d996ebe6-a085-4671-8aef-57e91ba860dc"},"vehicle_type_id":"4","last_reported":1735682896,"current_range_meters":31200,"station_id":"ce501612rcd8frsf0b60","pricing_plan_id":"cebpf4jnsgd1na2vs0mg"},{"bike_id":"1fa11319-427d-42b2-8f07-2d78d11bd9fa","system_id":"levelo_inurba_marseille","lat":43.31153,"lon":5.42305,"is_reserved":false,"is_disabled":false,"rental_uris":{"android":"levelo://app?vid=1fa11319-427d-42b2-8f07-2d78d11bd9fa","ios":"levelo://app?vid=1fa11319-427d-42b2-8f07-2d78d11bd9fa"},"vehicle_type_id":"4","last_reported":1735682896,"current_range_meters":26800,"station_id":"","pricing_plan_id":"cebpf4jnsgd1na2vs0mg"},{"bike_id":"f0759b16-cb79-495c-88bb-e0de73383a8f","system_id":"levelo_inurba_marseille","lat":43.25084,"lon":5.39518,"is_reserved":false,"is_disabled":false,"rental_uris":{"android":"levelo://app?vid=f0759b16-cb79-495c-88bb-e0de73383a8f","ios":"levelo://app?vid=f0759b16-cb79-495c-88bb-e0de73383a8f"},"vehicle_type_id":"4","last_reported":1735682896,"current_range_meters":22800,"station_id":"ce4bhm12rcd13ifvqgkg","pricing_plan_id":"cebpf4jnsgd1na2vs0mg"},{"bike_id":"261f84eb-7209-4691-ba89-1395784a623f","system_id":"levelo_inurba_marseille","lat":43.27561,"lon":5.38436,"is_reserved":false,"is_disabled":false,"rental_uris":{"android":"levelo://app?vid=261f84eb-7209-4691-ba89-1395784a623f","ios":"levelo://app?vid=261f84eb-7209-4691-ba89-1395784a623f"},"vehicle_type_id":"4","last_reported":1735682896,"current_range_meters":32000,"station_id":"ce4bhh92rcd13ifvqfi0","pricing_plan_id":"cebpf4jnsgd1na2vs0mg"},{"bike_id":"7f9e49d8-8213-48ff-8267-1347961734e7","system_id":"levelo_inurba_marseille","lat":43.2784,"lon":5.39199,"is_reserved":false,"is_disabled":false,"rental_uris":{"android":"levelo://app?vid=7f9e49d8-8213-48ff-8267-1347961734e7","ios":"levelo://app?vid=7f9e49d8-8213-48ff-8267-1347961734e7"},"vehicle_type_id":"4","last_reported":1735682896,"current_range_meters":6800,"station_id":"ce4bhjp2rcd13ifvqga0","pricing_plan_id":"cebpf4jnsgd1na2vs0mg"},{"bike_id":"f6c80ac2-5f19-4568-b083-ea8673e4c4bb","system_id":"levelo_inurba_marseille","lat":43.29403,"lon":5.38589,"is_reserved":false,"is_disabled":false,"rental_uris":{"android":"levelo://app?vid=f6c80ac2-5f19-4568-b083-ea8673e4c4bb","ios":"levelo://app?vid=f6c80ac2-5f19-4568-b083-ea8673e4c4bb"},"vehicle_type_id":"4","last_reported":1735682896,"current_range_meters":6800,"station_id":"ce4bh2h2rcd13ifvqdh0","pricing_plan_id":"cebpf4jnsgd1na2vs0mg"},{"bike_id":"a80ab412-c52a-467a-8ae8-b33a83691fc0","system_id":"levelo_inurba_marseille","lat":43.29533,"lon":5.38543,"is_reserved":false,"is_disabled":false,"rental_uris":{"android":"levelo://app?vid=a80ab412-c52a-467a-8ae8-b33a83691fc0","ios":"levelo://app?vid=a80ab412-c52a-467a-8ae8-b33a83691fc0"},"vehicle_type_id":"4","last_reported":1735682896,"current_range_meters":28000,"station_id":"ce4bgih2rcd13ifvqba0","pricing_plan_id":"cebpf4jnsgd1na2vs0mg"},{"bike_id":"ea990fc9-5f95-4acd-a2be-29105099e24e","system_id":"levelo_inurba_marseille","lat":43.23063,"lon":5.35489,"is_reserved":false,"is_disabled":false,"rental_uris":{"android":"levelo://app?vid=ea990fc9-5f95-4acd-a2be-29105099e24e","ios":"levelo://app?vid=ea990fc9-5f95-4acd-a2be-29105099e24e"},"vehicle_type_id":"4","last_reported":1735682896,"current_range_meters":33600,"station_id":"cpo3342slgdg3j2ifvpg","pricing_plan_id":"cebpf4jnsgd1na2vs0mg"},{"bike_id":"9c969c7e-74bc-4e10-a4da-07b7bc4fad80","system_id":"levelo_inurba_marseille","lat":43.32487,"lon":5.36567,"is_reserved":false,"is_disabled":false,"rental_uris":{"android":"levelo://app?vid=9c969c7e-74bc-4e10-a4da-07b7bc4fad80","ios":"levelo://app?vid=9c969c7e-74bc-4e10-a4da-07b7bc4fad80"},"vehicle_type_id":"4","last_reported":1735682896,"current_range_meters":20800,"station_id":"ce4bhs12rcd13ifvqhvg","pricing_plan_id":"cebpf4jnsgd1na2vs0mg"},{"bike_id":"8d3ea513-8ac1-43a3-a4c8-98896e32b590","system_id":"levelo_inurba_marseille","lat":43.295883,"lon":5.380961,"is_reserved":false,"is_disabled":false,"rental_uris":{"android":"levelo://app?vid=8d3ea513-8ac1-43a3-a4c8-98896e32b590","ios":"levelo://app?vid=8d3ea513-8ac1-43a3-a4c8-98896e32b590"},"vehicle_type_id":"4","last_reported":1735682896,"current_range_meters":38800,"station_id":"ce4bgl12rcd13ifvqbo0","pricing_plan_id":"cebpf4jnsgd1na2vs0mg"},{"bike_id":"875a1f95-fa28-45eb-8a15-cb8df7fccf00","system_id":"levelo_inurba_marseille","lat":43.32481,"lon":5.36562,"is_reserved":false,"is_disabled":false,"rental_uris":{"android":"levelo://app?vid=875a1f95-fa28-45eb-8a15-cb8df7fccf00","ios":"levelo://app?vid=875a1f95-fa28-45eb-8a15-cb8df7fccf00"},"vehicle_type_id":"4","last_reported":1735682896,"current_range_meters":36000,"station_id":"ce4bhs12rcd13ifvqhvg","pricing_plan_id":"cebpf4jnsgd1na2vs0mg"},{"bike_id":"ccc7e2c5-7636-439e-9869-7fb5f4662b92","system_id":"levelo_inurba_marseille","lat":43.265,"lon":5.39541,"is_reserved":false,"is_disabled":false,"rental_uris":{"android":"levelo://app?vid=ccc7e2c5-7636-439e-9869-7fb5f4662b92","ios":"levelo://app?vid=ccc7e2c5-7636-439e-9869-7fb5f4662b92"},"vehicle_type_id":"4","last_reported":1735682896,"current_range_meters":38800,"station_id":"ce4bhi12rcd13ifvqfq0","pricing_plan_id":"cebpf4jnsgd1na2vs0mg"},{"bike_id":"d13b199e-e620-4f52-ae43-9a360f46ed32","system_id":"levelo_inurba_marseille","lat":43.27995,"lon":5.39996,"is_reserved":false,"is_disabled":false,"rental_uris":{"android":"levelo://app?vid=d13b199e-e620-4f52-ae43-9a360f46ed32","ios":"levelo://app?vid=d13b199e-e620-4f52-ae43-9a360f46ed32"},"vehicle_type_id":"4","last_reported":1735682896,"current_range_meters":8800,"station_id":"ce4bho92rcd13ifvqh4g","pricing_plan_id":"cebpf4jnsgd1na2vs0mg"},{"bike_id":"a7e99453-ebf0-4439-81a4-e7bfd1c225f8","system_id":"levelo_inurba_marseille","lat":43.29602,"lon":5.38093,"is_reserved":false,"is_disabled":false,"rental_uris":{"android":"levelo://app?vid=a7e99453-ebf0-4439-81a4-e7bfd1c225f8","ios":"levelo://app?vid=a7e99453-ebf0-4439-81a4-e7bfd1c225f8"},"vehicle_type_id":"4","last_reported":1735682896,"current_range_meters":38800,"station_id":"ce4bgl12rcd13ifvqbo0","pricing_plan_id":"cebpf4jnsgd1na2vs0mg"},{"bike_id":"dc7c97b8-e0a0-47f2-ae65-b2b40958eec3","system_id":"levelo_inurba_marseille","lat":43.2931,"lon":5.37448,"is_reserved":false,"is_disabled":false,"rental_uris":{"android":"levelo://app?vid=dc7c97b8-e0a0-47f2-ae65-b2b40958eec3","ios":"levelo://app?vid=dc7c97b8-e0a0-47f2-ae65-b2b40958eec3"},"vehicle_type_id":"4","last_reported":1735682896,"current_range_meters":36400,"station_id":"ce4bgi12rcd13ifvqb70","pricing_plan_id":"cebpf4jnsgd1na2vs0mg"},{"bike_id":"32afc6cc-1544-4f88-ab5c-34496cc35b04","system_id":"levelo_inurba_marseille","lat":43.23052,"lon":5.35496,"is_reserved":false,"is_disabled":false,"rental_uris":{"android":"levelo://app?vid=32afc6cc-1544-4f88-ab5c-34496cc35b04","ios":"levelo://app?vid=32afc6cc-1544-4f88-ab5c-34496cc35b04"},"vehicle_type_id":"4","last_reported":1735682896,"current_range_meters":16000,"station_id":"cpo3342slgdg3j2ifvpg","pricing_plan_id":"cebpf4jnsgd1na2vs0mg"},{"bike_id":"65b6352d-401e-40fa-bbe2-012b90ee76f5","system_id":"levelo_inurba_marseille","lat":43.27816,"lon":5.40701,"is_reserved":false,"is_disabled":false,"rental_uris":{"android":"levelo://app?vid=65b6352d-401e-40fa-bbe2-012b90ee76f5","ios":"levelo://app?vid=65b6352d-401e-40fa-bbe2-012b90ee76f5"},"vehicle_type_id":"4","last_reported":1735682896,"current_range_meters":38800,"station_id":"ce4bhnh2rcd13ifvqgtg","pricing_plan_id":"cebpf4jnsgd1na2vs0mg"},{"bike_id":"5be1b31f-dfe5-4e9e-9157-5a3c3ea30403","system_id":"levelo_inurba_marseille","lat":43.28616,"lon":5.37028,"is_reserved":false,"is_disabled":false,"rental_uris":{"android":"levelo://app?vid=5be1b31f-dfe5-4e9e-9157-5a3c3ea30403","ios":"levelo://app?vid=5be1b31f-dfe5-4e9e-9157-5a3c3ea30403"},"vehicle_type_id":"4","last_reported":1735682896,"current_range_meters":36800,"station_id":"ce4bht12rcd13ifvqi60","pricing_plan_id":"cebpf4jnsgd1na2vs0mg"},{"bike_id":"8cb2d0be-8e3a-4672-baca-e037af3f3e32","system_id":"levelo_inurba_marseille","lat":43.2957,"lon":5.38094,"is_reserved":false,"is_disabled":false,"rental_uris":{"android":"levelo://app?vid=8cb2d0be-8e3a-4672-baca-e037af3f3e32","ios":"levelo://app?vid=8cb2d0be-8e3a-4672-baca-e037af3f3e32"},"vehicle_type_id":"4","last_reported":1735682896,"current_range_meters":35200,"station_id":"ce4bgl12rcd13ifvqbo0","pricing_plan_id":"cebpf4jnsgd1na2vs0mg"},{"bike_id":"f753137d-380d-4e83-bdea-6e7f1301bc36","system_id":"levelo_inurba_marseille","lat":43.29287,"lon":5.37394,"is_reserved":false,"is_disabled":false,"rental_uris":{"android":"levelo://app?vid=f753137d-380d-4e83-bdea-6e7f1301bc36","ios":"levelo://app?vid=f753137d-380d-4e83-bdea-6e7f1301bc36"},"vehicle_type_id":"4","last_reported":1735682896,"current_range_meters":26000,"station_id":"","pricing_plan_id":"cebpf4jnsgd1na2vs0mg"},{"bike_id":"f0d45c44-2f67-4d12-863a-7c41f1f48a22","system_id":"levelo_inurba_marseille","lat":43.29226,"lon":5.36054,"is_reserved":false,"is_disabled":false,"rental_uris":{"android":"levelo://app?vid=f0d45c44-2f67-4d12-863a-7c41f1f48a22","ios":"levelo://app?vid=f0d45c44-2f67-4d12-863a-7c41f1f48a22"},"vehicle_type_id":"4","last_reported":1735682896,"current_range_meters":28800,"station_id":"ce4bhbh2rcd13ifvqeqg","pricing_plan_id":"cebpf4jnsgd1na2vs0mg"},{"bike_id":"d9039fb6-1526-43a5-ab47-bf6c74051347","system_id":"levelo_inurba_marseille","lat":43.28149,"lon":5.42638,"is_reserved":false,"is_disabled":false,"rental_uris":{"android":"levelo://app?vid=d9039fb6-1526-43a5-ab47-bf6c74051347","ios":"levelo://app?vid=d9039fb6-1526-43a5-ab47-bf6c74051347"},"vehicle_type_id":"4","last_reported":1735682896,"current_range_meters":9200,"station_id":"ce4bhnh2rcd13ifvqgug","pricing_plan_id":"cebpf4jnsgd1na2vs0mg"},{"bike_id":"bd0111e5-37c2-4d59-b2f6-13a9dfbd13e5","system_id":"levelo_inurba_marseille","lat":43.27953,"lon":5.41041,"is_reserved":false,"is_disabled":false,"rental_uris":{"android":"levelo://app?vid=bd0111e5-37c2-4d59-b2f6-13a9dfbd13e5","ios":"levelo://app?vid=bd0111e5-37c2-4d59-b2f6-13a9dfbd13e5"},"vehicle_type_id":"4","last_reported":1735682896,"current_range_meters":18000,"station_id":"ce4bhnp2rcd13ifvqh0g","pricing_plan_id":"cebpf4jnsgd1na2vs0mg"},{"bike_id":"ce872ff4-1114-4dbb-a1cd-0587f9a75e23","system_id":"levelo_inurba_marseille","lat":43.24789,"lon":5.37458,"is_reserved":false,"is_disabled":false,"rental_uris":{"android":"levelo://app?vid=ce872ff4-1114-4dbb-a1cd-0587f9a75e23","ios":"levelo://app?vid=ce872ff4-1114-4dbb-a1cd-0587f9a75e23"},"vehicle_type_id":"4","last_reported":1735682896,"current_range_meters":38800,"station_id":"ce4bhgh2rcd13ifvqfb0","pricing_plan_id":"cebpf4jnsgd1na2vs0mg"},{"bike_id":"022d826a-d31d-48ef-b07e-f8dd0ceaa746","system_id":"levelo_inurba_marseille","lat":43.24996,"lon":5.38935,"is_reserved":false,"is_disabled":false,"rental_uris":{"android":"levelo://app?vid=022d826a-d31d-48ef-b07e-f8dd0ceaa746","ios":"levelo://app?vid=022d826a-d31d-48ef-b07e-f8dd0ceaa746"},"vehicle_type_id":"4","last_reported":1735682896,"current_range_meters":35200,"station_id":"ce4bhgp2rcd13ifvqfd0","pricing_plan_id":"cebpf4jnsgd1na2vs0mg"},{"bike_id":"4217ff41-e8ba-46f5-ac52-fc886c473e1a","system_id":"levelo_inurba_marseille","lat":43.29542,"lon":5.38541,"is_reserved":false,"is_disabled":false,"rental_uris":{"android":"levelo://app?vid=4217ff41-e8ba-46f5-ac52-fc886c473e1a","ios":"levelo://app?vid=4217ff41-e8ba-46f5-ac52-fc886c473e1a"},"vehicle_type_id":"4","last_reported":1735682896,"current_range_meters":38400,"station_id":"ce4bgih2rcd13ifvqba0","pricing_plan_id":"cebpf4jnsgd1na2vs0mg"},{"bike_id":"04e7867a-1371-4222-a6db-9d80083cea73","system_id":"levelo_inurba_marseille","lat":43.28837,"lon":5.3588,"is_reserved":false,"is_disabled":true,"rental_uris":{"android":"levelo://app?vid=04e7867a-1371-4222-a6db-9d80083cea73","ios":"levelo://app?vid=04e7867a-1371-4222-a6db-9d80083cea73"},"vehicle_type_id":"4","last_reported":1735682896,"current_range_meters":33200,"station_id":"ce4bhb12rcd13ifvqem0","pricing_plan_id":"cebpf4jnsgd1na2vs0mg"},{"bike_id":"dcb1b0af-9cec-4075-b2f2-2809fd56da74","system_id":"levelo_inurba_marseille","lat":43.294243,"lon":5.386072,"is_reserved":false,"is_disabled":false,"rental_uris":{"android":"levelo://app?vid=dcb1b0af-9cec-4075-b2f2-2809fd56da74","ios":"levelo://app?vid=dcb1b0af-9cec-4075-b2f2-2809fd56da74"},"vehicle_type_id":"4","last_reported":1735682896,"current_range_meters":15200,"station_id":"ce4bh2h2rcd13ifvqdh0","pricing_plan_id":"cebpf4jnsgd1na2vs0mg"},{"bike_id":"97a26378-897a-4cc3-94fc-ef7846cd6637","system_id":"levelo_inurba_marseille","lat":43.31298,"lon":5.367,"is_reserved":false,"is_disabled":false,"rental_uris":{"android":"levelo://app?vid=97a26378-897a-4cc3-94fc-ef7846cd6637","ios":"levelo://app?vid=97a26378-897a-4cc3-94fc-ef7846cd6637"},"vehicle_type_id":"4","last_reported":1735682896,"current_range_meters":38800,"station_id":"ce4bgr92rcd13ifvqc6g","pricing_plan_id":"cebpf4jnsgd1na2vs0mg"},{"bike_id":"0c0d69f4-a415-4c75-aa1b-a4fc63bbefea","system_id":"levelo_inurba_marseille","lat":43.3121,"lon":5.36884,"is_reserved":false,"is_disabled":false,"rental_uris":{"android":"levelo://app?vid=0c0d69f4-a415-4c75-aa1b-a4fc63bbefea","ios":"levelo://app?vid=0c0d69f4-a415-4c75-aa1b-a4fc63bbefea"},"vehicle_type_id":"4","last_reported":1735682896,"current_range_meters":38800,"station_id":"ce4bgl92rcd13ifvqbq0","pricing_plan_id":"cebpf4jnsgd1na2vs0mg"},{"bike_id":"806a426a-4ed8-4946-90b0-578f162fd06a","system_id":"levelo_inurba_marseille","lat":43.29592,"lon":5.38097,"is_reserved":false,"is_disabled":false,"rental_uris":{"android":"levelo://app?vid=806a426a-4ed8-4946-90b0-578f162fd06a","ios":"levelo://app?vid=806a426a-4ed8-4946-90b0-578f162fd06a"},"vehicle_type_id":"4","last_reported":1735682896,"current_range_meters":38800,"station_id":"ce4bgl12rcd13ifvqbo0","pricing_plan_id":"cebpf4jnsgd1na2vs0mg"},{"bike_id":"97aa09f8-1ccd-47ff-8094-273a0bae9e0a","system_id":"levelo_inurba_marseille","lat":43.29609,"lon":5.37709,"is_reserved":false,"is_disabled":false,"rental_uris":{"android":"levelo://app?vid=97aa09f8-1ccd-47ff-8094-273a0bae9e0a","ios":"levelo://app?vid=97aa09f8-1ccd-47ff-8094-273a0bae9e0a"},"vehicle_type_id":"4","last_reported":1735682896,"current_range_meters":30000,"station_id":"ce4bgi92rcd13ifvqb90","pricing_plan_id":"cebpf4jnsgd1na2vs0mg"},{"bike_id":"1ea09a78-ebb1-49fe-92c3-cba60f06d5b3","system_id":"levelo_inurba_marseille","lat":43.28467,"lon":5.38169,"is_reserved":false,"is_disabled":false,"rental_uris":{"android":"levelo://app?vid=1ea09a78-ebb1-49fe-92c3-cba60f06d5b3","ios":"levelo://app?vid=1ea09a78-ebb1-49fe-92c3-cba60f06d5b3"},"vehicle_type_id":"4","last_reported":1735682896,"current_range_meters":37600,"station_id":"","pricing_plan_id":"cebpf4jnsgd1na2vs0mg"},{"bike_id":"a005e1bf-2999-4035-942d-1957469d29ca","system_id":"levelo_inurba_marseille","lat":43.24666,"lon":5.38167,"is_reserved":false,"is_disabled":true,"rental_uris":{"android":"levelo://app?vid=a005e1bf-2999-4035-942d-1957469d29ca","ios":"levelo://app?vid=a005e1bf-2999-4035-942d-1957469d29ca"},"vehicle_type_id":"4","last_reported":1735682896,"current_range_meters":36000,"station_id":"ce4bhih2rcd13ifvqfr0","pricing_plan_id":"cebpf4jnsgd1na2vs0mg"},{"bike_id":"c0714b9f-b728-41f4-b014-92235b832d85","system_id":"levelo_inurba_marseille","lat":43.23964,"lon":5.36615,"is_reserved":false,"is_disabled":false,"rental_uris":{"android":"levelo://app?vid=c0714b9f-b728-41f4-b014-92235b832d85","ios":"levelo://app?vid=c0714b9f-b728-41f4-b014-92235b832d85"},"vehicle_type_id":"4","last_reported":1735682896,"current_range_meters":36800,"station_id":"ce4bhi12rcd13ifvqfp0","pricing_plan_id":"cebpf4jnsgd1na2vs0mg"},{"bike_id":"f6c3569e-efa4-4a1c-b75b-94ded8df3e64","system_id":"levelo_inurba_marseille","lat":43.27947,"lon":5.38719,"is_reserved":false,"is_disabled":false,"rental_uris":{"android":"levelo://app?vid=f6c3569e-efa4-4a1c-b75b-94ded8df3e64","ios":"levelo://app?vid=f6c3569e-efa4-4a1c-b75b-94ded8df3e64"},"vehicle_type_id":"4","last_reported":1735682896,"current_range_meters":30800,"station_id":"ce4bhg12rcd13ifvqf80","pricing_plan_id":"cebpf4jnsgd1na2vs0mg"},{"bike_id":"1e9223a0-e23d-42d2-806f-4bd530fdddf4","system_id":"levelo_inurba_marseille","lat":43.28932,"lon":5.36399,"is_reserved":false,"is_disabled":false,"rental_uris":{"android":"levelo://app?vid=1e9223a0-e23d-42d2-806f-4bd530fdddf4","ios":"levelo://app?vid=1e9223a0-e23d-42d2-806f-4bd530fdddf4"},"vehicle_type_id":"4","last_reported":1735682896,"current_range_meters":36800,"station_id":"ce4bhc92rcd13ifvqetg","pricing_plan_id":"cebpf4jnsgd1na2vs0mg"},{"bike_id":"5510f670-eb3d-4a9d-951e-27e21575eef2","system_id":"levelo_inurba_marseille","lat":43.32483,"lon":5.36546,"is_reserved":false,"is_disabled":false,"rental_uris":{"android":"levelo://app?vid=5510f670-eb3d-4a9d-951e-27e21575eef2","ios":"levelo://app?vid=5510f670-eb3d-4a9d-951e-27e21575eef2"},"vehicle_type_id":"4","last_reported":1735682896,"current_range_meters":38800,"station_id":"ce4bhs12rcd13ifvqhvg","pricing_plan_id":"cebpf4jnsgd1na2vs0mg"},{"bike_id":"4c39f437-a5ef-4ec6-98f1-e0f11722d3df","system_id":"levelo_inurba_marseille","lat":43.29625,"lon":5.3773,"is_reserved":false,"is_disabled":false,"rental_uris":{"android":"levelo://app?vid=4c39f437-a5ef-4ec6-98f1-e0f11722d3df","ios":"levelo://app?vid=4c39f437-a5ef-4ec6-98f1-e0f11722d3df"},"vehicle_type_id":"4","last_reported":1735682896,"current_range_meters":10800,"station_id":"ce4bgi92rcd13ifvqb90","pricing_plan_id":"cebpf4jnsgd1na2vs0mg"},{"bike_id":"00138e32-e492-49ec-8baf-715fb2b9afd1","system_id":"levelo_inurba_marseille","lat":43.28057,"lon":5.35292,"is_reserved":false,"is_disabled":false,"rental_uris":{"android":"levelo://app?vid=00138e32-e492-49ec-8baf-715fb2b9afd1","ios":"levelo://app?vid=00138e32-e492-49ec-8baf-715fb2b9afd1"},"vehicle_type_id":"4","last_reported":1735682896,"current_range_meters":24000,"station_id":"ce4bhbh2rcd13ifvqeo0","pricing_plan_id":"cebpf4jnsgd1na2vs0mg"},{"bike_id":"59adb9de-a24f-4ccd-917b-f6362f515950","system_id":"levelo_inurba_marseille","lat":43.30434,"lon":5.38864,"is_reserved":false,"is_disabled":false,"rental_uris":{"android":"levelo://app?vid=59adb9de-a24f-4ccd-917b-f6362f515950","ios":"levelo://app?vid=59adb9de-a24f-4ccd-917b-f6362f515950"},"vehicle_type_id":"4","last_reported":1735682896,"current_range_meters":35200,"station_id":"ce4bgk12rcd13ifvqbi0","pricing_plan_id":"cebpf4jnsgd1na2vs0mg"},{"bike_id":"f8475ff2-0828-4409-857a-ea3964873b33","system_id":"levelo_inurba_marseille","lat":43.26685,"lon":5.38268,"is_reserved":false,"is_disabled":false,"rental_uris":{"android":"levelo://app?vid=f8475ff2-0828-4409-857a-ea3964873b33","ios":"levelo://app?vid=f8475ff2-0828-4409-857a-ea3964873b33"},"vehicle_type_id":"4","last_reported":1735682896,"current_range_meters":30000,"station_id":"ce4bhg92rcd13ifvqf90","pricing_plan_id":"cebpf4jnsgd1na2vs0mg"},{"bike_id":"e7f232e6-9751-45f4-a24f-005b95d10947","system_id":"levelo_inurba_marseille","lat":43.29591,"lon":5.37721,"is_reserved":false,"is_disabled":true,"rental_uris":{"android":"levelo://app?vid=e7f232e6-9751-45f4-a24f-005b95d10947","ios":"levelo://app?vid=e7f232e6-9751-45f4-a24f-005b95d10947"},"vehicle_type_id":"4","last_reported":1735682896,"current_range_meters":30000,"station_id":"ce4bgi92rcd13ifvqb90","pricing_plan_id":"cebpf4jnsgd1na2vs0mg"},{"bike_id":"1f8555a0-5791-41f9-a2b7-899c5689a489","system_id":"levelo_inurba_marseille","lat":43.29438,"lon":5.38607,"is_reserved":false,"is_disabled":false,"rental_uris":{"android":"levelo://app?vid=1f8555a0-5791-41f9-a2b7-899c5689a489","ios":"levelo://app?vid=1f8555a0-5791-41f9-a2b7-899c5689a489"},"vehicle_type_id":"4","last_reported":1735682896,"current_range_meters":10000,"station_id":"ce4bh2h2rcd13ifvqdh0","pricing_plan_id":"cebpf4jnsgd1na2vs0mg"},{"bike_id":"fcc654c9-6ac2-491c-9f15-83351aa2a5be","system_id":"levelo_inurba_marseille","lat":43.27962,"lon":5.41042,"is_reserved":false,"is_disabled":false,"rental_uris":{"android":"levelo://app?vid=fcc654c9-6ac2-491c-9f15-83351aa2a5be","ios":"levelo://app?vid=fcc654c9-6ac2-491c-9f15-83351aa2a5be"},"vehicle_type_id":"4","last_reported":1735682896,"current_range_meters":28800,"station_id":"ce4bhnp2rcd13ifvqh0g","pricing_plan_id":"cebpf4jnsgd1na2vs0mg"},{"bike_id":"2241734e-29b7-4c37-ae32-2588a0ac3a7c","system_id":"levelo_inurba_marseille","lat":43.32476,"lon":5.36547,"is_reserved":false,"is_disabled":false,"rental_uris":{"android":"levelo://app?vid=2241734e-29b7-4c37-ae32-2588a0ac3a7c","ios":"levelo://app?vid=2241734e-29b7-4c37-ae32-2588a0ac3a7c"},"vehicle_type_id":"4","last_reported":1735682896,"current_range_meters":39200,"station_id":"ce4bhs12rcd13ifvqhvg","pricing_plan_id":"cebpf4jnsgd1na2vs0mg"},{"bike_id":"fbf0a5e4-8cad-4a92-ae3b-23473d649101","system_id":"levelo_inurba_marseille","lat":43.25586,"lon":5.38226,"is_reserved":false,"is_disabled":false,"rental_uris":{"android":"levelo://app?vid=fbf0a5e4-8cad-4a92-ae3b-23473d649101","ios":"levelo://app?vid=fbf0a5e4-8cad-4a92-ae3b-23473d649101"},"vehicle_type_id":"4","last_reported":1735682896,"current_range_meters":38400,"station_id":"ce4bhih2rcd13ifvqfs0","pricing_plan_id":"cebpf4jnsgd1na2vs0mg"},{"bike_id":"7699d09b-2917-4003-99ce-4b799665d0e9","system_id":"levelo_inurba_marseille","lat":43.25502,"lon":5.3765,"is_reserved":false,"is_disabled":false,"rental_uris":{"android":"levelo://app?vid=7699d09b-2917-4003-99ce-4b799665d0e9","ios":"levelo://app?vid=7699d09b-2917-4003-99ce-4b799665d0e9"},"vehicle_type_id":"4","last_reported":1735682896,"current_range_meters":20400,"station_id":"ce4bhh12rcd13ifvqff0","pricing_plan_id":"cebpf4jnsgd1na2vs0mg"},{"bike_id":"af1470c4-ef89-49d6-ba56-3e47ffd86133","system_id":"levelo_inurba_marseille","lat":43.29299,"lon":5.37424,"is_reserved":false,"is_disabled":true,"rental_uris":{"android":"levelo://app?vid=af1470c4-ef89-49d6-ba56-3e47ffd86133","ios":"levelo://app?vid=af1470c4-ef89-49d6-ba56-3e47ffd86133"},"vehicle_type_id":"4","last_reported":1735682896,"current_range_meters":24800,"station_id":"ce4bgi12rcd13ifvqb70","pricing_plan_id":"cebpf4jnsgd1na2vs0mg"},{"bike_id":"f8979a51-03dc-4c2d-b194-6c649d6f1e4b","system_id":"levelo_inurba_marseille","lat":43.29271,"lon":5.38435,"is_reserved":false,"is_disabled":false,"rental_uris":{"android":"levelo://app?vid=f8979a51-03dc-4c2d-b194-6c649d6f1e4b","ios":"levelo://app?vid=f8979a51-03dc-4c2d-b194-6c649d6f1e4b"},"vehicle_type_id":"4","last_reported":1735682896,"current_range_meters":21600,"station_id":"ce4bh692rcd13ifvqea0","pricing_plan_id":"cebpf4jnsgd1na2vs0mg"},{"bike_id":"3f540ad6-20bc-4bc1-b630-df9772db11ce","system_id":"levelo_inurba_marseille","lat":43.29414,"lon":5.38617,"is_reserved":false,"is_disabled":false,"rental_uris":{"android":"levelo://app?vid=3f540ad6-20bc-4bc1-b630-df9772db11ce","ios":"levelo://app?vid=3f540ad6-20bc-4bc1-b630-df9772db11ce"},"vehicle_type_id":"4","last_reported":1735682896,"current_range_meters":37600,"station_id":"ce4bh2h2rcd13ifvqdh0","pricing_plan_id":"cebpf4jnsgd1na2vs0mg"},{"bike_id":"b0fcf4d3-8951-4780-974b-af64c3d846ca","system_id":"levelo_inurba_marseille","lat":43.28264,"lon":5.35065,"is_reserved":false,"is_disabled":false,"rental_uris":{"android":"levelo://app?vid=b0fcf4d3-8951-4780-974b-af64c3d846ca","ios":"levelo://app?vid=b0fcf4d3-8951-4780-974b-af64c3d846ca"},"vehicle_type_id":"4","last_reported":1735682896,"current_range_meters":30000,"station_id":"ce4bhbp2rcd13ifvqerg","pricing_plan_id":"cebpf4jnsgd1na2vs0mg"},{"bike_id":"5c2de9bd-86ba-44d1-aad3-0f54961df2b8","system_id":"levelo_inurba_marseille","lat":43.26813,"lon":5.40258,"is_reserved":false,"is_disabled":false,"rental_uris":{"android":"levelo://app?vid=5c2de9bd-86ba-44d1-aad3-0f54961df2b8","ios":"levelo://app?vid=5c2de9bd-86ba-44d1-aad3-0f54961df2b8"},"vehicle_type_id":"4","last_reported":1735682896,"current_range_meters":8400,"station_id":"ce501612rcd8frsf0b60","pricing_plan_id":"cebpf4jnsgd1na2vs0mg"},{"bike_id":"f5997a88-606e-48c9-933e-041b10894cea","system_id":"levelo_inurba_marseille","lat":43.2707,"lon":5.42281,"is_reserved":false,"is_disabled":false,"rental_uris":{"android":"levelo://app?vid=f5997a88-606e-48c9-933e-041b10894cea","ios":"levelo://app?vid=f5997a88-606e-48c9-933e-041b10894cea"},"vehicle_type_id":"4","last_reported":1735682896,"current_range_meters":22400,"station_id":"ce4bhk92rcd13ifvqgb0","pricing_plan_id":"cebpf4jnsgd1na2vs0mg"},{"bike_id":"be27c087-8760-4b20-a1b5-d6adf1caa60d","system_id":"levelo_inurba_marseille","lat":43.28033,"lon":5.36943,"is_reserved":false,"is_disabled":false,"rental_uris":{"android":"levelo://app?vid=be27c087-8760-4b20-a1b5-d6adf1caa60d","ios":"levelo://app?vid=be27c087-8760-4b20-a1b5-d6adf1caa60d"},"vehicle_type_id":"4","last_reported":1735682896,"current_range_meters":6400,"station_id":"ce4bha12rcd13ifvqef0","pricing_plan_id":"cebpf4jnsgd1na2vs0mg"},{"bike_id":"78b5c16e-8cc7-40d1-b9a4-94b51e4903c4","system_id":"levelo_inurba_marseille","lat":43.29416,"lon":5.38603,"is_reserved":false,"is_disabled":false,"rental_uris":{"android":"levelo://app?vid=78b5c16e-8cc7-40d1-b9a4-94b51e4903c4","ios":"levelo://app?vid=78b5c16e-8cc7-40d1-b9a4-94b51e4903c4"},"vehicle_type_id":"4","last_reported":1735682896,"current_range_meters":38800,"station_id":"ce4bh2h2rcd13ifvqdh0","pricing_plan_id":"cebpf4jnsgd1na2vs0mg"},{"bike_id":"236b3030-26dc-4d31-a5ec-3e724cdce4e6","system_id":"levelo_inurba_marseille","lat":43.30873,"lon":5.39649,"is_reserved":false,"is_disabled":false,"rental_uris":{"android":"levelo://app?vid=236b3030-26dc-4d31-a5ec-3e724cdce4e6","ios":"levelo://app?vid=236b3030-26dc-4d31-a5ec-3e724cdce4e6"},"vehicle_type_id":"4","last_reported":1735682896,"current_range_meters":38800,"station_id":"ce4bh012rcd13ifvqcv0","pricing_plan_id":"cebpf4jnsgd1na2vs0mg"},{"bike_id":"abd71d58-49ef-4c9a-9d92-785fa19dd1f9","system_id":"levelo_inurba_marseille","lat":43.30938,"lon":5.4016,"is_reserved":false,"is_disabled":false,"rental_uris":{"android":"levelo://app?vid=abd71d58-49ef-4c9a-9d92-785fa19dd1f9","ios":"levelo://app?vid=abd71d58-49ef-4c9a-9d92-785fa19dd1f9"},"vehicle_type_id":"4","last_reported":1735682896,"current_range_meters":29600,"station_id":"ce4bgvp2rcd13ifvqct0","pricing_plan_id":"cebpf4jnsgd1na2vs0mg"},{"bike_id":"4ae90592-e920-400e-8a25-b327a1d3d78f","system_id":"levelo_inurba_marseille","lat":43.246656,"lon":5.381677,"is_reserved":false,"is_disabled":false,"rental_uris":{"android":"levelo://app?vid=4ae90592-e920-400e-8a25-b327a1d3d78f","ios":"levelo://app?vid=4ae90592-e920-400e-8a25-b327a1d3d78f"},"vehicle_type_id":"4","last_reported":1735682896,"current_range_meters":8000,"station_id":"ce4bhih2rcd13ifvqfr0","pricing_plan_id":"cebpf4jnsgd1na2vs0mg"},{"bike_id":"fee29b35-d5ab-40ef-aff7-4a8a451182c6","system_id":"levelo_inurba_marseille","lat":43.317224,"lon":5.423893,"is_reserved":false,"is_disabled":false,"rental_uris":{"android":"levelo://app?vid=fee29b35-d5ab-40ef-aff7-4a8a451182c6","ios":"levelo://app?vid=fee29b35-d5ab-40ef-aff7-4a8a451182c6"},"vehicle_type_id":"4","last_reported":1735682896,"current_range_meters":38000,"station_id":"ce4bhp92rcd13ifvqhbg","pricing_plan_id":"cebpf4jnsgd1na2vs0mg"},{"bike_id":"2fc8e17d-9495-4922-8d89-7dea2e5ea943","system_id":"levelo_inurba_marseille","lat":43.27057,"lon":5.40257,"is_reserved":false,"is_disabled":false,"rental_uris":{"android":"levelo://app?vid=2fc8e17d-9495-4922-8d89-7dea2e5ea943","ios":"levelo://app?vid=2fc8e17d-9495-4922-8d89-7dea2e5ea943"},"vehicle_type_id":"4","last_reported":1735682896,"current_range_meters":10000,"station_id":"ce4bhk92rcd13ifvqgc0","pricing_plan_id":"cebpf4jnsgd1na2vs0mg"},{"bike_id":"eaf838b7-144d-4291-9d25-0dcea3a4b36c","system_id":"levelo_inurba_marseille","lat":43.31118,"lon":5.37753,"is_reserved":false,"is_disabled":false,"rental_uris":{"android":"levelo://app?vid=eaf838b7-144d-4291-9d25-0dcea3a4b36c","ios":"levelo://app?vid=eaf838b7-144d-4291-9d25-0dcea3a4b36c"},"vehicle_type_id":"4","last_reported":1735682896,"current_range_meters":26800,"station_id":"ce4bgt92rcd13ifvqcg0","pricing_plan_id":"cebpf4jnsgd1na2vs0mg"},{"bike_id":"9f6f2313-c1a8-4417-b604-2f0daee035fc","system_id":"levelo_inurba_marseille","lat":43.2396,"lon":5.36622,"is_reserved":false,"is_disabled":false,"rental_uris":{"android":"levelo://app?vid=9f6f2313-c1a8-4417-b604-2f0daee035fc","ios":"levelo://app?vid=9f6f2313-c1a8-4417-b604-2f0daee035fc"},"vehicle_type_id":"4","last_reported":1735682896,"current_range_meters":28400,"station_id":"ce4bhi12rcd13ifvqfp0","pricing_plan_id":"cebpf4jnsgd1na2vs0mg"},{"bike_id":"d42bc978-4b09-4a1a-a3f8-f73483d2bd7b","system_id":"levelo_inurba_marseille","lat":43.29572,"lon":5.37528,"is_reserved":false,"is_disabled":false,"rental_uris":{"android":"levelo://app?vid=d42bc978-4b09-4a1a-a3f8-f73483d2bd7b","ios":"levelo://app?vid=d42bc978-4b09-4a1a-a3f8-f73483d2bd7b"},"vehicle_type_id":"4","last_reported":1735682896,"current_range_meters":30800,"station_id":"ce4bgh92rcd13ifvqb50","pricing_plan_id":"cebpf4jnsgd1na2vs0mg"},{"bike_id":"1ad2bbd9-5e69-4682-9dd4-e38192e7682a","system_id":"levelo_inurba_marseille","lat":43.30542,"lon":5.3671,"is_reserved":false,"is_disabled":false,"rental_uris":{"android":"levelo://app?vid=1ad2bbd9-5e69-4682-9dd4-e38192e7682a","ios":"levelo://app?vid=1ad2bbd9-5e69-4682-9dd4-e38192e7682a"},"vehicle_type_id":"4","last_reported":1735682896,"current_range_meters":30000,"station_id":"ce4bgrp2rcd13ifvqc9g","pricing_plan_id":"cebpf4jnsgd1na2vs0mg"},{"bike_id":"1b064cd6-92f7-4f16-b4d3-b7033419df8d","system_id":"levelo_inurba_marseille","lat":43.29532,"lon":5.38538,"is_reserved":false,"is_disabled":false,"rental_uris":{"android":"levelo://app?vid=1b064cd6-92f7-4f16-b4d3-b7033419df8d","ios":"levelo://app?vid=1b064cd6-92f7-4f16-b4d3-b7033419df8d"},"vehicle_type_id":"4","last_reported":1735682896,"current_range_meters":36000,"station_id":"ce4bgih2rcd13ifvqba0","pricing_plan_id":"cebpf4jnsgd1na2vs0mg"},{"bike_id":"311df7aa-7539-4933-9523-1fe72ce97583","system_id":"levelo_inurba_marseille","lat":43.3244,"lon":5.41559,"is_reserved":false,"is_disabled":false,"rental_uris":{"android":"levelo://app?vid=311df7aa-7539-4933-9523-1fe72ce97583","ios":"levelo://app?vid=311df7aa-7539-4933-9523-1fe72ce97583"},"vehicle_type_id":"4","last_reported":1735682896,"current_range_meters":9600,"station_id":"","pricing_plan_id":"cebpf4jnsgd1na2vs0mg"},{"bike_id":"8f162e2e-a375-40df-8999-8519b998ec60","system_id":"levelo_inurba_marseille","lat":43.29625,"lon":5.3773,"is_reserved":false,"is_disabled":false,"rental_uris":{"android":"levelo://app?vid=8f162e2e-a375-40df-8999-8519b998ec60","ios":"levelo://app?vid=8f162e2e-a375-40df-8999-8519b998ec60"},"vehicle_type_id":"4","last_reported":1735682896,"current_range_meters":32000,"station_id":"ce4bgi92rcd13ifvqb90","pricing_plan_id":"cebpf4jnsgd1na2vs0mg"},{"bike_id":"3c24cf58-dc47-4a05-a336-46b3393557cb","system_id":"levelo_inurba_marseille","lat":43.296,"lon":5.38096,"is_reserved":false,"is_disabled":false,"rental_uris":{"android":"levelo://app?vid=3c24cf58-dc47-4a05-a336-46b3393557cb","ios":"levelo://app?vid=3c24cf58-dc47-4a05-a336-46b3393557cb"},"vehicle_type_id":"4","last_reported":1735682896,"current_range_meters":30000,"station_id":"ce4bgl12rcd13ifvqbo0","pricing_plan_id":"cebpf4jnsgd1na2vs0mg"},{"bike_id":"94e6dee2-3159-449e-9ee5-297188ebe26e","system_id":"levelo_inurba_marseille","lat":43.29907,"lon":5.37451,"is_reserved":false,"is_disabled":false,"rental_uris":{"android":"levelo://app?vid=94e6dee2-3159-449e-9ee5-297188ebe26e","ios":"levelo://app?vid=94e6dee2-3159-449e-9ee5-297188ebe26e"},"vehicle_type_id":"4","last_reported":1735682896,"current_range_meters":24400,"station_id":"ce4bgjh2rcd13ifvqbg0","pricing_plan_id":"cebpf4jnsgd1na2vs0mg"},{"bike_id":"abbfded5-56c2-44f5-8004-1e2a51b9d0ff","system_id":"levelo_inurba_marseille","lat":43.28151,"lon":5.42643,"is_reserved":false,"is_disabled":false,"rental_uris":{"android":"levelo://app?vid=abbfded5-56c2-44f5-8004-1e2a51b9d0ff","ios":"levelo://app?vid=abbfded5-56c2-44f5-8004-1e2a51b9d0ff"},"vehicle_type_id":"4","last_reported":1735682896,"current_range_meters":28000,"station_id":"ce4bhnh2rcd13ifvqgug","pricing_plan_id":"cebpf4jnsgd1na2vs0mg"},{"bike_id":"f72e2092-86ea-45e4-82c8-cadec6ed52d1","system_id":"levelo_inurba_marseille","lat":43.29294,"lon":5.37443,"is_reserved":false,"is_disabled":false,"rental_uris":{"android":"levelo://app?vid=f72e2092-86ea-45e4-82c8-cadec6ed52d1","ios":"levelo://app?vid=f72e2092-86ea-45e4-82c8-cadec6ed52d1"},"vehicle_type_id":"4","last_reported":1735682896,"current_range_meters":35600,"station_id":"ce4bgi12rcd13ifvqb70","pricing_plan_id":"cebpf4jnsgd1na2vs0mg"},{"bike_id":"cd454331-c9b8-42dd-8bdc-efada06d55e4","system_id":"levelo_inurba_marseille","lat":43.29236,"lon":5.37124,"is_reserved":false,"is_disabled":false,"rental_uris":{"android":"levelo://app?vid=cd454331-c9b8-42dd-8bdc-efada06d55e4","ios":"levelo://app?vid=cd454331-c9b8-42dd-8bdc-efada06d55e4"},"vehicle_type_id":"4","last_reported":1735682896,"current_range_meters":36400,"station_id":"","pricing_plan_id":"cebpf4jnsgd1na2vs0mg"},{"bike_id":"8cbc8b99-428c-4040-b86c-4e2c4fffea65","system_id":"levelo_inurba_marseille","lat":43.33778,"lon":5.37438,"is_reserved":false,"is_disabled":true,"rental_uris":{"android":"levelo://app?vid=8cbc8b99-428c-4040-b86c-4e2c4fffea65","ios":"levelo://app?vid=8cbc8b99-428c-4040-b86c-4e2c4fffea65"},"vehicle_type_id":"4","last_reported":1735682896,"current_range_meters":36400,"station_id":"","pricing_plan_id":"cebpf4jnsgd1na2vs0mg"},{"bike_id":"281c3a16-69e0-4a03-8d9e-f541d365dddc","system_id":"levelo_inurba_marseille","lat":43.27054,"lon":5.40259,"is_reserved":false,"is_disabled":false,"rental_uris":{"android":"levelo://app?vid=281c3a16-69e0-4a03-8d9e-f541d365dddc","ios":"levelo://app?vid=281c3a16-69e0-4a03-8d9e-f541d365dddc"},"vehicle_type_id":"4","last_reported":1735682896,"current_range_meters":38000,"station_id":"ce4bhk92rcd13ifvqgc0","pricing_plan_id":"cebpf4jnsgd1na2vs0mg"},{"bike_id":"fdccb3f7-58d6-42a4-a69d-d734d3486c5c","system_id":"levelo_inurba_marseille","lat":43.29253,"lon":5.38448,"is_reserved":false,"is_disabled":false,"rental_uris":{"android":"levelo://app?vid=fdccb3f7-58d6-42a4-a69d-d734d3486c5c","ios":"levelo://app?vid=fdccb3f7-58d6-42a4-a69d-d734d3486c5c"},"vehicle_type_id":"4","last_reported":1735682896,"current_range_meters":14000,"station_id":"ce4bh692rcd13ifvqea0","pricing_plan_id":"cebpf4jnsgd1na2vs0mg"},{"bike_id":"62af83b8-0bcb-4a53-9c44-e8ad4810fed3","system_id":"levelo_inurba_marseille","lat":43.265,"lon":5.3955,"is_reserved":false,"is_disabled":false,"rental_uris":{"android":"levelo://app?vid=62af83b8-0bcb-4a53-9c44-e8ad4810fed3","ios":"levelo://app?vid=62af83b8-0bcb-4a53-9c44-e8ad4810fed3"},"vehicle_type_id":"4","last_reported":1735682896,"current_range_meters":27600,"station_id":"ce4bhi12rcd13ifvqfq0","pricing_plan_id":"cebpf4jnsgd1na2vs0mg"},{"bike_id":"cfd9b0aa-0985-41bd-a744-766658df9439","system_id":"levelo_inurba_marseille","lat":43.29825,"lon":5.37627,"is_reserved":false,"is_disabled":true,"rental_uris":{"android":"levelo://app?vid=cfd9b0aa-0985-41bd-a744-766658df9439","ios":"levelo://app?vid=cfd9b0aa-0985-41bd-a744-766658df9439"},"vehicle_type_id":"4","last_reported":1735682896,"current_range_meters":0,"station_id":"ce4bgkh2rcd13ifvqbl0","pricing_plan_id":"cebpf4jnsgd1na2vs0mg"},{"bike_id":"cf21735c-8927-47cc-8516-200874bf866e","system_id":"levelo_inurba_marseille","lat":43.30608,"lon":5.37228,"is_reserved":false,"is_disabled":false,"rental_uris":{"android":"levelo://app?vid=cf21735c-8927-47cc-8516-200874bf866e","ios":"levelo://app?vid=cf21735c-8927-47cc-8516-200874bf866e"},"vehicle_type_id":"4","last_reported":1735682896,"current_range_meters":9200,"station_id":"ce4bgqh2rcd13ifvqc4g","pricing_plan_id":"cebpf4jnsgd1na2vs0mg"},{"bike_id":"b1815487-383e-42be-8a0b-8b8db0c2ceef","system_id":"levelo_inurba_marseille","lat":43.32285,"lon":5.38256,"is_reserved":false,"is_disabled":false,"rental_uris":{"android":"levelo://app?vid=b1815487-383e-42be-8a0b-8b8db0c2ceef","ios":"levelo://app?vid=b1815487-383e-42be-8a0b-8b8db0c2ceef"},"vehicle_type_id":"4","last_reported":1735682896,"current_range_meters":38800,"station_id":"ce4bhr12rcd13ifvqhqg","pricing_plan_id":"cebpf4jnsgd1na2vs0mg"},{"bike_id":"2f71d5d0-4248-4fd8-90b9-7615dc7e3077","system_id":"levelo_inurba_marseille","lat":43.2512,"lon":5.40318,"is_reserved":false,"is_disabled":false,"rental_uris":{"android":"levelo://app?vid=2f71d5d0-4248-4fd8-90b9-7615dc7e3077","ios":"levelo://app?vid=2f71d5d0-4248-4fd8-90b9-7615dc7e3077"},"vehicle_type_id":"4","last_reported":1735682896,"current_range_meters":39200,"station_id":"ce4bhlh2rcd13ifvqgig","pricing_plan_id":"cebpf4jnsgd1na2vs0mg"},{"bike_id":"f46bd378-e30f-485c-b539-9d29fba578aa","system_id":"levelo_inurba_marseille","lat":43.34142,"lon":5.40905,"is_reserved":false,"is_disabled":false,"rental_uris":{"android":"levelo://app?vid=f46bd378-e30f-485c-b539-9d29fba578aa","ios":"levelo://app?vid=f46bd378-e30f-485c-b539-9d29fba578aa"},"vehicle_type_id":"4","last_reported":1735682896,"current_range_meters":38000,"station_id":"ce4bhqh2rcd13ifvqhlg","pricing_plan_id":"cebpf4jnsgd1na2vs0mg"},{"bike_id":"7ec4d381-79e4-4c43-b132-77d2c6adbb98","system_id":"levelo_inurba_marseille","lat":43.30893,"lon":5.3966,"is_reserved":false,"is_disabled":false,"rental_uris":{"android":"levelo://app?vid=7ec4d381-79e4-4c43-b132-77d2c6adbb98","ios":"levelo://app?vid=7ec4d381-79e4-4c43-b132-77d2c6adbb98"},"vehicle_type_id":"4","last_reported":1735682896,"current_range_meters":27600,"station_id":"ce4bh012rcd13ifvqcv0","pricing_plan_id":"cebpf4jnsgd1na2vs0mg"},{"bike_id":"a9ad46d6-1750-405f-8074-9378a5ffcb62","system_id":"levelo_inurba_marseille","lat":43.29555,"lon":5.37506,"is_reserved":false,"is_disabled":false,"rental_uris":{"android":"levelo://app?vid=a9ad46d6-1750-405f-8074-9378a5ffcb62","ios":"levelo://app?vid=a9ad46d6-1750-405f-8074-9378a5ffcb62"},"vehicle_type_id":"4","last_reported":1735682896,"current_range_meters":24000,"station_id":"ce4bgh92rcd13ifvqb50","pricing_plan_id":"cebpf4jnsgd1na2vs0mg"},{"bike_id":"df334d50-4421-42a5-a762-fb7f39807cc1","system_id":"levelo_inurba_marseille","lat":43.337444,"lon":5.374475,"is_reserved":false,"is_disabled":false,"rental_uris":{"android":"levelo://app?vid=df334d50-4421-42a5-a762-fb7f39807cc1","ios":"levelo://app?vid=df334d50-4421-42a5-a762-fb7f39807cc1"},"vehicle_type_id":"4","last_reported":1735682896,"current_range_meters":37600,"station_id":"","pricing_plan_id":"cebpf4jnsgd1na2vs0mg"},{"bike_id":"b1ba8e46-6352-4028-bfeb-07e690b71bc4","system_id":"levelo_inurba_marseille","lat":43.31723,"lon":5.40434,"is_reserved":false,"is_disabled":false,"rental_uris":{"android":"levelo://app?vid=b1ba8e46-6352-4028-bfeb-07e690b71bc4","ios":"levelo://app?vid=b1ba8e46-6352-4028-bfeb-07e690b71bc4"},"vehicle_type_id":"4","last_reported":1735682896,"current_range_meters":38800,"station_id":"ce4bh012rcd13ifvqd00","pricing_plan_id":"cebpf4jnsgd1na2vs0mg"},{"bike_id":"35d7b981-f2f8-4e1f-bf58-6f3547d4e1f6","system_id":"levelo_inurba_marseille","lat":43.30293,"lon":5.36903,"is_reserved":false,"is_disabled":true,"rental_uris":{"android":"levelo://app?vid=35d7b981-f2f8-4e1f-bf58-6f3547d4e1f6","ios":"levelo://app?vid=35d7b981-f2f8-4e1f-bf58-6f3547d4e1f6"},"vehicle_type_id":"4","last_reported":1735682896,"current_range_meters":26000,"station_id":"ce4bgqh2rcd13ifvqc5g","pricing_plan_id":"cebpf4jnsgd1na2vs0mg"},{"bike_id":"3e2ae0bf-9cf9-4b47-bb7d-e8a9278da38e","system_id":"levelo_inurba_marseille","lat":43.309265,"lon":5.401449,"is_reserved":false,"is_disabled":false,"rental_uris":{"android":"levelo://app?vid=3e2ae0bf-9cf9-4b47-bb7d-e8a9278da38e","ios":"levelo://app?vid=3e2ae0bf-9cf9-4b47-bb7d-e8a9278da38e"},"vehicle_type_id":"4","last_reported":1735682896,"current_range_meters":33600,"station_id":"ce4bgvp2rcd13ifvqct0","pricing_plan_id":"cebpf4jnsgd1na2vs0mg"},{"bike_id":"847e09aa-0198-46d1-b907-778eecf50dd1","system_id":"levelo_inurba_marseille","lat":43.31237,"lon":5.36899,"is_reserved":false,"is_disabled":true,"rental_uris":{"android":"levelo://app?vid=847e09aa-0198-46d1-b907-778eecf50dd1","ios":"levelo://app?vid=847e09aa-0198-46d1-b907-778eecf50dd1"},"vehicle_type_id":"4","last_reported":1735682896,"current_range_meters":38800,"station_id":"ce4bgl92rcd13ifvqbq0","pricing_plan_id":"cebpf4jnsgd1na2vs0mg"},{"bike_id":"6cfa92c0-c852-4980-b064-0a7f97f4fcba","system_id":"levelo_inurba_marseille","lat":43.29538,"lon":5.39022,"is_reserved":false,"is_disabled":false,"rental_uris":{"android":"levelo://app?vid=6cfa92c0-c852-4980-b064-0a7f97f4fcba","ios":"levelo://app?vid=6cfa92c0-c852-4980-b064-0a7f97f4fcba"},"vehicle_type_id":"4","last_reported":1735682896,"current_range_meters":38000,"station_id":"ce4bh3p2rcd13ifvqdp0","pricing_plan_id":"cebpf4jnsgd1na2vs0mg"},{"bike_id":"5367a292-5564-4681-91cd-97babb89fc00","system_id":"levelo_inurba_marseille","lat":43.2293,"lon":5.35371,"is_reserved":false,"is_disabled":false,"rental_uris":{"android":"levelo://app?vid=5367a292-5564-4681-91cd-97babb89fc00","ios":"levelo://app?vid=5367a292-5564-4681-91cd-97babb89fc00"},"vehicle_type_id":"4","last_reported":1735682896,"current_range_meters":26000,"station_id":"cpo3532slgdg3j2ikp40","pricing_plan_id":"cebpf4jnsgd1na2vs0mg"},{"bike_id":"1d5543c4-1c87-4447-ad2e-0cc64903ea75","system_id":"levelo_inurba_marseille","lat":43.25871,"lon":5.39886,"is_reserved":false,"is_disabled":false,"rental_uris":{"android":"levelo://app?vid=1d5543c4-1c87-4447-ad2e-0cc64903ea75","ios":"levelo://app?vid=1d5543c4-1c87-4447-ad2e-0cc64903ea75"},"vehicle_type_id":"4","last_reported":1735682896,"current_range_meters":30800,"station_id":"ce4bhl92rcd13ifvqghg","pricing_plan_id":"cebpf4jnsgd1na2vs0mg"},{"bike_id":"0483d5a5-12c2-4b90-8e6c-47d6d5a4b82c","system_id":"levelo_inurba_marseille","lat":43.25828,"lon":5.39426,"is_reserved":false,"is_disabled":false,"rental_uris":{"android":"levelo://app?vid=0483d5a5-12c2-4b90-8e6c-47d6d5a4b82c","ios":"levelo://app?vid=0483d5a5-12c2-4b90-8e6c-47d6d5a4b82c"},"vehicle_type_id":"4","last_reported":1735682896,"current_range_meters":38800,"station_id":"ce4bhip2rcd13ifvqft0","pricing_plan_id":"cebpf4jnsgd1na2vs0mg"},{"bike_id":"523f53b8-d5fa-4c60-a25e-8902b398e89d","system_id":"levelo_inurba_marseille","lat":43.29548,"lon":5.42272,"is_reserved":false,"is_disabled":false,"rental_uris":{"android":"levelo://app?vid=523f53b8-d5fa-4c60-a25e-8902b398e89d","ios":"levelo://app?vid=523f53b8-d5fa-4c60-a25e-8902b398e89d"},"vehicle_type_id":"4","last_reported":1735682896,"current_range_meters":38800,"station_id":"ce4bhph2rcd13ifvqhdg","pricing_plan_id":"cebpf4jnsgd1na2vs0mg"},{"bike_id":"f5a4411d-e29b-4f7b-9611-d57e3ba1281b","system_id":"levelo_inurba_marseille","lat":43.30557,"lon":5.36548,"is_reserved":false,"is_disabled":false,"rental_uris":{"android":"levelo://app?vid=f5a4411d-e29b-4f7b-9611-d57e3ba1281b","ios":"levelo://app?vid=f5a4411d-e29b-4f7b-9611-d57e3ba1281b"},"vehicle_type_id":"4","last_reported":1735682896,"current_range_meters":27200,"station_id":"ce4bgs12rcd13ifvqcag","pricing_plan_id":"cebpf4jnsgd1na2vs0mg"},{"bike_id":"90ea32f2-8b16-412b-9028-e97b2dd7bfd3","system_id":"levelo_inurba_marseille","lat":43.31694,"lon":5.40444,"is_reserved":false,"is_disabled":false,"rental_uris":{"android":"levelo://app?vid=90ea32f2-8b16-412b-9028-e97b2dd7bfd3","ios":"levelo://app?vid=90ea32f2-8b16-412b-9028-e97b2dd7bfd3"},"vehicle_type_id":"4","last_reported":1735682896,"current_range_meters":38800,"station_id":"ce4bh012rcd13ifvqd00","pricing_plan_id":"cebpf4jnsgd1na2vs0mg"},{"bike_id":"f173fc50-580e-45ab-8a49-28acbcd5b46a","system_id":"levelo_inurba_marseille","lat":43.28614,"lon":5.3706,"is_reserved":false,"is_disabled":false,"rental_uris":{"android":"levelo://app?vid=f173fc50-580e-45ab-8a49-28acbcd5b46a","ios":"levelo://app?vid=f173fc50-580e-45ab-8a49-28acbcd5b46a"},"vehicle_type_id":"4","last_reported":1735682896,"current_range_meters":10800,"station_id":"ce4bht12rcd13ifvqi60","pricing_plan_id":"cebpf4jnsgd1na2vs0mg"},{"bike_id":"2510b6a6-e1f5-4b0d-8b81-62dab8730a91","system_id":"levelo_inurba_marseille","lat":43.2871,"lon":5.3794,"is_reserved":false,"is_disabled":false,"rental_uris":{"android":"levelo://app?vid=2510b6a6-e1f5-4b0d-8b81-62dab8730a91","ios":"levelo://app?vid=2510b6a6-e1f5-4b0d-8b81-62dab8730a91"},"vehicle_type_id":"4","last_reported":1735682896,"current_range_meters":30400,"station_id":"ce4bh9p2rcd13ifvqec0","pricing_plan_id":"cebpf4jnsgd1na2vs0mg"},{"bike_id":"6164fd70-bd1e-4bfa-b09a-6196d7e0229b","system_id":"levelo_inurba_marseille","lat":43.24391,"lon":5.37056,"is_reserved":false,"is_disabled":false,"rental_uris":{"android":"levelo://app?vid=6164fd70-bd1e-4bfa-b09a-6196d7e0229b","ios":"levelo://app?vid=6164fd70-bd1e-4bfa-b09a-6196d7e0229b"},"vehicle_type_id":"4","last_reported":1735682896,"current_range_meters":38800,"station_id":"ce4bhhh2rcd13ifvqfk0","pricing_plan_id":"cebpf4jnsgd1na2vs0mg"},{"bike_id":"de79872f-8d1a-472c-a6f5-48f83de13cc5","system_id":"levelo_inurba_marseille","lat":43.296382,"lon":5.371634,"is_reserved":false,"is_disabled":false,"rental_uris":{"android":"levelo://app?vid=de79872f-8d1a-472c-a6f5-48f83de13cc5","ios":"levelo://app?vid=de79872f-8d1a-472c-a6f5-48f83de13cc5"},"vehicle_type_id":"4","last_reported":1735682896,"current_range_meters":38800,"station_id":"ce4bgnh2rcd13ifvqc0g","pricing_plan_id":"cebpf4jnsgd1na2vs0mg"},{"bike_id":"471ec0a6-9752-490d-980e-97a116a46ae5","system_id":"levelo_inurba_marseille","lat":43.28441,"lon":5.39203,"is_reserved":false,"is_disabled":false,"rental_uris":{"android":"levelo://app?vid=471ec0a6-9752-490d-980e-97a116a46ae5","ios":"levelo://app?vid=471ec0a6-9752-490d-980e-97a116a46ae5"},"vehicle_type_id":"4","last_reported":1735682896,"current_range_meters":22400,"station_id":"ce4bhoh2rcd13ifvqh5g","pricing_plan_id":"cebpf4jnsgd1na2vs0mg"},{"bike_id":"f2415c22-2773-470e-860e-7ecf74630163","system_id":"levelo_inurba_marseille","lat":43.26489,"lon":5.39537,"is_reserved":false,"is_disabled":false,"rental_uris":{"android":"levelo://app?vid=f2415c22-2773-470e-860e-7ecf74630163","ios":"levelo://app?vid=f2415c22-2773-470e-860e-7ecf74630163"},"vehicle_type_id":"4","last_reported":1735682896,"current_range_meters":38800,"station_id":"ce4bhi12rcd13ifvqfq0","pricing_plan_id":"cebpf4jnsgd1na2vs0mg"},{"bike_id":"ca497fc6-cd22-4171-8d71-508c45bf12cf","system_id":"levelo_inurba_marseille","lat":43.29641,"lon":5.37146,"is_reserved":false,"is_disabled":false,"rental_uris":{"android":"levelo://app?vid=ca497fc6-cd22-4171-8d71-508c45bf12cf","ios":"levelo://app?vid=ca497fc6-cd22-4171-8d71-508c45bf12cf"},"vehicle_type_id":"4","last_reported":1735682896,"current_range_meters":38400,"station_id":"ce4bgnh2rcd13ifvqc0g","pricing_plan_id":"cebpf4jnsgd1na2vs0mg"},{"bike_id":"fdcb93a4-8a39-475e-8a0d-caf375d10c96","system_id":"levelo_inurba_marseille","lat":43.29578,"lon":5.37502,"is_reserved":false,"is_disabled":false,"rental_uris":{"android":"levelo://app?vid=fdcb93a4-8a39-475e-8a0d-caf375d10c96","ios":"levelo://app?vid=fdcb93a4-8a39-475e-8a0d-caf375d10c96"},"vehicle_type_id":"4","last_reported":1735682896,"current_range_meters":35600,"station_id":"ce4bgh92rcd13ifvqb50","pricing_plan_id":"cebpf4jnsgd1na2vs0mg"},{"bike_id":"21cba4ef-9636-4b81-a418-95db6be87b7d","system_id":"levelo_inurba_marseille","lat":43.31115,"lon":5.37772,"is_reserved":false,"is_disabled":false,"rental_uris":{"android":"levelo://app?vid=21cba4ef-9636-4b81-a418-95db6be87b7d","ios":"levelo://app?vid=21cba4ef-9636-4b81-a418-95db6be87b7d"},"vehicle_type_id":"4","last_reported":1735682896,"current_range_meters":36400,"station_id":"ce4bgt92rcd13ifvqcg0","pricing_plan_id":"cebpf4jnsgd1na2vs0mg"},{"bike_id":"bbfc5010-5ad1-478a-9bf0-def17e142c1c","system_id":"levelo_inurba_marseille","lat":43.2803,"lon":5.36933,"is_reserved":false,"is_disabled":true,"rental_uris":{"android":"levelo://app?vid=bbfc5010-5ad1-478a-9bf0-def17e142c1c","ios":"levelo://app?vid=bbfc5010-5ad1-478a-9bf0-def17e142c1c"},"vehicle_type_id":"4","last_reported":1735682896,"current_range_meters":4800,"station_id":"ce4bha12rcd13ifvqef0","pricing_plan_id":"cebpf4jnsgd1na2vs0mg"},{"bike_id":"13721bbf-3ddc-4259-bb7d-b908810a2812","system_id":"levelo_inurba_marseille","lat":43.29813,"lon":5.38089,"is_reserved":false,"is_disabled":false,"rental_uris":{"android":"levelo://app?vid=13721bbf-3ddc-4259-bb7d-b908810a2812","ios":"levelo://app?vid=13721bbf-3ddc-4259-bb7d-b908810a2812"},"vehicle_type_id":"4","last_reported":1735682896,"current_range_meters":18800,"station_id":"ce4bgip2rcd13ifvqbb0","pricing_plan_id":"cebpf4jnsgd1na2vs0mg"},{"bike_id":"dac94ecf-3203-4c89-acc0-21c14e979588","system_id":"levelo_inurba_marseille","lat":43.266894,"lon":5.382686,"is_reserved":false,"is_disabled":false,"rental_uris":{"android":"levelo://app?vid=dac94ecf-3203-4c89-acc0-21c14e979588","ios":"levelo://app?vid=dac94ecf-3203-4c89-acc0-21c14e979588"},"vehicle_type_id":"4","last_reported":1735682896,"current_range_meters":14000,"station_id":"ce4bhg92rcd13ifvqf90","pricing_plan_id":"cebpf4jnsgd1na2vs0mg"},{"bike_id":"560a082e-860d-453b-bdd6-7a868105718c","system_id":"levelo_inurba_marseille","lat":43.26812,"lon":5.40263,"is_reserved":false,"is_disabled":false,"rental_uris":{"android":"levelo://app?vid=560a082e-860d-453b-bdd6-7a868105718c","ios":"levelo://app?vid=560a082e-860d-453b-bdd6-7a868105718c"},"vehicle_type_id":"4","last_reported":1735682896,"current_range_meters":38000,"station_id":"ce501612rcd8frsf0b60","pricing_plan_id":"cebpf4jnsgd1na2vs0mg"},{"bike_id":"2850d6ac-e429-4560-b7a9-620e98de0f16","system_id":"levelo_inurba_marseille","lat":43.29967,"lon":5.38492,"is_reserved":false,"is_disabled":false,"rental_uris":{"android":"levelo://app?vid=2850d6ac-e429-4560-b7a9-620e98de0f16","ios":"levelo://app?vid=2850d6ac-e429-4560-b7a9-620e98de0f16"},"vehicle_type_id":"4","last_reported":1735682896,"current_range_meters":25600,"station_id":"ce4bgj92rcd13ifvqbd0","pricing_plan_id":"cebpf4jnsgd1na2vs0mg"},{"bike_id":"9c42c59a-a990-48ee-91ac-32ebebcaabf5","system_id":"levelo_inurba_marseille","lat":43.27571,"lon":5.38404,"is_reserved":false,"is_disabled":false,"rental_uris":{"android":"levelo://app?vid=9c42c59a-a990-48ee-91ac-32ebebcaabf5","ios":"levelo://app?vid=9c42c59a-a990-48ee-91ac-32ebebcaabf5"},"vehicle_type_id":"4","last_reported":1735682896,"current_range_meters":38800,"station_id":"ce4bhh92rcd13ifvqfi0","pricing_plan_id":"cebpf4jnsgd1na2vs0mg"},{"bike_id":"1183fb3d-73ae-4779-a76c-d9eac4c3cf71","system_id":"levelo_inurba_marseille","lat":43.28483,"lon":5.38417,"is_reserved":false,"is_disabled":false,"rental_uris":{"android":"levelo://app?vid=1183fb3d-73ae-4779-a76c-d9eac4c3cf71","ios":"levelo://app?vid=1183fb3d-73ae-4779-a76c-d9eac4c3cf71"},"vehicle_type_id":"4","last_reported":1735682896,"current_range_meters":27600,"station_id":"ce4bh512rcd13ifvqe3g","pricing_plan_id":"cebpf4jnsgd1na2vs0mg"},{"bike_id":"1793c5bc-f3cc-4c5b-bc53-bbaf531c71e9","system_id":"levelo_inurba_marseille","lat":43.30419,"lon":5.41287,"is_reserved":false,"is_disabled":false,"rental_uris":{"android":"levelo://app?vid=1793c5bc-f3cc-4c5b-bc53-bbaf531c71e9","ios":"levelo://app?vid=1793c5bc-f3cc-4c5b-bc53-bbaf531c71e9"},"vehicle_type_id":"4","last_reported":1735682896,"current_range_meters":33200,"station_id":"ce4bhop2rcd13ifvqh8g","pricing_plan_id":"cebpf4jnsgd1na2vs0mg"},{"bike_id":"257952b9-e033-4f44-8c86-0cbcf5c46b77","system_id":"levelo_inurba_marseille","lat":43.31118,"lon":5.3777,"is_reserved":false,"is_disabled":false,"rental_uris":{"android":"levelo://app?vid=257952b9-e033-4f44-8c86-0cbcf5c46b77","ios":"levelo://app?vid=257952b9-e033-4f44-8c86-0cbcf5c46b77"},"vehicle_type_id":"4","last_reported":1735682896,"current_range_meters":36000,"station_id":"ce4bgt92rcd13ifvqcg0","pricing_plan_id":"cebpf4jnsgd1na2vs0mg"},{"bike_id":"b08b44c9-4f43-459d-a0dd-d0fc0b2388a9","system_id":"levelo_inurba_marseille","lat":43.29605,"lon":5.37712,"is_reserved":false,"is_disabled":false,"rental_uris":{"android":"levelo://app?vid=b08b44c9-4f43-459d-a0dd-d0fc0b2388a9","ios":"levelo://app?vid=b08b44c9-4f43-459d-a0dd-d0fc0b2388a9"},"vehicle_type_id":"4","last_reported":1735682896,"current_range_meters":37600,"station_id":"ce4bgi92rcd13ifvqb90","pricing_plan_id":"cebpf4jnsgd1na2vs0mg"},{"bike_id":"83ada948-f3aa-441d-b98f-18e99d069c7f","system_id":"levelo_inurba_marseille","lat":43.28662,"lon":5.36354,"is_reserved":false,"is_disabled":true,"rental_uris":{"android":"levelo://app?vid=83ada948-f3aa-441d-b98f-18e99d069c7f","ios":"levelo://app?vid=83ada948-f3aa-441d-b98f-18e99d069c7f"},"vehicle_type_id":"4","last_reported":1735682896,"current_range_meters":0,"station_id":"ce4bhah2rcd13ifvqej0","pricing_plan_id":"cebpf4jnsgd1na2vs0mg"},{"bike_id":"5766a92a-fad0-4ceb-b35f-98059c3b3f2a","system_id":"levelo_inurba_marseille","lat":43.28614,"lon":5.35109,"is_reserved":false,"is_disabled":false,"rental_uris":{"android":"levelo://app?vid=5766a92a-fad0-4ceb-b35f-98059c3b3f2a","ios":"levelo://app?vid=5766a92a-fad0-4ceb-b35f-98059c3b3f2a"},"vehicle_type_id":"4","last_reported":1735682896,"current_range_meters":32400,"station_id":"ce4bhch2rcd13ifvqeug","pricing_plan_id":"cebpf4jnsgd1na2vs0mg"},{"bike_id":"702f7c30-0c73-4fba-ae60-6ca693302383","system_id":"levelo_inurba_marseille","lat":43.30119,"lon":5.38766,"is_reserved":false,"is_disabled":false,"rental_uris":{"android":"levelo://app?vid=702f7c30-0c73-4fba-ae60-6ca693302383","ios":"levelo://app?vid=702f7c30-0c73-4fba-ae60-6ca693302383"},"vehicle_type_id":"4","last_reported":1735682896,"current_range_meters":38800,"station_id":"ce4bghh2rcd13ifvqb60","pricing_plan_id":"cebpf4jnsgd1na2vs0mg"},{"bike_id":"ab3ab58e-c369-4e79-a68c-8f0ded6372bd","system_id":"levelo_inurba_marseille","lat":43.29802,"lon":5.38074,"is_reserved":false,"is_disabled":false,"rental_uris":{"android":"levelo://app?vid=ab3ab58e-c369-4e79-a68c-8f0ded6372bd","ios":"levelo://app?vid=ab3ab58e-c369-4e79-a68c-8f0ded6372bd"},"vehicle_type_id":"4","last_reported":1735682896,"current_range_meters":38800,"station_id":"ce4bgip2rcd13ifvqbb0","pricing_plan_id":"cebpf4jnsgd1na2vs0mg"},{"bike_id":"6f56bd8e-9ca4-482a-8eab-7e00282cd7e1","system_id":"levelo_inurba_marseille","lat":43.28686,"lon":5.36339,"is_reserved":false,"is_disabled":false,"rental_uris":{"android":"levelo://app?vid=6f56bd8e-9ca4-482a-8eab-7e00282cd7e1","ios":"levelo://app?vid=6f56bd8e-9ca4-482a-8eab-7e00282cd7e1"},"vehicle_type_id":"4","last_reported":1735682896,"current_range_meters":35200,"station_id":"ce4bhah2rcd13ifvqej0","pricing_plan_id":"cebpf4jnsgd1na2vs0mg"},{"bike_id":"0d02c513-ca2e-4e40-9108-e87868ca0473","system_id":"levelo_inurba_marseille","lat":43.28171,"lon":5.42623,"is_reserved":false,"is_disabled":false,"rental_uris":{"android":"levelo://app?vid=0d02c513-ca2e-4e40-9108-e87868ca0473","ios":"levelo://app?vid=0d02c513-ca2e-4e40-9108-e87868ca0473"},"vehicle_type_id":"4","last_reported":1735682896,"current_range_meters":26800,"station_id":"ce4bhnh2rcd13ifvqgug","pricing_plan_id":"cebpf4jnsgd1na2vs0mg"},{"bike_id":"c14d1989-a72f-4241-a582-39661d0bcfcf","system_id":"levelo_inurba_marseille","lat":43.23189,"lon":5.3554,"is_reserved":false,"is_disabled":false,"rental_uris":{"android":"levelo://app?vid=c14d1989-a72f-4241-a582-39661d0bcfcf","ios":"levelo://app?vid=c14d1989-a72f-4241-a582-39661d0bcfcf"},"vehicle_type_id":"4","last_reported":1735682896,"current_range_meters":39200,"station_id":"ce4bhu92rcd13ifvqi70","pricing_plan_id":"cebpf4jnsgd1na2vs0mg"},{"bike_id":"4ad8fb0c-9d51-474b-b663-201965528dce","system_id":"levelo_inurba_marseille","lat":43.27056,"lon":5.40264,"is_reserved":false,"is_disabled":false,"rental_uris":{"android":"levelo://app?vid=4ad8fb0c-9d51-474b-b663-201965528dce","ios":"levelo://app?vid=4ad8fb0c-9d51-474b-b663-201965528dce"},"vehicle_type_id":"4","last_reported":1735682896,"current_range_meters":37600,"station_id":"ce4bhk92rcd13ifvqgc0","pricing_plan_id":"cebpf4jnsgd1na2vs0mg"},{"bike_id":"a74c2d12-b57a-4ffa-b46f-df1bdb7d8918","system_id":"levelo_inurba_marseille","lat":43.23063,"lon":5.35466,"is_reserved":false,"is_disabled":false,"rental_uris":{"android":"levelo://app?vid=a74c2d12-b57a-4ffa-b46f-df1bdb7d8918","ios":"levelo://app?vid=a74c2d12-b57a-4ffa-b46f-df1bdb7d8918"},"vehicle_type_id":"4","last_reported":1735682896,"current_range_meters":38800,"station_id":"cpo3342slgdg3j2ifvpg","pricing_plan_id":"cebpf4jnsgd1na2vs0mg"},{"bike_id":"3d5f108f-e7fa-4ab0-b3df-275ed439881b","system_id":"levelo_inurba_marseille","lat":43.28704,"lon":5.37395,"is_reserved":false,"is_disabled":false,"rental_uris":{"android":"levelo://app?vid=3d5f108f-e7fa-4ab0-b3df-275ed439881b","ios":"levelo://app?vid=3d5f108f-e7fa-4ab0-b3df-275ed439881b"},"vehicle_type_id":"4","last_reported":1735682896,"current_range_meters":38000,"station_id":"ce4bh3p2rcd13ifvqdq0","pricing_plan_id":"cebpf4jnsgd1na2vs0mg"},{"bike_id":"9463ff43-a631-477e-ab2d-84410578ea71","system_id":"levelo_inurba_marseille","lat":43.30259,"lon":5.40076,"is_reserved":false,"is_disabled":false,"rental_uris":{"android":"levelo://app?vid=9463ff43-a631-477e-ab2d-84410578ea71","ios":"levelo://app?vid=9463ff43-a631-477e-ab2d-84410578ea71"},"vehicle_type_id":"4","last_reported":1735682896,"current_range_meters":33600,"station_id":"ce4bgvh2rcd13ifvqcs0","pricing_plan_id":"cebpf4jnsgd1na2vs0mg"},{"bike_id":"f9521462-9d35-46c3-be2f-32a3a64ecf6e","system_id":"levelo_inurba_marseille","lat":43.27811,"lon":5.40703,"is_reserved":false,"is_disabled":false,"rental_uris":{"android":"levelo://app?vid=f9521462-9d35-46c3-be2f-32a3a64ecf6e","ios":"levelo://app?vid=f9521462-9d35-46c3-be2f-32a3a64ecf6e"},"vehicle_type_id":"4","last_reported":1735682896,"current_range_meters":38000,"station_id":"ce4bhnh2rcd13ifvqgtg","pricing_plan_id":"cebpf4jnsgd1na2vs0mg"},{"bike_id":"bdaf399c-473f-4984-838e-8c800e657358","system_id":"levelo_inurba_marseille","lat":43.2548,"lon":5.37643,"is_reserved":false,"is_disabled":false,"rental_uris":{"android":"levelo://app?vid=bdaf399c-473f-4984-838e-8c800e657358","ios":"levelo://app?vid=bdaf399c-473f-4984-838e-8c800e657358"},"vehicle_type_id":"4","last_reported":1735682896,"current_range_meters":38800,"station_id":"ce4bhh12rcd13ifvqff0","pricing_plan_id":"cebpf4jnsgd1na2vs0mg"},{"bike_id":"7bfaf158-fdac-461d-bd8d-42ef587d35a7","system_id":"levelo_inurba_marseille","lat":43.29293,"lon":5.36837,"is_reserved":false,"is_disabled":false,"rental_uris":{"android":"levelo://app?vid=7bfaf158-fdac-461d-bd8d-42ef587d35a7","ios":"levelo://app?vid=7bfaf158-fdac-461d-bd8d-42ef587d35a7"},"vehicle_type_id":"4","last_reported":1735682896,"current_range_meters":25200,"station_id":"ce4bhbp2rcd13ifvqesg","pricing_plan_id":"cebpf4jnsgd1na2vs0mg"},{"bike_id":"d779af92-66ba-419d-a108-983bb009b284","system_id":"levelo_inurba_marseille","lat":43.29017,"lon":5.3815,"is_reserved":false,"is_disabled":false,"rental_uris":{"android":"levelo://app?vid=d779af92-66ba-419d-a108-983bb009b284","ios":"levelo://app?vid=d779af92-66ba-419d-a108-983bb009b284"},"vehicle_type_id":"4","last_reported":1735682896,"current_range_meters":39200,"station_id":"ce4bh4p2rcd13ifvqe1g","pricing_plan_id":"cebpf4jnsgd1na2vs0mg"},{"bike_id":"a2c981a9-118a-4e0c-9c91-df48407f1dcd","system_id":"levelo_inurba_marseille","lat":43.23061,"lon":5.35491,"is_reserved":false,"is_disabled":false,"rental_uris":{"android":"levelo://app?vid=a2c981a9-118a-4e0c-9c91-df48407f1dcd","ios":"levelo://app?vid=a2c981a9-118a-4e0c-9c91-df48407f1dcd"},"vehicle_type_id":"4","last_reported":1735682896,"current_range_meters":35600,"station_id":"cpo3342slgdg3j2ifvpg","pricing_plan_id":"cebpf4jnsgd1na2vs0mg"},{"bike_id":"d2c21f6d-7ea6-424f-87ba-0f43432b99dc","system_id":"levelo_inurba_marseille","lat":43.28107,"lon":5.37822,"is_reserved":false,"is_disabled":false,"rental_uris":{"android":"levelo://app?vid=d2c21f6d-7ea6-424f-87ba-0f43432b99dc","ios":"levelo://app?vid=d2c21f6d-7ea6-424f-87ba-0f43432b99dc"},"vehicle_type_id":"4","last_reported":1735682896,"current_range_meters":37600,"station_id":"ce4bha12rcd13ifvqee0","pricing_plan_id":"cebpf4jnsgd1na2vs0mg"},{"bike_id":"e36d627c-f176-4540-a182-225eba68d0d4","system_id":"levelo_inurba_marseille","lat":43.24664,"lon":5.38154,"is_reserved":false,"is_disabled":false,"rental_uris":{"android":"levelo://app?vid=e36d627c-f176-4540-a182-225eba68d0d4","ios":"levelo://app?vid=e36d627c-f176-4540-a182-225eba68d0d4"},"vehicle_type_id":"4","last_reported":1735682896,"current_range_meters":35600,"station_id":"ce4bhih2rcd13ifvqfr0","pricing_plan_id":"cebpf4jnsgd1na2vs0mg"},