{"last_updated":1729627793,"ttl":60,"version":"2.2","data":{"bikes":[{"bike_id":"ea7d3ab6-ee1e-4076-8da7-882f636f6010","system_id":"levelo_inurba_marseille","lat":43.283554,"lon":5.386404,"is_reserved":false,"is_disabled":false,"rental_uris":{"android":"levelo://app?vid=ea7d3ab6-ee1e-4076-8da7-882f636f6010","ios":"levelo://app?vid=ea7d3ab6-ee1e-4076-8da7-882f636f6010"},"vehicle_type_id":"4","last_reported":1729627793,"current_range_meters":36800,"station_id":"ce4bh492rcd13ifvqdvg","pricing_plan_id":"cebpf4jnsgd1na2vs0mg"},{"bike_id":"db71f135-0e69-414b-9c08-e735e2ff517c","system_id":"levelo_inurba_marseille","lat":43.30796,"lon":5.38143,"is_reserved":false,"is_disabled":false,"rental_uris":{"android":"levelo://app?vid=db71f135-0e69-414b-9c08-e735e2ff517c","ios":"levelo://app?vid=db71f135-0e69-414b-9c08-e735e2ff517c"},"vehicle_type_id":"4","last_reported":1729627793,"current_range_meters":37600,"station_id":"ce4bgt12rcd13ifvqce0","pricing_plan_id":"cebpf4jnsgd1na2vs0mg"},{"bike_id":"f94fab34-b972-4784-b079-71558966e9cc","system_id":"levelo_inurba_marseille","lat":43.29903,"lon":5.43665,"is_reserved":false,"is_disabled":false,"rental_uris":{"android":"levelo://app?vid=f94fab34-b972-4784-b079-71558966e9cc","ios":"levelo://app?vid=f94fab34-b972-4784-b079-71558966e9cc"},"vehicle_type_id":"4","last_reported":1729627793,"current_range_meters":23200,"station_id":"ce4bhpp2rcd13ifvqhfg","pricing_plan_id":"cebpf4jnsgd1na2vs0mg"},{"bike_id":"50f1ec05-4d59-4332-8aca-ecfd573a5bf5","system_id":"levelo_inurba_marseille","lat":43.27064,"lon":5.42282,"is_reserved":false,"is_disabled":false,"rental_uris":{"android":"levelo://app?vid=50f1ec05-4d59-4332-8aca-ecfd573a5bf5","ios":"levelo://app?vid=50f1ec05-4d59-4332-8aca-ecfd573a5bf5"},"vehicle_type_id":"4","last_reported":1729627793,"current_range_meters":34000,"station_id":"ce4bhk92rcd13ifvqgb0","pricing_plan_id":"cebpf4jnsgd1na2vs0mg"},{"bike_id":"81a326bb-24a3-4e32-a2e5-c32c0fe4d158","system_id":"levelo_inurba_marseille","lat":43.28042,"lon":5.369485,"is_reserved":false,"is_disabled":false,"rental_uris":{"android":"levelo://app?vid=81a326bb-24a3-4e32-a2e5-c32c0fe4d158","ios":"levelo://app?vid=81a326bb-24a3-4e32-a2e5-c32c0fe4d158"},"vehicle_type_id":"4","last_reported":1729627793,"current_range_meters":14400,"station_id":"ce4bha12rcd13ifvqef0","pricing_plan_id":"cebpf4jnsgd1na2vs0mg"},{"bike_id":"77da8ace-6691-4597-9ebe-a82201535f7c","system_id":"levelo_inurba_marseille","lat":43.29882,"lon":5.38906,"is_reserved":false,"is_disabled":false,"rental_uris":{"android":"levelo://app?vid=77da8ace-6691-4597-9ebe-a82201535f7c","ios":"levelo://app?vid=77da8ace-6691-4597-9ebe-a82201535f7c"},"vehicle_type_id":"4","last_reported":1729627793,"current_range_meters":38800,"station_id":"ce4bh392rcd13ifvqdl0","pricing_plan_id":"cebpf4jnsgd1na2vs0mg"},{"bike_id":"b149ce4e-51e1-44d1-a677-e09dc3311ba7","system_id":"levelo_inurba_marseille","lat":43.24394,"lon":5.37058,"is_reserved":false,"is_disabled":false,"rental_uris":{"android":"levelo://app?vid=b149ce4e-51e1-44d1-a677-e09dc3311ba7","ios":"levelo://app?vid=b149ce4e-51e1-44d1-a677-e09dc3311ba7"},"vehicle_type_id":"4","last_reported":1729627793,"current_range_meters":38800,"station_id":"ce4bhhh2rcd13ifvqfk0","pricing_plan_id":"cebpf4jnsgd1na2vs0mg"},{"bike_id":"46040f20-9024-481f-b8da-9231b8b6693d","system_id":"levelo_inurba_marseille","lat":43.29527,"lon":5.38545,"is_reserved":false,"is_disabled":false,"rental_uris":{"android":"levelo://app?vid=46040f20-9024-481f-b8da-9231b8b6693d","ios":"levelo://app?vid=46040f20-9024-481f-b8da-9231b8b6693d"},"vehicle_type_id":"4","last_reported":1729627793,"current_range_meters":20000,"station_id":"ce4bgih2rcd13ifvqba0","pricing_plan_id":"cebpf4jnsgd1na2vs0mg"},{"bike_id":"29e33d02-f85a-4d17-be65-24241968e69c","system_id":"levelo_inurba_marseille","lat":43.23962,"lon":5.36629,"is_reserved":false,"is_disabled":false,"rental_uris":{"android":"levelo://app?vid=29e33d02-f85a-4d17-be65-24241968e69c","ios":"levelo://app?vid=29e33d02-f85a-4d17-be65-24241968e69c"},"vehicle_type_id":"4","last_reported":1729627793,"current_range_meters":38800,"station_id":"ce4bhi12rcd13ifvqfp0","pricing_plan_id":"cebpf4jnsgd1na2vs0mg"},{"bike_id":"f959c94a-3644-4ed9-b7ed-65e914e837b3","system_id":"levelo_inurba_marseille","lat":43.31334,"lon":5.39698,"is_reserved":false,"is_disabled":false,"rental_uris":{"android":"levelo://app?vid=f959c94a-3644-4ed9-b7ed-65e914e837b3","ios":"levelo://app?vid=f959c94a-3644-4ed9-b7ed-65e914e837b3"},"vehicle_type_id":"4","last_reported":1729627793,"current_range_meters":30000,"station_id":"ce4bgvp2rcd13ifvqcu0","pricing_plan_id":"cebpf4jnsgd1na2vs0mg"},{"bike_id":"56aa516b-8da4-4562-99ec-7951ed951ffd","system_id":"levelo_inurba_marseille","lat":43.28935,"lon":5.38389,"is_reserved":false,"is_disabled":false,"rental_uris":{"android":"levelo://app?vid=56aa516b-8da4-4562-99ec-7951ed951ffd","ios":"levelo://app?vid=56aa516b-8da4-4562-99ec-7951ed951ffd"},"vehicle_type_id":"4","last_reported":1729627793,"current_range_meters":33200,"station_id":"ce4bh612rcd13ifvqe6g","pricing_plan_id":"cebpf4jnsgd1na2vs0mg"},{"bike_id":"b03294c8-9cb7-4473-a06d-d3d5618a8319","system_id":"levelo_inurba_marseille","lat":43.28072,"lon":5.3964,"is_reserved":false,"is_disabled":false,"rental_uris":{"android":"levelo://app?vid=b03294c8-9cb7-4473-a06d-d3d5618a8319","ios":"levelo://app?vid=b03294c8-9cb7-4473-a06d-d3d5618a8319"},"vehicle_type_id":"4","last_reported":1729627793,"current_range_meters":20000,"station_id":"ce4bho12rcd13ifvqh2g","pricing_plan_id":"cebpf4jnsgd1na2vs0mg"},{"bike_id":"90791a18-5b00-471a-bfa6-550c49e864eb","system_id":"levelo_inurba_marseille","lat":43.29583,"lon":5.37498,"is_reserved":false,"is_disabled":false,"rental_uris":{"android":"levelo://app?vid=90791a18-5b00-471a-bfa6-550c49e864eb","ios":"levelo://app?vid=90791a18-5b00-471a-bfa6-550c49e864eb"},"vehicle_type_id":"4","last_reported":1729627793,"current_range_meters":35200,"station_id":"ce4bgh92rcd13ifvqb50","pricing_plan_id":"cebpf4jnsgd1na2vs0mg"},{"bike_id":"ad8e92d4-9f63-4072-a451-2055ca7d1d64","system_id":"levelo_inurba_marseille","lat":43.29914,"lon":5.38158,"is_reserved":false,"is_disabled":false,"rental_uris":{"android":"levelo://app?vid=ad8e92d4-9f63-4072-a451-2055ca7d1d64","ios":"levelo://app?vid=ad8e92d4-9f63-4072-a451-2055ca7d1d64"},"vehicle_type_id":"4","last_reported":1729627793,"current_range_meters":32800,"station_id":"ce4bgj12rcd13ifvqbc0","pricing_plan_id":"cebpf4jnsgd1na2vs0mg"},{"bike_id":"bf3cdac8-1828-4c5b-88c1-7d178598dc6a","system_id":"levelo_inurba_marseille","lat":43.30041,"lon":5.37293,"is_reserved":false,"is_disabled":false,"rental_uris":{"android":"levelo://app?vid=bf3cdac8-1828-4c5b-88c1-7d178598dc6a","ios":"levelo://app?vid=bf3cdac8-1828-4c5b-88c1-7d178598dc6a"},"vehicle_type_id":"4","last_reported":1729627793,"current_range_meters":16800,"station_id":"","pricing_plan_id":"cebpf4jnsgd1na2vs0mg"},{"bike_id":"1dd8afc3-c5de-4629-b394-aac90fc53dab","system_id":"levelo_inurba_marseille","lat":43.25118,"lon":5.40312,"is_reserved":false,"is_disabled":false,"rental_uris":{"android":"levelo://app?vid=1dd8afc3-c5de-4629-b394-aac90fc53dab","ios":"levelo://app?vid=1dd8afc3-c5de-4629-b394-aac90fc53dab"},"vehicle_type_id":"4","last_reported":1729627793,"current_range_meters":11600,"station_id":"ce4bhlh2rcd13ifvqgig","pricing_plan_id":"cebpf4jnsgd1na2vs0mg"},{"bike_id":"220464bc-4c66-4286-861a-d912d6e768a9","system_id":"levelo_inurba_marseille","lat":43.28435,"lon":5.39188,"is_reserved":false,"is_disabled":false,"rental_uris":{"android":"levelo://app?vid=220464bc-4c66-4286-861a-d912d6e768a9","ios":"levelo://app?vid=220464bc-4c66-4286-861a-d912d6e768a9"},"vehicle_type_id":"4","last_reported":1729627793,"current_range_meters":8800,"station_id":"ce4bhoh2rcd13ifvqh5g","pricing_plan_id":"cebpf4jnsgd1na2vs0mg"},{"bike_id":"5c449356-4ac4-4d08-a405-c433fbe21a80","system_id":"levelo_inurba_marseille","lat":43.33737,"lon":5.37458,"is_reserved":false,"is_disabled":false,"rental_uris":{"android":"levelo://app?vid=5c449356-4ac4-4d08-a405-c433fbe21a80","ios":"levelo://app?vid=5c449356-4ac4-4d08-a405-c433fbe21a80"},"vehicle_type_id":"4","last_reported":1729627793,"current_range_meters":32800,"station_id":"","pricing_plan_id":"cebpf4jnsgd1na2vs0mg"},{"bike_id":"14cbf4f0-63ff-49bc-9f9d-d6e0480edc2b","system_id":"levelo_inurba_marseille","lat":43.30801,"lon":5.38146,"is_reserved":false,"is_disabled":false,"rental_uris":{"android":"levelo://app?vid=14cbf4f0-63ff-49bc-9f9d-d6e0480edc2b","ios":"levelo://app?vid=14cbf4f0-63ff-49bc-9f9d-d6e0480edc2b"},"vehicle_type_id":"4","last_reported":1729627793,"current_range_meters":37600,"station_id":"ce4bgt12rcd13ifvqce0","pricing_plan_id":"cebpf4jnsgd1na2vs0mg"},{"bike_id":"735801d6-eaef-4c0b-9306-dde8e01089a0","system_id":"levelo_inurba_marseille","lat":43.3325,"lon":5.37482,"is_reserved":false,"is_disabled":false,"rental_uris":{"android":"levelo://app?vid=735801d6-eaef-4c0b-9306-dde8e01089a0","ios":"levelo://app?vid=735801d6-eaef-4c0b-9306-dde8e01089a0"},"vehicle_type_id":"4","last_reported":1729627793,"current_range_meters":4400,"station_id":"","pricing_plan_id":"cebpf4jnsgd1na2vs0mg"},{"bike_id":"942f8698-f294-49f4-aea0-dfee42e015f8","system_id":"levelo_inurba_marseille","lat":43.262143,"lon":5.374379,"is_reserved":false,"is_disabled":false,"rental_uris":{"android":"levelo://app?vid=942f8698-f294-49f4-aea0-dfee42e015f8","ios":"levelo://app?vid=942f8698-f294-49f4-aea0-dfee42e015f8"},"vehicle_type_id":"4","last_reported":1729627793,"current_range_meters":20400,"station_id":"ce4bhgp2rcd13ifvqfc0","pricing_plan_id":"cebpf4jnsgd1na2vs0mg"},{"bike_id":"93602a24-3eac-4c89-ac5e-401a042efb9d","system_id":"levelo_inurba_marseille","lat":43.29934,"lon":5.36553,"is_reserved":false,"is_disabled":false,"rental_uris":{"android":"levelo://app?vid=93602a24-3eac-4c89-ac5e-401a042efb9d","ios":"levelo://app?vid=93602a24-3eac-4c89-ac5e-401a042efb9d"},"vehicle_type_id":"4","last_reported":1729627793,"current_range_meters":33200,"station_id":"ce4bgm92rcd13ifvqbr0","pricing_plan_id":"cebpf4jnsgd1na2vs0mg"},{"bike_id":"80f01561-4f78-4d59-98de-f130f22341eb","system_id":"levelo_inurba_marseille","lat":43.28154,"lon":5.42641,"is_reserved":false,"is_disabled":false,"rental_uris":{"android":"levelo://app?vid=80f01561-4f78-4d59-98de-f130f22341eb","ios":"levelo://app?vid=80f01561-4f78-4d59-98de-f130f22341eb"},"vehicle_type_id":"4","last_reported":1729627793,"current_range_meters":6800,"station_id":"ce4bhnh2rcd13ifvqgug","pricing_plan_id":"cebpf4jnsgd1na2vs0mg"},{"bike_id":"0c6b11eb-50a7-4dc0-bff2-d8026011ec1d","system_id":"levelo_inurba_marseille","lat":43.24392,"lon":5.37057,"is_reserved":false,"is_disabled":false,"rental_uris":{"android":"levelo://app?vid=0c6b11eb-50a7-4dc0-bff2-d8026011ec1d","ios":"levelo://app?vid=0c6b11eb-50a7-4dc0-bff2-d8026011ec1d"},"vehicle_type_id":"4","last_reported":1729627793,"current_range_meters":39200,"station_id":"ce4bhhh2rcd13ifvqfk0","pricing_plan_id":"cebpf4jnsgd1na2vs0mg"},{"bike_id":"df217360-aff1-4e07-a318-80500917e1e2","system_id":"levelo_inurba_marseille","lat":43.297932,"lon":5.393372,"is_reserved":false,"is_disabled":false,"rental_uris":{"android":"levelo://app?vid=df217360-aff1-4e07-a318-80500917e1e2","ios":"levelo://app?vid=df217360-aff1-4e07-a318-80500917e1e2"},"vehicle_type_id":"4","last_reported":1729627793,"current_range_meters":38800,"station_id":"chh1huq6cuj3fo74tm60","pricing_plan_id":"cebpf4jnsgd1na2vs0mg"},{"bike_id":"4882a116-5452-4f97-bdbd-13df4cccb9d6","system_id":"levelo_inurba_marseille","lat":43.30604,"lon":5.372353,"is_reserved":false,"is_disabled":false,"rental_uris":{"android":"levelo://app?vid=4882a116-5452-4f97-bdbd-13df4cccb9d6","ios":"levelo://app?vid=4882a116-5452-4f97-bdbd-13df4cccb9d6"},"vehicle_type_id":"4","last_reported":1729627793,"current_range_meters":33600,"station_id":"ce4bgqh2rcd13ifvqc4g","pricing_plan_id":"cebpf4jnsgd1na2vs0mg"},{"bike_id":"34445b8e-9f30-4202-bff2-394f74fa6b34","system_id":"levelo_inurba_marseille","lat":43.30889,"lon":5.37177,"is_reserved":false,"is_disabled":false,"rental_uris":{"android":"levelo://app?vid=34445b8e-9f30-4202-bff2-394f74fa6b34","ios":"levelo://app?vid=34445b8e-9f30-4202-bff2-394f74fa6b34"},"vehicle_type_id":"4","last_reported":1729627793,"current_range_meters":11600,"station_id":"ce4bguh2rcd13ifvqckg","pricing_plan_id":"cebpf4jnsgd1na2vs0mg"},{"bike_id":"1124aa99-a4cf-4abb-81d2-6a98e5a17338","system_id":"levelo_inurba_marseille","lat":43.27825,"lon":5.39201,"is_reserved":false,"is_disabled":false,"rental_uris":{"android":"levelo://app?vid=1124aa99-a4cf-4abb-81d2-6a98e5a17338","ios":"levelo://app?vid=1124aa99-a4cf-4abb-81d2-6a98e5a17338"},"vehicle_type_id":"4","last_reported":1729627793,"current_range_meters":18000,"station_id":"ce4bhjp2rcd13ifvqga0","pricing_plan_id":"cebpf4jnsgd1na2vs0mg"},{"bike_id":"4c6686d8-bacd-4e65-bb61-b5438f14860b","system_id":"levelo_inurba_marseille","lat":43.2894,"lon":5.38395,"is_reserved":false,"is_disabled":false,"rental_uris":{"android":"levelo://app?vid=4c6686d8-bacd-4e65-bb61-b5438f14860b","ios":"levelo://app?vid=4c6686d8-bacd-4e65-bb61-b5438f14860b"},"vehicle_type_id":"4","last_reported":1729627793,"current_range_meters":16400,"station_id":"ce4bh612rcd13ifvqe6g","pricing_plan_id":"cebpf4jnsgd1na2vs0mg"},{"bike_id":"57633249-3b48-4b3f-9fc9-74faaaf52100","system_id":"levelo_inurba_marseille","lat":43.28421,"lon":5.37519,"is_reserved":false,"is_disabled":false,"rental_uris":{"android":"levelo://app?vid=57633249-3b48-4b3f-9fc9-74faaaf52100","ios":"levelo://app?vid=57633249-3b48-4b3f-9fc9-74faaaf52100"},"vehicle_type_id":"4","last_reported":1729627793,"current_range_meters":31200,"station_id":"ce4bh412rcd13ifvqds0","pricing_plan_id":"cebpf4jnsgd1na2vs0mg"},{"bike_id":"45760edf-ab66-417c-b4ac-cbc9267374cd","system_id":"levelo_inurba_marseille","lat":43.28936,"lon":5.38398,"is_reserved":false,"is_disabled":false,"rental_uris":{"android":"levelo://app?vid=45760edf-ab66-417c-b4ac-cbc9267374cd","ios":"levelo://app?vid=45760edf-ab66-417c-b4ac-cbc9267374cd"},"vehicle_type_id":"4","last_reported":1729627793,"current_range_meters":26800,"station_id":"ce4bh612rcd13ifvqe6g","pricing_plan_id":"cebpf4jnsgd1na2vs0mg"},{"bike_id":"abd43a03-2238-41df-8508-8d7d721d4b96","system_id":"levelo_inurba_marseille","lat":43.24386,"lon":5.3705,"is_reserved":false,"is_disabled":false,"rental_uris":{"android":"levelo://app?vid=abd43a03-2238-41df-8508-8d7d721d4b96","ios":"levelo://app?vid=abd43a03-2238-41df-8508-8d7d721d4b96"},"vehicle_type_id":"4","last_reported":1729627793,"current_range_meters":38800,"station_id":"ce4bhhh2rcd13ifvqfk0","pricing_plan_id":"cebpf4jnsgd1na2vs0mg"},{"bike_id":"60e4024e-a978-42c3-8803-5f7a95943078","system_id":"levelo_inurba_marseille","lat":43.28718,"lon":5.37918,"is_reserved":false,"is_disabled":false,"rental_uris":{"android":"levelo://app?vid=60e4024e-a978-42c3-8803-5f7a95943078","ios":"levelo://app?vid=60e4024e-a978-42c3-8803-5f7a95943078"},"vehicle_type_id":"4","last_reported":1729627793,"current_range_meters":10800,"station_id":"ce4bh9p2rcd13ifvqec0","pricing_plan_id":"cebpf4jnsgd1na2vs0mg"},{"bike_id":"db0ac0e1-a27b-44db-a6d5-9e9ceed6d11d","system_id":"levelo_inurba_marseille","lat":43.2893,"lon":5.36636,"is_reserved":false,"is_disabled":false,"rental_uris":{"android":"levelo://app?vid=db0ac0e1-a27b-44db-a6d5-9e9ceed6d11d","ios":"levelo://app?vid=db0ac0e1-a27b-44db-a6d5-9e9ceed6d11d"},"vehicle_type_id":"4","last_reported":1729627793,"current_range_meters":17600,"station_id":"ce4bhap2rcd13ifvqek0","pricing_plan_id":"cebpf4jnsgd1na2vs0mg"},{"bike_id":"bde5a3e1-2b27-4680-add5-25f6634f00df","system_id":"levelo_inurba_marseille","lat":43.27991,"lon":5.41655,"is_reserved":false,"is_disabled":false,"rental_uris":{"android":"levelo://app?vid=bde5a3e1-2b27-4680-add5-25f6634f00df","ios":"levelo://app?vid=bde5a3e1-2b27-4680-add5-25f6634f00df"},"vehicle_type_id":"4","last_reported":1729627793,"current_range_meters":8800,"station_id":"ce4bho12rcd13ifvqh1g","pricing_plan_id":"cebpf4jnsgd1na2vs0mg"},{"bike_id":"f0220362-e7c7-423a-a587-85c77fbcabb6","system_id":"levelo_inurba_marseille","lat":43.27071,"lon":5.42277,"is_reserved":false,"is_disabled":false,"rental_uris":{"android":"levelo://app?vid=f0220362-e7c7-423a-a587-85c77fbcabb6","ios":"levelo://app?vid=f0220362-e7c7-423a-a587-85c77fbcabb6"},"vehicle_type_id":"4","last_reported":1729627793,"current_range_meters":38000,"station_id":"ce4bhk92rcd13ifvqgb0","pricing_plan_id":"cebpf4jnsgd1na2vs0mg"},{"bike_id":"22675db0-28b2-4ef9-a53f-b0764f3ea9dc","system_id":"levelo_inurba_marseille","lat":43.31994,"lon":5.38166,"is_reserved":false,"is_disabled":false,"rental_uris":{"android":"levelo://app?vid=22675db0-28b2-4ef9-a53f-b0764f3ea9dc","ios":"levelo://app?vid=22675db0-28b2-4ef9-a53f-b0764f3ea9dc"},"vehicle_type_id":"4","last_reported":1729627793,"current_range_meters":14400,"station_id":"ce4bhr12rcd13ifvqhpg","pricing_plan_id":"cebpf4jnsgd1na2vs0mg"},{"bike_id":"d08ac600-b85a-4a44-84b0-ee33725e24f7","system_id":"levelo_inurba_marseille","lat":43.32367,"lon":5.38882,"is_reserved":false,"is_disabled":false,"rental_uris":{"android":"levelo://app?vid=d08ac600-b85a-4a44-84b0-ee33725e24f7","ios":"levelo://app?vid=d08ac600-b85a-4a44-84b0-ee33725e24f7"},"vehicle_type_id":"4","last_reported":1729627793,"current_range_meters":37600,"station_id":"ce4bhqp2rcd13ifvqhog","pricing_plan_id":"cebpf4jnsgd1na2vs0mg"},{"bike_id":"6a3d026e-f423-4e19-905c-b73e2bbde2ea","system_id":"levelo_inurba_marseille","lat":43.27177,"lon":5.40995,"is_reserved":false,"is_disabled":false,"rental_uris":{"android":"levelo://app?vid=6a3d026e-f423-4e19-905c-b73e2bbde2ea","ios":"levelo://app?vid=6a3d026e-f423-4e19-905c-b73e2bbde2ea"},"vehicle_type_id":"4","last_reported":1729627793,"current_range_meters":18000,"station_id":"ce4bhl12rcd13ifvqgf0","pricing_plan_id":"cebpf4jnsgd1na2vs0mg"},{"bike_id":"3e874096-f707-4e4f-918f-d88b9ad69dbe","system_id":"levelo_inurba_marseille","lat":43.309,"lon":5.39655,"is_reserved":false,"is_disabled":false,"rental_uris":{"android":"levelo://app?vid=3e874096-f707-4e4f-918f-d88b9ad69dbe","ios":"levelo://app?vid=3e874096-f707-4e4f-918f-d88b9ad69dbe"},"vehicle_type_id":"4","last_reported":1729627793,"current_range_meters":29600,"station_id":"ce4bh012rcd13ifvqcv0","pricing_plan_id":"cebpf4jnsgd1na2vs0mg"},{"bike_id":"b388d8a3-71c5-48f9-a307-0c5202c60c1f","system_id":"levelo_inurba_marseille","lat":43.25574,"lon":5.38256,"is_reserved":false,"is_disabled":false,"rental_uris":{"android":"levelo://app?vid=b388d8a3-71c5-48f9-a307-0c5202c60c1f","ios":"levelo://app?vid=b388d8a3-71c5-48f9-a307-0c5202c60c1f"},"vehicle_type_id":"4","last_reported":1729627793,"current_range_meters":19600,"station_id":"ce4bhih2rcd13ifvqfs0","pricing_plan_id":"cebpf4jnsgd1na2vs0mg"},{"bike_id":"400267bb-6bea-4477-a26e-16e6ac2190e1","system_id":"levelo_inurba_marseille","lat":43.295375,"lon":5.38559,"is_reserved":false,"is_disabled":false,"rental_uris":{"android":"levelo://app?vid=400267bb-6bea-4477-a26e-16e6ac2190e1","ios":"levelo://app?vid=400267bb-6bea-4477-a26e-16e6ac2190e1"},"vehicle_type_id":"4","last_reported":1729627793,"current_range_meters":14400,"station_id":"ce4bgih2rcd13ifvqba0","pricing_plan_id":"cebpf4jnsgd1na2vs0mg"},{"bike_id":"9b87b773-e061-40be-b290-ce236cd5d49c","system_id":"levelo_inurba_marseille","lat":43.28412,"lon":5.37519,"is_reserved":false,"is_disabled":false,"rental_uris":{"android":"levelo://app?vid=9b87b773-e061-40be-b290-ce236cd5d49c","ios":"levelo://app?vid=9b87b773-e061-40be-b290-ce236cd5d49c"},"vehicle_type_id":"4","last_reported":1729627793,"current_range_meters":9200,"station_id":"ce4bh412rcd13ifvqds0","pricing_plan_id":"cebpf4jnsgd1na2vs0mg"},{"bike_id":"f4f4cedb-ee30-4d0e-addd-0835963f6da5","system_id":"levelo_inurba_marseille","lat":43.29476,"lon":5.44396,"is_reserved":false,"is_disabled":false,"rental_uris":{"android":"levelo://app?vid=f4f4cedb-ee30-4d0e-addd-0835963f6da5","ios":"levelo://app?vid=f4f4cedb-ee30-4d0e-addd-0835963f6da5"},"vehicle_type_id":"4","last_reported":1729627793,"current_range_meters":6000,"station_id":"","pricing_plan_id":"cebpf4jnsgd1na2vs0mg"},{"bike_id":"da6bbd89-eb87-4105-b444-04b57f1f10e2","system_id":"levelo_inurba_marseille","lat":43.30775,"lon":5.37652,"is_reserved":false,"is_disabled":false,"rental_uris":{"android":"levelo://app?vid=da6bbd89-eb87-4105-b444-04b57f1f10e2","ios":"levelo://app?vid=da6bbd89-eb87-4105-b444-04b57f1f10e2"},"vehicle_type_id":"4","last_reported":1729627793,"current_range_meters":26000,"station_id":"ce4bgv92rcd13ifvqcq0","pricing_plan_id":"cebpf4jnsgd1na2vs0mg"},{"bike_id":"0a65736c-a6c1-4a9e-8b2b-1aa22c8d20a5","system_id":"levelo_inurba_marseille","lat":43.30883,"lon":5.39627,"is_reserved":false,"is_disabled":false,"rental_uris":{"android":"levelo://app?vid=0a65736c-a6c1-4a9e-8b2b-1aa22c8d20a5","ios":"levelo://app?vid=0a65736c-a6c1-4a9e-8b2b-1aa22c8d20a5"},"vehicle_type_id":"4","last_reported":1729627793,"current_range_meters":38400,"station_id":"ce4bh012rcd13ifvqcv0","pricing_plan_id":"cebpf4jnsgd1na2vs0mg"},{"bike_id":"ccf3cc3e-19d5-4774-9e6c-d0f11737a12f","system_id":"levelo_inurba_marseille","lat":43.29228,"lon":5.36071,"is_reserved":false,"is_disabled":false,"rental_uris":{"android":"levelo://app?vid=ccf3cc3e-19d5-4774-9e6c-d0f11737a12f","ios":"levelo://app?vid=ccf3cc3e-19d5-4774-9e6c-d0f11737a12f"},"vehicle_type_id":"4","last_reported":1729627793,"current_range_meters":34000,"station_id":"ce4bhbh2rcd13ifvqeqg","pricing_plan_id":"cebpf4jnsgd1na2vs0mg"},{"bike_id":"13dbb4b1-d858-4ab5-8deb-4f18c430a3f3","system_id":"levelo_inurba_marseille","lat":43.30643,"lon":5.40076,"is_reserved":false,"is_disabled":false,"rental_uris":{"android":"levelo://app?vid=13dbb4b1-d858-4ab5-8deb-4f18c430a3f3","ios":"levelo://app?vid=13dbb4b1-d858-4ab5-8deb-4f18c430a3f3"},"vehicle_type_id":"4","last_reported":1729627793,"current_range_meters":36800,"station_id":"ce4bh112rcd13ifvqda0","pricing_plan_id":"cebpf4jnsgd1na2vs0mg"},{"bike_id":"ed0e290e-6151-49b6-a00f-68f2520c627e","system_id":"levelo_inurba_marseille","lat":43.28612,"lon":5.3511,"is_reserved":false,"is_disabled":false,"rental_uris":{"android":"levelo://app?vid=ed0e290e-6151-49b6-a00f-68f2520c627e","ios":"levelo://app?vid=ed0e290e-6151-49b6-a00f-68f2520c627e"},"vehicle_type_id":"4","last_reported":1729627793,"current_range_meters":38800,"station_id":"ce4bhch2rcd13ifvqeug","pricing_plan_id":"cebpf4jnsgd1na2vs0mg"},{"bike_id":"81db9c70-bce4-4764-86a6-8d25b1c25e6d","system_id":"levelo_inurba_marseille","lat":43.24647,"lon":5.38887,"is_reserved":false,"is_disabled":false,"rental_uris":{"android":"levelo://app?vid=81db9c70-bce4-4764-86a6-8d25b1c25e6d","ios":"levelo://app?vid=81db9c70-bce4-4764-86a6-8d25b1c25e6d"},"vehicle_type_id":"4","last_reported":1729627793,"current_range_meters":19600,"station_id":"ce4bhg12rcd13ifvqf60","pricing_plan_id":"cebpf4jnsgd1na2vs0mg"},{"bike_id":"36f29174-278d-4a36-8d64-2c490ae15868","system_id":"levelo_inurba_marseille","lat":43.27497,"lon":5.42459,"is_reserved":false,"is_disabled":false,"rental_uris":{"android":"levelo://app?vid=36f29174-278d-4a36-8d64-2c490ae15868","ios":"levelo://app?vid=36f29174-278d-4a36-8d64-2c490ae15868"},"vehicle_type_id":"4","last_reported":1729627793,"current_range_meters":34000,"station_id":"ce4bhn92rcd13ifvqgrg","pricing_plan_id":"cebpf4jnsgd1na2vs0mg"},{"bike_id":"63d546d5-3fac-4df0-acc7-024b2ae59266","system_id":"levelo_inurba_marseille","lat":43.30931,"lon":5.40145,"is_reserved":false,"is_disabled":false,"rental_uris":{"android":"levelo://app?vid=63d546d5-3fac-4df0-acc7-024b2ae59266","ios":"levelo://app?vid=63d546d5-3fac-4df0-acc7-024b2ae59266"},"vehicle_type_id":"4","last_reported":1729627793,"current_range_meters":16800,"station_id":"ce4bgvp2rcd13ifvqct0","pricing_plan_id":"cebpf4jnsgd1na2vs0mg"},{"bike_id":"2d00c0a8-1b2c-4f67-ab84-fa0b2a2be82d","system_id":"levelo_inurba_marseille","lat":43.28704,"lon":5.37375,"is_reserved":false,"is_disabled":false,"rental_uris":{"android":"levelo://app?vid=2d00c0a8-1b2c-4f67-ab84-fa0b2a2be82d","ios":"levelo://app?vid=2d00c0a8-1b2c-4f67-ab84-fa0b2a2be82d"},"vehicle_type_id":"4","last_reported":1729627793,"current_range_meters":37600,"station_id":"ce4bh3p2rcd13ifvqdq0","pricing_plan_id":"cebpf4jnsgd1na2vs0mg"},{"bike_id":"43ec8b53-f260-424e-9cb0-f470453f6568","system_id":"levelo_inurba_marseille","lat":43.28405,"lon":5.37499,"is_reserved":false,"is_disabled":false,"rental_uris":{"android":"levelo://app?vid=43ec8b53-f260-424e-9cb0-f470453f6568","ios":"levelo://app?vid=43ec8b53-f260-424e-9cb0-f470453f6568"},"vehicle_type_id":"4","last_reported":1729627793,"current_range_meters":8400,"station_id":"ce4bh412rcd13ifvqds0","pricing_plan_id":"cebpf4jnsgd1na2vs0mg"},{"bike_id":"00a28e70-bd5c-47ec-8d4f-ec75ca0a8041","system_id":"levelo_inurba_marseille","lat":43.29909,"lon":5.38158,"is_reserved":false,"is_disabled":false,"rental_uris":{"android":"levelo://app?vid=00a28e70-bd5c-47ec-8d4f-ec75ca0a8041","ios":"levelo://app?vid=00a28e70-bd5c-47ec-8d4f-ec75ca0a8041"},"vehicle_type_id":"4","last_reported":1729627793,"current_range_meters":38800,"station_id":"ce4bgj12rcd13ifvqbc0","pricing_plan_id":"cebpf4jnsgd1na2vs0mg"},{"bike_id":"11256fd2-b537-43fb-8f2f-2312433c9979","system_id":"levelo_inurba_marseille","lat":43.28111,"lon":5.37831,"is_reserved":false,"is_disabled":false,"rental_uris":{"android":"levelo://app?vid=11256fd2-b537-43fb-8f2f-2312433c9979","ios":"levelo://app?vid=11256fd2-b537-43fb-8f2f-2312433c9979"},"vehicle_type_id":"4","last_reported":1729627793,"current_range_meters":8400,"station_id":"ce4bha12rcd13ifvqee0","pricing_plan_id":"cebpf4jnsgd1na2vs0mg"},{"bike_id":"408223fe-0604-4879-9b68-36acb12c66f7","system_id":"levelo_inurba_marseille","lat":43.28427,"lon":5.3752,"is_reserved":false,"is_disabled":false,"rental_uris":{"android":"levelo://app?vid=408223fe-0604-4879-9b68-36acb12c66f7","ios":"levelo://app?vid=408223fe-0604-4879-9b68-36acb12c66f7"},"vehicle_type_id":"4","last_reported":1729627793,"current_range_meters":38800,"station_id":"ce4bh412rcd13ifvqds0","pricing_plan_id":"cebpf4jnsgd1na2vs0mg"},{"bike_id":"cc16a5d3-2187-4371-900f-54822f6513da","system_id":"levelo_inurba_marseille","lat":43.29509,"lon":5.39043,"is_reserved":false,"is_disabled":false,"rental_uris":{"android":"levelo://app?vid=cc16a5d3-2187-4371-900f-54822f6513da","ios":"levelo://app?vid=cc16a5d3-2187-4371-900f-54822f6513da"},"vehicle_type_id":"4","last_reported":1729627793,"current_range_meters":34000,"station_id":"ce4bh3p2rcd13ifvqdp0","pricing_plan_id":"cebpf4jnsgd1na2vs0mg"},{"bike_id":"2ba3ec02-07f6-4593-ba7c-a96d0d12defb","system_id":"levelo_inurba_marseille","lat":43.29074,"lon":5.37178,"is_reserved":false,"is_disabled":false,"rental_uris":{"android":"levelo://app?vid=2ba3ec02-07f6-4593-ba7c-a96d0d12defb","ios":"levelo://app?vid=2ba3ec02-07f6-4593-ba7c-a96d0d12defb"},"vehicle_type_id":"4","last_reported":1729627793,"current_range_meters":30400,"station_id":"ce4bh5p2rcd13ifvqe4g","pricing_plan_id":"cebpf4jnsgd1na2vs0mg"},{"bike_id":"9b385d95-98fd-423f-acc4-726ef0668044","system_id":"levelo_inurba_marseille","lat":43.2952,"lon":5.39045,"is_reserved":false,"is_disabled":false,"rental_uris":{"android":"levelo://app?vid=9b385d95-98fd-423f-acc4-726ef0668044","ios":"levelo://app?vid=9b385d95-98fd-423f-acc4-726ef0668044"},"vehicle_type_id":"4","last_reported":1729627793,"current_range_meters":17200,"station_id":"ce4bh3p2rcd13ifvqdp0","pricing_plan_id":"cebpf4jnsgd1na2vs0mg"},{"bike_id":"864575c1-85b8-4008-92ba-391073d4ed51","system_id":"levelo_inurba_marseille","lat":43.23189,"lon":5.35542,"is_reserved":false,"is_disabled":false,"rental_uris":{"android":"levelo://app?vid=864575c1-85b8-4008-92ba-391073d4ed51","ios":"levelo://app?vid=864575c1-85b8-4008-92ba-391073d4ed51"},"vehicle_type_id":"4","last_reported":1729627793,"current_range_meters":23200,"station_id":"ce4bhu92rcd13ifvqi70","pricing_plan_id":"cebpf4jnsgd1na2vs0mg"},{"bike_id":"0e505ea1-d652-4273-9fce-2670943b7d63","system_id":"levelo_inurba_marseille","lat":43.27371,"lon":5.36257,"is_reserved":false,"is_disabled":false,"rental_uris":{"android":"levelo://app?vid=0e505ea1-d652-4273-9fce-2670943b7d63","ios":"levelo://app?vid=0e505ea1-d652-4273-9fce-2670943b7d63"},"vehicle_type_id":"4","last_reported":1729627793,"current_range_meters":40000,"station_id":"ce4bhbh2rcd13ifvqeo0","pricing_plan_id":"cebpf4jnsgd1na2vs0mg"},{"bike_id":"41f75c63-5a1e-4adb-bcc3-29aa8accf432","system_id":"levelo_inurba_marseille","lat":43.27495,"lon":5.42452,"is_reserved":false,"is_disabled":false,"rental_uris":{"android":"levelo://app?vid=41f75c63-5a1e-4adb-bcc3-29aa8accf432","ios":"levelo://app?vid=41f75c63-5a1e-4adb-bcc3-29aa8accf432"},"vehicle_type_id":"4","last_reported":1729627793,"current_range_meters":36400,"station_id":"ce4bhn92rcd13ifvqgrg","pricing_plan_id":"cebpf4jnsgd1na2vs0mg"},{"bike_id":"8b1fa7b9-057b-4d9f-8505-3fb6dbc7386f","system_id":"levelo_inurba_marseille","lat":43.27377,"lon":5.36253,"is_reserved":false,"is_disabled":false,"rental_uris":{"android":"levelo://app?vid=8b1fa7b9-057b-4d9f-8505-3fb6dbc7386f","ios":"levelo://app?vid=8b1fa7b9-057b-4d9f-8505-3fb6dbc7386f"},"vehicle_type_id":"4","last_reported":1729627793,"current_range_meters":14800,"station_id":"ce4bhbh2rcd13ifvqeo0","pricing_plan_id":"cebpf4jnsgd1na2vs0mg"},{"bike_id":"5b58dcfb-5507-4a17-8cb8-8f66d7e06861","system_id":"levelo_inurba_marseille","lat":43.23188,"lon":5.39977,"is_reserved":false,"is_disabled":false,"rental_uris":{"android":"levelo://app?vid=5b58dcfb-5507-4a17-8cb8-8f66d7e06861","ios":"levelo://app?vid=5b58dcfb-5507-4a17-8cb8-8f66d7e06861"},"vehicle_type_id":"4","last_reported":1729627793,"current_range_meters":9600,"station_id":"ce4bhn12rcd13ifvqgqg","pricing_plan_id":"cebpf4jnsgd1na2vs0mg"},{"bike_id":"905ac98c-038f-4028-b995-452f7f4f95ee","system_id":"levelo_inurba_marseille","lat":43.29546,"lon":5.37492,"is_reserved":false,"is_disabled":false,"rental_uris":{"android":"levelo://app?vid=905ac98c-038f-4028-b995-452f7f4f95ee","ios":"levelo://app?vid=905ac98c-038f-4028-b995-452f7f4f95ee"},"vehicle_type_id":"4","last_reported":1729627793,"current_range_meters":38000,"station_id":"ce4bgkp2rcd13ifvqbmg","pricing_plan_id":"cebpf4jnsgd1na2vs0mg"},{"bike_id":"3fe96bb3-d27a-492d-825f-9bc77dafe8c4","system_id":"levelo_inurba_marseille","lat":43.28077,"lon":5.39665,"is_reserved":false,"is_disabled":false,"rental_uris":{"android":"levelo://app?vid=3fe96bb3-d27a-492d-825f-9bc77dafe8c4","ios":"levelo://app?vid=3fe96bb3-d27a-492d-825f-9bc77dafe8c4"},"vehicle_type_id":"4","last_reported":1729627793,"current_range_meters":30000,"station_id":"ce4bho12rcd13ifvqh2g","pricing_plan_id":"cebpf4jnsgd1na2vs0mg"},{"bike_id":"79a1e020-318b-42a1-a8c0-a424b1daf69e","system_id":"levelo_inurba_marseille","lat":43.296,"lon":5.36142,"is_reserved":false,"is_disabled":false,"rental_uris":{"android":"levelo://app?vid=79a1e020-318b-42a1-a8c0-a424b1daf69e","ios":"levelo://app?vid=79a1e020-318b-42a1-a8c0-a424b1daf69e"},"vehicle_type_id":"4","last_reported":1729627793,"current_range_meters":4400,"station_id":"","pricing_plan_id":"cebpf4jnsgd1na2vs0mg"},{"bike_id":"135cebe9-ffee-4a96-8e19-ff8188d72ddd","system_id":"levelo_inurba_marseille","lat":43.24391,"lon":5.37062,"is_reserved":false,"is_disabled":false,"rental_uris":{"android":"levelo://app?vid=135cebe9-ffee-4a96-8e19-ff8188d72ddd","ios":"levelo://app?vid=135cebe9-ffee-4a96-8e19-ff8188d72ddd"},"vehicle_type_id":"4","last_reported":1729627793,"current_range_meters":38800,"station_id":"ce4bhhh2rcd13ifvqfk0","pricing_plan_id":"cebpf4jnsgd1na2vs0mg"},{"bike_id":"e20eacab-28c4-4862-9c97-caa408edf48c","system_id":"levelo_inurba_marseille","lat":43.23182,"lon":5.39992,"is_reserved":false,"is_disabled":false,"rental_uris":{"android":"levelo://app?vid=e20eacab-28c4-4862-9c97-caa408edf48c","ios":"levelo://app?vid=e20eacab-28c4-4862-9c97-caa408edf48c"},"vehicle_type_id":"4","last_reported":1729627793,"current_range_meters":26800,"station_id":"ce4bhn12rcd13ifvqgqg","pricing_plan_id":"cebpf4jnsgd1na2vs0mg"},{"bike_id":"1db8bf4e-d947-4051-bc95-93be3f240c90","system_id":"levelo_inurba_marseille","lat":43.28925,"lon":5.38392,"is_reserved":false,"is_disabled":false,"rental_uris":{"android":"levelo://app?vid=1db8bf4e-d947-4051-bc95-93be3f240c90","ios":"levelo://app?vid=1db8bf4e-d947-4051-bc95-93be3f240c90"},"vehicle_type_id":"4","last_reported":1729627793,"current_range_meters":37600,"station_id":"ce4bh612rcd13ifvqe6g","pricing_plan_id":"cebpf4jnsgd1na2vs0mg"},{"bike_id":"87fc3376-a6d0-4143-9123-d989a9163b37","system_id":"levelo_inurba_marseille","lat":43.28276,"lon":5.35061,"is_reserved":false,"is_disabled":false,"rental_uris":{"android":"levelo://app?vid=87fc3376-a6d0-4143-9123-d989a9163b37","ios":"levelo://app?vid=87fc3376-a6d0-4143-9123-d989a9163b37"},"vehicle_type_id":"4","last_reported":1729627793,"current_range_meters":38800,"station_id":"ce4bhbp2rcd13ifvqerg","pricing_plan_id":"cebpf4jnsgd1na2vs0mg"},{"bike_id":"1cb83924-fa4e-469e-a9f1-5e7168b2f7d6","system_id":"levelo_inurba_marseille","lat":43.23199,"lon":5.35551,"is_reserved":false,"is_disabled":false,"rental_uris":{"android":"levelo://app?vid=1cb83924-fa4e-469e-a9f1-5e7168b2f7d6","ios":"levelo://app?vid=1cb83924-fa4e-469e-a9f1-5e7168b2f7d6"},"vehicle_type_id":"4","last_reported":1729627793,"current_range_meters":8000,"station_id":"ce4bhu92rcd13ifvqi70","pricing_plan_id":"cebpf4jnsgd1na2vs0mg"},{"bike_id":"a953a5d9-07a3-4110-85c6-ed923c963421","system_id":"levelo_inurba_marseille","lat":43.30243,"lon":5.400796,"is_reserved":false,"is_disabled":false,"rental_uris":{"android":"levelo://app?vid=a953a5d9-07a3-4110-85c6-ed923c963421","ios":"levelo://app?vid=a953a5d9-07a3-4110-85c6-ed923c963421"},"vehicle_type_id":"4","last_reported":1729627793,"current_range_meters":29600,"station_id":"ce4bgvh2rcd13ifvqcs0","pricing_plan_id":"cebpf4jnsgd1na2vs0mg"},{"bike_id":"39c098ae-dc9d-4883-bad5-2cb6fd111db3","system_id":"levelo_inurba_marseille","lat":43.29531,"lon":5.38547,"is_reserved":false,"is_disabled":false,"rental_uris":{"android":"levelo://app?vid=39c098ae-dc9d-4883-bad5-2cb6fd111db3","ios":"levelo://app?vid=39c098ae-dc9d-4883-bad5-2cb6fd111db3"},"vehicle_type_id":"4","last_reported":1729627793,"current_range_meters":3600,"station_id":"ce4bgih2rcd13ifvqba0","pricing_plan_id":"cebpf4jnsgd1na2vs0mg"},{"bike_id":"2639e957-ac37-4402-a71f-10c814c85d17","system_id":"levelo_inurba_marseille","lat":43.28155,"lon":5.42646,"is_reserved":false,"is_disabled":false,"rental_uris":{"android":"levelo://app?vid=2639e957-ac37-4402-a71f-10c814c85d17","ios":"levelo://app?vid=2639e957-ac37-4402-a71f-10c814c85d17"},"vehicle_type_id":"4","last_reported":1729627793,"current_range_meters":8800,"station_id":"ce4bhnh2rcd13ifvqgug","pricing_plan_id":"cebpf4jnsgd1na2vs0mg"},{"bike_id":"34be8e3a-eefe-496b-810d-162ce65754e0","system_id":"levelo_inurba_marseille","lat":43.23194,"lon":5.3556,"is_reserved":false,"is_disabled":false,"rental_uris":{"android":"levelo://app?vid=34be8e3a-eefe-496b-810d-162ce65754e0","ios":"levelo://app?vid=34be8e3a-eefe-496b-810d-162ce65754e0"},"vehicle_type_id":"4","last_reported":1729627793,"current_range_meters":39200,"station_id":"ce4bhu92rcd13ifvqi70","pricing_plan_id":"cebpf4jnsgd1na2vs0mg"},{"bike_id":"b260bd2d-7491-41ce-b05b-bfb3c10093ab","system_id":"levelo_inurba_marseille","lat":43.29256,"lon":5.38446,"is_reserved":false,"is_disabled":false,"rental_uris":{"android":"levelo://app?vid=b260bd2d-7491-41ce-b05b-bfb3c10093ab","ios":"levelo://app?vid=b260bd2d-7491-41ce-b05b-bfb3c10093ab"},"vehicle_type_id":"4","last_reported":1729627793,"current_range_meters":3200,"station_id":"ce4bh692rcd13ifvqea0","pricing_plan_id":"cebpf4jnsgd1na2vs0mg"},{"bike_id":"54df46ab-ca06-47b3-9632-f085dfa97dc3","system_id":"levelo_inurba_marseille","lat":43.30803,"lon":5.38145,"is_reserved":false,"is_disabled":false,"rental_uris":{"android":"levelo://app?vid=54df46ab-ca06-47b3-9632-f085dfa97dc3","ios":"levelo://app?vid=54df46ab-ca06-47b3-9632-f085dfa97dc3"},"vehicle_type_id":"4","last_reported":1729627793,"current_range_meters":36800,"station_id":"ce4bgt12rcd13ifvqce0","pricing_plan_id":"cebpf4jnsgd1na2vs0mg"},{"bike_id":"8e40ff46-40ee-4202-a615-be27d36b4e1d","system_id":"levelo_inurba_marseille","lat":43.33722,"lon":5.39183,"is_reserved":false,"is_disabled":false,"rental_uris":{"android":"levelo://app?vid=8e40ff46-40ee-4202-a615-be27d36b4e1d","ios":"levelo://app?vid=8e40ff46-40ee-4202-a615-be27d36b4e1d"},"vehicle_type_id":"4","last_reported":1729627793,"current_range_meters":19200,"station_id":"ce4bhr92rcd13ifvqhsg","pricing_plan_id":"cebpf4jnsgd1na2vs0mg"},{"bike_id":"a8fd90e1-0f06-42a3-906b-c91cb727d214","system_id":"levelo_inurba_marseille","lat":43.26834,"lon":5.41112,"is_reserved":false,"is_disabled":false,"rental_uris":{"android":"levelo://app?vid=a8fd90e1-0f06-42a3-906b-c91cb727d214","ios":"levelo://app?vid=a8fd90e1-0f06-42a3-906b-c91cb727d214"},"vehicle_type_id":"4","last_reported":1729627793,"current_range_meters":12000,"station_id":"","pricing_plan_id":"cebpf4jnsgd1na2vs0mg"},{"bike_id":"1e4f408a-7823-4f21-aceb-d6709974f1c5","system_id":"levelo_inurba_marseille","lat":43.23193,"lon":5.35556,"is_reserved":false,"is_disabled":false,"rental_uris":{"android":"levelo://app?vid=1e4f408a-7823-4f21-aceb-d6709974f1c5","ios":"levelo://app?vid=1e4f408a-7823-4f21-aceb-d6709974f1c5"},"vehicle_type_id":"4","last_reported":1729627793,"current_range_meters":24400,"station_id":"ce4bhu92rcd13ifvqi70","pricing_plan_id":"cebpf4jnsgd1na2vs0mg"},{"bike_id":"f8ad2483-565e-4737-9516-bde3b7a711c6","system_id":"levelo_inurba_marseille","lat":43.30653,"lon":5.40079,"is_reserved":false,"is_disabled":false,"rental_uris":{"android":"levelo://app?vid=f8ad2483-565e-4737-9516-bde3b7a711c6","ios":"levelo://app?vid=f8ad2483-565e-4737-9516-bde3b7a711c6"},"vehicle_type_id":"4","last_reported":1729627793,"current_range_meters":38800,"station_id":"ce4bh112rcd13ifvqda0","pricing_plan_id":"cebpf4jnsgd1na2vs0mg"},{"bike_id":"2385c890-da0c-4bca-88cc-969d8e158487","system_id":"levelo_inurba_marseille","lat":43.26802,"lon":5.40259,"is_reserved":false,"is_disabled":false,"rental_uris":{"android":"levelo://app?vid=2385c890-da0c-4bca-88cc-969d8e158487","ios":"levelo://app?vid=2385c890-da0c-4bca-88cc-969d8e158487"},"vehicle_type_id":"4","last_reported":1729627793,"current_range_meters":12000,"station_id":"ce501612rcd8frsf0b60","pricing_plan_id":"cebpf4jnsgd1na2vs0mg"},{"bike_id":"29665abb-bb05-4470-bec8-a92af688bd5f","system_id":"levelo_inurba_marseille","lat":43.29558,"lon":5.42292,"is_reserved":false,"is_disabled":false,"rental_uris":{"android":"levelo://app?vid=29665abb-bb05-4470-bec8-a92af688bd5f","ios":"levelo://app?vid=29665abb-bb05-4470-bec8-a92af688bd5f"},"vehicle_type_id":"4","last_reported":1729627793,"current_range_meters":30000,"station_id":"ce4bhph2rcd13ifvqhdg","pricing_plan_id":"cebpf4jnsgd1na2vs0mg"},{"bike_id":"ac9a5529-a494-4b90-87a7-a0059dd0be93","system_id":"levelo_inurba_marseille","lat":43.30328,"lon":5.40434,"is_reserved":false,"is_disabled":false,"rental_uris":{"android":"levelo://app?vid=ac9a5529-a494-4b90-87a7-a0059dd0be93","ios":"levelo://app?vid=ac9a5529-a494-4b90-87a7-a0059dd0be93"},"vehicle_type_id":"4","last_reported":1729627793,"current_range_meters":8400,"station_id":"ce4bh012rcd13ifvqd10","pricing_plan_id":"cebpf4jnsgd1na2vs0mg"},{"bike_id":"614b4d27-3061-4913-8e39-25a4924613d2","system_id":"levelo_inurba_marseille","lat":43.25114,"lon":5.4032,"is_reserved":false,"is_disabled":false,"rental_uris":{"android":"levelo://app?vid=614b4d27-3061-4913-8e39-25a4924613d2","ios":"levelo://app?vid=614b4d27-3061-4913-8e39-25a4924613d2"},"vehicle_type_id":"4","last_reported":1729627793,"current_range_meters":12800,"station_id":"ce4bhlh2rcd13ifvqgig","pricing_plan_id":"cebpf4jnsgd1na2vs0mg"},{"bike_id":"c3945b60-e38d-4106-8f18-92c7f436cc4f","system_id":"levelo_inurba_marseille","lat":43.33757,"lon":5.37448,"is_reserved":false,"is_disabled":false,"rental_uris":{"android":"levelo://app?vid=c3945b60-e38d-4106-8f18-92c7f436cc4f","ios":"levelo://app?vid=c3945b60-e38d-4106-8f18-92c7f436cc4f"},"vehicle_type_id":"4","last_reported":1729627793,"current_range_meters":30400,"station_id":"","pricing_plan_id":"cebpf4jnsgd1na2vs0mg"},{"bike_id":"96a7dace-0668-4ecd-b200-08d009b00073","system_id":"levelo_inurba_marseille","lat":43.30932,"lon":5.4014,"is_reserved":false,"is_disabled":false,"rental_uris":{"android":"levelo://app?vid=96a7dace-0668-4ecd-b200-08d009b00073","ios":"levelo://app?vid=96a7dace-0668-4ecd-b200-08d009b00073"},"vehicle_type_id":"4","last_reported":1729627793,"current_range_meters":9600,"station_id":"ce4bgvp2rcd13ifvqct0","pricing_plan_id":"cebpf4jnsgd1na2vs0mg"},{"bike_id":"abe66e27-dfd0-4a58-8323-b3c4bfe1406b","system_id":"levelo_inurba_marseille","lat":43.26554,"lon":5.37284,"is_reserved":false,"is_disabled":false,"rental_uris":{"android":"levelo://app?vid=abe66e27-dfd0-4a58-8323-b3c4bfe1406b","ios":"levelo://app?vid=abe66e27-dfd0-4a58-8323-b3c4bfe1406b"},"vehicle_type_id":"4","last_reported":1729627793,"current_range_meters":7200,"station_id":"ce4bhg12rcd13ifvqf70","pricing_plan_id":"cebpf4jnsgd1na2vs0mg"},{"bike_id":"4bd1e3bd-78ef-405e-97ae-8c0105cac8e6","system_id":"levelo_inurba_marseille","lat":43.29004,"lon":5.35611,"is_reserved":false,"is_disabled":false,"rental_uris":{"android":"levelo://app?vid=4bd1e3bd-78ef-405e-97ae-8c0105cac8e6","ios":"levelo://app?vid=4bd1e3bd-78ef-405e-97ae-8c0105cac8e6"},"vehicle_type_id":"4","last_reported":1729627793,"current_range_meters":38000,"station_id":"ce4bhb92rcd13ifvqen0","pricing_plan_id":"cebpf4jnsgd1na2vs0mg"},{"bike_id":"909fd1d6-0c16-4262-a543-57242880671f","system_id":"levelo_inurba_marseille","lat":43.28431,"lon":5.39166,"is_reserved":false,"is_disabled":false,"rental_uris":{"android":"levelo://app?vid=909fd1d6-0c16-4262-a543-57242880671f","ios":"levelo://app?vid=909fd1d6-0c16-4262-a543-57242880671f"},"vehicle_type_id":"4","last_reported":1729627793,"current_range_meters":20000,"station_id":"ce4bhoh2rcd13ifvqh5g","pricing_plan_id":"cebpf4jnsgd1na2vs0mg"},{"bike_id":"735cc72e-7381-406f-aaf6-61031e6cd906","system_id":"levelo_inurba_marseille","lat":43.28105,"lon":5.37833,"is_reserved":false,"is_disabled":false,"rental_uris":{"android":"levelo://app?vid=735cc72e-7381-406f-aaf6-61031e6cd906","ios":"levelo://app?vid=735cc72e-7381-406f-aaf6-61031e6cd906"},"vehicle_type_id":"4","last_reported":1729627793,"current_range_meters":6400,"station_id":"ce4bha12rcd13ifvqee0","pricing_plan_id":"cebpf4jnsgd1na2vs0mg"},{"bike_id":"2451ac78-ffee-4999-b715-e5760954e747","system_id":"levelo_inurba_marseille","lat":43.29236,"lon":5.36052,"is_reserved":false,"is_disabled":false,"rental_uris":{"android":"levelo://app?vid=2451ac78-ffee-4999-b715-e5760954e747","ios":"levelo://app?vid=2451ac78-ffee-4999-b715-e5760954e747"},"vehicle_type_id":"4","last_reported":1729627793,"current_range_meters":38800,"station_id":"ce4bhbh2rcd13ifvqeqg","pricing_plan_id":"cebpf4jnsgd1na2vs0mg"},{"bike_id":"deb4a077-2cb4-4d1a-b1fe-922c520bcc2f","system_id":"levelo_inurba_marseille","lat":43.297,"lon":5.36609,"is_reserved":false,"is_disabled":false,"rental_uris":{"android":"levelo://app?vid=deb4a077-2cb4-4d1a-b1fe-922c520bcc2f","ios":"levelo://app?vid=deb4a077-2cb4-4d1a-b1fe-922c520bcc2f"},"vehicle_type_id":"4","last_reported":1729627793,"current_range_meters":27600,"station_id":"ce4bgn12rcd13ifvqbt0","pricing_plan_id":"cebpf4jnsgd1na2vs0mg"},{"bike_id":"1135af4d-b7d7-4190-b0cb-6113c69ae2ea","system_id":"levelo_inurba_marseille","lat":43.27374,"lon":5.36248,"is_reserved":false,"is_disabled":false,"rental_uris":{"android":"levelo://app?vid=1135af4d-b7d7-4190-b0cb-6113c69ae2ea","ios":"levelo://app?vid=1135af4d-b7d7-4190-b0cb-6113c69ae2ea"},"vehicle_type_id":"4","last_reported":1729627793,"current_range_meters":38800,"station_id":"ce4bhbh2rcd13ifvqeo0","pricing_plan_id":"cebpf4jnsgd1na2vs0mg"},{"bike_id":"3af337b1-4096-493c-9221-0107a2ba6d39","system_id":"levelo_inurba_marseille","lat":43.311707,"lon":5.387209,"is_reserved":false,"is_disabled":false,"rental_uris":{"android":"levelo://app?vid=3af337b1-4096-493c-9221-0107a2ba6d39","ios":"levelo://app?vid=3af337b1-4096-493c-9221-0107a2ba6d39"},"vehicle_type_id":"4","last_reported":1729627793,"current_range_meters":30400,"station_id":"ce4bgv12rcd13ifvqcp0","pricing_plan_id":"cebpf4jnsgd1na2vs0mg"},{"bike_id":"2138e2f5-acd3-44f4-9a6a-14bb3199c7e8","system_id":"levelo_inurba_marseille","lat":43.29882,"lon":5.38911,"is_reserved":false,"is_disabled":false,"rental_uris":{"android":"levelo://app?vid=2138e2f5-acd3-44f4-9a6a-14bb3199c7e8","ios":"levelo://app?vid=2138e2f5-acd3-44f4-9a6a-14bb3199c7e8"},"vehicle_type_id":"4","last_reported":1729627793,"current_range_meters":38800,"station_id":"ce4bh392rcd13ifvqdl0","pricing_plan_id":"cebpf4jnsgd1na2vs0mg"},{"bike_id":"3beb6976-f6fe-409e-b91e-c0ed53becb4a","system_id":"levelo_inurba_marseille","lat":43.30331,"lon":5.36899,"is_reserved":false,"is_disabled":false,"rental_uris":{"android":"levelo://app?vid=3beb6976-f6fe-409e-b91e-c0ed53becb4a","ios":"levelo://app?vid=3beb6976-f6fe-409e-b91e-c0ed53becb4a"},"vehicle_type_id":"4","last_reported":1729627793,"current_range_meters":38800,"station_id":"ce4bgqh2rcd13ifvqc5g","pricing_plan_id":"cebpf4jnsgd1na2vs0mg"},{"bike_id":"8f34dca2-e523-475a-85e5-be2164d16e3c","system_id":"levelo_inurba_marseille","lat":43.28107,"lon":5.37849,"is_reserved":false,"is_disabled":false,"rental_uris":{"android":"levelo://app?vid=8f34dca2-e523-475a-85e5-be2164d16e3c","ios":"levelo://app?vid=8f34dca2-e523-475a-85e5-be2164d16e3c"},"vehicle_type_id":"4","last_reported":1729627793,"current_range_meters":38800,"station_id":"ce4bha12rcd13ifvqee0","pricing_plan_id":"cebpf4jnsgd1na2vs0mg"},{"bike_id":"f15c7b2e-2f5a-4c38-8166-9501d32f99b8","system_id":"levelo_inurba_marseille","lat":43.27619,"lon":5.36106,"is_reserved":false,"is_disabled":false,"rental_uris":{"android":"levelo://app?vid=f15c7b2e-2f5a-4c38-8166-9501d32f99b8","ios":"levelo://app?vid=f15c7b2e-2f5a-4c38-8166-9501d32f99b8"},"vehicle_type_id":"4","last_reported":1729627793,"current_range_meters":14000,"station_id":"ce4bgj92rcd13ifvqbe0","pricing_plan_id":"cebpf4jnsgd1na2vs0mg"},{"bike_id":"0680767f-e110-45fb-a42a-11c8659b7297","system_id":"levelo_inurba_marseille","lat":43.3372,"lon":5.39181,"is_reserved":false,"is_disabled":false,"rental_uris":{"android":"levelo://app?vid=0680767f-e110-45fb-a42a-11c8659b7297","ios":"levelo://app?vid=0680767f-e110-45fb-a42a-11c8659b7297"},"vehicle_type_id":"4","last_reported":1729627793,"current_range_meters":36800,"station_id":"ce4bhr92rcd13ifvqhsg","pricing_plan_id":"cebpf4jnsgd1na2vs0mg"},{"bike_id":"cdba8dd9-10d6-4358-97ce-fe5c3999d55d","system_id":"levelo_inurba_marseille","lat":43.30357,"lon":5.41881,"is_reserved":false,"is_disabled":false,"rental_uris":{"android":"levelo://app?vid=cdba8dd9-10d6-4358-97ce-fe5c3999d55d","ios":"levelo://app?vid=cdba8dd9-10d6-4358-97ce-fe5c3999d55d"},"vehicle_type_id":"4","last_reported":1729627793,"current_range_meters":38800,"station_id":"ce4bhop2rcd13ifvqh7g","pricing_plan_id":"cebpf4jnsgd1na2vs0mg"},{"bike_id":"fd57e210-0cdc-4006-846d-96114f8f6035","system_id":"levelo_inurba_marseille","lat":43.26568,"lon":5.39006,"is_reserved":false,"is_disabled":false,"rental_uris":{"android":"levelo://app?vid=fd57e210-0cdc-4006-846d-96114f8f6035","ios":"levelo://app?vid=fd57e210-0cdc-4006-846d-96114f8f6035"},"vehicle_type_id":"4","last_reported":1729627793,"current_range_meters":18800,"station_id":"ce4bhe12rcd13ifvqf30","pricing_plan_id":"cebpf4jnsgd1na2vs0mg"},{"bike_id":"ed05b9e9-73ab-4a4b-a637-42f83b57141e","system_id":"levelo_inurba_marseille","lat":43.29218,"lon":5.36069,"is_reserved":false,"is_disabled":false,"rental_uris":{"android":"levelo://app?vid=ed05b9e9-73ab-4a4b-a637-42f83b57141e","ios":"levelo://app?vid=ed05b9e9-73ab-4a4b-a637-42f83b57141e"},"vehicle_type_id":"4","last_reported":1729627793,"current_range_meters":38800,"station_id":"ce4bhbh2rcd13ifvqeqg","pricing_plan_id":"cebpf4jnsgd1na2vs0mg"},{"bike_id":"6f31eb2f-c5b1-4a32-863b-2f1c4dab3d00","system_id":"levelo_inurba_marseille","lat":43.29079,"lon":5.37189,"is_reserved":false,"is_disabled":false,"rental_uris":{"android":"levelo://app?vid=6f31eb2f-c5b1-4a32-863b-2f1c4dab3d00","ios":"levelo://app?vid=6f31eb2f-c5b1-4a32-863b-2f1c4dab3d00"},"vehicle_type_id":"4","last_reported":1729627793,"current_range_meters":33600,"station_id":"ce4bh5p2rcd13ifvqe4g","pricing_plan_id":"cebpf4jnsgd1na2vs0mg"},{"bike_id":"31048178-3d90-4915-a347-3344f65390b5","system_id":"levelo_inurba_marseille","lat":43.31327,"lon":5.39694,"is_reserved":false,"is_disabled":false,"rental_uris":{"android":"levelo://app?vid=31048178-3d90-4915-a347-3344f65390b5","ios":"levelo://app?vid=31048178-3d90-4915-a347-3344f65390b5"},"vehicle_type_id":"4","last_reported":1729627793,"current_range_meters":12400,"station_id":"ce4bgvp2rcd13ifvqcu0","pricing_plan_id":"cebpf4jnsgd1na2vs0mg"},{"bike_id":"f8c9153a-d6b1-44f0-8fca-47821217ff1c","system_id":"levelo_inurba_marseille","lat":43.26568,"lon":5.39009,"is_reserved":false,"is_disabled":false,"rental_uris":{"android":"levelo://app?vid=f8c9153a-d6b1-44f0-8fca-47821217ff1c","ios":"levelo://app?vid=f8c9153a-d6b1-44f0-8fca-47821217ff1c"},"vehicle_type_id":"4","last_reported":1729627793,"current_range_meters":38800,"station_id":"ce4bhe12rcd13ifvqf30","pricing_plan_id":"cebpf4jnsgd1na2vs0mg"},{"bike_id":"6f3c99f6-25c2-4dd4-ba80-ca7e8e0ba65e","system_id":"levelo_inurba_marseille","lat":43.28155,"lon":5.42645,"is_reserved":false,"is_disabled":false,"rental_uris":{"android":"levelo://app?vid=6f3c99f6-25c2-4dd4-ba80-ca7e8e0ba65e","ios":"levelo://app?vid=6f3c99f6-25c2-4dd4-ba80-ca7e8e0ba65e"},"vehicle_type_id":"4","last_reported":1729627793,"current_range_meters":9600,"station_id":"ce4bhnh2rcd13ifvqgug","pricing_plan_id":"cebpf4jnsgd1na2vs0mg"},{"bike_id":"ddcad89d-c359-4519-9ad3-11ae4772aae7","system_id":"levelo_inurba_marseille","lat":43.28155,"lon":5.42647,"is_reserved":false,"is_disabled":false,"rental_uris":{"android":"levelo://app?vid=ddcad89d-c359-4519-9ad3-11ae4772aae7","ios":"levelo://app?vid=ddcad89d-c359-4519-9ad3-11ae4772aae7"},"vehicle_type_id":"4","last_reported":1729627793,"current_range_meters":14000,"station_id":"ce4bhnh2rcd13ifvqgug","pricing_plan_id":"cebpf4jnsgd1na2vs0mg"},{"bike_id":"6a61e043-6844-4c54-ae51-9a59243bab46","system_id":"levelo_inurba_marseille","lat":43.2942,"lon":5.38621,"is_reserved":false,"is_disabled":false,"rental_uris":{"android":"levelo://app?vid=6a61e043-6844-4c54-ae51-9a59243bab46","ios":"levelo://app?vid=6a61e043-6844-4c54-ae51-9a59243bab46"},"vehicle_type_id":"4","last_reported":1729627793,"current_range_meters":3200,"station_id":"ce4bh2h2rcd13ifvqdh0","pricing_plan_id":"cebpf4jnsgd1na2vs0mg"},{"bike_id":"75451e45-06fa-4b1d-a472-ca0a634ec2d2","system_id":"levelo_inurba_marseille","lat":43.296045,"lon":5.38142,"is_reserved":false,"is_disabled":false,"rental_uris":{"android":"levelo://app?vid=75451e45-06fa-4b1d-a472-ca0a634ec2d2","ios":"levelo://app?vid=75451e45-06fa-4b1d-a472-ca0a634ec2d2"},"vehicle_type_id":"4","last_reported":1729627793,"current_range_meters":36400,"station_id":"ce4bgl12rcd13ifvqbo0","pricing_plan_id":"cebpf4jnsgd1na2vs0mg"},{"bike_id":"01678755-0ad9-4bb7-8723-5a8d7c4420fc","system_id":"levelo_inurba_marseille","lat":43.28057,"lon":5.40987,"is_reserved":false,"is_disabled":false,"rental_uris":{"android":"levelo://app?vid=01678755-0ad9-4bb7-8723-5a8d7c4420fc","ios":"levelo://app?vid=01678755-0ad9-4bb7-8723-5a8d7c4420fc"},"vehicle_type_id":"4","last_reported":1729627793,"current_range_meters":18800,"station_id":"","pricing_plan_id":"cebpf4jnsgd1na2vs0mg"},{"bike_id":"2d207f30-84e6-4691-8de7-8ec08c29abfa","system_id":"levelo_inurba_marseille","lat":43.26496,"lon":5.39553,"is_reserved":false,"is_disabled":false,"rental_uris":{"android":"levelo://app?vid=2d207f30-84e6-4691-8de7-8ec08c29abfa","ios":"levelo://app?vid=2d207f30-84e6-4691-8de7-8ec08c29abfa"},"vehicle_type_id":"4","last_reported":1729627793,"current_range_meters":10800,"station_id":"ce4bhi12rcd13ifvqfq0","pricing_plan_id":"cebpf4jnsgd1na2vs0mg"},{"bike_id":"4a17de49-0eb0-4f62-b4f3-5313bdc17ba8","system_id":"levelo_inurba_marseille","lat":43.30644,"lon":5.40085,"is_reserved":false,"is_disabled":false,"rental_uris":{"android":"levelo://app?vid=4a17de49-0eb0-4f62-b4f3-5313bdc17ba8","ios":"levelo://app?vid=4a17de49-0eb0-4f62-b4f3-5313bdc17ba8"},"vehicle_type_id":"4","last_reported":1729627793,"current_range_meters":29600,"station_id":"ce4bh112rcd13ifvqda0","pricing_plan_id":"cebpf4jnsgd1na2vs0mg"},{"bike_id":"3dee495a-7a37-40c3-9d5a-0edc49499f73","system_id":"levelo_inurba_marseille","lat":43.27913,"lon":5.38006,"is_reserved":false,"is_disabled":false,"rental_uris":{"android":"levelo://app?vid=3dee495a-7a37-40c3-9d5a-0edc49499f73","ios":"levelo://app?vid=3dee495a-7a37-40c3-9d5a-0edc49499f73"},"vehicle_type_id":"4","last_reported":1729627793,"current_range_meters":29600,"station_id":"ce4bhf92rcd13ifvqf50","pricing_plan_id":"cebpf4jnsgd1na2vs0mg"},{"bike_id":"0d66885d-85c4-4297-beb3-a0057b8663cf","system_id":"levelo_inurba_marseille","lat":43.2439,"lon":5.3706,"is_reserved":false,"is_disabled":false,"rental_uris":{"android":"levelo://app?vid=0d66885d-85c4-4297-beb3-a0057b8663cf","ios":"levelo://app?vid=0d66885d-85c4-4297-beb3-a0057b8663cf"},"vehicle_type_id":"4","last_reported":1729627793,"current_range_meters":32400,"station_id":"ce4bhhh2rcd13ifvqfk0","pricing_plan_id":"cebpf4jnsgd1na2vs0mg"},{"bike_id":"dba43ce0-3039-474c-ba19-4117b90efe9a","system_id":"levelo_inurba_marseille","lat":43.30928,"lon":5.40136,"is_reserved":false,"is_disabled":false,"rental_uris":{"android":"levelo://app?vid=dba43ce0-3039-474c-ba19-4117b90efe9a","ios":"levelo://app?vid=dba43ce0-3039-474c-ba19-4117b90efe9a"},"vehicle_type_id":"4","last_reported":1729627793,"current_range_meters":38800,"station_id":"ce4bgvp2rcd13ifvqct0","pricing_plan_id":"cebpf4jnsgd1na2vs0mg"},{"bike_id":"e68074ff-f5e2-424b-ac9b-aa2b95174368","system_id":"levelo_inurba_marseille","lat":43.28163,"lon":5.42648,"is_reserved":false,"is_disabled":false,"rental_uris":{"android":"levelo://app?vid=e68074ff-f5e2-424b-ac9b-aa2b95174368","ios":"levelo://app?vid=e68074ff-f5e2-424b-ac9b-aa2b95174368"},"vehicle_type_id":"4","last_reported":1729627793,"current_range_meters":28800,"station_id":"ce4bhnh2rcd13ifvqgug","pricing_plan_id":"cebpf4jnsgd1na2vs0mg"},{"bike_id":"735a2476-fda6-486b-84ef-88a4c55ff9ea","system_id":"levelo_inurba_marseille","lat":43.28672,"lon":5.36348,"is_reserved":false,"is_disabled":false,"rental_uris":{"android":"levelo://app?vid=735a2476-fda6-486b-84ef-88a4c55ff9ea","ios":"levelo://app?vid=735a2476-fda6-486b-84ef-88a4c55ff9ea"},"vehicle_type_id":"4","last_reported":1729627793,"current_range_meters":2800,"station_id":"ce4bhah2rcd13ifvqej0","pricing_plan_id":"cebpf4jnsgd1na2vs0mg"},{"bike_id":"815dd284-1bd2-4bb9-992a-b2116e2485bc","system_id":"levelo_inurba_marseille","lat":43.32898,"lon":5.36419,"is_reserved":false,"is_disabled":false,"rental_uris":{"android":"levelo://app?vid=815dd284-1bd2-4bb9-992a-b2116e2485bc","ios":"levelo://app?vid=815dd284-1bd2-4bb9-992a-b2116e2485bc"},"vehicle_type_id":"4","last_reported":1729627793,"current_range_meters":32400,"station_id":"","pricing_plan_id":"cebpf4jnsgd1na2vs0mg"},{"bike_id":"470a6ebe-193c-4df5-89dc-4c0d25de3ba7","system_id":"levelo_inurba_marseille","lat":43.26061,"lon":5.39398,"is_reserved":false,"is_disabled":false,"rental_uris":{"android":"levelo://app?vid=470a6ebe-193c-4df5-89dc-4c0d25de3ba7","ios":"levelo://app?vid=470a6ebe-193c-4df5-89dc-4c0d25de3ba7"},"vehicle_type_id":"4","last_reported":1729627793,"current_range_meters":28800,"station_id":"ce4bhh92rcd13ifvqfj0","pricing_plan_id":"cebpf4jnsgd1na2vs0mg"},{"bike_id":"9ff64a80-fbeb-434b-b02d-660129a509df","system_id":"levelo_inurba_marseille","lat":43.28417,"lon":5.37519,"is_reserved":false,"is_disabled":false,"rental_uris":{"android":"levelo://app?vid=9ff64a80-fbeb-434b-b02d-660129a509df","ios":"levelo://app?vid=9ff64a80-fbeb-434b-b02d-660129a509df"},"vehicle_type_id":"4","last_reported":1729627793,"current_range_meters":22400,"station_id":"ce4bh412rcd13ifvqds0","pricing_plan_id":"cebpf4jnsgd1na2vs0mg"},{"bike_id":"acb36a29-22aa-4701-9b5c-d9722d9bf3d5","system_id":"levelo_inurba_marseille","lat":43.29165,"lon":5.37152,"is_reserved":false,"is_disabled":false,"rental_uris":{"android":"levelo://app?vid=acb36a29-22aa-4701-9b5c-d9722d9bf3d5","ios":"levelo://app?vid=acb36a29-22aa-4701-9b5c-d9722d9bf3d5"},"vehicle_type_id":"4","last_reported":1729627793,"current_range_meters":28400,"station_id":"ce4bha92rcd13ifvqeh0","pricing_plan_id":"cebpf4jnsgd1na2vs0mg"},{"bike_id":"aef67d90-fb66-4a24-a171-792dc284aadd","system_id":"levelo_inurba_marseille","lat":43.29254,"lon":5.38447,"is_reserved":false,"is_disabled":false,"rental_uris":{"android":"levelo://app?vid=aef67d90-fb66-4a24-a171-792dc284aadd","ios":"levelo://app?vid=aef67d90-fb66-4a24-a171-792dc284aadd"},"vehicle_type_id":"4","last_reported":1729627793,"current_range_meters":24000,"station_id":"ce4bh692rcd13ifvqea0","pricing_plan_id":"cebpf4jnsgd1na2vs0mg"},{"bike_id":"b9df37ba-aab5-49c4-9fbf-c4ef039ca7cd","system_id":"levelo_inurba_marseille","lat":43.28719,"lon":5.37926,"is_reserved":false,"is_disabled":false,"rental_uris":{"android":"levelo://app?vid=b9df37ba-aab5-49c4-9fbf-c4ef039ca7cd","ios":"levelo://app?vid=b9df37ba-aab5-49c4-9fbf-c4ef039ca7cd"},"vehicle_type_id":"4","last_reported":1729627793,"current_range_meters":4400,"station_id":"ce4bh9p2rcd13ifvqec0","pricing_plan_id":"cebpf4jnsgd1na2vs0mg"},{"bike_id":"70f5c988-d736-45a0-9b49-4ca642435bb6","system_id":"levelo_inurba_marseille","lat":43.24165,"lon":5.36397,"is_reserved":false,"is_disabled":false,"rental_uris":{"android":"levelo://app?vid=70f5c988-d736-45a0-9b49-4ca642435bb6","ios":"levelo://app?vid=70f5c988-d736-45a0-9b49-4ca642435bb6"},"vehicle_type_id":"4","last_reported":1729627793,"current_range_meters":16800,"station_id":"cpo36qri1sfpv3e86is0","pricing_plan_id":"cebpf4jnsgd1na2vs0mg"},{"bike_id":"a0545925-3b6d-4434-845b-340010e89217","system_id":"levelo_inurba_marseille","lat":43.3302,"lon":5.39043,"is_reserved":false,"is_disabled":false,"rental_uris":{"android":"levelo://app?vid=a0545925-3b6d-4434-845b-340010e89217","ios":"levelo://app?vid=a0545925-3b6d-4434-845b-340010e89217"},"vehicle_type_id":"4","last_reported":1729627793,"current_range_meters":8400,"station_id":"ce4bhr92rcd13ifvqhrg","pricing_plan_id":"cebpf4jnsgd1na2vs0mg"},{"bike_id":"71125d69-6092-4bd9-b296-71b89dba951c","system_id":"levelo_inurba_marseille","lat":43.29254,"lon":5.38433,"is_reserved":false,"is_disabled":false,"rental_uris":{"android":"levelo://app?vid=71125d69-6092-4bd9-b296-71b89dba951c","ios":"levelo://app?vid=71125d69-6092-4bd9-b296-71b89dba951c"},"vehicle_type_id":"4","last_reported":1729627793,"current_range_meters":22400,"station_id":"ce4bh692rcd13ifvqea0","pricing_plan_id":"cebpf4jnsgd1na2vs0mg"},{"bike_id":"ce26414e-cf4f-4228-969f-0f32a95f8de8","system_id":"levelo_inurba_marseille","lat":43.28026,"lon":5.34992,"is_reserved":false,"is_disabled":false,"rental_uris":{"android":"levelo://app?vid=ce26414e-cf4f-4228-969f-0f32a95f8de8","ios":"levelo://app?vid=ce26414e-cf4f-4228-969f-0f32a95f8de8"},"vehicle_type_id":"4","last_reported":1729627793,"current_range_meters":24800,"station_id":"","pricing_plan_id":"cebpf4jnsgd1na2vs0mg"},{"bike_id":"5469166b-9fe2-448b-90c4-0c533e0a8586","system_id":"levelo_inurba_marseille","lat":43.29871,"lon":5.3973,"is_reserved":false,"is_disabled":false,"rental_uris":{"android":"levelo://app?vid=5469166b-9fe2-448b-90c4-0c533e0a8586","ios":"levelo://app?vid=5469166b-9fe2-448b-90c4-0c533e0a8586"},"vehicle_type_id":"4","last_reported":1729627793,"current_range_meters":13600,"station_id":"ce4bh0h2rcd13ifvqd50","pricing_plan_id":"cebpf4jnsgd1na2vs0mg"},{"bike_id":"6d814cc5-b6da-4861-9958-ff211bf32b7f","system_id":"levelo_inurba_marseille","lat":43.28448,"lon":5.39203,"is_reserved":false,"is_disabled":false,"rental_uris":{"android":"levelo://app?vid=6d814cc5-b6da-4861-9958-ff211bf32b7f","ios":"levelo://app?vid=6d814cc5-b6da-4861-9958-ff211bf32b7f"},"vehicle_type_id":"4","last_reported":1729627793,"current_range_meters":38000,"station_id":"ce4bhoh2rcd13ifvqh5g","pricing_plan_id":"cebpf4jnsgd1na2vs0mg"},{"bike_id":"e417ec6a-fcfb-4d19-9a8c-0a1c8832d2b6","system_id":"levelo_inurba_marseille","lat":43.298584,"lon":5.389498,"is_reserved":false,"is_disabled":false,"rental_uris":{"android":"levelo://app?vid=e417ec6a-fcfb-4d19-9a8c-0a1c8832d2b6","ios":"levelo://app?vid=e417ec6a-fcfb-4d19-9a8c-0a1c8832d2b6"},"vehicle_type_id":"4","last_reported":1729627793,"current_range_meters":30000,"station_id":"ce4bguh2rcd13ifvqcj0","pricing_plan_id":"cebpf4jnsgd1na2vs0mg"},{"bike_id":"cb4bec8b-fb72-42dd-8fc2-805b56b81d01","system_id":"levelo_inurba_marseille","lat":43.29262,"lon":5.38435,"is_reserved":false,"is_disabled":false,"rental_uris":{"android":"levelo://app?vid=cb4bec8b-fb72-42dd-8fc2-805b56b81d01","ios":"levelo://app?vid=cb4bec8b-fb72-42dd-8fc2-805b56b81d01"},"vehicle_type_id":"4","last_reported":1729627793,"current_range_meters":36400,"station_id":"ce4bh692rcd13ifvqea0","pricing_plan_id":"cebpf4jnsgd1na2vs0mg"},{"bike_id":"c0de3324-f0f6-483f-b2d5-cd9a86b7d182","system_id":"levelo_inurba_marseille","lat":43.29026,"lon":5.38628,"is_reserved":false,"is_disabled":false,"rental_uris":{"android":"levelo://app?vid=c0de3324-f0f6-483f-b2d5-cd9a86b7d182","ios":"levelo://app?vid=c0de3324-f0f6-483f-b2d5-cd9a86b7d182"},"vehicle_type_id":"4","last_reported":1729627793,"current_range_meters":28400,"station_id":"ce4bh4p2rcd13ifvqe0g","pricing_plan_id":"cebpf4jnsgd1na2vs0mg"},{"bike_id":"aa84749f-cb50-4f93-bc3e-08747104e53d","system_id":"levelo_inurba_marseille","lat":43.2572,"lon":5.41113,"is_reserved":false,"is_disabled":false,"rental_uris":{"android":"levelo://app?vid=aa84749f-cb50-4f93-bc3e-08747104e53d","ios":"levelo://app?vid=aa84749f-cb50-4f93-bc3e-08747104e53d"},"vehicle_type_id":"4","last_reported":1729627793,"current_range_meters":12800,"station_id":"ce4bhkp2rcd13ifvqgd0","pricing_plan_id":"cebpf4jnsgd1na2vs0mg"},{"bike_id":"4f501e24-a81b-439b-bee5-1331d6a67973","system_id":"levelo_inurba_marseille","lat":43.30786,"lon":5.37641,"is_reserved":false,"is_disabled":false,"rental_uris":{"android":"levelo://app?vid=4f501e24-a81b-439b-bee5-1331d6a67973","ios":"levelo://app?vid=4f501e24-a81b-439b-bee5-1331d6a67973"},"vehicle_type_id":"4","last_reported":1729627793,"current_range_meters":14000,"station_id":"ce4bgv92rcd13ifvqcq0","pricing_plan_id":"cebpf4jnsgd1na2vs0mg"},{"bike_id":"1a3c9138-17c8-43f8-9a64-311532aac8c0","system_id":"levelo_inurba_marseille","lat":43.28696,"lon":5.37377,"is_reserved":false,"is_disabled":false,"rental_uris":{"android":"levelo://app?vid=1a3c9138-17c8-43f8-9a64-311532aac8c0","ios":"levelo://app?vid=1a3c9138-17c8-43f8-9a64-311532aac8c0"},"vehicle_type_id":"4","last_reported":1729627793,"current_range_meters":38800,"station_id":"ce4bh3p2rcd13ifvqdq0","pricing_plan_id":"cebpf4jnsgd1na2vs0mg"},{"bike_id":"b09c3247-e160-4c54-80ad-92e408b100b1","system_id":"levelo_inurba_marseille","lat":43.295545,"lon":5.422938,"is_reserved":false,"is_disabled":false,"rental_uris":{"android":"levelo://app?vid=b09c3247-e160-4c54-80ad-92e408b100b1","ios":"levelo://app?vid=b09c3247-e160-4c54-80ad-92e408b100b1"},"vehicle_type_id":"4","last_reported":1729627793,"current_range_meters":33200,"station_id":"ce4bhhh2rcd13ifvqfl0","pricing_plan_id":"cebpf4jnsgd1na2vs0mg"},{"bike_id":"6fbd6335-d27c-478e-8240-0b255a553481","system_id":"levelo_inurba_marseille","lat":43.31324,"lon":5.39694,"is_reserved":false,"is_disabled":false,"rental_uris":{"android":"levelo://app?vid=6fbd6335-d27c-478e-8240-0b255a553481","ios":"levelo://app?vid=6fbd6335-d27c-478e-8240-0b255a553481"},"vehicle_type_id":"4","last_reported":1729627793,"current_range_meters":38000,"station_id":"ce4bgvp2rcd13ifvqcu0","pricing_plan_id":"cebpf4jnsgd1na2vs0mg"},{"bike_id":"22fc431c-b57c-465f-994e-166d81585d45","system_id":"levelo_inurba_marseille","lat":43.23967,"lon":5.36633,"is_reserved":false,"is_disabled":false,"rental_uris":{"android":"levelo://app?vid=22fc431c-b57c-465f-994e-166d81585d45","ios":"levelo://app?vid=22fc431c-b57c-465f-994e-166d81585d45"},"vehicle_type_id":"4","last_reported":1729627793,"current_range_meters":38800,"station_id":"ce4bhi12rcd13ifvqfp0","pricing_plan_id":"cebpf4jnsgd1na2vs0mg"},{"bike_id":"0290ab5a-42d3-4476-9fc4-3caaf6899b72","system_id":"levelo_inurba_marseille","lat":43.298741,"lon":5.397358,"is_reserved":false,"is_disabled":false,"rental_uris":{"android":"levelo://app?vid=0290ab5a-42d3-4476-9fc4-3caaf6899b72","ios":"levelo://app?vid=0290ab5a-42d3-4476-9fc4-3caaf6899b72"},"vehicle_type_id":"4","last_reported":1729627793,"current_range_meters":30800,"station_id":"ce4bh0h2rcd13ifvqd50","pricing_plan_id":"cebpf4jnsgd1na2vs0mg"},{"bike_id":"f801a972-c648-424a-a7e1-9d8a4bf001b1","system_id":"levelo_inurba_marseille","lat":43.2804,"lon":5.36945,"is_reserved":false,"is_disabled":false,"rental_uris":{"android":"levelo://app?vid=f801a972-c648-424a-a7e1-9d8a4bf001b1","ios":"levelo://app?vid=f801a972-c648-424a-a7e1-9d8a4bf001b1"},"vehicle_type_id":"4","last_reported":1729627793,"current_range_meters":37600,"station_id":"ce4bha12rcd13ifvqef0","pricing_plan_id":"cebpf4jnsgd1na2vs0mg"},{"bike_id":"5387aaff-7cb7-41eb-8887-7f8623019596","system_id":"levelo_inurba_marseille","lat":43.29574,"lon":5.37516,"is_reserved":false,"is_disabled":false,"rental_uris":{"android":"levelo://app?vid=5387aaff-7cb7-41eb-8887-7f8623019596","ios":"levelo://app?vid=5387aaff-7cb7-41eb-8887-7f8623019596"},"vehicle_type_id":"4","last_reported":1729627793,"current_range_meters":38000,"station_id":"ce4bgh92rcd13ifvqb50","pricing_plan_id":"cebpf4jnsgd1na2vs0mg"},{"bike_id":"2cdf5722-0992-422b-b8c9-f0bdbeea1331","system_id":"levelo_inurba_marseille","lat":43.27069,"lon":5.42283,"is_reserved":false,"is_disabled":false,"rental_uris":{"android":"levelo://app?vid=2cdf5722-0992-422b-b8c9-f0bdbeea1331","ios":"levelo://app?vid=2cdf5722-0992-422b-b8c9-f0bdbeea1331"},"vehicle_type_id":"4","last_reported":1729627793,"current_range_meters":19600,"station_id":"ce4bhk92rcd13ifvqgb0","pricing_plan_id":"cebpf4jnsgd1na2vs0mg"},{"bike_id":"e90c1642-b722-4c71-b722-58c9d55db734","system_id":"levelo_inurba_marseille","lat":43.293669,"lon":5.378495,"is_reserved":false,"is_disabled":false,"rental_uris":{"android":"levelo://app?vid=e90c1642-b722-4c71-b722-58c9d55db734","ios":"levelo://app?vid=e90c1642-b722-4c71-b722-58c9d55db734"},"vehicle_type_id":"4","last_reported":1729627793,"current_range_meters":38800,"station_id":"ce4bgjh2rcd13ifvqbf0","pricing_plan_id":"cebpf4jnsgd1na2vs0mg"},{"bike_id":"0f8fcea2-a548-4eec-88b1-83ebcf53f1a8","system_id":"levelo_inurba_marseille","lat":43.3229,"lon":5.38277,"is_reserved":false,"is_disabled":false,"rental_uris":{"android":"levelo://app?vid=0f8fcea2-a548-4eec-88b1-83ebcf53f1a8","ios":"levelo://app?vid=0f8fcea2-a548-4eec-88b1-83ebcf53f1a8"},"vehicle_type_id":"4","last_reported":1729627793,"current_range_meters":38800,"station_id":"ce4bhr12rcd13ifvqhqg","pricing_plan_id":"cebpf4jnsgd1na2vs0mg"},{"bike_id":"eb8c6b6e-bb21-4f04-a446-f4b91dda3639","system_id":"levelo_inurba_marseille","lat":43.30212,"lon":5.39463,"is_reserved":false,"is_disabled":false,"rental_uris":{"android":"levelo://app?vid=eb8c6b6e-bb21-4f04-a446-f4b91dda3639","ios":"levelo://app?vid=eb8c6b6e-bb21-4f04-a446-f4b91dda3639"},"vehicle_type_id":"4","last_reported":1729627793,"current_range_meters":38800,"station_id":"ce4bh0p2rcd13ifvqd70","pricing_plan_id":"cebpf4jnsgd1na2vs0mg"},{"bike_id":"a99b3a9f-0afd-4af6-9163-267bf4b88d1e","system_id":"levelo_inurba_marseille","lat":43.28453,"lon":5.35884,"is_reserved":false,"is_disabled":false,"rental_uris":{"android":"levelo://app?vid=a99b3a9f-0afd-4af6-9163-267bf4b88d1e","ios":"levelo://app?vid=a99b3a9f-0afd-4af6-9163-267bf4b88d1e"},"vehicle_type_id":"4","last_reported":1729627793,"current_range_meters":27600,"station_id":"ce4bhah2rcd13ifvqei0","pricing_plan_id":"cebpf4jnsgd1na2vs0mg"},{"bike_id":"445d51d6-6564-4e9b-81cb-2c4342f0402f","system_id":"levelo_inurba_marseille","lat":43.311322,"lon":5.377503,"is_reserved":false,"is_disabled":false,"rental_uris":{"android":"levelo://app?vid=445d51d6-6564-4e9b-81cb-2c4342f0402f","ios":"levelo://app?vid=445d51d6-6564-4e9b-81cb-2c4342f0402f"},"vehicle_type_id":"4","last_reported":1729627793,"current_range_meters":38000,"station_id":"ce4bgt92rcd13ifvqcg0","pricing_plan_id":"cebpf4jnsgd1na2vs0mg"},{"bike_id":"9c6b26bc-ebdf-464a-b181-048a83982672","system_id":"levelo_inurba_marseille","lat":43.30103,"lon":5.39082,"is_reserved":false,"is_disabled":false,"rental_uris":{"android":"levelo://app?vid=9c6b26bc-ebdf-464a-b181-048a83982672","ios":"levelo://app?vid=9c6b26bc-ebdf-464a-b181-048a83982672"},"vehicle_type_id":"4","last_reported":1729627793,"current_range_meters":9200,"station_id":"ce4bh192rcd13ifvqdb0","pricing_plan_id":"cebpf4jnsgd1na2vs0mg"},{"bike_id":"2b80f943-bf35-49c7-9584-ea1845fd1d05","system_id":"levelo_inurba_marseille","lat":43.23191,"lon":5.3555,"is_reserved":false,"is_disabled":false,"rental_uris":{"android":"levelo://app?vid=2b80f943-bf35-49c7-9584-ea1845fd1d05","ios":"levelo://app?vid=2b80f943-bf35-49c7-9584-ea1845fd1d05"},"vehicle_type_id":"4","last_reported":1729627793,"current_range_meters":8400,"station_id":"ce4bhu92rcd13ifvqi70","pricing_plan_id":"cebpf4jnsgd1na2vs0mg"},{"bike_id":"d4be358b-41a1-4e5d-a11f-e010c6bddcd5","system_id":"levelo_inurba_marseille","lat":43.23192,"lon":5.35554,"is_reserved":false,"is_disabled":false,"rental_uris":{"android":"levelo://app?vid=d4be358b-41a1-4e5d-a11f-e010c6bddcd5","ios":"levelo://app?vid=d4be358b-41a1-4e5d-a11f-e010c6bddcd5"},"vehicle_type_id":"4","last_reported":1729627793,"current_range_meters":30800,"station_id":"ce4bhu92rcd13ifvqi70","pricing_plan_id":"cebpf4jnsgd1na2vs0mg"},{"bike_id":"5da38c6c-7954-4a76-8b1f-8b7cd914f187","system_id":"levelo_inurba_marseille","lat":43.27904,"lon":5.41223,"is_reserved":false,"is_disabled":false,"rental_uris":{"android":"levelo://app?vid=5da38c6c-7954-4a76-8b1f-8b7cd914f187","ios":"levelo://app?vid=5da38c6c-7954-4a76-8b1f-8b7cd914f187"},"vehicle_type_id":"4","last_reported":1729627793,"current_range_meters":18000,"station_id":"","pricing_plan_id":"cebpf4jnsgd1na2vs0mg"},{"bike_id":"079ade22-63ad-41e4-b7fe-6ea22f1b859a","system_id":"levelo_inurba_marseille","lat":43.24389,"lon":5.37054,"is_reserved":false,"is_disabled":false,"rental_uris":{"android":"levelo://app?vid=079ade22-63ad-41e4-b7fe-6ea22f1b859a","ios":"levelo://app?vid=079ade22-63ad-41e4-b7fe-6ea22f1b859a"},"vehicle_type_id":"4","last_reported":1729627793,"current_range_meters":38800,"station_id":"ce4bhhh2rcd13ifvqfk0","pricing_plan_id":"cebpf4jnsgd1na2vs0mg"},{"bike_id":"250ac974-4810-406d-9164-349ff4ee0953","system_id":"levelo_inurba_marseille","lat":43.25866,"lon":5.39899,"is_reserved":false,"is_disabled":false,"rental_uris":{"android":"levelo://app?vid=250ac974-4810-406d-9164-349ff4ee0953","ios":"levelo://app?vid=250ac974-4810-406d-9164-349ff4ee0953"},"vehicle_type_id":"4","last_reported":1729627793,"current_range_meters":8000,"station_id":"ce4bhl92rcd13ifvqghg","pricing_plan_id":"cebpf4jnsgd1na2vs0mg"},{"bike_id":"2d4ff5c6-bc0a-4664-96b8-ac576b4ff02c","system_id":"levelo_inurba_marseille","lat":43.29913,"lon":5.37477,"is_reserved":false,"is_disabled":false,"rental_uris":{"android":"levelo://app?vid=2d4ff5c6-bc0a-4664-96b8-ac576b4ff02c","ios":"levelo://app?vid=2d4ff5c6-bc0a-4664-96b8-ac576b4ff02c"},"vehicle_type_id":"4","last_reported":1729627793,"current_range_meters":38800,"station_id":"ce4bgjh2rcd13ifvqbg0","pricing_plan_id":"cebpf4jnsgd1na2vs0mg"},{"bike_id":"669bf473-ea4a-4c7d-acc6-14a612b65c49","system_id":"levelo_inurba_marseille","lat":43.30886,"lon":5.39632,"is_reserved":false,"is_disabled":false,"rental_uris":{"android":"levelo://app?vid=669bf473-ea4a-4c7d-acc6-14a612b65c49","ios":"levelo://app?vid=669bf473-ea4a-4c7d-acc6-14a612b65c49"},"vehicle_type_id":"4","last_reported":1729627793,"current_range_meters":38800,"station_id":"ce4bh012rcd13ifvqcv0","pricing_plan_id":"cebpf4jnsgd1na2vs0mg"},{"bike_id":"8b3fb690-85c6-4703-86e3-f27a8f80559c","system_id":"levelo_inurba_marseille","lat":43.27366,"lon":5.36257,"is_reserved":false,"is_disabled":false,"rental_uris":{"android":"levelo://app?vid=8b3fb690-85c6-4703-86e3-f27a8f80559c","ios":"levelo://app?vid=8b3fb690-85c6-4703-86e3-f27a8f80559c"},"vehicle_type_id":"4","last_reported":1729627793,"current_range_meters":16800,"station_id":"ce4bhbh2rcd13ifvqeo0","pricing_plan_id":"cebpf4jnsgd1na2vs0mg"},{"bike_id":"7da9d9f0-d727-48e4-a79c-d492a6edfc26","system_id":"levelo_inurba_marseille","lat":43.28412,"lon":5.37518,"is_reserved":false,"is_disabled":false,"rental_uris":{"android":"levelo://app?vid=7da9d9f0-d727-48e4-a79c-d492a6edfc26","ios":"levelo://app?vid=7da9d9f0-d727-48e4-a79c-d492a6edfc26"},"vehicle_type_id":"4","last_reported":1729627793,"current_range_meters":8000,"station_id":"ce4bh412rcd13ifvqds0","pricing_plan_id":"cebpf4jnsgd1na2vs0mg"},{"bike_id":"627c6540-d7df-46a3-8354-a24156ff4b61","system_id":"levelo_inurba_marseille","lat":43.30136,"lon":5.39874,"is_reserved":false,"is_disabled":false,"rental_uris":{"android":"levelo://app?vid=627c6540-d7df-46a3-8354-a24156ff4b61","ios":"levelo://app?vid=627c6540-d7df-46a3-8354-a24156ff4b61"},"vehicle_type_id":"4","last_reported":1729627793,"current_range_meters":38400,"station_id":"ce4bh0h2rcd13ifvqd40","pricing_plan_id":"cebpf4jnsgd1na2vs0mg"},{"bike_id":"9200f059-e673-4c15-ac4f-15fe74d24d34","system_id":"levelo_inurba_marseille","lat":43.32297,"lon":5.38265,"is_reserved":false,"is_disabled":false,"rental_uris":{"android":"levelo://app?vid=9200f059-e673-4c15-ac4f-15fe74d24d34","ios":"levelo://app?vid=9200f059-e673-4c15-ac4f-15fe74d24d34"},"vehicle_type_id":"4","last_reported":1729627793,"current_range_meters":16400,"station_id":"ce4bhr12rcd13ifvqhqg","pricing_plan_id":"cebpf4jnsgd1na2vs0mg"},{"bike_id":"effd493f-7d8d-4496-b9e2-7aed031af36f","system_id":"levelo_inurba_marseille","lat":43.29412,"lon":5.38634,"is_reserved":false,"is_disabled":false,"rental_uris":{"android":"levelo://app?vid=effd493f-7d8d-4496-b9e2-7aed031af36f","ios":"levelo://app?vid=effd493f-7d8d-4496-b9e2-7aed031af36f"},"vehicle_type_id":"4","last_reported":1729627793,"current_range_meters":12400,"station_id":"ce4bh2h2rcd13ifvqdh0","pricing_plan_id":"cebpf4jnsgd1na2vs0mg"},{"bike_id":"2e824d1b-e254-4975-aa24-0af4b3cfad3d","system_id":"levelo_inurba_marseille","lat":43.281067,"lon":5.378359,"is_reserved":false,"is_disabled":false,"rental_uris":{"android":"levelo://app?vid=2e824d1b-e254-4975-aa24-0af4b3cfad3d","ios":"levelo://app?vid=2e824d1b-e254-4975-aa24-0af4b3cfad3d"},"vehicle_type_id":"4","last_reported":1729627793,"current_range_meters":8000,"station_id":"ce4bha12rcd13ifvqee0","pricing_plan_id":"cebpf4jnsgd1na2vs0mg"},{"bike_id":"f677f8b2-f42c-4eea-837b-195a15132d93","system_id":"levelo_inurba_marseille","lat":43.31754,"lon":5.39019,"is_reserved":false,"is_disabled":false,"rental_uris":{"android":"levelo://app?vid=f677f8b2-f42c-4eea-837b-195a15132d93","ios":"levelo://app?vid=f677f8b2-f42c-4eea-837b-195a15132d93"},"vehicle_type_id":"4","last_reported":1729627793,"current_range_meters":4000,"station_id":"ce4bhqp2rcd13ifvqhng","pricing_plan_id":"cebpf4jnsgd1na2vs0mg"},{"bike_id":"a75a3609-f31f-4624-81d4-7bc2dbfedcb7","system_id":"levelo_inurba_marseille","lat":43.29871,"lon":5.39727,"is_reserved":false,"is_disabled":false,"rental_uris":{"android":"levelo://app?vid=a75a3609-f31f-4624-81d4-7bc2dbfedcb7","ios":"levelo://app?vid=a75a3609-f31f-4624-81d4-7bc2dbfedcb7"},"vehicle_type_id":"4","last_reported":1729627793,"current_range_meters":32800,"station_id":"ce4bh0h2rcd13ifvqd50","pricing_plan_id":"cebpf4jnsgd1na2vs0mg"},{"bike_id":"f1720f56-fc53-460f-9452-3135857c1f39","system_id":"levelo_inurba_marseille","lat":43.28654,"lon":5.36352,"is_reserved":false,"is_disabled":false,"rental_uris":{"android":"levelo://app?vid=f1720f56-fc53-460f-9452-3135857c1f39","ios":"levelo://app?vid=f1720f56-fc53-460f-9452-3135857c1f39"},"vehicle_type_id":"4","last_reported":1729627793,"current_range_meters":17600,"station_id":"ce4bhah2rcd13ifvqej0","pricing_plan_id":"cebpf4jnsgd1na2vs0mg"},{"bike_id":"6abf20b2-d215-44b7-97e5-29c241109097","system_id":"levelo_inurba_marseille","lat":43.26939,"lon":5.40253,"is_reserved":false,"is_disabled":false,"rental_uris":{"android":"levelo://app?vid=6abf20b2-d215-44b7-97e5-29c241109097","ios":"levelo://app?vid=6abf20b2-d215-44b7-97e5-29c241109097"},"vehicle_type_id":"4","last_reported":1729627793,"current_range_meters":9200,"station_id":"cjm6bp8fraef2m0cb0m0","pricing_plan_id":"cebpf4jnsgd1na2vs0mg"},{"bike_id":"c2632a56-eb49-4576-89f2-24ffcb35cebd","system_id":"levelo_inurba_marseille","lat":43.26998,"lon":5.3657,"is_reserved":false,"is_disabled":false,"rental_uris":{"android":"levelo://app?vid=c2632a56-eb49-4576-89f2-24ffcb35cebd","ios":"levelo://app?vid=c2632a56-eb49-4576-89f2-24ffcb35cebd"},"vehicle_type_id":"4","last_reported":1729627793,"current_range_meters":30000,"station_id":"","pricing_plan_id":"cebpf4jnsgd1na2vs0mg"},{"bike_id":"1b2938f5-6022-42e3-8759-190207d01f72","system_id":"levelo_inurba_marseille","lat":43.28102,"lon":5.37842,"is_reserved":false,"is_disabled":false,"rental_uris":{"android":"levelo://app?vid=1b2938f5-6022-42e3-8759-190207d01f72","ios":"levelo://app?vid=1b2938f5-6022-42e3-8759-190207d01f72"},"vehicle_type_id":"4","last_reported":1729627793,"current_range_meters":38400,"station_id":"ce4bha12rcd13ifvqee0","pricing_plan_id":"cebpf4jnsgd1na2vs0mg"},{"bike_id":"d3d13885-3855-4129-a307-e147ecd1cb7e","system_id":"levelo_inurba_marseille","lat":43.28865,"lon":5.35857,"is_reserved":false,"is_disabled":false,"rental_uris":{"android":"levelo://app?vid=d3d13885-3855-4129-a307-e147ecd1cb7e","ios":"levelo://app?vid=d3d13885-3855-4129-a307-e147ecd1cb7e"},"vehicle_type_id":"4","last_reported":1729627793,"current_range_meters":12800,"station_id":"ce4bhb12rcd13ifvqem0","pricing_plan_id":"cebpf4jnsgd1na2vs0mg"},{"bike_id":"782f01be-d27b-4c35-9cad-865bcdcf8b16","system_id":"levelo_inurba_marseille","lat":43.31171,"lon":5.38718,"is_reserved":false,"is_disabled":false,"rental_uris":{"android":"levelo://app?vid=782f01be-d27b-4c35-9cad-865bcdcf8b16","ios":"levelo://app?vid=782f01be-d27b-4c35-9cad-865bcdcf8b16"},"vehicle_type_id":"4","last_reported":1729627793,"current_range_meters":9200,"station_id":"ce4bgv12rcd13ifvqcp0","pricing_plan_id":"cebpf4jnsgd1na2vs0mg"},{"bike_id":"a7d17c5e-fa4e-4389-8c32-1b0d87b0877a","system_id":"levelo_inurba_marseille","lat":43.28101,"lon":5.40636,"is_reserved":false,"is_disabled":false,"rental_uris":{"android":"levelo://app?vid=a7d17c5e-fa4e-4389-8c32-1b0d87b0877a","ios":"levelo://app?vid=a7d17c5e-fa4e-4389-8c32-1b0d87b0877a"},"vehicle_type_id":"4","last_reported":1729627793,"current_range_meters":8800,"station_id":"","pricing_plan_id":"cebpf4jnsgd1na2vs0mg"},{"bike_id":"de5cb5b1-341d-40ee-83bc-4dca5819292d","system_id":"levelo_inurba_marseille","lat":43.30938,"lon":5.40142,"is_reserved":false,"is_disabled":false,"rental_uris":{"android":"levelo://app?vid=de5cb5b1-341d-40ee-83bc-4dca5819292d","ios":"levelo://app?vid=de5cb5b1-341d-40ee-83bc-4dca5819292d"},"vehicle_type_id":"4","last_reported":1729627793,"current_range_meters":4400,"station_id":"ce4bgvp2rcd13ifvqct0","pricing_plan_id":"cebpf4jnsgd1na2vs0mg"},{"bike_id":"f81397e9-332a-4e70-b4c4-245849512d52","system_id":"levelo_inurba_marseille","lat":43.30887,"lon":5.39639,"is_reserved":false,"is_disabled":false,"rental_uris":{"android":"levelo://app?vid=f81397e9-332a-4e70-b4c4-245849512d52","ios":"levelo://app?vid=f81397e9-332a-4e70-b4c4-245849512d52"},"vehicle_type_id":"4","last_reported":1729627793,"current_range_meters":36800,"station_id":"ce4bh012rcd13ifvqcv0","pricing_plan_id":"cebpf4jnsgd1na2vs0mg"},{"bike_id":"df6a7230-1222-4a82-9956-f05fad1a23f8","system_id":"levelo_inurba_marseille","lat":43.31067,"lon":5.40094,"is_reserved":false,"is_disabled":false,"rental_uris":{"android":"levelo://app?vid=df6a7230-1222-4a82-9956-f05fad1a23f8","ios":"levelo://app?vid=df6a7230-1222-4a82-9956-f05fad1a23f8"},"vehicle_type_id":"4","last_reported":1729627793,"current_range_meters":20400,"station_id":"","pricing_plan_id":"cebpf4jnsgd1na2vs0mg"},{"bike_id":"86105bb4-9510-4117-a6bf-f88211e1b70c","system_id":"levelo_inurba_marseille","lat":43.2942,"lon":5.38622,"is_reserved":false,"is_disabled":false,"rental_uris":{"android":"levelo://app?vid=86105bb4-9510-4117-a6bf-f88211e1b70c","ios":"levelo://app?vid=86105bb4-9510-4117-a6bf-f88211e1b70c"},"vehicle_type_id":"4","last_reported":1729627793,"current_range_meters":28000,"station_id":"ce4bh2h2rcd13ifvqdh0","pricing_plan_id":"cebpf4jnsgd1na2vs0mg"},{"bike_id":"1031cd15-b9f5-4104-a1e7-957fc4e22a48","system_id":"levelo_inurba_marseille","lat":43.24391,"lon":5.37063,"is_reserved":false,"is_disabled":false,"rental_uris":{"android":"levelo://app?vid=1031cd15-b9f5-4104-a1e7-957fc4e22a48","ios":"levelo://app?vid=1031cd15-b9f5-4104-a1e7-957fc4e22a48"},"vehicle_type_id":"4","last_reported":1729627793,"current_range_meters":38800,"station_id":"ce4bhhh2rcd13ifvqfk0","pricing_plan_id":"cebpf4jnsgd1na2vs0mg"},{"bike_id":"c7adb1c2-1405-40d7-be80-1962d50b2a8f","system_id":"levelo_inurba_marseille","lat":43.301,"lon":5.39077,"is_reserved":false,"is_disabled":false,"rental_uris":{"android":"levelo://app?vid=c7adb1c2-1405-40d7-be80-1962d50b2a8f","ios":"levelo://app?vid=c7adb1c2-1405-40d7-be80-1962d50b2a8f"},"vehicle_type_id":"4","last_reported":1729627793,"current_range_meters":6800,"station_id":"ce4bh192rcd13ifvqdb0","pricing_plan_id":"cebpf4jnsgd1na2vs0mg"},{"bike_id":"da9899f0-8123-465f-9fe0-da9743e183fe","system_id":"levelo_inurba_marseille","lat":43.30187,"lon":5.36619,"is_reserved":false,"is_disabled":false,"rental_uris":{"android":"levelo://app?vid=da9899f0-8123-465f-9fe0-da9743e183fe","ios":"levelo://app?vid=da9899f0-8123-465f-9fe0-da9743e183fe"},"vehicle_type_id":"4","last_reported":1729627793,"current_range_meters":33600,"station_id":"ce4bgrh2rcd13ifvqc8g","pricing_plan_id":"cebpf4jnsgd1na2vs0mg"},{"bike_id":"fd48b4a5-21e0-4357-af2d-13f8a366950c","system_id":"levelo_inurba_marseille","lat":43.28105,"lon":5.37841,"is_reserved":false,"is_disabled":false,"rental_uris":{"android":"levelo://app?vid=fd48b4a5-21e0-4357-af2d-13f8a366950c","ios":"levelo://app?vid=fd48b4a5-21e0-4357-af2d-13f8a366950c"},"vehicle_type_id":"4","last_reported":1729627793,"current_range_meters":6400,"station_id":"ce4bha12rcd13ifvqee0","pricing_plan_id":"cebpf4jnsgd1na2vs0mg"},{"bike_id":"136f1f5a-75cb-4bdb-b05c-6c0de387025b","system_id":"levelo_inurba_marseille","lat":43.309264,"lon":5.401499,"is_reserved":false,"is_disabled":false,"rental_uris":{"android":"levelo://app?vid=136f1f5a-75cb-4bdb-b05c-6c0de387025b","ios":"levelo://app?vid=136f1f5a-75cb-4bdb-b05c-6c0de387025b"},"vehicle_type_id":"4","last_reported":1729627793,"current_range_meters":37600,"station_id":"ce4bgvp2rcd13ifvqct0","pricing_plan_id":"cebpf4jnsgd1na2vs0mg"},{"bike_id":"44107a62-c94e-4384-9dc1-fe0ea293084c","system_id":"levelo_inurba_marseille","lat":43.32665,"lon":5.4099,"is_reserved":false,"is_disabled":false,"rental_uris":{"android":"levelo://app?vid=44107a62-c94e-4384-9dc1-fe0ea293084c","ios":"levelo://app?vid=44107a62-c94e-4384-9dc1-fe0ea293084c"},"vehicle_type_id":"4","last_reported":1729627793,"current_range_meters":7200,"station_id":"ce4bhpp2rcd13ifvqhgg","pricing_plan_id":"cebpf4jnsgd1na2vs0mg"},{"bike_id":"120b3e4e-ad6d-40af-bd65-6857a47f09cc","system_id":"levelo_inurba_marseille","lat":43.26792,"lon":5.39418,"is_reserved":false,"is_disabled":false,"rental_uris":{"android":"levelo://app?vid=120b3e4e-ad6d-40af-bd65-6857a47f09cc","ios":"levelo://app?vid=120b3e4e-ad6d-40af-bd65-6857a47f09cc"},"vehicle_type_id":"4","last_reported":1729627793,"current_range_meters":38800,"station_id":"ce4bhh12rcd13ifvqfg0","pricing_plan_id":"cebpf4jnsgd1na2vs0mg"},{"bike_id":"2a52af48-0838-4457-b76e-deadc588bde9","system_id":"levelo_inurba_marseille","lat":43.24803,"lon":5.37454,"is_reserved":false,"is_disabled":false,"rental_uris":{"android":"levelo://app?vid=2a52af48-0838-4457-b76e-deadc588bde9","ios":"levelo://app?vid=2a52af48-0838-4457-b76e-deadc588bde9"},"vehicle_type_id":"4","last_reported":1729627793,"current_range_meters":10000,"station_id":"ce4bhgh2rcd13ifvqfb0","pricing_plan_id":"cebpf4jnsgd1na2vs0mg"},{"bike_id":"441c6bf6-667a-4d1d-8710-67e49a91515d","system_id":"levelo_inurba_marseille","lat":43.29421,"lon":5.38621,"is_reserved":false,"is_disabled":false,"rental_uris":{"android":"levelo://app?vid=441c6bf6-667a-4d1d-8710-67e49a91515d","ios":"levelo://app?vid=441c6bf6-667a-4d1d-8710-67e49a91515d"},"vehicle_type_id":"4","last_reported":1729627793,"current_range_meters":38800,"station_id":"ce4bh2h2rcd13ifvqdh0","pricing_plan_id":"cebpf4jnsgd1na2vs0mg"},{"bike_id":"52010cbd-8a65-4667-b639-f5e9c093948f","system_id":"levelo_inurba_marseille","lat":43.28456,"lon":5.35891,"is_reserved":false,"is_disabled":false,"rental_uris":{"android":"levelo://app?vid=52010cbd-8a65-4667-b639-f5e9c093948f","ios":"levelo://app?vid=52010cbd-8a65-4667-b639-f5e9c093948f"},"vehicle_type_id":"4","last_reported":1729627793,"current_range_meters":32400,"station_id":"ce4bhah2rcd13ifvqei0","pricing_plan_id":"cebpf4jnsgd1na2vs0mg"},{"bike_id":"df6f69c0-7ceb-4f2d-bbe7-1066717d0c4c","system_id":"levelo_inurba_marseille","lat":43.2846,"lon":5.35893,"is_reserved":false,"is_disabled":false,"rental_uris":{"android":"levelo://app?vid=df6f69c0-7ceb-4f2d-bbe7-1066717d0c4c","ios":"levelo://app?vid=df6f69c0-7ceb-4f2d-bbe7-1066717d0c4c"},"vehicle_type_id":"4","last_reported":1729627793,"current_range_meters":9200,"station_id":"ce4bhah2rcd13ifvqei0","pricing_plan_id":"cebpf4jnsgd1na2vs0mg"},{"bike_id":"6ec530b6-b592-47be-aa1d-1fb2aef77d3f","system_id":"levelo_inurba_marseille","lat":43.24385,"lon":5.37052,"is_reserved":false,"is_disabled":false,"rental_uris":{"android":"levelo://app?vid=6ec530b6-b592-47be-aa1d-1fb2aef77d3f","ios":"levelo://app?vid=6ec530b6-b592-47be-aa1d-1fb2aef77d3f"},"vehicle_type_id":"4","last_reported":1729627793,"current_range_meters":36800,"station_id":"ce4bhhh2rcd13ifvqfk0","pricing_plan_id":"cebpf4jnsgd1na2vs0mg"},{"bike_id":"957f8405-1728-444e-a660-264882380964","system_id":"levelo_inurba_marseille","lat":43.28351,"lon":5.38096,"is_reserved":false,"is_disabled":false,"rental_uris":{"android":"levelo://app?vid=957f8405-1728-444e-a660-264882380964","ios":"levelo://app?vid=957f8405-1728-444e-a660-264882380964"},"vehicle_type_id":"4","last_reported":1729627793,"current_range_meters":28400,"station_id":"ce4bh412rcd13ifvqdr0","pricing_plan_id":"cebpf4jnsgd1na2vs0mg"},{"bike_id":"14dab92b-fe38-47ce-b112-6fbe0deb0d3c","system_id":"levelo_inurba_marseille","lat":43.29528,"lon":5.38546,"is_reserved":false,"is_disabled":false,"rental_uris":{"android":"levelo://app?vid=14dab92b-fe38-47ce-b112-6fbe0deb0d3c","ios":"levelo://app?vid=14dab92b-fe38-47ce-b112-6fbe0deb0d3c"},"vehicle_type_id":"4","last_reported":1729627793,"current_range_meters":31200,"station_id":"ce4bgih2rcd13ifvqba0","pricing_plan_id":"cebpf4jnsgd1na2vs0mg"},{"bike_id":"4e6a7fb2-f161-4bed-a25b-e30db643a941","system_id":"levelo_inurba_marseille","lat":43.2962,"lon":5.37172,"is_reserved":false,"is_disabled":false,"rental_uris":{"android":"levelo://app?vid=4e6a7fb2-f161-4bed-a25b-e30db643a941","ios":"levelo://app?vid=4e6a7fb2-f161-4bed-a25b-e30db643a941"},"vehicle_type_id":"4","last_reported":1729627793,"current_range_meters":32400,"station_id":"ce4bgnh2rcd13ifvqc0g","pricing_plan_id":"cebpf4jnsgd1na2vs0mg"},{"bike_id":"fc4a430e-df3e-4747-b47c-4a5c21f8e441","system_id":"levelo_inurba_marseille","lat":43.29873,"lon":5.39741,"is_reserved":false,"is_disabled":false,"rental_uris":{"android":"levelo://app?vid=fc4a430e-df3e-4747-b47c-4a5c21f8e441","ios":"levelo://app?vid=fc4a430e-df3e-4747-b47c-4a5c21f8e441"},"vehicle_type_id":"4","last_reported":1729627793,"current_range_meters":36000,"station_id":"ce4bh0h2rcd13ifvqd50","pricing_plan_id":"cebpf4jnsgd1na2vs0mg"},{"bike_id":"484b4ee3-f16a-46e6-b05f-a63580ad3d69","system_id":"levelo_inurba_marseille","lat":43.24389,"lon":5.37059,"is_reserved":false,"is_disabled":false,"rental_uris":{"android":"levelo://app?vid=484b4ee3-f16a-46e6-b05f-a63580ad3d69","ios":"levelo://app?vid=484b4ee3-f16a-46e6-b05f-a63580ad3d69"},"vehicle_type_id":"4","last_reported":1729627793,"current_range_meters":38800,"station_id":"ce4bhhh2rcd13ifvqfk0","pricing_plan_id":"cebpf4jnsgd1na2vs0mg"},{"bike_id":"d90d114b-5dfe-432d-a238-d644dcb44273","system_id":"levelo_inurba_marseille","lat":43.292,"lon":5.39322,"is_reserved":false,"is_disabled":false,"rental_uris":{"android":"levelo://app?vid=d90d114b-5dfe-432d-a238-d644dcb44273","ios":"levelo://app?vid=d90d114b-5dfe-432d-a238-d644dcb44273"},"vehicle_type_id":"4","last_reported":1729627793,"current_range_meters":10000,"station_id":"ce4bh192rcd13ifvqdd0","pricing_plan_id":"cebpf4jnsgd1na2vs0mg"},{"bike_id":"fa65419f-05ad-4072-b4ee-e60c2f9a1fc6","system_id":"levelo_inurba_marseille","lat":43.29513,"lon":5.39035,"is_reserved":false,"is_disabled":false,"rental_uris":{"android":"levelo://app?vid=fa65419f-05ad-4072-b4ee-e60c2f9a1fc6","ios":"levelo://app?vid=fa65419f-05ad-4072-b4ee-e60c2f9a1fc6"},"vehicle_type_id":"4","last_reported":1729627793,"current_range_meters":27600,"station_id":"ce4bh3p2rcd13ifvqdp0","pricing_plan_id":"cebpf4jnsgd1na2vs0mg"},{"bike_id":"b21b7abe-267f-4527-800a-ff853e14e232","system_id":"levelo_inurba_marseille","lat":43.29391,"lon":5.40925,"is_reserved":false,"is_disabled":false,"rental_uris":{"android":"levelo://app?vid=b21b7abe-267f-4527-800a-ff853e14e232","ios":"levelo://app?vid=b21b7abe-267f-4527-800a-ff853e14e232"},"vehicle_type_id":"4","last_reported":1729627793,"current_range_meters":8000,"station_id":"ce4bhhh2rcd13ifvqfl0","pricing_plan_id":"cebpf4jnsgd1na2vs0mg"},{"bike_id":"36156996-45e5-46cb-8a8d-381e1f24a4b5","system_id":"levelo_inurba_marseille","lat":43.28151,"lon":5.4264,"is_reserved":false,"is_disabled":false,"rental_uris":{"android":"levelo://app?vid=36156996-45e5-46cb-8a8d-381e1f24a4b5","ios":"levelo://app?vid=36156996-45e5-46cb-8a8d-381e1f24a4b5"},"vehicle_type_id":"4","last_reported":1729627793,"current_range_meters":14400,"station_id":"ce4bhnh2rcd13ifvqgug","pricing_plan_id":"cebpf4jnsgd1na2vs0mg"},{"bike_id":"41c7cb2b-fbbd-4393-860e-7f67203a6179","system_id":"levelo_inurba_marseille","lat":43.2761,"lon":5.3611,"is_reserved":false,"is_disabled":false,"rental_uris":{"android":"levelo://app?vid=41c7cb2b-fbbd-4393-860e-7f67203a6179","ios":"levelo://app?vid=41c7cb2b-fbbd-4393-860e-7f67203a6179"},"vehicle_type_id":"4","last_reported":1729627793,"current_range_meters":38800,"station_id":"ce4bgj92rcd13ifvqbe0","pricing_plan_id":"cebpf4jnsgd1na2vs0mg"},{"bike_id":"115c7d55-d46f-4f51-9475-79fbdb9af917","system_id":"levelo_inurba_marseille","lat":43.30783,"lon":5.37657,"is_reserved":false,"is_disabled":false,"rental_uris":{"android":"levelo://app?vid=115c7d55-d46f-4f51-9475-79fbdb9af917","ios":"levelo://app?vid=115c7d55-d46f-4f51-9475-79fbdb9af917"},"vehicle_type_id":"4","last_reported":1729627793,"current_range_meters":39200,"station_id":"ce4bgv92rcd13ifvqcq0","pricing_plan_id":"cebpf4jnsgd1na2vs0mg"},{"bike_id":"a7826613-2fae-4f7f-945a-63fae14d5c65","system_id":"levelo_inurba_marseille","lat":43.29435,"lon":5.39756,"is_reserved":false,"is_disabled":false,"rental_uris":{"android":"levelo://app?vid=a7826613-2fae-4f7f-945a-63fae14d5c65","ios":"levelo://app?vid=a7826613-2fae-4f7f-945a-63fae14d5c65"},"vehicle_type_id":"4","last_reported":1729627793,"current_range_meters":38400,"station_id":"ce4bh3h2rcd13ifvqdo0","pricing_plan_id":"cebpf4jnsgd1na2vs0mg"},{"bike_id":"ecc12859-ad11-4bad-9d2f-e311165b7c51","system_id":"levelo_inurba_marseille","lat":43.2737,"lon":5.36254,"is_reserved":false,"is_disabled":false,"rental_uris":{"android":"levelo://app?vid=ecc12859-ad11-4bad-9d2f-e311165b7c51","ios":"levelo://app?vid=ecc12859-ad11-4bad-9d2f-e311165b7c51"},"vehicle_type_id":"4","last_reported":1729627793,"current_range_meters":40000,"station_id":"ce4bhbh2rcd13ifvqeo0","pricing_plan_id":"cebpf4jnsgd1na2vs0mg"},{"bike_id":"a3300d86-d6d3-4946-a53a-4211b49d72a2","system_id":"levelo_inurba_marseille","lat":43.30094,"lon":5.39077,"is_reserved":false,"is_disabled":false,"rental_uris":{"android":"levelo://app?vid=a3300d86-d6d3-4946-a53a-4211b49d72a2","ios":"levelo://app?vid=a3300d86-d6d3-4946-a53a-4211b49d72a2"},"vehicle_type_id":"4","last_reported":1729627793,"current_range_meters":30000,"station_id":"ce4bh192rcd13ifvqdb0","pricing_plan_id":"cebpf4jnsgd1na2vs0mg"},{"bike_id":"0d9ef5a3-2381-4d60-bff4-852d2062eb52","system_id":"levelo_inurba_marseille","lat":43.28102,"lon":5.37833,"is_reserved":false,"is_disabled":false,"rental_uris":{"android":"levelo://app?vid=0d9ef5a3-2381-4d60-bff4-852d2062eb52","ios":"levelo://app?vid=0d9ef5a3-2381-4d60-bff4-852d2062eb52"},"vehicle_type_id":"4","last_reported":1729627793,"current_range_meters":4400,"station_id":"ce4bha12rcd13ifvqee0","pricing_plan_id":"cebpf4jnsgd1na2vs0mg"},{"bike_id":"c76af8c3-f685-4d18-b51d-576f84ea933d","system_id":"levelo_inurba_marseille","lat":43.23963,"lon":5.36633,"is_reserved":false,"is_disabled":false,"rental_uris":{"android":"levelo://app?vid=c76af8c3-f685-4d18-b51d-576f84ea933d","ios":"levelo://app?vid=c76af8c3-f685-4d18-b51d-576f84ea933d"},"vehicle_type_id":"4","last_reported":1729627793,"current_range_meters":8000,"station_id":"ce4bhi12rcd13ifvqfp0","pricing_plan_id":"cebpf4jnsgd1na2vs0mg"},{"bike_id":"fa0d9ca6-6a2d-4543-80e5-094a42d22723","system_id":"levelo_inurba_marseille","lat":43.29532,"lon":5.3855,"is_reserved":false,"is_disabled":false,"rental_uris":{"android":"levelo://app?vid=fa0d9ca6-6a2d-4543-80e5-094a42d22723","ios":"levelo://app?vid=fa0d9ca6-6a2d-4543-80e5-094a42d22723"},"vehicle_type_id":"4","last_reported":1729627793,"current_range_meters":25600,"station_id":"ce4bgih2rcd13ifvqba0","pricing_plan_id":"cebpf4jnsgd1na2vs0mg"},{"bike_id":"8bbc986d-cf6e-4a3d-b7ad-084efd1ff273","system_id":"levelo_inurba_marseille","lat":43.28078,"lon":5.39669,"is_reserved":false,"is_disabled":false,"rental_uris":{"android":"levelo://app?vid=8bbc986d-cf6e-4a3d-b7ad-084efd1ff273","ios":"levelo://app?vid=8bbc986d-cf6e-4a3d-b7ad-084efd1ff273"},"vehicle_type_id":"4","last_reported":1729627793,"current_range_meters":36000,"station_id":"ce4bho12rcd13ifvqh2g","pricing_plan_id":"cebpf4jnsgd1na2vs0mg"},{"bike_id":"e9561a6e-f411-4df3-b665-08cc02f817ff","system_id":"levelo_inurba_marseille","lat":43.28938,"lon":5.36397,"is_reserved":false,"is_disabled":false,"rental_uris":{"android":"levelo://app?vid=e9561a6e-f411-4df3-b665-08cc02f817ff","ios":"levelo://app?vid=e9561a6e-f411-4df3-b665-08cc02f817ff"},"vehicle_type_id":"4","last_reported":1729627793,"current_range_meters":18000,"station_id":"ce4bhc92rcd13ifvqetg","pricing_plan_id":"cebpf4jnsgd1na2vs0mg"},{"bike_id":"a26f4f69-0732-4580-96a4-123e42c5bdd8","system_id":"levelo_inurba_marseille","lat":43.32656,"lon":5.40998,"is_reserved":false,"is_disabled":false,"rental_uris":{"android":"levelo://app?vid=a26f4f69-0732-4580-96a4-123e42c5bdd8","ios":"levelo://app?vid=a26f4f69-0732-4580-96a4-123e42c5bdd8"},"vehicle_type_id":"4","last_reported":1729627793,"current_range_meters":8400,"station_id":"ce4bhpp2rcd13ifvqhgg","pricing_plan_id":"cebpf4jnsgd1na2vs0mg"},{"bike_id":"8f8e65f3-b0ea-4567-9232-390395cbe6fe","system_id":"levelo_inurba_marseille","lat":43.33602,"lon":5.41032,"is_reserved":false,"is_disabled":false,"rental_uris":{"android":"levelo://app?vid=8f8e65f3-b0ea-4567-9232-390395cbe6fe","ios":"levelo://app?vid=8f8e65f3-b0ea-4567-9232-390395cbe6fe"},"vehicle_type_id":"4","last_reported":1729627793,"current_range_meters":16400,"station_id":"ce4bhqh2rcd13ifvqhmg","pricing_plan_id":"cebpf4jnsgd1na2vs0mg"},{"bike_id":"a38b5a4a-a7da-441a-b900-5f6f19de8738","system_id":"levelo_inurba_marseille","lat":43.24655,"lon":5.38895,"is_reserved":false,"is_disabled":false,"rental_uris":{"android":"levelo://app?vid=a38b5a4a-a7da-441a-b900-5f6f19de8738","ios":"levelo://app?vid=a38b5a4a-a7da-441a-b900-5f6f19de8738"},"vehicle_type_id":"4","last_reported":1729627793,"current_range_meters":36800,"station_id":"ce4bhg12rcd13ifvqf60","pricing_plan_id":"cebpf4jnsgd1na2vs0mg"},{"bike_id":"3fce564d-e89b-4fd9-99a6-46fcaba3dddd","system_id":"levelo_inurba_marseille","lat":43.29803,"lon":5.39334,"is_reserved":false,"is_disabled":false,"rental_uris":{"android":"levelo://app?vid=3fce564d-e89b-4fd9-99a6-46fcaba3dddd","ios":"levelo://app?vid=3fce564d-e89b-4fd9-99a6-46fcaba3dddd"},"vehicle_type_id":"4","last_reported":1729627793,"current_range_meters":36400,"station_id":"chh1huq6cuj3fo74tm60","pricing_plan_id":"cebpf4jnsgd1na2vs0mg"},{"bike_id":"45fec9e3-468b-4ce5-8637-586262f7698f","system_id":"levelo_inurba_marseille","lat":43.29531,"lon":5.38545,"is_reserved":false,"is_disabled":false,"rental_uris":{"android":"levelo://app?vid=45fec9e3-468b-4ce5-8637-586262f7698f","ios":"levelo://app?vid=45fec9e3-468b-4ce5-8637-586262f7698f"},"vehicle_type_id":"4","last_reported":1729627793,"current_range_meters":38800,"station_id":"ce4bgih2rcd13ifvqba0","pricing_plan_id":"cebpf4jnsgd1na2vs0mg"},{"bike_id":"6df4325c-3e5c-49e0-b745-b7b80da27925","system_id":"levelo_inurba_marseille","lat":43.28409,"lon":5.37519,"is_reserved":false,"is_disabled":false,"rental_uris":{"android":"levelo://app?vid=6df4325c-3e5c-49e0-b745-b7b80da27925","ios":"levelo://app?vid=6df4325c-3e5c-49e0-b745-b7b80da27925"},"vehicle_type_id":"4","last_reported":1729627793,"current_range_meters":30400,"station_id":"ce4bh412rcd13ifvqds0","pricing_plan_id":"cebpf4jnsgd1na2vs0mg"},{"bike_id":"18c7a04f-1451-4171-a564-28d8b22bc62f","system_id":"levelo_inurba_marseille","lat":43.28404,"lon":5.37522,"is_reserved":false,"is_disabled":false,"rental_uris":{"android":"levelo://app?vid=18c7a04f-1451-4171-a564-28d8b22bc62f","ios":"levelo://app?vid=18c7a04f-1451-4171-a564-28d8b22bc62f"},"vehicle_type_id":"4","last_reported":1729627793,"current_range_meters":38800,"station_id":"ce4bh412rcd13ifvqds0","pricing_plan_id":"cebpf4jnsgd1na2vs0mg"},{"bike_id":"4d222ebd-1e72-4398-84a0-8448eedddcac","system_id":"levelo_inurba_marseille","lat":43.28346,"lon":5.38102,"is_reserved":false,"is_disabled":false,"rental_uris":{"android":"levelo://app?vid=4d222ebd-1e72-4398-84a0-8448eedddcac","ios":"levelo://app?vid=4d222ebd-1e72-4398-84a0-8448eedddcac"},"vehicle_type_id":"4","last_reported":1729627793,"current_range_meters":16000,"station_id":"ce4bh412rcd13ifvqdr0","pricing_plan_id":"cebpf4jnsgd1na2vs0mg"},{"bike_id":"0109d152-d199-40e0-b6bd-321510cfc821","system_id":"levelo_inurba_marseille","lat":43.28701,"lon":5.37378,"is_reserved":false,"is_disabled":false,"rental_uris":{"android":"levelo://app?vid=0109d152-d199-40e0-b6bd-321510cfc821","ios":"levelo://app?vid=0109d152-d199-40e0-b6bd-321510cfc821"},"vehicle_type_id":"4","last_reported":1729627793,"current_range_meters":10800,"station_id":"ce4bh3p2rcd13ifvqdq0","pricing_plan_id":"cebpf4jnsgd1na2vs0mg"},{"bike_id":"6d8a385d-95a0-41f2-a793-54cf260078ce","system_id":"levelo_inurba_marseille","lat":43.2799,"lon":5.40002,"is_reserved":false,"is_disabled":false,"rental_uris":{"android":"levelo://app?vid=6d8a385d-95a0-41f2-a793-54cf260078ce","ios":"levelo://app?vid=6d8a385d-95a0-41f2-a793-54cf260078ce"},"vehicle_type_id":"4","last_reported":1729627793,"current_range_meters":12000,"station_id":"ce4bho92rcd13ifvqh4g","pricing_plan_id":"cebpf4jnsgd1na2vs0mg"},{"bike_id":"fc1d78c2-738a-4f97-ada5-2112878de805","system_id":"levelo_inurba_marseille","lat":43.318787,"lon":5.386191,"is_reserved":false,"is_disabled":false,"rental_uris":{"android":"levelo://app?vid=fc1d78c2-738a-4f97-ada5-2112878de805","ios":"levelo://app?vid=fc1d78c2-738a-4f97-ada5-2112878de805"},"vehicle_type_id":"4","last_reported":1729627793,"current_range_meters":22800,"station_id":"ce4bgth2rcd13ifvqch0","pricing_plan_id":"cebpf4jnsgd1na2vs0mg"},