{"last_updated":1735225726,"ttl":60,"version":"2.2","data":{"bikes":[{"bike_id":"b3a0241b-8de2-47f5-8021-0e6b89d799a9","system_id":"levelo_inurba_marseille","lat":43.31069,"lon":5.38357,"is_reserved":false,"is_disabled":false,"rental_uris":{"android":"levelo://app?vid=b3a0241b-8de2-47f5-8021-0e6b89d799a9","ios":"levelo://app?vid=b3a0241b-8de2-47f5-8021-0e6b89d799a9"},"vehicle_type_id":"4","last_reported":1735225726,"current_range_meters":32000,"station_id":"ce4bgv92rcd13ifvqcr0","pricing_plan_id":"cebpf4jnsgd1na2vs0mg"},{"bike_id":"015f3506-0edf-4591-879e-490275f7a7d2","system_id":"levelo_inurba_marseille","lat":43.23963,"lon":5.36626,"is_reserved":false,"is_disabled":false,"rental_uris":{"android":"levelo://app?vid=015f3506-0edf-4591-879e-490275f7a7d2","ios":"levelo://app?vid=015f3506-0edf-4591-879e-490275f7a7d2"},"vehicle_type_id":"4","last_reported":1735225726,"current_range_meters":30000,"station_id":"ce4bhi12rcd13ifvqfp0","pricing_plan_id":"cebpf4jnsgd1na2vs0mg"},{"bike_id":"b09c5416-8f2b-4a41-b23f-99ed8ff57b3f","system_id":"levelo_inurba_marseille","lat":43.25087,"lon":5.39527,"is_reserved":false,"is_disabled":false,"rental_uris":{"android":"levelo://app?vid=b09c5416-8f2b-4a41-b23f-99ed8ff57b3f","ios":"levelo://app?vid=b09c5416-8f2b-4a41-b23f-99ed8ff57b3f"},"vehicle_type_id":"4","last_reported":1735225726,"current_range_meters":30000,"station_id":"ce4bhm12rcd13ifvqgkg","pricing_plan_id":"cebpf4jnsgd1na2vs0mg"},{"bike_id":"2e213090-2c72-4ff1-bae4-12e4da123a5e","system_id":"levelo_inurba_marseille","lat":43.28032,"lon":5.36946,"is_reserved":false,"is_disabled":false,"rental_uris":{"android":"levelo://app?vid=2e213090-2c72-4ff1-bae4-12e4da123a5e","ios":"levelo://app?vid=2e213090-2c72-4ff1-bae4-12e4da123a5e"},"vehicle_type_id":"4","last_reported":1735225726,"current_range_meters":20000,"station_id":"ce4bha12rcd13ifvqef0","pricing_plan_id":"cebpf4jnsgd1na2vs0mg"},{"bike_id":"1f14806d-ae11-4061-998c-72dada3be529","system_id":"levelo_inurba_marseille","lat":43.28032,"lon":5.36948,"is_reserved":false,"is_disabled":false,"rental_uris":{"android":"levelo://app?vid=1f14806d-ae11-4061-998c-72dada3be529","ios":"levelo://app?vid=1f14806d-ae11-4061-998c-72dada3be529"},"vehicle_type_id":"4","last_reported":1735225726,"current_range_meters":38800,"station_id":"ce4bha12rcd13ifvqef0","pricing_plan_id":"cebpf4jnsgd1na2vs0mg"},{"bike_id":"ab8d3c57-679e-4c04-9e09-be55492c247c","system_id":"levelo_inurba_marseille","lat":43.297,"lon":5.37696,"is_reserved":false,"is_disabled":false,"rental_uris":{"android":"levelo://app?vid=ab8d3c57-679e-4c04-9e09-be55492c247c","ios":"levelo://app?vid=ab8d3c57-679e-4c04-9e09-be55492c247c"},"vehicle_type_id":"4","last_reported":1735225726,"current_range_meters":30800,"station_id":"ce4bgkh2rcd13ifvqbl0","pricing_plan_id":"cebpf4jnsgd1na2vs0mg"},{"bike_id":"c4104ae7-6d71-4ed6-97ba-cf7a171100c7","system_id":"levelo_inurba_marseille","lat":43.309309,"lon":5.401651,"is_reserved":false,"is_disabled":false,"rental_uris":{"android":"levelo://app?vid=c4104ae7-6d71-4ed6-97ba-cf7a171100c7","ios":"levelo://app?vid=c4104ae7-6d71-4ed6-97ba-cf7a171100c7"},"vehicle_type_id":"4","last_reported":1735225726,"current_range_meters":25600,"station_id":"ce4bgvp2rcd13ifvqct0","pricing_plan_id":"cebpf4jnsgd1na2vs0mg"},{"bike_id":"d8c854c6-f7ad-479f-bd7b-eeaa7e4fcc66","system_id":"levelo_inurba_marseille","lat":43.28359,"lon":5.38601,"is_reserved":false,"is_disabled":false,"rental_uris":{"android":"levelo://app?vid=d8c854c6-f7ad-479f-bd7b-eeaa7e4fcc66","ios":"levelo://app?vid=d8c854c6-f7ad-479f-bd7b-eeaa7e4fcc66"},"vehicle_type_id":"4","last_reported":1735225726,"current_range_meters":39200,"station_id":"ce4bh492rcd13ifvqdvg","pricing_plan_id":"cebpf4jnsgd1na2vs0mg"},{"bike_id":"28bbf108-a424-46c1-8013-f3b7dbb55b3e","system_id":"levelo_inurba_marseille","lat":43.32064,"lon":5.41539,"is_reserved":false,"is_disabled":false,"rental_uris":{"android":"levelo://app?vid=28bbf108-a424-46c1-8013-f3b7dbb55b3e","ios":"levelo://app?vid=28bbf108-a424-46c1-8013-f3b7dbb55b3e"},"vehicle_type_id":"4","last_reported":1735225726,"current_range_meters":38400,"station_id":"ce4bhq92rcd13ifvqhkg","pricing_plan_id":"cebpf4jnsgd1na2vs0mg"},{"bike_id":"d0bd85f8-be15-4d35-b411-aa7db25104d6","system_id":"levelo_inurba_marseille","lat":43.24547,"lon":5.39523,"is_reserved":false,"is_disabled":false,"rental_uris":{"android":"levelo://app?vid=d0bd85f8-be15-4d35-b411-aa7db25104d6","ios":"levelo://app?vid=d0bd85f8-be15-4d35-b411-aa7db25104d6"},"vehicle_type_id":"4","last_reported":1735225726,"current_range_meters":39200,"station_id":"ce4bhlp2rcd13ifvqgjg","pricing_plan_id":"cebpf4jnsgd1na2vs0mg"},{"bike_id":"a14d744f-7e07-417c-ab27-34286df72687","system_id":"levelo_inurba_marseille","lat":43.23195,"lon":5.35544,"is_reserved":false,"is_disabled":false,"rental_uris":{"android":"levelo://app?vid=a14d744f-7e07-417c-ab27-34286df72687","ios":"levelo://app?vid=a14d744f-7e07-417c-ab27-34286df72687"},"vehicle_type_id":"4","last_reported":1735225726,"current_range_meters":7200,"station_id":"ce4bhu92rcd13ifvqi70","pricing_plan_id":"cebpf4jnsgd1na2vs0mg"},{"bike_id":"e267a384-9fdf-4fee-8d5b-e37951af9dce","system_id":"levelo_inurba_marseille","lat":43.27423,"lon":5.39412,"is_reserved":false,"is_disabled":false,"rental_uris":{"android":"levelo://app?vid=e267a384-9fdf-4fee-8d5b-e37951af9dce","ios":"levelo://app?vid=e267a384-9fdf-4fee-8d5b-e37951af9dce"},"vehicle_type_id":"4","last_reported":1735225726,"current_range_meters":37600,"station_id":"ce4bhdp2rcd13ifvqf20","pricing_plan_id":"cebpf4jnsgd1na2vs0mg"},{"bike_id":"005093bd-bc75-4130-9b81-85c3a4edf08f","system_id":"levelo_inurba_marseille","lat":43.27212,"lon":5.39187,"is_reserved":false,"is_disabled":false,"rental_uris":{"android":"levelo://app?vid=005093bd-bc75-4130-9b81-85c3a4edf08f","ios":"levelo://app?vid=005093bd-bc75-4130-9b81-85c3a4edf08f"},"vehicle_type_id":"4","last_reported":1735225726,"current_range_meters":35600,"station_id":"ce4bhhp2rcd13ifvqfm0","pricing_plan_id":"cebpf4jnsgd1na2vs0mg"},{"bike_id":"48561cb0-3c2f-409a-9d50-12703f41cdea","system_id":"levelo_inurba_marseille","lat":43.27205,"lon":5.39178,"is_reserved":false,"is_disabled":false,"rental_uris":{"android":"levelo://app?vid=48561cb0-3c2f-409a-9d50-12703f41cdea","ios":"levelo://app?vid=48561cb0-3c2f-409a-9d50-12703f41cdea"},"vehicle_type_id":"4","last_reported":1735225726,"current_range_meters":32400,"station_id":"ce4bhhp2rcd13ifvqfm0","pricing_plan_id":"cebpf4jnsgd1na2vs0mg"},{"bike_id":"23267f0c-d6e2-43b6-8e8d-d55180155fcc","system_id":"levelo_inurba_marseille","lat":43.29892,"lon":5.37478,"is_reserved":false,"is_disabled":false,"rental_uris":{"android":"levelo://app?vid=23267f0c-d6e2-43b6-8e8d-d55180155fcc","ios":"levelo://app?vid=23267f0c-d6e2-43b6-8e8d-d55180155fcc"},"vehicle_type_id":"4","last_reported":1735225726,"current_range_meters":27200,"station_id":"ce4bgjh2rcd13ifvqbg0","pricing_plan_id":"cebpf4jnsgd1na2vs0mg"},{"bike_id":"50866b1e-bdf4-4915-a30e-77bef7ee5d66","system_id":"levelo_inurba_marseille","lat":43.31205,"lon":5.36847,"is_reserved":false,"is_disabled":false,"rental_uris":{"android":"levelo://app?vid=50866b1e-bdf4-4915-a30e-77bef7ee5d66","ios":"levelo://app?vid=50866b1e-bdf4-4915-a30e-77bef7ee5d66"},"vehicle_type_id":"4","last_reported":1735225726,"current_range_meters":38800,"station_id":"ce4bgl92rcd13ifvqbq0","pricing_plan_id":"cebpf4jnsgd1na2vs0mg"},{"bike_id":"d4663405-bee1-476b-a9e6-b188d9eda682","system_id":"levelo_inurba_marseille","lat":43.3055,"lon":5.36728,"is_reserved":false,"is_disabled":false,"rental_uris":{"android":"levelo://app?vid=d4663405-bee1-476b-a9e6-b188d9eda682","ios":"levelo://app?vid=d4663405-bee1-476b-a9e6-b188d9eda682"},"vehicle_type_id":"4","last_reported":1735225726,"current_range_meters":36400,"station_id":"ce4bgrp2rcd13ifvqc9g","pricing_plan_id":"cebpf4jnsgd1na2vs0mg"},{"bike_id":"d738dcc0-dcb3-4279-a221-a0d2fe0266cf","system_id":"levelo_inurba_marseille","lat":43.2862,"lon":5.35104,"is_reserved":false,"is_disabled":false,"rental_uris":{"android":"levelo://app?vid=d738dcc0-dcb3-4279-a221-a0d2fe0266cf","ios":"levelo://app?vid=d738dcc0-dcb3-4279-a221-a0d2fe0266cf"},"vehicle_type_id":"4","last_reported":1735225726,"current_range_meters":36400,"station_id":"ce4bhch2rcd13ifvqeug","pricing_plan_id":"cebpf4jnsgd1na2vs0mg"},{"bike_id":"f73ca4ca-7ee5-49ee-a13f-4c38cd424d82","system_id":"levelo_inurba_marseille","lat":43.3091,"lon":5.37179,"is_reserved":false,"is_disabled":false,"rental_uris":{"android":"levelo://app?vid=f73ca4ca-7ee5-49ee-a13f-4c38cd424d82","ios":"levelo://app?vid=f73ca4ca-7ee5-49ee-a13f-4c38cd424d82"},"vehicle_type_id":"4","last_reported":1735225726,"current_range_meters":15200,"station_id":"ce4bguh2rcd13ifvqckg","pricing_plan_id":"cebpf4jnsgd1na2vs0mg"},{"bike_id":"ff891e39-252b-4d4e-8692-37efe0bea514","system_id":"levelo_inurba_marseille","lat":43.27938,"lon":5.41038,"is_reserved":false,"is_disabled":true,"rental_uris":{"android":"levelo://app?vid=ff891e39-252b-4d4e-8692-37efe0bea514","ios":"levelo://app?vid=ff891e39-252b-4d4e-8692-37efe0bea514"},"vehicle_type_id":"4","last_reported":1735225726,"current_range_meters":0,"station_id":"ce4bhnp2rcd13ifvqh0g","pricing_plan_id":"cebpf4jnsgd1na2vs0mg"},{"bike_id":"59d9df90-be4b-476d-b4c3-b687507fab48","system_id":"levelo_inurba_marseille","lat":43.3021,"lon":5.39475,"is_reserved":false,"is_disabled":false,"rental_uris":{"android":"levelo://app?vid=59d9df90-be4b-476d-b4c3-b687507fab48","ios":"levelo://app?vid=59d9df90-be4b-476d-b4c3-b687507fab48"},"vehicle_type_id":"4","last_reported":1735225726,"current_range_meters":35600,"station_id":"ce4bh0p2rcd13ifvqd70","pricing_plan_id":"cebpf4jnsgd1na2vs0mg"},{"bike_id":"54e82adf-653a-40bc-8212-b0e67d34d16f","system_id":"levelo_inurba_marseille","lat":43.29925,"lon":5.36536,"is_reserved":false,"is_disabled":false,"rental_uris":{"android":"levelo://app?vid=54e82adf-653a-40bc-8212-b0e67d34d16f","ios":"levelo://app?vid=54e82adf-653a-40bc-8212-b0e67d34d16f"},"vehicle_type_id":"4","last_reported":1735225726,"current_range_meters":13600,"station_id":"ce4bgm92rcd13ifvqbr0","pricing_plan_id":"cebpf4jnsgd1na2vs0mg"},{"bike_id":"7bf56867-f147-4165-89ee-4c8ea1ec9c93","system_id":"levelo_inurba_marseille","lat":43.29897,"lon":5.43668,"is_reserved":false,"is_disabled":false,"rental_uris":{"android":"levelo://app?vid=7bf56867-f147-4165-89ee-4c8ea1ec9c93","ios":"levelo://app?vid=7bf56867-f147-4165-89ee-4c8ea1ec9c93"},"vehicle_type_id":"4","last_reported":1735225726,"current_range_meters":38000,"station_id":"ce4bhpp2rcd13ifvqhfg","pricing_plan_id":"cebpf4jnsgd1na2vs0mg"},{"bike_id":"857344dd-6be1-4d34-90e7-6f62afbbef2e","system_id":"levelo_inurba_marseille","lat":43.32102,"lon":5.36775,"is_reserved":false,"is_disabled":false,"rental_uris":{"android":"levelo://app?vid=857344dd-6be1-4d34-90e7-6f62afbbef2e","ios":"levelo://app?vid=857344dd-6be1-4d34-90e7-6f62afbbef2e"},"vehicle_type_id":"4","last_reported":1735225726,"current_range_meters":11200,"station_id":"ce4bhrh2rcd13ifvqhug","pricing_plan_id":"cebpf4jnsgd1na2vs0mg"},{"bike_id":"8bb784aa-04c9-4996-8ca8-ea4b00c12859","system_id":"levelo_inurba_marseille","lat":43.30203,"lon":5.36627,"is_reserved":false,"is_disabled":false,"rental_uris":{"android":"levelo://app?vid=8bb784aa-04c9-4996-8ca8-ea4b00c12859","ios":"levelo://app?vid=8bb784aa-04c9-4996-8ca8-ea4b00c12859"},"vehicle_type_id":"4","last_reported":1735225726,"current_range_meters":38000,"station_id":"ce4bgrh2rcd13ifvqc8g","pricing_plan_id":"cebpf4jnsgd1na2vs0mg"},{"bike_id":"951a83bc-231c-4e2b-af1d-5ef0d5c3ed80","system_id":"levelo_inurba_marseille","lat":43.29016,"lon":5.38141,"is_reserved":false,"is_disabled":false,"rental_uris":{"android":"levelo://app?vid=951a83bc-231c-4e2b-af1d-5ef0d5c3ed80","ios":"levelo://app?vid=951a83bc-231c-4e2b-af1d-5ef0d5c3ed80"},"vehicle_type_id":"4","last_reported":1735225726,"current_range_meters":38800,"station_id":"ce4bh4p2rcd13ifvqe1g","pricing_plan_id":"cebpf4jnsgd1na2vs0mg"},{"bike_id":"f3aa85d1-5b96-49f5-a947-7c68fe96a831","system_id":"levelo_inurba_marseille","lat":43.31268,"lon":5.40165,"is_reserved":false,"is_disabled":false,"rental_uris":{"android":"levelo://app?vid=f3aa85d1-5b96-49f5-a947-7c68fe96a831","ios":"levelo://app?vid=f3aa85d1-5b96-49f5-a947-7c68fe96a831"},"vehicle_type_id":"4","last_reported":1735225726,"current_range_meters":17200,"station_id":"ce4bh092rcd13ifvqd30","pricing_plan_id":"cebpf4jnsgd1na2vs0mg"},{"bike_id":"339e8ad4-791e-4eed-95f5-5daf1624bc49","system_id":"levelo_inurba_marseille","lat":43.28941,"lon":5.36639,"is_reserved":false,"is_disabled":false,"rental_uris":{"android":"levelo://app?vid=339e8ad4-791e-4eed-95f5-5daf1624bc49","ios":"levelo://app?vid=339e8ad4-791e-4eed-95f5-5daf1624bc49"},"vehicle_type_id":"4","last_reported":1735225726,"current_range_meters":32000,"station_id":"ce4bhap2rcd13ifvqek0","pricing_plan_id":"cebpf4jnsgd1na2vs0mg"},{"bike_id":"7b937713-f03e-4c7d-991e-8f9ccabc7439","system_id":"levelo_inurba_marseille","lat":43.24163,"lon":5.36394,"is_reserved":false,"is_disabled":false,"rental_uris":{"android":"levelo://app?vid=7b937713-f03e-4c7d-991e-8f9ccabc7439","ios":"levelo://app?vid=7b937713-f03e-4c7d-991e-8f9ccabc7439"},"vehicle_type_id":"4","last_reported":1735225726,"current_range_meters":8000,"station_id":"cpo36qri1sfpv3e86is0","pricing_plan_id":"cebpf4jnsgd1na2vs0mg"},{"bike_id":"68186d30-2323-4b82-8c60-60f6c423b5f0","system_id":"levelo_inurba_marseille","lat":43.30938,"lon":5.40145,"is_reserved":false,"is_disabled":false,"rental_uris":{"android":"levelo://app?vid=68186d30-2323-4b82-8c60-60f6c423b5f0","ios":"levelo://app?vid=68186d30-2323-4b82-8c60-60f6c423b5f0"},"vehicle_type_id":"4","last_reported":1735225726,"current_range_meters":28000,"station_id":"ce4bgvp2rcd13ifvqct0","pricing_plan_id":"cebpf4jnsgd1na2vs0mg"},{"bike_id":"ad66ce9d-e2b2-4064-ae7f-fe87403c632b","system_id":"levelo_inurba_marseille","lat":43.23065,"lon":5.35502,"is_reserved":false,"is_disabled":false,"rental_uris":{"android":"levelo://app?vid=ad66ce9d-e2b2-4064-ae7f-fe87403c632b","ios":"levelo://app?vid=ad66ce9d-e2b2-4064-ae7f-fe87403c632b"},"vehicle_type_id":"4","last_reported":1735225726,"current_range_meters":28400,"station_id":"cpo3342slgdg3j2ifvpg","pricing_plan_id":"cebpf4jnsgd1na2vs0mg"},{"bike_id":"0ba02632-ef56-42f4-9b76-5c06f259c503","system_id":"levelo_inurba_marseille","lat":43.30144,"lon":5.37422,"is_reserved":false,"is_disabled":true,"rental_uris":{"android":"levelo://app?vid=0ba02632-ef56-42f4-9b76-5c06f259c503","ios":"levelo://app?vid=0ba02632-ef56-42f4-9b76-5c06f259c503"},"vehicle_type_id":"4","last_reported":1735225726,"current_range_meters":2000,"station_id":"ce4bgs92rcd13ifvqcc0","pricing_plan_id":"cebpf4jnsgd1na2vs0mg"},{"bike_id":"8dc7feae-e456-496f-bc14-7216ececc50e","system_id":"levelo_inurba_marseille","lat":43.29571,"lon":5.37498,"is_reserved":false,"is_disabled":false,"rental_uris":{"android":"levelo://app?vid=8dc7feae-e456-496f-bc14-7216ececc50e","ios":"levelo://app?vid=8dc7feae-e456-496f-bc14-7216ececc50e"},"vehicle_type_id":"4","last_reported":1735225726,"current_range_meters":19200,"station_id":"ce4bgh92rcd13ifvqb50","pricing_plan_id":"cebpf4jnsgd1na2vs0mg"},{"bike_id":"5224441a-b68c-40ab-86ed-f83245a682ff","system_id":"levelo_inurba_marseille","lat":43.28486,"lon":5.38538,"is_reserved":false,"is_disabled":false,"rental_uris":{"android":"levelo://app?vid=5224441a-b68c-40ab-86ed-f83245a682ff","ios":"levelo://app?vid=5224441a-b68c-40ab-86ed-f83245a682ff"},"vehicle_type_id":"4","last_reported":1735225726,"current_range_meters":25200,"station_id":"ce4bh8p2rcd13ifvqeb0","pricing_plan_id":"cebpf4jnsgd1na2vs0mg"},{"bike_id":"cde5a6f0-d593-42b1-864e-b923ad3f4516","system_id":"levelo_inurba_marseille","lat":43.30599,"lon":5.39345,"is_reserved":false,"is_disabled":false,"rental_uris":{"android":"levelo://app?vid=cde5a6f0-d593-42b1-864e-b923ad3f4516","ios":"levelo://app?vid=cde5a6f0-d593-42b1-864e-b923ad3f4516"},"vehicle_type_id":"4","last_reported":1735225726,"current_range_meters":38800,"station_id":"ce4bh0p2rcd13ifvqd80","pricing_plan_id":"cebpf4jnsgd1na2vs0mg"},{"bike_id":"d0533ccb-11ce-46dc-9cca-daa9f7a4985a","system_id":"levelo_inurba_marseille","lat":43.29554,"lon":5.42287,"is_reserved":false,"is_disabled":false,"rental_uris":{"android":"levelo://app?vid=d0533ccb-11ce-46dc-9cca-daa9f7a4985a","ios":"levelo://app?vid=d0533ccb-11ce-46dc-9cca-daa9f7a4985a"},"vehicle_type_id":"4","last_reported":1735225726,"current_range_meters":38800,"station_id":"ce4bhph2rcd13ifvqhdg","pricing_plan_id":"cebpf4jnsgd1na2vs0mg"},{"bike_id":"70736600-4e4d-4f00-8b12-c697e0da57c9","system_id":"levelo_inurba_marseille","lat":43.29574,"lon":5.37502,"is_reserved":false,"is_disabled":false,"rental_uris":{"android":"levelo://app?vid=70736600-4e4d-4f00-8b12-c697e0da57c9","ios":"levelo://app?vid=70736600-4e4d-4f00-8b12-c697e0da57c9"},"vehicle_type_id":"4","last_reported":1735225726,"current_range_meters":36000,"station_id":"ce4bgh92rcd13ifvqb50","pricing_plan_id":"cebpf4jnsgd1na2vs0mg"},{"bike_id":"f298c7ec-8410-4753-bbca-f7b98c093090","system_id":"levelo_inurba_marseille","lat":43.29611,"lon":5.38107,"is_reserved":false,"is_disabled":false,"rental_uris":{"android":"levelo://app?vid=f298c7ec-8410-4753-bbca-f7b98c093090","ios":"levelo://app?vid=f298c7ec-8410-4753-bbca-f7b98c093090"},"vehicle_type_id":"4","last_reported":1735225726,"current_range_meters":26000,"station_id":"ce4bgl12rcd13ifvqbo0","pricing_plan_id":"cebpf4jnsgd1na2vs0mg"},{"bike_id":"b32fb18a-c8a8-4404-98aa-9a585746a89d","system_id":"levelo_inurba_marseille","lat":43.32038,"lon":5.41546,"is_reserved":false,"is_disabled":false,"rental_uris":{"android":"levelo://app?vid=b32fb18a-c8a8-4404-98aa-9a585746a89d","ios":"levelo://app?vid=b32fb18a-c8a8-4404-98aa-9a585746a89d"},"vehicle_type_id":"4","last_reported":1735225726,"current_range_meters":32400,"station_id":"ce4bhq92rcd13ifvqhkg","pricing_plan_id":"cebpf4jnsgd1na2vs0mg"},{"bike_id":"186ab767-dd05-4b5f-9fb0-dc469dc690ba","system_id":"levelo_inurba_marseille","lat":43.2454,"lon":5.39529,"is_reserved":false,"is_disabled":false,"rental_uris":{"android":"levelo://app?vid=186ab767-dd05-4b5f-9fb0-dc469dc690ba","ios":"levelo://app?vid=186ab767-dd05-4b5f-9fb0-dc469dc690ba"},"vehicle_type_id":"4","last_reported":1735225726,"current_range_meters":28000,"station_id":"ce4bhlp2rcd13ifvqgjg","pricing_plan_id":"cebpf4jnsgd1na2vs0mg"},{"bike_id":"7ca2e3d6-4ca3-4d99-b34e-9fb53337dde8","system_id":"levelo_inurba_marseille","lat":43.24163,"lon":5.36401,"is_reserved":false,"is_disabled":false,"rental_uris":{"android":"levelo://app?vid=7ca2e3d6-4ca3-4d99-b34e-9fb53337dde8","ios":"levelo://app?vid=7ca2e3d6-4ca3-4d99-b34e-9fb53337dde8"},"vehicle_type_id":"4","last_reported":1735225726,"current_range_meters":12400,"station_id":"cpo36qri1sfpv3e86is0","pricing_plan_id":"cebpf4jnsgd1na2vs0mg"},{"bike_id":"61b6d437-e950-46a2-8cbf-76c4bc393d6f","system_id":"levelo_inurba_marseille","lat":43.27058,"lon":5.4228,"is_reserved":false,"is_disabled":false,"rental_uris":{"android":"levelo://app?vid=61b6d437-e950-46a2-8cbf-76c4bc393d6f","ios":"levelo://app?vid=61b6d437-e950-46a2-8cbf-76c4bc393d6f"},"vehicle_type_id":"4","last_reported":1735225726,"current_range_meters":9600,"station_id":"ce4bhk92rcd13ifvqgb0","pricing_plan_id":"cebpf4jnsgd1na2vs0mg"},{"bike_id":"ee09bb5a-418e-4e4b-aa9d-02cb6f33df58","system_id":"levelo_inurba_marseille","lat":43.3021,"lon":5.39476,"is_reserved":false,"is_disabled":false,"rental_uris":{"android":"levelo://app?vid=ee09bb5a-418e-4e4b-aa9d-02cb6f33df58","ios":"levelo://app?vid=ee09bb5a-418e-4e4b-aa9d-02cb6f33df58"},"vehicle_type_id":"4","last_reported":1735225726,"current_range_meters":37600,"station_id":"ce4bh0p2rcd13ifvqd70","pricing_plan_id":"cebpf4jnsgd1na2vs0mg"},{"bike_id":"417a3b93-35ae-43df-b252-fc6e1dccb29d","system_id":"levelo_inurba_marseille","lat":43.30132,"lon":5.39863,"is_reserved":false,"is_disabled":false,"rental_uris":{"android":"levelo://app?vid=417a3b93-35ae-43df-b252-fc6e1dccb29d","ios":"levelo://app?vid=417a3b93-35ae-43df-b252-fc6e1dccb29d"},"vehicle_type_id":"4","last_reported":1735225726,"current_range_meters":39200,"station_id":"ce4bh0h2rcd13ifvqd40","pricing_plan_id":"cebpf4jnsgd1na2vs0mg"},{"bike_id":"7ec3319e-e8cc-404b-a9a7-29fe820e2e42","system_id":"levelo_inurba_marseille","lat":43.26213,"lon":5.3744,"is_reserved":false,"is_disabled":false,"rental_uris":{"android":"levelo://app?vid=7ec3319e-e8cc-404b-a9a7-29fe820e2e42","ios":"levelo://app?vid=7ec3319e-e8cc-404b-a9a7-29fe820e2e42"},"vehicle_type_id":"4","last_reported":1735225726,"current_range_meters":20000,"station_id":"ce4bhgp2rcd13ifvqfc0","pricing_plan_id":"cebpf4jnsgd1na2vs0mg"},{"bike_id":"2b08ca99-c6f3-4395-ab2d-aeebc3305aa4","system_id":"levelo_inurba_marseille","lat":43.33751,"lon":5.3748,"is_reserved":false,"is_disabled":false,"rental_uris":{"android":"levelo://app?vid=2b08ca99-c6f3-4395-ab2d-aeebc3305aa4","ios":"levelo://app?vid=2b08ca99-c6f3-4395-ab2d-aeebc3305aa4"},"vehicle_type_id":"4","last_reported":1735225726,"current_range_meters":36400,"station_id":"","pricing_plan_id":"cebpf4jnsgd1na2vs0mg"},{"bike_id":"23e25e04-dd29-4836-8ab5-f117edae0dca","system_id":"levelo_inurba_marseille","lat":43.30137,"lon":5.37429,"is_reserved":false,"is_disabled":false,"rental_uris":{"android":"levelo://app?vid=23e25e04-dd29-4836-8ab5-f117edae0dca","ios":"levelo://app?vid=23e25e04-dd29-4836-8ab5-f117edae0dca"},"vehicle_type_id":"4","last_reported":1735225726,"current_range_meters":38800,"station_id":"ce4bgs92rcd13ifvqcc0","pricing_plan_id":"cebpf4jnsgd1na2vs0mg"},{"bike_id":"c97e8bb4-ad61-447a-855c-97d32844b185","system_id":"levelo_inurba_marseille","lat":43.28847,"lon":5.35849,"is_reserved":false,"is_disabled":false,"rental_uris":{"android":"levelo://app?vid=c97e8bb4-ad61-447a-855c-97d32844b185","ios":"levelo://app?vid=c97e8bb4-ad61-447a-855c-97d32844b185"},"vehicle_type_id":"4","last_reported":1735225726,"current_range_meters":34000,"station_id":"ce4bhb12rcd13ifvqem0","pricing_plan_id":"cebpf4jnsgd1na2vs0mg"},{"bike_id":"bc30f3cb-59ad-4e06-a03e-0f8f9d2c9afb","system_id":"levelo_inurba_marseille","lat":43.27667,"lon":5.38902,"is_reserved":false,"is_disabled":false,"rental_uris":{"android":"levelo://app?vid=bc30f3cb-59ad-4e06-a03e-0f8f9d2c9afb","ios":"levelo://app?vid=bc30f3cb-59ad-4e06-a03e-0f8f9d2c9afb"},"vehicle_type_id":"4","last_reported":1735225726,"current_range_meters":37600,"station_id":"ce4bhi12rcd13ifvqfo0","pricing_plan_id":"cebpf4jnsgd1na2vs0mg"},{"bike_id":"33e4c278-497a-4992-9269-3f4bd7a2ca60","system_id":"levelo_inurba_marseille","lat":43.29898,"lon":5.37464,"is_reserved":false,"is_disabled":false,"rental_uris":{"android":"levelo://app?vid=33e4c278-497a-4992-9269-3f4bd7a2ca60","ios":"levelo://app?vid=33e4c278-497a-4992-9269-3f4bd7a2ca60"},"vehicle_type_id":"4","last_reported":1735225726,"current_range_meters":30400,"station_id":"ce4bgjh2rcd13ifvqbg0","pricing_plan_id":"cebpf4jnsgd1na2vs0mg"},{"bike_id":"23f223a7-cc44-4227-b5c8-9b31a8c11b36","system_id":"levelo_inurba_marseille","lat":43.33836,"lon":5.38297,"is_reserved":false,"is_disabled":false,"rental_uris":{"android":"levelo://app?vid=23f223a7-cc44-4227-b5c8-9b31a8c11b36","ios":"levelo://app?vid=23f223a7-cc44-4227-b5c8-9b31a8c11b36"},"vehicle_type_id":"4","last_reported":1735225726,"current_range_meters":25600,"station_id":"","pricing_plan_id":"cebpf4jnsgd1na2vs0mg"},{"bike_id":"cbda0d40-95fc-4acc-94f7-81be71c2bb1f","system_id":"levelo_inurba_marseille","lat":43.29572,"lon":5.36753,"is_reserved":false,"is_disabled":false,"rental_uris":{"android":"levelo://app?vid=cbda0d40-95fc-4acc-94f7-81be71c2bb1f","ios":"levelo://app?vid=cbda0d40-95fc-4acc-94f7-81be71c2bb1f"},"vehicle_type_id":"4","last_reported":1735225726,"current_range_meters":24800,"station_id":"ce4bgph2rcd13ifvqc2g","pricing_plan_id":"cebpf4jnsgd1na2vs0mg"},{"bike_id":"af6e3489-9e1d-400c-99e8-75b160778072","system_id":"levelo_inurba_marseille","lat":43.30887,"lon":5.37191,"is_reserved":false,"is_disabled":false,"rental_uris":{"android":"levelo://app?vid=af6e3489-9e1d-400c-99e8-75b160778072","ios":"levelo://app?vid=af6e3489-9e1d-400c-99e8-75b160778072"},"vehicle_type_id":"4","last_reported":1735225726,"current_range_meters":15200,"station_id":"ce4bguh2rcd13ifvqckg","pricing_plan_id":"cebpf4jnsgd1na2vs0mg"},{"bike_id":"aefc4ad1-7b2f-4fcb-a9c2-71d08d505f0e","system_id":"levelo_inurba_marseille","lat":43.24681,"lon":5.3816,"is_reserved":false,"is_disabled":false,"rental_uris":{"android":"levelo://app?vid=aefc4ad1-7b2f-4fcb-a9c2-71d08d505f0e","ios":"levelo://app?vid=aefc4ad1-7b2f-4fcb-a9c2-71d08d505f0e"},"vehicle_type_id":"4","last_reported":1735225726,"current_range_meters":39200,"station_id":"ce4bhih2rcd13ifvqfr0","pricing_plan_id":"cebpf4jnsgd1na2vs0mg"},{"bike_id":"fa7b6f51-07ff-4e1f-ba75-2880fb9ee1b2","system_id":"levelo_inurba_marseille","lat":43.24163,"lon":5.36419,"is_reserved":false,"is_disabled":false,"rental_uris":{"android":"levelo://app?vid=fa7b6f51-07ff-4e1f-ba75-2880fb9ee1b2","ios":"levelo://app?vid=fa7b6f51-07ff-4e1f-ba75-2880fb9ee1b2"},"vehicle_type_id":"4","last_reported":1735225726,"current_range_meters":27200,"station_id":"cpo36qri1sfpv3e86is0","pricing_plan_id":"cebpf4jnsgd1na2vs0mg"},{"bike_id":"a0898d4b-2086-47da-9ba0-4953b8186d9a","system_id":"levelo_inurba_marseille","lat":43.23963,"lon":5.36628,"is_reserved":false,"is_disabled":false,"rental_uris":{"android":"levelo://app?vid=a0898d4b-2086-47da-9ba0-4953b8186d9a","ios":"levelo://app?vid=a0898d4b-2086-47da-9ba0-4953b8186d9a"},"vehicle_type_id":"4","last_reported":1735225726,"current_range_meters":21600,"station_id":"ce4bhi12rcd13ifvqfp0","pricing_plan_id":"cebpf4jnsgd1na2vs0mg"},{"bike_id":"3484b42b-fb92-4df7-950c-ba5afdfbc366","system_id":"levelo_inurba_marseille","lat":43.27986,"lon":5.40022,"is_reserved":false,"is_disabled":false,"rental_uris":{"android":"levelo://app?vid=3484b42b-fb92-4df7-950c-ba5afdfbc366","ios":"levelo://app?vid=3484b42b-fb92-4df7-950c-ba5afdfbc366"},"vehicle_type_id":"4","last_reported":1735225726,"current_range_meters":23200,"station_id":"ce4bho92rcd13ifvqh4g","pricing_plan_id":"cebpf4jnsgd1na2vs0mg"},{"bike_id":"b5d62212-20a0-4e84-b1ab-de7b86e281ef","system_id":"levelo_inurba_marseille","lat":43.29902,"lon":5.37488,"is_reserved":false,"is_disabled":false,"rental_uris":{"android":"levelo://app?vid=b5d62212-20a0-4e84-b1ab-de7b86e281ef","ios":"levelo://app?vid=b5d62212-20a0-4e84-b1ab-de7b86e281ef"},"vehicle_type_id":"4","last_reported":1735225726,"current_range_meters":27200,"station_id":"ce4bgjh2rcd13ifvqbg0","pricing_plan_id":"cebpf4jnsgd1na2vs0mg"},{"bike_id":"097fbffe-cfb2-4bd3-9cee-c3e24274bce5","system_id":"levelo_inurba_marseille","lat":43.30203,"lon":5.39466,"is_reserved":false,"is_disabled":false,"rental_uris":{"android":"levelo://app?vid=097fbffe-cfb2-4bd3-9cee-c3e24274bce5","ios":"levelo://app?vid=097fbffe-cfb2-4bd3-9cee-c3e24274bce5"},"vehicle_type_id":"4","last_reported":1735225726,"current_range_meters":39200,"station_id":"ce4bh0p2rcd13ifvqd70","pricing_plan_id":"cebpf4jnsgd1na2vs0mg"},{"bike_id":"a75bbc23-aa3f-44bd-8bd9-1b76f294eba0","system_id":"levelo_inurba_marseille","lat":43.28473,"lon":5.38558,"is_reserved":false,"is_disabled":false,"rental_uris":{"android":"levelo://app?vid=a75bbc23-aa3f-44bd-8bd9-1b76f294eba0","ios":"levelo://app?vid=a75bbc23-aa3f-44bd-8bd9-1b76f294eba0"},"vehicle_type_id":"4","last_reported":1735225726,"current_range_meters":32800,"station_id":"ce4bh8p2rcd13ifvqeb0","pricing_plan_id":"cebpf4jnsgd1na2vs0mg"},{"bike_id":"8ec28cf9-fdc7-48e4-9622-6ac063c99bb2","system_id":"levelo_inurba_marseille","lat":43.29278,"lon":5.36844,"is_reserved":false,"is_disabled":false,"rental_uris":{"android":"levelo://app?vid=8ec28cf9-fdc7-48e4-9622-6ac063c99bb2","ios":"levelo://app?vid=8ec28cf9-fdc7-48e4-9622-6ac063c99bb2"},"vehicle_type_id":"4","last_reported":1735225726,"current_range_meters":38800,"station_id":"ce4bhbp2rcd13ifvqesg","pricing_plan_id":"cebpf4jnsgd1na2vs0mg"},{"bike_id":"b4200fb4-1aeb-4f54-b276-c563ba1fda9e","system_id":"levelo_inurba_marseille","lat":43.29812,"lon":5.38094,"is_reserved":false,"is_disabled":false,"rental_uris":{"android":"levelo://app?vid=b4200fb4-1aeb-4f54-b276-c563ba1fda9e","ios":"levelo://app?vid=b4200fb4-1aeb-4f54-b276-c563ba1fda9e"},"vehicle_type_id":"4","last_reported":1735225726,"current_range_meters":30400,"station_id":"ce4bgip2rcd13ifvqbb0","pricing_plan_id":"cebpf4jnsgd1na2vs0mg"},{"bike_id":"e35e7da5-7eee-47f3-a404-ab1ac6a4390d","system_id":"levelo_inurba_marseille","lat":43.30312,"lon":5.39203,"is_reserved":false,"is_disabled":false,"rental_uris":{"android":"levelo://app?vid=e35e7da5-7eee-47f3-a404-ab1ac6a4390d","ios":"levelo://app?vid=e35e7da5-7eee-47f3-a404-ab1ac6a4390d"},"vehicle_type_id":"4","last_reported":1735225726,"current_range_meters":36400,"station_id":"ce4bgkh2rcd13ifvqbk0","pricing_plan_id":"cebpf4jnsgd1na2vs0mg"},{"bike_id":"5f8a76e6-d34b-4171-ae8b-f316ea07c0e1","system_id":"levelo_inurba_marseille","lat":43.25499,"lon":5.37652,"is_reserved":false,"is_disabled":false,"rental_uris":{"android":"levelo://app?vid=5f8a76e6-d34b-4171-ae8b-f316ea07c0e1","ios":"levelo://app?vid=5f8a76e6-d34b-4171-ae8b-f316ea07c0e1"},"vehicle_type_id":"4","last_reported":1735225726,"current_range_meters":26000,"station_id":"ce4bhh12rcd13ifvqff0","pricing_plan_id":"cebpf4jnsgd1na2vs0mg"},{"bike_id":"86ae6257-84fd-4e32-b674-f23a136ab287","system_id":"levelo_inurba_marseille","lat":43.2893,"lon":5.39633,"is_reserved":false,"is_disabled":false,"rental_uris":{"android":"levelo://app?vid=86ae6257-84fd-4e32-b674-f23a136ab287","ios":"levelo://app?vid=86ae6257-84fd-4e32-b674-f23a136ab287"},"vehicle_type_id":"4","last_reported":1735225726,"current_range_meters":38800,"station_id":"ce4bh3h2rcd13ifvqdn0","pricing_plan_id":"cebpf4jnsgd1na2vs0mg"},{"bike_id":"09898dd2-84ad-4911-a21d-d1f0823964b3","system_id":"levelo_inurba_marseille","lat":43.2964,"lon":5.37742,"is_reserved":false,"is_disabled":false,"rental_uris":{"android":"levelo://app?vid=09898dd2-84ad-4911-a21d-d1f0823964b3","ios":"levelo://app?vid=09898dd2-84ad-4911-a21d-d1f0823964b3"},"vehicle_type_id":"4","last_reported":1735225726,"current_range_meters":39200,"station_id":"ce4bgi92rcd13ifvqb90","pricing_plan_id":"cebpf4jnsgd1na2vs0mg"},{"bike_id":"60968da4-eb7b-45c8-944b-65c3601ac59f","system_id":"levelo_inurba_marseille","lat":43.29594,"lon":5.38094,"is_reserved":false,"is_disabled":false,"rental_uris":{"android":"levelo://app?vid=60968da4-eb7b-45c8-944b-65c3601ac59f","ios":"levelo://app?vid=60968da4-eb7b-45c8-944b-65c3601ac59f"},"vehicle_type_id":"4","last_reported":1735225726,"current_range_meters":26800,"station_id":"ce4bgl12rcd13ifvqbo0","pricing_plan_id":"cebpf4jnsgd1na2vs0mg"},{"bike_id":"280a2d8e-0091-49b8-beab-ee950b68e6eb","system_id":"levelo_inurba_marseille","lat":43.25501,"lon":5.37651,"is_reserved":false,"is_disabled":false,"rental_uris":{"android":"levelo://app?vid=280a2d8e-0091-49b8-beab-ee950b68e6eb","ios":"levelo://app?vid=280a2d8e-0091-49b8-beab-ee950b68e6eb"},"vehicle_type_id":"4","last_reported":1735225726,"current_range_meters":11200,"station_id":"ce4bhh12rcd13ifvqff0","pricing_plan_id":"cebpf4jnsgd1na2vs0mg"},{"bike_id":"7608f1ad-6069-4760-9820-c5af492fd707","system_id":"levelo_inurba_marseille","lat":43.2958,"lon":5.36742,"is_reserved":false,"is_disabled":false,"rental_uris":{"android":"levelo://app?vid=7608f1ad-6069-4760-9820-c5af492fd707","ios":"levelo://app?vid=7608f1ad-6069-4760-9820-c5af492fd707"},"vehicle_type_id":"4","last_reported":1735225726,"current_range_meters":38800,"station_id":"ce4bgph2rcd13ifvqc2g","pricing_plan_id":"cebpf4jnsgd1na2vs0mg"},{"bike_id":"537327b4-71fa-4ea6-994e-02a9508be1fa","system_id":"levelo_inurba_marseille","lat":43.30802,"lon":5.38137,"is_reserved":false,"is_disabled":false,"rental_uris":{"android":"levelo://app?vid=537327b4-71fa-4ea6-994e-02a9508be1fa","ios":"levelo://app?vid=537327b4-71fa-4ea6-994e-02a9508be1fa"},"vehicle_type_id":"4","last_reported":1735225726,"current_range_meters":30000,"station_id":"ce4bgt12rcd13ifvqce0","pricing_plan_id":"cebpf4jnsgd1na2vs0mg"},{"bike_id":"96f8971f-b196-4976-b200-b3223571e8ae","system_id":"levelo_inurba_marseille","lat":43.28105,"lon":5.37859,"is_reserved":false,"is_disabled":false,"rental_uris":{"android":"levelo://app?vid=96f8971f-b196-4976-b200-b3223571e8ae","ios":"levelo://app?vid=96f8971f-b196-4976-b200-b3223571e8ae"},"vehicle_type_id":"4","last_reported":1735225726,"current_range_meters":38800,"station_id":"ce4bha12rcd13ifvqee0","pricing_plan_id":"cebpf4jnsgd1na2vs0mg"},{"bike_id":"6df47f9a-2218-4432-9a89-1580173873d9","system_id":"levelo_inurba_marseille","lat":43.28368,"lon":5.38629,"is_reserved":false,"is_disabled":false,"rental_uris":{"android":"levelo://app?vid=6df47f9a-2218-4432-9a89-1580173873d9","ios":"levelo://app?vid=6df47f9a-2218-4432-9a89-1580173873d9"},"vehicle_type_id":"4","last_reported":1735225726,"current_range_meters":26000,"station_id":"ce4bh492rcd13ifvqdvg","pricing_plan_id":"cebpf4jnsgd1na2vs0mg"},{"bike_id":"6fc39219-982d-4feb-9b3b-e1ba4db40afe","system_id":"levelo_inurba_marseille","lat":43.29594,"lon":5.381,"is_reserved":false,"is_disabled":false,"rental_uris":{"android":"levelo://app?vid=6fc39219-982d-4feb-9b3b-e1ba4db40afe","ios":"levelo://app?vid=6fc39219-982d-4feb-9b3b-e1ba4db40afe"},"vehicle_type_id":"4","last_reported":1735225726,"current_range_meters":38800,"station_id":"ce4bgl12rcd13ifvqbo0","pricing_plan_id":"cebpf4jnsgd1na2vs0mg"},{"bike_id":"e73e6057-e6e9-407b-a17e-f4e119a96aba","system_id":"levelo_inurba_marseille","lat":43.32109,"lon":5.36777,"is_reserved":false,"is_disabled":false,"rental_uris":{"android":"levelo://app?vid=e73e6057-e6e9-407b-a17e-f4e119a96aba","ios":"levelo://app?vid=e73e6057-e6e9-407b-a17e-f4e119a96aba"},"vehicle_type_id":"4","last_reported":1735225726,"current_range_meters":26800,"station_id":"ce4bhrh2rcd13ifvqhug","pricing_plan_id":"cebpf4jnsgd1na2vs0mg"},{"bike_id":"ab22365c-bdba-4f7c-81a5-7e7ddb1ecf11","system_id":"levelo_inurba_marseille","lat":43.29308,"lon":5.37162,"is_reserved":false,"is_disabled":false,"rental_uris":{"android":"levelo://app?vid=ab22365c-bdba-4f7c-81a5-7e7ddb1ecf11","ios":"levelo://app?vid=ab22365c-bdba-4f7c-81a5-7e7ddb1ecf11"},"vehicle_type_id":"4","last_reported":1735225726,"current_range_meters":28400,"station_id":"ce4bgh92rcd13ifvqb40","pricing_plan_id":"cebpf4jnsgd1na2vs0mg"},{"bike_id":"97c4b6b4-76de-4eb4-95c4-3011e95af99f","system_id":"levelo_inurba_marseille","lat":43.29269,"lon":5.36847,"is_reserved":false,"is_disabled":false,"rental_uris":{"android":"levelo://app?vid=97c4b6b4-76de-4eb4-95c4-3011e95af99f","ios":"levelo://app?vid=97c4b6b4-76de-4eb4-95c4-3011e95af99f"},"vehicle_type_id":"4","last_reported":1735225726,"current_range_meters":17200,"station_id":"ce4bhbp2rcd13ifvqesg","pricing_plan_id":"cebpf4jnsgd1na2vs0mg"},{"bike_id":"6bdfc4aa-16d8-4b7f-b151-e7dd309fc3ee","system_id":"levelo_inurba_marseille","lat":43.299789,"lon":5.37194,"is_reserved":false,"is_disabled":false,"rental_uris":{"android":"levelo://app?vid=6bdfc4aa-16d8-4b7f-b151-e7dd309fc3ee","ios":"levelo://app?vid=6bdfc4aa-16d8-4b7f-b151-e7dd309fc3ee"},"vehicle_type_id":"4","last_reported":1735225726,"current_range_meters":39200,"station_id":"ce4bgr92rcd13ifvqc7g","pricing_plan_id":"cebpf4jnsgd1na2vs0mg"},{"bike_id":"09f4ca39-6ced-4e76-876e-0aafc9bc2b35","system_id":"levelo_inurba_marseille","lat":43.26855,"lon":5.37067,"is_reserved":false,"is_disabled":true,"rental_uris":{"android":"levelo://app?vid=09f4ca39-6ced-4e76-876e-0aafc9bc2b35","ios":"levelo://app?vid=09f4ca39-6ced-4e76-876e-0aafc9bc2b35"},"vehicle_type_id":"4","last_reported":1735225726,"current_range_meters":0,"station_id":"","pricing_plan_id":"cebpf4jnsgd1na2vs0mg"},{"bike_id":"a019add0-d0a3-45ce-8293-9f44e8e7a821","system_id":"levelo_inurba_marseille","lat":43.32539,"lon":5.41435,"is_reserved":false,"is_disabled":false,"rental_uris":{"android":"levelo://app?vid=a019add0-d0a3-45ce-8293-9f44e8e7a821","ios":"levelo://app?vid=a019add0-d0a3-45ce-8293-9f44e8e7a821"},"vehicle_type_id":"4","last_reported":1735225726,"current_range_meters":36800,"station_id":"ce4bhq12rcd13ifvqhhg","pricing_plan_id":"cebpf4jnsgd1na2vs0mg"},{"bike_id":"21867dfa-1d9e-4981-a816-297b2558c2b3","system_id":"levelo_inurba_marseille","lat":43.28442,"lon":5.39204,"is_reserved":false,"is_disabled":false,"rental_uris":{"android":"levelo://app?vid=21867dfa-1d9e-4981-a816-297b2558c2b3","ios":"levelo://app?vid=21867dfa-1d9e-4981-a816-297b2558c2b3"},"vehicle_type_id":"4","last_reported":1735225726,"current_range_meters":37600,"station_id":"ce4bhoh2rcd13ifvqh5g","pricing_plan_id":"cebpf4jnsgd1na2vs0mg"},{"bike_id":"e3055757-4e5c-471b-bc49-10de19223f16","system_id":"levelo_inurba_marseille","lat":43.32051,"lon":5.41567,"is_reserved":false,"is_disabled":false,"rental_uris":{"android":"levelo://app?vid=e3055757-4e5c-471b-bc49-10de19223f16","ios":"levelo://app?vid=e3055757-4e5c-471b-bc49-10de19223f16"},"vehicle_type_id":"4","last_reported":1735225726,"current_range_meters":38800,"station_id":"ce4bhq92rcd13ifvqhkg","pricing_plan_id":"cebpf4jnsgd1na2vs0mg"},{"bike_id":"88e46c7f-3562-4ea7-8412-50dbf381568d","system_id":"levelo_inurba_marseille","lat":43.24999,"lon":5.38926,"is_reserved":false,"is_disabled":false,"rental_uris":{"android":"levelo://app?vid=88e46c7f-3562-4ea7-8412-50dbf381568d","ios":"levelo://app?vid=88e46c7f-3562-4ea7-8412-50dbf381568d"},"vehicle_type_id":"4","last_reported":1735225726,"current_range_meters":22800,"station_id":"ce4bhgp2rcd13ifvqfd0","pricing_plan_id":"cebpf4jnsgd1na2vs0mg"},{"bike_id":"7e230b65-305b-42e8-a3a0-5884c3d605cc","system_id":"levelo_inurba_marseille","lat":43.24071,"lon":5.37761,"is_reserved":false,"is_disabled":false,"rental_uris":{"android":"levelo://app?vid=7e230b65-305b-42e8-a3a0-5884c3d605cc","ios":"levelo://app?vid=7e230b65-305b-42e8-a3a0-5884c3d605cc"},"vehicle_type_id":"4","last_reported":1735225726,"current_range_meters":16400,"station_id":"ce4bhnp2rcd13ifvqgvg","pricing_plan_id":"cebpf4jnsgd1na2vs0mg"},{"bike_id":"6d25a30b-30d6-41bb-9eba-44bccb93801a","system_id":"levelo_inurba_marseille","lat":43.29191,"lon":5.39309,"is_reserved":false,"is_disabled":false,"rental_uris":{"android":"levelo://app?vid=6d25a30b-30d6-41bb-9eba-44bccb93801a","ios":"levelo://app?vid=6d25a30b-30d6-41bb-9eba-44bccb93801a"},"vehicle_type_id":"4","last_reported":1735225726,"current_range_meters":9200,"station_id":"ce4bh192rcd13ifvqdd0","pricing_plan_id":"cebpf4jnsgd1na2vs0mg"},{"bike_id":"1e7b217a-b027-4110-90d3-48819f0dec1b","system_id":"levelo_inurba_marseille","lat":43.28421,"lon":5.34994,"is_reserved":false,"is_disabled":false,"rental_uris":{"android":"levelo://app?vid=1e7b217a-b027-4110-90d3-48819f0dec1b","ios":"levelo://app?vid=1e7b217a-b027-4110-90d3-48819f0dec1b"},"vehicle_type_id":"4","last_reported":1735225726,"current_range_meters":18800,"station_id":"ce4bhbh2rcd13ifvqepg","pricing_plan_id":"cebpf4jnsgd1na2vs0mg"},{"bike_id":"3cacdd04-949f-49bb-be4a-8ae2b8d0fbbe","system_id":"levelo_inurba_marseille","lat":43.30598,"lon":5.37221,"is_reserved":false,"is_disabled":false,"rental_uris":{"android":"levelo://app?vid=3cacdd04-949f-49bb-be4a-8ae2b8d0fbbe","ios":"levelo://app?vid=3cacdd04-949f-49bb-be4a-8ae2b8d0fbbe"},"vehicle_type_id":"4","last_reported":1735225726,"current_range_meters":28400,"station_id":"ce4bgqh2rcd13ifvqc4g","pricing_plan_id":"cebpf4jnsgd1na2vs0mg"},{"bike_id":"50e9988d-8c66-43a7-82cb-9818dcb38114","system_id":"levelo_inurba_marseille","lat":43.30426,"lon":5.39753,"is_reserved":false,"is_disabled":false,"rental_uris":{"android":"levelo://app?vid=50e9988d-8c66-43a7-82cb-9818dcb38114","ios":"levelo://app?vid=50e9988d-8c66-43a7-82cb-9818dcb38114"},"vehicle_type_id":"4","last_reported":1735225726,"current_range_meters":38800,"station_id":"ce4bh092rcd13ifvqd20","pricing_plan_id":"cebpf4jnsgd1na2vs0mg"},{"bike_id":"d31240d3-9979-449f-a2b4-47db9b31346e","system_id":"levelo_inurba_marseille","lat":43.28464,"lon":5.38543,"is_reserved":false,"is_disabled":false,"rental_uris":{"android":"levelo://app?vid=d31240d3-9979-449f-a2b4-47db9b31346e","ios":"levelo://app?vid=d31240d3-9979-449f-a2b4-47db9b31346e"},"vehicle_type_id":"4","last_reported":1735225726,"current_range_meters":28400,"station_id":"ce4bh8p2rcd13ifvqeb0","pricing_plan_id":"cebpf4jnsgd1na2vs0mg"},{"bike_id":"3cfbfab2-0745-483f-9463-adceeaa17cbd","system_id":"levelo_inurba_marseille","lat":43.26209,"lon":5.37442,"is_reserved":false,"is_disabled":false,"rental_uris":{"android":"levelo://app?vid=3cfbfab2-0745-483f-9463-adceeaa17cbd","ios":"levelo://app?vid=3cfbfab2-0745-483f-9463-adceeaa17cbd"},"vehicle_type_id":"4","last_reported":1735225726,"current_range_meters":14000,"station_id":"ce4bhgp2rcd13ifvqfc0","pricing_plan_id":"cebpf4jnsgd1na2vs0mg"},{"bike_id":"dad6db58-f5bc-4da2-b0b4-3d5d1002166b","system_id":"levelo_inurba_marseille","lat":43.3211,"lon":5.367795,"is_reserved":false,"is_disabled":false,"rental_uris":{"android":"levelo://app?vid=dad6db58-f5bc-4da2-b0b4-3d5d1002166b","ios":"levelo://app?vid=dad6db58-f5bc-4da2-b0b4-3d5d1002166b"},"vehicle_type_id":"4","last_reported":1735225726,"current_range_meters":20800,"station_id":"ce4bhrh2rcd13ifvqhug","pricing_plan_id":"cebpf4jnsgd1na2vs0mg"},{"bike_id":"d215e6a3-2dbb-4240-82c4-dbdd5ce5595f","system_id":"levelo_inurba_marseille","lat":43.29902,"lon":5.38152,"is_reserved":false,"is_disabled":false,"rental_uris":{"android":"levelo://app?vid=d215e6a3-2dbb-4240-82c4-dbdd5ce5595f","ios":"levelo://app?vid=d215e6a3-2dbb-4240-82c4-dbdd5ce5595f"},"vehicle_type_id":"4","last_reported":1735225726,"current_range_meters":38000,"station_id":"ce4bgj12rcd13ifvqbc0","pricing_plan_id":"cebpf4jnsgd1na2vs0mg"},{"bike_id":"5288de5a-7b5d-49f6-a273-76e383ab7ff0","system_id":"levelo_inurba_marseille","lat":43.30294,"lon":5.39229,"is_reserved":false,"is_disabled":false,"rental_uris":{"android":"levelo://app?vid=5288de5a-7b5d-49f6-a273-76e383ab7ff0","ios":"levelo://app?vid=5288de5a-7b5d-49f6-a273-76e383ab7ff0"},"vehicle_type_id":"4","last_reported":1735225726,"current_range_meters":16000,"station_id":"ce4bgkh2rcd13ifvqbk0","pricing_plan_id":"cebpf4jnsgd1na2vs0mg"},{"bike_id":"34c891ca-d880-487f-86cd-38d0d84454a2","system_id":"levelo_inurba_marseille","lat":43.29249,"lon":5.38447,"is_reserved":false,"is_disabled":false,"rental_uris":{"android":"levelo://app?vid=34c891ca-d880-487f-86cd-38d0d84454a2","ios":"levelo://app?vid=34c891ca-d880-487f-86cd-38d0d84454a2"},"vehicle_type_id":"4","last_reported":1735225726,"current_range_meters":26000,"station_id":"ce4bh692rcd13ifvqea0","pricing_plan_id":"cebpf4jnsgd1na2vs0mg"},{"bike_id":"b1627e93-5af0-4ecb-a429-2618f55cf590","system_id":"levelo_inurba_marseille","lat":43.26806,"lon":5.4025,"is_reserved":false,"is_disabled":false,"rental_uris":{"android":"levelo://app?vid=b1627e93-5af0-4ecb-a429-2618f55cf590","ios":"levelo://app?vid=b1627e93-5af0-4ecb-a429-2618f55cf590"},"vehicle_type_id":"4","last_reported":1735225726,"current_range_meters":33200,"station_id":"ce501612rcd8frsf0b60","pricing_plan_id":"cebpf4jnsgd1na2vs0mg"},{"bike_id":"c880705e-1b0a-4ec8-9ef6-ece26fe220cc","system_id":"levelo_inurba_marseille","lat":43.30891,"lon":5.37186,"is_reserved":false,"is_disabled":false,"rental_uris":{"android":"levelo://app?vid=c880705e-1b0a-4ec8-9ef6-ece26fe220cc","ios":"levelo://app?vid=c880705e-1b0a-4ec8-9ef6-ece26fe220cc"},"vehicle_type_id":"4","last_reported":1735225726,"current_range_meters":30000,"station_id":"ce4bguh2rcd13ifvqckg","pricing_plan_id":"cebpf4jnsgd1na2vs0mg"},{"bike_id":"4ffd7b60-3c47-45bc-8928-6a2fd1f7ad0e","system_id":"levelo_inurba_marseille","lat":43.29725,"lon":5.3769,"is_reserved":false,"is_disabled":false,"rental_uris":{"android":"levelo://app?vid=4ffd7b60-3c47-45bc-8928-6a2fd1f7ad0e","ios":"levelo://app?vid=4ffd7b60-3c47-45bc-8928-6a2fd1f7ad0e"},"vehicle_type_id":"4","last_reported":1735225726,"current_range_meters":38800,"station_id":"ce4bgkh2rcd13ifvqbl0","pricing_plan_id":"cebpf4jnsgd1na2vs0mg"},{"bike_id":"cb110b53-9ba7-4d84-966e-01041503cc76","system_id":"levelo_inurba_marseille","lat":43.25728,"lon":5.41107,"is_reserved":false,"is_disabled":false,"rental_uris":{"android":"levelo://app?vid=cb110b53-9ba7-4d84-966e-01041503cc76","ios":"levelo://app?vid=cb110b53-9ba7-4d84-966e-01041503cc76"},"vehicle_type_id":"4","last_reported":1735225726,"current_range_meters":28400,"station_id":"ce4bhkp2rcd13ifvqgd0","pricing_plan_id":"cebpf4jnsgd1na2vs0mg"},{"bike_id":"5d5fa645-eca4-40b6-a63f-bfba0161de9a","system_id":"levelo_inurba_marseille","lat":43.3136,"lon":5.38485,"is_reserved":false,"is_disabled":false,"rental_uris":{"android":"levelo://app?vid=5d5fa645-eca4-40b6-a63f-bfba0161de9a","ios":"levelo://app?vid=5d5fa645-eca4-40b6-a63f-bfba0161de9a"},"vehicle_type_id":"4","last_reported":1735225726,"current_range_meters":16000,"station_id":"ce4bgt92rcd13ifvqcf0","pricing_plan_id":"cebpf4jnsgd1na2vs0mg"},{"bike_id":"70daa535-e894-4781-8b42-8043aff02a01","system_id":"levelo_inurba_marseille","lat":43.29617,"lon":5.37149,"is_reserved":false,"is_disabled":false,"rental_uris":{"android":"levelo://app?vid=70daa535-e894-4781-8b42-8043aff02a01","ios":"levelo://app?vid=70daa535-e894-4781-8b42-8043aff02a01"},"vehicle_type_id":"4","last_reported":1735225726,"current_range_meters":11200,"station_id":"ce4bgnh2rcd13ifvqc0g","pricing_plan_id":"cebpf4jnsgd1na2vs0mg"},{"bike_id":"688edfb1-0ab7-4835-bc18-2a8586fee6f9","system_id":"levelo_inurba_marseille","lat":43.30546,"lon":5.36563,"is_reserved":false,"is_disabled":false,"rental_uris":{"android":"levelo://app?vid=688edfb1-0ab7-4835-bc18-2a8586fee6f9","ios":"levelo://app?vid=688edfb1-0ab7-4835-bc18-2a8586fee6f9"},"vehicle_type_id":"4","last_reported":1735225726,"current_range_meters":38000,"station_id":"ce4bgs12rcd13ifvqcag","pricing_plan_id":"cebpf4jnsgd1na2vs0mg"},{"bike_id":"1866340a-45b4-4bd2-ac73-392a4ecb2e72","system_id":"levelo_inurba_marseille","lat":43.29843,"lon":5.36269,"is_reserved":false,"is_disabled":false,"rental_uris":{"android":"levelo://app?vid=1866340a-45b4-4bd2-ac73-392a4ecb2e72","ios":"levelo://app?vid=1866340a-45b4-4bd2-ac73-392a4ecb2e72"},"vehicle_type_id":"4","last_reported":1735225726,"current_range_meters":38800,"station_id":"ce4bgpp2rcd13ifvqc3g","pricing_plan_id":"cebpf4jnsgd1na2vs0mg"},{"bike_id":"356fdf04-5389-4dea-9842-bb9771f47806","system_id":"levelo_inurba_marseille","lat":43.2962,"lon":5.37718,"is_reserved":false,"is_disabled":false,"rental_uris":{"android":"levelo://app?vid=356fdf04-5389-4dea-9842-bb9771f47806","ios":"levelo://app?vid=356fdf04-5389-4dea-9842-bb9771f47806"},"vehicle_type_id":"4","last_reported":1735225726,"current_range_meters":38800,"station_id":"ce4bgi92rcd13ifvqb90","pricing_plan_id":"cebpf4jnsgd1na2vs0mg"},{"bike_id":"252c52e9-5d50-47ae-9a50-b59bf370b810","system_id":"levelo_inurba_marseille","lat":43.29366,"lon":5.37126,"is_reserved":false,"is_disabled":false,"rental_uris":{"android":"levelo://app?vid=252c52e9-5d50-47ae-9a50-b59bf370b810","ios":"levelo://app?vid=252c52e9-5d50-47ae-9a50-b59bf370b810"},"vehicle_type_id":"4","last_reported":1735225726,"current_range_meters":39200,"station_id":"","pricing_plan_id":"cebpf4jnsgd1na2vs0mg"},{"bike_id":"4c905400-c9d3-44da-b6e1-24213b31c75c","system_id":"levelo_inurba_marseille","lat":43.26925,"lon":5.38923,"is_reserved":false,"is_disabled":false,"rental_uris":{"android":"levelo://app?vid=4c905400-c9d3-44da-b6e1-24213b31c75c","ios":"levelo://app?vid=4c905400-c9d3-44da-b6e1-24213b31c75c"},"vehicle_type_id":"4","last_reported":1735225726,"current_range_meters":34000,"station_id":"ce4bhhh2rcd13ifvqfl0","pricing_plan_id":"cebpf4jnsgd1na2vs0mg"},{"bike_id":"ff152d6a-b6bc-406b-998e-dbf3ad51a72e","system_id":"levelo_inurba_marseille","lat":43.25581,"lon":5.3824,"is_reserved":false,"is_disabled":false,"rental_uris":{"android":"levelo://app?vid=ff152d6a-b6bc-406b-998e-dbf3ad51a72e","ios":"levelo://app?vid=ff152d6a-b6bc-406b-998e-dbf3ad51a72e"},"vehicle_type_id":"4","last_reported":1735225726,"current_range_meters":35600,"station_id":"ce4bhih2rcd13ifvqfs0","pricing_plan_id":"cebpf4jnsgd1na2vs0mg"},{"bike_id":"72f4433a-b028-4e45-ab59-31d664b14844","system_id":"levelo_inurba_marseille","lat":43.27213,"lon":5.39172,"is_reserved":false,"is_disabled":false,"rental_uris":{"android":"levelo://app?vid=72f4433a-b028-4e45-ab59-31d664b14844","ios":"levelo://app?vid=72f4433a-b028-4e45-ab59-31d664b14844"},"vehicle_type_id":"4","last_reported":1735225726,"current_range_meters":26000,"station_id":"ce4bhhp2rcd13ifvqfm0","pricing_plan_id":"cebpf4jnsgd1na2vs0mg"},{"bike_id":"c6834b76-82f1-466a-8b2d-118839d142cc","system_id":"levelo_inurba_marseille","lat":43.29895,"lon":5.4365,"is_reserved":false,"is_disabled":false,"rental_uris":{"android":"levelo://app?vid=c6834b76-82f1-466a-8b2d-118839d142cc","ios":"levelo://app?vid=c6834b76-82f1-466a-8b2d-118839d142cc"},"vehicle_type_id":"4","last_reported":1735225726,"current_range_meters":38800,"station_id":"ce4bhpp2rcd13ifvqhfg","pricing_plan_id":"cebpf4jnsgd1na2vs0mg"},{"bike_id":"13c39096-92de-47dd-a9ee-5b5cda0c5bbc","system_id":"levelo_inurba_marseille","lat":43.24647,"lon":5.38929,"is_reserved":false,"is_disabled":false,"rental_uris":{"android":"levelo://app?vid=13c39096-92de-47dd-a9ee-5b5cda0c5bbc","ios":"levelo://app?vid=13c39096-92de-47dd-a9ee-5b5cda0c5bbc"},"vehicle_type_id":"4","last_reported":1735225726,"current_range_meters":22800,"station_id":"ce4bhg12rcd13ifvqf60","pricing_plan_id":"cebpf4jnsgd1na2vs0mg"},{"bike_id":"1107b56a-98a5-4a01-8449-9eba086fee5a","system_id":"levelo_inurba_marseille","lat":43.29073,"lon":5.39869,"is_reserved":false,"is_disabled":false,"rental_uris":{"android":"levelo://app?vid=1107b56a-98a5-4a01-8449-9eba086fee5a","ios":"levelo://app?vid=1107b56a-98a5-4a01-8449-9eba086fee5a"},"vehicle_type_id":"4","last_reported":1735225726,"current_range_meters":21600,"station_id":"","pricing_plan_id":"cebpf4jnsgd1na2vs0mg"},{"bike_id":"4e4277ec-b79e-43a1-bae0-d0f951c20956","system_id":"levelo_inurba_marseille","lat":43.29787,"lon":5.3934,"is_reserved":false,"is_disabled":false,"rental_uris":{"android":"levelo://app?vid=4e4277ec-b79e-43a1-bae0-d0f951c20956","ios":"levelo://app?vid=4e4277ec-b79e-43a1-bae0-d0f951c20956"},"vehicle_type_id":"4","last_reported":1735225726,"current_range_meters":38800,"station_id":"chh1huq6cuj3fo74tm60","pricing_plan_id":"cebpf4jnsgd1na2vs0mg"},{"bike_id":"6f68edfd-fb24-4919-b968-971a44d10505","system_id":"levelo_inurba_marseille","lat":43.337312,"lon":5.391822,"is_reserved":false,"is_disabled":false,"rental_uris":{"android":"levelo://app?vid=6f68edfd-fb24-4919-b968-971a44d10505","ios":"levelo://app?vid=6f68edfd-fb24-4919-b968-971a44d10505"},"vehicle_type_id":"4","last_reported":1735225726,"current_range_meters":39200,"station_id":"ce4bhr92rcd13ifvqhsg","pricing_plan_id":"cebpf4jnsgd1na2vs0mg"},{"bike_id":"fb0c9f3b-833f-49fb-8b5c-bebb99b75b08","system_id":"levelo_inurba_marseille","lat":43.30293,"lon":5.39207,"is_reserved":false,"is_disabled":false,"rental_uris":{"android":"levelo://app?vid=fb0c9f3b-833f-49fb-8b5c-bebb99b75b08","ios":"levelo://app?vid=fb0c9f3b-833f-49fb-8b5c-bebb99b75b08"},"vehicle_type_id":"4","last_reported":1735225726,"current_range_meters":38800,"station_id":"ce4bgkh2rcd13ifvqbk0","pricing_plan_id":"cebpf4jnsgd1na2vs0mg"},{"bike_id":"b87c483b-9252-4f79-b6c6-79ee1312485b","system_id":"levelo_inurba_marseille","lat":43.29878,"lon":5.39733,"is_reserved":false,"is_disabled":false,"rental_uris":{"android":"levelo://app?vid=b87c483b-9252-4f79-b6c6-79ee1312485b","ios":"levelo://app?vid=b87c483b-9252-4f79-b6c6-79ee1312485b"},"vehicle_type_id":"4","last_reported":1735225726,"current_range_meters":12400,"station_id":"ce4bh0h2rcd13ifvqd50","pricing_plan_id":"cebpf4jnsgd1na2vs0mg"},{"bike_id":"e00dfb05-17e3-4fe6-bb2e-302de9c485a7","system_id":"levelo_inurba_marseille","lat":43.295985,"lon":5.381017,"is_reserved":false,"is_disabled":false,"rental_uris":{"android":"levelo://app?vid=e00dfb05-17e3-4fe6-bb2e-302de9c485a7","ios":"levelo://app?vid=e00dfb05-17e3-4fe6-bb2e-302de9c485a7"},"vehicle_type_id":"4","last_reported":1735225726,"current_range_meters":36400,"station_id":"ce4bgl12rcd13ifvqbo0","pricing_plan_id":"cebpf4jnsgd1na2vs0mg"},{"bike_id":"5608df94-b66e-460e-9f45-682a8f36b500","system_id":"levelo_inurba_marseille","lat":43.26941,"lon":5.38942,"is_reserved":false,"is_disabled":false,"rental_uris":{"android":"levelo://app?vid=5608df94-b66e-460e-9f45-682a8f36b500","ios":"levelo://app?vid=5608df94-b66e-460e-9f45-682a8f36b500"},"vehicle_type_id":"4","last_reported":1735225726,"current_range_meters":38400,"station_id":"ce4bhhh2rcd13ifvqfl0","pricing_plan_id":"cebpf4jnsgd1na2vs0mg"},{"bike_id":"4e6d0ca2-6374-490a-b48e-6cba90785a4f","system_id":"levelo_inurba_marseille","lat":43.24653,"lon":5.38907,"is_reserved":false,"is_disabled":false,"rental_uris":{"android":"levelo://app?vid=4e6d0ca2-6374-490a-b48e-6cba90785a4f","ios":"levelo://app?vid=4e6d0ca2-6374-490a-b48e-6cba90785a4f"},"vehicle_type_id":"4","last_reported":1735225726,"current_range_meters":11200,"station_id":"ce4bhg12rcd13ifvqf60","pricing_plan_id":"cebpf4jnsgd1na2vs0mg"},{"bike_id":"75dc6cdf-6b2f-4555-98ab-c0d955ac6c33","system_id":"levelo_inurba_marseille","lat":43.29577,"lon":5.37523,"is_reserved":false,"is_disabled":false,"rental_uris":{"android":"levelo://app?vid=75dc6cdf-6b2f-4555-98ab-c0d955ac6c33","ios":"levelo://app?vid=75dc6cdf-6b2f-4555-98ab-c0d955ac6c33"},"vehicle_type_id":"4","last_reported":1735225726,"current_range_meters":16000,"station_id":"ce4bgh92rcd13ifvqb50","pricing_plan_id":"cebpf4jnsgd1na2vs0mg"},{"bike_id":"2daf75ab-4f48-4eb4-aa82-8d196ed46db0","system_id":"levelo_inurba_marseille","lat":43.27499,"lon":5.42449,"is_reserved":false,"is_disabled":false,"rental_uris":{"android":"levelo://app?vid=2daf75ab-4f48-4eb4-aa82-8d196ed46db0","ios":"levelo://app?vid=2daf75ab-4f48-4eb4-aa82-8d196ed46db0"},"vehicle_type_id":"4","last_reported":1735225726,"current_range_meters":33200,"station_id":"ce4bhn92rcd13ifvqgrg","pricing_plan_id":"cebpf4jnsgd1na2vs0mg"},{"bike_id":"963b50d8-757b-4c39-84ed-9fb9fa9d8d9e","system_id":"levelo_inurba_marseille","lat":43.29222,"lon":5.36086,"is_reserved":false,"is_disabled":false,"rental_uris":{"android":"levelo://app?vid=963b50d8-757b-4c39-84ed-9fb9fa9d8d9e","ios":"levelo://app?vid=963b50d8-757b-4c39-84ed-9fb9fa9d8d9e"},"vehicle_type_id":"4","last_reported":1735225726,"current_range_meters":27200,"station_id":"ce4bhbh2rcd13ifvqeqg","pricing_plan_id":"cebpf4jnsgd1na2vs0mg"},{"bike_id":"cf71366f-be23-4797-93cf-6dfe19a14fb0","system_id":"levelo_inurba_marseille","lat":43.2979,"lon":5.38091,"is_reserved":false,"is_disabled":false,"rental_uris":{"android":"levelo://app?vid=cf71366f-be23-4797-93cf-6dfe19a14fb0","ios":"levelo://app?vid=cf71366f-be23-4797-93cf-6dfe19a14fb0"},"vehicle_type_id":"4","last_reported":1735225726,"current_range_meters":32800,"station_id":"ce4bgip2rcd13ifvqbb0","pricing_plan_id":"cebpf4jnsgd1na2vs0mg"},{"bike_id":"797752e9-9b8c-41c6-b3b4-1c43170cd15b","system_id":"levelo_inurba_marseille","lat":43.23152,"lon":5.43709,"is_reserved":false,"is_disabled":false,"rental_uris":{"android":"levelo://app?vid=797752e9-9b8c-41c6-b3b4-1c43170cd15b","ios":"levelo://app?vid=797752e9-9b8c-41c6-b3b4-1c43170cd15b"},"vehicle_type_id":"4","last_reported":1735225726,"current_range_meters":8400,"station_id":"ce4bhmp2rcd13ifvqgog","pricing_plan_id":"cebpf4jnsgd1na2vs0mg"},{"bike_id":"40604247-8679-4b68-9682-619d18eba1e2","system_id":"levelo_inurba_marseille","lat":43.26935,"lon":5.40258,"is_reserved":false,"is_disabled":false,"rental_uris":{"android":"levelo://app?vid=40604247-8679-4b68-9682-619d18eba1e2","ios":"levelo://app?vid=40604247-8679-4b68-9682-619d18eba1e2"},"vehicle_type_id":"4","last_reported":1735225726,"current_range_meters":38800,"station_id":"cjm6bp8fraef2m0cb0m0","pricing_plan_id":"cebpf4jnsgd1na2vs0mg"},{"bike_id":"5ca093cb-437c-4e7d-bc7e-09c7ab1b0f93","system_id":"levelo_inurba_marseille","lat":43.29889,"lon":5.3748,"is_reserved":false,"is_disabled":false,"rental_uris":{"android":"levelo://app?vid=5ca093cb-437c-4e7d-bc7e-09c7ab1b0f93","ios":"levelo://app?vid=5ca093cb-437c-4e7d-bc7e-09c7ab1b0f93"},"vehicle_type_id":"4","last_reported":1735225726,"current_range_meters":36400,"station_id":"ce4bgjh2rcd13ifvqbg0","pricing_plan_id":"cebpf4jnsgd1na2vs0mg"},{"bike_id":"41e441a8-4ad2-4bf0-81ba-96c35feaf6d8","system_id":"levelo_inurba_marseille","lat":43.28153,"lon":5.42643,"is_reserved":false,"is_disabled":false,"rental_uris":{"android":"levelo://app?vid=41e441a8-4ad2-4bf0-81ba-96c35feaf6d8","ios":"levelo://app?vid=41e441a8-4ad2-4bf0-81ba-96c35feaf6d8"},"vehicle_type_id":"4","last_reported":1735225726,"current_range_meters":8800,"station_id":"ce4bhnh2rcd13ifvqgug","pricing_plan_id":"cebpf4jnsgd1na2vs0mg"},{"bike_id":"adeb9f24-5201-4746-a674-4bf30daf0224","system_id":"levelo_inurba_marseille","lat":43.29726,"lon":5.3658,"is_reserved":false,"is_disabled":false,"rental_uris":{"android":"levelo://app?vid=adeb9f24-5201-4746-a674-4bf30daf0224","ios":"levelo://app?vid=adeb9f24-5201-4746-a674-4bf30daf0224"},"vehicle_type_id":"4","last_reported":1735225726,"current_range_meters":38800,"station_id":"ce4bgn12rcd13ifvqbt0","pricing_plan_id":"cebpf4jnsgd1na2vs0mg"},{"bike_id":"1252da95-5feb-4519-a172-49fb74a83eb5","system_id":"levelo_inurba_marseille","lat":43.29702,"lon":5.37699,"is_reserved":false,"is_disabled":false,"rental_uris":{"android":"levelo://app?vid=1252da95-5feb-4519-a172-49fb74a83eb5","ios":"levelo://app?vid=1252da95-5feb-4519-a172-49fb74a83eb5"},"vehicle_type_id":"4","last_reported":1735225726,"current_range_meters":35200,"station_id":"ce4bgkh2rcd13ifvqbl0","pricing_plan_id":"cebpf4jnsgd1na2vs0mg"},{"bike_id":"28ea3844-317e-4be4-a869-4e585a497479","system_id":"levelo_inurba_marseille","lat":43.29529,"lon":5.37507,"is_reserved":false,"is_disabled":false,"rental_uris":{"android":"levelo://app?vid=28ea3844-317e-4be4-a869-4e585a497479","ios":"levelo://app?vid=28ea3844-317e-4be4-a869-4e585a497479"},"vehicle_type_id":"4","last_reported":1735225726,"current_range_meters":28800,"station_id":"ce4bgkp2rcd13ifvqbmg","pricing_plan_id":"cebpf4jnsgd1na2vs0mg"},{"bike_id":"4e04e3c8-bad8-47c2-a784-0c5eba8b5d4f","system_id":"levelo_inurba_marseille","lat":43.27071,"lon":5.42275,"is_reserved":false,"is_disabled":false,"rental_uris":{"android":"levelo://app?vid=4e04e3c8-bad8-47c2-a784-0c5eba8b5d4f","ios":"levelo://app?vid=4e04e3c8-bad8-47c2-a784-0c5eba8b5d4f"},"vehicle_type_id":"4","last_reported":1735225726,"current_range_meters":34800,"station_id":"ce4bhk92rcd13ifvqgb0","pricing_plan_id":"cebpf4jnsgd1na2vs0mg"},{"bike_id":"3964cc91-6b10-4fb9-9b4d-cbe3e8abef97","system_id":"levelo_inurba_marseille","lat":43.301004,"lon":5.390807,"is_reserved":false,"is_disabled":false,"rental_uris":{"android":"levelo://app?vid=3964cc91-6b10-4fb9-9b4d-cbe3e8abef97","ios":"levelo://app?vid=3964cc91-6b10-4fb9-9b4d-cbe3e8abef97"},"vehicle_type_id":"4","last_reported":1735225726,"current_range_meters":36800,"station_id":"ce4bh192rcd13ifvqdb0","pricing_plan_id":"cebpf4jnsgd1na2vs0mg"},{"bike_id":"b3f7c1d6-8123-4d01-aa9c-fa3c8f407264","system_id":"levelo_inurba_marseille","lat":43.29027,"lon":5.38642,"is_reserved":false,"is_disabled":false,"rental_uris":{"android":"levelo://app?vid=b3f7c1d6-8123-4d01-aa9c-fa3c8f407264","ios":"levelo://app?vid=b3f7c1d6-8123-4d01-aa9c-fa3c8f407264"},"vehicle_type_id":"4","last_reported":1735225726,"current_range_meters":32800,"station_id":"ce4bh4p2rcd13ifvqe0g","pricing_plan_id":"cebpf4jnsgd1na2vs0mg"},{"bike_id":"2ea2828b-4054-4613-b03c-004a3cdbc7d6","system_id":"levelo_inurba_marseille","lat":43.2994,"lon":5.36516,"is_reserved":false,"is_disabled":false,"rental_uris":{"android":"levelo://app?vid=2ea2828b-4054-4613-b03c-004a3cdbc7d6","ios":"levelo://app?vid=2ea2828b-4054-4613-b03c-004a3cdbc7d6"},"vehicle_type_id":"4","last_reported":1735225726,"current_range_meters":37600,"station_id":"ce4bgm92rcd13ifvqbr0","pricing_plan_id":"cebpf4jnsgd1na2vs0mg"},{"bike_id":"235c02dd-a81a-4614-b09e-8ecbb664a04b","system_id":"levelo_inurba_marseille","lat":43.24532,"lon":5.39534,"is_reserved":false,"is_disabled":false,"rental_uris":{"android":"levelo://app?vid=235c02dd-a81a-4614-b09e-8ecbb664a04b","ios":"levelo://app?vid=235c02dd-a81a-4614-b09e-8ecbb664a04b"},"vehicle_type_id":"4","last_reported":1735225726,"current_range_meters":39200,"station_id":"ce4bhlp2rcd13ifvqgjg","pricing_plan_id":"cebpf4jnsgd1na2vs0mg"},{"bike_id":"b9e24016-64c9-40c7-9813-9e5697a1c91c","system_id":"levelo_inurba_marseille","lat":43.29221,"lon":5.36064,"is_reserved":false,"is_disabled":false,"rental_uris":{"android":"levelo://app?vid=b9e24016-64c9-40c7-9813-9e5697a1c91c","ios":"levelo://app?vid=b9e24016-64c9-40c7-9813-9e5697a1c91c"},"vehicle_type_id":"4","last_reported":1735225726,"current_range_meters":15200,"station_id":"ce4bhbh2rcd13ifvqeqg","pricing_plan_id":"cebpf4jnsgd1na2vs0mg"},{"bike_id":"acad3d79-9316-40c1-956d-a5642bbfdd9d","system_id":"levelo_inurba_marseille","lat":43.29581,"lon":5.36745,"is_reserved":false,"is_disabled":false,"rental_uris":{"android":"levelo://app?vid=acad3d79-9316-40c1-956d-a5642bbfdd9d","ios":"levelo://app?vid=acad3d79-9316-40c1-956d-a5642bbfdd9d"},"vehicle_type_id":"4","last_reported":1735225726,"current_range_meters":16000,"station_id":"ce4bgph2rcd13ifvqc2g","pricing_plan_id":"cebpf4jnsgd1na2vs0mg"},{"bike_id":"8e1a0b69-79c3-4346-a75e-e646ceb1c39f","system_id":"levelo_inurba_marseille","lat":43.26931,"lon":5.38915,"is_reserved":false,"is_disabled":false,"rental_uris":{"android":"levelo://app?vid=8e1a0b69-79c3-4346-a75e-e646ceb1c39f","ios":"levelo://app?vid=8e1a0b69-79c3-4346-a75e-e646ceb1c39f"},"vehicle_type_id":"4","last_reported":1735225726,"current_range_meters":18000,"station_id":"ce4bhhh2rcd13ifvqfl0","pricing_plan_id":"cebpf4jnsgd1na2vs0mg"},{"bike_id":"9f55c7f3-935c-499f-b7e6-77786320150c","system_id":"levelo_inurba_marseille","lat":43.29942,"lon":5.36544,"is_reserved":false,"is_disabled":false,"rental_uris":{"android":"levelo://app?vid=9f55c7f3-935c-499f-b7e6-77786320150c","ios":"levelo://app?vid=9f55c7f3-935c-499f-b7e6-77786320150c"},"vehicle_type_id":"4","last_reported":1735225726,"current_range_meters":32400,"station_id":"ce4bgm92rcd13ifvqbr0","pricing_plan_id":"cebpf4jnsgd1na2vs0mg"},{"bike_id":"71a32a4b-b7d3-4f5f-a26c-360f0b9d1712","system_id":"levelo_inurba_marseille","lat":43.27213,"lon":5.39187,"is_reserved":false,"is_disabled":false,"rental_uris":{"android":"levelo://app?vid=71a32a4b-b7d3-4f5f-a26c-360f0b9d1712","ios":"levelo://app?vid=71a32a4b-b7d3-4f5f-a26c-360f0b9d1712"},"vehicle_type_id":"4","last_reported":1735225726,"current_range_meters":36800,"station_id":"ce4bhhp2rcd13ifvqfm0","pricing_plan_id":"cebpf4jnsgd1na2vs0mg"},{"bike_id":"6476274c-1e55-4c74-b33b-82fe4d9853c8","system_id":"levelo_inurba_marseille","lat":43.26792,"lon":5.39407,"is_reserved":false,"is_disabled":false,"rental_uris":{"android":"levelo://app?vid=6476274c-1e55-4c74-b33b-82fe4d9853c8","ios":"levelo://app?vid=6476274c-1e55-4c74-b33b-82fe4d9853c8"},"vehicle_type_id":"4","last_reported":1735225726,"current_range_meters":34000,"station_id":"ce4bhh12rcd13ifvqfg0","pricing_plan_id":"cebpf4jnsgd1na2vs0mg"},{"bike_id":"affaff11-df12-4166-bf6b-e6dfd0c68b23","system_id":"levelo_inurba_marseille","lat":43.30539,"lon":5.36695,"is_reserved":false,"is_disabled":false,"rental_uris":{"android":"levelo://app?vid=affaff11-df12-4166-bf6b-e6dfd0c68b23","ios":"levelo://app?vid=affaff11-df12-4166-bf6b-e6dfd0c68b23"},"vehicle_type_id":"4","last_reported":1735225726,"current_range_meters":28000,"station_id":"ce4bgrp2rcd13ifvqc9g","pricing_plan_id":"cebpf4jnsgd1na2vs0mg"},{"bike_id":"f12eb93c-d258-40bc-ba9f-19d77f84b7cd","system_id":"levelo_inurba_marseille","lat":43.30243,"lon":5.4006,"is_reserved":false,"is_disabled":false,"rental_uris":{"android":"levelo://app?vid=f12eb93c-d258-40bc-ba9f-19d77f84b7cd","ios":"levelo://app?vid=f12eb93c-d258-40bc-ba9f-19d77f84b7cd"},"vehicle_type_id":"4","last_reported":1735225726,"current_range_meters":36800,"station_id":"ce4bgvh2rcd13ifvqcs0","pricing_plan_id":"cebpf4jnsgd1na2vs0mg"},{"bike_id":"afa1ff45-7503-4146-b21a-bfc51c88b9da","system_id":"levelo_inurba_marseille","lat":43.29566,"lon":5.37502,"is_reserved":false,"is_disabled":false,"rental_uris":{"android":"levelo://app?vid=afa1ff45-7503-4146-b21a-bfc51c88b9da","ios":"levelo://app?vid=afa1ff45-7503-4146-b21a-bfc51c88b9da"},"vehicle_type_id":"4","last_reported":1735225726,"current_range_meters":22800,"station_id":"ce4bgh92rcd13ifvqb50","pricing_plan_id":"cebpf4jnsgd1na2vs0mg"},{"bike_id":"509d6939-a055-4cab-b606-fdeee6645c66","system_id":"levelo_inurba_marseille","lat":43.26498,"lon":5.39549,"is_reserved":false,"is_disabled":false,"rental_uris":{"android":"levelo://app?vid=509d6939-a055-4cab-b606-fdeee6645c66","ios":"levelo://app?vid=509d6939-a055-4cab-b606-fdeee6645c66"},"vehicle_type_id":"4","last_reported":1735225726,"current_range_meters":26000,"station_id":"ce4bhi12rcd13ifvqfq0","pricing_plan_id":"cebpf4jnsgd1na2vs0mg"},{"bike_id":"f9d7a6aa-83a7-4384-8969-5637dd508436","system_id":"levelo_inurba_marseille","lat":43.27809,"lon":5.40715,"is_reserved":false,"is_disabled":false,"rental_uris":{"android":"levelo://app?vid=f9d7a6aa-83a7-4384-8969-5637dd508436","ios":"levelo://app?vid=f9d7a6aa-83a7-4384-8969-5637dd508436"},"vehicle_type_id":"4","last_reported":1735225726,"current_range_meters":35200,"station_id":"ce4bhnh2rcd13ifvqgtg","pricing_plan_id":"cebpf4jnsgd1na2vs0mg"},{"bike_id":"94e383c8-a608-4a0f-8938-0ed39d131f4a","system_id":"levelo_inurba_marseille","lat":43.30537,"lon":5.36548,"is_reserved":false,"is_disabled":false,"rental_uris":{"android":"levelo://app?vid=94e383c8-a608-4a0f-8938-0ed39d131f4a","ios":"levelo://app?vid=94e383c8-a608-4a0f-8938-0ed39d131f4a"},"vehicle_type_id":"4","last_reported":1735225726,"current_range_meters":35200,"station_id":"ce4bgs12rcd13ifvqcag","pricing_plan_id":"cebpf4jnsgd1na2vs0mg"},{"bike_id":"673ed0fe-3027-4e1f-9efc-2804b0e32190","system_id":"levelo_inurba_marseille","lat":43.26687,"lon":5.38272,"is_reserved":false,"is_disabled":false,"rental_uris":{"android":"levelo://app?vid=673ed0fe-3027-4e1f-9efc-2804b0e32190","ios":"levelo://app?vid=673ed0fe-3027-4e1f-9efc-2804b0e32190"},"vehicle_type_id":"4","last_reported":1735225726,"current_range_meters":24400,"station_id":"ce4bhg92rcd13ifvqf90","pricing_plan_id":"cebpf4jnsgd1na2vs0mg"},{"bike_id":"8374b4d4-198d-4b81-904b-48b1c9b9c86c","system_id":"levelo_inurba_marseille","lat":43.30544,"lon":5.36544,"is_reserved":false,"is_disabled":false,"rental_uris":{"android":"levelo://app?vid=8374b4d4-198d-4b81-904b-48b1c9b9c86c","ios":"levelo://app?vid=8374b4d4-198d-4b81-904b-48b1c9b9c86c"},"vehicle_type_id":"4","last_reported":1735225726,"current_range_meters":24400,"station_id":"ce4bgs12rcd13ifvqcag","pricing_plan_id":"cebpf4jnsgd1na2vs0mg"},{"bike_id":"2e48270a-c773-45cd-b6b6-1f931f6c2627","system_id":"levelo_inurba_marseille","lat":43.29874,"lon":5.38914,"is_reserved":false,"is_disabled":false,"rental_uris":{"android":"levelo://app?vid=2e48270a-c773-45cd-b6b6-1f931f6c2627","ios":"levelo://app?vid=2e48270a-c773-45cd-b6b6-1f931f6c2627"},"vehicle_type_id":"4","last_reported":1735225726,"current_range_meters":38800,"station_id":"ce4bh392rcd13ifvqdl0","pricing_plan_id":"cebpf4jnsgd1na2vs0mg"},{"bike_id":"669093f3-9e30-4f27-a07e-489670469d1a","system_id":"levelo_inurba_marseille","lat":43.27911,"lon":5.39578,"is_reserved":false,"is_disabled":false,"rental_uris":{"android":"levelo://app?vid=669093f3-9e30-4f27-a07e-489670469d1a","ios":"levelo://app?vid=669093f3-9e30-4f27-a07e-489670469d1a"},"vehicle_type_id":"4","last_reported":1735225726,"current_range_meters":35600,"station_id":"ce4bhf92rcd13ifvqf40","pricing_plan_id":"cebpf4jnsgd1na2vs0mg"},{"bike_id":"521d3800-ebef-4075-8124-d01a8949d70c","system_id":"levelo_inurba_marseille","lat":43.29613,"lon":5.37727,"is_reserved":false,"is_disabled":false,"rental_uris":{"android":"levelo://app?vid=521d3800-ebef-4075-8124-d01a8949d70c","ios":"levelo://app?vid=521d3800-ebef-4075-8124-d01a8949d70c"},"vehicle_type_id":"4","last_reported":1735225726,"current_range_meters":38800,"station_id":"ce4bgi92rcd13ifvqb90","pricing_plan_id":"cebpf4jnsgd1na2vs0mg"},{"bike_id":"5cd3212e-fb06-478b-ae7c-d81ecf928d20","system_id":"levelo_inurba_marseille","lat":43.29567,"lon":5.37501,"is_reserved":false,"is_disabled":false,"rental_uris":{"android":"levelo://app?vid=5cd3212e-fb06-478b-ae7c-d81ecf928d20","ios":"levelo://app?vid=5cd3212e-fb06-478b-ae7c-d81ecf928d20"},"vehicle_type_id":"4","last_reported":1735225726,"current_range_meters":39200,"station_id":"ce4bgh92rcd13ifvqb50","pricing_plan_id":"cebpf4jnsgd1na2vs0mg"},{"bike_id":"cadf8335-6df2-49c1-9678-5228c753266c","system_id":"levelo_inurba_marseille","lat":43.28076,"lon":5.39656,"is_reserved":false,"is_disabled":false,"rental_uris":{"android":"levelo://app?vid=cadf8335-6df2-49c1-9678-5228c753266c","ios":"levelo://app?vid=cadf8335-6df2-49c1-9678-5228c753266c"},"vehicle_type_id":"4","last_reported":1735225726,"current_range_meters":3200,"station_id":"ce4bho12rcd13ifvqh2g","pricing_plan_id":"cebpf4jnsgd1na2vs0mg"},{"bike_id":"16a0780e-8313-4bea-9656-145ee1a1a3f6","system_id":"levelo_inurba_marseille","lat":43.31495,"lon":5.37302,"is_reserved":false,"is_disabled":false,"rental_uris":{"android":"levelo://app?vid=16a0780e-8313-4bea-9656-145ee1a1a3f6","ios":"levelo://app?vid=16a0780e-8313-4bea-9656-145ee1a1a3f6"},"vehicle_type_id":"4","last_reported":1735225726,"current_range_meters":36000,"station_id":"ce4bgt12rcd13ifvqcd0","pricing_plan_id":"cebpf4jnsgd1na2vs0mg"},{"bike_id":"36c94d29-a143-4ca2-8a11-fcf2b617451d","system_id":"levelo_inurba_marseille","lat":43.24804,"lon":5.37453,"is_reserved":false,"is_disabled":false,"rental_uris":{"android":"levelo://app?vid=36c94d29-a143-4ca2-8a11-fcf2b617451d","ios":"levelo://app?vid=36c94d29-a143-4ca2-8a11-fcf2b617451d"},"vehicle_type_id":"4","last_reported":1735225726,"current_range_meters":17200,"station_id":"ce4bhgh2rcd13ifvqfb0","pricing_plan_id":"cebpf4jnsgd1na2vs0mg"},{"bike_id":"6556df2a-0e73-47d2-b43c-151912c9038b","system_id":"levelo_inurba_marseille","lat":43.24545,"lon":5.39531,"is_reserved":false,"is_disabled":false,"rental_uris":{"android":"levelo://app?vid=6556df2a-0e73-47d2-b43c-151912c9038b","ios":"levelo://app?vid=6556df2a-0e73-47d2-b43c-151912c9038b"},"vehicle_type_id":"4","last_reported":1735225726,"current_range_meters":36000,"station_id":"ce4bhlp2rcd13ifvqgjg","pricing_plan_id":"cebpf4jnsgd1na2vs0mg"},{"bike_id":"0089825d-bdd9-4c40-bf0e-57b3cbb36429","system_id":"levelo_inurba_marseille","lat":43.30553,"lon":5.36693,"is_reserved":false,"is_disabled":false,"rental_uris":{"android":"levelo://app?vid=0089825d-bdd9-4c40-bf0e-57b3cbb36429","ios":"levelo://app?vid=0089825d-bdd9-4c40-bf0e-57b3cbb36429"},"vehicle_type_id":"4","last_reported":1735225726,"current_range_meters":38800,"station_id":"ce4bgrp2rcd13ifvqc9g","pricing_plan_id":"cebpf4jnsgd1na2vs0mg"},{"bike_id":"dbe6a0e7-5d44-41eb-b0ab-6557395df924","system_id":"levelo_inurba_marseille","lat":43.2962,"lon":5.37718,"is_reserved":false,"is_disabled":false,"rental_uris":{"android":"levelo://app?vid=dbe6a0e7-5d44-41eb-b0ab-6557395df924","ios":"levelo://app?vid=dbe6a0e7-5d44-41eb-b0ab-6557395df924"},"vehicle_type_id":"4","last_reported":1735225726,"current_range_meters":38800,"station_id":"ce4bgi92rcd13ifvqb90","pricing_plan_id":"cebpf4jnsgd1na2vs0mg"},{"bike_id":"d36bb8df-822e-49e3-adc4-c36f4503a77d","system_id":"levelo_inurba_marseille","lat":43.27493,"lon":5.42453,"is_reserved":false,"is_disabled":false,"rental_uris":{"android":"levelo://app?vid=d36bb8df-822e-49e3-adc4-c36f4503a77d","ios":"levelo://app?vid=d36bb8df-822e-49e3-adc4-c36f4503a77d"},"vehicle_type_id":"4","last_reported":1735225726,"current_range_meters":13600,"station_id":"ce4bhn92rcd13ifvqgrg","pricing_plan_id":"cebpf4jnsgd1na2vs0mg"},{"bike_id":"afd72724-51d1-4e36-924e-367d597bb2ef","system_id":"levelo_inurba_marseille","lat":43.3097,"lon":5.39037,"is_reserved":false,"is_disabled":false,"rental_uris":{"android":"levelo://app?vid=afd72724-51d1-4e36-924e-367d597bb2ef","ios":"levelo://app?vid=afd72724-51d1-4e36-924e-367d597bb2ef"},"vehicle_type_id":"4","last_reported":1735225726,"current_range_meters":22400,"station_id":"ce4bgup2rcd13ifvqco0","pricing_plan_id":"cebpf4jnsgd1na2vs0mg"},{"bike_id":"4f5db02c-99f9-460e-a880-3ca7100df048","system_id":"levelo_inurba_marseille","lat":43.2745,"lon":5.3936,"is_reserved":false,"is_disabled":false,"rental_uris":{"android":"levelo://app?vid=4f5db02c-99f9-460e-a880-3ca7100df048","ios":"levelo://app?vid=4f5db02c-99f9-460e-a880-3ca7100df048"},"vehicle_type_id":"4","last_reported":1735225726,"current_range_meters":38800,"station_id":"","pricing_plan_id":"cebpf4jnsgd1na2vs0mg"},{"bike_id":"d92ce413-4a40-4ff0-95ab-ebe054e256bf","system_id":"levelo_inurba_marseille","lat":43.27944,"lon":5.4105,"is_reserved":false,"is_disabled":true,"rental_uris":{"android":"levelo://app?vid=d92ce413-4a40-4ff0-95ab-ebe054e256bf","ios":"levelo://app?vid=d92ce413-4a40-4ff0-95ab-ebe054e256bf"},"vehicle_type_id":"4","last_reported":1735225726,"current_range_meters":800,"station_id":"ce4bhnp2rcd13ifvqh0g","pricing_plan_id":"cebpf4jnsgd1na2vs0mg"},{"bike_id":"fbb7580b-e1c9-41d6-a65e-fa95175d2db0","system_id":"levelo_inurba_marseille","lat":43.28455,"lon":5.35884,"is_reserved":false,"is_disabled":false,"rental_uris":{"android":"levelo://app?vid=fbb7580b-e1c9-41d6-a65e-fa95175d2db0","ios":"levelo://app?vid=fbb7580b-e1c9-41d6-a65e-fa95175d2db0"},"vehicle_type_id":"4","last_reported":1735225726,"current_range_meters":32400,"station_id":"ce4bhah2rcd13ifvqei0","pricing_plan_id":"cebpf4jnsgd1na2vs0mg"},{"bike_id":"be913148-f7c7-4ad3-ae5a-f2ec4be3d194","system_id":"levelo_inurba_marseille","lat":43.29261,"lon":5.40911,"is_reserved":false,"is_disabled":false,"rental_uris":{"android":"levelo://app?vid=be913148-f7c7-4ad3-ae5a-f2ec4be3d194","ios":"levelo://app?vid=be913148-f7c7-4ad3-ae5a-f2ec4be3d194"},"vehicle_type_id":"4","last_reported":1735225726,"current_range_meters":38800,"station_id":"ce4bh192rcd13ifvqdc0","pricing_plan_id":"cebpf4jnsgd1na2vs0mg"},{"bike_id":"f48a31c5-7ac5-4db9-a487-f29d0d3d18d7","system_id":"levelo_inurba_marseille","lat":43.29797,"lon":5.38091,"is_reserved":false,"is_disabled":false,"rental_uris":{"android":"levelo://app?vid=f48a31c5-7ac5-4db9-a487-f29d0d3d18d7","ios":"levelo://app?vid=f48a31c5-7ac5-4db9-a487-f29d0d3d18d7"},"vehicle_type_id":"4","last_reported":1735225726,"current_range_meters":18800,"station_id":"ce4bgip2rcd13ifvqbb0","pricing_plan_id":"cebpf4jnsgd1na2vs0mg"},{"bike_id":"b07e0204-2c57-49d1-a1f7-320de8610e25","system_id":"levelo_inurba_marseille","lat":43.29402,"lon":5.37344,"is_reserved":false,"is_disabled":true,"rental_uris":{"android":"levelo://app?vid=b07e0204-2c57-49d1-a1f7-320de8610e25","ios":"levelo://app?vid=b07e0204-2c57-49d1-a1f7-320de8610e25"},"vehicle_type_id":"4","last_reported":1735225726,"current_range_meters":10000,"station_id":"","pricing_plan_id":"cebpf4jnsgd1na2vs0mg"},{"bike_id":"ca8ae58d-7cde-4450-9687-184913a7560e","system_id":"levelo_inurba_marseille","lat":43.30903,"lon":5.36845,"is_reserved":false,"is_disabled":false,"rental_uris":{"android":"levelo://app?vid=ca8ae58d-7cde-4450-9687-184913a7560e","ios":"levelo://app?vid=ca8ae58d-7cde-4450-9687-184913a7560e"},"vehicle_type_id":"4","last_reported":1735225726,"current_range_meters":38800,"station_id":"ce4bgn92rcd13ifvqbvg","pricing_plan_id":"cebpf4jnsgd1na2vs0mg"},{"bike_id":"9d49c05f-0fd6-43f7-973f-c7f9dbb8dd66","system_id":"levelo_inurba_marseille","lat":43.30537,"lon":5.36699,"is_reserved":false,"is_disabled":false,"rental_uris":{"android":"levelo://app?vid=9d49c05f-0fd6-43f7-973f-c7f9dbb8dd66","ios":"levelo://app?vid=9d49c05f-0fd6-43f7-973f-c7f9dbb8dd66"},"vehicle_type_id":"4","last_reported":1735225726,"current_range_meters":30400,"station_id":"ce4bgrp2rcd13ifvqc9g","pricing_plan_id":"cebpf4jnsgd1na2vs0mg"},{"bike_id":"d051bf13-7445-45ad-86d7-0bc2c858622c","system_id":"levelo_inurba_marseille","lat":43.29217,"lon":5.35803,"is_reserved":false,"is_disabled":false,"rental_uris":{"android":"levelo://app?vid=d051bf13-7445-45ad-86d7-0bc2c858622c","ios":"levelo://app?vid=d051bf13-7445-45ad-86d7-0bc2c858622c"},"vehicle_type_id":"4","last_reported":1735225726,"current_range_meters":27600,"station_id":"ce4bhb12rcd13ifvqel0","pricing_plan_id":"cebpf4jnsgd1na2vs0mg"},{"bike_id":"1786334d-2721-40c5-be60-f94ab6a924f7","system_id":"levelo_inurba_marseille","lat":43.26205,"lon":5.37926,"is_reserved":false,"is_disabled":false,"rental_uris":{"android":"levelo://app?vid=1786334d-2721-40c5-be60-f94ab6a924f7","ios":"levelo://app?vid=1786334d-2721-40c5-be60-f94ab6a924f7"},"vehicle_type_id":"4","last_reported":1735225726,"current_range_meters":37600,"station_id":"ce4bhjp2rcd13ifvqg90","pricing_plan_id":"cebpf4jnsgd1na2vs0mg"},{"bike_id":"43f7e734-263c-460e-a5d5-9f3194a8a7de","system_id":"levelo_inurba_marseille","lat":43.30133,"lon":5.39863,"is_reserved":false,"is_disabled":false,"rental_uris":{"android":"levelo://app?vid=43f7e734-263c-460e-a5d5-9f3194a8a7de","ios":"levelo://app?vid=43f7e734-263c-460e-a5d5-9f3194a8a7de"},"vehicle_type_id":"4","last_reported":1735225726,"current_range_meters":38800,"station_id":"ce4bh0h2rcd13ifvqd40","pricing_plan_id":"cebpf4jnsgd1na2vs0mg"},{"bike_id":"71160096-1f78-4a01-8bd7-5e65b9e0ac95","system_id":"levelo_inurba_marseille","lat":43.26201,"lon":5.37929,"is_reserved":false,"is_disabled":true,"rental_uris":{"android":"levelo://app?vid=71160096-1f78-4a01-8bd7-5e65b9e0ac95","ios":"levelo://app?vid=71160096-1f78-4a01-8bd7-5e65b9e0ac95"},"vehicle_type_id":"4","last_reported":1735225726,"current_range_meters":400,"station_id":"ce4bhjp2rcd13ifvqg90","pricing_plan_id":"cebpf4jnsgd1na2vs0mg"},{"bike_id":"1ed9da2f-ad33-4aae-8af7-bac6b8ce77af","system_id":"levelo_inurba_marseille","lat":43.26788,"lon":5.39415,"is_reserved":false,"is_disabled":false,"rental_uris":{"android":"levelo://app?vid=1ed9da2f-ad33-4aae-8af7-bac6b8ce77af","ios":"levelo://app?vid=1ed9da2f-ad33-4aae-8af7-bac6b8ce77af"},"vehicle_type_id":"4","last_reported":1735225726,"current_range_meters":38400,"station_id":"ce4bhh12rcd13ifvqfg0","pricing_plan_id":"cebpf4jnsgd1na2vs0mg"},{"bike_id":"1b2bbfd1-8ca8-47cd-a173-a751cba2f0e1","system_id":"levelo_inurba_marseille","lat":43.30431,"lon":5.39746,"is_reserved":false,"is_disabled":false,"rental_uris":{"android":"levelo://app?vid=1b2bbfd1-8ca8-47cd-a173-a751cba2f0e1","ios":"levelo://app?vid=1b2bbfd1-8ca8-47cd-a173-a751cba2f0e1"},"vehicle_type_id":"4","last_reported":1735225726,"current_range_meters":30800,"station_id":"ce4bh092rcd13ifvqd20","pricing_plan_id":"cebpf4jnsgd1na2vs0mg"},{"bike_id":"dda65ac8-8d64-45c8-923b-7c11f156fdc0","system_id":"levelo_inurba_marseille","lat":43.241745,"lon":5.397342,"is_reserved":false,"is_disabled":false,"rental_uris":{"android":"levelo://app?vid=dda65ac8-8d64-45c8-923b-7c11f156fdc0","ios":"levelo://app?vid=dda65ac8-8d64-45c8-923b-7c11f156fdc0"},"vehicle_type_id":"4","last_reported":1735225726,"current_range_meters":36800,"station_id":"ce4bhn12rcd13ifvqgpg","pricing_plan_id":"cebpf4jnsgd1na2vs0mg"},{"bike_id":"a96ca1ed-aa70-41be-bad5-156bb77650c2","system_id":"levelo_inurba_marseille","lat":43.28846,"lon":5.39306,"is_reserved":false,"is_disabled":false,"rental_uris":{"android":"levelo://app?vid=a96ca1ed-aa70-41be-bad5-156bb77650c2","ios":"levelo://app?vid=a96ca1ed-aa70-41be-bad5-156bb77650c2"},"vehicle_type_id":"4","last_reported":1735225726,"current_range_meters":32400,"station_id":"ce4bh2p2rcd13ifvqdi0","pricing_plan_id":"cebpf4jnsgd1na2vs0mg"},{"bike_id":"6fddf6a9-b5c4-4b31-ab3d-6a64a29448f0","system_id":"levelo_inurba_marseille","lat":43.29303,"lon":5.37168,"is_reserved":false,"is_disabled":false,"rental_uris":{"android":"levelo://app?vid=6fddf6a9-b5c4-4b31-ab3d-6a64a29448f0","ios":"levelo://app?vid=6fddf6a9-b5c4-4b31-ab3d-6a64a29448f0"},"vehicle_type_id":"4","last_reported":1735225726,"current_range_meters":17600,"station_id":"ce4bgh92rcd13ifvqb40","pricing_plan_id":"cebpf4jnsgd1na2vs0mg"},{"bike_id":"c9751a8a-79d3-40c3-84a6-e2e10badf950","system_id":"levelo_inurba_marseille","lat":43.29895,"lon":5.38152,"is_reserved":false,"is_disabled":false,"rental_uris":{"android":"levelo://app?vid=c9751a8a-79d3-40c3-84a6-e2e10badf950","ios":"levelo://app?vid=c9751a8a-79d3-40c3-84a6-e2e10badf950"},"vehicle_type_id":"4","last_reported":1735225726,"current_range_meters":38400,"station_id":"ce4bgj12rcd13ifvqbc0","pricing_plan_id":"cebpf4jnsgd1na2vs0mg"},{"bike_id":"4344e0d8-d4f9-4528-93ac-9e29fe2e8f7d","system_id":"levelo_inurba_marseille","lat":43.30536,"lon":5.36706,"is_reserved":false,"is_disabled":false,"rental_uris":{"android":"levelo://app?vid=4344e0d8-d4f9-4528-93ac-9e29fe2e8f7d","ios":"levelo://app?vid=4344e0d8-d4f9-4528-93ac-9e29fe2e8f7d"},"vehicle_type_id":"4","last_reported":1735225726,"current_range_meters":31200,"station_id":"ce4bgrp2rcd13ifvqc9g","pricing_plan_id":"cebpf4jnsgd1na2vs0mg"},{"bike_id":"526c3b21-f659-466e-a14d-5675dcf072b5","system_id":"levelo_inurba_marseille","lat":43.27079,"lon":5.42279,"is_reserved":false,"is_disabled":false,"rental_uris":{"android":"levelo://app?vid=526c3b21-f659-466e-a14d-5675dcf072b5","ios":"levelo://app?vid=526c3b21-f659-466e-a14d-5675dcf072b5"},"vehicle_type_id":"4","last_reported":1735225726,"current_range_meters":30800,"station_id":"ce4bhk92rcd13ifvqgb0","pricing_plan_id":"cebpf4jnsgd1na2vs0mg"},{"bike_id":"6882da18-50dc-4a58-b492-e62917a7ffc4","system_id":"levelo_inurba_marseille","lat":43.29624,"lon":5.37149,"is_reserved":false,"is_disabled":false,"rental_uris":{"android":"levelo://app?vid=6882da18-50dc-4a58-b492-e62917a7ffc4","ios":"levelo://app?vid=6882da18-50dc-4a58-b492-e62917a7ffc4"},"vehicle_type_id":"4","last_reported":1735225726,"current_range_meters":38400,"station_id":"ce4bgnh2rcd13ifvqc0g","pricing_plan_id":"cebpf4jnsgd1na2vs0mg"},{"bike_id":"3710efbe-9454-4d57-951d-2631d48572bc","system_id":"levelo_inurba_marseille","lat":43.3088,"lon":5.37193,"is_reserved":false,"is_disabled":false,"rental_uris":{"android":"levelo://app?vid=3710efbe-9454-4d57-951d-2631d48572bc","ios":"levelo://app?vid=3710efbe-9454-4d57-951d-2631d48572bc"},"vehicle_type_id":"4","last_reported":1735225726,"current_range_meters":12000,"station_id":"ce4bguh2rcd13ifvqckg","pricing_plan_id":"cebpf4jnsgd1na2vs0mg"},{"bike_id":"137f6041-7402-4720-b8e3-8360c38100c9","system_id":"levelo_inurba_marseille","lat":43.2694,"lon":5.40254,"is_reserved":false,"is_disabled":false,"rental_uris":{"android":"levelo://app?vid=137f6041-7402-4720-b8e3-8360c38100c9","ios":"levelo://app?vid=137f6041-7402-4720-b8e3-8360c38100c9"},"vehicle_type_id":"4","last_reported":1735225726,"current_range_meters":36800,"station_id":"cjm6bp8fraef2m0cb0m0","pricing_plan_id":"cebpf4jnsgd1na2vs0mg"},{"bike_id":"abb6f3f1-c9e4-4600-bf62-12f84f815612","system_id":"levelo_inurba_marseille","lat":43.28348,"lon":5.38096,"is_reserved":false,"is_disabled":false,"rental_uris":{"android":"levelo://app?vid=abb6f3f1-c9e4-4600-bf62-12f84f815612","ios":"levelo://app?vid=abb6f3f1-c9e4-4600-bf62-12f84f815612"},"vehicle_type_id":"4","last_reported":1735225726,"current_range_meters":39200,"station_id":"ce4bh412rcd13ifvqdr0","pricing_plan_id":"cebpf4jnsgd1na2vs0mg"},{"bike_id":"58db204d-5ace-4718-acf1-d935af39829a","system_id":"levelo_inurba_marseille","lat":43.29621,"lon":5.37171,"is_reserved":false,"is_disabled":false,"rental_uris":{"android":"levelo://app?vid=58db204d-5ace-4718-acf1-d935af39829a","ios":"levelo://app?vid=58db204d-5ace-4718-acf1-d935af39829a"},"vehicle_type_id":"4","last_reported":1735225726,"current_range_meters":38800,"station_id":"ce4bgnh2rcd13ifvqc0g","pricing_plan_id":"cebpf4jnsgd1na2vs0mg"},{"bike_id":"4e232ca3-7964-4580-80b9-29dc4d81398a","system_id":"levelo_inurba_marseille","lat":43.32048,"lon":5.41545,"is_reserved":false,"is_disabled":false,"rental_uris":{"android":"levelo://app?vid=4e232ca3-7964-4580-80b9-29dc4d81398a","ios":"levelo://app?vid=4e232ca3-7964-4580-80b9-29dc4d81398a"},"vehicle_type_id":"4","last_reported":1735225726,"current_range_meters":34000,"station_id":"ce4bhq92rcd13ifvqhkg","pricing_plan_id":"cebpf4jnsgd1na2vs0mg"},{"bike_id":"aaa78394-0f83-4d1b-bc11-2e06bb634e07","system_id":"levelo_inurba_marseille","lat":43.28132,"lon":5.42668,"is_reserved":false,"is_disabled":false,"rental_uris":{"android":"levelo://app?vid=aaa78394-0f83-4d1b-bc11-2e06bb634e07","ios":"levelo://app?vid=aaa78394-0f83-4d1b-bc11-2e06bb634e07"},"vehicle_type_id":"4","last_reported":1735225726,"current_range_meters":20400,"station_id":"ce4bhnh2rcd13ifvqgug","pricing_plan_id":"cebpf4jnsgd1na2vs0mg"},{"bike_id":"24d8041a-7437-43a0-ab7c-6a87c22cc63c","system_id":"levelo_inurba_marseille","lat":43.29305,"lon":5.37172,"is_reserved":false,"is_disabled":false,"rental_uris":{"android":"levelo://app?vid=24d8041a-7437-43a0-ab7c-6a87c22cc63c","ios":"levelo://app?vid=24d8041a-7437-43a0-ab7c-6a87c22cc63c"},"vehicle_type_id":"4","last_reported":1735225726,"current_range_meters":22800,"station_id":"ce4bgh92rcd13ifvqb40","pricing_plan_id":"cebpf4jnsgd1na2vs0mg"},{"bike_id":"20f5bddb-5202-4aaf-80d1-d51eec425276","system_id":"levelo_inurba_marseille","lat":43.25111,"lon":5.40321,"is_reserved":false,"is_disabled":false,"rental_uris":{"android":"levelo://app?vid=20f5bddb-5202-4aaf-80d1-d51eec425276","ios":"levelo://app?vid=20f5bddb-5202-4aaf-80d1-d51eec425276"},"vehicle_type_id":"4","last_reported":1735225726,"current_range_meters":19200,"station_id":"ce4bhlh2rcd13ifvqgig","pricing_plan_id":"cebpf4jnsgd1na2vs0mg"},{"bike_id":"fad884c6-644e-4487-ac86-54c3a21f09a4","system_id":"levelo_inurba_marseille","lat":43.26556,"lon":5.37286,"is_reserved":false,"is_disabled":false,"rental_uris":{"android":"levelo://app?vid=fad884c6-644e-4487-ac86-54c3a21f09a4","ios":"levelo://app?vid=fad884c6-644e-4487-ac86-54c3a21f09a4"},"vehicle_type_id":"4","last_reported":1735225726,"current_range_meters":36400,"station_id":"ce4bhg12rcd13ifvqf70","pricing_plan_id":"cebpf4jnsgd1na2vs0mg"},{"bike_id":"9da590cf-9e0b-4ae4-a009-5d750badc2c9","system_id":"levelo_inurba_marseille","lat":43.28033,"lon":5.36945,"is_reserved":false,"is_disabled":false,"rental_uris":{"android":"levelo://app?vid=9da590cf-9e0b-4ae4-a009-5d750badc2c9","ios":"levelo://app?vid=9da590cf-9e0b-4ae4-a009-5d750badc2c9"},"vehicle_type_id":"4","last_reported":1735225726,"current_range_meters":35600,"station_id":"ce4bha12rcd13ifvqef0","pricing_plan_id":"cebpf4jnsgd1na2vs0mg"},{"bike_id":"4e80fb69-89fc-4bc8-b1e4-f13a99f2e910","system_id":"levelo_inurba_marseille","lat":43.28488,"lon":5.38543,"is_reserved":false,"is_disabled":false,"rental_uris":{"android":"levelo://app?vid=4e80fb69-89fc-4bc8-b1e4-f13a99f2e910","ios":"levelo://app?vid=4e80fb69-89fc-4bc8-b1e4-f13a99f2e910"},"vehicle_type_id":"4","last_reported":1735225726,"current_range_meters":37600,"station_id":"ce4bh8p2rcd13ifvqeb0","pricing_plan_id":"cebpf4jnsgd1na2vs0mg"},{"bike_id":"ec3f8186-a764-4e8c-a21b-2f9464123659","system_id":"levelo_inurba_marseille","lat":43.29217,"lon":5.36113,"is_reserved":false,"is_disabled":false,"rental_uris":{"android":"levelo://app?vid=ec3f8186-a764-4e8c-a21b-2f9464123659","ios":"levelo://app?vid=ec3f8186-a764-4e8c-a21b-2f9464123659"},"vehicle_type_id":"4","last_reported":1735225726,"current_range_meters":11200,"station_id":"ce4bhbh2rcd13ifvqeqg","pricing_plan_id":"cebpf4jnsgd1na2vs0mg"},{"bike_id":"4f0978bb-2568-4421-9860-b196c4f6425f","system_id":"levelo_inurba_marseille","lat":43.29278,"lon":5.3685,"is_reserved":false,"is_disabled":false,"rental_uris":{"android":"levelo://app?vid=4f0978bb-2568-4421-9860-b196c4f6425f","ios":"levelo://app?vid=4f0978bb-2568-4421-9860-b196c4f6425f"},"vehicle_type_id":"4","last_reported":1735225726,"current_range_meters":25200,"station_id":"ce4bhbp2rcd13ifvqesg","pricing_plan_id":"cebpf4jnsgd1na2vs0mg"},{"bike_id":"2cca7a4c-2861-4c49-80ab-3fd5edea29ec","system_id":"levelo_inurba_marseille","lat":43.29608,"lon":5.36932,"is_reserved":false,"is_disabled":false,"rental_uris":{"android":"levelo://app?vid=2cca7a4c-2861-4c49-80ab-3fd5edea29ec","ios":"levelo://app?vid=2cca7a4c-2861-4c49-80ab-3fd5edea29ec"},"vehicle_type_id":"4","last_reported":1735225726,"current_range_meters":32000,"station_id":"","pricing_plan_id":"cebpf4jnsgd1na2vs0mg"},{"bike_id":"df9f86e5-8b71-480d-8db2-926bac71cefd","system_id":"levelo_inurba_marseille","lat":43.28665,"lon":5.36344,"is_reserved":false,"is_disabled":false,"rental_uris":{"android":"levelo://app?vid=df9f86e5-8b71-480d-8db2-926bac71cefd","ios":"levelo://app?vid=df9f86e5-8b71-480d-8db2-926bac71cefd"},"vehicle_type_id":"4","last_reported":1735225726,"current_range_meters":38000,"station_id":"ce4bhah2rcd13ifvqej0","pricing_plan_id":"cebpf4jnsgd1na2vs0mg"},{"bike_id":"2e49d9e4-f97b-4159-a72c-ba533a760568","system_id":"levelo_inurba_marseille","lat":43.30876,"lon":5.39642,"is_reserved":false,"is_disabled":false,"rental_uris":{"android":"levelo://app?vid=2e49d9e4-f97b-4159-a72c-ba533a760568","ios":"levelo://app?vid=2e49d9e4-f97b-4159-a72c-ba533a760568"},"vehicle_type_id":"4","last_reported":1735225726,"current_range_meters":22800,"station_id":"ce4bh012rcd13ifvqcv0","pricing_plan_id":"cebpf4jnsgd1na2vs0mg"},{"bike_id":"5deaa22c-231b-42aa-a015-9ebe85f20cdb","system_id":"levelo_inurba_marseille","lat":43.26559,"lon":5.37293,"is_reserved":false,"is_disabled":false,"rental_uris":{"android":"levelo://app?vid=5deaa22c-231b-42aa-a015-9ebe85f20cdb","ios":"levelo://app?vid=5deaa22c-231b-42aa-a015-9ebe85f20cdb"},"vehicle_type_id":"4","last_reported":1735225726,"current_range_meters":35600,"station_id":"ce4bhg12rcd13ifvqf70","pricing_plan_id":"cebpf4jnsgd1na2vs0mg"},{"bike_id":"11205b8c-6d2e-4974-8305-cd1c172b1103","system_id":"levelo_inurba_marseille","lat":43.23194,"lon":5.35558,"is_reserved":false,"is_disabled":false,"rental_uris":{"android":"levelo://app?vid=11205b8c-6d2e-4974-8305-cd1c172b1103","ios":"levelo://app?vid=11205b8c-6d2e-4974-8305-cd1c172b1103"},"vehicle_type_id":"4","last_reported":1735225726,"current_range_meters":37600,"station_id":"ce4bhu92rcd13ifvqi70","pricing_plan_id":"cebpf4jnsgd1na2vs0mg"},{"bike_id":"b0a18d06-1002-4baf-906d-b04071543c58","system_id":"levelo_inurba_marseille","lat":43.29758,"lon":5.36185,"is_reserved":false,"is_disabled":false,"rental_uris":{"android":"levelo://app?vid=b0a18d06-1002-4baf-906d-b04071543c58","ios":"levelo://app?vid=b0a18d06-1002-4baf-906d-b04071543c58"},"vehicle_type_id":"4","last_reported":1735225726,"current_range_meters":29600,"station_id":"","pricing_plan_id":"cebpf4jnsgd1na2vs0mg"},{"bike_id":"e8c5ec79-d360-453e-a5a9-07904c439161","system_id":"levelo_inurba_marseille","lat":43.34137,"lon":5.40912,"is_reserved":false,"is_disabled":false,"rental_uris":{"android":"levelo://app?vid=e8c5ec79-d360-453e-a5a9-07904c439161","ios":"levelo://app?vid=e8c5ec79-d360-453e-a5a9-07904c439161"},"vehicle_type_id":"4","last_reported":1735225726,"current_range_meters":28400,"station_id":"ce4bhqh2rcd13ifvqhlg","pricing_plan_id":"cebpf4jnsgd1na2vs0mg"},{"bike_id":"fd58f640-221e-4e0f-a64c-3c9eb37f99af","system_id":"levelo_inurba_marseille","lat":43.30302,"lon":5.36901,"is_reserved":false,"is_disabled":false,"rental_uris":{"android":"levelo://app?vid=fd58f640-221e-4e0f-a64c-3c9eb37f99af","ios":"levelo://app?vid=fd58f640-221e-4e0f-a64c-3c9eb37f99af"},"vehicle_type_id":"4","last_reported":1735225726,"current_range_meters":38400,"station_id":"ce4bgqh2rcd13ifvqc5g","pricing_plan_id":"cebpf4jnsgd1na2vs0mg"},{"bike_id":"8489053c-46c5-4e78-9708-8c7f2f0c9a79","system_id":"levelo_inurba_marseille","lat":43.30598,"lon":5.39353,"is_reserved":false,"is_disabled":false,"rental_uris":{"android":"levelo://app?vid=8489053c-46c5-4e78-9708-8c7f2f0c9a79","ios":"levelo://app?vid=8489053c-46c5-4e78-9708-8c7f2f0c9a79"},"vehicle_type_id":"4","last_reported":1735225726,"current_range_meters":36800,"station_id":"ce4bh0p2rcd13ifvqd80","pricing_plan_id":"cebpf4jnsgd1na2vs0mg"},{"bike_id":"441c8311-0c47-449c-9802-2d24792eb261","system_id":"levelo_inurba_marseille","lat":43.30428,"lon":5.3975,"is_reserved":false,"is_disabled":false,"rental_uris":{"android":"levelo://app?vid=441c8311-0c47-449c-9802-2d24792eb261","ios":"levelo://app?vid=441c8311-0c47-449c-9802-2d24792eb261"},"vehicle_type_id":"4","last_reported":1735225726,"current_range_meters":38800,"station_id":"ce4bh092rcd13ifvqd20","pricing_plan_id":"cebpf4jnsgd1na2vs0mg"},{"bike_id":"74a2a451-5a23-46fc-a74d-fd1bec465276","system_id":"levelo_inurba_marseille","lat":43.30136,"lon":5.37421,"is_reserved":false,"is_disabled":false,"rental_uris":{"android":"levelo://app?vid=74a2a451-5a23-46fc-a74d-fd1bec465276","ios":"levelo://app?vid=74a2a451-5a23-46fc-a74d-fd1bec465276"},"vehicle_type_id":"4","last_reported":1735225726,"current_range_meters":18000,"station_id":"ce4bgs92rcd13ifvqcc0","pricing_plan_id":"cebpf4jnsgd1na2vs0mg"},{"bike_id":"b4cab2ca-c290-4ee1-9dfe-6f5cffadae8f","system_id":"levelo_inurba_marseille","lat":43.30551,"lon":5.36558,"is_reserved":false,"is_disabled":false,"rental_uris":{"android":"levelo://app?vid=b4cab2ca-c290-4ee1-9dfe-6f5cffadae8f","ios":"levelo://app?vid=b4cab2ca-c290-4ee1-9dfe-6f5cffadae8f"},"vehicle_type_id":"4","last_reported":1735225726,"current_range_meters":33200,"station_id":"ce4bgs12rcd13ifvqcag","pricing_plan_id":"cebpf4jnsgd1na2vs0mg"},{"bike_id":"0cd77069-91b7-426f-91fb-85a4c3c0d176","system_id":"levelo_inurba_marseille","lat":43.26194,"lon":5.37453,"is_reserved":false,"is_disabled":false,"rental_uris":{"android":"levelo://app?vid=0cd77069-91b7-426f-91fb-85a4c3c0d176","ios":"levelo://app?vid=0cd77069-91b7-426f-91fb-85a4c3c0d176"},"vehicle_type_id":"4","last_reported":1735225726,"current_range_meters":25200,"station_id":"ce4bhgp2rcd13ifvqfc0","pricing_plan_id":"cebpf4jnsgd1na2vs0mg"},{"bike_id":"7b24f2f4-e3c0-4c8f-8ee1-3f46bbf2f116","system_id":"levelo_inurba_marseille","lat":43.31755,"lon":5.39023,"is_reserved":false,"is_disabled":false,"rental_uris":{"android":"levelo://app?vid=7b24f2f4-e3c0-4c8f-8ee1-3f46bbf2f116","ios":"levelo://app?vid=7b24f2f4-e3c0-4c8f-8ee1-3f46bbf2f116"},"vehicle_type_id":"4","last_reported":1735225726,"current_range_meters":39200,"station_id":"ce4bhqp2rcd13ifvqhng","pricing_plan_id":"cebpf4jnsgd1na2vs0mg"},{"bike_id":"491a606a-5a0e-411b-9789-9c74b8b5e4f2","system_id":"levelo_inurba_marseille","lat":43.25827,"lon":5.39445,"is_reserved":false,"is_disabled":false,"rental_uris":{"android":"levelo://app?vid=491a606a-5a0e-411b-9789-9c74b8b5e4f2","ios":"levelo://app?vid=491a606a-5a0e-411b-9789-9c74b8b5e4f2"},"vehicle_type_id":"4","last_reported":1735225726,"current_range_meters":38800,"station_id":"ce4bhip2rcd13ifvqft0","pricing_plan_id":"cebpf4jnsgd1na2vs0mg"},{"bike_id":"dac94ecf-3203-4c89-acc0-21c14e979588","system_id":"levelo_inurba_marseille","lat":43.26692,"lon":5.38266,"is_reserved":false,"is_disabled":false,"rental_uris":{"android":"levelo://app?vid=dac94ecf-3203-4c89-acc0-21c14e979588","ios":"levelo://app?vid=dac94ecf-3203-4c89-acc0-21c14e979588"},"vehicle_type_id":"4","last_reported":1735225726,"current_range_meters":6400,"station_id":"ce4bhg92rcd13ifvqf90","pricing_plan_id":"cebpf4jnsgd1na2vs0mg"},{"bike_id":"f0cafae0-f29d-4301-add9-cbd6aefdfe71","system_id":"levelo_inurba_marseille","lat":43.2707,"lon":5.42278,"is_reserved":false,"is_disabled":false,"rental_uris":{"android":"levelo://app?vid=f0cafae0-f29d-4301-add9-cbd6aefdfe71","ios":"levelo://app?vid=f0cafae0-f29d-4301-add9-cbd6aefdfe71"},"vehicle_type_id":"4","last_reported":1735225726,"current_range_meters":32400,"station_id":"ce4bhk92rcd13ifvqgb0","pricing_plan_id":"cebpf4jnsgd1na2vs0mg"},{"bike_id":"dec28b72-e189-451a-bcdc-100178e93785","system_id":"levelo_inurba_marseille","lat":43.28024,"lon":5.3694,"is_reserved":false,"is_disabled":false,"rental_uris":{"android":"levelo://app?vid=dec28b72-e189-451a-bcdc-100178e93785","ios":"levelo://app?vid=dec28b72-e189-451a-bcdc-100178e93785"},"vehicle_type_id":"4","last_reported":1735225726,"current_range_meters":38800,"station_id":"ce4bha12rcd13ifvqef0","pricing_plan_id":"cebpf4jnsgd1na2vs0mg"},{"bike_id":"fef93d15-0f35-4c67-a1ce-2ca3328df560","system_id":"levelo_inurba_marseille","lat":43.28109,"lon":5.37848,"is_reserved":false,"is_disabled":false,"rental_uris":{"android":"levelo://app?vid=fef93d15-0f35-4c67-a1ce-2ca3328df560","ios":"levelo://app?vid=fef93d15-0f35-4c67-a1ce-2ca3328df560"},"vehicle_type_id":"4","last_reported":1735225726,"current_range_meters":38800,"station_id":"ce4bha12rcd13ifvqee0","pricing_plan_id":"cebpf4jnsgd1na2vs0mg"},{"bike_id":"f6161732-001f-4be6-95c2-7b80c999ea4f","system_id":"levelo_inurba_marseille","lat":43.30598,"lon":5.37222,"is_reserved":false,"is_disabled":false,"rental_uris":{"android":"levelo://app?vid=f6161732-001f-4be6-95c2-7b80c999ea4f","ios":"levelo://app?vid=f6161732-001f-4be6-95c2-7b80c999ea4f"},"vehicle_type_id":"4","last_reported":1735225726,"current_range_meters":38800,"station_id":"ce4bgqh2rcd13ifvqc4g","pricing_plan_id":"cebpf4jnsgd1na2vs0mg"},{"bike_id":"d02ad9e6-a3e9-4e68-90d4-ff4e1b7f7299","system_id":"levelo_inurba_marseille","lat":43.28653,"lon":5.38676,"is_reserved":false,"is_disabled":false,"rental_uris":{"android":"levelo://app?vid=d02ad9e6-a3e9-4e68-90d4-ff4e1b7f7299","ios":"levelo://app?vid=d02ad9e6-a3e9-4e68-90d4-ff4e1b7f7299"},"vehicle_type_id":"4","last_reported":1735225726,"current_range_meters":16400,"station_id":"ce4bh492rcd13ifvqdug","pricing_plan_id":"cebpf4jnsgd1na2vs0mg"},{"bike_id":"7b1c41a3-6a2e-4420-a856-9b0139eb480b","system_id":"levelo_inurba_marseille","lat":43.27502,"lon":5.42455,"is_reserved":false,"is_disabled":true,"rental_uris":{"android":"levelo://app?vid=7b1c41a3-6a2e-4420-a856-9b0139eb480b","ios":"levelo://app?vid=7b1c41a3-6a2e-4420-a856-9b0139eb480b"},"vehicle_type_id":"4","last_reported":1735225726,"current_range_meters":0,"station_id":"ce4bhn92rcd13ifvqgrg","pricing_plan_id":"cebpf4jnsgd1na2vs0mg"},{"bike_id":"a82c29c9-45ef-40e8-8c72-c823cc061c95","system_id":"levelo_inurba_marseille","lat":43.29254,"lon":5.40905,"is_reserved":false,"is_disabled":false,"rental_uris":{"android":"levelo://app?vid=a82c29c9-45ef-40e8-8c72-c823cc061c95","ios":"levelo://app?vid=a82c29c9-45ef-40e8-8c72-c823cc061c95"},"vehicle_type_id":"4","last_reported":1735225726,"current_range_meters":32000,"station_id":"ce4bh192rcd13ifvqdc0","pricing_plan_id":"cebpf4jnsgd1na2vs0mg"},{"bike_id":"f5785e76-582b-4626-9d3e-1206d1517ecd","system_id":"levelo_inurba_marseille","lat":43.30219,"lon":5.39464,"is_reserved":false,"is_disabled":false,"rental_uris":{"android":"levelo://app?vid=f5785e76-582b-4626-9d3e-1206d1517ecd","ios":"levelo://app?vid=f5785e76-582b-4626-9d3e-1206d1517ecd"},"vehicle_type_id":"4","last_reported":1735225726,"current_range_meters":33200,"station_id":"ce4bh0p2rcd13ifvqd70","pricing_plan_id":"cebpf4jnsgd1na2vs0mg"},{"bike_id":"012a7886-754a-458d-baaa-135571da9a55","system_id":"levelo_inurba_marseille","lat":43.337444,"lon":5.374475,"is_reserved":false,"is_disabled":false,"rental_uris":{"android":"levelo://app?vid=012a7886-754a-458d-baaa-135571da9a55","ios":"levelo://app?vid=012a7886-754a-458d-baaa-135571da9a55"},"vehicle_type_id":"4","last_reported":1735225726,"current_range_meters":18800,"station_id":"","pricing_plan_id":"cebpf4jnsgd1na2vs0mg"},{"bike_id":"5d15041c-a6fc-462c-b3b2-8bac24755397","system_id":"levelo_inurba_marseille","lat":43.27058,"lon":5.4028,"is_reserved":false,"is_disabled":false,"rental_uris":{"android":"levelo://app?vid=5d15041c-a6fc-462c-b3b2-8bac24755397","ios":"levelo://app?vid=5d15041c-a6fc-462c-b3b2-8bac24755397"},"vehicle_type_id":"4","last_reported":1735225726,"current_range_meters":18800,"station_id":"ce4bhk92rcd13ifvqgc0","pricing_plan_id":"cebpf4jnsgd1na2vs0mg"},{"bike_id":"85ae449c-79eb-4336-9464-b0e8d055c12b","system_id":"levelo_inurba_marseille","lat":43.29798,"lon":5.38108,"is_reserved":false,"is_disabled":false,"rental_uris":{"android":"levelo://app?vid=85ae449c-79eb-4336-9464-b0e8d055c12b","ios":"levelo://app?vid=85ae449c-79eb-4336-9464-b0e8d055c12b"},"vehicle_type_id":"4","last_reported":1735225726,"current_range_meters":33200,"station_id":"ce4bgip2rcd13ifvqbb0","pricing_plan_id":"cebpf4jnsgd1na2vs0mg"},