{"last_updated":1715651188,"ttl":30,"version":"2.2","data":{"bikes":[{"bike_id":"c259d626-760e-4542-a840-f601ea2cb750","system_id":"levelo_inurba_marseille","lat":43.31341,"lon":5.367098,"is_reserved":false,"is_disabled":false,"rental_uris":{"android":"levelo://app?vid=c259d626-760e-4542-a840-f601ea2cb750","ios":"levelo://app?vid=c259d626-760e-4542-a840-f601ea2cb750"},"vehicle_type_id":"4","last_reported":1715651189,"current_range_meters":27600,"station_id":"ce4bgr92rcd13ifvqc6g","pricing_plan_id":"cebpf4jnsgd1na2vs0mg"},{"bike_id":"e8c08759-30e5-4077-bdc8-b79f5c9af22f","system_id":"levelo_inurba_marseille","lat":43.31359,"lon":5.36707,"is_reserved":false,"is_disabled":false,"rental_uris":{"android":"levelo://app?vid=e8c08759-30e5-4077-bdc8-b79f5c9af22f","ios":"levelo://app?vid=e8c08759-30e5-4077-bdc8-b79f5c9af22f"},"vehicle_type_id":"4","last_reported":1715651189,"current_range_meters":1200,"station_id":"ce4bgr92rcd13ifvqc6g","pricing_plan_id":"cebpf4jnsgd1na2vs0mg"},{"bike_id":"be01dc69-39b7-4432-abc0-649074c9b1c8","system_id":"levelo_inurba_marseille","lat":43.312239,"lon":5.368562,"is_reserved":false,"is_disabled":false,"rental_uris":{"android":"levelo://app?vid=be01dc69-39b7-4432-abc0-649074c9b1c8","ios":"levelo://app?vid=be01dc69-39b7-4432-abc0-649074c9b1c8"},"vehicle_type_id":"4","last_reported":1715651189,"current_range_meters":31600,"station_id":"ce4bgl92rcd13ifvqbq0","pricing_plan_id":"cebpf4jnsgd1na2vs0mg"},{"bike_id":"87168baa-9a04-4d56-bbf8-6419b6726ee1","system_id":"levelo_inurba_marseille","lat":43.312239,"lon":5.368562,"is_reserved":false,"is_disabled":false,"rental_uris":{"android":"levelo://app?vid=87168baa-9a04-4d56-bbf8-6419b6726ee1","ios":"levelo://app?vid=87168baa-9a04-4d56-bbf8-6419b6726ee1"},"vehicle_type_id":"4","last_reported":1715651189,"current_range_meters":16800,"station_id":"ce4bgl92rcd13ifvqbq0","pricing_plan_id":"cebpf4jnsgd1na2vs0mg"},{"bike_id":"12a55d41-cff6-4ff4-80ba-08c02cc63048","system_id":"levelo_inurba_marseille","lat":43.312239,"lon":5.368562,"is_reserved":false,"is_disabled":false,"rental_uris":{"android":"levelo://app?vid=12a55d41-cff6-4ff4-80ba-08c02cc63048","ios":"levelo://app?vid=12a55d41-cff6-4ff4-80ba-08c02cc63048"},"vehicle_type_id":"4","last_reported":1715651189,"current_range_meters":24800,"station_id":"ce4bgl92rcd13ifvqbq0","pricing_plan_id":"cebpf4jnsgd1na2vs0mg"},{"bike_id":"9d4cfa8e-a4f8-4bd6-9e7f-576d93adfcbe","system_id":"levelo_inurba_marseille","lat":43.312239,"lon":5.368562,"is_reserved":false,"is_disabled":false,"rental_uris":{"android":"levelo://app?vid=9d4cfa8e-a4f8-4bd6-9e7f-576d93adfcbe","ios":"levelo://app?vid=9d4cfa8e-a4f8-4bd6-9e7f-576d93adfcbe"},"vehicle_type_id":"4","last_reported":1715651189,"current_range_meters":29200,"station_id":"ce4bgl92rcd13ifvqbq0","pricing_plan_id":"cebpf4jnsgd1na2vs0mg"},{"bike_id":"4e0e3f8a-ec4f-4cd9-93d6-3063b7dfe1d2","system_id":"levelo_inurba_marseille","lat":43.309076,"lon":5.368465,"is_reserved":false,"is_disabled":false,"rental_uris":{"android":"levelo://app?vid=4e0e3f8a-ec4f-4cd9-93d6-3063b7dfe1d2","ios":"levelo://app?vid=4e0e3f8a-ec4f-4cd9-93d6-3063b7dfe1d2"},"vehicle_type_id":"4","last_reported":1715651189,"current_range_meters":28000,"station_id":"ce4bgn92rcd13ifvqbvg","pricing_plan_id":"cebpf4jnsgd1na2vs0mg"},{"bike_id":"b7261453-cdb5-45e7-89fa-bf3db435d00a","system_id":"levelo_inurba_marseille","lat":43.309076,"lon":5.368465,"is_reserved":false,"is_disabled":false,"rental_uris":{"android":"levelo://app?vid=b7261453-cdb5-45e7-89fa-bf3db435d00a","ios":"levelo://app?vid=b7261453-cdb5-45e7-89fa-bf3db435d00a"},"vehicle_type_id":"4","last_reported":1715651189,"current_range_meters":26400,"station_id":"ce4bgn92rcd13ifvqbvg","pricing_plan_id":"cebpf4jnsgd1na2vs0mg"},{"bike_id":"b642de57-a64b-460e-86e1-c987fda25a3a","system_id":"levelo_inurba_marseille","lat":43.31699,"lon":5.36898,"is_reserved":false,"is_disabled":false,"rental_uris":{"android":"levelo://app?vid=b642de57-a64b-460e-86e1-c987fda25a3a","ios":"levelo://app?vid=b642de57-a64b-460e-86e1-c987fda25a3a"},"vehicle_type_id":"4","last_reported":1715651189,"current_range_meters":0,"station_id":"","pricing_plan_id":"cebpf4jnsgd1na2vs0mg"},{"bike_id":"ef273b3c-b5b6-4e0e-9bf4-1613814faa44","system_id":"levelo_inurba_marseille","lat":43.314811,"lon":5.373103,"is_reserved":false,"is_disabled":false,"rental_uris":{"android":"levelo://app?vid=ef273b3c-b5b6-4e0e-9bf4-1613814faa44","ios":"levelo://app?vid=ef273b3c-b5b6-4e0e-9bf4-1613814faa44"},"vehicle_type_id":"4","last_reported":1715651189,"current_range_meters":19600,"station_id":"ce4bgt12rcd13ifvqcd0","pricing_plan_id":"cebpf4jnsgd1na2vs0mg"},{"bike_id":"bedcb7de-f97c-47fb-a2f5-46548a6f9b80","system_id":"levelo_inurba_marseille","lat":43.314811,"lon":5.373103,"is_reserved":false,"is_disabled":false,"rental_uris":{"android":"levelo://app?vid=bedcb7de-f97c-47fb-a2f5-46548a6f9b80","ios":"levelo://app?vid=bedcb7de-f97c-47fb-a2f5-46548a6f9b80"},"vehicle_type_id":"4","last_reported":1715651189,"current_range_meters":8400,"station_id":"ce4bgt12rcd13ifvqcd0","pricing_plan_id":"cebpf4jnsgd1na2vs0mg"},{"bike_id":"f3cc279d-5ab1-477c-94ab-435f5fbf7e97","system_id":"levelo_inurba_marseille","lat":43.314811,"lon":5.373103,"is_reserved":false,"is_disabled":false,"rental_uris":{"android":"levelo://app?vid=f3cc279d-5ab1-477c-94ab-435f5fbf7e97","ios":"levelo://app?vid=f3cc279d-5ab1-477c-94ab-435f5fbf7e97"},"vehicle_type_id":"4","last_reported":1715651189,"current_range_meters":31200,"station_id":"ce4bgt12rcd13ifvqcd0","pricing_plan_id":"cebpf4jnsgd1na2vs0mg"},{"bike_id":"2861431e-3522-42d1-a73d-690ad25e4bd2","system_id":"levelo_inurba_marseille","lat":43.314811,"lon":5.373103,"is_reserved":false,"is_disabled":false,"rental_uris":{"android":"levelo://app?vid=2861431e-3522-42d1-a73d-690ad25e4bd2","ios":"levelo://app?vid=2861431e-3522-42d1-a73d-690ad25e4bd2"},"vehicle_type_id":"4","last_reported":1715651189,"current_range_meters":6400,"station_id":"ce4bgt12rcd13ifvqcd0","pricing_plan_id":"cebpf4jnsgd1na2vs0mg"},{"bike_id":"ab25eff1-073f-4e19-a74a-74072a02ccaf","system_id":"levelo_inurba_marseille","lat":43.314811,"lon":5.373103,"is_reserved":false,"is_disabled":false,"rental_uris":{"android":"levelo://app?vid=ab25eff1-073f-4e19-a74a-74072a02ccaf","ios":"levelo://app?vid=ab25eff1-073f-4e19-a74a-74072a02ccaf"},"vehicle_type_id":"4","last_reported":1715651189,"current_range_meters":26800,"station_id":"ce4bgt12rcd13ifvqcd0","pricing_plan_id":"cebpf4jnsgd1na2vs0mg"},{"bike_id":"9c1dd598-e6fd-43ab-b3c8-607a30bb03df","system_id":"levelo_inurba_marseille","lat":43.314811,"lon":5.373103,"is_reserved":false,"is_disabled":false,"rental_uris":{"android":"levelo://app?vid=9c1dd598-e6fd-43ab-b3c8-607a30bb03df","ios":"levelo://app?vid=9c1dd598-e6fd-43ab-b3c8-607a30bb03df"},"vehicle_type_id":"4","last_reported":1715651189,"current_range_meters":28800,"station_id":"ce4bgt12rcd13ifvqcd0","pricing_plan_id":"cebpf4jnsgd1na2vs0mg"},{"bike_id":"1b7371c7-0e74-46b0-8dbf-7b033d5fa8b2","system_id":"levelo_inurba_marseille","lat":43.314811,"lon":5.373103,"is_reserved":false,"is_disabled":false,"rental_uris":{"android":"levelo://app?vid=1b7371c7-0e74-46b0-8dbf-7b033d5fa8b2","ios":"levelo://app?vid=1b7371c7-0e74-46b0-8dbf-7b033d5fa8b2"},"vehicle_type_id":"4","last_reported":1715651189,"current_range_meters":28000,"station_id":"ce4bgt12rcd13ifvqcd0","pricing_plan_id":"cebpf4jnsgd1na2vs0mg"},{"bike_id":"a3120e20-a173-47cd-a592-111bb3fba253","system_id":"levelo_inurba_marseille","lat":43.314811,"lon":5.373103,"is_reserved":false,"is_disabled":false,"rental_uris":{"android":"levelo://app?vid=a3120e20-a173-47cd-a592-111bb3fba253","ios":"levelo://app?vid=a3120e20-a173-47cd-a592-111bb3fba253"},"vehicle_type_id":"4","last_reported":1715651189,"current_range_meters":28400,"station_id":"ce4bgt12rcd13ifvqcd0","pricing_plan_id":"cebpf4jnsgd1na2vs0mg"},{"bike_id":"f7f0c115-0d85-4324-b0c5-5896487b2c26","system_id":"levelo_inurba_marseille","lat":43.314811,"lon":5.373104,"is_reserved":false,"is_disabled":false,"rental_uris":{"android":"levelo://app?vid=f7f0c115-0d85-4324-b0c5-5896487b2c26","ios":"levelo://app?vid=f7f0c115-0d85-4324-b0c5-5896487b2c26"},"vehicle_type_id":"4","last_reported":1715651189,"current_range_meters":18800,"station_id":"ce4bgt12rcd13ifvqcd0","pricing_plan_id":"cebpf4jnsgd1na2vs0mg"},{"bike_id":"f01f4ec0-3d1b-4b8d-bce7-ac0a087b1097","system_id":"levelo_inurba_marseille","lat":43.314811,"lon":5.373104,"is_reserved":false,"is_disabled":false,"rental_uris":{"android":"levelo://app?vid=f01f4ec0-3d1b-4b8d-bce7-ac0a087b1097","ios":"levelo://app?vid=f01f4ec0-3d1b-4b8d-bce7-ac0a087b1097"},"vehicle_type_id":"4","last_reported":1715651189,"current_range_meters":14400,"station_id":"ce4bgt12rcd13ifvqcd0","pricing_plan_id":"cebpf4jnsgd1na2vs0mg"},{"bike_id":"376c2748-b9e5-451a-8aa9-05e55f9cb83c","system_id":"levelo_inurba_marseille","lat":43.31504,"lon":5.37304,"is_reserved":false,"is_disabled":false,"rental_uris":{"android":"levelo://app?vid=376c2748-b9e5-451a-8aa9-05e55f9cb83c","ios":"levelo://app?vid=376c2748-b9e5-451a-8aa9-05e55f9cb83c"},"vehicle_type_id":"4","last_reported":1715651189,"current_range_meters":21200,"station_id":"ce4bgt12rcd13ifvqcd0","pricing_plan_id":"cebpf4jnsgd1na2vs0mg"},{"bike_id":"dbb7e682-b3ca-4e0a-bde1-07de40ea49d8","system_id":"levelo_inurba_marseille","lat":43.314811,"lon":5.373104,"is_reserved":false,"is_disabled":false,"rental_uris":{"android":"levelo://app?vid=dbb7e682-b3ca-4e0a-bde1-07de40ea49d8","ios":"levelo://app?vid=dbb7e682-b3ca-4e0a-bde1-07de40ea49d8"},"vehicle_type_id":"4","last_reported":1715651189,"current_range_meters":17600,"station_id":"ce4bgt12rcd13ifvqcd0","pricing_plan_id":"cebpf4jnsgd1na2vs0mg"},{"bike_id":"ad890cba-7b57-4e7a-94e7-56b08b97d7b9","system_id":"levelo_inurba_marseille","lat":43.314811,"lon":5.373104,"is_reserved":false,"is_disabled":false,"rental_uris":{"android":"levelo://app?vid=ad890cba-7b57-4e7a-94e7-56b08b97d7b9","ios":"levelo://app?vid=ad890cba-7b57-4e7a-94e7-56b08b97d7b9"},"vehicle_type_id":"4","last_reported":1715651189,"current_range_meters":23200,"station_id":"ce4bgt12rcd13ifvqcd0","pricing_plan_id":"cebpf4jnsgd1na2vs0mg"},{"bike_id":"3e316603-85f4-466e-96ec-02d651bfb712","system_id":"levelo_inurba_marseille","lat":43.30891,"lon":5.37186,"is_reserved":false,"is_disabled":false,"rental_uris":{"android":"levelo://app?vid=3e316603-85f4-466e-96ec-02d651bfb712","ios":"levelo://app?vid=3e316603-85f4-466e-96ec-02d651bfb712"},"vehicle_type_id":"4","last_reported":1715651189,"current_range_meters":25200,"station_id":"ce4bguh2rcd13ifvqckg","pricing_plan_id":"cebpf4jnsgd1na2vs0mg"},{"bike_id":"f7ec8592-795e-4ef9-8003-d43af76a4884","system_id":"levelo_inurba_marseille","lat":43.308893,"lon":5.371947,"is_reserved":false,"is_disabled":false,"rental_uris":{"android":"levelo://app?vid=f7ec8592-795e-4ef9-8003-d43af76a4884","ios":"levelo://app?vid=f7ec8592-795e-4ef9-8003-d43af76a4884"},"vehicle_type_id":"4","last_reported":1715651189,"current_range_meters":1600,"station_id":"ce4bguh2rcd13ifvqckg","pricing_plan_id":"cebpf4jnsgd1na2vs0mg"},{"bike_id":"63015b9b-683e-4bae-a483-c03186209277","system_id":"levelo_inurba_marseille","lat":43.308827,"lon":5.371983,"is_reserved":false,"is_disabled":false,"rental_uris":{"android":"levelo://app?vid=63015b9b-683e-4bae-a483-c03186209277","ios":"levelo://app?vid=63015b9b-683e-4bae-a483-c03186209277"},"vehicle_type_id":"4","last_reported":1715651189,"current_range_meters":28000,"station_id":"ce4bguh2rcd13ifvqckg","pricing_plan_id":"cebpf4jnsgd1na2vs0mg"},{"bike_id":"2155d1e6-c274-4901-b340-7f5a6166bf61","system_id":"levelo_inurba_marseille","lat":43.305989,"lon":5.37225,"is_reserved":false,"is_disabled":false,"rental_uris":{"android":"levelo://app?vid=2155d1e6-c274-4901-b340-7f5a6166bf61","ios":"levelo://app?vid=2155d1e6-c274-4901-b340-7f5a6166bf61"},"vehicle_type_id":"4","last_reported":1715651189,"current_range_meters":17200,"station_id":"ce4bgqh2rcd13ifvqc4g","pricing_plan_id":"cebpf4jnsgd1na2vs0mg"},{"bike_id":"c4d4c411-d40f-45de-b7f2-12f48fec135d","system_id":"levelo_inurba_marseille","lat":43.305714,"lon":5.365633,"is_reserved":false,"is_disabled":false,"rental_uris":{"android":"levelo://app?vid=c4d4c411-d40f-45de-b7f2-12f48fec135d","ios":"levelo://app?vid=c4d4c411-d40f-45de-b7f2-12f48fec135d"},"vehicle_type_id":"4","last_reported":1715651189,"current_range_meters":28400,"station_id":"ce4bgs12rcd13ifvqcag","pricing_plan_id":"cebpf4jnsgd1na2vs0mg"},{"bike_id":"8c262529-7a74-4457-bb28-3291f7f009cc","system_id":"levelo_inurba_marseille","lat":43.305368,"lon":5.367343,"is_reserved":false,"is_disabled":false,"rental_uris":{"android":"levelo://app?vid=8c262529-7a74-4457-bb28-3291f7f009cc","ios":"levelo://app?vid=8c262529-7a74-4457-bb28-3291f7f009cc"},"vehicle_type_id":"4","last_reported":1715651189,"current_range_meters":17600,"station_id":"ce4bgrp2rcd13ifvqc9g","pricing_plan_id":"cebpf4jnsgd1na2vs0mg"},{"bike_id":"cd2fbafb-68be-4d99-81a9-5ddc3b6caf2a","system_id":"levelo_inurba_marseille","lat":43.305309,"lon":5.365428,"is_reserved":false,"is_disabled":false,"rental_uris":{"android":"levelo://app?vid=cd2fbafb-68be-4d99-81a9-5ddc3b6caf2a","ios":"levelo://app?vid=cd2fbafb-68be-4d99-81a9-5ddc3b6caf2a"},"vehicle_type_id":"4","last_reported":1715651189,"current_range_meters":26800,"station_id":"ce4bgs12rcd13ifvqcag","pricing_plan_id":"cebpf4jnsgd1na2vs0mg"},{"bike_id":"c26c7226-7360-45a1-a7c2-b26ef2332a1b","system_id":"levelo_inurba_marseille","lat":43.305989,"lon":5.37225,"is_reserved":false,"is_disabled":false,"rental_uris":{"android":"levelo://app?vid=c26c7226-7360-45a1-a7c2-b26ef2332a1b","ios":"levelo://app?vid=c26c7226-7360-45a1-a7c2-b26ef2332a1b"},"vehicle_type_id":"4","last_reported":1715651189,"current_range_meters":12400,"station_id":"ce4bgqh2rcd13ifvqc4g","pricing_plan_id":"cebpf4jnsgd1na2vs0mg"},{"bike_id":"52a9049e-eb42-404d-ba75-3ba6109b0f23","system_id":"levelo_inurba_marseille","lat":43.305989,"lon":5.37225,"is_reserved":false,"is_disabled":false,"rental_uris":{"android":"levelo://app?vid=52a9049e-eb42-404d-ba75-3ba6109b0f23","ios":"levelo://app?vid=52a9049e-eb42-404d-ba75-3ba6109b0f23"},"vehicle_type_id":"4","last_reported":1715651189,"current_range_meters":30000,"station_id":"ce4bgqh2rcd13ifvqc4g","pricing_plan_id":"cebpf4jnsgd1na2vs0mg"},{"bike_id":"b3d56805-6361-4a85-94bb-7bf0ffcc99b3","system_id":"levelo_inurba_marseille","lat":43.305989,"lon":5.37225,"is_reserved":false,"is_disabled":false,"rental_uris":{"android":"levelo://app?vid=b3d56805-6361-4a85-94bb-7bf0ffcc99b3","ios":"levelo://app?vid=b3d56805-6361-4a85-94bb-7bf0ffcc99b3"},"vehicle_type_id":"4","last_reported":1715651189,"current_range_meters":26800,"station_id":"ce4bgqh2rcd13ifvqc4g","pricing_plan_id":"cebpf4jnsgd1na2vs0mg"},{"bike_id":"850fd6bb-1212-4dd6-a121-3629bf25affc","system_id":"levelo_inurba_marseille","lat":43.305989,"lon":5.37225,"is_reserved":false,"is_disabled":false,"rental_uris":{"android":"levelo://app?vid=850fd6bb-1212-4dd6-a121-3629bf25affc","ios":"levelo://app?vid=850fd6bb-1212-4dd6-a121-3629bf25affc"},"vehicle_type_id":"4","last_reported":1715651189,"current_range_meters":1200,"station_id":"ce4bgqh2rcd13ifvqc4g","pricing_plan_id":"cebpf4jnsgd1na2vs0mg"},{"bike_id":"883516ef-e4c4-47ed-99d2-d0bf79cb22e2","system_id":"levelo_inurba_marseille","lat":43.305989,"lon":5.37225,"is_reserved":false,"is_disabled":false,"rental_uris":{"android":"levelo://app?vid=883516ef-e4c4-47ed-99d2-d0bf79cb22e2","ios":"levelo://app?vid=883516ef-e4c4-47ed-99d2-d0bf79cb22e2"},"vehicle_type_id":"4","last_reported":1715651189,"current_range_meters":27600,"station_id":"ce4bgqh2rcd13ifvqc4g","pricing_plan_id":"cebpf4jnsgd1na2vs0mg"},{"bike_id":"d68918ac-3dd8-4acc-bcf8-0be226d89be2","system_id":"levelo_inurba_marseille","lat":43.305989,"lon":5.37225,"is_reserved":false,"is_disabled":false,"rental_uris":{"android":"levelo://app?vid=d68918ac-3dd8-4acc-bcf8-0be226d89be2","ios":"levelo://app?vid=d68918ac-3dd8-4acc-bcf8-0be226d89be2"},"vehicle_type_id":"4","last_reported":1715651189,"current_range_meters":27200,"station_id":"ce4bgqh2rcd13ifvqc4g","pricing_plan_id":"cebpf4jnsgd1na2vs0mg"},{"bike_id":"c622a363-ffec-4e45-96b0-d689edd1ca7f","system_id":"levelo_inurba_marseille","lat":43.305989,"lon":5.37225,"is_reserved":false,"is_disabled":false,"rental_uris":{"android":"levelo://app?vid=c622a363-ffec-4e45-96b0-d689edd1ca7f","ios":"levelo://app?vid=c622a363-ffec-4e45-96b0-d689edd1ca7f"},"vehicle_type_id":"4","last_reported":1715651189,"current_range_meters":24800,"station_id":"ce4bgqh2rcd13ifvqc4g","pricing_plan_id":"cebpf4jnsgd1na2vs0mg"},{"bike_id":"2bdeea90-fca4-4da0-94d0-5a0146f923d4","system_id":"levelo_inurba_marseille","lat":43.3112,"lon":5.37761,"is_reserved":false,"is_disabled":false,"rental_uris":{"android":"levelo://app?vid=2bdeea90-fca4-4da0-94d0-5a0146f923d4","ios":"levelo://app?vid=2bdeea90-fca4-4da0-94d0-5a0146f923d4"},"vehicle_type_id":"4","last_reported":1715651189,"current_range_meters":22800,"station_id":"ce4bgt92rcd13ifvqcg0","pricing_plan_id":"cebpf4jnsgd1na2vs0mg"},{"bike_id":"5aea4e90-89b1-42f1-a5dc-64314492dc43","system_id":"levelo_inurba_marseille","lat":43.311125,"lon":5.377624,"is_reserved":false,"is_disabled":false,"rental_uris":{"android":"levelo://app?vid=5aea4e90-89b1-42f1-a5dc-64314492dc43","ios":"levelo://app?vid=5aea4e90-89b1-42f1-a5dc-64314492dc43"},"vehicle_type_id":"4","last_reported":1715651189,"current_range_meters":3200,"station_id":"ce4bgt92rcd13ifvqcg0","pricing_plan_id":"cebpf4jnsgd1na2vs0mg"},{"bike_id":"7dc1854a-cd00-4eb8-8597-621305241bfc","system_id":"levelo_inurba_marseille","lat":43.31117,"lon":5.37763,"is_reserved":false,"is_disabled":false,"rental_uris":{"android":"levelo://app?vid=7dc1854a-cd00-4eb8-8597-621305241bfc","ios":"levelo://app?vid=7dc1854a-cd00-4eb8-8597-621305241bfc"},"vehicle_type_id":"4","last_reported":1715651189,"current_range_meters":0,"station_id":"ce4bgt92rcd13ifvqcg0","pricing_plan_id":"cebpf4jnsgd1na2vs0mg"},{"bike_id":"df50c6d2-4a9a-4c6e-8712-f89612c2121d","system_id":"levelo_inurba_marseille","lat":43.31117,"lon":5.377668,"is_reserved":false,"is_disabled":false,"rental_uris":{"android":"levelo://app?vid=df50c6d2-4a9a-4c6e-8712-f89612c2121d","ios":"levelo://app?vid=df50c6d2-4a9a-4c6e-8712-f89612c2121d"},"vehicle_type_id":"4","last_reported":1715651189,"current_range_meters":3200,"station_id":"ce4bgt92rcd13ifvqcg0","pricing_plan_id":"cebpf4jnsgd1na2vs0mg"},{"bike_id":"ed1e1454-d9ac-49b6-b399-ccd3ac35ca75","system_id":"levelo_inurba_marseille","lat":43.3112,"lon":5.3777,"is_reserved":false,"is_disabled":false,"rental_uris":{"android":"levelo://app?vid=ed1e1454-d9ac-49b6-b399-ccd3ac35ca75","ios":"levelo://app?vid=ed1e1454-d9ac-49b6-b399-ccd3ac35ca75"},"vehicle_type_id":"4","last_reported":1715651189,"current_range_meters":13200,"station_id":"ce4bgt92rcd13ifvqcg0","pricing_plan_id":"cebpf4jnsgd1na2vs0mg"},{"bike_id":"2c23b0e6-25c3-426c-a78a-eea7cfde2a71","system_id":"levelo_inurba_marseille","lat":43.311125,"lon":5.377624,"is_reserved":false,"is_disabled":false,"rental_uris":{"android":"levelo://app?vid=2c23b0e6-25c3-426c-a78a-eea7cfde2a71","ios":"levelo://app?vid=2c23b0e6-25c3-426c-a78a-eea7cfde2a71"},"vehicle_type_id":"4","last_reported":1715651189,"current_range_meters":0,"station_id":"ce4bgt92rcd13ifvqcg0","pricing_plan_id":"cebpf4jnsgd1na2vs0mg"},{"bike_id":"89424db4-e663-4ed8-a436-f7956838f0f4","system_id":"levelo_inurba_marseille","lat":43.307945,"lon":5.376487,"is_reserved":false,"is_disabled":false,"rental_uris":{"android":"levelo://app?vid=89424db4-e663-4ed8-a436-f7956838f0f4","ios":"levelo://app?vid=89424db4-e663-4ed8-a436-f7956838f0f4"},"vehicle_type_id":"4","last_reported":1715651189,"current_range_meters":26000,"station_id":"ce4bgv92rcd13ifvqcq0","pricing_plan_id":"cebpf4jnsgd1na2vs0mg"},{"bike_id":"8c0d153b-cad8-4b8e-9090-78da04ba3e50","system_id":"levelo_inurba_marseille","lat":43.307945,"lon":5.376487,"is_reserved":false,"is_disabled":false,"rental_uris":{"android":"levelo://app?vid=8c0d153b-cad8-4b8e-9090-78da04ba3e50","ios":"levelo://app?vid=8c0d153b-cad8-4b8e-9090-78da04ba3e50"},"vehicle_type_id":"4","last_reported":1715651189,"current_range_meters":25600,"station_id":"ce4bgv92rcd13ifvqcq0","pricing_plan_id":"cebpf4jnsgd1na2vs0mg"},{"bike_id":"d4749d9a-201e-493f-ac63-9dc0f947d455","system_id":"levelo_inurba_marseille","lat":43.307945,"lon":5.376487,"is_reserved":false,"is_disabled":false,"rental_uris":{"android":"levelo://app?vid=d4749d9a-201e-493f-ac63-9dc0f947d455","ios":"levelo://app?vid=d4749d9a-201e-493f-ac63-9dc0f947d455"},"vehicle_type_id":"4","last_reported":1715651189,"current_range_meters":13600,"station_id":"ce4bgv92rcd13ifvqcq0","pricing_plan_id":"cebpf4jnsgd1na2vs0mg"},{"bike_id":"92f57de4-3f8f-4f2c-bc1d-49d3c6f434d6","system_id":"levelo_inurba_marseille","lat":43.307945,"lon":5.376487,"is_reserved":false,"is_disabled":false,"rental_uris":{"android":"levelo://app?vid=92f57de4-3f8f-4f2c-bc1d-49d3c6f434d6","ios":"levelo://app?vid=92f57de4-3f8f-4f2c-bc1d-49d3c6f434d6"},"vehicle_type_id":"4","last_reported":1715651189,"current_range_meters":29200,"station_id":"ce4bgv92rcd13ifvqcq0","pricing_plan_id":"cebpf4jnsgd1na2vs0mg"},{"bike_id":"9cf279a1-81f4-4eb1-a6e4-808c7b36e8f1","system_id":"levelo_inurba_marseille","lat":43.307945,"lon":5.376487,"is_reserved":false,"is_disabled":false,"rental_uris":{"android":"levelo://app?vid=9cf279a1-81f4-4eb1-a6e4-808c7b36e8f1","ios":"levelo://app?vid=9cf279a1-81f4-4eb1-a6e4-808c7b36e8f1"},"vehicle_type_id":"4","last_reported":1715651189,"current_range_meters":21600,"station_id":"ce4bgv92rcd13ifvqcq0","pricing_plan_id":"cebpf4jnsgd1na2vs0mg"},{"bike_id":"44c9e147-6409-40ac-b9b7-72783d827400","system_id":"levelo_inurba_marseille","lat":43.307945,"lon":5.376487,"is_reserved":false,"is_disabled":false,"rental_uris":{"android":"levelo://app?vid=44c9e147-6409-40ac-b9b7-72783d827400","ios":"levelo://app?vid=44c9e147-6409-40ac-b9b7-72783d827400"},"vehicle_type_id":"4","last_reported":1715651189,"current_range_meters":31600,"station_id":"ce4bgv92rcd13ifvqcq0","pricing_plan_id":"cebpf4jnsgd1na2vs0mg"},{"bike_id":"a8420d12-5ea1-4553-ba77-74153419b9a1","system_id":"levelo_inurba_marseille","lat":43.307945,"lon":5.376487,"is_reserved":false,"is_disabled":false,"rental_uris":{"android":"levelo://app?vid=a8420d12-5ea1-4553-ba77-74153419b9a1","ios":"levelo://app?vid=a8420d12-5ea1-4553-ba77-74153419b9a1"},"vehicle_type_id":"4","last_reported":1715651189,"current_range_meters":31200,"station_id":"ce4bgv92rcd13ifvqcq0","pricing_plan_id":"cebpf4jnsgd1na2vs0mg"},{"bike_id":"3099a788-24e1-43b1-94d4-61ea01784d9c","system_id":"levelo_inurba_marseille","lat":43.307945,"lon":5.376487,"is_reserved":false,"is_disabled":false,"rental_uris":{"android":"levelo://app?vid=3099a788-24e1-43b1-94d4-61ea01784d9c","ios":"levelo://app?vid=3099a788-24e1-43b1-94d4-61ea01784d9c"},"vehicle_type_id":"4","last_reported":1715651189,"current_range_meters":26000,"station_id":"ce4bgv92rcd13ifvqcq0","pricing_plan_id":"cebpf4jnsgd1na2vs0mg"},{"bike_id":"4cd08082-1f26-489b-9968-39cc50e39633","system_id":"levelo_inurba_marseille","lat":43.317075,"lon":5.377367,"is_reserved":false,"is_disabled":false,"rental_uris":{"android":"levelo://app?vid=4cd08082-1f26-489b-9968-39cc50e39633","ios":"levelo://app?vid=4cd08082-1f26-489b-9968-39cc50e39633"},"vehicle_type_id":"4","last_reported":1715651189,"current_range_meters":26800,"station_id":"ce4bgth2rcd13ifvqch0","pricing_plan_id":"cebpf4jnsgd1na2vs0mg"},{"bike_id":"037b420e-fa98-4b46-97c9-6b7dae36a1b7","system_id":"levelo_inurba_marseille","lat":43.317075,"lon":5.377367,"is_reserved":false,"is_disabled":false,"rental_uris":{"android":"levelo://app?vid=037b420e-fa98-4b46-97c9-6b7dae36a1b7","ios":"levelo://app?vid=037b420e-fa98-4b46-97c9-6b7dae36a1b7"},"vehicle_type_id":"4","last_reported":1715651189,"current_range_meters":31600,"station_id":"ce4bgth2rcd13ifvqch0","pricing_plan_id":"cebpf4jnsgd1na2vs0mg"},{"bike_id":"fb8f484a-9f9e-49a3-b1e1-b107debd7e8f","system_id":"levelo_inurba_marseille","lat":43.317075,"lon":5.377367,"is_reserved":false,"is_disabled":false,"rental_uris":{"android":"levelo://app?vid=fb8f484a-9f9e-49a3-b1e1-b107debd7e8f","ios":"levelo://app?vid=fb8f484a-9f9e-49a3-b1e1-b107debd7e8f"},"vehicle_type_id":"4","last_reported":1715651189,"current_range_meters":21200,"station_id":"ce4bgth2rcd13ifvqch0","pricing_plan_id":"cebpf4jnsgd1na2vs0mg"},{"bike_id":"464f5481-468f-41c1-8021-ce9a81a22c12","system_id":"levelo_inurba_marseille","lat":43.317075,"lon":5.377367,"is_reserved":false,"is_disabled":false,"rental_uris":{"android":"levelo://app?vid=464f5481-468f-41c1-8021-ce9a81a22c12","ios":"levelo://app?vid=464f5481-468f-41c1-8021-ce9a81a22c12"},"vehicle_type_id":"4","last_reported":1715651189,"current_range_meters":18800,"station_id":"ce4bgth2rcd13ifvqch0","pricing_plan_id":"cebpf4jnsgd1na2vs0mg"},{"bike_id":"8e316b76-a887-4a54-90b0-e5a1fa38c530","system_id":"levelo_inurba_marseille","lat":43.317075,"lon":5.377367,"is_reserved":false,"is_disabled":false,"rental_uris":{"android":"levelo://app?vid=8e316b76-a887-4a54-90b0-e5a1fa38c530","ios":"levelo://app?vid=8e316b76-a887-4a54-90b0-e5a1fa38c530"},"vehicle_type_id":"4","last_reported":1715651189,"current_range_meters":26400,"station_id":"ce4bgth2rcd13ifvqch0","pricing_plan_id":"cebpf4jnsgd1na2vs0mg"},{"bike_id":"09fd13a0-7d2b-40dd-91e5-447ce2149e88","system_id":"levelo_inurba_marseille","lat":43.317075,"lon":5.377367,"is_reserved":false,"is_disabled":false,"rental_uris":{"android":"levelo://app?vid=09fd13a0-7d2b-40dd-91e5-447ce2149e88","ios":"levelo://app?vid=09fd13a0-7d2b-40dd-91e5-447ce2149e88"},"vehicle_type_id":"4","last_reported":1715651189,"current_range_meters":31600,"station_id":"ce4bgth2rcd13ifvqch0","pricing_plan_id":"cebpf4jnsgd1na2vs0mg"},{"bike_id":"1087604c-9294-47b5-83ad-47344e732e14","system_id":"levelo_inurba_marseille","lat":43.315289,"lon":5.380349,"is_reserved":false,"is_disabled":false,"rental_uris":{"android":"levelo://app?vid=1087604c-9294-47b5-83ad-47344e732e14","ios":"levelo://app?vid=1087604c-9294-47b5-83ad-47344e732e14"},"vehicle_type_id":"4","last_reported":1715651189,"current_range_meters":27200,"station_id":"ce4bhsp2rcd13ifvqi50","pricing_plan_id":"cebpf4jnsgd1na2vs0mg"},{"bike_id":"971a8de3-a883-45da-b286-e1a6d4db7b5e","system_id":"levelo_inurba_marseille","lat":43.315289,"lon":5.380349,"is_reserved":false,"is_disabled":false,"rental_uris":{"android":"levelo://app?vid=971a8de3-a883-45da-b286-e1a6d4db7b5e","ios":"levelo://app?vid=971a8de3-a883-45da-b286-e1a6d4db7b5e"},"vehicle_type_id":"4","last_reported":1715651189,"current_range_meters":18800,"station_id":"ce4bhsp2rcd13ifvqi50","pricing_plan_id":"cebpf4jnsgd1na2vs0mg"},{"bike_id":"59f2eed6-0240-4ced-86a7-61e5e936b681","system_id":"levelo_inurba_marseille","lat":43.315293,"lon":5.380349,"is_reserved":false,"is_disabled":false,"rental_uris":{"android":"levelo://app?vid=59f2eed6-0240-4ced-86a7-61e5e936b681","ios":"levelo://app?vid=59f2eed6-0240-4ced-86a7-61e5e936b681"},"vehicle_type_id":"4","last_reported":1715651189,"current_range_meters":22400,"station_id":"ce4bhsp2rcd13ifvqi50","pricing_plan_id":"cebpf4jnsgd1na2vs0mg"},{"bike_id":"dae76468-8e1d-46c5-b7af-b4385b1fddce","system_id":"levelo_inurba_marseille","lat":43.315289,"lon":5.380349,"is_reserved":false,"is_disabled":false,"rental_uris":{"android":"levelo://app?vid=dae76468-8e1d-46c5-b7af-b4385b1fddce","ios":"levelo://app?vid=dae76468-8e1d-46c5-b7af-b4385b1fddce"},"vehicle_type_id":"4","last_reported":1715651189,"current_range_meters":16000,"station_id":"ce4bhsp2rcd13ifvqi50","pricing_plan_id":"cebpf4jnsgd1na2vs0mg"},{"bike_id":"a37cdda5-216b-490e-9d2b-eead123fc9e0","system_id":"levelo_inurba_marseille","lat":43.315289,"lon":5.380349,"is_reserved":false,"is_disabled":false,"rental_uris":{"android":"levelo://app?vid=a37cdda5-216b-490e-9d2b-eead123fc9e0","ios":"levelo://app?vid=a37cdda5-216b-490e-9d2b-eead123fc9e0"},"vehicle_type_id":"4","last_reported":1715651189,"current_range_meters":2800,"station_id":"ce4bhsp2rcd13ifvqi50","pricing_plan_id":"cebpf4jnsgd1na2vs0mg"},{"bike_id":"a878e633-d052-41da-8346-207134d7844d","system_id":"levelo_inurba_marseille","lat":43.3019,"lon":5.36607,"is_reserved":false,"is_disabled":false,"rental_uris":{"android":"levelo://app?vid=a878e633-d052-41da-8346-207134d7844d","ios":"levelo://app?vid=a878e633-d052-41da-8346-207134d7844d"},"vehicle_type_id":"4","last_reported":1715651189,"current_range_meters":24000,"station_id":"ce4bgrh2rcd13ifvqc8g","pricing_plan_id":"cebpf4jnsgd1na2vs0mg"},{"bike_id":"ffbde479-f194-4ba8-9c99-ad06624491c6","system_id":"levelo_inurba_marseille","lat":43.3019,"lon":5.36603,"is_reserved":false,"is_disabled":false,"rental_uris":{"android":"levelo://app?vid=ffbde479-f194-4ba8-9c99-ad06624491c6","ios":"levelo://app?vid=ffbde479-f194-4ba8-9c99-ad06624491c6"},"vehicle_type_id":"4","last_reported":1715651189,"current_range_meters":26800,"station_id":"ce4bgrh2rcd13ifvqc8g","pricing_plan_id":"cebpf4jnsgd1na2vs0mg"},{"bike_id":"4eea2f69-109e-4c86-9ec2-e518d0c8b9ea","system_id":"levelo_inurba_marseille","lat":43.301939,"lon":5.366286,"is_reserved":false,"is_disabled":false,"rental_uris":{"android":"levelo://app?vid=4eea2f69-109e-4c86-9ec2-e518d0c8b9ea","ios":"levelo://app?vid=4eea2f69-109e-4c86-9ec2-e518d0c8b9ea"},"vehicle_type_id":"4","last_reported":1715651189,"current_range_meters":28000,"station_id":"ce4bgrh2rcd13ifvqc8g","pricing_plan_id":"cebpf4jnsgd1na2vs0mg"},{"bike_id":"e518cec9-02cd-4de7-8c47-9d07b4a1bea2","system_id":"levelo_inurba_marseille","lat":43.324031,"lon":5.367174,"is_reserved":false,"is_disabled":false,"rental_uris":{"android":"levelo://app?vid=e518cec9-02cd-4de7-8c47-9d07b4a1bea2","ios":"levelo://app?vid=e518cec9-02cd-4de7-8c47-9d07b4a1bea2"},"vehicle_type_id":"4","last_reported":1715651189,"current_range_meters":8800,"station_id":"","pricing_plan_id":"cebpf4jnsgd1na2vs0mg"},{"bike_id":"ee3a2ea7-0824-4c39-a7dc-6762b68f7f1a","system_id":"levelo_inurba_marseille","lat":43.308012,"lon":5.381511,"is_reserved":false,"is_disabled":false,"rental_uris":{"android":"levelo://app?vid=ee3a2ea7-0824-4c39-a7dc-6762b68f7f1a","ios":"levelo://app?vid=ee3a2ea7-0824-4c39-a7dc-6762b68f7f1a"},"vehicle_type_id":"4","last_reported":1715651189,"current_range_meters":18800,"station_id":"ce4bgt12rcd13ifvqce0","pricing_plan_id":"cebpf4jnsgd1na2vs0mg"},{"bike_id":"bff667f8-c745-4820-a9d9-f473186d87b3","system_id":"levelo_inurba_marseille","lat":43.308012,"lon":5.381511,"is_reserved":false,"is_disabled":false,"rental_uris":{"android":"levelo://app?vid=bff667f8-c745-4820-a9d9-f473186d87b3","ios":"levelo://app?vid=bff667f8-c745-4820-a9d9-f473186d87b3"},"vehicle_type_id":"4","last_reported":1715651189,"current_range_meters":8800,"station_id":"ce4bgt12rcd13ifvqce0","pricing_plan_id":"cebpf4jnsgd1na2vs0mg"},{"bike_id":"ef8d0c69-9a13-4bb3-b0bc-ecf1921b907c","system_id":"levelo_inurba_marseille","lat":43.308012,"lon":5.381511,"is_reserved":false,"is_disabled":false,"rental_uris":{"android":"levelo://app?vid=ef8d0c69-9a13-4bb3-b0bc-ecf1921b907c","ios":"levelo://app?vid=ef8d0c69-9a13-4bb3-b0bc-ecf1921b907c"},"vehicle_type_id":"4","last_reported":1715651189,"current_range_meters":31200,"station_id":"ce4bgt12rcd13ifvqce0","pricing_plan_id":"cebpf4jnsgd1na2vs0mg"},{"bike_id":"49d53c83-b77b-4ab4-a778-0ca363ed4110","system_id":"levelo_inurba_marseille","lat":43.308012,"lon":5.381511,"is_reserved":false,"is_disabled":false,"rental_uris":{"android":"levelo://app?vid=49d53c83-b77b-4ab4-a778-0ca363ed4110","ios":"levelo://app?vid=49d53c83-b77b-4ab4-a778-0ca363ed4110"},"vehicle_type_id":"4","last_reported":1715651189,"current_range_meters":22000,"station_id":"ce4bgt12rcd13ifvqce0","pricing_plan_id":"cebpf4jnsgd1na2vs0mg"},{"bike_id":"5d4e9f11-057d-4755-8310-1acefd524755","system_id":"levelo_inurba_marseille","lat":43.308012,"lon":5.381511,"is_reserved":false,"is_disabled":false,"rental_uris":{"android":"levelo://app?vid=5d4e9f11-057d-4755-8310-1acefd524755","ios":"levelo://app?vid=5d4e9f11-057d-4755-8310-1acefd524755"},"vehicle_type_id":"4","last_reported":1715651189,"current_range_meters":22400,"station_id":"ce4bgt12rcd13ifvqce0","pricing_plan_id":"cebpf4jnsgd1na2vs0mg"},{"bike_id":"5f2fb073-342c-4a76-a284-ae0f1fce59d0","system_id":"levelo_inurba_marseille","lat":43.32477,"lon":5.36554,"is_reserved":false,"is_disabled":false,"rental_uris":{"android":"levelo://app?vid=5f2fb073-342c-4a76-a284-ae0f1fce59d0","ios":"levelo://app?vid=5f2fb073-342c-4a76-a284-ae0f1fce59d0"},"vehicle_type_id":"4","last_reported":1715651189,"current_range_meters":9600,"station_id":"ce4bhs12rcd13ifvqhvg","pricing_plan_id":"cebpf4jnsgd1na2vs0mg"},{"bike_id":"4a9a9665-1cd2-49ce-8806-5d25ff857789","system_id":"levelo_inurba_marseille","lat":43.324782,"lon":5.365708,"is_reserved":false,"is_disabled":false,"rental_uris":{"android":"levelo://app?vid=4a9a9665-1cd2-49ce-8806-5d25ff857789","ios":"levelo://app?vid=4a9a9665-1cd2-49ce-8806-5d25ff857789"},"vehicle_type_id":"4","last_reported":1715651189,"current_range_meters":10800,"station_id":"ce4bhs12rcd13ifvqhvg","pricing_plan_id":"cebpf4jnsgd1na2vs0mg"},{"bike_id":"ec42202b-e6fa-4a97-a614-2846aed801f1","system_id":"levelo_inurba_marseille","lat":43.324771,"lon":5.36557,"is_reserved":false,"is_disabled":false,"rental_uris":{"android":"levelo://app?vid=ec42202b-e6fa-4a97-a614-2846aed801f1","ios":"levelo://app?vid=ec42202b-e6fa-4a97-a614-2846aed801f1"},"vehicle_type_id":"4","last_reported":1715651189,"current_range_meters":4000,"station_id":"ce4bhs12rcd13ifvqhvg","pricing_plan_id":"cebpf4jnsgd1na2vs0mg"},{"bike_id":"7279300e-a5c4-4f3b-858a-e2bd296be7c9","system_id":"levelo_inurba_marseille","lat":43.32478,"lon":5.36559,"is_reserved":false,"is_disabled":false,"rental_uris":{"android":"levelo://app?vid=7279300e-a5c4-4f3b-858a-e2bd296be7c9","ios":"levelo://app?vid=7279300e-a5c4-4f3b-858a-e2bd296be7c9"},"vehicle_type_id":"4","last_reported":1715651189,"current_range_meters":7600,"station_id":"ce4bhs12rcd13ifvqhvg","pricing_plan_id":"cebpf4jnsgd1na2vs0mg"},{"bike_id":"65c89bbc-8f51-471f-8067-cb8c4f85808f","system_id":"levelo_inurba_marseille","lat":43.32479,"lon":5.36565,"is_reserved":false,"is_disabled":false,"rental_uris":{"android":"levelo://app?vid=65c89bbc-8f51-471f-8067-cb8c4f85808f","ios":"levelo://app?vid=65c89bbc-8f51-471f-8067-cb8c4f85808f"},"vehicle_type_id":"4","last_reported":1715651189,"current_range_meters":14000,"station_id":"ce4bhs12rcd13ifvqhvg","pricing_plan_id":"cebpf4jnsgd1na2vs0mg"},{"bike_id":"483aeaa0-e4c4-412f-9c97-941c13495054","system_id":"levelo_inurba_marseille","lat":43.3248,"lon":5.36567,"is_reserved":false,"is_disabled":false,"rental_uris":{"android":"levelo://app?vid=483aeaa0-e4c4-412f-9c97-941c13495054","ios":"levelo://app?vid=483aeaa0-e4c4-412f-9c97-941c13495054"},"vehicle_type_id":"4","last_reported":1715651189,"current_range_meters":28800,"station_id":"ce4bhs12rcd13ifvqhvg","pricing_plan_id":"cebpf4jnsgd1na2vs0mg"},{"bike_id":"de363a9b-b8dd-4f25-97c4-05ca23eea0b0","system_id":"levelo_inurba_marseille","lat":43.324771,"lon":5.36557,"is_reserved":false,"is_disabled":false,"rental_uris":{"android":"levelo://app?vid=de363a9b-b8dd-4f25-97c4-05ca23eea0b0","ios":"levelo://app?vid=de363a9b-b8dd-4f25-97c4-05ca23eea0b0"},"vehicle_type_id":"4","last_reported":1715651189,"current_range_meters":20800,"station_id":"ce4bhs12rcd13ifvqhvg","pricing_plan_id":"cebpf4jnsgd1na2vs0mg"},{"bike_id":"ab294a79-14d3-426e-b97b-f105f6a1e37c","system_id":"levelo_inurba_marseille","lat":43.324771,"lon":5.36557,"is_reserved":false,"is_disabled":false,"rental_uris":{"android":"levelo://app?vid=ab294a79-14d3-426e-b97b-f105f6a1e37c","ios":"levelo://app?vid=ab294a79-14d3-426e-b97b-f105f6a1e37c"},"vehicle_type_id":"4","last_reported":1715651189,"current_range_meters":22000,"station_id":"ce4bhs12rcd13ifvqhvg","pricing_plan_id":"cebpf4jnsgd1na2vs0mg"},{"bike_id":"fbb6cef2-0251-45ac-be4c-6827acb26d5a","system_id":"levelo_inurba_marseille","lat":43.324814,"lon":5.365617,"is_reserved":false,"is_disabled":false,"rental_uris":{"android":"levelo://app?vid=fbb6cef2-0251-45ac-be4c-6827acb26d5a","ios":"levelo://app?vid=fbb6cef2-0251-45ac-be4c-6827acb26d5a"},"vehicle_type_id":"4","last_reported":1715651189,"current_range_meters":6400,"station_id":"ce4bhs12rcd13ifvqhvg","pricing_plan_id":"cebpf4jnsgd1na2vs0mg"},{"bike_id":"26bd8217-5511-4bf1-a4d4-7323f3ee6d22","system_id":"levelo_inurba_marseille","lat":43.324771,"lon":5.36557,"is_reserved":false,"is_disabled":false,"rental_uris":{"android":"levelo://app?vid=26bd8217-5511-4bf1-a4d4-7323f3ee6d22","ios":"levelo://app?vid=26bd8217-5511-4bf1-a4d4-7323f3ee6d22"},"vehicle_type_id":"4","last_reported":1715651189,"current_range_meters":9600,"station_id":"ce4bhs12rcd13ifvqhvg","pricing_plan_id":"cebpf4jnsgd1na2vs0mg"},{"bike_id":"85caa480-0e01-4cfa-8205-d231d883076b","system_id":"levelo_inurba_marseille","lat":43.324771,"lon":5.36557,"is_reserved":false,"is_disabled":false,"rental_uris":{"android":"levelo://app?vid=85caa480-0e01-4cfa-8205-d231d883076b","ios":"levelo://app?vid=85caa480-0e01-4cfa-8205-d231d883076b"},"vehicle_type_id":"4","last_reported":1715651189,"current_range_meters":800,"station_id":"ce4bhs12rcd13ifvqhvg","pricing_plan_id":"cebpf4jnsgd1na2vs0mg"},{"bike_id":"855e19b2-a879-402e-b914-323ad8136d11","system_id":"levelo_inurba_marseille","lat":43.324771,"lon":5.36557,"is_reserved":false,"is_disabled":false,"rental_uris":{"android":"levelo://app?vid=855e19b2-a879-402e-b914-323ad8136d11","ios":"levelo://app?vid=855e19b2-a879-402e-b914-323ad8136d11"},"vehicle_type_id":"4","last_reported":1715651189,"current_range_meters":10000,"station_id":"ce4bhs12rcd13ifvqhvg","pricing_plan_id":"cebpf4jnsgd1na2vs0mg"},{"bike_id":"7bde3c61-4232-4ccd-8c1d-610184d39686","system_id":"levelo_inurba_marseille","lat":43.324771,"lon":5.36557,"is_reserved":false,"is_disabled":false,"rental_uris":{"android":"levelo://app?vid=7bde3c61-4232-4ccd-8c1d-610184d39686","ios":"levelo://app?vid=7bde3c61-4232-4ccd-8c1d-610184d39686"},"vehicle_type_id":"4","last_reported":1715651189,"current_range_meters":12800,"station_id":"ce4bhs12rcd13ifvqhvg","pricing_plan_id":"cebpf4jnsgd1na2vs0mg"},{"bike_id":"3a519d4f-c77d-4275-9e44-996feb3a9a9b","system_id":"levelo_inurba_marseille","lat":43.324771,"lon":5.36557,"is_reserved":false,"is_disabled":false,"rental_uris":{"android":"levelo://app?vid=3a519d4f-c77d-4275-9e44-996feb3a9a9b","ios":"levelo://app?vid=3a519d4f-c77d-4275-9e44-996feb3a9a9b"},"vehicle_type_id":"4","last_reported":1715651189,"current_range_meters":28800,"station_id":"ce4bhs12rcd13ifvqhvg","pricing_plan_id":"cebpf4jnsgd1na2vs0mg"},{"bike_id":"4e0f11cd-682c-4a4d-92ea-12bc6ccf1bb7","system_id":"levelo_inurba_marseille","lat":43.31066,"lon":5.38346,"is_reserved":false,"is_disabled":false,"rental_uris":{"android":"levelo://app?vid=4e0f11cd-682c-4a4d-92ea-12bc6ccf1bb7","ios":"levelo://app?vid=4e0f11cd-682c-4a4d-92ea-12bc6ccf1bb7"},"vehicle_type_id":"4","last_reported":1715651189,"current_range_meters":400,"station_id":"ce4bgv92rcd13ifvqcr0","pricing_plan_id":"cebpf4jnsgd1na2vs0mg"},{"bike_id":"59a42296-c9bb-46ef-9b39-fc03d83d40bf","system_id":"levelo_inurba_marseille","lat":43.310804,"lon":5.38359,"is_reserved":false,"is_disabled":false,"rental_uris":{"android":"levelo://app?vid=59a42296-c9bb-46ef-9b39-fc03d83d40bf","ios":"levelo://app?vid=59a42296-c9bb-46ef-9b39-fc03d83d40bf"},"vehicle_type_id":"4","last_reported":1715651189,"current_range_meters":10800,"station_id":"ce4bgv92rcd13ifvqcr0","pricing_plan_id":"cebpf4jnsgd1na2vs0mg"},{"bike_id":"c4d28e09-0f7d-4103-b635-dfdd6b96c090","system_id":"levelo_inurba_marseille","lat":43.31066,"lon":5.383468,"is_reserved":false,"is_disabled":false,"rental_uris":{"android":"levelo://app?vid=c4d28e09-0f7d-4103-b635-dfdd6b96c090","ios":"levelo://app?vid=c4d28e09-0f7d-4103-b635-dfdd6b96c090"},"vehicle_type_id":"4","last_reported":1715651189,"current_range_meters":20000,"station_id":"ce4bgv92rcd13ifvqcr0","pricing_plan_id":"cebpf4jnsgd1na2vs0mg"},{"bike_id":"906ef339-0f84-47e7-8835-e4061016db01","system_id":"levelo_inurba_marseille","lat":43.310804,"lon":5.38359,"is_reserved":false,"is_disabled":false,"rental_uris":{"android":"levelo://app?vid=906ef339-0f84-47e7-8835-e4061016db01","ios":"levelo://app?vid=906ef339-0f84-47e7-8835-e4061016db01"},"vehicle_type_id":"4","last_reported":1715651189,"current_range_meters":20400,"station_id":"ce4bgv92rcd13ifvqcr0","pricing_plan_id":"cebpf4jnsgd1na2vs0mg"},{"bike_id":"51dac0cd-1031-4202-823b-fadba0c5089c","system_id":"levelo_inurba_marseille","lat":43.310804,"lon":5.38359,"is_reserved":false,"is_disabled":false,"rental_uris":{"android":"levelo://app?vid=51dac0cd-1031-4202-823b-fadba0c5089c","ios":"levelo://app?vid=51dac0cd-1031-4202-823b-fadba0c5089c"},"vehicle_type_id":"4","last_reported":1715651189,"current_range_meters":30800,"station_id":"ce4bgv92rcd13ifvqcr0","pricing_plan_id":"cebpf4jnsgd1na2vs0mg"},{"bike_id":"5a16cd43-f05e-4d0d-8973-6459268a8bd1","system_id":"levelo_inurba_marseille","lat":43.310804,"lon":5.38359,"is_reserved":false,"is_disabled":false,"rental_uris":{"android":"levelo://app?vid=5a16cd43-f05e-4d0d-8973-6459268a8bd1","ios":"levelo://app?vid=5a16cd43-f05e-4d0d-8973-6459268a8bd1"},"vehicle_type_id":"4","last_reported":1715651189,"current_range_meters":28000,"station_id":"ce4bgv92rcd13ifvqcr0","pricing_plan_id":"cebpf4jnsgd1na2vs0mg"},{"bike_id":"13628964-7e57-420c-8a42-a1389f8bc9f6","system_id":"levelo_inurba_marseille","lat":43.310804,"lon":5.38359,"is_reserved":false,"is_disabled":false,"rental_uris":{"android":"levelo://app?vid=13628964-7e57-420c-8a42-a1389f8bc9f6","ios":"levelo://app?vid=13628964-7e57-420c-8a42-a1389f8bc9f6"},"vehicle_type_id":"4","last_reported":1715651189,"current_range_meters":28800,"station_id":"ce4bgv92rcd13ifvqcr0","pricing_plan_id":"cebpf4jnsgd1na2vs0mg"},{"bike_id":"b0d2eed0-039b-49fa-983c-ab12d3d29cbb","system_id":"levelo_inurba_marseille","lat":43.310804,"lon":5.38359,"is_reserved":false,"is_disabled":false,"rental_uris":{"android":"levelo://app?vid=b0d2eed0-039b-49fa-983c-ab12d3d29cbb","ios":"levelo://app?vid=b0d2eed0-039b-49fa-983c-ab12d3d29cbb"},"vehicle_type_id":"4","last_reported":1715651189,"current_range_meters":14800,"station_id":"ce4bgv92rcd13ifvqcr0","pricing_plan_id":"cebpf4jnsgd1na2vs0mg"},{"bike_id":"94f2d25c-070a-4c17-aeb4-396168c92ae6","system_id":"levelo_inurba_marseille","lat":43.31078,"lon":5.38359,"is_reserved":false,"is_disabled":false,"rental_uris":{"android":"levelo://app?vid=94f2d25c-070a-4c17-aeb4-396168c92ae6","ios":"levelo://app?vid=94f2d25c-070a-4c17-aeb4-396168c92ae6"},"vehicle_type_id":"4","last_reported":1715651189,"current_range_meters":30400,"station_id":"ce4bgv92rcd13ifvqcr0","pricing_plan_id":"cebpf4jnsgd1na2vs0mg"},{"bike_id":"81d7dc86-8bff-4319-bc41-236c0cdbea95","system_id":"levelo_inurba_marseille","lat":43.310804,"lon":5.38359,"is_reserved":false,"is_disabled":false,"rental_uris":{"android":"levelo://app?vid=81d7dc86-8bff-4319-bc41-236c0cdbea95","ios":"levelo://app?vid=81d7dc86-8bff-4319-bc41-236c0cdbea95"},"vehicle_type_id":"4","last_reported":1715651189,"current_range_meters":29200,"station_id":"ce4bgv92rcd13ifvqcr0","pricing_plan_id":"cebpf4jnsgd1na2vs0mg"},{"bike_id":"67eb5232-65b6-4585-8ac4-e6e2cddbd144","system_id":"levelo_inurba_marseille","lat":43.310804,"lon":5.38359,"is_reserved":false,"is_disabled":false,"rental_uris":{"android":"levelo://app?vid=67eb5232-65b6-4585-8ac4-e6e2cddbd144","ios":"levelo://app?vid=67eb5232-65b6-4585-8ac4-e6e2cddbd144"},"vehicle_type_id":"4","last_reported":1715651189,"current_range_meters":10800,"station_id":"ce4bgv92rcd13ifvqcr0","pricing_plan_id":"cebpf4jnsgd1na2vs0mg"},{"bike_id":"064ebfa9-57c4-4596-b5cd-4755788c22d9","system_id":"levelo_inurba_marseille","lat":43.302784,"lon":5.377158,"is_reserved":false,"is_disabled":false,"rental_uris":{"android":"levelo://app?vid=064ebfa9-57c4-4596-b5cd-4755788c22d9","ios":"levelo://app?vid=064ebfa9-57c4-4596-b5cd-4755788c22d9"},"vehicle_type_id":"4","last_reported":1715651189,"current_range_meters":24800,"station_id":"ce4bguh2rcd13ifvqcj0","pricing_plan_id":"cebpf4jnsgd1na2vs0mg"},{"bike_id":"b40fa20a-2022-4b3f-88b2-5d6b1bb63cce","system_id":"levelo_inurba_marseille","lat":43.30143,"lon":5.37413,"is_reserved":false,"is_disabled":false,"rental_uris":{"android":"levelo://app?vid=b40fa20a-2022-4b3f-88b2-5d6b1bb63cce","ios":"levelo://app?vid=b40fa20a-2022-4b3f-88b2-5d6b1bb63cce"},"vehicle_type_id":"4","last_reported":1715651189,"current_range_meters":29200,"station_id":"ce4bgs92rcd13ifvqcc0","pricing_plan_id":"cebpf4jnsgd1na2vs0mg"},{"bike_id":"ed6c144e-08d7-4450-b999-c96f838464ed","system_id":"levelo_inurba_marseille","lat":43.301429,"lon":5.37413,"is_reserved":false,"is_disabled":false,"rental_uris":{"android":"levelo://app?vid=ed6c144e-08d7-4450-b999-c96f838464ed","ios":"levelo://app?vid=ed6c144e-08d7-4450-b999-c96f838464ed"},"vehicle_type_id":"4","last_reported":1715651189,"current_range_meters":12400,"station_id":"ce4bgs92rcd13ifvqcc0","pricing_plan_id":"cebpf4jnsgd1na2vs0mg"},{"bike_id":"3c990cb6-658b-4c90-9c1a-cad49ce08135","system_id":"levelo_inurba_marseille","lat":43.30139,"lon":5.37411,"is_reserved":false,"is_disabled":false,"rental_uris":{"android":"levelo://app?vid=3c990cb6-658b-4c90-9c1a-cad49ce08135","ios":"levelo://app?vid=3c990cb6-658b-4c90-9c1a-cad49ce08135"},"vehicle_type_id":"4","last_reported":1715651189,"current_range_meters":26800,"station_id":"ce4bgs92rcd13ifvqcc0","pricing_plan_id":"cebpf4jnsgd1na2vs0mg"},{"bike_id":"e17298e3-66b0-47b5-af71-bf0216e03eea","system_id":"levelo_inurba_marseille","lat":43.301429,"lon":5.37413,"is_reserved":false,"is_disabled":false,"rental_uris":{"android":"levelo://app?vid=e17298e3-66b0-47b5-af71-bf0216e03eea","ios":"levelo://app?vid=e17298e3-66b0-47b5-af71-bf0216e03eea"},"vehicle_type_id":"4","last_reported":1715651189,"current_range_meters":16400,"station_id":"ce4bgs92rcd13ifvqcc0","pricing_plan_id":"cebpf4jnsgd1na2vs0mg"},{"bike_id":"7a29f469-034b-4350-8638-1241f62adccc","system_id":"levelo_inurba_marseille","lat":43.301429,"lon":5.37413,"is_reserved":false,"is_disabled":false,"rental_uris":{"android":"levelo://app?vid=7a29f469-034b-4350-8638-1241f62adccc","ios":"levelo://app?vid=7a29f469-034b-4350-8638-1241f62adccc"},"vehicle_type_id":"4","last_reported":1715651189,"current_range_meters":24400,"station_id":"ce4bgs92rcd13ifvqcc0","pricing_plan_id":"cebpf4jnsgd1na2vs0mg"},{"bike_id":"e9200887-f131-48af-b424-114e439ba2b0","system_id":"levelo_inurba_marseille","lat":43.30143,"lon":5.37413,"is_reserved":false,"is_disabled":false,"rental_uris":{"android":"levelo://app?vid=e9200887-f131-48af-b424-114e439ba2b0","ios":"levelo://app?vid=e9200887-f131-48af-b424-114e439ba2b0"},"vehicle_type_id":"4","last_reported":1715651189,"current_range_meters":20000,"station_id":"ce4bgs92rcd13ifvqcc0","pricing_plan_id":"cebpf4jnsgd1na2vs0mg"},{"bike_id":"37b176cb-6128-4f0a-917b-50b06d767c35","system_id":"levelo_inurba_marseille","lat":43.301429,"lon":5.37413,"is_reserved":false,"is_disabled":false,"rental_uris":{"android":"levelo://app?vid=37b176cb-6128-4f0a-917b-50b06d767c35","ios":"levelo://app?vid=37b176cb-6128-4f0a-917b-50b06d767c35"},"vehicle_type_id":"4","last_reported":1715651189,"current_range_meters":30800,"station_id":"ce4bgs92rcd13ifvqcc0","pricing_plan_id":"cebpf4jnsgd1na2vs0mg"},{"bike_id":"9a5f9ed1-57c9-4cfe-b1b4-776b14fcfccd","system_id":"levelo_inurba_marseille","lat":43.30143,"lon":5.37413,"is_reserved":false,"is_disabled":false,"rental_uris":{"android":"levelo://app?vid=9a5f9ed1-57c9-4cfe-b1b4-776b14fcfccd","ios":"levelo://app?vid=9a5f9ed1-57c9-4cfe-b1b4-776b14fcfccd"},"vehicle_type_id":"4","last_reported":1715651189,"current_range_meters":31200,"station_id":"ce4bgs92rcd13ifvqcc0","pricing_plan_id":"cebpf4jnsgd1na2vs0mg"},{"bike_id":"1a4bc433-547e-49fc-a2ad-2e6c34099fa8","system_id":"levelo_inurba_marseille","lat":43.31985,"lon":5.38137,"is_reserved":false,"is_disabled":false,"rental_uris":{"android":"levelo://app?vid=1a4bc433-547e-49fc-a2ad-2e6c34099fa8","ios":"levelo://app?vid=1a4bc433-547e-49fc-a2ad-2e6c34099fa8"},"vehicle_type_id":"4","last_reported":1715651189,"current_range_meters":16400,"station_id":"ce4bhr12rcd13ifvqhpg","pricing_plan_id":"cebpf4jnsgd1na2vs0mg"},{"bike_id":"31558d58-cda1-44dc-897c-1d96b09e0cf9","system_id":"levelo_inurba_marseille","lat":43.319883,"lon":5.381444,"is_reserved":false,"is_disabled":false,"rental_uris":{"android":"levelo://app?vid=31558d58-cda1-44dc-897c-1d96b09e0cf9","ios":"levelo://app?vid=31558d58-cda1-44dc-897c-1d96b09e0cf9"},"vehicle_type_id":"4","last_reported":1715651189,"current_range_meters":20000,"station_id":"ce4bhr12rcd13ifvqhpg","pricing_plan_id":"cebpf4jnsgd1na2vs0mg"},{"bike_id":"cb979d69-1cb6-478b-a244-7ff208c6a717","system_id":"levelo_inurba_marseille","lat":43.319935,"lon":5.381699,"is_reserved":false,"is_disabled":false,"rental_uris":{"android":"levelo://app?vid=cb979d69-1cb6-478b-a244-7ff208c6a717","ios":"levelo://app?vid=cb979d69-1cb6-478b-a244-7ff208c6a717"},"vehicle_type_id":"4","last_reported":1715651189,"current_range_meters":10400,"station_id":"ce4bhr12rcd13ifvqhpg","pricing_plan_id":"cebpf4jnsgd1na2vs0mg"},{"bike_id":"b233cfe7-9417-4e09-91de-ed220f06879c","system_id":"levelo_inurba_marseille","lat":43.31995,"lon":5.38146,"is_reserved":false,"is_disabled":false,"rental_uris":{"android":"levelo://app?vid=b233cfe7-9417-4e09-91de-ed220f06879c","ios":"levelo://app?vid=b233cfe7-9417-4e09-91de-ed220f06879c"},"vehicle_type_id":"4","last_reported":1715651189,"current_range_meters":17600,"station_id":"ce4bhr12rcd13ifvqhpg","pricing_plan_id":"cebpf4jnsgd1na2vs0mg"},{"bike_id":"719a556d-8f52-436d-8e59-793cd94c0eee","system_id":"levelo_inurba_marseille","lat":43.319935,"lon":5.381699,"is_reserved":false,"is_disabled":false,"rental_uris":{"android":"levelo://app?vid=719a556d-8f52-436d-8e59-793cd94c0eee","ios":"levelo://app?vid=719a556d-8f52-436d-8e59-793cd94c0eee"},"vehicle_type_id":"4","last_reported":1715651189,"current_range_meters":20400,"station_id":"ce4bhr12rcd13ifvqhpg","pricing_plan_id":"cebpf4jnsgd1na2vs0mg"},{"bike_id":"02171d2d-5cb4-4bfc-acd4-d697cab076f4","system_id":"levelo_inurba_marseille","lat":43.319935,"lon":5.381699,"is_reserved":false,"is_disabled":false,"rental_uris":{"android":"levelo://app?vid=02171d2d-5cb4-4bfc-acd4-d697cab076f4","ios":"levelo://app?vid=02171d2d-5cb4-4bfc-acd4-d697cab076f4"},"vehicle_type_id":"4","last_reported":1715651189,"current_range_meters":8800,"station_id":"ce4bhr12rcd13ifvqhpg","pricing_plan_id":"cebpf4jnsgd1na2vs0mg"},{"bike_id":"8cab8ff0-48a7-4c38-a233-c0449eccbbd0","system_id":"levelo_inurba_marseille","lat":43.319935,"lon":5.381699,"is_reserved":false,"is_disabled":false,"rental_uris":{"android":"levelo://app?vid=8cab8ff0-48a7-4c38-a233-c0449eccbbd0","ios":"levelo://app?vid=8cab8ff0-48a7-4c38-a233-c0449eccbbd0"},"vehicle_type_id":"4","last_reported":1715651189,"current_range_meters":5600,"station_id":"ce4bhr12rcd13ifvqhpg","pricing_plan_id":"cebpf4jnsgd1na2vs0mg"},{"bike_id":"6bf1cab5-3345-4d94-9ba2-fc5760206424","system_id":"levelo_inurba_marseille","lat":43.319935,"lon":5.381699,"is_reserved":false,"is_disabled":false,"rental_uris":{"android":"levelo://app?vid=6bf1cab5-3345-4d94-9ba2-fc5760206424","ios":"levelo://app?vid=6bf1cab5-3345-4d94-9ba2-fc5760206424"},"vehicle_type_id":"4","last_reported":1715651189,"current_range_meters":20000,"station_id":"ce4bhr12rcd13ifvqhpg","pricing_plan_id":"cebpf4jnsgd1na2vs0mg"},{"bike_id":"1a805aa1-2eb9-4a9a-958b-4272cff5029c","system_id":"levelo_inurba_marseille","lat":43.319964,"lon":5.381536,"is_reserved":false,"is_disabled":false,"rental_uris":{"android":"levelo://app?vid=1a805aa1-2eb9-4a9a-958b-4272cff5029c","ios":"levelo://app?vid=1a805aa1-2eb9-4a9a-958b-4272cff5029c"},"vehicle_type_id":"4","last_reported":1715651189,"current_range_meters":16800,"station_id":"ce4bhr12rcd13ifvqhpg","pricing_plan_id":"cebpf4jnsgd1na2vs0mg"},{"bike_id":"a8b07aa1-ffaa-467d-bd9e-8d6b49083ea3","system_id":"levelo_inurba_marseille","lat":43.31999,"lon":5.38153,"is_reserved":false,"is_disabled":false,"rental_uris":{"android":"levelo://app?vid=a8b07aa1-ffaa-467d-bd9e-8d6b49083ea3","ios":"levelo://app?vid=a8b07aa1-ffaa-467d-bd9e-8d6b49083ea3"},"vehicle_type_id":"4","last_reported":1715651189,"current_range_meters":0,"station_id":"ce4bhr12rcd13ifvqhpg","pricing_plan_id":"cebpf4jnsgd1na2vs0mg"},{"bike_id":"9a4525db-1dee-40f3-b573-7b4cfa93e5d1","system_id":"levelo_inurba_marseille","lat":43.31999,"lon":5.38154,"is_reserved":false,"is_disabled":false,"rental_uris":{"android":"levelo://app?vid=9a4525db-1dee-40f3-b573-7b4cfa93e5d1","ios":"levelo://app?vid=9a4525db-1dee-40f3-b573-7b4cfa93e5d1"},"vehicle_type_id":"4","last_reported":1715651189,"current_range_meters":10400,"station_id":"ce4bhr12rcd13ifvqhpg","pricing_plan_id":"cebpf4jnsgd1na2vs0mg"},{"bike_id":"ded0e47e-b739-4258-873c-982b9726ad19","system_id":"levelo_inurba_marseille","lat":43.320006,"lon":5.381527,"is_reserved":false,"is_disabled":false,"rental_uris":{"android":"levelo://app?vid=ded0e47e-b739-4258-873c-982b9726ad19","ios":"levelo://app?vid=ded0e47e-b739-4258-873c-982b9726ad19"},"vehicle_type_id":"4","last_reported":1715651189,"current_range_meters":800,"station_id":"ce4bhr12rcd13ifvqhpg","pricing_plan_id":"cebpf4jnsgd1na2vs0mg"},{"bike_id":"e81093e9-9585-4be2-a820-b3c0e2c41dd5","system_id":"levelo_inurba_marseille","lat":43.313571,"lon":5.384829,"is_reserved":false,"is_disabled":false,"rental_uris":{"android":"levelo://app?vid=e81093e9-9585-4be2-a820-b3c0e2c41dd5","ios":"levelo://app?vid=e81093e9-9585-4be2-a820-b3c0e2c41dd5"},"vehicle_type_id":"4","last_reported":1715651189,"current_range_meters":18000,"station_id":"ce4bgt92rcd13ifvqcf0","pricing_plan_id":"cebpf4jnsgd1na2vs0mg"},{"bike_id":"5f6baf9f-3a35-4c20-96c7-cedcfcc59a03","system_id":"levelo_inurba_marseille","lat":43.313571,"lon":5.384829,"is_reserved":false,"is_disabled":false,"rental_uris":{"android":"levelo://app?vid=5f6baf9f-3a35-4c20-96c7-cedcfcc59a03","ios":"levelo://app?vid=5f6baf9f-3a35-4c20-96c7-cedcfcc59a03"},"vehicle_type_id":"4","last_reported":1715651189,"current_range_meters":22800,"station_id":"ce4bgt92rcd13ifvqcf0","pricing_plan_id":"cebpf4jnsgd1na2vs0mg"},{"bike_id":"17c38c8a-5d25-4482-913b-ff601794d6fd","system_id":"levelo_inurba_marseille","lat":43.313571,"lon":5.384829,"is_reserved":false,"is_disabled":false,"rental_uris":{"android":"levelo://app?vid=17c38c8a-5d25-4482-913b-ff601794d6fd","ios":"levelo://app?vid=17c38c8a-5d25-4482-913b-ff601794d6fd"},"vehicle_type_id":"4","last_reported":1715651189,"current_range_meters":30000,"station_id":"ce4bgt92rcd13ifvqcf0","pricing_plan_id":"cebpf4jnsgd1na2vs0mg"},{"bike_id":"64d76ec1-c4fb-41cb-a9f1-d793e8ca9adf","system_id":"levelo_inurba_marseille","lat":43.313571,"lon":5.384829,"is_reserved":false,"is_disabled":false,"rental_uris":{"android":"levelo://app?vid=64d76ec1-c4fb-41cb-a9f1-d793e8ca9adf","ios":"levelo://app?vid=64d76ec1-c4fb-41cb-a9f1-d793e8ca9adf"},"vehicle_type_id":"4","last_reported":1715651189,"current_range_meters":27200,"station_id":"ce4bgt92rcd13ifvqcf0","pricing_plan_id":"cebpf4jnsgd1na2vs0mg"},{"bike_id":"7f68fd9a-3e06-477d-826a-2ace983fa513","system_id":"levelo_inurba_marseille","lat":43.31369,"lon":5.38497,"is_reserved":false,"is_disabled":false,"rental_uris":{"android":"levelo://app?vid=7f68fd9a-3e06-477d-826a-2ace983fa513","ios":"levelo://app?vid=7f68fd9a-3e06-477d-826a-2ace983fa513"},"vehicle_type_id":"4","last_reported":1715651189,"current_range_meters":30400,"station_id":"","pricing_plan_id":"cebpf4jnsgd1na2vs0mg"},{"bike_id":"efa82f56-57b4-4fe5-85d7-7f719f1079d0","system_id":"levelo_inurba_marseille","lat":43.313571,"lon":5.384829,"is_reserved":false,"is_disabled":false,"rental_uris":{"android":"levelo://app?vid=efa82f56-57b4-4fe5-85d7-7f719f1079d0","ios":"levelo://app?vid=efa82f56-57b4-4fe5-85d7-7f719f1079d0"},"vehicle_type_id":"4","last_reported":1715651189,"current_range_meters":27600,"station_id":"ce4bgt92rcd13ifvqcf0","pricing_plan_id":"cebpf4jnsgd1na2vs0mg"},{"bike_id":"c6b9109d-090f-4086-bfcf-6a121f5fe21e","system_id":"levelo_inurba_marseille","lat":43.313571,"lon":5.384829,"is_reserved":false,"is_disabled":false,"rental_uris":{"android":"levelo://app?vid=c6b9109d-090f-4086-bfcf-6a121f5fe21e","ios":"levelo://app?vid=c6b9109d-090f-4086-bfcf-6a121f5fe21e"},"vehicle_type_id":"4","last_reported":1715651189,"current_range_meters":8000,"station_id":"ce4bgt92rcd13ifvqcf0","pricing_plan_id":"cebpf4jnsgd1na2vs0mg"},{"bike_id":"8f823015-61af-4d0d-8cb5-54fd47d029ba","system_id":"levelo_inurba_marseille","lat":43.299839,"lon":5.371714,"is_reserved":false,"is_disabled":false,"rental_uris":{"android":"levelo://app?vid=8f823015-61af-4d0d-8cb5-54fd47d029ba","ios":"levelo://app?vid=8f823015-61af-4d0d-8cb5-54fd47d029ba"},"vehicle_type_id":"4","last_reported":1715651189,"current_range_meters":30400,"station_id":"ce4bgr92rcd13ifvqc7g","pricing_plan_id":"cebpf4jnsgd1na2vs0mg"},{"bike_id":"1931a396-d8d0-44c0-aeaf-8db7b1020f2d","system_id":"levelo_inurba_marseille","lat":43.299222,"lon":5.365554,"is_reserved":false,"is_disabled":false,"rental_uris":{"android":"levelo://app?vid=1931a396-d8d0-44c0-aeaf-8db7b1020f2d","ios":"levelo://app?vid=1931a396-d8d0-44c0-aeaf-8db7b1020f2d"},"vehicle_type_id":"4","last_reported":1715651189,"current_range_meters":31200,"station_id":"ce4bgm92rcd13ifvqbr0","pricing_plan_id":"cebpf4jnsgd1na2vs0mg"},{"bike_id":"49fd595f-2237-492c-bbf3-3f3137a35a80","system_id":"levelo_inurba_marseille","lat":43.299222,"lon":5.365554,"is_reserved":false,"is_disabled":false,"rental_uris":{"android":"levelo://app?vid=49fd595f-2237-492c-bbf3-3f3137a35a80","ios":"levelo://app?vid=49fd595f-2237-492c-bbf3-3f3137a35a80"},"vehicle_type_id":"4","last_reported":1715651189,"current_range_meters":28800,"station_id":"ce4bgm92rcd13ifvqbr0","pricing_plan_id":"cebpf4jnsgd1na2vs0mg"},{"bike_id":"bec97a0d-ccb0-497c-948a-c41e8f41b158","system_id":"levelo_inurba_marseille","lat":43.299724,"lon":5.371829,"is_reserved":false,"is_disabled":false,"rental_uris":{"android":"levelo://app?vid=bec97a0d-ccb0-497c-948a-c41e8f41b158","ios":"levelo://app?vid=bec97a0d-ccb0-497c-948a-c41e8f41b158"},"vehicle_type_id":"4","last_reported":1715651189,"current_range_meters":28000,"station_id":"ce4bgr92rcd13ifvqc7g","pricing_plan_id":"cebpf4jnsgd1na2vs0mg"},{"bike_id":"f4c90a53-ee8f-4ff2-b4e0-bd61bafb4a60","system_id":"levelo_inurba_marseille","lat":43.299222,"lon":5.365554,"is_reserved":false,"is_disabled":false,"rental_uris":{"android":"levelo://app?vid=f4c90a53-ee8f-4ff2-b4e0-bd61bafb4a60","ios":"levelo://app?vid=f4c90a53-ee8f-4ff2-b4e0-bd61bafb4a60"},"vehicle_type_id":"4","last_reported":1715651189,"current_range_meters":20000,"station_id":"ce4bgm92rcd13ifvqbr0","pricing_plan_id":"cebpf4jnsgd1na2vs0mg"},{"bike_id":"fbb72a6b-1268-4a4b-9820-100df3eb2c64","system_id":"levelo_inurba_marseille","lat":43.2997,"lon":5.3718,"is_reserved":false,"is_disabled":false,"rental_uris":{"android":"levelo://app?vid=fbb72a6b-1268-4a4b-9820-100df3eb2c64","ios":"levelo://app?vid=fbb72a6b-1268-4a4b-9820-100df3eb2c64"},"vehicle_type_id":"4","last_reported":1715651189,"current_range_meters":18400,"station_id":"ce4bgr92rcd13ifvqc7g","pricing_plan_id":"cebpf4jnsgd1na2vs0mg"},{"bike_id":"dac445b5-8e59-49be-893e-e02e564260dc","system_id":"levelo_inurba_marseille","lat":43.29967,"lon":5.37178,"is_reserved":false,"is_disabled":false,"rental_uris":{"android":"levelo://app?vid=dac445b5-8e59-49be-893e-e02e564260dc","ios":"levelo://app?vid=dac445b5-8e59-49be-893e-e02e564260dc"},"vehicle_type_id":"4","last_reported":1715651189,"current_range_meters":28400,"station_id":"ce4bgr92rcd13ifvqc7g","pricing_plan_id":"cebpf4jnsgd1na2vs0mg"},{"bike_id":"fa1d6d59-51b6-4e81-abe8-5dbefd570be2","system_id":"levelo_inurba_marseille","lat":43.305364,"lon":5.384119,"is_reserved":false,"is_disabled":false,"rental_uris":{"android":"levelo://app?vid=fa1d6d59-51b6-4e81-abe8-5dbefd570be2","ios":"levelo://app?vid=fa1d6d59-51b6-4e81-abe8-5dbefd570be2"},"vehicle_type_id":"4","last_reported":1715651189,"current_range_meters":28000,"station_id":"ce4bgg92rcd13ifvqb30","pricing_plan_id":"cebpf4jnsgd1na2vs0mg"},{"bike_id":"223e6b04-f9e4-4d66-8513-1a185125cf23","system_id":"levelo_inurba_marseille","lat":43.29922,"lon":5.37476,"is_reserved":false,"is_disabled":false,"rental_uris":{"android":"levelo://app?vid=223e6b04-f9e4-4d66-8513-1a185125cf23","ios":"levelo://app?vid=223e6b04-f9e4-4d66-8513-1a185125cf23"},"vehicle_type_id":"4","last_reported":1715651189,"current_range_meters":12800,"station_id":"ce4bgjh2rcd13ifvqbg0","pricing_plan_id":"cebpf4jnsgd1na2vs0mg"},{"bike_id":"72b30081-1d5e-42f2-9da0-83135a42d702","system_id":"levelo_inurba_marseille","lat":43.29922,"lon":5.37477,"is_reserved":false,"is_disabled":false,"rental_uris":{"android":"levelo://app?vid=72b30081-1d5e-42f2-9da0-83135a42d702","ios":"levelo://app?vid=72b30081-1d5e-42f2-9da0-83135a42d702"},"vehicle_type_id":"4","last_reported":1715651189,"current_range_meters":26800,"station_id":"ce4bgjh2rcd13ifvqbg0","pricing_plan_id":"cebpf4jnsgd1na2vs0mg"},{"bike_id":"39a729b4-e2c6-498a-870c-23b89f754e14","system_id":"levelo_inurba_marseille","lat":43.29916,"lon":5.37464,"is_reserved":false,"is_disabled":false,"rental_uris":{"android":"levelo://app?vid=39a729b4-e2c6-498a-870c-23b89f754e14","ios":"levelo://app?vid=39a729b4-e2c6-498a-870c-23b89f754e14"},"vehicle_type_id":"4","last_reported":1715651189,"current_range_meters":26800,"station_id":"ce4bgjh2rcd13ifvqbg0","pricing_plan_id":"cebpf4jnsgd1na2vs0mg"},{"bike_id":"e42f4a76-9b19-41e5-9cb5-3f7708696fb1","system_id":"levelo_inurba_marseille","lat":43.311722,"lon":5.387247,"is_reserved":false,"is_disabled":false,"rental_uris":{"android":"levelo://app?vid=e42f4a76-9b19-41e5-9cb5-3f7708696fb1","ios":"levelo://app?vid=e42f4a76-9b19-41e5-9cb5-3f7708696fb1"},"vehicle_type_id":"4","last_reported":1715651189,"current_range_meters":26800,"station_id":"ce4bgv12rcd13ifvqcp0","pricing_plan_id":"cebpf4jnsgd1na2vs0mg"},{"bike_id":"790cbab2-69f5-4784-864b-bbfc851212e9","system_id":"levelo_inurba_marseille","lat":43.311722,"lon":5.387247,"is_reserved":false,"is_disabled":false,"rental_uris":{"android":"levelo://app?vid=790cbab2-69f5-4784-864b-bbfc851212e9","ios":"levelo://app?vid=790cbab2-69f5-4784-864b-bbfc851212e9"},"vehicle_type_id":"4","last_reported":1715651189,"current_range_meters":31200,"station_id":"ce4bgv12rcd13ifvqcp0","pricing_plan_id":"cebpf4jnsgd1na2vs0mg"},{"bike_id":"716fe6e0-d3ed-4070-8768-aef70abccf37","system_id":"levelo_inurba_marseille","lat":43.311722,"lon":5.387247,"is_reserved":false,"is_disabled":false,"rental_uris":{"android":"levelo://app?vid=716fe6e0-d3ed-4070-8768-aef70abccf37","ios":"levelo://app?vid=716fe6e0-d3ed-4070-8768-aef70abccf37"},"vehicle_type_id":"4","last_reported":1715651189,"current_range_meters":30000,"station_id":"ce4bgv12rcd13ifvqcp0","pricing_plan_id":"cebpf4jnsgd1na2vs0mg"},{"bike_id":"44e0d27d-f49a-47d9-9abd-ad0c84868c2e","system_id":"levelo_inurba_marseille","lat":43.299243,"lon":5.374807,"is_reserved":false,"is_disabled":false,"rental_uris":{"android":"levelo://app?vid=44e0d27d-f49a-47d9-9abd-ad0c84868c2e","ios":"levelo://app?vid=44e0d27d-f49a-47d9-9abd-ad0c84868c2e"},"vehicle_type_id":"4","last_reported":1715651189,"current_range_meters":17600,"station_id":"ce4bgjh2rcd13ifvqbg0","pricing_plan_id":"cebpf4jnsgd1na2vs0mg"},{"bike_id":"019a02d9-eb31-4c07-8780-cc2e88184216","system_id":"levelo_inurba_marseille","lat":43.311722,"lon":5.387247,"is_reserved":false,"is_disabled":false,"rental_uris":{"android":"levelo://app?vid=019a02d9-eb31-4c07-8780-cc2e88184216","ios":"levelo://app?vid=019a02d9-eb31-4c07-8780-cc2e88184216"},"vehicle_type_id":"4","last_reported":1715651189,"current_range_meters":28800,"station_id":"ce4bgv12rcd13ifvqcp0","pricing_plan_id":"cebpf4jnsgd1na2vs0mg"},{"bike_id":"5a7022f2-60ef-4f11-b75a-61ea47b7b75c","system_id":"levelo_inurba_marseille","lat":43.311722,"lon":5.387247,"is_reserved":false,"is_disabled":false,"rental_uris":{"android":"levelo://app?vid=5a7022f2-60ef-4f11-b75a-61ea47b7b75c","ios":"levelo://app?vid=5a7022f2-60ef-4f11-b75a-61ea47b7b75c"},"vehicle_type_id":"4","last_reported":1715651189,"current_range_meters":24000,"station_id":"ce4bgv12rcd13ifvqcp0","pricing_plan_id":"cebpf4jnsgd1na2vs0mg"},{"bike_id":"c3d300a7-3858-49cb-9880-7427f10a51be","system_id":"levelo_inurba_marseille","lat":43.299058,"lon":5.374661,"is_reserved":false,"is_disabled":false,"rental_uris":{"android":"levelo://app?vid=c3d300a7-3858-49cb-9880-7427f10a51be","ios":"levelo://app?vid=c3d300a7-3858-49cb-9880-7427f10a51be"},"vehicle_type_id":"4","last_reported":1715651189,"current_range_meters":10800,"station_id":"ce4bgjh2rcd13ifvqbg0","pricing_plan_id":"cebpf4jnsgd1na2vs0mg"},{"bike_id":"82864689-5b1f-49a0-8606-df8e2ffd1464","system_id":"levelo_inurba_marseille","lat":43.311722,"lon":5.387247,"is_reserved":false,"is_disabled":false,"rental_uris":{"android":"levelo://app?vid=82864689-5b1f-49a0-8606-df8e2ffd1464","ios":"levelo://app?vid=82864689-5b1f-49a0-8606-df8e2ffd1464"},"vehicle_type_id":"4","last_reported":1715651189,"current_range_meters":30400,"station_id":"ce4bgv12rcd13ifvqcp0","pricing_plan_id":"cebpf4jnsgd1na2vs0mg"},{"bike_id":"bc843348-c9c5-472d-85c9-57d02e67b79f","system_id":"levelo_inurba_marseille","lat":43.299243,"lon":5.37481,"is_reserved":false,"is_disabled":false,"rental_uris":{"android":"levelo://app?vid=bc843348-c9c5-472d-85c9-57d02e67b79f","ios":"levelo://app?vid=bc843348-c9c5-472d-85c9-57d02e67b79f"},"vehicle_type_id":"4","last_reported":1715651189,"current_range_meters":31200,"station_id":"ce4bgjh2rcd13ifvqbg0","pricing_plan_id":"cebpf4jnsgd1na2vs0mg"},{"bike_id":"62f9225a-6bc6-4302-b1e0-d6bb3a3285bb","system_id":"levelo_inurba_marseille","lat":43.297794,"lon":5.370888,"is_reserved":false,"is_disabled":false,"rental_uris":{"android":"levelo://app?vid=62f9225a-6bc6-4302-b1e0-d6bb3a3285bb","ios":"levelo://app?vid=62f9225a-6bc6-4302-b1e0-d6bb3a3285bb"},"vehicle_type_id":"4","last_reported":1715651189,"current_range_meters":3200,"station_id":"ce4bgop2rcd13ifvqc1g","pricing_plan_id":"cebpf4jnsgd1na2vs0mg"},{"bike_id":"16c2c2ac-330c-477f-ba2d-edd1c5edf1c2","system_id":"levelo_inurba_marseille","lat":43.297794,"lon":5.370888,"is_reserved":false,"is_disabled":false,"rental_uris":{"android":"levelo://app?vid=16c2c2ac-330c-477f-ba2d-edd1c5edf1c2","ios":"levelo://app?vid=16c2c2ac-330c-477f-ba2d-edd1c5edf1c2"},"vehicle_type_id":"4","last_reported":1715651189,"current_range_meters":5200,"station_id":"ce4bgop2rcd13ifvqc1g","pricing_plan_id":"cebpf4jnsgd1na2vs0mg"},{"bike_id":"2e618d87-0f14-49ef-a746-7caddec4f689","system_id":"levelo_inurba_marseille","lat":43.297794,"lon":5.370888,"is_reserved":false,"is_disabled":false,"rental_uris":{"android":"levelo://app?vid=2e618d87-0f14-49ef-a746-7caddec4f689","ios":"levelo://app?vid=2e618d87-0f14-49ef-a746-7caddec4f689"},"vehicle_type_id":"4","last_reported":1715651189,"current_range_meters":31200,"station_id":"ce4bgop2rcd13ifvqc1g","pricing_plan_id":"cebpf4jnsgd1na2vs0mg"},{"bike_id":"7070e582-e1a7-4d4d-a48b-77174caa0ccb","system_id":"levelo_inurba_marseille","lat":43.32787,"lon":5.36578,"is_reserved":false,"is_disabled":false,"rental_uris":{"android":"levelo://app?vid=7070e582-e1a7-4d4d-a48b-77174caa0ccb","ios":"levelo://app?vid=7070e582-e1a7-4d4d-a48b-77174caa0ccb"},"vehicle_type_id":"4","last_reported":1715651189,"current_range_meters":0,"station_id":"","pricing_plan_id":"cebpf4jnsgd1na2vs0mg"},{"bike_id":"0b689729-a404-434c-a143-e2c9171a5b6c","system_id":"levelo_inurba_marseille","lat":43.297774,"lon":5.370875,"is_reserved":false,"is_disabled":false,"rental_uris":{"android":"levelo://app?vid=0b689729-a404-434c-a143-e2c9171a5b6c","ios":"levelo://app?vid=0b689729-a404-434c-a143-e2c9171a5b6c"},"vehicle_type_id":"4","last_reported":1715651189,"current_range_meters":22800,"station_id":"ce4bgop2rcd13ifvqc1g","pricing_plan_id":"cebpf4jnsgd1na2vs0mg"},{"bike_id":"1d89af4f-4387-48ff-9448-c2b0e059a88d","system_id":"levelo_inurba_marseille","lat":43.322872,"lon":5.382756,"is_reserved":false,"is_disabled":false,"rental_uris":{"android":"levelo://app?vid=1d89af4f-4387-48ff-9448-c2b0e059a88d","ios":"levelo://app?vid=1d89af4f-4387-48ff-9448-c2b0e059a88d"},"vehicle_type_id":"4","last_reported":1715651189,"current_range_meters":26800,"station_id":"ce4bhr12rcd13ifvqhqg","pricing_plan_id":"cebpf4jnsgd1na2vs0mg"},{"bike_id":"98968cf8-7e90-46dc-97a7-702f3557cbec","system_id":"levelo_inurba_marseille","lat":43.322872,"lon":5.382756,"is_reserved":false,"is_disabled":false,"rental_uris":{"android":"levelo://app?vid=98968cf8-7e90-46dc-97a7-702f3557cbec","ios":"levelo://app?vid=98968cf8-7e90-46dc-97a7-702f3557cbec"},"vehicle_type_id":"4","last_reported":1715651189,"current_range_meters":21600,"station_id":"ce4bhr12rcd13ifvqhqg","pricing_plan_id":"cebpf4jnsgd1na2vs0mg"},{"bike_id":"029a8b7d-83e1-4ca5-af72-035b939bcf06","system_id":"levelo_inurba_marseille","lat":43.297163,"lon":5.365866,"is_reserved":false,"is_disabled":false,"rental_uris":{"android":"levelo://app?vid=029a8b7d-83e1-4ca5-af72-035b939bcf06","ios":"levelo://app?vid=029a8b7d-83e1-4ca5-af72-035b939bcf06"},"vehicle_type_id":"4","last_reported":1715651189,"current_range_meters":27600,"station_id":"ce4bgn12rcd13ifvqbt0","pricing_plan_id":"cebpf4jnsgd1na2vs0mg"},{"bike_id":"36a16a23-4b74-4865-abc0-a85777af8327","system_id":"levelo_inurba_marseille","lat":43.297163,"lon":5.365866,"is_reserved":false,"is_disabled":false,"rental_uris":{"android":"levelo://app?vid=36a16a23-4b74-4865-abc0-a85777af8327","ios":"levelo://app?vid=36a16a23-4b74-4865-abc0-a85777af8327"},"vehicle_type_id":"4","last_reported":1715651189,"current_range_meters":28400,"station_id":"ce4bgn12rcd13ifvqbt0","pricing_plan_id":"cebpf4jnsgd1na2vs0mg"},{"bike_id":"c9579d80-92f8-4da1-8d5d-f9d48b544a50","system_id":"levelo_inurba_marseille","lat":43.297163,"lon":5.365866,"is_reserved":false,"is_disabled":false,"rental_uris":{"android":"levelo://app?vid=c9579d80-92f8-4da1-8d5d-f9d48b544a50","ios":"levelo://app?vid=c9579d80-92f8-4da1-8d5d-f9d48b544a50"},"vehicle_type_id":"4","last_reported":1715651189,"current_range_meters":30400,"station_id":"ce4bgn12rcd13ifvqbt0","pricing_plan_id":"cebpf4jnsgd1na2vs0mg"},{"bike_id":"bd7306d3-910a-4d88-8e37-7e0947cb9c2b","system_id":"levelo_inurba_marseille","lat":43.297163,"lon":5.365866,"is_reserved":false,"is_disabled":false,"rental_uris":{"android":"levelo://app?vid=bd7306d3-910a-4d88-8e37-7e0947cb9c2b","ios":"levelo://app?vid=bd7306d3-910a-4d88-8e37-7e0947cb9c2b"},"vehicle_type_id":"4","last_reported":1715651189,"current_range_meters":27600,"station_id":"ce4bgn12rcd13ifvqbt0","pricing_plan_id":"cebpf4jnsgd1na2vs0mg"},{"bike_id":"c0d2d7f4-9eea-41bf-b222-05000a2b7876","system_id":"levelo_inurba_marseille","lat":43.2968,"lon":5.37291,"is_reserved":false,"is_disabled":false,"rental_uris":{"android":"levelo://app?vid=c0d2d7f4-9eea-41bf-b222-05000a2b7876","ios":"levelo://app?vid=c0d2d7f4-9eea-41bf-b222-05000a2b7876"},"vehicle_type_id":"4","last_reported":1715651189,"current_range_meters":29200,"station_id":"ce4bgk12rcd13ifvqbj0","pricing_plan_id":"cebpf4jnsgd1na2vs0mg"},{"bike_id":"7118cd7c-d4bd-451e-b142-47bf173d6f74","system_id":"levelo_inurba_marseille","lat":43.2968,"lon":5.37291,"is_reserved":false,"is_disabled":false,"rental_uris":{"android":"levelo://app?vid=7118cd7c-d4bd-451e-b142-47bf173d6f74","ios":"levelo://app?vid=7118cd7c-d4bd-451e-b142-47bf173d6f74"},"vehicle_type_id":"4","last_reported":1715651189,"current_range_meters":27600,"station_id":"ce4bgk12rcd13ifvqbj0","pricing_plan_id":"cebpf4jnsgd1na2vs0mg"},{"bike_id":"a0bccab4-3210-46a3-8df9-290740ec073c","system_id":"levelo_inurba_marseille","lat":43.29573,"lon":5.367355,"is_reserved":false,"is_disabled":false,"rental_uris":{"android":"levelo://app?vid=a0bccab4-3210-46a3-8df9-290740ec073c","ios":"levelo://app?vid=a0bccab4-3210-46a3-8df9-290740ec073c"},"vehicle_type_id":"4","last_reported":1715651189,"current_range_meters":31200,"station_id":"ce4bgph2rcd13ifvqc2g","pricing_plan_id":"cebpf4jnsgd1na2vs0mg"},{"bike_id":"dd8e16de-45ee-4666-9b7e-daa4f9b0aeac","system_id":"levelo_inurba_marseille","lat":43.296131,"lon":5.370791,"is_reserved":false,"is_disabled":false,"rental_uris":{"android":"levelo://app?vid=dd8e16de-45ee-4666-9b7e-daa4f9b0aeac","ios":"levelo://app?vid=dd8e16de-45ee-4666-9b7e-daa4f9b0aeac"},"vehicle_type_id":"4","last_reported":1715651189,"current_range_meters":7200,"station_id":"ce4bgnh2rcd13ifvqc0g","pricing_plan_id":"cebpf4jnsgd1na2vs0mg"},{"bike_id":"2b4cde98-1380-4d5e-88bf-80ff0c5b53fd","system_id":"levelo_inurba_marseille","lat":43.29586,"lon":5.36742,"is_reserved":false,"is_disabled":false,"rental_uris":{"android":"levelo://app?vid=2b4cde98-1380-4d5e-88bf-80ff0c5b53fd","ios":"levelo://app?vid=2b4cde98-1380-4d5e-88bf-80ff0c5b53fd"},"vehicle_type_id":"4","last_reported":1715651189,"current_range_meters":31200,"station_id":"ce4bgph2rcd13ifvqc2g","pricing_plan_id":"cebpf4jnsgd1na2vs0mg"},{"bike_id":"30d8c24b-e62e-44f5-9547-1c08d8e7f8ad","system_id":"levelo_inurba_marseille","lat":43.29573,"lon":5.367355,"is_reserved":false,"is_disabled":false,"rental_uris":{"android":"levelo://app?vid=30d8c24b-e62e-44f5-9547-1c08d8e7f8ad","ios":"levelo://app?vid=30d8c24b-e62e-44f5-9547-1c08d8e7f8ad"},"vehicle_type_id":"4","last_reported":1715651189,"current_range_meters":26000,"station_id":"ce4bgph2rcd13ifvqc2g","pricing_plan_id":"cebpf4jnsgd1na2vs0mg"},{"bike_id":"1e9b4875-e907-4b9c-9b9e-763d85c55b1f","system_id":"levelo_inurba_marseille","lat":43.29573,"lon":5.367355,"is_reserved":false,"is_disabled":false,"rental_uris":{"android":"levelo://app?vid=1e9b4875-e907-4b9c-9b9e-763d85c55b1f","ios":"levelo://app?vid=1e9b4875-e907-4b9c-9b9e-763d85c55b1f"},"vehicle_type_id":"4","last_reported":1715651189,"current_range_meters":30000,"station_id":"ce4bgph2rcd13ifvqc2g","pricing_plan_id":"cebpf4jnsgd1na2vs0mg"},{"bike_id":"3e421cf9-f4d8-4178-9bd1-88f0d3fc71af","system_id":"levelo_inurba_marseille","lat":43.30958,"lon":5.39028,"is_reserved":false,"is_disabled":false,"rental_uris":{"android":"levelo://app?vid=3e421cf9-f4d8-4178-9bd1-88f0d3fc71af","ios":"levelo://app?vid=3e421cf9-f4d8-4178-9bd1-88f0d3fc71af"},"vehicle_type_id":"4","last_reported":1715651189,"current_range_meters":31200,"station_id":"ce4bgup2rcd13ifvqco0","pricing_plan_id":"cebpf4jnsgd1na2vs0mg"},{"bike_id":"b9304183-f745-492a-b76f-c9ae5201a2fa","system_id":"levelo_inurba_marseille","lat":43.30947,"lon":5.39026,"is_reserved":false,"is_disabled":false,"rental_uris":{"android":"levelo://app?vid=b9304183-f745-492a-b76f-c9ae5201a2fa","ios":"levelo://app?vid=b9304183-f745-492a-b76f-c9ae5201a2fa"},"vehicle_type_id":"4","last_reported":1715651189,"current_range_meters":19200,"station_id":"ce4bgup2rcd13ifvqco0","pricing_plan_id":"cebpf4jnsgd1na2vs0mg"},{"bike_id":"5d9f2b2d-6608-4740-8ee3-3b43e3a39dd8","system_id":"levelo_inurba_marseille","lat":43.309511,"lon":5.390278,"is_reserved":false,"is_disabled":false,"rental_uris":{"android":"levelo://app?vid=5d9f2b2d-6608-4740-8ee3-3b43e3a39dd8","ios":"levelo://app?vid=5d9f2b2d-6608-4740-8ee3-3b43e3a39dd8"},"vehicle_type_id":"4","last_reported":1715651189,"current_range_meters":3200,"station_id":"ce4bgup2rcd13ifvqco0","pricing_plan_id":"cebpf4jnsgd1na2vs0mg"},{"bike_id":"ca94e730-fffd-409a-a6ad-7fddac604e42","system_id":"levelo_inurba_marseille","lat":43.309456,"lon":5.390291,"is_reserved":false,"is_disabled":false,"rental_uris":{"android":"levelo://app?vid=ca94e730-fffd-409a-a6ad-7fddac604e42","ios":"levelo://app?vid=ca94e730-fffd-409a-a6ad-7fddac604e42"},"vehicle_type_id":"4","last_reported":1715651189,"current_range_meters":24400,"station_id":"ce4bgup2rcd13ifvqco0","pricing_plan_id":"cebpf4jnsgd1na2vs0mg"},{"bike_id":"0d998b69-33ab-4d53-8d78-e3fe3995db20","system_id":"levelo_inurba_marseille","lat":43.299028,"lon":5.381509,"is_reserved":false,"is_disabled":false,"rental_uris":{"android":"levelo://app?vid=0d998b69-33ab-4d53-8d78-e3fe3995db20","ios":"levelo://app?vid=0d998b69-33ab-4d53-8d78-e3fe3995db20"},"vehicle_type_id":"4","last_reported":1715651189,"current_range_meters":28800,"station_id":"ce4bgj12rcd13ifvqbc0","pricing_plan_id":"cebpf4jnsgd1na2vs0mg"},{"bike_id":"532ad0e4-e364-4121-b294-8a9652d306ce","system_id":"levelo_inurba_marseille","lat":43.309577,"lon":5.390368,"is_reserved":false,"is_disabled":false,"rental_uris":{"android":"levelo://app?vid=532ad0e4-e364-4121-b294-8a9652d306ce","ios":"levelo://app?vid=532ad0e4-e364-4121-b294-8a9652d306ce"},"vehicle_type_id":"4","last_reported":1715651189,"current_range_meters":15600,"station_id":"ce4bgup2rcd13ifvqco0","pricing_plan_id":"cebpf4jnsgd1na2vs0mg"},{"bike_id":"7511c21e-955f-46f9-9b18-72f5c3cabe86","system_id":"levelo_inurba_marseille","lat":43.309498,"lon":5.390351,"is_reserved":false,"is_disabled":false,"rental_uris":{"android":"levelo://app?vid=7511c21e-955f-46f9-9b18-72f5c3cabe86","ios":"levelo://app?vid=7511c21e-955f-46f9-9b18-72f5c3cabe86"},"vehicle_type_id":"4","last_reported":1715651189,"current_range_meters":29600,"station_id":"ce4bgup2rcd13ifvqco0","pricing_plan_id":"cebpf4jnsgd1na2vs0mg"},{"bike_id":"a2b70698-ae32-40a8-9226-1c757cf89888","system_id":"levelo_inurba_marseille","lat":43.30957,"lon":5.39038,"is_reserved":false,"is_disabled":false,"rental_uris":{"android":"levelo://app?vid=a2b70698-ae32-40a8-9226-1c757cf89888","ios":"levelo://app?vid=a2b70698-ae32-40a8-9226-1c757cf89888"},"vehicle_type_id":"4","last_reported":1715651189,"current_range_meters":11600,"station_id":"ce4bgup2rcd13ifvqco0","pricing_plan_id":"cebpf4jnsgd1na2vs0mg"},{"bike_id":"b53b89d1-278d-4180-bebc-7d578c955ac9","system_id":"levelo_inurba_marseille","lat":43.309589,"lon":5.390258,"is_reserved":false,"is_disabled":false,"rental_uris":{"android":"levelo://app?vid=b53b89d1-278d-4180-bebc-7d578c955ac9","ios":"levelo://app?vid=b53b89d1-278d-4180-bebc-7d578c955ac9"},"vehicle_type_id":"4","last_reported":1715651189,"current_range_meters":400,"station_id":"ce4bgup2rcd13ifvqco0","pricing_plan_id":"cebpf4jnsgd1na2vs0mg"},{"bike_id":"3fd3544b-261a-479d-94cf-752259a6bce0","system_id":"levelo_inurba_marseille","lat":43.309589,"lon":5.390258,"is_reserved":false,"is_disabled":false,"rental_uris":{"android":"levelo://app?vid=3fd3544b-261a-479d-94cf-752259a6bce0","ios":"levelo://app?vid=3fd3544b-261a-479d-94cf-752259a6bce0"},"vehicle_type_id":"4","last_reported":1715651189,"current_range_meters":26400,"station_id":"ce4bgup2rcd13ifvqco0","pricing_plan_id":"cebpf4jnsgd1na2vs0mg"},{"bike_id":"cc9245cc-a199-48b7-a480-1c3a5f61febd","system_id":"levelo_inurba_marseille","lat":43.30956,"lon":5.39051,"is_reserved":false,"is_disabled":false,"rental_uris":{"android":"levelo://app?vid=cc9245cc-a199-48b7-a480-1c3a5f61febd","ios":"levelo://app?vid=cc9245cc-a199-48b7-a480-1c3a5f61febd"},"vehicle_type_id":"4","last_reported":1715651189,"current_range_meters":6000,"station_id":"ce4bgup2rcd13ifvqco0","pricing_plan_id":"cebpf4jnsgd1na2vs0mg"},{"bike_id":"765035db-7f50-4017-b53e-c95a1d655618","system_id":"levelo_inurba_marseille","lat":43.299028,"lon":5.381509,"is_reserved":false,"is_disabled":false,"rental_uris":{"android":"levelo://app?vid=765035db-7f50-4017-b53e-c95a1d655618","ios":"levelo://app?vid=765035db-7f50-4017-b53e-c95a1d655618"},"vehicle_type_id":"4","last_reported":1715651189,"current_range_meters":29200,"station_id":"ce4bgj12rcd13ifvqbc0","pricing_plan_id":"cebpf4jnsgd1na2vs0mg"},{"bike_id":"cf31d7b3-8546-46b6-9bda-2dea9cc36464","system_id":"levelo_inurba_marseille","lat":43.317557,"lon":5.390173,"is_reserved":false,"is_disabled":false,"rental_uris":{"android":"levelo://app?vid=cf31d7b3-8546-46b6-9bda-2dea9cc36464","ios":"levelo://app?vid=cf31d7b3-8546-46b6-9bda-2dea9cc36464"},"vehicle_type_id":"4","last_reported":1715651189,"current_range_meters":31200,"station_id":"ce4bhqp2rcd13ifvqhng","pricing_plan_id":"cebpf4jnsgd1na2vs0mg"},{"bike_id":"605c9a8a-859c-4e8e-a45b-ca60c0a19371","system_id":"levelo_inurba_marseille","lat":43.317557,"lon":5.390173,"is_reserved":false,"is_disabled":false,"rental_uris":{"android":"levelo://app?vid=605c9a8a-859c-4e8e-a45b-ca60c0a19371","ios":"levelo://app?vid=605c9a8a-859c-4e8e-a45b-ca60c0a19371"},"vehicle_type_id":"4","last_reported":1715651189,"current_range_meters":26400,"station_id":"ce4bhqp2rcd13ifvqhng","pricing_plan_id":"cebpf4jnsgd1na2vs0mg"},{"bike_id":"1476b5e5-dc5b-403c-a220-0733fa25d1ff","system_id":"levelo_inurba_marseille","lat":43.30442,"lon":5.38888,"is_reserved":false,"is_disabled":false,"rental_uris":{"android":"levelo://app?vid=1476b5e5-dc5b-403c-a220-0733fa25d1ff","ios":"levelo://app?vid=1476b5e5-dc5b-403c-a220-0733fa25d1ff"},"vehicle_type_id":"4","last_reported":1715651189,"current_range_meters":24400,"station_id":"ce4bgk12rcd13ifvqbi0","pricing_plan_id":"cebpf4jnsgd1na2vs0mg"},{"bike_id":"06f60b4b-271f-4e70-ac64-18ca7983491b","system_id":"levelo_inurba_marseille","lat":43.304373,"lon":5.388875,"is_reserved":false,"is_disabled":false,"rental_uris":{"android":"levelo://app?vid=06f60b4b-271f-4e70-ac64-18ca7983491b","ios":"levelo://app?vid=06f60b4b-271f-4e70-ac64-18ca7983491b"},"vehicle_type_id":"4","last_reported":1715651189,"current_range_meters":2800,"station_id":"ce4bgk12rcd13ifvqbi0","pricing_plan_id":"cebpf4jnsgd1na2vs0mg"},{"bike_id":"d4d1ee17-647b-4761-aec6-df66adecb055","system_id":"levelo_inurba_marseille","lat":43.304274,"lon":5.388873,"is_reserved":false,"is_disabled":false,"rental_uris":{"android":"levelo://app?vid=d4d1ee17-647b-4761-aec6-df66adecb055","ios":"levelo://app?vid=d4d1ee17-647b-4761-aec6-df66adecb055"},"vehicle_type_id":"4","last_reported":1715651189,"current_range_meters":25200,"station_id":"ce4bgk12rcd13ifvqbi0","pricing_plan_id":"cebpf4jnsgd1na2vs0mg"},{"bike_id":"23ff9ab2-9668-437e-8bb3-380275a3ec1b","system_id":"levelo_inurba_marseille","lat":43.304274,"lon":5.388873,"is_reserved":false,"is_disabled":false,"rental_uris":{"android":"levelo://app?vid=23ff9ab2-9668-437e-8bb3-380275a3ec1b","ios":"levelo://app?vid=23ff9ab2-9668-437e-8bb3-380275a3ec1b"},"vehicle_type_id":"4","last_reported":1715651189,"current_range_meters":30000,"station_id":"ce4bgk12rcd13ifvqbi0","pricing_plan_id":"cebpf4jnsgd1na2vs0mg"},{"bike_id":"6aa0d66b-b078-47f8-8f12-5e7eddef1307","system_id":"levelo_inurba_marseille","lat":43.304377,"lon":5.388922,"is_reserved":false,"is_disabled":false,"rental_uris":{"android":"levelo://app?vid=6aa0d66b-b078-47f8-8f12-5e7eddef1307","ios":"levelo://app?vid=6aa0d66b-b078-47f8-8f12-5e7eddef1307"},"vehicle_type_id":"4","last_reported":1715651189,"current_range_meters":12000,"station_id":"ce4bgk12rcd13ifvqbi0","pricing_plan_id":"cebpf4jnsgd1na2vs0mg"},{"bike_id":"f254a207-bfd4-4a1d-96d9-cadf59b8a02b","system_id":"levelo_inurba_marseille","lat":43.30441,"lon":5.38895,"is_reserved":false,"is_disabled":false,"rental_uris":{"android":"levelo://app?vid=f254a207-bfd4-4a1d-96d9-cadf59b8a02b","ios":"levelo://app?vid=f254a207-bfd4-4a1d-96d9-cadf59b8a02b"},"vehicle_type_id":"4","last_reported":1715651189,"current_range_meters":7200,"station_id":"ce4bgk12rcd13ifvqbi0","pricing_plan_id":"cebpf4jnsgd1na2vs0mg"},{"bike_id":"e05a5582-d720-4f65-8ecf-c02fbb9e98d2","system_id":"levelo_inurba_marseille","lat":43.30439,"lon":5.38895,"is_reserved":false,"is_disabled":false,"rental_uris":{"android":"levelo://app?vid=e05a5582-d720-4f65-8ecf-c02fbb9e98d2","ios":"levelo://app?vid=e05a5582-d720-4f65-8ecf-c02fbb9e98d2"},"vehicle_type_id":"4","last_reported":1715651189,"current_range_meters":15200,"station_id":"ce4bgk12rcd13ifvqbi0","pricing_plan_id":"cebpf4jnsgd1na2vs0mg"},{"bike_id":"e8f52221-6c83-4279-adf6-082e3453a27d","system_id":"levelo_inurba_marseille","lat":43.30431,"lon":5.3889,"is_reserved":false,"is_disabled":false,"rental_uris":{"android":"levelo://app?vid=e8f52221-6c83-4279-adf6-082e3453a27d","ios":"levelo://app?vid=e8f52221-6c83-4279-adf6-082e3453a27d"},"vehicle_type_id":"4","last_reported":1715651189,"current_range_meters":31200,"station_id":"ce4bgk12rcd13ifvqbi0","pricing_plan_id":"cebpf4jnsgd1na2vs0mg"},{"bike_id":"4830b58d-6c2c-4fd6-9081-4f51e2ad1b74","system_id":"levelo_inurba_marseille","lat":43.304372,"lon":5.38895,"is_reserved":false,"is_disabled":false,"rental_uris":{"android":"levelo://app?vid=4830b58d-6c2c-4fd6-9081-4f51e2ad1b74","ios":"levelo://app?vid=4830b58d-6c2c-4fd6-9081-4f51e2ad1b74"},"vehicle_type_id":"4","last_reported":1715651189,"current_range_meters":20000,"station_id":"ce4bgk12rcd13ifvqbi0","pricing_plan_id":"cebpf4jnsgd1na2vs0mg"},{"bike_id":"cf0359b6-5f11-49f4-a307-754a519c1814","system_id":"levelo_inurba_marseille","lat":43.30441,"lon":5.38898,"is_reserved":false,"is_disabled":false,"rental_uris":{"android":"levelo://app?vid=cf0359b6-5f11-49f4-a307-754a519c1814","ios":"levelo://app?vid=cf0359b6-5f11-49f4-a307-754a519c1814"},"vehicle_type_id":"4","last_reported":1715651189,"current_range_meters":1600,"station_id":"ce4bgk12rcd13ifvqbi0","pricing_plan_id":"cebpf4jnsgd1na2vs0mg"},{"bike_id":"50f816f2-2959-4529-92f1-a743489a6173","system_id":"levelo_inurba_marseille","lat":43.304341,"lon":5.388941,"is_reserved":false,"is_disabled":false,"rental_uris":{"android":"levelo://app?vid=50f816f2-2959-4529-92f1-a743489a6173","ios":"levelo://app?vid=50f816f2-2959-4529-92f1-a743489a6173"},"vehicle_type_id":"4","last_reported":1715651189,"current_range_meters":27600,"station_id":"ce4bgk12rcd13ifvqbi0","pricing_plan_id":"cebpf4jnsgd1na2vs0mg"},{"bike_id":"dbc6437d-2680-4a76-8020-6730cfbb9c80","system_id":"levelo_inurba_marseille","lat":43.304274,"lon":5.388873,"is_reserved":false,"is_disabled":false,"rental_uris":{"android":"levelo://app?vid=dbc6437d-2680-4a76-8020-6730cfbb9c80","ios":"levelo://app?vid=dbc6437d-2680-4a76-8020-6730cfbb9c80"},"vehicle_type_id":"4","last_reported":1715651189,"current_range_meters":10400,"station_id":"ce4bgk12rcd13ifvqbi0","pricing_plan_id":"cebpf4jnsgd1na2vs0mg"},{"bike_id":"5f8f0401-fd3d-4932-a5b8-6c20497e8d7f","system_id":"levelo_inurba_marseille","lat":43.299724,"lon":5.384848,"is_reserved":false,"is_disabled":false,"rental_uris":{"android":"levelo://app?vid=5f8f0401-fd3d-4932-a5b8-6c20497e8d7f","ios":"levelo://app?vid=5f8f0401-fd3d-4932-a5b8-6c20497e8d7f"},"vehicle_type_id":"4","last_reported":1715651189,"current_range_meters":30800,"station_id":"ce4bgj92rcd13ifvqbd0","pricing_plan_id":"cebpf4jnsgd1na2vs0mg"},{"bike_id":"d1a41047-e41e-4509-bf14-8c469d3aaaf6","system_id":"levelo_inurba_marseille","lat":43.295279,"lon":5.375048,"is_reserved":false,"is_disabled":false,"rental_uris":{"android":"levelo://app?vid=d1a41047-e41e-4509-bf14-8c469d3aaaf6","ios":"levelo://app?vid=d1a41047-e41e-4509-bf14-8c469d3aaaf6"},"vehicle_type_id":"4","last_reported":1715651189,"current_range_meters":18800,"station_id":"ce4bgkp2rcd13ifvqbmg","pricing_plan_id":"cebpf4jnsgd1na2vs0mg"},{"bike_id":"7c28b21a-5180-491b-b35d-4dcba8f1039d","system_id":"levelo_inurba_marseille","lat":43.32364,"lon":5.38874,"is_reserved":false,"is_disabled":false,"rental_uris":{"android":"levelo://app?vid=7c28b21a-5180-491b-b35d-4dcba8f1039d","ios":"levelo://app?vid=7c28b21a-5180-491b-b35d-4dcba8f1039d"},"vehicle_type_id":"4","last_reported":1715651189,"current_range_meters":15600,"station_id":"ce4bhqp2rcd13ifvqhog","pricing_plan_id":"cebpf4jnsgd1na2vs0mg"},{"bike_id":"3a1039ea-cb38-45d4-bc17-929d45a995d1","system_id":"levelo_inurba_marseille","lat":43.32362,"lon":5.38878,"is_reserved":false,"is_disabled":false,"rental_uris":{"android":"levelo://app?vid=3a1039ea-cb38-45d4-bc17-929d45a995d1","ios":"levelo://app?vid=3a1039ea-cb38-45d4-bc17-929d45a995d1"},"vehicle_type_id":"4","last_reported":1715651189,"current_range_meters":0,"station_id":"ce4bhqp2rcd13ifvqhog","pricing_plan_id":"cebpf4jnsgd1na2vs0mg"},{"bike_id":"9551db3a-517f-40c3-b82a-110bb54bbd37","system_id":"levelo_inurba_marseille","lat":43.32364,"lon":5.38882,"is_reserved":false,"is_disabled":false,"rental_uris":{"android":"levelo://app?vid=9551db3a-517f-40c3-b82a-110bb54bbd37","ios":"levelo://app?vid=9551db3a-517f-40c3-b82a-110bb54bbd37"},"vehicle_type_id":"4","last_reported":1715651189,"current_range_meters":4000,"station_id":"ce4bhqp2rcd13ifvqhog","pricing_plan_id":"cebpf4jnsgd1na2vs0mg"},{"bike_id":"58655a88-2166-4631-b134-a36bf56c5987","system_id":"levelo_inurba_marseille","lat":43.3236,"lon":5.38886,"is_reserved":false,"is_disabled":false,"rental_uris":{"android":"levelo://app?vid=58655a88-2166-4631-b134-a36bf56c5987","ios":"levelo://app?vid=58655a88-2166-4631-b134-a36bf56c5987"},"vehicle_type_id":"4","last_reported":1715651189,"current_range_meters":11600,"station_id":"ce4bhqp2rcd13ifvqhog","pricing_plan_id":"cebpf4jnsgd1na2vs0mg"},{"bike_id":"8f5cfe61-1be7-4606-89cb-3f2707097695","system_id":"levelo_inurba_marseille","lat":43.32369,"lon":5.38882,"is_reserved":false,"is_disabled":false,"rental_uris":{"android":"levelo://app?vid=8f5cfe61-1be7-4606-89cb-3f2707097695","ios":"levelo://app?vid=8f5cfe61-1be7-4606-89cb-3f2707097695"},"vehicle_type_id":"4","last_reported":1715651189,"current_range_meters":1600,"station_id":"ce4bhqp2rcd13ifvqhog","pricing_plan_id":"cebpf4jnsgd1na2vs0mg"},{"bike_id":"d27ce489-bd8c-4780-a1d5-a76e267516d6","system_id":"levelo_inurba_marseille","lat":43.32367,"lon":5.388836,"is_reserved":false,"is_disabled":false,"rental_uris":{"android":"levelo://app?vid=d27ce489-bd8c-4780-a1d5-a76e267516d6","ios":"levelo://app?vid=d27ce489-bd8c-4780-a1d5-a76e267516d6"},"vehicle_type_id":"4","last_reported":1715651189,"current_range_meters":21600,"station_id":"ce4bhqp2rcd13ifvqhog","pricing_plan_id":"cebpf4jnsgd1na2vs0mg"},{"bike_id":"a0cd0f6d-491b-40bb-8cc8-5023838caef6","system_id":"levelo_inurba_marseille","lat":43.29602,"lon":5.381084,"is_reserved":false,"is_disabled":false,"rental_uris":{"android":"levelo://app?vid=a0cd0f6d-491b-40bb-8cc8-5023838caef6","ios":"levelo://app?vid=a0cd0f6d-491b-40bb-8cc8-5023838caef6"},"vehicle_type_id":"4","last_reported":1715651189,"current_range_meters":28000,"station_id":"ce4bgl12rcd13ifvqbo0","pricing_plan_id":"cebpf4jnsgd1na2vs0mg"},{"bike_id":"964d2e7f-802e-48b4-8dad-1a320d62ca13","system_id":"levelo_inurba_marseille","lat":43.29601,"lon":5.381084,"is_reserved":false,"is_disabled":false,"rental_uris":{"android":"levelo://app?vid=964d2e7f-802e-48b4-8dad-1a320d62ca13","ios":"levelo://app?vid=964d2e7f-802e-48b4-8dad-1a320d62ca13"},"vehicle_type_id":"4","last_reported":1715651189,"current_range_meters":23200,"station_id":"ce4bgl12rcd13ifvqbo0","pricing_plan_id":"cebpf4jnsgd1na2vs0mg"},{"bike_id":"7e94d2a4-f275-47a8-81e8-9744ff571230","system_id":"levelo_inurba_marseille","lat":43.2928,"lon":5.36839,"is_reserved":false,"is_disabled":false,"rental_uris":{"android":"levelo://app?vid=7e94d2a4-f275-47a8-81e8-9744ff571230","ios":"levelo://app?vid=7e94d2a4-f275-47a8-81e8-9744ff571230"},"vehicle_type_id":"4","last_reported":1715651189,"current_range_meters":8400,"station_id":"ce4bhbp2rcd13ifvqesg","pricing_plan_id":"cebpf4jnsgd1na2vs0mg"},{"bike_id":"0995c838-92cd-432e-ba92-b689c8282553","system_id":"levelo_inurba_marseille","lat":43.305994,"lon":5.393687,"is_reserved":false,"is_disabled":false,"rental_uris":{"android":"levelo://app?vid=0995c838-92cd-432e-ba92-b689c8282553","ios":"levelo://app?vid=0995c838-92cd-432e-ba92-b689c8282553"},"vehicle_type_id":"4","last_reported":1715651189,"current_range_meters":18000,"station_id":"ce4bh0p2rcd13ifvqd80","pricing_plan_id":"cebpf4jnsgd1na2vs0mg"},{"bike_id":"315306ca-f9f3-4ff5-a12e-934a28078df0","system_id":"levelo_inurba_marseille","lat":43.30598,"lon":5.39353,"is_reserved":false,"is_disabled":false,"rental_uris":{"android":"levelo://app?vid=315306ca-f9f3-4ff5-a12e-934a28078df0","ios":"levelo://app?vid=315306ca-f9f3-4ff5-a12e-934a28078df0"},"vehicle_type_id":"4","last_reported":1715651189,"current_range_meters":9600,"station_id":"ce4bh0p2rcd13ifvqd80","pricing_plan_id":"cebpf4jnsgd1na2vs0mg"},{"bike_id":"3a21ae3a-5364-49e7-995d-f197df09dd3f","system_id":"levelo_inurba_marseille","lat":43.29238,"lon":5.3706,"is_reserved":false,"is_disabled":false,"rental_uris":{"android":"levelo://app?vid=3a21ae3a-5364-49e7-995d-f197df09dd3f","ios":"levelo://app?vid=3a21ae3a-5364-49e7-995d-f197df09dd3f"},"vehicle_type_id":"4","last_reported":1715651189,"current_range_meters":20000,"station_id":"","pricing_plan_id":"cebpf4jnsgd1na2vs0mg"},{"bike_id":"1e56298e-e921-462d-9cec-854bb3f5fd33","system_id":"levelo_inurba_marseille","lat":43.305994,"lon":5.393687,"is_reserved":false,"is_disabled":false,"rental_uris":{"android":"levelo://app?vid=1e56298e-e921-462d-9cec-854bb3f5fd33","ios":"levelo://app?vid=1e56298e-e921-462d-9cec-854bb3f5fd33"},"vehicle_type_id":"4","last_reported":1715651189,"current_range_meters":1200,"station_id":"ce4bh0p2rcd13ifvqd80","pricing_plan_id":"cebpf4jnsgd1na2vs0mg"},{"bike_id":"1604efdd-8e08-4074-af1a-2ec446e2fb69","system_id":"levelo_inurba_marseille","lat":43.303002,"lon":5.392142,"is_reserved":false,"is_disabled":false,"rental_uris":{"android":"levelo://app?vid=1604efdd-8e08-4074-af1a-2ec446e2fb69","ios":"levelo://app?vid=1604efdd-8e08-4074-af1a-2ec446e2fb69"},"vehicle_type_id":"4","last_reported":1715651189,"current_range_meters":4400,"station_id":"ce4bgkh2rcd13ifvqbk0","pricing_plan_id":"cebpf4jnsgd1na2vs0mg"},{"bike_id":"8c8c56d1-64d2-4c56-8050-d6c1e4ce272c","system_id":"levelo_inurba_marseille","lat":43.303002,"lon":5.392142,"is_reserved":false,"is_disabled":false,"rental_uris":{"android":"levelo://app?vid=8c8c56d1-64d2-4c56-8050-d6c1e4ce272c","ios":"levelo://app?vid=8c8c56d1-64d2-4c56-8050-d6c1e4ce272c"},"vehicle_type_id":"4","last_reported":1715651189,"current_range_meters":6400,"station_id":"ce4bgkh2rcd13ifvqbk0","pricing_plan_id":"cebpf4jnsgd1na2vs0mg"},{"bike_id":"92a45878-e84c-4e6e-9854-bb49b1c3d50f","system_id":"levelo_inurba_marseille","lat":43.303002,"lon":5.392142,"is_reserved":false,"is_disabled":false,"rental_uris":{"android":"levelo://app?vid=92a45878-e84c-4e6e-9854-bb49b1c3d50f","ios":"levelo://app?vid=92a45878-e84c-4e6e-9854-bb49b1c3d50f"},"vehicle_type_id":"4","last_reported":1715651189,"current_range_meters":26800,"station_id":"ce4bgkh2rcd13ifvqbk0","pricing_plan_id":"cebpf4jnsgd1na2vs0mg"},{"bike_id":"89e91a84-3ab0-48d6-b13b-db44f2958202","system_id":"levelo_inurba_marseille","lat":43.303002,"lon":5.392142,"is_reserved":false,"is_disabled":false,"rental_uris":{"android":"levelo://app?vid=89e91a84-3ab0-48d6-b13b-db44f2958202","ios":"levelo://app?vid=89e91a84-3ab0-48d6-b13b-db44f2958202"},"vehicle_type_id":"4","last_reported":1715651189,"current_range_meters":25600,"station_id":"ce4bgkh2rcd13ifvqbk0","pricing_plan_id":"cebpf4jnsgd1na2vs0mg"},{"bike_id":"a35e7fbb-55fc-4e6a-b9d0-de012bca88cc","system_id":"levelo_inurba_marseille","lat":43.303002,"lon":5.392142,"is_reserved":false,"is_disabled":false,"rental_uris":{"android":"levelo://app?vid=a35e7fbb-55fc-4e6a-b9d0-de012bca88cc","ios":"levelo://app?vid=a35e7fbb-55fc-4e6a-b9d0-de012bca88cc"},"vehicle_type_id":"4","last_reported":1715651189,"current_range_meters":26400,"station_id":"ce4bgkh2rcd13ifvqbk0","pricing_plan_id":"cebpf4jnsgd1na2vs0mg"},{"bike_id":"c059fd0e-8329-4f18-84c7-a9d2de1bd2ac","system_id":"levelo_inurba_marseille","lat":43.303002,"lon":5.392142,"is_reserved":false,"is_disabled":false,"rental_uris":{"android":"levelo://app?vid=c059fd0e-8329-4f18-84c7-a9d2de1bd2ac","ios":"levelo://app?vid=c059fd0e-8329-4f18-84c7-a9d2de1bd2ac"},"vehicle_type_id":"4","last_reported":1715651189,"current_range_meters":24000,"station_id":"ce4bgkh2rcd13ifvqbk0","pricing_plan_id":"cebpf4jnsgd1na2vs0mg"},{"bike_id":"0416f65c-dfb7-4f5a-ab56-81a00bbae1f8","system_id":"levelo_inurba_marseille","lat":43.302992,"lon":5.392136,"is_reserved":false,"is_disabled":false,"rental_uris":{"android":"levelo://app?vid=0416f65c-dfb7-4f5a-ab56-81a00bbae1f8","ios":"levelo://app?vid=0416f65c-dfb7-4f5a-ab56-81a00bbae1f8"},"vehicle_type_id":"4","last_reported":1715651189,"current_range_meters":15600,"station_id":"ce4bgkh2rcd13ifvqbk0","pricing_plan_id":"cebpf4jnsgd1na2vs0mg"},{"bike_id":"ac7791e0-a288-4a53-b19a-09923915e5ea","system_id":"levelo_inurba_marseille","lat":43.303002,"lon":5.392142,"is_reserved":false,"is_disabled":false,"rental_uris":{"android":"levelo://app?vid=ac7791e0-a288-4a53-b19a-09923915e5ea","ios":"levelo://app?vid=ac7791e0-a288-4a53-b19a-09923915e5ea"},"vehicle_type_id":"4","last_reported":1715651189,"current_range_meters":22800,"station_id":"ce4bgkh2rcd13ifvqbk0","pricing_plan_id":"cebpf4jnsgd1na2vs0mg"},{"bike_id":"d50a6be5-34e5-4594-8521-4e8f98a17f45","system_id":"levelo_inurba_marseille","lat":43.303002,"lon":5.392142,"is_reserved":false,"is_disabled":false,"rental_uris":{"android":"levelo://app?vid=d50a6be5-34e5-4594-8521-4e8f98a17f45","ios":"levelo://app?vid=d50a6be5-34e5-4594-8521-4e8f98a17f45"},"vehicle_type_id":"4","last_reported":1715651189,"current_range_meters":25200,"station_id":"ce4bgkh2rcd13ifvqbk0","pricing_plan_id":"cebpf4jnsgd1na2vs0mg"},{"bike_id":"e630af0c-a756-4d03-90e9-3f2fc882cd7b","system_id":"levelo_inurba_marseille","lat":43.30085,"lon":5.390856,"is_reserved":false,"is_disabled":false,"rental_uris":{"android":"levelo://app?vid=e630af0c-a756-4d03-90e9-3f2fc882cd7b","ios":"levelo://app?vid=e630af0c-a756-4d03-90e9-3f2fc882cd7b"},"vehicle_type_id":"4","last_reported":1715651189,"current_range_meters":17200,"station_id":"ce4bh192rcd13ifvqdb0","pricing_plan_id":"cebpf4jnsgd1na2vs0mg"},{"bike_id":"8f51c815-98b2-4f72-be86-c3e55f65b9ff","system_id":"levelo_inurba_marseille","lat":43.300942,"lon":5.390753,"is_reserved":false,"is_disabled":false,"rental_uris":{"android":"levelo://app?vid=8f51c815-98b2-4f72-be86-c3e55f65b9ff","ios":"levelo://app?vid=8f51c815-98b2-4f72-be86-c3e55f65b9ff"},"vehicle_type_id":"4","last_reported":1715651189,"current_range_meters":13600,"station_id":"ce4bh192rcd13ifvqdb0","pricing_plan_id":"cebpf4jnsgd1na2vs0mg"},{"bike_id":"2be0aa79-b972-4c01-a7b2-8c2a105cc6b6","system_id":"levelo_inurba_marseille","lat":43.29885,"lon":5.38909,"is_reserved":false,"is_disabled":false,"rental_uris":{"android":"levelo://app?vid=2be0aa79-b972-4c01-a7b2-8c2a105cc6b6","ios":"levelo://app?vid=2be0aa79-b972-4c01-a7b2-8c2a105cc6b6"},"vehicle_type_id":"4","last_reported":1715651189,"current_range_meters":17200,"station_id":"ce4bh392rcd13ifvqdl0","pricing_plan_id":"cebpf4jnsgd1na2vs0mg"},{"bike_id":"8d8f9659-2ba8-4d05-91f6-74a21f8b38e1","system_id":"levelo_inurba_marseille","lat":43.298764,"lon":5.388973,"is_reserved":false,"is_disabled":false,"rental_uris":{"android":"levelo://app?vid=8d8f9659-2ba8-4d05-91f6-74a21f8b38e1","ios":"levelo://app?vid=8d8f9659-2ba8-4d05-91f6-74a21f8b38e1"},"vehicle_type_id":"4","last_reported":1715651189,"current_range_meters":23200,"station_id":"ce4bh392rcd13ifvqdl0","pricing_plan_id":"cebpf4jnsgd1na2vs0mg"},{"bike_id":"e59c2ffe-7f97-480f-adfc-1fa7417e0e7e","system_id":"levelo_inurba_marseille","lat":43.298764,"lon":5.388973,"is_reserved":false,"is_disabled":false,"rental_uris":{"android":"levelo://app?vid=e59c2ffe-7f97-480f-adfc-1fa7417e0e7e","ios":"levelo://app?vid=e59c2ffe-7f97-480f-adfc-1fa7417e0e7e"},"vehicle_type_id":"4","last_reported":1715651189,"current_range_meters":25200,"station_id":"ce4bh392rcd13ifvqdl0","pricing_plan_id":"cebpf4jnsgd1na2vs0mg"},{"bike_id":"e70e4dba-e461-4100-9110-d241142f99a7","system_id":"levelo_inurba_marseille","lat":43.298764,"lon":5.388973,"is_reserved":false,"is_disabled":false,"rental_uris":{"android":"levelo://app?vid=e70e4dba-e461-4100-9110-d241142f99a7","ios":"levelo://app?vid=e70e4dba-e461-4100-9110-d241142f99a7"},"vehicle_type_id":"4","last_reported":1715651189,"current_range_meters":21600,"station_id":"ce4bh392rcd13ifvqdl0","pricing_plan_id":"cebpf4jnsgd1na2vs0mg"},{"bike_id":"eda92d90-aa67-4892-96b3-de3e6ac3fea2","system_id":"levelo_inurba_marseille","lat":43.309038,"lon":5.396546,"is_reserved":false,"is_disabled":false,"rental_uris":{"android":"levelo://app?vid=eda92d90-aa67-4892-96b3-de3e6ac3fea2","ios":"levelo://app?vid=eda92d90-aa67-4892-96b3-de3e6ac3fea2"},"vehicle_type_id":"4","last_reported":1715651189,"current_range_meters":23600,"station_id":"ce4bh012rcd13ifvqcv0","pricing_plan_id":"cebpf4jnsgd1na2vs0mg"},