{"last_updated":1687014344,"ttl":30,"version":"2.2","data":{"bikes":[{"bike_id":"9c746439-937e-436d-8c66-cb90c42aae7f","system_id":"levelo_inurba_marseille","lat":43.3148,"lon":5.37414,"is_reserved":false,"is_disabled":false,"rental_uris":{"android":"levelo://app?vid=9c746439-937e-436d-8c66-cb90c42aae7f","ios":"levelo://app?vid=9c746439-937e-436d-8c66-cb90c42aae7f"},"vehicle_type_id":"4","last_reported":1687014345,"current_range_meters":29600,"station_id":"","pricing_plan_id":"free"},{"bike_id":"aa8a243a-9d17-42b4-9cce-69baefa09dc8","system_id":"levelo_inurba_marseille","lat":43.30599,"lon":5.3722,"is_reserved":false,"is_disabled":false,"rental_uris":{"android":"levelo://app?vid=aa8a243a-9d17-42b4-9cce-69baefa09dc8","ios":"levelo://app?vid=aa8a243a-9d17-42b4-9cce-69baefa09dc8"},"vehicle_type_id":"4","last_reported":1687014345,"current_range_meters":0,"station_id":"ce4bgqh2rcd13ifvqc4g","pricing_plan_id":"free"},{"bike_id":"a4364001-af21-40ac-88c2-5a17ac5b251f","system_id":"levelo_inurba_marseille","lat":43.305989,"lon":5.37225,"is_reserved":false,"is_disabled":false,"rental_uris":{"android":"levelo://app?vid=a4364001-af21-40ac-88c2-5a17ac5b251f","ios":"levelo://app?vid=a4364001-af21-40ac-88c2-5a17ac5b251f"},"vehicle_type_id":"4","last_reported":1687014345,"current_range_meters":15600,"station_id":"ce4bgqh2rcd13ifvqc4g","pricing_plan_id":"free"},{"bike_id":"88d29584-ba16-47e6-bb90-edfbbe944a8f","system_id":"levelo_inurba_marseille","lat":43.305989,"lon":5.37225,"is_reserved":false,"is_disabled":false,"rental_uris":{"android":"levelo://app?vid=88d29584-ba16-47e6-bb90-edfbbe944a8f","ios":"levelo://app?vid=88d29584-ba16-47e6-bb90-edfbbe944a8f"},"vehicle_type_id":"4","last_reported":1687014345,"current_range_meters":0,"station_id":"ce4bgqh2rcd13ifvqc4g","pricing_plan_id":"free"},{"bike_id":"013e0d34-5d4f-48e2-ba47-e453977d852e","system_id":"levelo_inurba_marseille","lat":43.31122,"lon":5.37765,"is_reserved":false,"is_disabled":false,"rental_uris":{"android":"levelo://app?vid=013e0d34-5d4f-48e2-ba47-e453977d852e","ios":"levelo://app?vid=013e0d34-5d4f-48e2-ba47-e453977d852e"},"vehicle_type_id":"4","last_reported":1687014345,"current_range_meters":0,"station_id":"ce4bgt92rcd13ifvqcg0","pricing_plan_id":"free"},{"bike_id":"2424216c-0462-4ad0-b127-d0366c91b61c","system_id":"levelo_inurba_marseille","lat":43.31715,"lon":5.37764,"is_reserved":false,"is_disabled":false,"rental_uris":{"android":"levelo://app?vid=2424216c-0462-4ad0-b127-d0366c91b61c","ios":"levelo://app?vid=2424216c-0462-4ad0-b127-d0366c91b61c"},"vehicle_type_id":"4","last_reported":1687014345,"current_range_meters":31200,"station_id":"ce4bgth2rcd13ifvqch0","pricing_plan_id":"free"},{"bike_id":"e6db9b2f-f297-48ac-9e19-df4091bc7100","system_id":"levelo_inurba_marseille","lat":43.301939,"lon":5.366286,"is_reserved":false,"is_disabled":false,"rental_uris":{"android":"levelo://app?vid=e6db9b2f-f297-48ac-9e19-df4091bc7100","ios":"levelo://app?vid=e6db9b2f-f297-48ac-9e19-df4091bc7100"},"vehicle_type_id":"4","last_reported":1687014345,"current_range_meters":28000,"station_id":"ce4bgrh2rcd13ifvqc8g","pricing_plan_id":"free"},{"bike_id":"ae33307b-fcd5-479b-9ae1-9002ed226c6e","system_id":"levelo_inurba_marseille","lat":43.308012,"lon":5.381511,"is_reserved":false,"is_disabled":false,"rental_uris":{"android":"levelo://app?vid=ae33307b-fcd5-479b-9ae1-9002ed226c6e","ios":"levelo://app?vid=ae33307b-fcd5-479b-9ae1-9002ed226c6e"},"vehicle_type_id":"4","last_reported":1687014345,"current_range_meters":9600,"station_id":"ce4bgt12rcd13ifvqce0","pricing_plan_id":"free"},{"bike_id":"43fc693e-f2a9-4aec-8fd9-d094bb02cb70","system_id":"levelo_inurba_marseille","lat":43.304606,"lon":5.379026,"is_reserved":false,"is_disabled":false,"rental_uris":{"android":"levelo://app?vid=43fc693e-f2a9-4aec-8fd9-d094bb02cb70","ios":"levelo://app?vid=43fc693e-f2a9-4aec-8fd9-d094bb02cb70"},"vehicle_type_id":"4","last_reported":1687014345,"current_range_meters":20800,"station_id":"ce4bgup2rcd13ifvqcn0","pricing_plan_id":"free"},{"bike_id":"5003c2fa-8578-4b5b-aee0-bf9c6a52e3f5","system_id":"levelo_inurba_marseille","lat":43.31998,"lon":5.38152,"is_reserved":false,"is_disabled":false,"rental_uris":{"android":"levelo://app?vid=5003c2fa-8578-4b5b-aee0-bf9c6a52e3f5","ios":"levelo://app?vid=5003c2fa-8578-4b5b-aee0-bf9c6a52e3f5"},"vehicle_type_id":"4","last_reported":1687014345,"current_range_meters":0,"station_id":"ce4bhr12rcd13ifvqhpg","pricing_plan_id":"free"},{"bike_id":"8eb9e1d2-a7dc-4822-90fd-72067f74270b","system_id":"levelo_inurba_marseille","lat":43.299222,"lon":5.365554,"is_reserved":false,"is_disabled":false,"rental_uris":{"android":"levelo://app?vid=8eb9e1d2-a7dc-4822-90fd-72067f74270b","ios":"levelo://app?vid=8eb9e1d2-a7dc-4822-90fd-72067f74270b"},"vehicle_type_id":"4","last_reported":1687014345,"current_range_meters":4800,"station_id":"ce4bgm92rcd13ifvqbr0","pricing_plan_id":"free"},{"bike_id":"330412da-b9eb-49fa-9ba0-9288ee9ddd31","system_id":"levelo_inurba_marseille","lat":43.30053,"lon":5.37519,"is_reserved":false,"is_disabled":false,"rental_uris":{"android":"levelo://app?vid=330412da-b9eb-49fa-9ba0-9288ee9ddd31","ios":"levelo://app?vid=330412da-b9eb-49fa-9ba0-9288ee9ddd31"},"vehicle_type_id":"4","last_reported":1687014345,"current_range_meters":18800,"station_id":"","pricing_plan_id":"free"},{"bike_id":"ecdb4a6e-c51a-4923-902f-5f1b037d9780","system_id":"levelo_inurba_marseille","lat":43.298433,"lon":5.362774,"is_reserved":false,"is_disabled":false,"rental_uris":{"android":"levelo://app?vid=ecdb4a6e-c51a-4923-902f-5f1b037d9780","ios":"levelo://app?vid=ecdb4a6e-c51a-4923-902f-5f1b037d9780"},"vehicle_type_id":"4","last_reported":1687014345,"current_range_meters":22800,"station_id":"ce4bgpp2rcd13ifvqc3g","pricing_plan_id":"free"},{"bike_id":"4bf53da7-5b2e-4feb-ad64-d834c27b533d","system_id":"levelo_inurba_marseille","lat":43.32824,"lon":5.36692,"is_reserved":false,"is_disabled":false,"rental_uris":{"android":"levelo://app?vid=4bf53da7-5b2e-4feb-ad64-d834c27b533d","ios":"levelo://app?vid=4bf53da7-5b2e-4feb-ad64-d834c27b533d"},"vehicle_type_id":"4","last_reported":1687014345,"current_range_meters":26000,"station_id":"ce4bhs92rcd13ifvqi0g","pricing_plan_id":"free"},{"bike_id":"4bb85f49-7f9a-477c-abaa-23a093d581e6","system_id":"levelo_inurba_marseille","lat":43.32824,"lon":5.36679,"is_reserved":false,"is_disabled":false,"rental_uris":{"android":"levelo://app?vid=4bb85f49-7f9a-477c-abaa-23a093d581e6","ios":"levelo://app?vid=4bb85f49-7f9a-477c-abaa-23a093d581e6"},"vehicle_type_id":"4","last_reported":1687014345,"current_range_meters":19600,"station_id":"ce4bhs92rcd13ifvqi0g","pricing_plan_id":"free"},{"bike_id":"6d12bf08-ef93-4cae-ab6e-6233437e9a82","system_id":"levelo_inurba_marseille","lat":43.32826,"lon":5.36683,"is_reserved":false,"is_disabled":false,"rental_uris":{"android":"levelo://app?vid=6d12bf08-ef93-4cae-ab6e-6233437e9a82","ios":"levelo://app?vid=6d12bf08-ef93-4cae-ab6e-6233437e9a82"},"vehicle_type_id":"4","last_reported":1687014345,"current_range_meters":18800,"station_id":"ce4bhs92rcd13ifvqi0g","pricing_plan_id":"free"},{"bike_id":"176f4894-d7fc-460e-aa5d-7c8c1e206dc3","system_id":"levelo_inurba_marseille","lat":43.297163,"lon":5.365866,"is_reserved":false,"is_disabled":false,"rental_uris":{"android":"levelo://app?vid=176f4894-d7fc-460e-aa5d-7c8c1e206dc3","ios":"levelo://app?vid=176f4894-d7fc-460e-aa5d-7c8c1e206dc3"},"vehicle_type_id":"4","last_reported":1687014345,"current_range_meters":15600,"station_id":"ce4bgn12rcd13ifvqbt0","pricing_plan_id":"free"},{"bike_id":"88d0330c-5bb0-4a19-9b65-d4683b42e015","system_id":"levelo_inurba_marseille","lat":43.29683,"lon":5.36046,"is_reserved":false,"is_disabled":false,"rental_uris":{"android":"levelo://app?vid=88d0330c-5bb0-4a19-9b65-d4683b42e015","ios":"levelo://app?vid=88d0330c-5bb0-4a19-9b65-d4683b42e015"},"vehicle_type_id":"4","last_reported":1687014345,"current_range_meters":6000,"station_id":"ce4bgpp2rcd13ifvqc3g","pricing_plan_id":"free"},{"bike_id":"798ddf7b-c172-476f-92dc-0182f7ec76db","system_id":"levelo_inurba_marseille","lat":43.296921,"lon":5.376579,"is_reserved":false,"is_disabled":false,"rental_uris":{"android":"levelo://app?vid=798ddf7b-c172-476f-92dc-0182f7ec76db","ios":"levelo://app?vid=798ddf7b-c172-476f-92dc-0182f7ec76db"},"vehicle_type_id":"4","last_reported":1687014345,"current_range_meters":0,"station_id":"ce4bgkh2rcd13ifvqbl0","pricing_plan_id":"free"},{"bike_id":"24f41ca5-b432-4feb-a0c8-a15026b97306","system_id":"levelo_inurba_marseille","lat":43.296131,"lon":5.370773,"is_reserved":false,"is_disabled":false,"rental_uris":{"android":"levelo://app?vid=24f41ca5-b432-4feb-a0c8-a15026b97306","ios":"levelo://app?vid=24f41ca5-b432-4feb-a0c8-a15026b97306"},"vehicle_type_id":"4","last_reported":1687014345,"current_range_meters":15600,"station_id":"ce4bgnh2rcd13ifvqc0g","pricing_plan_id":"free"},{"bike_id":"ef74a823-0f37-4fb5-a462-600dc1e96af9","system_id":"levelo_inurba_marseille","lat":43.309589,"lon":5.390258,"is_reserved":false,"is_disabled":false,"rental_uris":{"android":"levelo://app?vid=ef74a823-0f37-4fb5-a462-600dc1e96af9","ios":"levelo://app?vid=ef74a823-0f37-4fb5-a462-600dc1e96af9"},"vehicle_type_id":"4","last_reported":1687014345,"current_range_meters":0,"station_id":"ce4bgup2rcd13ifvqco0","pricing_plan_id":"free"},{"bike_id":"4daba79a-7b12-42dd-8d70-90d193a53cfe","system_id":"levelo_inurba_marseille","lat":43.317557,"lon":5.390173,"is_reserved":false,"is_disabled":false,"rental_uris":{"android":"levelo://app?vid=4daba79a-7b12-42dd-8d70-90d193a53cfe","ios":"levelo://app?vid=4daba79a-7b12-42dd-8d70-90d193a53cfe"},"vehicle_type_id":"4","last_reported":1687014345,"current_range_meters":26400,"station_id":"ce4bhqp2rcd13ifvqhng","pricing_plan_id":"free"},{"bike_id":"8cf42709-07f8-4236-b8c0-9bb93ec67527","system_id":"levelo_inurba_marseille","lat":43.317557,"lon":5.390173,"is_reserved":false,"is_disabled":false,"rental_uris":{"android":"levelo://app?vid=8cf42709-07f8-4236-b8c0-9bb93ec67527","ios":"levelo://app?vid=8cf42709-07f8-4236-b8c0-9bb93ec67527"},"vehicle_type_id":"4","last_reported":1687014345,"current_range_meters":17600,"station_id":"ce4bhqp2rcd13ifvqhng","pricing_plan_id":"free"},{"bike_id":"250c8a96-8498-4211-b8f3-1b00a8d1fbaf","system_id":"levelo_inurba_marseille","lat":43.296477,"lon":5.37768,"is_reserved":false,"is_disabled":false,"rental_uris":{"android":"levelo://app?vid=250c8a96-8498-4211-b8f3-1b00a8d1fbaf","ios":"levelo://app?vid=250c8a96-8498-4211-b8f3-1b00a8d1fbaf"},"vehicle_type_id":"4","last_reported":1687014345,"current_range_meters":16400,"station_id":"","pricing_plan_id":"free"},{"bike_id":"51ed24db-5817-4784-b1cf-89312d5cf7f1","system_id":"levelo_inurba_marseille","lat":43.295279,"lon":5.375048,"is_reserved":false,"is_disabled":false,"rental_uris":{"android":"levelo://app?vid=51ed24db-5817-4784-b1cf-89312d5cf7f1","ios":"levelo://app?vid=51ed24db-5817-4784-b1cf-89312d5cf7f1"},"vehicle_type_id":"4","last_reported":1687014345,"current_range_meters":0,"station_id":"ce4bgkp2rcd13ifvqbmg","pricing_plan_id":"free"},{"bike_id":"eb56f040-d7e3-440c-9d05-82afe187dd21","system_id":"levelo_inurba_marseille","lat":43.299724,"lon":5.384848,"is_reserved":false,"is_disabled":false,"rental_uris":{"android":"levelo://app?vid=eb56f040-d7e3-440c-9d05-82afe187dd21","ios":"levelo://app?vid=eb56f040-d7e3-440c-9d05-82afe187dd21"},"vehicle_type_id":"4","last_reported":1687014345,"current_range_meters":30800,"station_id":"ce4bgj92rcd13ifvqbd0","pricing_plan_id":"free"},{"bike_id":"bfa45a67-60f7-4f89-bd4b-64970458b903","system_id":"levelo_inurba_marseille","lat":43.29383,"lon":5.3624,"is_reserved":false,"is_disabled":false,"rental_uris":{"android":"levelo://app?vid=bfa45a67-60f7-4f89-bd4b-64970458b903","ios":"levelo://app?vid=bfa45a67-60f7-4f89-bd4b-64970458b903"},"vehicle_type_id":"4","last_reported":1687014345,"current_range_meters":16400,"station_id":"","pricing_plan_id":"free"},{"bike_id":"2c9ad911-25e0-4222-8751-d809dfadd582","system_id":"levelo_inurba_marseille","lat":43.32367,"lon":5.388836,"is_reserved":false,"is_disabled":false,"rental_uris":{"android":"levelo://app?vid=2c9ad911-25e0-4222-8751-d809dfadd582","ios":"levelo://app?vid=2c9ad911-25e0-4222-8751-d809dfadd582"},"vehicle_type_id":"4","last_reported":1687014345,"current_range_meters":25600,"station_id":"ce4bhqp2rcd13ifvqhog","pricing_plan_id":"free"},{"bike_id":"98886bfb-6f78-4a9c-9672-ca24fc66c3b7","system_id":"levelo_inurba_marseille","lat":43.292749,"lon":5.368398,"is_reserved":false,"is_disabled":false,"rental_uris":{"android":"levelo://app?vid=98886bfb-6f78-4a9c-9672-ca24fc66c3b7","ios":"levelo://app?vid=98886bfb-6f78-4a9c-9672-ca24fc66c3b7"},"vehicle_type_id":"4","last_reported":1687014345,"current_range_meters":0,"station_id":"ce4bhbp2rcd13ifvqesg","pricing_plan_id":"free"},{"bike_id":"e9e58b88-6798-42ce-b79a-2fbf587a47d8","system_id":"levelo_inurba_marseille","lat":43.29308,"lon":5.37172,"is_reserved":false,"is_disabled":false,"rental_uris":{"android":"levelo://app?vid=e9e58b88-6798-42ce-b79a-2fbf587a47d8","ios":"levelo://app?vid=e9e58b88-6798-42ce-b79a-2fbf587a47d8"},"vehicle_type_id":"4","last_reported":1687014345,"current_range_meters":6000,"station_id":"ce4bgh92rcd13ifvqb40","pricing_plan_id":"free"},{"bike_id":"4f076eb1-177e-4fad-a57e-38da2bf4bb9f","system_id":"levelo_inurba_marseille","lat":43.292749,"lon":5.368402,"is_reserved":false,"is_disabled":false,"rental_uris":{"android":"levelo://app?vid=4f076eb1-177e-4fad-a57e-38da2bf4bb9f","ios":"levelo://app?vid=4f076eb1-177e-4fad-a57e-38da2bf4bb9f"},"vehicle_type_id":"4","last_reported":1687014345,"current_range_meters":25600,"station_id":"ce4bhbp2rcd13ifvqesg","pricing_plan_id":"free"},{"bike_id":"8b4a6fea-e257-445e-a9e0-35389785e7f6","system_id":"levelo_inurba_marseille","lat":43.292749,"lon":5.368398,"is_reserved":false,"is_disabled":false,"rental_uris":{"android":"levelo://app?vid=8b4a6fea-e257-445e-a9e0-35389785e7f6","ios":"levelo://app?vid=8b4a6fea-e257-445e-a9e0-35389785e7f6"},"vehicle_type_id":"4","last_reported":1687014345,"current_range_meters":7200,"station_id":"ce4bhbp2rcd13ifvqesg","pricing_plan_id":"free"},{"bike_id":"19830262-b022-4ec0-a4f2-bb3c52867a0b","system_id":"levelo_inurba_marseille","lat":43.33068,"lon":5.3791,"is_reserved":false,"is_disabled":false,"rental_uris":{"android":"levelo://app?vid=19830262-b022-4ec0-a4f2-bb3c52867a0b","ios":"levelo://app?vid=19830262-b022-4ec0-a4f2-bb3c52867a0b"},"vehicle_type_id":"4","last_reported":1687014345,"current_range_meters":23200,"station_id":"","pricing_plan_id":"free"},{"bike_id":"2a8ab3d0-8360-4077-8db7-d8eecdeb33d2","system_id":"levelo_inurba_marseille","lat":43.292749,"lon":5.368402,"is_reserved":false,"is_disabled":false,"rental_uris":{"android":"levelo://app?vid=2a8ab3d0-8360-4077-8db7-d8eecdeb33d2","ios":"levelo://app?vid=2a8ab3d0-8360-4077-8db7-d8eecdeb33d2"},"vehicle_type_id":"4","last_reported":1687014345,"current_range_meters":24000,"station_id":"ce4bhbp2rcd13ifvqesg","pricing_plan_id":"free"},{"bike_id":"00c95a02-0932-4f9f-bcf8-31cdb5e23087","system_id":"levelo_inurba_marseille","lat":43.292749,"lon":5.368398,"is_reserved":false,"is_disabled":false,"rental_uris":{"android":"levelo://app?vid=00c95a02-0932-4f9f-bcf8-31cdb5e23087","ios":"levelo://app?vid=00c95a02-0932-4f9f-bcf8-31cdb5e23087"},"vehicle_type_id":"4","last_reported":1687014345,"current_range_meters":13200,"station_id":"ce4bhbp2rcd13ifvqesg","pricing_plan_id":"free"},{"bike_id":"8004154f-ccef-4bc9-b2bb-0884a103ec01","system_id":"levelo_inurba_marseille","lat":43.29302,"lon":5.37449,"is_reserved":false,"is_disabled":false,"rental_uris":{"android":"levelo://app?vid=8004154f-ccef-4bc9-b2bb-0884a103ec01","ios":"levelo://app?vid=8004154f-ccef-4bc9-b2bb-0884a103ec01"},"vehicle_type_id":"4","last_reported":1687014345,"current_range_meters":18000,"station_id":"ce4bgi12rcd13ifvqb70","pricing_plan_id":"free"},{"bike_id":"9c66aaa9-611b-482c-9dec-b2308b32d659","system_id":"levelo_inurba_marseille","lat":43.29303,"lon":5.37459,"is_reserved":false,"is_disabled":false,"rental_uris":{"android":"levelo://app?vid=9c66aaa9-611b-482c-9dec-b2308b32d659","ios":"levelo://app?vid=9c66aaa9-611b-482c-9dec-b2308b32d659"},"vehicle_type_id":"4","last_reported":1687014345,"current_range_meters":400,"station_id":"ce4bgi12rcd13ifvqb70","pricing_plan_id":"free"},{"bike_id":"6d3b3ced-15a6-4c9a-b872-df438013818d","system_id":"levelo_inurba_marseille","lat":43.302992,"lon":5.392136,"is_reserved":false,"is_disabled":false,"rental_uris":{"android":"levelo://app?vid=6d3b3ced-15a6-4c9a-b872-df438013818d","ios":"levelo://app?vid=6d3b3ced-15a6-4c9a-b872-df438013818d"},"vehicle_type_id":"4","last_reported":1687014345,"current_range_meters":800,"station_id":"ce4bgkh2rcd13ifvqbk0","pricing_plan_id":"free"},{"bike_id":"3d6ada8f-7486-4cb4-9ab3-121d47fee454","system_id":"levelo_inurba_marseille","lat":43.2936,"lon":5.37835,"is_reserved":false,"is_disabled":false,"rental_uris":{"android":"levelo://app?vid=3d6ada8f-7486-4cb4-9ab3-121d47fee454","ios":"levelo://app?vid=3d6ada8f-7486-4cb4-9ab3-121d47fee454"},"vehicle_type_id":"4","last_reported":1687014345,"current_range_meters":12400,"station_id":"ce4bgjh2rcd13ifvqbf0","pricing_plan_id":"free"},{"bike_id":"19581381-07b6-4d34-a0cb-d56269a53862","system_id":"levelo_inurba_marseille","lat":43.292311,"lon":5.360731,"is_reserved":false,"is_disabled":false,"rental_uris":{"android":"levelo://app?vid=19581381-07b6-4d34-a0cb-d56269a53862","ios":"levelo://app?vid=19581381-07b6-4d34-a0cb-d56269a53862"},"vehicle_type_id":"4","last_reported":1687014345,"current_range_meters":0,"station_id":"ce4bhbh2rcd13ifvqeqg","pricing_plan_id":"free"},{"bike_id":"b4853d2b-d179-45c6-b23f-722782060847","system_id":"levelo_inurba_marseille","lat":43.292311,"lon":5.360731,"is_reserved":false,"is_disabled":false,"rental_uris":{"android":"levelo://app?vid=b4853d2b-d179-45c6-b23f-722782060847","ios":"levelo://app?vid=b4853d2b-d179-45c6-b23f-722782060847"},"vehicle_type_id":"4","last_reported":1687014345,"current_range_meters":0,"station_id":"ce4bhbh2rcd13ifvqeqg","pricing_plan_id":"free"},{"bike_id":"e11e2a04-6d41-457c-a014-3cb5c1b1f11a","system_id":"levelo_inurba_marseille","lat":43.292212,"lon":5.360711,"is_reserved":false,"is_disabled":false,"rental_uris":{"android":"levelo://app?vid=e11e2a04-6d41-457c-a014-3cb5c1b1f11a","ios":"levelo://app?vid=e11e2a04-6d41-457c-a014-3cb5c1b1f11a"},"vehicle_type_id":"4","last_reported":1687014345,"current_range_meters":31200,"station_id":"ce4bhbh2rcd13ifvqeqg","pricing_plan_id":"free"},{"bike_id":"05d515f1-7345-41e9-b1c3-ea889825c8b7","system_id":"levelo_inurba_marseille","lat":43.29216,"lon":5.36053,"is_reserved":false,"is_disabled":false,"rental_uris":{"android":"levelo://app?vid=05d515f1-7345-41e9-b1c3-ea889825c8b7","ios":"levelo://app?vid=05d515f1-7345-41e9-b1c3-ea889825c8b7"},"vehicle_type_id":"4","last_reported":1687014345,"current_range_meters":31200,"station_id":"ce4bhbh2rcd13ifvqeqg","pricing_plan_id":"free"},{"bike_id":"cadfb3f5-a686-4637-9711-d1d518a7bfcb","system_id":"levelo_inurba_marseille","lat":43.292311,"lon":5.360731,"is_reserved":false,"is_disabled":false,"rental_uris":{"android":"levelo://app?vid=cadfb3f5-a686-4637-9711-d1d518a7bfcb","ios":"levelo://app?vid=cadfb3f5-a686-4637-9711-d1d518a7bfcb"},"vehicle_type_id":"4","last_reported":1687014345,"current_range_meters":14000,"station_id":"ce4bhbh2rcd13ifvqeqg","pricing_plan_id":"free"},{"bike_id":"30677e8d-a940-45df-8b9d-4f83ac9cbacb","system_id":"levelo_inurba_marseille","lat":43.313291,"lon":5.396838,"is_reserved":false,"is_disabled":false,"rental_uris":{"android":"levelo://app?vid=30677e8d-a940-45df-8b9d-4f83ac9cbacb","ios":"levelo://app?vid=30677e8d-a940-45df-8b9d-4f83ac9cbacb"},"vehicle_type_id":"4","last_reported":1687014345,"current_range_meters":4800,"station_id":"ce4bgvp2rcd13ifvqcu0","pricing_plan_id":"free"},{"bike_id":"7d48d57e-357c-484d-b749-dd09f371c87f","system_id":"levelo_inurba_marseille","lat":43.313291,"lon":5.396838,"is_reserved":false,"is_disabled":false,"rental_uris":{"android":"levelo://app?vid=7d48d57e-357c-484d-b749-dd09f371c87f","ios":"levelo://app?vid=7d48d57e-357c-484d-b749-dd09f371c87f"},"vehicle_type_id":"4","last_reported":1687014345,"current_range_meters":12400,"station_id":"ce4bgvp2rcd13ifvqcu0","pricing_plan_id":"free"},{"bike_id":"2b0a9305-9ada-40af-a500-87639bfa6d0f","system_id":"levelo_inurba_marseille","lat":43.309038,"lon":5.396546,"is_reserved":false,"is_disabled":false,"rental_uris":{"android":"levelo://app?vid=2b0a9305-9ada-40af-a500-87639bfa6d0f","ios":"levelo://app?vid=2b0a9305-9ada-40af-a500-87639bfa6d0f"},"vehicle_type_id":"4","last_reported":1687014345,"current_range_meters":12400,"station_id":"ce4bh012rcd13ifvqcv0","pricing_plan_id":"free"},{"bike_id":"5ee21191-62cf-4e54-9959-a252326859c3","system_id":"levelo_inurba_marseille","lat":43.309038,"lon":5.396546,"is_reserved":false,"is_disabled":false,"rental_uris":{"android":"levelo://app?vid=5ee21191-62cf-4e54-9959-a252326859c3","ios":"levelo://app?vid=5ee21191-62cf-4e54-9959-a252326859c3"},"vehicle_type_id":"4","last_reported":1687014345,"current_range_meters":26000,"station_id":"ce4bh012rcd13ifvqcv0","pricing_plan_id":"free"},{"bike_id":"dedca42d-02b6-4065-8d77-943cbf6e2f57","system_id":"levelo_inurba_marseille","lat":43.290624,"lon":5.359245,"is_reserved":false,"is_disabled":false,"rental_uris":{"android":"levelo://app?vid=dedca42d-02b6-4065-8d77-943cbf6e2f57","ios":"levelo://app?vid=dedca42d-02b6-4065-8d77-943cbf6e2f57"},"vehicle_type_id":"4","last_reported":1687014345,"current_range_meters":17200,"station_id":"ce4bha92rcd13ifvqeg0","pricing_plan_id":"free"},{"bike_id":"bca44bb1-3ec5-494b-9e5c-adccdb8cea22","system_id":"levelo_inurba_marseille","lat":43.294162,"lon":5.386292,"is_reserved":false,"is_disabled":false,"rental_uris":{"android":"levelo://app?vid=bca44bb1-3ec5-494b-9e5c-adccdb8cea22","ios":"levelo://app?vid=bca44bb1-3ec5-494b-9e5c-adccdb8cea22"},"vehicle_type_id":"4","last_reported":1687014345,"current_range_meters":22400,"station_id":"ce4bh2h2rcd13ifvqdh0","pricing_plan_id":"free"},{"bike_id":"24bb298f-d940-44f9-9d7c-66bc72c7d1b5","system_id":"levelo_inurba_marseille","lat":43.292642,"lon":5.384254,"is_reserved":false,"is_disabled":false,"rental_uris":{"android":"levelo://app?vid=24bb298f-d940-44f9-9d7c-66bc72c7d1b5","ios":"levelo://app?vid=24bb298f-d940-44f9-9d7c-66bc72c7d1b5"},"vehicle_type_id":"4","last_reported":1687014345,"current_range_meters":18400,"station_id":"ce4bh692rcd13ifvqea0","pricing_plan_id":"free"},{"bike_id":"38eb09af-7166-42b9-865e-84246929498f","system_id":"levelo_inurba_marseille","lat":43.29257,"lon":5.38441,"is_reserved":false,"is_disabled":false,"rental_uris":{"android":"levelo://app?vid=38eb09af-7166-42b9-865e-84246929498f","ios":"levelo://app?vid=38eb09af-7166-42b9-865e-84246929498f"},"vehicle_type_id":"4","last_reported":1687014345,"current_range_meters":31200,"station_id":"ce4bh692rcd13ifvqea0","pricing_plan_id":"free"},{"bike_id":"0a9f3727-b7b6-4df1-9381-2fb9c5a70d9a","system_id":"levelo_inurba_marseille","lat":43.29013,"lon":5.35608,"is_reserved":false,"is_disabled":false,"rental_uris":{"android":"levelo://app?vid=0a9f3727-b7b6-4df1-9381-2fb9c5a70d9a","ios":"levelo://app?vid=0a9f3727-b7b6-4df1-9381-2fb9c5a70d9a"},"vehicle_type_id":"4","last_reported":1687014345,"current_range_meters":400,"station_id":"ce4bhb92rcd13ifvqen0","pricing_plan_id":"free"},{"bike_id":"8ff6b0fe-232a-4a1e-b233-188c70e9c997","system_id":"levelo_inurba_marseille","lat":43.33047,"lon":5.38911,"is_reserved":false,"is_disabled":false,"rental_uris":{"android":"levelo://app?vid=8ff6b0fe-232a-4a1e-b233-188c70e9c997","ios":"levelo://app?vid=8ff6b0fe-232a-4a1e-b233-188c70e9c997"},"vehicle_type_id":"4","last_reported":1687014345,"current_range_meters":25200,"station_id":"ce4bhr92rcd13ifvqhrg","pricing_plan_id":"free"},{"bike_id":"eb737b81-9d95-4908-8c4f-a345532cff37","system_id":"levelo_inurba_marseille","lat":43.29005,"lon":5.35615,"is_reserved":false,"is_disabled":false,"rental_uris":{"android":"levelo://app?vid=eb737b81-9d95-4908-8c4f-a345532cff37","ios":"levelo://app?vid=eb737b81-9d95-4908-8c4f-a345532cff37"},"vehicle_type_id":"4","last_reported":1687014345,"current_range_meters":19600,"station_id":"ce4bhb92rcd13ifvqen0","pricing_plan_id":"free"},{"bike_id":"5e3dcc35-69ca-43bb-bc97-6585c179f53b","system_id":"levelo_inurba_marseille","lat":43.290103,"lon":5.356114,"is_reserved":false,"is_disabled":false,"rental_uris":{"android":"levelo://app?vid=5e3dcc35-69ca-43bb-bc97-6585c179f53b","ios":"levelo://app?vid=5e3dcc35-69ca-43bb-bc97-6585c179f53b"},"vehicle_type_id":"4","last_reported":1687014345,"current_range_meters":0,"station_id":"ce4bhb92rcd13ifvqen0","pricing_plan_id":"free"},{"bike_id":"d3fe2959-969c-499f-96fc-bc7ee53a9fb4","system_id":"levelo_inurba_marseille","lat":43.290103,"lon":5.356114,"is_reserved":false,"is_disabled":false,"rental_uris":{"android":"levelo://app?vid=d3fe2959-969c-499f-96fc-bc7ee53a9fb4","ios":"levelo://app?vid=d3fe2959-969c-499f-96fc-bc7ee53a9fb4"},"vehicle_type_id":"4","last_reported":1687014345,"current_range_meters":0,"station_id":"ce4bhb92rcd13ifvqen0","pricing_plan_id":"free"},{"bike_id":"55bebb4c-3e4f-4450-a178-9103a47ad75b","system_id":"levelo_inurba_marseille","lat":43.289743,"lon":5.378304,"is_reserved":false,"is_disabled":false,"rental_uris":{"android":"levelo://app?vid=55bebb4c-3e4f-4450-a178-9103a47ad75b","ios":"levelo://app?vid=55bebb4c-3e4f-4450-a178-9103a47ad75b"},"vehicle_type_id":"4","last_reported":1687014345,"current_range_meters":3600,"station_id":"ce4bh9p2rcd13ifvqed0","pricing_plan_id":"free"},{"bike_id":"40a5ef07-271d-4d6d-bd61-f23c200a388b","system_id":"levelo_inurba_marseille","lat":43.289743,"lon":5.378304,"is_reserved":false,"is_disabled":false,"rental_uris":{"android":"levelo://app?vid=40a5ef07-271d-4d6d-bd61-f23c200a388b","ios":"levelo://app?vid=40a5ef07-271d-4d6d-bd61-f23c200a388b"},"vehicle_type_id":"4","last_reported":1687014345,"current_range_meters":20800,"station_id":"ce4bh9p2rcd13ifvqed0","pricing_plan_id":"free"},{"bike_id":"0e54d5a6-9273-4611-bdc2-c60b8fbbdc0a","system_id":"levelo_inurba_marseille","lat":43.289741,"lon":5.378306,"is_reserved":false,"is_disabled":false,"rental_uris":{"android":"levelo://app?vid=0e54d5a6-9273-4611-bdc2-c60b8fbbdc0a","ios":"levelo://app?vid=0e54d5a6-9273-4611-bdc2-c60b8fbbdc0a"},"vehicle_type_id":"4","last_reported":1687014345,"current_range_meters":8400,"station_id":"ce4bh9p2rcd13ifvqed0","pricing_plan_id":"free"},{"bike_id":"b9b44b37-7edf-4ab6-8685-17eb58a26dbc","system_id":"levelo_inurba_marseille","lat":43.295169,"lon":5.390426,"is_reserved":false,"is_disabled":false,"rental_uris":{"android":"levelo://app?vid=b9b44b37-7edf-4ab6-8685-17eb58a26dbc","ios":"levelo://app?vid=b9b44b37-7edf-4ab6-8685-17eb58a26dbc"},"vehicle_type_id":"4","last_reported":1687014345,"current_range_meters":30000,"station_id":"ce4bh3p2rcd13ifvqdp0","pricing_plan_id":"free"},{"bike_id":"c0fb8083-e02d-4dec-b1b9-fa095e6c5b75","system_id":"levelo_inurba_marseille","lat":43.337396,"lon":5.374526,"is_reserved":false,"is_disabled":false,"rental_uris":{"android":"levelo://app?vid=c0fb8083-e02d-4dec-b1b9-fa095e6c5b75","ios":"levelo://app?vid=c0fb8083-e02d-4dec-b1b9-fa095e6c5b75"},"vehicle_type_id":"4","last_reported":1687014345,"current_range_meters":0,"station_id":"ce4bhp92rcd13ifvqhag","pricing_plan_id":"free"},{"bike_id":"dae48393-4378-4a86-9a27-81287200e974","system_id":"levelo_inurba_marseille","lat":43.309371,"lon":5.401449,"is_reserved":false,"is_disabled":false,"rental_uris":{"android":"levelo://app?vid=dae48393-4378-4a86-9a27-81287200e974","ios":"levelo://app?vid=dae48393-4378-4a86-9a27-81287200e974"},"vehicle_type_id":"4","last_reported":1687014345,"current_range_meters":25200,"station_id":"ce4bgvp2rcd13ifvqct0","pricing_plan_id":"free"},{"bike_id":"41a8749b-6d93-4d1b-8e52-c5f60f65ae7c","system_id":"levelo_inurba_marseille","lat":43.33752,"lon":5.37443,"is_reserved":false,"is_disabled":false,"rental_uris":{"android":"levelo://app?vid=41a8749b-6d93-4d1b-8e52-c5f60f65ae7c","ios":"levelo://app?vid=41a8749b-6d93-4d1b-8e52-c5f60f65ae7c"},"vehicle_type_id":"4","last_reported":1687014345,"current_range_meters":30400,"station_id":"","pricing_plan_id":"free"},{"bike_id":"99ea9177-87ac-4b4e-9a31-24760eb11967","system_id":"levelo_inurba_marseille","lat":43.30642,"lon":5.401031,"is_reserved":false,"is_disabled":false,"rental_uris":{"android":"levelo://app?vid=99ea9177-87ac-4b4e-9a31-24760eb11967","ios":"levelo://app?vid=99ea9177-87ac-4b4e-9a31-24760eb11967"},"vehicle_type_id":"4","last_reported":1687014345,"current_range_meters":14400,"station_id":"ce4bh112rcd13ifvqda0","pricing_plan_id":"free"},{"bike_id":"4db4aa43-4d58-4d2d-bb7f-8e032fe278f0","system_id":"levelo_inurba_marseille","lat":43.30642,"lon":5.401031,"is_reserved":false,"is_disabled":false,"rental_uris":{"android":"levelo://app?vid=4db4aa43-4d58-4d2d-bb7f-8e032fe278f0","ios":"levelo://app?vid=4db4aa43-4d58-4d2d-bb7f-8e032fe278f0"},"vehicle_type_id":"4","last_reported":1687014345,"current_range_meters":16800,"station_id":"ce4bh112rcd13ifvqda0","pricing_plan_id":"free"},{"bike_id":"ef8ffb3c-e492-4807-b400-bb9c309f5e0c","system_id":"levelo_inurba_marseille","lat":43.30242,"lon":5.40042,"is_reserved":false,"is_disabled":false,"rental_uris":{"android":"levelo://app?vid=ef8ffb3c-e492-4807-b400-bb9c309f5e0c","ios":"levelo://app?vid=ef8ffb3c-e492-4807-b400-bb9c309f5e0c"},"vehicle_type_id":"4","last_reported":1687014345,"current_range_meters":13600,"station_id":"ce4bgvh2rcd13ifvqcs0","pricing_plan_id":"free"},{"bike_id":"e30f7f76-9506-4154-ac6c-e9bff1e98f11","system_id":"levelo_inurba_marseille","lat":43.290345,"lon":5.38646,"is_reserved":false,"is_disabled":false,"rental_uris":{"android":"levelo://app?vid=e30f7f76-9506-4154-ac6c-e9bff1e98f11","ios":"levelo://app?vid=e30f7f76-9506-4154-ac6c-e9bff1e98f11"},"vehicle_type_id":"4","last_reported":1687014345,"current_range_meters":0,"station_id":"ce4bh4p2rcd13ifvqe0g","pricing_plan_id":"free"},{"bike_id":"ce79e27e-594f-4c83-962d-3b2a4edd19f2","system_id":"levelo_inurba_marseille","lat":43.284534,"lon":5.358662,"is_reserved":false,"is_disabled":false,"rental_uris":{"android":"levelo://app?vid=ce79e27e-594f-4c83-962d-3b2a4edd19f2","ios":"levelo://app?vid=ce79e27e-594f-4c83-962d-3b2a4edd19f2"},"vehicle_type_id":"4","last_reported":1687014345,"current_range_meters":18000,"station_id":"ce4bhah2rcd13ifvqei0","pricing_plan_id":"free"},{"bike_id":"2cdef9a6-a2ff-482e-b471-da20af1df5b2","system_id":"levelo_inurba_marseille","lat":43.284534,"lon":5.358662,"is_reserved":false,"is_disabled":false,"rental_uris":{"android":"levelo://app?vid=2cdef9a6-a2ff-482e-b471-da20af1df5b2","ios":"levelo://app?vid=2cdef9a6-a2ff-482e-b471-da20af1df5b2"},"vehicle_type_id":"4","last_reported":1687014345,"current_range_meters":14400,"station_id":"ce4bhah2rcd13ifvqei0","pricing_plan_id":"free"},{"bike_id":"93a1e2ed-0a69-4426-ab28-6d081c3f5e6f","system_id":"levelo_inurba_marseille","lat":43.284534,"lon":5.358662,"is_reserved":false,"is_disabled":false,"rental_uris":{"android":"levelo://app?vid=93a1e2ed-0a69-4426-ab28-6d081c3f5e6f","ios":"levelo://app?vid=93a1e2ed-0a69-4426-ab28-6d081c3f5e6f"},"vehicle_type_id":"4","last_reported":1687014345,"current_range_meters":1600,"station_id":"ce4bhah2rcd13ifvqei0","pricing_plan_id":"free"},{"bike_id":"94f0d368-9778-41f4-82fb-15ad70586003","system_id":"levelo_inurba_marseille","lat":43.284534,"lon":5.358662,"is_reserved":false,"is_disabled":false,"rental_uris":{"android":"levelo://app?vid=94f0d368-9778-41f4-82fb-15ad70586003","ios":"levelo://app?vid=94f0d368-9778-41f4-82fb-15ad70586003"},"vehicle_type_id":"4","last_reported":1687014345,"current_range_meters":22400,"station_id":"ce4bhah2rcd13ifvqei0","pricing_plan_id":"free"},{"bike_id":"9f320d6d-da04-4d94-8ac8-b35d7ee66014","system_id":"levelo_inurba_marseille","lat":43.285856,"lon":5.350771,"is_reserved":false,"is_disabled":false,"rental_uris":{"android":"levelo://app?vid=9f320d6d-da04-4d94-8ac8-b35d7ee66014","ios":"levelo://app?vid=9f320d6d-da04-4d94-8ac8-b35d7ee66014"},"vehicle_type_id":"4","last_reported":1687014345,"current_range_meters":0,"station_id":"ce4bhch2rcd13ifvqeug","pricing_plan_id":"free"},{"bike_id":"0b372678-fda7-490b-a5e7-13f6eb8c75cc","system_id":"levelo_inurba_marseille","lat":43.28618,"lon":5.351,"is_reserved":false,"is_disabled":false,"rental_uris":{"android":"levelo://app?vid=0b372678-fda7-490b-a5e7-13f6eb8c75cc","ios":"levelo://app?vid=0b372678-fda7-490b-a5e7-13f6eb8c75cc"},"vehicle_type_id":"4","last_reported":1687014345,"current_range_meters":31200,"station_id":"ce4bhch2rcd13ifvqeug","pricing_plan_id":"free"},{"bike_id":"f597ebd4-b9f2-4420-af16-2c1b7ee694e3","system_id":"levelo_inurba_marseille","lat":43.28616,"lon":5.351,"is_reserved":false,"is_disabled":false,"rental_uris":{"android":"levelo://app?vid=f597ebd4-b9f2-4420-af16-2c1b7ee694e3","ios":"levelo://app?vid=f597ebd4-b9f2-4420-af16-2c1b7ee694e3"},"vehicle_type_id":"4","last_reported":1687014345,"current_range_meters":31200,"station_id":"ce4bhch2rcd13ifvqeug","pricing_plan_id":"free"},{"bike_id":"484fe724-2907-4688-a2be-01725f0d48d6","system_id":"levelo_inurba_marseille","lat":43.285848,"lon":5.350787,"is_reserved":false,"is_disabled":false,"rental_uris":{"android":"levelo://app?vid=484fe724-2907-4688-a2be-01725f0d48d6","ios":"levelo://app?vid=484fe724-2907-4688-a2be-01725f0d48d6"},"vehicle_type_id":"4","last_reported":1687014345,"current_range_meters":24400,"station_id":"ce4bhch2rcd13ifvqeug","pricing_plan_id":"free"},{"bike_id":"3adc8c77-15a0-42e6-b8d4-1b6d4bacad7d","system_id":"levelo_inurba_marseille","lat":43.285848,"lon":5.350787,"is_reserved":false,"is_disabled":false,"rental_uris":{"android":"levelo://app?vid=3adc8c77-15a0-42e6-b8d4-1b6d4bacad7d","ios":"levelo://app?vid=3adc8c77-15a0-42e6-b8d4-1b6d4bacad7d"},"vehicle_type_id":"4","last_reported":1687014345,"current_range_meters":6400,"station_id":"ce4bhch2rcd13ifvqeug","pricing_plan_id":"free"},{"bike_id":"23ca1264-3141-4a43-911c-d35143a89a89","system_id":"levelo_inurba_marseille","lat":43.285848,"lon":5.350787,"is_reserved":false,"is_disabled":false,"rental_uris":{"android":"levelo://app?vid=23ca1264-3141-4a43-911c-d35143a89a89","ios":"levelo://app?vid=23ca1264-3141-4a43-911c-d35143a89a89"},"vehicle_type_id":"4","last_reported":1687014345,"current_range_meters":29600,"station_id":"ce4bhch2rcd13ifvqeug","pricing_plan_id":"free"},{"bike_id":"892c1571-6ac3-4749-97a6-2e78bfa9efbb","system_id":"levelo_inurba_marseille","lat":43.2861,"lon":5.35102,"is_reserved":false,"is_disabled":false,"rental_uris":{"android":"levelo://app?vid=892c1571-6ac3-4749-97a6-2e78bfa9efbb","ios":"levelo://app?vid=892c1571-6ac3-4749-97a6-2e78bfa9efbb"},"vehicle_type_id":"4","last_reported":1687014345,"current_range_meters":31200,"station_id":"ce4bhch2rcd13ifvqeug","pricing_plan_id":"free"},{"bike_id":"6478c3c5-d713-4eb3-a528-563e5c16a5b2","system_id":"levelo_inurba_marseille","lat":43.28612,"lon":5.350922,"is_reserved":false,"is_disabled":false,"rental_uris":{"android":"levelo://app?vid=6478c3c5-d713-4eb3-a528-563e5c16a5b2","ios":"levelo://app?vid=6478c3c5-d713-4eb3-a528-563e5c16a5b2"},"vehicle_type_id":"4","last_reported":1687014345,"current_range_meters":20000,"station_id":"ce4bhch2rcd13ifvqeug","pricing_plan_id":"free"},{"bike_id":"43275ef6-770c-4f0e-926c-1c3aecd7abec","system_id":"levelo_inurba_marseille","lat":43.287909,"lon":5.390554,"is_reserved":false,"is_disabled":false,"rental_uris":{"android":"levelo://app?vid=43275ef6-770c-4f0e-926c-1c3aecd7abec","ios":"levelo://app?vid=43275ef6-770c-4f0e-926c-1c3aecd7abec"},"vehicle_type_id":"4","last_reported":1687014345,"current_range_meters":16000,"station_id":"","pricing_plan_id":"free"},{"bike_id":"16e5fedd-6e86-436a-a0a2-72c7cd60a6ea","system_id":"levelo_inurba_marseille","lat":43.323464,"lon":5.406297,"is_reserved":false,"is_disabled":false,"rental_uris":{"android":"levelo://app?vid=16e5fedd-6e86-436a-a0a2-72c7cd60a6ea","ios":"levelo://app?vid=16e5fedd-6e86-436a-a0a2-72c7cd60a6ea"},"vehicle_type_id":"4","last_reported":1687014345,"current_range_meters":29200,"station_id":"ce4bhq92rcd13ifvqhjg","pricing_plan_id":"free"},{"bike_id":"2d2f1562-e430-4831-89cd-68773aa94ae9","system_id":"levelo_inurba_marseille","lat":43.284787,"lon":5.384116,"is_reserved":false,"is_disabled":false,"rental_uris":{"android":"levelo://app?vid=2d2f1562-e430-4831-89cd-68773aa94ae9","ios":"levelo://app?vid=2d2f1562-e430-4831-89cd-68773aa94ae9"},"vehicle_type_id":"4","last_reported":1687014345,"current_range_meters":27600,"station_id":"ce4bh512rcd13ifvqe3g","pricing_plan_id":"free"},{"bike_id":"c3809d42-9269-4fe2-9485-b6efe569b8f5","system_id":"levelo_inurba_marseille","lat":43.284787,"lon":5.384116,"is_reserved":false,"is_disabled":false,"rental_uris":{"android":"levelo://app?vid=c3809d42-9269-4fe2-9485-b6efe569b8f5","ios":"levelo://app?vid=c3809d42-9269-4fe2-9485-b6efe569b8f5"},"vehicle_type_id":"4","last_reported":1687014345,"current_range_meters":25200,"station_id":"ce4bh512rcd13ifvqe3g","pricing_plan_id":"free"},{"bike_id":"ce90906d-bd93-471c-9caf-b8730e61a218","system_id":"levelo_inurba_marseille","lat":43.288501,"lon":5.393087,"is_reserved":false,"is_disabled":false,"rental_uris":{"android":"levelo://app?vid=ce90906d-bd93-471c-9caf-b8730e61a218","ios":"levelo://app?vid=ce90906d-bd93-471c-9caf-b8730e61a218"},"vehicle_type_id":"4","last_reported":1687014345,"current_range_meters":0,"station_id":"ce4bh2p2rcd13ifvqdi0","pricing_plan_id":"free"},{"bike_id":"00b4d942-d645-4a17-a320-9c02b5ecca68","system_id":"levelo_inurba_marseille","lat":43.288501,"lon":5.393087,"is_reserved":false,"is_disabled":false,"rental_uris":{"android":"levelo://app?vid=00b4d942-d645-4a17-a320-9c02b5ecca68","ios":"levelo://app?vid=00b4d942-d645-4a17-a320-9c02b5ecca68"},"vehicle_type_id":"4","last_reported":1687014345,"current_range_meters":25600,"station_id":"ce4bh2p2rcd13ifvqdi0","pricing_plan_id":"free"},{"bike_id":"ee275bf5-8273-44ac-9a03-6c9617d6b907","system_id":"levelo_inurba_marseille","lat":43.28424,"lon":5.34982,"is_reserved":false,"is_disabled":false,"rental_uris":{"android":"levelo://app?vid=ee275bf5-8273-44ac-9a03-6c9617d6b907","ios":"levelo://app?vid=ee275bf5-8273-44ac-9a03-6c9617d6b907"},"vehicle_type_id":"4","last_reported":1687014345,"current_range_meters":31200,"station_id":"ce4bhbh2rcd13ifvqepg","pricing_plan_id":"free"},{"bike_id":"c6a5dbc9-5178-4bf9-a30c-9a6ffb20ffaf","system_id":"levelo_inurba_marseille","lat":43.28419,"lon":5.34975,"is_reserved":false,"is_disabled":false,"rental_uris":{"android":"levelo://app?vid=c6a5dbc9-5178-4bf9-a30c-9a6ffb20ffaf","ios":"levelo://app?vid=c6a5dbc9-5178-4bf9-a30c-9a6ffb20ffaf"},"vehicle_type_id":"4","last_reported":1687014345,"current_range_meters":20000,"station_id":"ce4bhbh2rcd13ifvqepg","pricing_plan_id":"free"},{"bike_id":"5787cafe-4bbb-414f-a74c-bc76d1c07f82","system_id":"levelo_inurba_marseille","lat":43.28406,"lon":5.34969,"is_reserved":false,"is_disabled":false,"rental_uris":{"android":"levelo://app?vid=5787cafe-4bbb-414f-a74c-bc76d1c07f82","ios":"levelo://app?vid=5787cafe-4bbb-414f-a74c-bc76d1c07f82"},"vehicle_type_id":"4","last_reported":1687014345,"current_range_meters":4400,"station_id":"ce4bhbh2rcd13ifvqepg","pricing_plan_id":"free"},{"bike_id":"3d693432-ef53-4f06-bcec-7bb9bbc1e5e6","system_id":"levelo_inurba_marseille","lat":43.33919,"lon":5.39064,"is_reserved":false,"is_disabled":false,"rental_uris":{"android":"levelo://app?vid=3d693432-ef53-4f06-bcec-7bb9bbc1e5e6","ios":"levelo://app?vid=3d693432-ef53-4f06-bcec-7bb9bbc1e5e6"},"vehicle_type_id":"4","last_reported":1687014345,"current_range_meters":20800,"station_id":"","pricing_plan_id":"free"},{"bike_id":"3fce86f7-6126-496d-a212-e1f0aee604f0","system_id":"levelo_inurba_marseille","lat":43.28274,"lon":5.35063,"is_reserved":false,"is_disabled":false,"rental_uris":{"android":"levelo://app?vid=3fce86f7-6126-496d-a212-e1f0aee604f0","ios":"levelo://app?vid=3fce86f7-6126-496d-a212-e1f0aee604f0"},"vehicle_type_id":"4","last_reported":1687014345,"current_range_meters":11600,"station_id":"ce4bhbp2rcd13ifvqerg","pricing_plan_id":"free"},{"bike_id":"6764f31f-3f5c-436c-bc36-d71d88e6a329","system_id":"levelo_inurba_marseille","lat":43.282754,"lon":5.350519,"is_reserved":false,"is_disabled":false,"rental_uris":{"android":"levelo://app?vid=6764f31f-3f5c-436c-bc36-d71d88e6a329","ios":"levelo://app?vid=6764f31f-3f5c-436c-bc36-d71d88e6a329"},"vehicle_type_id":"4","last_reported":1687014345,"current_range_meters":4000,"station_id":"ce4bhbp2rcd13ifvqerg","pricing_plan_id":"free"},{"bike_id":"fb2e6138-7a4c-43fe-ab6c-f844b18c24e5","system_id":"levelo_inurba_marseille","lat":43.28269,"lon":5.35066,"is_reserved":false,"is_disabled":false,"rental_uris":{"android":"levelo://app?vid=fb2e6138-7a4c-43fe-ab6c-f844b18c24e5","ios":"levelo://app?vid=fb2e6138-7a4c-43fe-ab6c-f844b18c24e5"},"vehicle_type_id":"4","last_reported":1687014345,"current_range_meters":30400,"station_id":"ce4bhbp2rcd13ifvqerg","pricing_plan_id":"free"},{"bike_id":"b4d971b0-ece6-4c24-91c5-846c399eb313","system_id":"levelo_inurba_marseille","lat":43.28268,"lon":5.35061,"is_reserved":false,"is_disabled":false,"rental_uris":{"android":"levelo://app?vid=b4d971b0-ece6-4c24-91c5-846c399eb313","ios":"levelo://app?vid=b4d971b0-ece6-4c24-91c5-846c399eb313"},"vehicle_type_id":"4","last_reported":1687014345,"current_range_meters":20000,"station_id":"ce4bhbp2rcd13ifvqerg","pricing_plan_id":"free"},{"bike_id":"df5d6afe-3094-44e1-a3c5-a3bd1cbcd0f4","system_id":"levelo_inurba_marseille","lat":43.282754,"lon":5.350519,"is_reserved":false,"is_disabled":false,"rental_uris":{"android":"levelo://app?vid=df5d6afe-3094-44e1-a3c5-a3bd1cbcd0f4","ios":"levelo://app?vid=df5d6afe-3094-44e1-a3c5-a3bd1cbcd0f4"},"vehicle_type_id":"4","last_reported":1687014345,"current_range_meters":14400,"station_id":"ce4bhbp2rcd13ifvqerg","pricing_plan_id":"free"},{"bike_id":"1604c814-44e4-4147-a0b4-2fd4e684219c","system_id":"levelo_inurba_marseille","lat":43.282744,"lon":5.350533,"is_reserved":false,"is_disabled":false,"rental_uris":{"android":"levelo://app?vid=1604c814-44e4-4147-a0b4-2fd4e684219c","ios":"levelo://app?vid=1604c814-44e4-4147-a0b4-2fd4e684219c"},"vehicle_type_id":"4","last_reported":1687014345,"current_range_meters":0,"station_id":"ce4bhbp2rcd13ifvqerg","pricing_plan_id":"free"},{"bike_id":"f1a5c071-b29b-4fd5-924e-668914d5b60b","system_id":"levelo_inurba_marseille","lat":43.282754,"lon":5.350519,"is_reserved":false,"is_disabled":false,"rental_uris":{"android":"levelo://app?vid=f1a5c071-b29b-4fd5-924e-668914d5b60b","ios":"levelo://app?vid=f1a5c071-b29b-4fd5-924e-668914d5b60b"},"vehicle_type_id":"4","last_reported":1687014345,"current_range_meters":400,"station_id":"ce4bhbp2rcd13ifvqerg","pricing_plan_id":"free"},{"bike_id":"97070125-69f4-4cd6-b26f-b883f4d6a981","system_id":"levelo_inurba_marseille","lat":43.28097,"lon":5.37836,"is_reserved":false,"is_disabled":false,"rental_uris":{"android":"levelo://app?vid=97070125-69f4-4cd6-b26f-b883f4d6a981","ios":"levelo://app?vid=97070125-69f4-4cd6-b26f-b883f4d6a981"},"vehicle_type_id":"4","last_reported":1687014345,"current_range_meters":0,"station_id":"ce4bha12rcd13ifvqee0","pricing_plan_id":"free"},{"bike_id":"80781f6e-5627-4f20-ae16-8ad2d255eaea","system_id":"levelo_inurba_marseille","lat":43.284462,"lon":5.392121,"is_reserved":false,"is_disabled":false,"rental_uris":{"android":"levelo://app?vid=80781f6e-5627-4f20-ae16-8ad2d255eaea","ios":"levelo://app?vid=80781f6e-5627-4f20-ae16-8ad2d255eaea"},"vehicle_type_id":"4","last_reported":1687014345,"current_range_meters":31200,"station_id":"ce4bhoh2rcd13ifvqh5g","pricing_plan_id":"free"},{"bike_id":"3aa79c71-4c9a-4080-9326-837dc8dc5229","system_id":"levelo_inurba_marseille","lat":43.284462,"lon":5.392121,"is_reserved":false,"is_disabled":false,"rental_uris":{"android":"levelo://app?vid=3aa79c71-4c9a-4080-9326-837dc8dc5229","ios":"levelo://app?vid=3aa79c71-4c9a-4080-9326-837dc8dc5229"},"vehicle_type_id":"4","last_reported":1687014345,"current_range_meters":12400,"station_id":"ce4bhoh2rcd13ifvqh5g","pricing_plan_id":"free"},{"bike_id":"d7d03500-9713-4fb6-aad6-7d3eb9c13101","system_id":"levelo_inurba_marseille","lat":43.28573,"lon":5.394992,"is_reserved":false,"is_disabled":false,"rental_uris":{"android":"levelo://app?vid=d7d03500-9713-4fb6-aad6-7d3eb9c13101","ios":"levelo://app?vid=d7d03500-9713-4fb6-aad6-7d3eb9c13101"},"vehicle_type_id":"4","last_reported":1687014345,"current_range_meters":26400,"station_id":"ce4bh292rcd13ifvqdg0","pricing_plan_id":"free"},{"bike_id":"d8fa76e8-69ea-4286-bd3a-0135edfb363e","system_id":"levelo_inurba_marseille","lat":43.32659,"lon":5.40991,"is_reserved":false,"is_disabled":false,"rental_uris":{"android":"levelo://app?vid=d8fa76e8-69ea-4286-bd3a-0135edfb363e","ios":"levelo://app?vid=d8fa76e8-69ea-4286-bd3a-0135edfb363e"},"vehicle_type_id":"4","last_reported":1687014345,"current_range_meters":21600,"station_id":"ce4bhpp2rcd13ifvqhgg","pricing_plan_id":"free"},{"bike_id":"1fbc387b-3662-43be-bf02-35ff8bceccb8","system_id":"levelo_inurba_marseille","lat":43.32661,"lon":5.40993,"is_reserved":false,"is_disabled":false,"rental_uris":{"android":"levelo://app?vid=1fbc387b-3662-43be-bf02-35ff8bceccb8","ios":"levelo://app?vid=1fbc387b-3662-43be-bf02-35ff8bceccb8"},"vehicle_type_id":"4","last_reported":1687014345,"current_range_meters":23600,"station_id":"ce4bhpp2rcd13ifvqhgg","pricing_plan_id":"free"},{"bike_id":"9eaa33b2-7ac8-4c00-9d6c-bdc5a7be5d5e","system_id":"levelo_inurba_marseille","lat":43.304188,"lon":5.412904,"is_reserved":false,"is_disabled":false,"rental_uris":{"android":"levelo://app?vid=9eaa33b2-7ac8-4c00-9d6c-bdc5a7be5d5e","ios":"levelo://app?vid=9eaa33b2-7ac8-4c00-9d6c-bdc5a7be5d5e"},"vehicle_type_id":"4","last_reported":1687014345,"current_range_meters":30000,"station_id":"ce4bhop2rcd13ifvqh8g","pricing_plan_id":"free"},{"bike_id":"d387964b-e4e3-4438-86a8-308448b75ebe","system_id":"levelo_inurba_marseille","lat":43.287154,"lon":5.399979,"is_reserved":false,"is_disabled":false,"rental_uris":{"android":"levelo://app?vid=d387964b-e4e3-4438-86a8-308448b75ebe","ios":"levelo://app?vid=d387964b-e4e3-4438-86a8-308448b75ebe"},"vehicle_type_id":"4","last_reported":1687014345,"current_range_meters":9600,"station_id":"ce4bho92rcd13ifvqh3g","pricing_plan_id":"free"},{"bike_id":"abf548df-b314-4f37-9342-e2dca92fa292","system_id":"levelo_inurba_marseille","lat":43.299579,"lon":5.413255,"is_reserved":false,"is_disabled":false,"rental_uris":{"android":"levelo://app?vid=abf548df-b314-4f37-9342-e2dca92fa292","ios":"levelo://app?vid=abf548df-b314-4f37-9342-e2dca92fa292"},"vehicle_type_id":"4","last_reported":1687014345,"current_range_meters":31200,"station_id":"ce4bhp12rcd13ifvqh9g","pricing_plan_id":"free"},{"bike_id":"18b3eb8c-feab-48c4-a061-9385fa7e48b9","system_id":"levelo_inurba_marseille","lat":43.299579,"lon":5.413255,"is_reserved":false,"is_disabled":false,"rental_uris":{"android":"levelo://app?vid=18b3eb8c-feab-48c4-a061-9385fa7e48b9","ios":"levelo://app?vid=18b3eb8c-feab-48c4-a061-9385fa7e48b9"},"vehicle_type_id":"4","last_reported":1687014345,"current_range_meters":31200,"station_id":"ce4bhp12rcd13ifvqh9g","pricing_plan_id":"free"},{"bike_id":"28be33be-df8a-4ede-9278-dd9e345e9331","system_id":"levelo_inurba_marseille","lat":43.299579,"lon":5.413255,"is_reserved":false,"is_disabled":false,"rental_uris":{"android":"levelo://app?vid=28be33be-df8a-4ede-9278-dd9e345e9331","ios":"levelo://app?vid=28be33be-df8a-4ede-9278-dd9e345e9331"},"vehicle_type_id":"4","last_reported":1687014345,"current_range_meters":26000,"station_id":"ce4bhp12rcd13ifvqh9g","pricing_plan_id":"free"},{"bike_id":"ebbb5510-be00-44d7-a0c9-8c936e286a2e","system_id":"levelo_inurba_marseille","lat":43.299579,"lon":5.413255,"is_reserved":false,"is_disabled":false,"rental_uris":{"android":"levelo://app?vid=ebbb5510-be00-44d7-a0c9-8c936e286a2e","ios":"levelo://app?vid=ebbb5510-be00-44d7-a0c9-8c936e286a2e"},"vehicle_type_id":"4","last_reported":1687014345,"current_range_meters":27200,"station_id":"ce4bhp12rcd13ifvqh9g","pricing_plan_id":"free"},{"bike_id":"179147e5-9930-4921-91eb-6392e8b15cff","system_id":"levelo_inurba_marseille","lat":43.299579,"lon":5.413255,"is_reserved":false,"is_disabled":false,"rental_uris":{"android":"levelo://app?vid=179147e5-9930-4921-91eb-6392e8b15cff","ios":"levelo://app?vid=179147e5-9930-4921-91eb-6392e8b15cff"},"vehicle_type_id":"4","last_reported":1687014345,"current_range_meters":31200,"station_id":"ce4bhp12rcd13ifvqh9g","pricing_plan_id":"free"},{"bike_id":"7817c0c7-ad79-488d-82b3-8f9baa5d7df2","system_id":"levelo_inurba_marseille","lat":43.325233,"lon":5.414318,"is_reserved":false,"is_disabled":false,"rental_uris":{"android":"levelo://app?vid=7817c0c7-ad79-488d-82b3-8f9baa5d7df2","ios":"levelo://app?vid=7817c0c7-ad79-488d-82b3-8f9baa5d7df2"},"vehicle_type_id":"4","last_reported":1687014345,"current_range_meters":25600,"station_id":"ce4bhq12rcd13ifvqhhg","pricing_plan_id":"free"},{"bike_id":"dd3751e1-c15e-43ff-a25c-87908b3757c5","system_id":"levelo_inurba_marseille","lat":43.27618,"lon":5.361009,"is_reserved":false,"is_disabled":false,"rental_uris":{"android":"levelo://app?vid=dd3751e1-c15e-43ff-a25c-87908b3757c5","ios":"levelo://app?vid=dd3751e1-c15e-43ff-a25c-87908b3757c5"},"vehicle_type_id":"4","last_reported":1687014345,"current_range_meters":19200,"station_id":"ce4bgj92rcd13ifvqbe0","pricing_plan_id":"free"},{"bike_id":"166ade1b-8c6d-4e2b-a66d-8d408b4742bb","system_id":"levelo_inurba_marseille","lat":43.27618,"lon":5.361009,"is_reserved":false,"is_disabled":false,"rental_uris":{"android":"levelo://app?vid=166ade1b-8c6d-4e2b-a66d-8d408b4742bb","ios":"levelo://app?vid=166ade1b-8c6d-4e2b-a66d-8d408b4742bb"},"vehicle_type_id":"4","last_reported":1687014345,"current_range_meters":24800,"station_id":"ce4bgj92rcd13ifvqbe0","pricing_plan_id":"free"},{"bike_id":"7e277862-a4fe-4469-9033-1ef963d94383","system_id":"levelo_inurba_marseille","lat":43.276179,"lon":5.361009,"is_reserved":false,"is_disabled":false,"rental_uris":{"android":"levelo://app?vid=7e277862-a4fe-4469-9033-1ef963d94383","ios":"levelo://app?vid=7e277862-a4fe-4469-9033-1ef963d94383"},"vehicle_type_id":"4","last_reported":1687014345,"current_range_meters":10000,"station_id":"ce4bgj92rcd13ifvqbe0","pricing_plan_id":"free"},{"bike_id":"3e8cc5e9-b826-4dad-ae60-578af092ad3b","system_id":"levelo_inurba_marseille","lat":43.303837,"lon":5.418724,"is_reserved":false,"is_disabled":false,"rental_uris":{"android":"levelo://app?vid=3e8cc5e9-b826-4dad-ae60-578af092ad3b","ios":"levelo://app?vid=3e8cc5e9-b826-4dad-ae60-578af092ad3b"},"vehicle_type_id":"4","last_reported":1687014345,"current_range_meters":31600,"station_id":"ce4bhop2rcd13ifvqh7g","pricing_plan_id":"free"},{"bike_id":"54c19fc5-0df3-4aa8-86a5-aeb7ce213710","system_id":"levelo_inurba_marseille","lat":43.27383,"lon":5.36254,"is_reserved":false,"is_disabled":false,"rental_uris":{"android":"levelo://app?vid=54c19fc5-0df3-4aa8-86a5-aeb7ce213710","ios":"levelo://app?vid=54c19fc5-0df3-4aa8-86a5-aeb7ce213710"},"vehicle_type_id":"4","last_reported":1687014345,"current_range_meters":5200,"station_id":"","pricing_plan_id":"free"},{"bike_id":"d0f6ad9d-7425-4c7a-9ee3-a0df99bacdae","system_id":"levelo_inurba_marseille","lat":43.27382,"lon":5.36254,"is_reserved":false,"is_disabled":false,"rental_uris":{"android":"levelo://app?vid=d0f6ad9d-7425-4c7a-9ee3-a0df99bacdae","ios":"levelo://app?vid=d0f6ad9d-7425-4c7a-9ee3-a0df99bacdae"},"vehicle_type_id":"4","last_reported":1687014345,"current_range_meters":31200,"station_id":"","pricing_plan_id":"free"},{"bike_id":"dde73559-3ab5-4160-b9bd-2643cd3772dd","system_id":"levelo_inurba_marseille","lat":43.27381,"lon":5.36255,"is_reserved":false,"is_disabled":false,"rental_uris":{"android":"levelo://app?vid=dde73559-3ab5-4160-b9bd-2643cd3772dd","ios":"levelo://app?vid=dde73559-3ab5-4160-b9bd-2643cd3772dd"},"vehicle_type_id":"4","last_reported":1687014345,"current_range_meters":17200,"station_id":"ce4bhbh2rcd13ifvqeo0","pricing_plan_id":"free"},{"bike_id":"35dfa401-c28c-42a9-9b26-951703fe9328","system_id":"levelo_inurba_marseille","lat":43.27379,"lon":5.36252,"is_reserved":false,"is_disabled":false,"rental_uris":{"android":"levelo://app?vid=35dfa401-c28c-42a9-9b26-951703fe9328","ios":"levelo://app?vid=35dfa401-c28c-42a9-9b26-951703fe9328"},"vehicle_type_id":"4","last_reported":1687014345,"current_range_meters":23200,"station_id":"ce4bhbh2rcd13ifvqeo0","pricing_plan_id":"free"},{"bike_id":"5a8ca264-e612-4624-be95-a229ef2af94f","system_id":"levelo_inurba_marseille","lat":43.27376,"lon":5.36256,"is_reserved":false,"is_disabled":false,"rental_uris":{"android":"levelo://app?vid=5a8ca264-e612-4624-be95-a229ef2af94f","ios":"levelo://app?vid=5a8ca264-e612-4624-be95-a229ef2af94f"},"vehicle_type_id":"4","last_reported":1687014345,"current_range_meters":28800,"station_id":"ce4bhbh2rcd13ifvqeo0","pricing_plan_id":"free"},{"bike_id":"cef5b8af-4f6c-4f67-ae87-6a0953483073","system_id":"levelo_inurba_marseille","lat":43.33612,"lon":5.410321,"is_reserved":false,"is_disabled":false,"rental_uris":{"android":"levelo://app?vid=cef5b8af-4f6c-4f67-ae87-6a0953483073","ios":"levelo://app?vid=cef5b8af-4f6c-4f67-ae87-6a0953483073"},"vehicle_type_id":"4","last_reported":1687014345,"current_range_meters":27200,"station_id":"ce4bhqh2rcd13ifvqhmg","pricing_plan_id":"free"},{"bike_id":"0180ee7d-bbcc-4b6c-9123-f545e0fc8310","system_id":"levelo_inurba_marseille","lat":43.26681,"lon":5.382694,"is_reserved":false,"is_disabled":false,"rental_uris":{"android":"levelo://app?vid=0180ee7d-bbcc-4b6c-9123-f545e0fc8310","ios":"levelo://app?vid=0180ee7d-bbcc-4b6c-9123-f545e0fc8310"},"vehicle_type_id":"4","last_reported":1687014345,"current_range_meters":21600,"station_id":"ce4bhg92rcd13ifvqf90","pricing_plan_id":"free"},{"bike_id":"2671f276-fc91-4df0-a030-1d79f7ab90ec","system_id":"levelo_inurba_marseille","lat":43.317121,"lon":5.423936,"is_reserved":false,"is_disabled":false,"rental_uris":{"android":"levelo://app?vid=2671f276-fc91-4df0-a030-1d79f7ab90ec","ios":"levelo://app?vid=2671f276-fc91-4df0-a030-1d79f7ab90ec"},"vehicle_type_id":"4","last_reported":1687014345,"current_range_meters":26800,"station_id":"ce4bhp92rcd13ifvqhbg","pricing_plan_id":"free"},{"bike_id":"7669827a-f508-40fa-8447-120d9517e121","system_id":"levelo_inurba_marseille","lat":43.31717,"lon":5.42396,"is_reserved":false,"is_disabled":false,"rental_uris":{"android":"levelo://app?vid=7669827a-f508-40fa-8447-120d9517e121","ios":"levelo://app?vid=7669827a-f508-40fa-8447-120d9517e121"},"vehicle_type_id":"4","last_reported":1687014345,"current_range_meters":24800,"station_id":"ce4bhp92rcd13ifvqhbg","pricing_plan_id":"free"},{"bike_id":"d924a432-9541-41dc-8775-e19175f75871","system_id":"levelo_inurba_marseille","lat":43.31085,"lon":5.42434,"is_reserved":false,"is_disabled":false,"rental_uris":{"android":"levelo://app?vid=d924a432-9541-41dc-8775-e19175f75871","ios":"levelo://app?vid=d924a432-9541-41dc-8775-e19175f75871"},"vehicle_type_id":"4","last_reported":1687014345,"current_range_meters":30000,"station_id":"ce4bhp92rcd13ifvqhag","pricing_plan_id":"free"},{"bike_id":"6275aaca-a354-407f-be44-df40f2969d44","system_id":"levelo_inurba_marseille","lat":43.273125,"lon":5.390731,"is_reserved":false,"is_disabled":false,"rental_uris":{"android":"levelo://app?vid=6275aaca-a354-407f-be44-df40f2969d44","ios":"levelo://app?vid=6275aaca-a354-407f-be44-df40f2969d44"},"vehicle_type_id":"4","last_reported":1687014345,"current_range_meters":31200,"station_id":"ce4bhgp2rcd13ifvqfe0","pricing_plan_id":"free"},{"bike_id":"f82c4e0b-ce86-4de4-962b-f266d6ba506e","system_id":"levelo_inurba_marseille","lat":43.273125,"lon":5.390731,"is_reserved":false,"is_disabled":false,"rental_uris":{"android":"levelo://app?vid=f82c4e0b-ce86-4de4-962b-f266d6ba506e","ios":"levelo://app?vid=f82c4e0b-ce86-4de4-962b-f266d6ba506e"},"vehicle_type_id":"4","last_reported":1687014345,"current_range_meters":29200,"station_id":"ce4bhgp2rcd13ifvqfe0","pricing_plan_id":"free"},{"bike_id":"6007b85b-e2bd-430d-bf87-e97b3f64b9b9","system_id":"levelo_inurba_marseille","lat":43.273129,"lon":5.390725,"is_reserved":false,"is_disabled":false,"rental_uris":{"android":"levelo://app?vid=6007b85b-e2bd-430d-bf87-e97b3f64b9b9","ios":"levelo://app?vid=6007b85b-e2bd-430d-bf87-e97b3f64b9b9"},"vehicle_type_id":"4","last_reported":1687014345,"current_range_meters":24800,"station_id":"ce4bhgp2rcd13ifvqfe0","pricing_plan_id":"free"},{"bike_id":"cfba2fbe-9ed5-423f-b411-8d6c38451715","system_id":"levelo_inurba_marseille","lat":43.273129,"lon":5.390725,"is_reserved":false,"is_disabled":false,"rental_uris":{"android":"levelo://app?vid=cfba2fbe-9ed5-423f-b411-8d6c38451715","ios":"levelo://app?vid=cfba2fbe-9ed5-423f-b411-8d6c38451715"},"vehicle_type_id":"4","last_reported":1687014345,"current_range_meters":31200,"station_id":"ce4bhgp2rcd13ifvqfe0","pricing_plan_id":"free"},{"bike_id":"59cceb80-3ea9-4ac2-9ea7-19a69c14c10e","system_id":"levelo_inurba_marseille","lat":43.304096,"lon":5.425385,"is_reserved":false,"is_disabled":false,"rental_uris":{"android":"levelo://app?vid=59cceb80-3ea9-4ac2-9ea7-19a69c14c10e","ios":"levelo://app?vid=59cceb80-3ea9-4ac2-9ea7-19a69c14c10e"},"vehicle_type_id":"4","last_reported":1687014345,"current_range_meters":21200,"station_id":"ce4bhoh2rcd13ifvqh6g","pricing_plan_id":"free"},{"bike_id":"1bff78bf-f52a-4496-8290-620058aae146","system_id":"levelo_inurba_marseille","lat":43.304096,"lon":5.425385,"is_reserved":false,"is_disabled":false,"rental_uris":{"android":"levelo://app?vid=1bff78bf-f52a-4496-8290-620058aae146","ios":"levelo://app?vid=1bff78bf-f52a-4496-8290-620058aae146"},"vehicle_type_id":"4","last_reported":1687014345,"current_range_meters":31200,"station_id":"ce4bhoh2rcd13ifvqh6g","pricing_plan_id":"free"},{"bike_id":"4c421232-7dc2-4011-b40f-c2ada192132a","system_id":"levelo_inurba_marseille","lat":43.304096,"lon":5.425385,"is_reserved":false,"is_disabled":false,"rental_uris":{"android":"levelo://app?vid=4c421232-7dc2-4011-b40f-c2ada192132a","ios":"levelo://app?vid=4c421232-7dc2-4011-b40f-c2ada192132a"},"vehicle_type_id":"4","last_reported":1687014345,"current_range_meters":25200,"station_id":"ce4bhoh2rcd13ifvqh6g","pricing_plan_id":"free"},{"bike_id":"8b29d5d3-cd3d-4d8a-a84b-cd427d5512b6","system_id":"levelo_inurba_marseille","lat":43.30416,"lon":5.42557,"is_reserved":false,"is_disabled":false,"rental_uris":{"android":"levelo://app?vid=8b29d5d3-cd3d-4d8a-a84b-cd427d5512b6","ios":"levelo://app?vid=8b29d5d3-cd3d-4d8a-a84b-cd427d5512b6"},"vehicle_type_id":"4","last_reported":1687014345,"current_range_meters":12800,"station_id":"ce4bhoh2rcd13ifvqh6g","pricing_plan_id":"free"},{"bike_id":"b4c01bd4-6f9c-40a0-9afa-419154457d4e","system_id":"levelo_inurba_marseille","lat":43.295523,"lon":5.422926,"is_reserved":false,"is_disabled":false,"rental_uris":{"android":"levelo://app?vid=b4c01bd4-6f9c-40a0-9afa-419154457d4e","ios":"levelo://app?vid=b4c01bd4-6f9c-40a0-9afa-419154457d4e"},"vehicle_type_id":"4","last_reported":1687014345,"current_range_meters":12000,"station_id":"ce4bhph2rcd13ifvqhdg","pricing_plan_id":"free"},{"bike_id":"f682cb24-508c-4be3-a76c-7b06b95e099a","system_id":"levelo_inurba_marseille","lat":43.269467,"lon":5.386439,"is_reserved":false,"is_disabled":false,"rental_uris":{"android":"levelo://app?vid=f682cb24-508c-4be3-a76c-7b06b95e099a","ios":"levelo://app?vid=f682cb24-508c-4be3-a76c-7b06b95e099a"},"vehicle_type_id":"4","last_reported":1687014345,"current_range_meters":0,"station_id":"ce4bhh92rcd13ifvqfh0","pricing_plan_id":"free"},{"bike_id":"6ed114c2-9e1f-4768-be72-dfaed501290b","system_id":"levelo_inurba_marseille","lat":43.269467,"lon":5.386439,"is_reserved":false,"is_disabled":false,"rental_uris":{"android":"levelo://app?vid=6ed114c2-9e1f-4768-be72-dfaed501290b","ios":"levelo://app?vid=6ed114c2-9e1f-4768-be72-dfaed501290b"},"vehicle_type_id":"4","last_reported":1687014345,"current_range_meters":0,"station_id":"ce4bhh92rcd13ifvqfh0","pricing_plan_id":"free"},{"bike_id":"f57f8606-5495-4eab-aa61-123620aa0afa","system_id":"levelo_inurba_marseille","lat":43.269467,"lon":5.386439,"is_reserved":false,"is_disabled":false,"rental_uris":{"android":"levelo://app?vid=f57f8606-5495-4eab-aa61-123620aa0afa","ios":"levelo://app?vid=f57f8606-5495-4eab-aa61-123620aa0afa"},"vehicle_type_id":"4","last_reported":1687014345,"current_range_meters":4800,"station_id":"ce4bhh92rcd13ifvqfh0","pricing_plan_id":"free"},{"bike_id":"f080641e-40ab-4f5f-95e2-b64568b3bf43","system_id":"levelo_inurba_marseille","lat":43.269319,"lon":5.389397,"is_reserved":false,"is_disabled":false,"rental_uris":{"android":"levelo://app?vid=f080641e-40ab-4f5f-95e2-b64568b3bf43","ios":"levelo://app?vid=f080641e-40ab-4f5f-95e2-b64568b3bf43"},"vehicle_type_id":"4","last_reported":1687014345,"current_range_meters":29600,"station_id":"ce4bhhh2rcd13ifvqfl0","pricing_plan_id":"free"},{"bike_id":"20ea230b-c53b-4991-97af-ee16708572a4","system_id":"levelo_inurba_marseille","lat":43.269319,"lon":5.389397,"is_reserved":false,"is_disabled":false,"rental_uris":{"android":"levelo://app?vid=20ea230b-c53b-4991-97af-ee16708572a4","ios":"levelo://app?vid=20ea230b-c53b-4991-97af-ee16708572a4"},"vehicle_type_id":"4","last_reported":1687014345,"current_range_meters":3600,"station_id":"ce4bhhh2rcd13ifvqfl0","pricing_plan_id":"free"},{"bike_id":"600273ea-eba7-42ad-a0bd-c4c9af76a11f","system_id":"levelo_inurba_marseille","lat":43.26516,"lon":5.37305,"is_reserved":false,"is_disabled":false,"rental_uris":{"android":"levelo://app?vid=600273ea-eba7-42ad-a0bd-c4c9af76a11f","ios":"levelo://app?vid=600273ea-eba7-42ad-a0bd-c4c9af76a11f"},"vehicle_type_id":"4","last_reported":1687014345,"current_range_meters":14400,"station_id":"ce4bhgp2rcd13ifvqfc0","pricing_plan_id":"free"},{"bike_id":"c5e2b396-f288-41ae-9b27-2bf66f3564ab","system_id":"levelo_inurba_marseille","lat":43.243884,"lon":5.370737,"is_reserved":false,"is_disabled":false,"rental_uris":{"android":"levelo://app?vid=c5e2b396-f288-41ae-9b27-2bf66f3564ab","ios":"levelo://app?vid=c5e2b396-f288-41ae-9b27-2bf66f3564ab"},"vehicle_type_id":"4","last_reported":1687014345,"current_range_meters":4800,"station_id":"ce4bhhh2rcd13ifvqfk0","pricing_plan_id":"free"},{"bike_id":"3987290e-fd4b-4f2b-81c0-57fca98f9cde","system_id":"levelo_inurba_marseille","lat":43.267966,"lon":5.393976,"is_reserved":false,"is_disabled":false,"rental_uris":{"android":"levelo://app?vid=3987290e-fd4b-4f2b-81c0-57fca98f9cde","ios":"levelo://app?vid=3987290e-fd4b-4f2b-81c0-57fca98f9cde"},"vehicle_type_id":"4","last_reported":1687014345,"current_range_meters":31200,"station_id":"ce4bhh12rcd13ifvqfg0","pricing_plan_id":"free"},{"bike_id":"dd36379c-2346-4f8b-b769-0f3b8302eff1","system_id":"levelo_inurba_marseille","lat":43.26672,"lon":5.3947,"is_reserved":false,"is_disabled":false,"rental_uris":{"android":"levelo://app?vid=dd36379c-2346-4f8b-b769-0f3b8302eff1","ios":"levelo://app?vid=dd36379c-2346-4f8b-b769-0f3b8302eff1"},"vehicle_type_id":"4","last_reported":1687014345,"current_range_meters":29200,"station_id":"","pricing_plan_id":"free"},{"bike_id":"faab296f-48d1-46c5-b2d8-73e773fb8dde","system_id":"levelo_inurba_marseille","lat":43.287185,"lon":5.379373,"is_reserved":false,"is_disabled":false,"rental_uris":{"android":"levelo://app?vid=faab296f-48d1-46c5-b2d8-73e773fb8dde","ios":"levelo://app?vid=faab296f-48d1-46c5-b2d8-73e773fb8dde"},"vehicle_type_id":"4","last_reported":1687014345,"current_range_meters":23200,"station_id":"ce4bh9p2rcd13ifvqec0","pricing_plan_id":"free"},{"bike_id":"e48bd678-b676-41f9-8018-f7840316a446","system_id":"levelo_inurba_marseille","lat":43.26195,"lon":5.37441,"is_reserved":false,"is_disabled":false,"rental_uris":{"android":"levelo://app?vid=e48bd678-b676-41f9-8018-f7840316a446","ios":"levelo://app?vid=e48bd678-b676-41f9-8018-f7840316a446"},"vehicle_type_id":"4","last_reported":1687014345,"current_range_meters":2800,"station_id":"ce4bhgp2rcd13ifvqfc0","pricing_plan_id":"free"},{"bike_id":"121f7621-6a2c-4063-b941-28063bda325f","system_id":"levelo_inurba_marseille","lat":43.26193,"lon":5.37441,"is_reserved":false,"is_disabled":false,"rental_uris":{"android":"levelo://app?vid=121f7621-6a2c-4063-b941-28063bda325f","ios":"levelo://app?vid=121f7621-6a2c-4063-b941-28063bda325f"},"vehicle_type_id":"4","last_reported":1687014345,"current_range_meters":4000,"station_id":"ce4bhgp2rcd13ifvqfc0","pricing_plan_id":"free"},{"bike_id":"9b2042fa-c949-4d3f-abfc-bd594d147cfb","system_id":"levelo_inurba_marseille","lat":43.26193,"lon":5.37443,"is_reserved":false,"is_disabled":false,"rental_uris":{"android":"levelo://app?vid=9b2042fa-c949-4d3f-abfc-bd594d147cfb","ios":"levelo://app?vid=9b2042fa-c949-4d3f-abfc-bd594d147cfb"},"vehicle_type_id":"4","last_reported":1687014345,"current_range_meters":17200,"station_id":"ce4bhgp2rcd13ifvqfc0","pricing_plan_id":"free"},{"bike_id":"f522bde3-59a4-4b18-ac64-faf803accafb","system_id":"levelo_inurba_marseille","lat":43.26193,"lon":5.37444,"is_reserved":false,"is_disabled":false,"rental_uris":{"android":"levelo://app?vid=f522bde3-59a4-4b18-ac64-faf803accafb","ios":"levelo://app?vid=f522bde3-59a4-4b18-ac64-faf803accafb"},"vehicle_type_id":"4","last_reported":1687014345,"current_range_meters":15600,"station_id":"ce4bhgp2rcd13ifvqfc0","pricing_plan_id":"free"},{"bike_id":"73ec8c4a-6aba-47e0-b901-eb1d2b55951c","system_id":"levelo_inurba_marseille","lat":43.26192,"lon":5.37436,"is_reserved":false,"is_disabled":false,"rental_uris":{"android":"levelo://app?vid=73ec8c4a-6aba-47e0-b901-eb1d2b55951c","ios":"levelo://app?vid=73ec8c4a-6aba-47e0-b901-eb1d2b55951c"},"vehicle_type_id":"4","last_reported":1687014345,"current_range_meters":800,"station_id":"ce4bhgp2rcd13ifvqfc0","pricing_plan_id":"free"},{"bike_id":"6c12de1d-0abe-4d17-8421-18bc41b8b0ac","system_id":"levelo_inurba_marseille","lat":43.26192,"lon":5.37439,"is_reserved":false,"is_disabled":false,"rental_uris":{"android":"levelo://app?vid=6c12de1d-0abe-4d17-8421-18bc41b8b0ac","ios":"levelo://app?vid=6c12de1d-0abe-4d17-8421-18bc41b8b0ac"},"vehicle_type_id":"4","last_reported":1687014345,"current_range_meters":20000,"station_id":"ce4bhgp2rcd13ifvqfc0","pricing_plan_id":"free"},{"bike_id":"fc4f4c0b-ebe1-413f-84fb-d8466be5b411","system_id":"levelo_inurba_marseille","lat":43.26192,"lon":5.37445,"is_reserved":false,"is_disabled":false,"rental_uris":{"android":"levelo://app?vid=fc4f4c0b-ebe1-413f-84fb-d8466be5b411","ios":"levelo://app?vid=fc4f4c0b-ebe1-413f-84fb-d8466be5b411"},"vehicle_type_id":"4","last_reported":1687014345,"current_range_meters":6800,"station_id":"ce4bhgp2rcd13ifvqfc0","pricing_plan_id":"free"},{"bike_id":"fdc27c93-2398-4427-969a-d5f9cbf527b1","system_id":"levelo_inurba_marseille","lat":43.262,"lon":5.37543,"is_reserved":false,"is_disabled":false,"rental_uris":{"android":"levelo://app?vid=fdc27c93-2398-4427-969a-d5f9cbf527b1","ios":"levelo://app?vid=fdc27c93-2398-4427-969a-d5f9cbf527b1"},"vehicle_type_id":"4","last_reported":1687014345,"current_range_meters":17600,"station_id":"","pricing_plan_id":"free"},{"bike_id":"4a41da33-103c-4648-8915-7644693d6e76","system_id":"levelo_inurba_marseille","lat":43.26191,"lon":5.37439,"is_reserved":false,"is_disabled":false,"rental_uris":{"android":"levelo://app?vid=4a41da33-103c-4648-8915-7644693d6e76","ios":"levelo://app?vid=4a41da33-103c-4648-8915-7644693d6e76"},"vehicle_type_id":"4","last_reported":1687014345,"current_range_meters":2800,"station_id":"ce4bhgp2rcd13ifvqfc0","pricing_plan_id":"free"},{"bike_id":"898112ea-997c-4863-b502-da005753cc83","system_id":"levelo_inurba_marseille","lat":43.26191,"lon":5.37445,"is_reserved":false,"is_disabled":false,"rental_uris":{"android":"levelo://app?vid=898112ea-997c-4863-b502-da005753cc83","ios":"levelo://app?vid=898112ea-997c-4863-b502-da005753cc83"},"vehicle_type_id":"4","last_reported":1687014345,"current_range_meters":13200,"station_id":"ce4bhgp2rcd13ifvqfc0","pricing_plan_id":"free"},{"bike_id":"6e09f408-aa87-45f1-864d-5ba5aee78c1b","system_id":"levelo_inurba_marseille","lat":43.2619,"lon":5.37441,"is_reserved":false,"is_disabled":false,"rental_uris":{"android":"levelo://app?vid=6e09f408-aa87-45f1-864d-5ba5aee78c1b","ios":"levelo://app?vid=6e09f408-aa87-45f1-864d-5ba5aee78c1b"},"vehicle_type_id":"4","last_reported":1687014345,"current_range_meters":14000,"station_id":"ce4bhgp2rcd13ifvqfc0","pricing_plan_id":"free"},{"bike_id":"2c2a662f-d645-4a0d-89bf-13b7bb7ffadc","system_id":"levelo_inurba_marseille","lat":43.2619,"lon":5.37442,"is_reserved":false,"is_disabled":false,"rental_uris":{"android":"levelo://app?vid=2c2a662f-d645-4a0d-89bf-13b7bb7ffadc","ios":"levelo://app?vid=2c2a662f-d645-4a0d-89bf-13b7bb7ffadc"},"vehicle_type_id":"4","last_reported":1687014345,"current_range_meters":4800,"station_id":"ce4bhgp2rcd13ifvqfc0","pricing_plan_id":"free"},{"bike_id":"dc3f3e57-e61e-492e-9b74-c8308f1ae639","system_id":"levelo_inurba_marseille","lat":43.2619,"lon":5.37445,"is_reserved":false,"is_disabled":false,"rental_uris":{"android":"levelo://app?vid=dc3f3e57-e61e-492e-9b74-c8308f1ae639","ios":"levelo://app?vid=dc3f3e57-e61e-492e-9b74-c8308f1ae639"},"vehicle_type_id":"4","last_reported":1687014345,"current_range_meters":24400,"station_id":"ce4bhgp2rcd13ifvqfc0","pricing_plan_id":"free"},{"bike_id":"54191f78-35ca-4411-bd27-fd4f76c97b71","system_id":"levelo_inurba_marseille","lat":43.26189,"lon":5.37441,"is_reserved":false,"is_disabled":false,"rental_uris":{"android":"levelo://app?vid=54191f78-35ca-4411-bd27-fd4f76c97b71","ios":"levelo://app?vid=54191f78-35ca-4411-bd27-fd4f76c97b71"},"vehicle_type_id":"4","last_reported":1687014345,"current_range_meters":5200,"station_id":"ce4bhgp2rcd13ifvqfc0","pricing_plan_id":"free"},{"bike_id":"11986b57-5038-410d-b842-05ed45688519","system_id":"levelo_inurba_marseille","lat":43.26188,"lon":5.37441,"is_reserved":false,"is_disabled":false,"rental_uris":{"android":"levelo://app?vid=11986b57-5038-410d-b842-05ed45688519","ios":"levelo://app?vid=11986b57-5038-410d-b842-05ed45688519"},"vehicle_type_id":"4","last_reported":1687014345,"current_range_meters":0,"station_id":"ce4bhgp2rcd13ifvqfc0","pricing_plan_id":"free"},{"bike_id":"456aed17-dc28-4b43-a0e7-6faf975bb6c4","system_id":"levelo_inurba_marseille","lat":43.26188,"lon":5.37442,"is_reserved":false,"is_disabled":false,"rental_uris":{"android":"levelo://app?vid=456aed17-dc28-4b43-a0e7-6faf975bb6c4","ios":"levelo://app?vid=456aed17-dc28-4b43-a0e7-6faf975bb6c4"},"vehicle_type_id":"4","last_reported":1687014345,"current_range_meters":13200,"station_id":"ce4bhgp2rcd13ifvqfc0","pricing_plan_id":"free"},{"bike_id":"eb17bf6b-0762-4c7e-8abc-ac66f2303fdd","system_id":"levelo_inurba_marseille","lat":43.26188,"lon":5.37443,"is_reserved":false,"is_disabled":false,"rental_uris":{"android":"levelo://app?vid=eb17bf6b-0762-4c7e-8abc-ac66f2303fdd","ios":"levelo://app?vid=eb17bf6b-0762-4c7e-8abc-ac66f2303fdd"},"vehicle_type_id":"4","last_reported":1687014345,"current_range_meters":0,"station_id":"ce4bhgp2rcd13ifvqfc0","pricing_plan_id":"free"},{"bike_id":"c1484a3d-fa56-40bf-9212-bc90eac1428c","system_id":"levelo_inurba_marseille","lat":43.26189,"lon":5.37456,"is_reserved":false,"is_disabled":false,"rental_uris":{"android":"levelo://app?vid=c1484a3d-fa56-40bf-9212-bc90eac1428c","ios":"levelo://app?vid=c1484a3d-fa56-40bf-9212-bc90eac1428c"},"vehicle_type_id":"4","last_reported":1687014345,"current_range_meters":4400,"station_id":"ce4bhgp2rcd13ifvqfc0","pricing_plan_id":"free"},{"bike_id":"91c254b4-fef2-4a6b-9246-226657869095","system_id":"levelo_inurba_marseille","lat":43.26187,"lon":5.37442,"is_reserved":false,"is_disabled":false,"rental_uris":{"android":"levelo://app?vid=91c254b4-fef2-4a6b-9246-226657869095","ios":"levelo://app?vid=91c254b4-fef2-4a6b-9246-226657869095"},"vehicle_type_id":"4","last_reported":1687014345,"current_range_meters":6400,"station_id":"ce4bhgp2rcd13ifvqfc0","pricing_plan_id":"free"},{"bike_id":"2e37d1f6-4394-4836-b223-8a6e5f386185","system_id":"levelo_inurba_marseille","lat":43.26187,"lon":5.37443,"is_reserved":false,"is_disabled":false,"rental_uris":{"android":"levelo://app?vid=2e37d1f6-4394-4836-b223-8a6e5f386185","ios":"levelo://app?vid=2e37d1f6-4394-4836-b223-8a6e5f386185"},"vehicle_type_id":"4","last_reported":1687014345,"current_range_meters":20800,"station_id":"ce4bhgp2rcd13ifvqfc0","pricing_plan_id":"free"},{"bike_id":"9d9aeb15-d069-470d-8416-952b433ccd31","system_id":"levelo_inurba_marseille","lat":43.26186,"lon":5.3744,"is_reserved":false,"is_disabled":false,"rental_uris":{"android":"levelo://app?vid=9d9aeb15-d069-470d-8416-952b433ccd31","ios":"levelo://app?vid=9d9aeb15-d069-470d-8416-952b433ccd31"},"vehicle_type_id":"4","last_reported":1687014345,"current_range_meters":1600,"station_id":"ce4bhgp2rcd13ifvqfc0","pricing_plan_id":"free"},{"bike_id":"7d634e4b-322c-4ea9-8035-f7049014c8c0","system_id":"levelo_inurba_marseille","lat":43.26186,"lon":5.37449,"is_reserved":false,"is_disabled":false,"rental_uris":{"android":"levelo://app?vid=7d634e4b-322c-4ea9-8035-f7049014c8c0","ios":"levelo://app?vid=7d634e4b-322c-4ea9-8035-f7049014c8c0"},"vehicle_type_id":"4","last_reported":1687014345,"current_range_meters":7600,"station_id":"ce4bhgp2rcd13ifvqfc0","pricing_plan_id":"free"},{"bike_id":"5c2e1f1a-4f2e-449d-bbe7-8a7b3cb59a51","system_id":"levelo_inurba_marseille","lat":43.26202,"lon":5.379299,"is_reserved":false,"is_disabled":false,"rental_uris":{"android":"levelo://app?vid=5c2e1f1a-4f2e-449d-bbe7-8a7b3cb59a51","ios":"levelo://app?vid=5c2e1f1a-4f2e-449d-bbe7-8a7b3cb59a51"},"vehicle_type_id":"4","last_reported":1687014345,"current_range_meters":14800,"station_id":"ce4bhjp2rcd13ifvqg90","pricing_plan_id":"free"},{"bike_id":"7b97506e-ee8f-4885-a673-6a0a3edbcc6e","system_id":"levelo_inurba_marseille","lat":43.2621,"lon":5.37925,"is_reserved":false,"is_disabled":false,"rental_uris":{"android":"levelo://app?vid=7b97506e-ee8f-4885-a673-6a0a3edbcc6e","ios":"levelo://app?vid=7b97506e-ee8f-4885-a673-6a0a3edbcc6e"},"vehicle_type_id":"4","last_reported":1687014345,"current_range_meters":15200,"station_id":"ce4bhjp2rcd13ifvqg90","pricing_plan_id":"free"},{"bike_id":"e12747e2-cb30-40ae-8ccc-5f1f274383f1","system_id":"levelo_inurba_marseille","lat":43.26208,"lon":5.37917,"is_reserved":false,"is_disabled":false,"rental_uris":{"android":"levelo://app?vid=e12747e2-cb30-40ae-8ccc-5f1f274383f1","ios":"levelo://app?vid=e12747e2-cb30-40ae-8ccc-5f1f274383f1"},"vehicle_type_id":"4","last_reported":1687014345,"current_range_meters":13600,"station_id":"ce4bhjp2rcd13ifvqg90","pricing_plan_id":"free"},{"bike_id":"e002c8e0-d3a4-45be-a015-e49dbcdde71d","system_id":"levelo_inurba_marseille","lat":43.262012,"lon":5.379307,"is_reserved":false,"is_disabled":false,"rental_uris":{"android":"levelo://app?vid=e002c8e0-d3a4-45be-a015-e49dbcdde71d","ios":"levelo://app?vid=e002c8e0-d3a4-45be-a015-e49dbcdde71d"},"vehicle_type_id":"4","last_reported":1687014345,"current_range_meters":29600,"station_id":"ce4bhjp2rcd13ifvqg90","pricing_plan_id":"free"},{"bike_id":"2d0f0fe2-9dc3-4547-b7a3-e036c026eb7c","system_id":"levelo_inurba_marseille","lat":43.262012,"lon":5.379307,"is_reserved":false,"is_disabled":false,"rental_uris":{"android":"levelo://app?vid=2d0f0fe2-9dc3-4547-b7a3-e036c026eb7c","ios":"levelo://app?vid=2d0f0fe2-9dc3-4547-b7a3-e036c026eb7c"},"vehicle_type_id":"4","last_reported":1687014345,"current_range_meters":15200,"station_id":"ce4bhjp2rcd13ifvqg90","pricing_plan_id":"free"},{"bike_id":"eb413128-7bf0-4167-8274-b43467d2c299","system_id":"levelo_inurba_marseille","lat":43.26207,"lon":5.37924,"is_reserved":false,"is_disabled":false,"rental_uris":{"android":"levelo://app?vid=eb413128-7bf0-4167-8274-b43467d2c299","ios":"levelo://app?vid=eb413128-7bf0-4167-8274-b43467d2c299"},"vehicle_type_id":"4","last_reported":1687014345,"current_range_meters":0,"station_id":"ce4bhjp2rcd13ifvqg90","pricing_plan_id":"free"},{"bike_id":"157feccb-84db-47a3-ba28-a5fd2d4a72a8","system_id":"levelo_inurba_marseille","lat":43.262012,"lon":5.379307,"is_reserved":false,"is_disabled":false,"rental_uris":{"android":"levelo://app?vid=157feccb-84db-47a3-ba28-a5fd2d4a72a8","ios":"levelo://app?vid=157feccb-84db-47a3-ba28-a5fd2d4a72a8"},"vehicle_type_id":"4","last_reported":1687014345,"current_range_meters":29200,"station_id":"ce4bhjp2rcd13ifvqg90","pricing_plan_id":"free"},{"bike_id":"a0e19f69-ff46-4cd1-a2b9-64ea9a24cf5d","system_id":"levelo_inurba_marseille","lat":43.262012,"lon":5.379307,"is_reserved":false,"is_disabled":false,"rental_uris":{"android":"levelo://app?vid=a0e19f69-ff46-4cd1-a2b9-64ea9a24cf5d","ios":"levelo://app?vid=a0e19f69-ff46-4cd1-a2b9-64ea9a24cf5d"},"vehicle_type_id":"4","last_reported":1687014345,"current_range_meters":12000,"station_id":"ce4bhjp2rcd13ifvqg90","pricing_plan_id":"free"},{"bike_id":"e2dc7dfa-610e-4a4e-97f1-c2c501cba8c1","system_id":"levelo_inurba_marseille","lat":43.26202,"lon":5.379299,"is_reserved":false,"is_disabled":false,"rental_uris":{"android":"levelo://app?vid=e2dc7dfa-610e-4a4e-97f1-c2c501cba8c1","ios":"levelo://app?vid=e2dc7dfa-610e-4a4e-97f1-c2c501cba8c1"},"vehicle_type_id":"4","last_reported":1687014345,"current_range_meters":18400,"station_id":"ce4bhjp2rcd13ifvqg90","pricing_plan_id":"free"},{"bike_id":"7891bf97-4eb1-4cae-8d6e-efdfff2479a5","system_id":"levelo_inurba_marseille","lat":43.26206,"lon":5.37922,"is_reserved":false,"is_disabled":false,"rental_uris":{"android":"levelo://app?vid=7891bf97-4eb1-4cae-8d6e-efdfff2479a5","ios":"levelo://app?vid=7891bf97-4eb1-4cae-8d6e-efdfff2479a5"},"vehicle_type_id":"4","last_reported":1687014345,"current_range_meters":16800,"station_id":"ce4bhjp2rcd13ifvqg90","pricing_plan_id":"free"},{"bike_id":"169f9af3-aed2-4fdc-934f-663fee0188f6","system_id":"levelo_inurba_marseille","lat":43.26205,"lon":5.37918,"is_reserved":false,"is_disabled":false,"rental_uris":{"android":"levelo://app?vid=169f9af3-aed2-4fdc-934f-663fee0188f6","ios":"levelo://app?vid=169f9af3-aed2-4fdc-934f-663fee0188f6"},"vehicle_type_id":"4","last_reported":1687014345,"current_range_meters":20800,"station_id":"ce4bhjp2rcd13ifvqg90","pricing_plan_id":"free"},{"bike_id":"3096f713-b093-493f-9a5b-0467126c255f","system_id":"levelo_inurba_marseille","lat":43.262012,"lon":5.379307,"is_reserved":false,"is_disabled":false,"rental_uris":{"android":"levelo://app?vid=3096f713-b093-493f-9a5b-0467126c255f","ios":"levelo://app?vid=3096f713-b093-493f-9a5b-0467126c255f"},"vehicle_type_id":"4","last_reported":1687014345,"current_range_meters":5600,"station_id":"ce4bhjp2rcd13ifvqg90","pricing_plan_id":"free"},{"bike_id":"345386e5-0aa6-4b66-8386-c8304249d7e8","system_id":"levelo_inurba_marseille","lat":43.262012,"lon":5.379307,"is_reserved":false,"is_disabled":false,"rental_uris":{"android":"levelo://app?vid=345386e5-0aa6-4b66-8386-c8304249d7e8","ios":"levelo://app?vid=345386e5-0aa6-4b66-8386-c8304249d7e8"},"vehicle_type_id":"4","last_reported":1687014345,"current_range_meters":22000,"station_id":"ce4bhjp2rcd13ifvqg90","pricing_plan_id":"free"},{"bike_id":"a3a5017f-f229-4c95-a65f-5320b6a86295","system_id":"levelo_inurba_marseille","lat":43.262012,"lon":5.379307,"is_reserved":false,"is_disabled":false,"rental_uris":{"android":"levelo://app?vid=a3a5017f-f229-4c95-a65f-5320b6a86295","ios":"levelo://app?vid=a3a5017f-f229-4c95-a65f-5320b6a86295"},"vehicle_type_id":"4","last_reported":1687014345,"current_range_meters":2400,"station_id":"ce4bhjp2rcd13ifvqg90","pricing_plan_id":"free"},{"bike_id":"b66ee968-f311-40a9-86d7-6297db3c3882","system_id":"levelo_inurba_marseille","lat":43.26203,"lon":5.37923,"is_reserved":false,"is_disabled":false,"rental_uris":{"android":"levelo://app?vid=b66ee968-f311-40a9-86d7-6297db3c3882","ios":"levelo://app?vid=b66ee968-f311-40a9-86d7-6297db3c3882"},"vehicle_type_id":"4","last_reported":1687014345,"current_range_meters":18000,"station_id":"ce4bhjp2rcd13ifvqg90","pricing_plan_id":"free"},{"bike_id":"105aba82-4d29-4740-ae55-0a1d2d67eac8","system_id":"levelo_inurba_marseille","lat":43.26203,"lon":5.37927,"is_reserved":false,"is_disabled":false,"rental_uris":{"android":"levelo://app?vid=105aba82-4d29-4740-ae55-0a1d2d67eac8","ios":"levelo://app?vid=105aba82-4d29-4740-ae55-0a1d2d67eac8"},"vehicle_type_id":"4","last_reported":1687014345,"current_range_meters":10400,"station_id":"ce4bhjp2rcd13ifvqg90","pricing_plan_id":"free"},{"bike_id":"1290350e-c139-492d-bc0a-49bd9a893d1f","system_id":"levelo_inurba_marseille","lat":43.262012,"lon":5.379307,"is_reserved":false,"is_disabled":false,"rental_uris":{"android":"levelo://app?vid=1290350e-c139-492d-bc0a-49bd9a893d1f","ios":"levelo://app?vid=1290350e-c139-492d-bc0a-49bd9a893d1f"},"vehicle_type_id":"4","last_reported":1687014345,"current_range_meters":18800,"station_id":"ce4bhjp2rcd13ifvqg90","pricing_plan_id":"free"},{"bike_id":"4221ef51-b6f7-48eb-89db-3c2c7f768117","system_id":"levelo_inurba_marseille","lat":43.262012,"lon":5.379307,"is_reserved":false,"is_disabled":false,"rental_uris":{"android":"levelo://app?vid=4221ef51-b6f7-48eb-89db-3c2c7f768117","ios":"levelo://app?vid=4221ef51-b6f7-48eb-89db-3c2c7f768117"},"vehicle_type_id":"4","last_reported":1687014345,"current_range_meters":0,"station_id":"ce4bhjp2rcd13ifvqg90","pricing_plan_id":"free"},{"bike_id":"3ce3f8d5-822f-43c7-b878-d1de4963a2c5","system_id":"levelo_inurba_marseille","lat":43.262012,"lon":5.379307,"is_reserved":false,"is_disabled":false,"rental_uris":{"android":"levelo://app?vid=3ce3f8d5-822f-43c7-b878-d1de4963a2c5","ios":"levelo://app?vid=3ce3f8d5-822f-43c7-b878-d1de4963a2c5"},"vehicle_type_id":"4","last_reported":1687014345,"current_range_meters":5600,"station_id":"ce4bhjp2rcd13ifvqg90","pricing_plan_id":"free"},{"bike_id":"eb82b6b3-daf9-4f09-bed8-2b784cf070fa","system_id":"levelo_inurba_marseille","lat":43.262012,"lon":5.379307,"is_reserved":false,"is_disabled":false,"rental_uris":{"android":"levelo://app?vid=eb82b6b3-daf9-4f09-bed8-2b784cf070fa","ios":"levelo://app?vid=eb82b6b3-daf9-4f09-bed8-2b784cf070fa"},"vehicle_type_id":"4","last_reported":1687014345,"current_range_meters":6000,"station_id":"ce4bhjp2rcd13ifvqg90","pricing_plan_id":"free"},{"bike_id":"6e57d335-6dd5-4de1-9798-f96614239d95","system_id":"levelo_inurba_marseille","lat":43.262012,"lon":5.379307,"is_reserved":false,"is_disabled":false,"rental_uris":{"android":"levelo://app?vid=6e57d335-6dd5-4de1-9798-f96614239d95","ios":"levelo://app?vid=6e57d335-6dd5-4de1-9798-f96614239d95"},"vehicle_type_id":"4","last_reported":1687014345,"current_range_meters":23200,"station_id":"ce4bhjp2rcd13ifvqg90","pricing_plan_id":"free"},{"bike_id":"350b9ea5-6643-4a3a-b826-0bf340ae4c16","system_id":"levelo_inurba_marseille","lat":43.262,"lon":5.37937,"is_reserved":false,"is_disabled":false,"rental_uris":{"android":"levelo://app?vid=350b9ea5-6643-4a3a-b826-0bf340ae4c16","ios":"levelo://app?vid=350b9ea5-6643-4a3a-b826-0bf340ae4c16"},"vehicle_type_id":"4","last_reported":1687014345,"current_range_meters":21600,"station_id":"ce4bhjp2rcd13ifvqg90","pricing_plan_id":"free"},{"bike_id":"255f1d55-73f2-4691-adc3-2cc7cbe003f7","system_id":"levelo_inurba_marseille","lat":43.262012,"lon":5.379307,"is_reserved":false,"is_disabled":false,"rental_uris":{"android":"levelo://app?vid=255f1d55-73f2-4691-adc3-2cc7cbe003f7","ios":"levelo://app?vid=255f1d55-73f2-4691-adc3-2cc7cbe003f7"},"vehicle_type_id":"4","last_reported":1687014345,"current_range_meters":11200,"station_id":"ce4bhjp2rcd13ifvqg90","pricing_plan_id":"free"},{"bike_id":"ab378214-b701-4916-8132-48240331f637","system_id":"levelo_inurba_marseille","lat":43.262012,"lon":5.379307,"is_reserved":false,"is_disabled":false,"rental_uris":{"android":"levelo://app?vid=ab378214-b701-4916-8132-48240331f637","ios":"levelo://app?vid=ab378214-b701-4916-8132-48240331f637"},"vehicle_type_id":"4","last_reported":1687014345,"current_range_meters":13200,"station_id":"ce4bhjp2rcd13ifvqg90","pricing_plan_id":"free"},{"bike_id":"2b7431e6-01e8-481b-82a0-142b013d29e2","system_id":"levelo_inurba_marseille","lat":43.271388,"lon":5.409269,"is_reserved":false,"is_disabled":false,"rental_uris":{"android":"levelo://app?vid=2b7431e6-01e8-481b-82a0-142b013d29e2","ios":"levelo://app?vid=2b7431e6-01e8-481b-82a0-142b013d29e2"},"vehicle_type_id":"4","last_reported":1687014345,"current_range_meters":19600,"station_id":"ce4bhl12rcd13ifvqgf0","pricing_plan_id":"free"},{"bike_id":"14c9e122-3c23-4a4c-a960-55ef9bf06474","system_id":"levelo_inurba_marseille","lat":43.298768,"lon":5.43643,"is_reserved":false,"is_disabled":false,"rental_uris":{"android":"levelo://app?vid=14c9e122-3c23-4a4c-a960-55ef9bf06474","ios":"levelo://app?vid=14c9e122-3c23-4a4c-a960-55ef9bf06474"},"vehicle_type_id":"4","last_reported":1687014345,"current_range_meters":16000,"station_id":"ce4bhpp2rcd13ifvqhfg","pricing_plan_id":"free"},{"bike_id":"a6033fd6-bec5-4741-b663-0182c3d526a5","system_id":"levelo_inurba_marseille","lat":43.260225,"lon":5.375455,"is_reserved":false,"is_disabled":false,"rental_uris":{"android":"levelo://app?vid=a6033fd6-bec5-4741-b663-0182c3d526a5","ios":"levelo://app?vid=a6033fd6-bec5-4741-b663-0182c3d526a5"},"vehicle_type_id":"4","last_reported":1687014345,"current_range_meters":21600,"station_id":"ce4bhgh2rcd13ifvqfa0","pricing_plan_id":"free"},{"bike_id":"75c1e1d3-ceb9-40bf-ab62-e1c411a76b82","system_id":"levelo_inurba_marseille","lat":43.260225,"lon":5.375455,"is_reserved":false,"is_disabled":false,"rental_uris":{"android":"levelo://app?vid=75c1e1d3-ceb9-40bf-ab62-e1c411a76b82","ios":"levelo://app?vid=75c1e1d3-ceb9-40bf-ab62-e1c411a76b82"},"vehicle_type_id":"4","last_reported":1687014345,"current_range_meters":22800,"station_id":"ce4bhgh2rcd13ifvqfa0","pricing_plan_id":"free"},{"bike_id":"ddc4a6e7-41c4-4bbc-82e3-a632d8c2338c","system_id":"levelo_inurba_marseille","lat":43.275028,"lon":5.424534,"is_reserved":false,"is_disabled":false,"rental_uris":{"android":"levelo://app?vid=ddc4a6e7-41c4-4bbc-82e3-a632d8c2338c","ios":"levelo://app?vid=ddc4a6e7-41c4-4bbc-82e3-a632d8c2338c"},"vehicle_type_id":"4","last_reported":1687014345,"current_range_meters":13600,"station_id":"ce4bhn92rcd13ifvqgrg","pricing_plan_id":"free"},{"bike_id":"cfccf058-f104-4e88-a22b-02cf4ee4c1ad","system_id":"levelo_inurba_marseille","lat":43.260909,"lon":5.397591,"is_reserved":false,"is_disabled":false,"rental_uris":{"android":"levelo://app?vid=cfccf058-f104-4e88-a22b-02cf4ee4c1ad","ios":"levelo://app?vid=cfccf058-f104-4e88-a22b-02cf4ee4c1ad"},"vehicle_type_id":"4","last_reported":1687014345,"current_range_meters":4000,"station_id":"ce4bhi12rcd13ifvqfq0","pricing_plan_id":"free"},{"bike_id":"faa17cbc-a2cc-4ed1-a7fd-1836bc00abf5","system_id":"levelo_inurba_marseille","lat":43.260909,"lon":5.397591,"is_reserved":false,"is_disabled":false,"rental_uris":{"android":"levelo://app?vid=faa17cbc-a2cc-4ed1-a7fd-1836bc00abf5","ios":"levelo://app?vid=faa17cbc-a2cc-4ed1-a7fd-1836bc00abf5"},"vehicle_type_id":"4","last_reported":1687014345,"current_range_meters":20400,"station_id":"ce4bhi12rcd13ifvqfq0","pricing_plan_id":"free"},{"bike_id":"261574c9-ef5a-42d0-9a91-238af813c08c","system_id":"levelo_inurba_marseille","lat":43.25586,"lon":5.3823,"is_reserved":false,"is_disabled":false,"rental_uris":{"android":"levelo://app?vid=261574c9-ef5a-42d0-9a91-238af813c08c","ios":"levelo://app?vid=261574c9-ef5a-42d0-9a91-238af813c08c"},"vehicle_type_id":"4","last_reported":1687014345,"current_range_meters":12400,"station_id":"ce4bhih2rcd13ifvqfs0","pricing_plan_id":"free"},{"bike_id":"eafc13d1-f4fd-4b47-aade-fbfdb6e0bdb6","system_id":"levelo_inurba_marseille","lat":43.255756,"lon":5.382303,"is_reserved":false,"is_disabled":false,"rental_uris":{"android":"levelo://app?vid=eafc13d1-f4fd-4b47-aade-fbfdb6e0bdb6","ios":"levelo://app?vid=eafc13d1-f4fd-4b47-aade-fbfdb6e0bdb6"},"vehicle_type_id":"4","last_reported":1687014345,"current_range_meters":25200,"station_id":"ce4bhih2rcd13ifvqfs0","pricing_plan_id":"free"},{"bike_id":"f6cf65a0-bcc4-43cd-842a-35e40c21df46","system_id":"levelo_inurba_marseille","lat":43.255756,"lon":5.382303,"is_reserved":false,"is_disabled":false,"rental_uris":{"android":"levelo://app?vid=f6cf65a0-bcc4-43cd-842a-35e40c21df46","ios":"levelo://app?vid=f6cf65a0-bcc4-43cd-842a-35e40c21df46"},"vehicle_type_id":"4","last_reported":1687014345,"current_range_meters":17600,"station_id":"ce4bhih2rcd13ifvqfs0","pricing_plan_id":"free"},{"bike_id":"07cc9fef-edd4-4a21-b448-f3eeb595c5c0","system_id":"levelo_inurba_marseille","lat":43.255756,"lon":5.382303,"is_reserved":false,"is_disabled":false,"rental_uris":{"android":"levelo://app?vid=07cc9fef-edd4-4a21-b448-f3eeb595c5c0","ios":"levelo://app?vid=07cc9fef-edd4-4a21-b448-f3eeb595c5c0"},"vehicle_type_id":"4","last_reported":1687014345,"current_range_meters":0,"station_id":"ce4bhih2rcd13ifvqfs0","pricing_plan_id":"free"},{"bike_id":"d2b10708-e905-403b-865a-4d03be19dc87","system_id":"levelo_inurba_marseille","lat":43.254945,"lon":5.376454,"is_reserved":false,"is_disabled":false,"rental_uris":{"android":"levelo://app?vid=d2b10708-e905-403b-865a-4d03be19dc87","ios":"levelo://app?vid=d2b10708-e905-403b-865a-4d03be19dc87"},"vehicle_type_id":"4","last_reported":1687014345,"current_range_meters":24000,"station_id":"ce4bhh12rcd13ifvqff0","pricing_plan_id":"free"},{"bike_id":"575f1e59-dff6-44d4-9b80-e59c9ad22419","system_id":"levelo_inurba_marseille","lat":43.254945,"lon":5.376454,"is_reserved":false,"is_disabled":false,"rental_uris":{"android":"levelo://app?vid=575f1e59-dff6-44d4-9b80-e59c9ad22419","ios":"levelo://app?vid=575f1e59-dff6-44d4-9b80-e59c9ad22419"},"vehicle_type_id":"4","last_reported":1687014345,"current_range_meters":3600,"station_id":"ce4bhh12rcd13ifvqff0","pricing_plan_id":"free"},{"bike_id":"9b14b0da-a02b-4de3-9052-671ae3662f12","system_id":"levelo_inurba_marseille","lat":43.254947,"lon":5.376454,"is_reserved":false,"is_disabled":false,"rental_uris":{"android":"levelo://app?vid=9b14b0da-a02b-4de3-9052-671ae3662f12","ios":"levelo://app?vid=9b14b0da-a02b-4de3-9052-671ae3662f12"},"vehicle_type_id":"4","last_reported":1687014345,"current_range_meters":9600,"station_id":"ce4bhh12rcd13ifvqff0","pricing_plan_id":"free"},{"bike_id":"b0169716-84c1-421c-b88e-1363dc2f77e6","system_id":"levelo_inurba_marseille","lat":43.25491,"lon":5.37648,"is_reserved":false,"is_disabled":false,"rental_uris":{"android":"levelo://app?vid=b0169716-84c1-421c-b88e-1363dc2f77e6","ios":"levelo://app?vid=b0169716-84c1-421c-b88e-1363dc2f77e6"},"vehicle_type_id":"4","last_reported":1687014345,"current_range_meters":25600,"station_id":"","pricing_plan_id":"free"},{"bike_id":"d7e6885a-915f-4840-b812-71547a248711","system_id":"levelo_inurba_marseille","lat":43.25939,"lon":5.40905,"is_reserved":false,"is_disabled":false,"rental_uris":{"android":"levelo://app?vid=d7e6885a-915f-4840-b812-71547a248711","ios":"levelo://app?vid=d7e6885a-915f-4840-b812-71547a248711"},"vehicle_type_id":"4","last_reported":1687014345,"current_range_meters":10400,"station_id":"","pricing_plan_id":"free"},{"bike_id":"380ea018-6d53-423b-b8cb-4a86fff7f762","system_id":"levelo_inurba_marseille","lat":43.25939,"lon":5.40908,"is_reserved":false,"is_disabled":false,"rental_uris":{"android":"levelo://app?vid=380ea018-6d53-423b-b8cb-4a86fff7f762","ios":"levelo://app?vid=380ea018-6d53-423b-b8cb-4a86fff7f762"},"vehicle_type_id":"4","last_reported":1687014345,"current_range_meters":6800,"station_id":"","pricing_plan_id":"free"},{"bike_id":"f44e6d11-6fdb-4946-a083-d97bec6a15f0","system_id":"levelo_inurba_marseille","lat":43.25938,"lon":5.40907,"is_reserved":false,"is_disabled":false,"rental_uris":{"android":"levelo://app?vid=f44e6d11-6fdb-4946-a083-d97bec6a15f0","ios":"levelo://app?vid=f44e6d11-6fdb-4946-a083-d97bec6a15f0"},"vehicle_type_id":"4","last_reported":1687014345,"current_range_meters":14000,"station_id":"","pricing_plan_id":"free"},{"bike_id":"86a905a3-3c0a-4ae9-a4b6-2eee22cb5b00","system_id":"levelo_inurba_marseille","lat":43.25934,"lon":5.40909,"is_reserved":false,"is_disabled":false,"rental_uris":{"android":"levelo://app?vid=86a905a3-3c0a-4ae9-a4b6-2eee22cb5b00","ios":"levelo://app?vid=86a905a3-3c0a-4ae9-a4b6-2eee22cb5b00"},"vehicle_type_id":"4","last_reported":1687014345,"current_range_meters":5200,"station_id":"","pricing_plan_id":"free"},{"bike_id":"84e383d7-99e5-4c88-b70a-994ba9ddca7e","system_id":"levelo_inurba_marseille","lat":43.25933,"lon":5.40909,"is_reserved":false,"is_disabled":false,"rental_uris":{"android":"levelo://app?vid=84e383d7-99e5-4c88-b70a-994ba9ddca7e","ios":"levelo://app?vid=84e383d7-99e5-4c88-b70a-994ba9ddca7e"},"vehicle_type_id":"4","last_reported":1687014345,"current_range_meters":14400,"station_id":"","pricing_plan_id":"free"},{"bike_id":"be0e3e3e-eb2d-47ab-82b9-3eea3770476b","system_id":"levelo_inurba_marseille","lat":43.2593,"lon":5.40905,"is_reserved":false,"is_disabled":false,"rental_uris":{"android":"levelo://app?vid=be0e3e3e-eb2d-47ab-82b9-3eea3770476b","ios":"levelo://app?vid=be0e3e3e-eb2d-47ab-82b9-3eea3770476b"},"vehicle_type_id":"4","last_reported":1687014345,"current_range_meters":12000,"station_id":"","pricing_plan_id":"free"},{"bike_id":"972f105c-746d-43dd-aeef-28d452ee1e84","system_id":"levelo_inurba_marseille","lat":43.250009,"lon":5.389195,"is_reserved":false,"is_disabled":false,"rental_uris":{"android":"levelo://app?vid=972f105c-746d-43dd-aeef-28d452ee1e84","ios":"levelo://app?vid=972f105c-746d-43dd-aeef-28d452ee1e84"},"vehicle_type_id":"4","last_reported":1687014345,"current_range_meters":8000,"station_id":"ce4bhgp2rcd13ifvqfd0","pricing_plan_id":"free"},{"bike_id":"82c20223-d14f-4bc9-8f38-047a5cb0c988","system_id":"levelo_inurba_marseille","lat":43.25,"lon":5.38929,"is_reserved":false,"is_disabled":false,"rental_uris":{"android":"levelo://app?vid=82c20223-d14f-4bc9-8f38-047a5cb0c988","ios":"levelo://app?vid=82c20223-d14f-4bc9-8f38-047a5cb0c988"},"vehicle_type_id":"4","last_reported":1687014345,"current_range_meters":8400,"station_id":"ce4bhgp2rcd13ifvqfd0","pricing_plan_id":"free"},{"bike_id":"5e278894-d2f4-4086-ba08-1f5d8742cd8e","system_id":"levelo_inurba_marseille","lat":43.250009,"lon":5.389195,"is_reserved":false,"is_disabled":false,"rental_uris":{"android":"levelo://app?vid=5e278894-d2f4-4086-ba08-1f5d8742cd8e","ios":"levelo://app?vid=5e278894-d2f4-4086-ba08-1f5d8742cd8e"},"vehicle_type_id":"4","last_reported":1687014345,"current_range_meters":4000,"station_id":"ce4bhgp2rcd13ifvqfd0","pricing_plan_id":"free"},{"bike_id":"cffaa43a-9d41-4eda-a9a3-27bb6de58e03","system_id":"levelo_inurba_marseille","lat":43.2479,"lon":5.374457,"is_reserved":false,"is_disabled":false,"rental_uris":{"android":"levelo://app?vid=cffaa43a-9d41-4eda-a9a3-27bb6de58e03","ios":"levelo://app?vid=cffaa43a-9d41-4eda-a9a3-27bb6de58e03"},"vehicle_type_id":"4","last_reported":1687014345,"current_range_meters":19200,"station_id":"ce4bhgh2rcd13ifvqfb0","pricing_plan_id":"free"},{"bike_id":"38c06808-c913-4e63-aa1f-2ca53c1af751","system_id":"levelo_inurba_marseille","lat":43.2479,"lon":5.374457,"is_reserved":false,"is_disabled":false,"rental_uris":{"android":"levelo://app?vid=38c06808-c913-4e63-aa1f-2ca53c1af751","ios":"levelo://app?vid=38c06808-c913-4e63-aa1f-2ca53c1af751"},"vehicle_type_id":"4","last_reported":1687014345,"current_range_meters":7200,"station_id":"ce4bhgh2rcd13ifvqfb0","pricing_plan_id":"free"},{"bike_id":"d6d1e319-9bc8-4a29-9a52-803f6bc9e4eb","system_id":"levelo_inurba_marseille","lat":43.2481,"lon":5.37458,"is_reserved":false,"is_disabled":false,"rental_uris":{"android":"levelo://app?vid=d6d1e319-9bc8-4a29-9a52-803f6bc9e4eb","ios":"levelo://app?vid=d6d1e319-9bc8-4a29-9a52-803f6bc9e4eb"},"vehicle_type_id":"4","last_reported":1687014345,"current_range_meters":31200,"station_id":"ce4bhgh2rcd13ifvqfb0","pricing_plan_id":"free"},{"bike_id":"2c90c3dc-fa5d-4685-a6ab-4843f0ee81af","system_id":"levelo_inurba_marseille","lat":43.2479,"lon":5.374457,"is_reserved":false,"is_disabled":false,"rental_uris":{"android":"levelo://app?vid=2c90c3dc-fa5d-4685-a6ab-4843f0ee81af","ios":"levelo://app?vid=2c90c3dc-fa5d-4685-a6ab-4843f0ee81af"},"vehicle_type_id":"4","last_reported":1687014345,"current_range_meters":30000,"station_id":"ce4bhgh2rcd13ifvqfb0","pricing_plan_id":"free"},{"bike_id":"2727c301-c467-4526-941b-c2d9b9b4e585","system_id":"levelo_inurba_marseille","lat":43.2479,"lon":5.374457,"is_reserved":false,"is_disabled":false,"rental_uris":{"android":"levelo://app?vid=2727c301-c467-4526-941b-c2d9b9b4e585","ios":"levelo://app?vid=2727c301-c467-4526-941b-c2d9b9b4e585"},"vehicle_type_id":"4","last_reported":1687014345,"current_range_meters":31200,"station_id":"ce4bhgh2rcd13ifvqfb0","pricing_plan_id":"free"},{"bike_id":"74361f6b-6bb8-4562-95ad-bc4fb25fa32b","system_id":"levelo_inurba_marseille","lat":43.2479,"lon":5.374457,"is_reserved":false,"is_disabled":false,"rental_uris":{"android":"levelo://app?vid=74361f6b-6bb8-4562-95ad-bc4fb25fa32b","ios":"levelo://app?vid=74361f6b-6bb8-4562-95ad-bc4fb25fa32b"},"vehicle_type_id":"4","last_reported":1687014345,"current_range_meters":31200,"station_id":"ce4bhgh2rcd13ifvqfb0","pricing_plan_id":"free"},{"bike_id":"6d82d843-23c9-4aef-baee-5ade68a02d2b","system_id":"levelo_inurba_marseille","lat":43.2479,"lon":5.374457,"is_reserved":false,"is_disabled":false,"rental_uris":{"android":"levelo://app?vid=6d82d843-23c9-4aef-baee-5ade68a02d2b","ios":"levelo://app?vid=6d82d843-23c9-4aef-baee-5ade68a02d2b"},"vehicle_type_id":"4","last_reported":1687014345,"current_range_meters":30400,"station_id":"ce4bhgh2rcd13ifvqfb0","pricing_plan_id":"free"},{"bike_id":"2989ebd0-3b35-497f-bba3-9d13ed40cf22","system_id":"levelo_inurba_marseille","lat":43.250966,"lon":5.395186,"is_reserved":false,"is_disabled":false,"rental_uris":{"android":"levelo://app?vid=2989ebd0-3b35-497f-bba3-9d13ed40cf22","ios":"levelo://app?vid=2989ebd0-3b35-497f-bba3-9d13ed40cf22"},"vehicle_type_id":"4","last_reported":1687014345,"current_range_meters":31200,"station_id":"ce4bhm12rcd13ifvqgkg","pricing_plan_id":"free"},{"bike_id":"db588d85-f771-4ceb-a165-1640719ad3d8","system_id":"levelo_inurba_marseille","lat":43.24693,"lon":5.382096,"is_reserved":false,"is_disabled":false,"rental_uris":{"android":"levelo://app?vid=db588d85-f771-4ceb-a165-1640719ad3d8","ios":"levelo://app?vid=db588d85-f771-4ceb-a165-1640719ad3d8"},"vehicle_type_id":"4","last_reported":1687014345,"current_range_meters":8400,"station_id":"ce4bhih2rcd13ifvqfr0","pricing_plan_id":"free"},{"bike_id":"e09492e6-a78c-4ab2-8f95-b8f5835851cd","system_id":"levelo_inurba_marseille","lat":43.25102,"lon":5.403214,"is_reserved":false,"is_disabled":false,"rental_uris":{"android":"levelo://app?vid=e09492e6-a78c-4ab2-8f95-b8f5835851cd","ios":"levelo://app?vid=e09492e6-a78c-4ab2-8f95-b8f5835851cd"},"vehicle_type_id":"4","last_reported":1687014345,"current_range_meters":4800,"station_id":"ce4bhlh2rcd13ifvqgig","pricing_plan_id":"free"},{"bike_id":"ef8d73c4-8e62-4a28-a1c5-c063b8e5f64e","system_id":"levelo_inurba_marseille","lat":43.24693,"lon":5.382096,"is_reserved":false,"is_disabled":false,"rental_uris":{"android":"levelo://app?vid=ef8d73c4-8e62-4a28-a1c5-c063b8e5f64e","ios":"levelo://app?vid=ef8d73c4-8e62-4a28-a1c5-c063b8e5f64e"},"vehicle_type_id":"4","last_reported":1687014345,"current_range_meters":2800,"station_id":"ce4bhih2rcd13ifvqfr0","pricing_plan_id":"free"},{"bike_id":"ff4498ce-921d-4130-bc86-299e2ccc1101","system_id":"levelo_inurba_marseille","lat":43.25102,"lon":5.403214,"is_reserved":false,"is_disabled":false,"rental_uris":{"android":"levelo://app?vid=ff4498ce-921d-4130-bc86-299e2ccc1101","ios":"levelo://app?vid=ff4498ce-921d-4130-bc86-299e2ccc1101"},"vehicle_type_id":"4","last_reported":1687014345,"current_range_meters":11600,"station_id":"ce4bhlh2rcd13ifvqgig","pricing_plan_id":"free"},{"bike_id":"5742d650-14cd-49ba-93fa-a1709d32170f","system_id":"levelo_inurba_marseille","lat":43.246461,"lon":5.389014,"is_reserved":false,"is_disabled":false,"rental_uris":{"android":"levelo://app?vid=5742d650-14cd-49ba-93fa-a1709d32170f","ios":"levelo://app?vid=5742d650-14cd-49ba-93fa-a1709d32170f"},"vehicle_type_id":"4","last_reported":1687014345,"current_range_meters":28000,"station_id":"ce4bhg12rcd13ifvqf60","pricing_plan_id":"free"},