{"last_updated":1730923845,"ttl":60,"version":"2.2","data":{"bikes":[{"bike_id":"ad7bd7b0-39aa-4255-b369-36ca8455a7df","system_id":"levelo_inurba_marseille","lat":43.31996,"lon":5.38146,"is_reserved":false,"is_disabled":false,"rental_uris":{"android":"levelo://app?vid=ad7bd7b0-39aa-4255-b369-36ca8455a7df","ios":"levelo://app?vid=ad7bd7b0-39aa-4255-b369-36ca8455a7df"},"vehicle_type_id":"4","last_reported":1730923845,"current_range_meters":22800,"station_id":"ce4bhr12rcd13ifvqhpg","pricing_plan_id":"cebpf4jnsgd1na2vs0mg"},{"bike_id":"ba0c072f-8c4a-4fe5-8b96-6570b7e9c09c","system_id":"levelo_inurba_marseille","lat":43.30874,"lon":5.39627,"is_reserved":false,"is_disabled":false,"rental_uris":{"android":"levelo://app?vid=ba0c072f-8c4a-4fe5-8b96-6570b7e9c09c","ios":"levelo://app?vid=ba0c072f-8c4a-4fe5-8b96-6570b7e9c09c"},"vehicle_type_id":"4","last_reported":1730923845,"current_range_meters":28800,"station_id":"ce4bh012rcd13ifvqcv0","pricing_plan_id":"cebpf4jnsgd1na2vs0mg"},{"bike_id":"0f1991e5-5c27-49ab-9079-83646c3bc4c8","system_id":"levelo_inurba_marseille","lat":43.276789,"lon":5.388754,"is_reserved":false,"is_disabled":false,"rental_uris":{"android":"levelo://app?vid=0f1991e5-5c27-49ab-9079-83646c3bc4c8","ios":"levelo://app?vid=0f1991e5-5c27-49ab-9079-83646c3bc4c8"},"vehicle_type_id":"4","last_reported":1730923845,"current_range_meters":22400,"station_id":"ce4bhi12rcd13ifvqfo0","pricing_plan_id":"cebpf4jnsgd1na2vs0mg"},{"bike_id":"448d2ede-0be4-434b-a64a-5bf129435fdc","system_id":"levelo_inurba_marseille","lat":43.28698,"lon":5.37387,"is_reserved":false,"is_disabled":false,"rental_uris":{"android":"levelo://app?vid=448d2ede-0be4-434b-a64a-5bf129435fdc","ios":"levelo://app?vid=448d2ede-0be4-434b-a64a-5bf129435fdc"},"vehicle_type_id":"4","last_reported":1730923845,"current_range_meters":6800,"station_id":"ce4bh3p2rcd13ifvqdq0","pricing_plan_id":"cebpf4jnsgd1na2vs0mg"},{"bike_id":"b79739f5-aaa0-49a4-a53d-2b13f632e303","system_id":"levelo_inurba_marseille","lat":43.31716,"lon":5.40464,"is_reserved":false,"is_disabled":false,"rental_uris":{"android":"levelo://app?vid=b79739f5-aaa0-49a4-a53d-2b13f632e303","ios":"levelo://app?vid=b79739f5-aaa0-49a4-a53d-2b13f632e303"},"vehicle_type_id":"4","last_reported":1730923845,"current_range_meters":12400,"station_id":"ce4bh012rcd13ifvqd00","pricing_plan_id":"cebpf4jnsgd1na2vs0mg"},{"bike_id":"1f8b71ff-a851-4c1b-97f3-54f5865919e3","system_id":"levelo_inurba_marseille","lat":43.27678,"lon":5.38874,"is_reserved":false,"is_disabled":false,"rental_uris":{"android":"levelo://app?vid=1f8b71ff-a851-4c1b-97f3-54f5865919e3","ios":"levelo://app?vid=1f8b71ff-a851-4c1b-97f3-54f5865919e3"},"vehicle_type_id":"4","last_reported":1730923845,"current_range_meters":39200,"station_id":"ce4bhi12rcd13ifvqfo0","pricing_plan_id":"cebpf4jnsgd1na2vs0mg"},{"bike_id":"2358f1b7-8303-46b0-8fd0-ffc2b5a34c06","system_id":"levelo_inurba_marseille","lat":43.24663,"lon":5.3817,"is_reserved":false,"is_disabled":false,"rental_uris":{"android":"levelo://app?vid=2358f1b7-8303-46b0-8fd0-ffc2b5a34c06","ios":"levelo://app?vid=2358f1b7-8303-46b0-8fd0-ffc2b5a34c06"},"vehicle_type_id":"4","last_reported":1730923845,"current_range_meters":38400,"station_id":"ce4bhih2rcd13ifvqfr0","pricing_plan_id":"cebpf4jnsgd1na2vs0mg"},{"bike_id":"4c31defd-a46c-451d-8327-93053a02cdad","system_id":"levelo_inurba_marseille","lat":43.31172,"lon":5.387262,"is_reserved":false,"is_disabled":false,"rental_uris":{"android":"levelo://app?vid=4c31defd-a46c-451d-8327-93053a02cdad","ios":"levelo://app?vid=4c31defd-a46c-451d-8327-93053a02cdad"},"vehicle_type_id":"4","last_reported":1730923845,"current_range_meters":10000,"station_id":"ce4bgv12rcd13ifvqcp0","pricing_plan_id":"cebpf4jnsgd1na2vs0mg"},{"bike_id":"e02d6de2-e1ff-4620-97db-57c175400127","system_id":"levelo_inurba_marseille","lat":43.30425,"lon":5.41284,"is_reserved":false,"is_disabled":false,"rental_uris":{"android":"levelo://app?vid=e02d6de2-e1ff-4620-97db-57c175400127","ios":"levelo://app?vid=e02d6de2-e1ff-4620-97db-57c175400127"},"vehicle_type_id":"4","last_reported":1730923845,"current_range_meters":35600,"station_id":"ce4bhop2rcd13ifvqh8g","pricing_plan_id":"cebpf4jnsgd1na2vs0mg"},{"bike_id":"aaf896be-23fc-4cde-b212-d643c208e7c1","system_id":"levelo_inurba_marseille","lat":43.30417,"lon":5.41288,"is_reserved":false,"is_disabled":false,"rental_uris":{"android":"levelo://app?vid=aaf896be-23fc-4cde-b212-d643c208e7c1","ios":"levelo://app?vid=aaf896be-23fc-4cde-b212-d643c208e7c1"},"vehicle_type_id":"4","last_reported":1730923845,"current_range_meters":36800,"station_id":"ce4bhop2rcd13ifvqh8g","pricing_plan_id":"cebpf4jnsgd1na2vs0mg"},{"bike_id":"2b1e29a8-028d-4b80-b389-6ca9637dad17","system_id":"levelo_inurba_marseille","lat":43.31698,"lon":5.37743,"is_reserved":false,"is_disabled":false,"rental_uris":{"android":"levelo://app?vid=2b1e29a8-028d-4b80-b389-6ca9637dad17","ios":"levelo://app?vid=2b1e29a8-028d-4b80-b389-6ca9637dad17"},"vehicle_type_id":"4","last_reported":1730923845,"current_range_meters":17600,"station_id":"ce4bgth2rcd13ifvqch0","pricing_plan_id":"cebpf4jnsgd1na2vs0mg"},{"bike_id":"72efadbb-bf11-43ff-96cf-c421a3f198ee","system_id":"levelo_inurba_marseille","lat":43.27613,"lon":5.36116,"is_reserved":false,"is_disabled":false,"rental_uris":{"android":"levelo://app?vid=72efadbb-bf11-43ff-96cf-c421a3f198ee","ios":"levelo://app?vid=72efadbb-bf11-43ff-96cf-c421a3f198ee"},"vehicle_type_id":"4","last_reported":1730923845,"current_range_meters":14400,"station_id":"ce4bgj92rcd13ifvqbe0","pricing_plan_id":"cebpf4jnsgd1na2vs0mg"},{"bike_id":"2e2fe7b5-7495-4cdd-8155-f9fafd6448a8","system_id":"levelo_inurba_marseille","lat":43.292755,"lon":5.407327,"is_reserved":false,"is_disabled":false,"rental_uris":{"android":"levelo://app?vid=2e2fe7b5-7495-4cdd-8155-f9fafd6448a8","ios":"levelo://app?vid=2e2fe7b5-7495-4cdd-8155-f9fafd6448a8"},"vehicle_type_id":"4","last_reported":1730923845,"current_range_meters":19200,"station_id":"","pricing_plan_id":"cebpf4jnsgd1na2vs0mg"},{"bike_id":"0a8340b8-aa59-41d5-a6d5-b06e9125053f","system_id":"levelo_inurba_marseille","lat":43.276789,"lon":5.388754,"is_reserved":false,"is_disabled":false,"rental_uris":{"android":"levelo://app?vid=0a8340b8-aa59-41d5-a6d5-b06e9125053f","ios":"levelo://app?vid=0a8340b8-aa59-41d5-a6d5-b06e9125053f"},"vehicle_type_id":"4","last_reported":1730923845,"current_range_meters":38800,"station_id":"ce4bhi12rcd13ifvqfo0","pricing_plan_id":"cebpf4jnsgd1na2vs0mg"},{"bike_id":"8af378d1-5bc4-457f-9470-74e88c52bda7","system_id":"levelo_inurba_marseille","lat":43.31996,"lon":5.38155,"is_reserved":false,"is_disabled":false,"rental_uris":{"android":"levelo://app?vid=8af378d1-5bc4-457f-9470-74e88c52bda7","ios":"levelo://app?vid=8af378d1-5bc4-457f-9470-74e88c52bda7"},"vehicle_type_id":"4","last_reported":1730923845,"current_range_meters":38800,"station_id":"ce4bhr12rcd13ifvqhpg","pricing_plan_id":"cebpf4jnsgd1na2vs0mg"},{"bike_id":"55fc641b-46b1-4285-8546-805cff3fb723","system_id":"levelo_inurba_marseille","lat":43.28066,"lon":5.39643,"is_reserved":false,"is_disabled":false,"rental_uris":{"android":"levelo://app?vid=55fc641b-46b1-4285-8546-805cff3fb723","ios":"levelo://app?vid=55fc641b-46b1-4285-8546-805cff3fb723"},"vehicle_type_id":"4","last_reported":1730923845,"current_range_meters":6400,"station_id":"ce4bho12rcd13ifvqh2g","pricing_plan_id":"cebpf4jnsgd1na2vs0mg"},{"bike_id":"92437862-9629-46f7-8ed5-946bc7784f02","system_id":"levelo_inurba_marseille","lat":43.31999,"lon":5.38149,"is_reserved":false,"is_disabled":false,"rental_uris":{"android":"levelo://app?vid=92437862-9629-46f7-8ed5-946bc7784f02","ios":"levelo://app?vid=92437862-9629-46f7-8ed5-946bc7784f02"},"vehicle_type_id":"4","last_reported":1730923845,"current_range_meters":29600,"station_id":"ce4bhr12rcd13ifvqhpg","pricing_plan_id":"cebpf4jnsgd1na2vs0mg"},{"bike_id":"44135612-fabe-4db6-b769-98ffa02d00e4","system_id":"levelo_inurba_marseille","lat":43.32283,"lon":5.3825,"is_reserved":false,"is_disabled":false,"rental_uris":{"android":"levelo://app?vid=44135612-fabe-4db6-b769-98ffa02d00e4","ios":"levelo://app?vid=44135612-fabe-4db6-b769-98ffa02d00e4"},"vehicle_type_id":"4","last_reported":1730923845,"current_range_meters":38800,"station_id":"ce4bhr12rcd13ifvqhqg","pricing_plan_id":"cebpf4jnsgd1na2vs0mg"},{"bike_id":"bbf99880-acfb-4416-9409-3cae8eae0204","system_id":"levelo_inurba_marseille","lat":43.284382,"lon":5.392056,"is_reserved":false,"is_disabled":false,"rental_uris":{"android":"levelo://app?vid=bbf99880-acfb-4416-9409-3cae8eae0204","ios":"levelo://app?vid=bbf99880-acfb-4416-9409-3cae8eae0204"},"vehicle_type_id":"4","last_reported":1730923845,"current_range_meters":36000,"station_id":"ce4bhoh2rcd13ifvqh5g","pricing_plan_id":"cebpf4jnsgd1na2vs0mg"},{"bike_id":"701523d9-1b3c-4253-b84d-c5e48c0380fd","system_id":"levelo_inurba_marseille","lat":43.29881,"lon":5.39732,"is_reserved":false,"is_disabled":false,"rental_uris":{"android":"levelo://app?vid=701523d9-1b3c-4253-b84d-c5e48c0380fd","ios":"levelo://app?vid=701523d9-1b3c-4253-b84d-c5e48c0380fd"},"vehicle_type_id":"4","last_reported":1730923845,"current_range_meters":32400,"station_id":"ce4bh0h2rcd13ifvqd50","pricing_plan_id":"cebpf4jnsgd1na2vs0mg"},{"bike_id":"4b8f51c7-3386-420b-a363-4efce99317bc","system_id":"levelo_inurba_marseille","lat":43.3154,"lon":5.38023,"is_reserved":false,"is_disabled":false,"rental_uris":{"android":"levelo://app?vid=4b8f51c7-3386-420b-a363-4efce99317bc","ios":"levelo://app?vid=4b8f51c7-3386-420b-a363-4efce99317bc"},"vehicle_type_id":"4","last_reported":1730923845,"current_range_meters":27200,"station_id":"ce4bhsp2rcd13ifvqi50","pricing_plan_id":"cebpf4jnsgd1na2vs0mg"},{"bike_id":"1e042949-838c-4779-9ed3-e835e41e7461","system_id":"levelo_inurba_marseille","lat":43.28003,"lon":5.40012,"is_reserved":false,"is_disabled":false,"rental_uris":{"android":"levelo://app?vid=1e042949-838c-4779-9ed3-e835e41e7461","ios":"levelo://app?vid=1e042949-838c-4779-9ed3-e835e41e7461"},"vehicle_type_id":"4","last_reported":1730923845,"current_range_meters":6800,"station_id":"ce4bho92rcd13ifvqh4g","pricing_plan_id":"cebpf4jnsgd1na2vs0mg"},{"bike_id":"8ab8f648-ce30-4cf5-afe6-0e778780037b","system_id":"levelo_inurba_marseille","lat":43.29412,"lon":5.38621,"is_reserved":false,"is_disabled":false,"rental_uris":{"android":"levelo://app?vid=8ab8f648-ce30-4cf5-afe6-0e778780037b","ios":"levelo://app?vid=8ab8f648-ce30-4cf5-afe6-0e778780037b"},"vehicle_type_id":"4","last_reported":1730923845,"current_range_meters":39200,"station_id":"ce4bh2h2rcd13ifvqdh0","pricing_plan_id":"cebpf4jnsgd1na2vs0mg"},{"bike_id":"9654555d-3da7-4438-9e22-4a2747c00a88","system_id":"levelo_inurba_marseille","lat":43.292589,"lon":5.409029,"is_reserved":false,"is_disabled":false,"rental_uris":{"android":"levelo://app?vid=9654555d-3da7-4438-9e22-4a2747c00a88","ios":"levelo://app?vid=9654555d-3da7-4438-9e22-4a2747c00a88"},"vehicle_type_id":"4","last_reported":1730923845,"current_range_meters":33200,"station_id":"ce4bh192rcd13ifvqdb0","pricing_plan_id":"cebpf4jnsgd1na2vs0mg"},{"bike_id":"22f638ae-f6cc-4d27-92fe-75a6e865b47d","system_id":"levelo_inurba_marseille","lat":43.240725,"lon":5.377567,"is_reserved":false,"is_disabled":false,"rental_uris":{"android":"levelo://app?vid=22f638ae-f6cc-4d27-92fe-75a6e865b47d","ios":"levelo://app?vid=22f638ae-f6cc-4d27-92fe-75a6e865b47d"},"vehicle_type_id":"4","last_reported":1730923845,"current_range_meters":38800,"station_id":"ce4bhnp2rcd13ifvqgvg","pricing_plan_id":"cebpf4jnsgd1na2vs0mg"},{"bike_id":"252aa438-b137-4792-859a-b2086cf49135","system_id":"levelo_inurba_marseille","lat":43.29571,"lon":5.37525,"is_reserved":false,"is_disabled":false,"rental_uris":{"android":"levelo://app?vid=252aa438-b137-4792-859a-b2086cf49135","ios":"levelo://app?vid=252aa438-b137-4792-859a-b2086cf49135"},"vehicle_type_id":"4","last_reported":1730923845,"current_range_meters":36000,"station_id":"ce4bh0h2rcd13ifvqd40","pricing_plan_id":"cebpf4jnsgd1na2vs0mg"},{"bike_id":"94e4a7da-09f9-41d9-af50-47461b850798","system_id":"levelo_inurba_marseille","lat":43.26494,"lon":5.39544,"is_reserved":false,"is_disabled":false,"rental_uris":{"android":"levelo://app?vid=94e4a7da-09f9-41d9-af50-47461b850798","ios":"levelo://app?vid=94e4a7da-09f9-41d9-af50-47461b850798"},"vehicle_type_id":"4","last_reported":1730923845,"current_range_meters":38800,"station_id":"ce4bhi12rcd13ifvqfq0","pricing_plan_id":"cebpf4jnsgd1na2vs0mg"},{"bike_id":"8b08f0c6-e2e9-4827-ae51-d5e67cd6e972","system_id":"levelo_inurba_marseille","lat":43.308918,"lon":5.371899,"is_reserved":false,"is_disabled":false,"rental_uris":{"android":"levelo://app?vid=8b08f0c6-e2e9-4827-ae51-d5e67cd6e972","ios":"levelo://app?vid=8b08f0c6-e2e9-4827-ae51-d5e67cd6e972"},"vehicle_type_id":"4","last_reported":1730923845,"current_range_meters":38800,"station_id":"ce4bguh2rcd13ifvqckg","pricing_plan_id":"cebpf4jnsgd1na2vs0mg"},{"bike_id":"da5056f8-a12b-42fd-a29c-625fdf8fea4b","system_id":"levelo_inurba_marseille","lat":43.29865,"lon":5.38899,"is_reserved":false,"is_disabled":false,"rental_uris":{"android":"levelo://app?vid=da5056f8-a12b-42fd-a29c-625fdf8fea4b","ios":"levelo://app?vid=da5056f8-a12b-42fd-a29c-625fdf8fea4b"},"vehicle_type_id":"4","last_reported":1730923845,"current_range_meters":30800,"station_id":"ce4bh392rcd13ifvqdl0","pricing_plan_id":"cebpf4jnsgd1na2vs0mg"},{"bike_id":"40512a4d-68bc-40a3-81d1-67cc73d350d9","system_id":"levelo_inurba_marseille","lat":43.27182,"lon":5.40992,"is_reserved":false,"is_disabled":false,"rental_uris":{"android":"levelo://app?vid=40512a4d-68bc-40a3-81d1-67cc73d350d9","ios":"levelo://app?vid=40512a4d-68bc-40a3-81d1-67cc73d350d9"},"vehicle_type_id":"4","last_reported":1730923845,"current_range_meters":36000,"station_id":"ce4bhl12rcd13ifvqgf0","pricing_plan_id":"cebpf4jnsgd1na2vs0mg"},{"bike_id":"8a401a8a-30f9-4643-ad63-74116d1b600f","system_id":"levelo_inurba_marseille","lat":43.3247,"lon":5.36577,"is_reserved":false,"is_disabled":false,"rental_uris":{"android":"levelo://app?vid=8a401a8a-30f9-4643-ad63-74116d1b600f","ios":"levelo://app?vid=8a401a8a-30f9-4643-ad63-74116d1b600f"},"vehicle_type_id":"4","last_reported":1730923845,"current_range_meters":38800,"station_id":"ce4bhs12rcd13ifvqhvg","pricing_plan_id":"cebpf4jnsgd1na2vs0mg"},{"bike_id":"171db454-9231-4690-bd0b-fa5dcfdd830b","system_id":"levelo_inurba_marseille","lat":43.31756,"lon":5.3902,"is_reserved":false,"is_disabled":false,"rental_uris":{"android":"levelo://app?vid=171db454-9231-4690-bd0b-fa5dcfdd830b","ios":"levelo://app?vid=171db454-9231-4690-bd0b-fa5dcfdd830b"},"vehicle_type_id":"4","last_reported":1730923845,"current_range_meters":38000,"station_id":"ce4bhqp2rcd13ifvqhng","pricing_plan_id":"cebpf4jnsgd1na2vs0mg"},{"bike_id":"bd6b233d-7d51-4665-83ff-c4bc24b08227","system_id":"levelo_inurba_marseille","lat":43.31168,"lon":5.38716,"is_reserved":false,"is_disabled":false,"rental_uris":{"android":"levelo://app?vid=bd6b233d-7d51-4665-83ff-c4bc24b08227","ios":"levelo://app?vid=bd6b233d-7d51-4665-83ff-c4bc24b08227"},"vehicle_type_id":"4","last_reported":1730923845,"current_range_meters":10000,"station_id":"ce4bgv12rcd13ifvqcp0","pricing_plan_id":"cebpf4jnsgd1na2vs0mg"},{"bike_id":"d0fcbdd4-64f5-49c0-9944-ad1d66720c7e","system_id":"levelo_inurba_marseille","lat":43.28415,"lon":5.37527,"is_reserved":false,"is_disabled":false,"rental_uris":{"android":"levelo://app?vid=d0fcbdd4-64f5-49c0-9944-ad1d66720c7e","ios":"levelo://app?vid=d0fcbdd4-64f5-49c0-9944-ad1d66720c7e"},"vehicle_type_id":"4","last_reported":1730923845,"current_range_meters":9200,"station_id":"ce4bh412rcd13ifvqds0","pricing_plan_id":"cebpf4jnsgd1na2vs0mg"},{"bike_id":"8de32907-cbd5-4c5a-95fa-c6c22e5410e6","system_id":"levelo_inurba_marseille","lat":43.26931,"lon":5.38912,"is_reserved":false,"is_disabled":false,"rental_uris":{"android":"levelo://app?vid=8de32907-cbd5-4c5a-95fa-c6c22e5410e6","ios":"levelo://app?vid=8de32907-cbd5-4c5a-95fa-c6c22e5410e6"},"vehicle_type_id":"4","last_reported":1730923845,"current_range_meters":38800,"station_id":"ce4bhhh2rcd13ifvqfl0","pricing_plan_id":"cebpf4jnsgd1na2vs0mg"},{"bike_id":"70c58f90-07b4-4539-afe7-53005afde81b","system_id":"levelo_inurba_marseille","lat":43.295988,"lon":5.38099,"is_reserved":false,"is_disabled":false,"rental_uris":{"android":"levelo://app?vid=70c58f90-07b4-4539-afe7-53005afde81b","ios":"levelo://app?vid=70c58f90-07b4-4539-afe7-53005afde81b"},"vehicle_type_id":"4","last_reported":1730923845,"current_range_meters":37600,"station_id":"ce4bgl12rcd13ifvqbo0","pricing_plan_id":"cebpf4jnsgd1na2vs0mg"},{"bike_id":"75aa7121-dc8c-4737-8160-6ccb6a178119","system_id":"levelo_inurba_marseille","lat":43.25584,"lon":5.38252,"is_reserved":false,"is_disabled":false,"rental_uris":{"android":"levelo://app?vid=75aa7121-dc8c-4737-8160-6ccb6a178119","ios":"levelo://app?vid=75aa7121-dc8c-4737-8160-6ccb6a178119"},"vehicle_type_id":"4","last_reported":1730923845,"current_range_meters":18000,"station_id":"ce4bhih2rcd13ifvqfs0","pricing_plan_id":"cebpf4jnsgd1na2vs0mg"},{"bike_id":"72ab18df-21fe-430a-8dc7-5381272d51d9","system_id":"levelo_inurba_marseille","lat":43.27947,"lon":5.41037,"is_reserved":false,"is_disabled":false,"rental_uris":{"android":"levelo://app?vid=72ab18df-21fe-430a-8dc7-5381272d51d9","ios":"levelo://app?vid=72ab18df-21fe-430a-8dc7-5381272d51d9"},"vehicle_type_id":"4","last_reported":1730923845,"current_range_meters":23200,"station_id":"ce4bhnp2rcd13ifvqh0g","pricing_plan_id":"cebpf4jnsgd1na2vs0mg"},{"bike_id":"82606c5c-1784-4898-805d-d3cc4ba397ec","system_id":"levelo_inurba_marseille","lat":43.25496,"lon":5.37649,"is_reserved":false,"is_disabled":false,"rental_uris":{"android":"levelo://app?vid=82606c5c-1784-4898-805d-d3cc4ba397ec","ios":"levelo://app?vid=82606c5c-1784-4898-805d-d3cc4ba397ec"},"vehicle_type_id":"4","last_reported":1730923845,"current_range_meters":7200,"station_id":"","pricing_plan_id":"cebpf4jnsgd1na2vs0mg"},{"bike_id":"328512fc-3e80-4303-8fb9-8bdfa1c9bb84","system_id":"levelo_inurba_marseille","lat":43.28945,"lon":5.39659,"is_reserved":false,"is_disabled":false,"rental_uris":{"android":"levelo://app?vid=328512fc-3e80-4303-8fb9-8bdfa1c9bb84","ios":"levelo://app?vid=328512fc-3e80-4303-8fb9-8bdfa1c9bb84"},"vehicle_type_id":"4","last_reported":1730923845,"current_range_meters":36800,"station_id":"ce4bh3h2rcd13ifvqdn0","pricing_plan_id":"cebpf4jnsgd1na2vs0mg"},{"bike_id":"d5e91622-e3dd-4f31-acce-52cf3f312cf4","system_id":"levelo_inurba_marseille","lat":43.24398,"lon":5.37057,"is_reserved":false,"is_disabled":false,"rental_uris":{"android":"levelo://app?vid=d5e91622-e3dd-4f31-acce-52cf3f312cf4","ios":"levelo://app?vid=d5e91622-e3dd-4f31-acce-52cf3f312cf4"},"vehicle_type_id":"4","last_reported":1730923845,"current_range_meters":8800,"station_id":"ce4bhhh2rcd13ifvqfk0","pricing_plan_id":"cebpf4jnsgd1na2vs0mg"},{"bike_id":"692f31da-ed64-4e18-b7cc-350f01a2fb79","system_id":"levelo_inurba_marseille","lat":43.30185,"lon":5.43763,"is_reserved":false,"is_disabled":false,"rental_uris":{"android":"levelo://app?vid=692f31da-ed64-4e18-b7cc-350f01a2fb79","ios":"levelo://app?vid=692f31da-ed64-4e18-b7cc-350f01a2fb79"},"vehicle_type_id":"4","last_reported":1730923845,"current_range_meters":17200,"station_id":"","pricing_plan_id":"cebpf4jnsgd1na2vs0mg"},{"bike_id":"8b1d7819-65f0-4cb2-bedd-ed63609540e6","system_id":"levelo_inurba_marseille","lat":43.30318,"lon":5.40441,"is_reserved":false,"is_disabled":false,"rental_uris":{"android":"levelo://app?vid=8b1d7819-65f0-4cb2-bedd-ed63609540e6","ios":"levelo://app?vid=8b1d7819-65f0-4cb2-bedd-ed63609540e6"},"vehicle_type_id":"4","last_reported":1730923845,"current_range_meters":36000,"station_id":"ce4bh012rcd13ifvqd10","pricing_plan_id":"cebpf4jnsgd1na2vs0mg"},{"bike_id":"396a9a9c-144b-4091-bde1-a8caae5f9db9","system_id":"levelo_inurba_marseille","lat":43.28934,"lon":5.36385,"is_reserved":false,"is_disabled":false,"rental_uris":{"android":"levelo://app?vid=396a9a9c-144b-4091-bde1-a8caae5f9db9","ios":"levelo://app?vid=396a9a9c-144b-4091-bde1-a8caae5f9db9"},"vehicle_type_id":"4","last_reported":1730923845,"current_range_meters":26800,"station_id":"ce4bhc92rcd13ifvqetg","pricing_plan_id":"cebpf4jnsgd1na2vs0mg"},{"bike_id":"3dfca8a2-45fa-46ba-bdb9-c62b9301e8fd","system_id":"levelo_inurba_marseille","lat":43.25503,"lon":5.37653,"is_reserved":false,"is_disabled":false,"rental_uris":{"android":"levelo://app?vid=3dfca8a2-45fa-46ba-bdb9-c62b9301e8fd","ios":"levelo://app?vid=3dfca8a2-45fa-46ba-bdb9-c62b9301e8fd"},"vehicle_type_id":"4","last_reported":1730923845,"current_range_meters":14400,"station_id":"","pricing_plan_id":"cebpf4jnsgd1na2vs0mg"},{"bike_id":"b3ab13db-8990-417f-b526-d674774d17db","system_id":"levelo_inurba_marseille","lat":43.29523,"lon":5.39401,"is_reserved":false,"is_disabled":false,"rental_uris":{"android":"levelo://app?vid=b3ab13db-8990-417f-b526-d674774d17db","ios":"levelo://app?vid=b3ab13db-8990-417f-b526-d674774d17db"},"vehicle_type_id":"4","last_reported":1730923845,"current_range_meters":9200,"station_id":"ce4bh292rcd13ifvqdf0","pricing_plan_id":"cebpf4jnsgd1na2vs0mg"},{"bike_id":"af114740-a9c4-4afa-9ec9-1d0f168702da","system_id":"levelo_inurba_marseille","lat":43.2942,"lon":5.38532,"is_reserved":false,"is_disabled":false,"rental_uris":{"android":"levelo://app?vid=af114740-a9c4-4afa-9ec9-1d0f168702da","ios":"levelo://app?vid=af114740-a9c4-4afa-9ec9-1d0f168702da"},"vehicle_type_id":"4","last_reported":1730923845,"current_range_meters":38000,"station_id":"ce4bh2h2rcd13ifvqdh0","pricing_plan_id":"cebpf4jnsgd1na2vs0mg"},{"bike_id":"b4acb205-fefb-4ff0-a0f5-e0b7a0a1fe0d","system_id":"levelo_inurba_marseille","lat":43.27992,"lon":5.41657,"is_reserved":false,"is_disabled":false,"rental_uris":{"android":"levelo://app?vid=b4acb205-fefb-4ff0-a0f5-e0b7a0a1fe0d","ios":"levelo://app?vid=b4acb205-fefb-4ff0-a0f5-e0b7a0a1fe0d"},"vehicle_type_id":"4","last_reported":1730923845,"current_range_meters":24800,"station_id":"ce4bho12rcd13ifvqh1g","pricing_plan_id":"cebpf4jnsgd1na2vs0mg"},{"bike_id":"3a265529-f2df-4840-bbc7-a2d699d588fb","system_id":"levelo_inurba_marseille","lat":43.24396,"lon":5.37058,"is_reserved":false,"is_disabled":false,"rental_uris":{"android":"levelo://app?vid=3a265529-f2df-4840-bbc7-a2d699d588fb","ios":"levelo://app?vid=3a265529-f2df-4840-bbc7-a2d699d588fb"},"vehicle_type_id":"4","last_reported":1730923845,"current_range_meters":20800,"station_id":"ce4bhhh2rcd13ifvqfk0","pricing_plan_id":"cebpf4jnsgd1na2vs0mg"},{"bike_id":"04a2a9d5-a67b-4f66-a320-5076967e32b0","system_id":"levelo_inurba_marseille","lat":43.279552,"lon":5.387386,"is_reserved":false,"is_disabled":false,"rental_uris":{"android":"levelo://app?vid=04a2a9d5-a67b-4f66-a320-5076967e32b0","ios":"levelo://app?vid=04a2a9d5-a67b-4f66-a320-5076967e32b0"},"vehicle_type_id":"4","last_reported":1730923845,"current_range_meters":38800,"station_id":"ce4bhg12rcd13ifvqf80","pricing_plan_id":"cebpf4jnsgd1na2vs0mg"},{"bike_id":"dc17e306-8ad0-4f72-be8a-86e1adf7c59d","system_id":"levelo_inurba_marseille","lat":43.28669,"lon":5.36353,"is_reserved":false,"is_disabled":false,"rental_uris":{"android":"levelo://app?vid=dc17e306-8ad0-4f72-be8a-86e1adf7c59d","ios":"levelo://app?vid=dc17e306-8ad0-4f72-be8a-86e1adf7c59d"},"vehicle_type_id":"4","last_reported":1730923845,"current_range_meters":26000,"station_id":"ce4bhah2rcd13ifvqej0","pricing_plan_id":"cebpf4jnsgd1na2vs0mg"},{"bike_id":"5dd7668a-4a2c-4ecb-8db7-007134c70f06","system_id":"levelo_inurba_marseille","lat":43.31088,"lon":5.42434,"is_reserved":false,"is_disabled":false,"rental_uris":{"android":"levelo://app?vid=5dd7668a-4a2c-4ecb-8db7-007134c70f06","ios":"levelo://app?vid=5dd7668a-4a2c-4ecb-8db7-007134c70f06"},"vehicle_type_id":"4","last_reported":1730923845,"current_range_meters":18000,"station_id":"ce4bhp92rcd13ifvqhag","pricing_plan_id":"cebpf4jnsgd1na2vs0mg"},{"bike_id":"fda5bc81-6643-4436-a3dd-172c650ccbf0","system_id":"levelo_inurba_marseille","lat":43.29242,"lon":5.38429,"is_reserved":false,"is_disabled":false,"rental_uris":{"android":"levelo://app?vid=fda5bc81-6643-4436-a3dd-172c650ccbf0","ios":"levelo://app?vid=fda5bc81-6643-4436-a3dd-172c650ccbf0"},"vehicle_type_id":"4","last_reported":1730923845,"current_range_meters":28000,"station_id":"ce4bh692rcd13ifvqea0","pricing_plan_id":"cebpf4jnsgd1na2vs0mg"},{"bike_id":"2a125477-0965-4ee5-b6e9-03b33dc0ed04","system_id":"levelo_inurba_marseille","lat":43.31272,"lon":5.40169,"is_reserved":false,"is_disabled":false,"rental_uris":{"android":"levelo://app?vid=2a125477-0965-4ee5-b6e9-03b33dc0ed04","ios":"levelo://app?vid=2a125477-0965-4ee5-b6e9-03b33dc0ed04"},"vehicle_type_id":"4","last_reported":1730923845,"current_range_meters":36000,"station_id":"ce4bh092rcd13ifvqd30","pricing_plan_id":"cebpf4jnsgd1na2vs0mg"},{"bike_id":"78ea8e6b-fcbc-4ca9-b233-6e6fd40ab14f","system_id":"levelo_inurba_marseille","lat":43.28028,"lon":5.36935,"is_reserved":false,"is_disabled":false,"rental_uris":{"android":"levelo://app?vid=78ea8e6b-fcbc-4ca9-b233-6e6fd40ab14f","ios":"levelo://app?vid=78ea8e6b-fcbc-4ca9-b233-6e6fd40ab14f"},"vehicle_type_id":"4","last_reported":1730923845,"current_range_meters":24800,"station_id":"ce4bha12rcd13ifvqef0","pricing_plan_id":"cebpf4jnsgd1na2vs0mg"},{"bike_id":"66cadc2f-87dc-4b78-bb91-c6d6eee1cfce","system_id":"levelo_inurba_marseille","lat":43.30148,"lon":5.39886,"is_reserved":false,"is_disabled":false,"rental_uris":{"android":"levelo://app?vid=66cadc2f-87dc-4b78-bb91-c6d6eee1cfce","ios":"levelo://app?vid=66cadc2f-87dc-4b78-bb91-c6d6eee1cfce"},"vehicle_type_id":"4","last_reported":1730923845,"current_range_meters":17200,"station_id":"ce4bh0h2rcd13ifvqd40","pricing_plan_id":"cebpf4jnsgd1na2vs0mg"},{"bike_id":"a711d526-17f9-4333-96b8-d1dff3f07d6d","system_id":"levelo_inurba_marseille","lat":43.268083,"lon":5.402673,"is_reserved":false,"is_disabled":false,"rental_uris":{"android":"levelo://app?vid=a711d526-17f9-4333-96b8-d1dff3f07d6d","ios":"levelo://app?vid=a711d526-17f9-4333-96b8-d1dff3f07d6d"},"vehicle_type_id":"4","last_reported":1730923845,"current_range_meters":18800,"station_id":"ce501612rcd8frsf0b60","pricing_plan_id":"cebpf4jnsgd1na2vs0mg"},{"bike_id":"21466968-2323-48ce-b06e-cc96e24821c3","system_id":"levelo_inurba_marseille","lat":43.29712,"lon":5.36605,"is_reserved":false,"is_disabled":false,"rental_uris":{"android":"levelo://app?vid=21466968-2323-48ce-b06e-cc96e24821c3","ios":"levelo://app?vid=21466968-2323-48ce-b06e-cc96e24821c3"},"vehicle_type_id":"4","last_reported":1730923845,"current_range_meters":29600,"station_id":"ce4bgn12rcd13ifvqbt0","pricing_plan_id":"cebpf4jnsgd1na2vs0mg"},{"bike_id":"081053e3-ccb9-46ca-9453-43abcf34915a","system_id":"levelo_inurba_marseille","lat":43.24658,"lon":5.38162,"is_reserved":false,"is_disabled":false,"rental_uris":{"android":"levelo://app?vid=081053e3-ccb9-46ca-9453-43abcf34915a","ios":"levelo://app?vid=081053e3-ccb9-46ca-9453-43abcf34915a"},"vehicle_type_id":"4","last_reported":1730923845,"current_range_meters":29600,"station_id":"ce4bhih2rcd13ifvqfr0","pricing_plan_id":"cebpf4jnsgd1na2vs0mg"},{"bike_id":"fda585f3-425c-4d9f-b8ce-f5692b144a9b","system_id":"levelo_inurba_marseille","lat":43.29529,"lon":5.38539,"is_reserved":false,"is_disabled":false,"rental_uris":{"android":"levelo://app?vid=fda585f3-425c-4d9f-b8ce-f5692b144a9b","ios":"levelo://app?vid=fda585f3-425c-4d9f-b8ce-f5692b144a9b"},"vehicle_type_id":"4","last_reported":1730923845,"current_range_meters":38000,"station_id":"ce4bgih2rcd13ifvqba0","pricing_plan_id":"cebpf4jnsgd1na2vs0mg"},{"bike_id":"a38f2a8c-cf19-4e30-9c4b-2af64ae8949c","system_id":"levelo_inurba_marseille","lat":43.22945,"lon":5.35379,"is_reserved":false,"is_disabled":false,"rental_uris":{"android":"levelo://app?vid=a38f2a8c-cf19-4e30-9c4b-2af64ae8949c","ios":"levelo://app?vid=a38f2a8c-cf19-4e30-9c4b-2af64ae8949c"},"vehicle_type_id":"4","last_reported":1730923845,"current_range_meters":30400,"station_id":"cpo3532slgdg3j2ikp40","pricing_plan_id":"cebpf4jnsgd1na2vs0mg"},{"bike_id":"109d10f4-02e4-4395-8a3b-ada3d1f69163","system_id":"levelo_inurba_marseille","lat":43.30136,"lon":5.39879,"is_reserved":false,"is_disabled":false,"rental_uris":{"android":"levelo://app?vid=109d10f4-02e4-4395-8a3b-ada3d1f69163","ios":"levelo://app?vid=109d10f4-02e4-4395-8a3b-ada3d1f69163"},"vehicle_type_id":"4","last_reported":1730923845,"current_range_meters":24800,"station_id":"ce4bh0h2rcd13ifvqd40","pricing_plan_id":"cebpf4jnsgd1na2vs0mg"},{"bike_id":"22ba4e04-1cac-40d4-9807-17a7730fe3cd","system_id":"levelo_inurba_marseille","lat":43.30252,"lon":5.40066,"is_reserved":false,"is_disabled":false,"rental_uris":{"android":"levelo://app?vid=22ba4e04-1cac-40d4-9807-17a7730fe3cd","ios":"levelo://app?vid=22ba4e04-1cac-40d4-9807-17a7730fe3cd"},"vehicle_type_id":"4","last_reported":1730923845,"current_range_meters":38800,"station_id":"ce4bgvh2rcd13ifvqcs0","pricing_plan_id":"cebpf4jnsgd1na2vs0mg"},{"bike_id":"66f19576-170e-4bdc-8ddf-aa1c58792fe4","system_id":"levelo_inurba_marseille","lat":43.30641,"lon":5.40081,"is_reserved":false,"is_disabled":false,"rental_uris":{"android":"levelo://app?vid=66f19576-170e-4bdc-8ddf-aa1c58792fe4","ios":"levelo://app?vid=66f19576-170e-4bdc-8ddf-aa1c58792fe4"},"vehicle_type_id":"4","last_reported":1730923845,"current_range_meters":38800,"station_id":"ce4bh112rcd13ifvqda0","pricing_plan_id":"cebpf4jnsgd1na2vs0mg"},{"bike_id":"981e35e7-7a8c-46e2-824d-1f28d39b001f","system_id":"levelo_inurba_marseille","lat":43.31273,"lon":5.40175,"is_reserved":false,"is_disabled":false,"rental_uris":{"android":"levelo://app?vid=981e35e7-7a8c-46e2-824d-1f28d39b001f","ios":"levelo://app?vid=981e35e7-7a8c-46e2-824d-1f28d39b001f"},"vehicle_type_id":"4","last_reported":1730923845,"current_range_meters":38800,"station_id":"ce4bh092rcd13ifvqd30","pricing_plan_id":"cebpf4jnsgd1na2vs0mg"},{"bike_id":"006bd7d7-4674-4f85-b438-aeed9b7a28d9","system_id":"levelo_inurba_marseille","lat":43.30323,"lon":5.40445,"is_reserved":false,"is_disabled":false,"rental_uris":{"android":"levelo://app?vid=006bd7d7-4674-4f85-b438-aeed9b7a28d9","ios":"levelo://app?vid=006bd7d7-4674-4f85-b438-aeed9b7a28d9"},"vehicle_type_id":"4","last_reported":1730923845,"current_range_meters":24400,"station_id":"ce4bh012rcd13ifvqd10","pricing_plan_id":"cebpf4jnsgd1na2vs0mg"},{"bike_id":"05cb2f82-cbed-4c21-a22c-6eef94a77efe","system_id":"levelo_inurba_marseille","lat":43.29578,"lon":5.36729,"is_reserved":false,"is_disabled":false,"rental_uris":{"android":"levelo://app?vid=05cb2f82-cbed-4c21-a22c-6eef94a77efe","ios":"levelo://app?vid=05cb2f82-cbed-4c21-a22c-6eef94a77efe"},"vehicle_type_id":"4","last_reported":1730923845,"current_range_meters":37600,"station_id":"ce4bgph2rcd13ifvqc2g","pricing_plan_id":"cebpf4jnsgd1na2vs0mg"},{"bike_id":"42163e3e-5009-401f-a1ce-f09eb7e2a510","system_id":"levelo_inurba_marseille","lat":43.31331,"lon":5.39695,"is_reserved":false,"is_disabled":false,"rental_uris":{"android":"levelo://app?vid=42163e3e-5009-401f-a1ce-f09eb7e2a510","ios":"levelo://app?vid=42163e3e-5009-401f-a1ce-f09eb7e2a510"},"vehicle_type_id":"4","last_reported":1730923845,"current_range_meters":38800,"station_id":"ce4bgvp2rcd13ifvqcu0","pricing_plan_id":"cebpf4jnsgd1na2vs0mg"},{"bike_id":"4102c5da-b3bb-4e3b-b23f-eef2c213d450","system_id":"levelo_inurba_marseille","lat":43.231873,"lon":5.399782,"is_reserved":false,"is_disabled":false,"rental_uris":{"android":"levelo://app?vid=4102c5da-b3bb-4e3b-b23f-eef2c213d450","ios":"levelo://app?vid=4102c5da-b3bb-4e3b-b23f-eef2c213d450"},"vehicle_type_id":"4","last_reported":1730923845,"current_range_meters":38800,"station_id":"ce4bhn12rcd13ifvqgqg","pricing_plan_id":"cebpf4jnsgd1na2vs0mg"},{"bike_id":"a0db1695-32d8-4d9c-9829-ab1da773a69e","system_id":"levelo_inurba_marseille","lat":43.30135,"lon":5.39867,"is_reserved":false,"is_disabled":false,"rental_uris":{"android":"levelo://app?vid=a0db1695-32d8-4d9c-9829-ab1da773a69e","ios":"levelo://app?vid=a0db1695-32d8-4d9c-9829-ab1da773a69e"},"vehicle_type_id":"4","last_reported":1730923845,"current_range_meters":36400,"station_id":"ce4bh0h2rcd13ifvqd40","pricing_plan_id":"cebpf4jnsgd1na2vs0mg"},{"bike_id":"c11c2ccd-1a6b-426e-a6be-d7b8db656223","system_id":"levelo_inurba_marseille","lat":43.30891,"lon":5.39637,"is_reserved":false,"is_disabled":false,"rental_uris":{"android":"levelo://app?vid=c11c2ccd-1a6b-426e-a6be-d7b8db656223","ios":"levelo://app?vid=c11c2ccd-1a6b-426e-a6be-d7b8db656223"},"vehicle_type_id":"4","last_reported":1730923845,"current_range_meters":13600,"station_id":"ce4bh012rcd13ifvqcv0","pricing_plan_id":"cebpf4jnsgd1na2vs0mg"},{"bike_id":"0f30486d-0086-40f8-aa8f-1b809a6f0974","system_id":"levelo_inurba_marseille","lat":43.28926,"lon":5.38386,"is_reserved":false,"is_disabled":false,"rental_uris":{"android":"levelo://app?vid=0f30486d-0086-40f8-aa8f-1b809a6f0974","ios":"levelo://app?vid=0f30486d-0086-40f8-aa8f-1b809a6f0974"},"vehicle_type_id":"4","last_reported":1730923845,"current_range_meters":3200,"station_id":"ce4bh612rcd13ifvqe6g","pricing_plan_id":"cebpf4jnsgd1na2vs0mg"},{"bike_id":"1222545d-f607-4658-a0af-f3ecb0fb9e37","system_id":"levelo_inurba_marseille","lat":43.25087,"lon":5.3952,"is_reserved":false,"is_disabled":false,"rental_uris":{"android":"levelo://app?vid=1222545d-f607-4658-a0af-f3ecb0fb9e37","ios":"levelo://app?vid=1222545d-f607-4658-a0af-f3ecb0fb9e37"},"vehicle_type_id":"4","last_reported":1730923845,"current_range_meters":26800,"station_id":"ce4bhm12rcd13ifvqgkg","pricing_plan_id":"cebpf4jnsgd1na2vs0mg"},{"bike_id":"44d5cb48-380b-4370-884f-8406ca1ae022","system_id":"levelo_inurba_marseille","lat":43.298038,"lon":5.381162,"is_reserved":false,"is_disabled":false,"rental_uris":{"android":"levelo://app?vid=44d5cb48-380b-4370-884f-8406ca1ae022","ios":"levelo://app?vid=44d5cb48-380b-4370-884f-8406ca1ae022"},"vehicle_type_id":"4","last_reported":1730923845,"current_range_meters":24400,"station_id":"ce4bgip2rcd13ifvqbb0","pricing_plan_id":"cebpf4jnsgd1na2vs0mg"},{"bike_id":"ea0ed2c7-c0d9-42e6-ab00-f8371f78e701","system_id":"levelo_inurba_marseille","lat":43.29526,"lon":5.39406,"is_reserved":false,"is_disabled":false,"rental_uris":{"android":"levelo://app?vid=ea0ed2c7-c0d9-42e6-ab00-f8371f78e701","ios":"levelo://app?vid=ea0ed2c7-c0d9-42e6-ab00-f8371f78e701"},"vehicle_type_id":"4","last_reported":1730923845,"current_range_meters":38000,"station_id":"ce4bh292rcd13ifvqdf0","pricing_plan_id":"cebpf4jnsgd1na2vs0mg"},{"bike_id":"17b2635b-cb35-405f-89f8-3b87581f3773","system_id":"levelo_inurba_marseille","lat":43.29896,"lon":5.43671,"is_reserved":false,"is_disabled":false,"rental_uris":{"android":"levelo://app?vid=17b2635b-cb35-405f-89f8-3b87581f3773","ios":"levelo://app?vid=17b2635b-cb35-405f-89f8-3b87581f3773"},"vehicle_type_id":"4","last_reported":1730923845,"current_range_meters":17200,"station_id":"ce4bhpp2rcd13ifvqhfg","pricing_plan_id":"cebpf4jnsgd1na2vs0mg"},{"bike_id":"eb98e074-6554-4da2-ab77-9ec7e21ad2cb","system_id":"levelo_inurba_marseille","lat":43.27625,"lon":5.36113,"is_reserved":false,"is_disabled":false,"rental_uris":{"android":"levelo://app?vid=eb98e074-6554-4da2-ab77-9ec7e21ad2cb","ios":"levelo://app?vid=eb98e074-6554-4da2-ab77-9ec7e21ad2cb"},"vehicle_type_id":"4","last_reported":1730923845,"current_range_meters":27200,"station_id":"ce4bgj92rcd13ifvqbe0","pricing_plan_id":"cebpf4jnsgd1na2vs0mg"},{"bike_id":"18a224a8-97ed-475c-8587-f5724b59ddcb","system_id":"levelo_inurba_marseille","lat":43.304446,"lon":5.367565,"is_reserved":false,"is_disabled":false,"rental_uris":{"android":"levelo://app?vid=18a224a8-97ed-475c-8587-f5724b59ddcb","ios":"levelo://app?vid=18a224a8-97ed-475c-8587-f5724b59ddcb"},"vehicle_type_id":"4","last_reported":1730923845,"current_range_meters":9600,"station_id":"ce4bgs12rcd13ifvqcag","pricing_plan_id":"cebpf4jnsgd1na2vs0mg"},{"bike_id":"19645b45-8dc5-44dd-9eea-afb63875c101","system_id":"levelo_inurba_marseille","lat":43.311188,"lon":5.378137,"is_reserved":false,"is_disabled":false,"rental_uris":{"android":"levelo://app?vid=19645b45-8dc5-44dd-9eea-afb63875c101","ios":"levelo://app?vid=19645b45-8dc5-44dd-9eea-afb63875c101"},"vehicle_type_id":"4","last_reported":1730923845,"current_range_meters":7200,"station_id":"ce4bgth2rcd13ifvqch0","pricing_plan_id":"cebpf4jnsgd1na2vs0mg"},{"bike_id":"f5e86d30-c007-4821-873d-a631969d6565","system_id":"levelo_inurba_marseille","lat":43.28698,"lon":5.37399,"is_reserved":false,"is_disabled":false,"rental_uris":{"android":"levelo://app?vid=f5e86d30-c007-4821-873d-a631969d6565","ios":"levelo://app?vid=f5e86d30-c007-4821-873d-a631969d6565"},"vehicle_type_id":"4","last_reported":1730923845,"current_range_meters":26000,"station_id":"ce4bh3p2rcd13ifvqdq0","pricing_plan_id":"cebpf4jnsgd1na2vs0mg"},{"bike_id":"ecf54352-b811-4591-9666-04f11ee39fb2","system_id":"levelo_inurba_marseille","lat":43.29022,"lon":5.38623,"is_reserved":false,"is_disabled":false,"rental_uris":{"android":"levelo://app?vid=ecf54352-b811-4591-9666-04f11ee39fb2","ios":"levelo://app?vid=ecf54352-b811-4591-9666-04f11ee39fb2"},"vehicle_type_id":"4","last_reported":1730923845,"current_range_meters":20800,"station_id":"ce4bh4p2rcd13ifvqe0g","pricing_plan_id":"cebpf4jnsgd1na2vs0mg"},{"bike_id":"183de452-01ed-409d-8dea-fe6c95b31ab4","system_id":"levelo_inurba_marseille","lat":43.2795,"lon":5.41033,"is_reserved":false,"is_disabled":false,"rental_uris":{"android":"levelo://app?vid=183de452-01ed-409d-8dea-fe6c95b31ab4","ios":"levelo://app?vid=183de452-01ed-409d-8dea-fe6c95b31ab4"},"vehicle_type_id":"4","last_reported":1730923845,"current_range_meters":30800,"station_id":"ce4bhnp2rcd13ifvqh0g","pricing_plan_id":"cebpf4jnsgd1na2vs0mg"},{"bike_id":"2451d850-5f8c-49a9-b6b3-f07811c189e1","system_id":"levelo_inurba_marseille","lat":43.2835,"lon":5.38602,"is_reserved":false,"is_disabled":false,"rental_uris":{"android":"levelo://app?vid=2451d850-5f8c-49a9-b6b3-f07811c189e1","ios":"levelo://app?vid=2451d850-5f8c-49a9-b6b3-f07811c189e1"},"vehicle_type_id":"4","last_reported":1730923845,"current_range_meters":32400,"station_id":"ce4bh492rcd13ifvqdvg","pricing_plan_id":"cebpf4jnsgd1na2vs0mg"},{"bike_id":"deaf0c78-2653-47a3-a84b-1a36720bb08e","system_id":"levelo_inurba_marseille","lat":43.28615,"lon":5.37059,"is_reserved":false,"is_disabled":false,"rental_uris":{"android":"levelo://app?vid=deaf0c78-2653-47a3-a84b-1a36720bb08e","ios":"levelo://app?vid=deaf0c78-2653-47a3-a84b-1a36720bb08e"},"vehicle_type_id":"4","last_reported":1730923845,"current_range_meters":25200,"station_id":"ce4bht12rcd13ifvqi60","pricing_plan_id":"cebpf4jnsgd1na2vs0mg"},{"bike_id":"4f2bdee6-4456-42ff-8942-9afb667ca1cb","system_id":"levelo_inurba_marseille","lat":43.26497,"lon":5.39536,"is_reserved":false,"is_disabled":false,"rental_uris":{"android":"levelo://app?vid=4f2bdee6-4456-42ff-8942-9afb667ca1cb","ios":"levelo://app?vid=4f2bdee6-4456-42ff-8942-9afb667ca1cb"},"vehicle_type_id":"4","last_reported":1730923845,"current_range_meters":36800,"station_id":"ce4bhi12rcd13ifvqfq0","pricing_plan_id":"cebpf4jnsgd1na2vs0mg"},{"bike_id":"c5b7820d-78fe-4750-89b8-a0efef8e5b8b","system_id":"levelo_inurba_marseille","lat":43.24662,"lon":5.38164,"is_reserved":false,"is_disabled":false,"rental_uris":{"android":"levelo://app?vid=c5b7820d-78fe-4750-89b8-a0efef8e5b8b","ios":"levelo://app?vid=c5b7820d-78fe-4750-89b8-a0efef8e5b8b"},"vehicle_type_id":"4","last_reported":1730923845,"current_range_meters":26000,"station_id":"ce4bhih2rcd13ifvqfr0","pricing_plan_id":"cebpf4jnsgd1na2vs0mg"},{"bike_id":"37ebd3c5-6b18-4388-abf4-d033b2be7440","system_id":"levelo_inurba_marseille","lat":43.26805,"lon":5.4027,"is_reserved":false,"is_disabled":false,"rental_uris":{"android":"levelo://app?vid=37ebd3c5-6b18-4388-abf4-d033b2be7440","ios":"levelo://app?vid=37ebd3c5-6b18-4388-abf4-d033b2be7440"},"vehicle_type_id":"4","last_reported":1730923845,"current_range_meters":24000,"station_id":"ce501612rcd8frsf0b60","pricing_plan_id":"cebpf4jnsgd1na2vs0mg"},{"bike_id":"f904033a-0f1f-48f7-a11e-52e7abbb39e8","system_id":"levelo_inurba_marseille","lat":43.28473,"lon":5.38419,"is_reserved":false,"is_disabled":false,"rental_uris":{"android":"levelo://app?vid=f904033a-0f1f-48f7-a11e-52e7abbb39e8","ios":"levelo://app?vid=f904033a-0f1f-48f7-a11e-52e7abbb39e8"},"vehicle_type_id":"4","last_reported":1730923845,"current_range_meters":37600,"station_id":"ce4bh512rcd13ifvqe3g","pricing_plan_id":"cebpf4jnsgd1na2vs0mg"},{"bike_id":"73bfab2f-2160-41b5-95ab-d2e0665d7584","system_id":"levelo_inurba_marseille","lat":43.31538,"lon":5.38028,"is_reserved":false,"is_disabled":false,"rental_uris":{"android":"levelo://app?vid=73bfab2f-2160-41b5-95ab-d2e0665d7584","ios":"levelo://app?vid=73bfab2f-2160-41b5-95ab-d2e0665d7584"},"vehicle_type_id":"4","last_reported":1730923845,"current_range_meters":38000,"station_id":"ce4bhsp2rcd13ifvqi50","pricing_plan_id":"cebpf4jnsgd1na2vs0mg"},{"bike_id":"e53e5f72-9550-4bdf-a04d-643a9d23eeb5","system_id":"levelo_inurba_marseille","lat":43.30892,"lon":5.39642,"is_reserved":false,"is_disabled":false,"rental_uris":{"android":"levelo://app?vid=e53e5f72-9550-4bdf-a04d-643a9d23eeb5","ios":"levelo://app?vid=e53e5f72-9550-4bdf-a04d-643a9d23eeb5"},"vehicle_type_id":"4","last_reported":1730923845,"current_range_meters":6000,"station_id":"ce4bh012rcd13ifvqcv0","pricing_plan_id":"cebpf4jnsgd1na2vs0mg"},{"bike_id":"1f605dcf-489a-46c5-8ec0-74217c529382","system_id":"levelo_inurba_marseille","lat":43.24389,"lon":5.37056,"is_reserved":false,"is_disabled":false,"rental_uris":{"android":"levelo://app?vid=1f605dcf-489a-46c5-8ec0-74217c529382","ios":"levelo://app?vid=1f605dcf-489a-46c5-8ec0-74217c529382"},"vehicle_type_id":"4","last_reported":1730923845,"current_range_meters":10800,"station_id":"ce4bhhh2rcd13ifvqfk0","pricing_plan_id":"cebpf4jnsgd1na2vs0mg"},{"bike_id":"c3c4897a-0a6b-4d0e-9f5d-fc3e7990a4af","system_id":"levelo_inurba_marseille","lat":43.28924,"lon":5.38383,"is_reserved":false,"is_disabled":false,"rental_uris":{"android":"levelo://app?vid=c3c4897a-0a6b-4d0e-9f5d-fc3e7990a4af","ios":"levelo://app?vid=c3c4897a-0a6b-4d0e-9f5d-fc3e7990a4af"},"vehicle_type_id":"4","last_reported":1730923845,"current_range_meters":38800,"station_id":"ce4bh612rcd13ifvqe6g","pricing_plan_id":"cebpf4jnsgd1na2vs0mg"},{"bike_id":"fec67af4-6591-4ff7-a95c-3a7e212dfaaa","system_id":"levelo_inurba_marseille","lat":43.27211,"lon":5.39179,"is_reserved":false,"is_disabled":false,"rental_uris":{"android":"levelo://app?vid=fec67af4-6591-4ff7-a95c-3a7e212dfaaa","ios":"levelo://app?vid=fec67af4-6591-4ff7-a95c-3a7e212dfaaa"},"vehicle_type_id":"4","last_reported":1730923845,"current_range_meters":25200,"station_id":"ce4bhhp2rcd13ifvqfm0","pricing_plan_id":"cebpf4jnsgd1na2vs0mg"},{"bike_id":"138edf40-8b55-4b5b-8ebd-2a9cd72069a9","system_id":"levelo_inurba_marseille","lat":43.24665,"lon":5.38165,"is_reserved":false,"is_disabled":false,"rental_uris":{"android":"levelo://app?vid=138edf40-8b55-4b5b-8ebd-2a9cd72069a9","ios":"levelo://app?vid=138edf40-8b55-4b5b-8ebd-2a9cd72069a9"},"vehicle_type_id":"4","last_reported":1730923845,"current_range_meters":18000,"station_id":"ce4bhih2rcd13ifvqfr0","pricing_plan_id":"cebpf4jnsgd1na2vs0mg"},{"bike_id":"c1f11680-2672-40b6-8614-d00a9bc5e3c1","system_id":"levelo_inurba_marseille","lat":43.25855,"lon":5.39902,"is_reserved":false,"is_disabled":false,"rental_uris":{"android":"levelo://app?vid=c1f11680-2672-40b6-8614-d00a9bc5e3c1","ios":"levelo://app?vid=c1f11680-2672-40b6-8614-d00a9bc5e3c1"},"vehicle_type_id":"4","last_reported":1730923845,"current_range_meters":36800,"station_id":"ce4bhl92rcd13ifvqghg","pricing_plan_id":"cebpf4jnsgd1na2vs0mg"},{"bike_id":"345bed40-3ea4-419d-9c62-8566b5d2ba51","system_id":"levelo_inurba_marseille","lat":43.29871,"lon":5.3973,"is_reserved":false,"is_disabled":false,"rental_uris":{"android":"levelo://app?vid=345bed40-3ea4-419d-9c62-8566b5d2ba51","ios":"levelo://app?vid=345bed40-3ea4-419d-9c62-8566b5d2ba51"},"vehicle_type_id":"4","last_reported":1730923845,"current_range_meters":38800,"station_id":"ce4bh0h2rcd13ifvqd50","pricing_plan_id":"cebpf4jnsgd1na2vs0mg"},{"bike_id":"cde33d01-4fdf-4588-9993-50576e545d63","system_id":"levelo_inurba_marseille","lat":43.29904,"lon":5.43665,"is_reserved":false,"is_disabled":false,"rental_uris":{"android":"levelo://app?vid=cde33d01-4fdf-4588-9993-50576e545d63","ios":"levelo://app?vid=cde33d01-4fdf-4588-9993-50576e545d63"},"vehicle_type_id":"4","last_reported":1730923845,"current_range_meters":37600,"station_id":"ce4bhpp2rcd13ifvqhfg","pricing_plan_id":"cebpf4jnsgd1na2vs0mg"},{"bike_id":"7b0fa45b-73b1-43d0-b318-c7b89f93ae59","system_id":"levelo_inurba_marseille","lat":43.31333,"lon":5.39705,"is_reserved":false,"is_disabled":false,"rental_uris":{"android":"levelo://app?vid=7b0fa45b-73b1-43d0-b318-c7b89f93ae59","ios":"levelo://app?vid=7b0fa45b-73b1-43d0-b318-c7b89f93ae59"},"vehicle_type_id":"4","last_reported":1730923845,"current_range_meters":8000,"station_id":"ce4bgvp2rcd13ifvqcu0","pricing_plan_id":"cebpf4jnsgd1na2vs0mg"},{"bike_id":"65871692-3e6e-46da-b6c2-2500d4373067","system_id":"levelo_inurba_marseille","lat":43.297976,"lon":5.380967,"is_reserved":false,"is_disabled":false,"rental_uris":{"android":"levelo://app?vid=65871692-3e6e-46da-b6c2-2500d4373067","ios":"levelo://app?vid=65871692-3e6e-46da-b6c2-2500d4373067"},"vehicle_type_id":"4","last_reported":1730923845,"current_range_meters":38800,"station_id":"ce4bgip2rcd13ifvqbb0","pricing_plan_id":"cebpf4jnsgd1na2vs0mg"},{"bike_id":"76180087-7581-4fd5-b38a-35c240d40301","system_id":"levelo_inurba_marseille","lat":43.25861,"lon":5.39904,"is_reserved":false,"is_disabled":false,"rental_uris":{"android":"levelo://app?vid=76180087-7581-4fd5-b38a-35c240d40301","ios":"levelo://app?vid=76180087-7581-4fd5-b38a-35c240d40301"},"vehicle_type_id":"4","last_reported":1730923845,"current_range_meters":38400,"station_id":"ce4bhl92rcd13ifvqghg","pricing_plan_id":"cebpf4jnsgd1na2vs0mg"},{"bike_id":"7a31ffc8-eae5-4ff8-bdac-732d75e07e54","system_id":"levelo_inurba_marseille","lat":43.30129,"lon":5.39867,"is_reserved":false,"is_disabled":false,"rental_uris":{"android":"levelo://app?vid=7a31ffc8-eae5-4ff8-bdac-732d75e07e54","ios":"levelo://app?vid=7a31ffc8-eae5-4ff8-bdac-732d75e07e54"},"vehicle_type_id":"4","last_reported":1730923845,"current_range_meters":40000,"station_id":"ce4bh0h2rcd13ifvqd40","pricing_plan_id":"cebpf4jnsgd1na2vs0mg"},{"bike_id":"2fbc96d6-d64a-44b1-81d1-7759f0f0dcf8","system_id":"levelo_inurba_marseille","lat":43.29607,"lon":5.381215,"is_reserved":false,"is_disabled":false,"rental_uris":{"android":"levelo://app?vid=2fbc96d6-d64a-44b1-81d1-7759f0f0dcf8","ios":"levelo://app?vid=2fbc96d6-d64a-44b1-81d1-7759f0f0dcf8"},"vehicle_type_id":"4","last_reported":1730923845,"current_range_meters":20000,"station_id":"ce4bgl12rcd13ifvqbo0","pricing_plan_id":"cebpf4jnsgd1na2vs0mg"},{"bike_id":"308bba98-f889-4ff8-b49f-311533a44ba1","system_id":"levelo_inurba_marseille","lat":43.24998,"lon":5.38929,"is_reserved":false,"is_disabled":false,"rental_uris":{"android":"levelo://app?vid=308bba98-f889-4ff8-b49f-311533a44ba1","ios":"levelo://app?vid=308bba98-f889-4ff8-b49f-311533a44ba1"},"vehicle_type_id":"4","last_reported":1730923845,"current_range_meters":38000,"station_id":"ce4bhgp2rcd13ifvqfd0","pricing_plan_id":"cebpf4jnsgd1na2vs0mg"},{"bike_id":"89366d32-f18f-41cc-add5-a8ca219fef86","system_id":"levelo_inurba_marseille","lat":43.28727,"lon":5.36074,"is_reserved":false,"is_disabled":false,"rental_uris":{"android":"levelo://app?vid=89366d32-f18f-41cc-add5-a8ca219fef86","ios":"levelo://app?vid=89366d32-f18f-41cc-add5-a8ca219fef86"},"vehicle_type_id":"4","last_reported":1730923845,"current_range_meters":38800,"station_id":"cki0cbj6b192h4jlfktg","pricing_plan_id":"cebpf4jnsgd1na2vs0mg"},{"bike_id":"796a903b-4578-4fcf-a6d3-79c0723cf9b4","system_id":"levelo_inurba_marseille","lat":43.309069,"lon":5.368443,"is_reserved":false,"is_disabled":false,"rental_uris":{"android":"levelo://app?vid=796a903b-4578-4fcf-a6d3-79c0723cf9b4","ios":"levelo://app?vid=796a903b-4578-4fcf-a6d3-79c0723cf9b4"},"vehicle_type_id":"4","last_reported":1730923845,"current_range_meters":38400,"station_id":"ce4bgn92rcd13ifvqbvg","pricing_plan_id":"cebpf4jnsgd1na2vs0mg"},{"bike_id":"20bc54ae-143f-466c-b162-c8c33d79cede","system_id":"levelo_inurba_marseille","lat":43.2784,"lon":5.39206,"is_reserved":false,"is_disabled":false,"rental_uris":{"android":"levelo://app?vid=20bc54ae-143f-466c-b162-c8c33d79cede","ios":"levelo://app?vid=20bc54ae-143f-466c-b162-c8c33d79cede"},"vehicle_type_id":"4","last_reported":1730923845,"current_range_meters":30000,"station_id":"ce4bhjp2rcd13ifvqga0","pricing_plan_id":"cebpf4jnsgd1na2vs0mg"},{"bike_id":"ce35c458-efa4-44e7-9708-b9d3d9ad5966","system_id":"levelo_inurba_marseille","lat":43.29199,"lon":5.39313,"is_reserved":false,"is_disabled":false,"rental_uris":{"android":"levelo://app?vid=ce35c458-efa4-44e7-9708-b9d3d9ad5966","ios":"levelo://app?vid=ce35c458-efa4-44e7-9708-b9d3d9ad5966"},"vehicle_type_id":"4","last_reported":1730923845,"current_range_meters":34800,"station_id":"ce4bh192rcd13ifvqdd0","pricing_plan_id":"cebpf4jnsgd1na2vs0mg"},{"bike_id":"5174ae6b-73b7-4eb9-b82e-9c61c1f78ce8","system_id":"levelo_inurba_marseille","lat":43.31213,"lon":5.40595,"is_reserved":false,"is_disabled":false,"rental_uris":{"android":"levelo://app?vid=5174ae6b-73b7-4eb9-b82e-9c61c1f78ce8","ios":"levelo://app?vid=5174ae6b-73b7-4eb9-b82e-9c61c1f78ce8"},"vehicle_type_id":"4","last_reported":1730923845,"current_range_meters":20800,"station_id":"","pricing_plan_id":"cebpf4jnsgd1na2vs0mg"},{"bike_id":"71f44770-22ed-4090-bdb9-0e6d1f334fe2","system_id":"levelo_inurba_marseille","lat":43.28827,"lon":5.35868,"is_reserved":false,"is_disabled":false,"rental_uris":{"android":"levelo://app?vid=71f44770-22ed-4090-bdb9-0e6d1f334fe2","ios":"levelo://app?vid=71f44770-22ed-4090-bdb9-0e6d1f334fe2"},"vehicle_type_id":"4","last_reported":1730923845,"current_range_meters":3200,"station_id":"ce4bhb12rcd13ifvqem0","pricing_plan_id":"cebpf4jnsgd1na2vs0mg"},{"bike_id":"b5ef1ddb-f5ed-405f-a631-6352985f51a9","system_id":"levelo_inurba_marseille","lat":43.28728,"lon":5.37931,"is_reserved":false,"is_disabled":false,"rental_uris":{"android":"levelo://app?vid=b5ef1ddb-f5ed-405f-a631-6352985f51a9","ios":"levelo://app?vid=b5ef1ddb-f5ed-405f-a631-6352985f51a9"},"vehicle_type_id":"4","last_reported":1730923845,"current_range_meters":36400,"station_id":"ce4bh9p2rcd13ifvqec0","pricing_plan_id":"cebpf4jnsgd1na2vs0mg"},{"bike_id":"6dcb664a-2edd-4acf-a453-7245fdf61530","system_id":"levelo_inurba_marseille","lat":43.29421,"lon":5.38607,"is_reserved":false,"is_disabled":false,"rental_uris":{"android":"levelo://app?vid=6dcb664a-2edd-4acf-a453-7245fdf61530","ios":"levelo://app?vid=6dcb664a-2edd-4acf-a453-7245fdf61530"},"vehicle_type_id":"4","last_reported":1730923845,"current_range_meters":2800,"station_id":"ce4bh2h2rcd13ifvqdh0","pricing_plan_id":"cebpf4jnsgd1na2vs0mg"},{"bike_id":"6c6067c7-81ca-4cfd-98d1-3c4aa468815b","system_id":"levelo_inurba_marseille","lat":43.31761,"lon":5.39012,"is_reserved":false,"is_disabled":false,"rental_uris":{"android":"levelo://app?vid=6c6067c7-81ca-4cfd-98d1-3c4aa468815b","ios":"levelo://app?vid=6c6067c7-81ca-4cfd-98d1-3c4aa468815b"},"vehicle_type_id":"4","last_reported":1730923845,"current_range_meters":38800,"station_id":"ce4bhqp2rcd13ifvqhng","pricing_plan_id":"cebpf4jnsgd1na2vs0mg"},{"bike_id":"698f04a8-8b31-4b26-bec7-b8ff5d19442b","system_id":"levelo_inurba_marseille","lat":43.3128,"lon":5.40173,"is_reserved":false,"is_disabled":false,"rental_uris":{"android":"levelo://app?vid=698f04a8-8b31-4b26-bec7-b8ff5d19442b","ios":"levelo://app?vid=698f04a8-8b31-4b26-bec7-b8ff5d19442b"},"vehicle_type_id":"4","last_reported":1730923845,"current_range_meters":36400,"station_id":"ce4bh092rcd13ifvqd30","pricing_plan_id":"cebpf4jnsgd1na2vs0mg"},{"bike_id":"73c53c13-4b99-443a-bf46-889ae8071c20","system_id":"levelo_inurba_marseille","lat":43.25085,"lon":5.39512,"is_reserved":false,"is_disabled":false,"rental_uris":{"android":"levelo://app?vid=73c53c13-4b99-443a-bf46-889ae8071c20","ios":"levelo://app?vid=73c53c13-4b99-443a-bf46-889ae8071c20"},"vehicle_type_id":"4","last_reported":1730923845,"current_range_meters":16000,"station_id":"ce4bhm12rcd13ifvqgkg","pricing_plan_id":"cebpf4jnsgd1na2vs0mg"},{"bike_id":"7ad7cc58-7602-4acb-9375-489625e5c4aa","system_id":"levelo_inurba_marseille","lat":43.30204,"lon":5.39477,"is_reserved":false,"is_disabled":false,"rental_uris":{"android":"levelo://app?vid=7ad7cc58-7602-4acb-9375-489625e5c4aa","ios":"levelo://app?vid=7ad7cc58-7602-4acb-9375-489625e5c4aa"},"vehicle_type_id":"4","last_reported":1730923845,"current_range_meters":35600,"station_id":"ce4bh0p2rcd13ifvqd70","pricing_plan_id":"cebpf4jnsgd1na2vs0mg"},{"bike_id":"ee8a3550-0001-4fcc-bd31-4beeb6d76621","system_id":"levelo_inurba_marseille","lat":43.3107,"lon":5.38344,"is_reserved":false,"is_disabled":false,"rental_uris":{"android":"levelo://app?vid=ee8a3550-0001-4fcc-bd31-4beeb6d76621","ios":"levelo://app?vid=ee8a3550-0001-4fcc-bd31-4beeb6d76621"},"vehicle_type_id":"4","last_reported":1730923845,"current_range_meters":12000,"station_id":"ce4bgv92rcd13ifvqcr0","pricing_plan_id":"cebpf4jnsgd1na2vs0mg"},{"bike_id":"d25cc44c-d51b-4657-b44d-4c31a96a9ac3","system_id":"levelo_inurba_marseille","lat":43.32343,"lon":5.40615,"is_reserved":false,"is_disabled":false,"rental_uris":{"android":"levelo://app?vid=d25cc44c-d51b-4657-b44d-4c31a96a9ac3","ios":"levelo://app?vid=d25cc44c-d51b-4657-b44d-4c31a96a9ac3"},"vehicle_type_id":"4","last_reported":1730923845,"current_range_meters":16400,"station_id":"ce4bhq92rcd13ifvqhjg","pricing_plan_id":"cebpf4jnsgd1na2vs0mg"},{"bike_id":"8eebcba0-c919-48bd-88f8-e35cda05e886","system_id":"levelo_inurba_marseille","lat":43.28668,"lon":5.38668,"is_reserved":false,"is_disabled":false,"rental_uris":{"android":"levelo://app?vid=8eebcba0-c919-48bd-88f8-e35cda05e886","ios":"levelo://app?vid=8eebcba0-c919-48bd-88f8-e35cda05e886"},"vehicle_type_id":"4","last_reported":1730923845,"current_range_meters":25600,"station_id":"ce4bh492rcd13ifvqdug","pricing_plan_id":"cebpf4jnsgd1na2vs0mg"},{"bike_id":"1a200d94-7fcc-43a0-baf7-0653f1297e9d","system_id":"levelo_inurba_marseille","lat":43.24674,"lon":5.38163,"is_reserved":false,"is_disabled":false,"rental_uris":{"android":"levelo://app?vid=1a200d94-7fcc-43a0-baf7-0653f1297e9d","ios":"levelo://app?vid=1a200d94-7fcc-43a0-baf7-0653f1297e9d"},"vehicle_type_id":"4","last_reported":1730923845,"current_range_meters":19200,"station_id":"ce4bhih2rcd13ifvqfr0","pricing_plan_id":"cebpf4jnsgd1na2vs0mg"},{"bike_id":"dd172bf8-d14d-45c6-9752-e4c7a309bb9f","system_id":"levelo_inurba_marseille","lat":43.25839,"lon":5.39428,"is_reserved":false,"is_disabled":false,"rental_uris":{"android":"levelo://app?vid=dd172bf8-d14d-45c6-9752-e4c7a309bb9f","ios":"levelo://app?vid=dd172bf8-d14d-45c6-9752-e4c7a309bb9f"},"vehicle_type_id":"4","last_reported":1730923845,"current_range_meters":37600,"station_id":"ce4bhip2rcd13ifvqft0","pricing_plan_id":"cebpf4jnsgd1na2vs0mg"},{"bike_id":"9fd2eafb-b3a2-4330-b6d6-848617578953","system_id":"levelo_inurba_marseille","lat":43.31997,"lon":5.38178,"is_reserved":false,"is_disabled":false,"rental_uris":{"android":"levelo://app?vid=9fd2eafb-b3a2-4330-b6d6-848617578953","ios":"levelo://app?vid=9fd2eafb-b3a2-4330-b6d6-848617578953"},"vehicle_type_id":"4","last_reported":1730923845,"current_range_meters":8000,"station_id":"ce4bhr12rcd13ifvqhpg","pricing_plan_id":"cebpf4jnsgd1na2vs0mg"},{"bike_id":"ed9d7a87-b2a5-4493-8ad8-420f1b483592","system_id":"levelo_inurba_marseille","lat":43.30887,"lon":5.39646,"is_reserved":false,"is_disabled":false,"rental_uris":{"android":"levelo://app?vid=ed9d7a87-b2a5-4493-8ad8-420f1b483592","ios":"levelo://app?vid=ed9d7a87-b2a5-4493-8ad8-420f1b483592"},"vehicle_type_id":"4","last_reported":1730923845,"current_range_meters":39200,"station_id":"ce4bh012rcd13ifvqcv0","pricing_plan_id":"cebpf4jnsgd1na2vs0mg"},{"bike_id":"49b91869-73c1-469e-8156-9ede284d7096","system_id":"levelo_inurba_marseille","lat":43.31714,"lon":5.43709,"is_reserved":false,"is_disabled":false,"rental_uris":{"android":"levelo://app?vid=49b91869-73c1-469e-8156-9ede284d7096","ios":"levelo://app?vid=49b91869-73c1-469e-8156-9ede284d7096"},"vehicle_type_id":"4","last_reported":1730923845,"current_range_meters":24400,"station_id":"ce4bhp92rcd13ifvqhcg","pricing_plan_id":"cebpf4jnsgd1na2vs0mg"},{"bike_id":"420e4751-2784-4222-be4e-5723d5a12888","system_id":"levelo_inurba_marseille","lat":43.24391,"lon":5.37065,"is_reserved":false,"is_disabled":false,"rental_uris":{"android":"levelo://app?vid=420e4751-2784-4222-be4e-5723d5a12888","ios":"levelo://app?vid=420e4751-2784-4222-be4e-5723d5a12888"},"vehicle_type_id":"4","last_reported":1730923845,"current_range_meters":20000,"station_id":"ce4bhhh2rcd13ifvqfk0","pricing_plan_id":"cebpf4jnsgd1na2vs0mg"},{"bike_id":"9b6f25cd-f741-40dc-863c-11d87970fd03","system_id":"levelo_inurba_marseille","lat":43.29415,"lon":5.38604,"is_reserved":false,"is_disabled":false,"rental_uris":{"android":"levelo://app?vid=9b6f25cd-f741-40dc-863c-11d87970fd03","ios":"levelo://app?vid=9b6f25cd-f741-40dc-863c-11d87970fd03"},"vehicle_type_id":"4","last_reported":1730923845,"current_range_meters":17200,"station_id":"ce4bh2h2rcd13ifvqdh0","pricing_plan_id":"cebpf4jnsgd1na2vs0mg"},{"bike_id":"2fe515d7-c2ba-40bc-af58-2812fb065090","system_id":"levelo_inurba_marseille","lat":43.29868,"lon":5.39735,"is_reserved":false,"is_disabled":false,"rental_uris":{"android":"levelo://app?vid=2fe515d7-c2ba-40bc-af58-2812fb065090","ios":"levelo://app?vid=2fe515d7-c2ba-40bc-af58-2812fb065090"},"vehicle_type_id":"4","last_reported":1730923845,"current_range_meters":39200,"station_id":"ce4bh0h2rcd13ifvqd50","pricing_plan_id":"cebpf4jnsgd1na2vs0mg"},{"bike_id":"94a14aeb-e8b9-4d00-a3d4-dcbfef13331d","system_id":"levelo_inurba_marseille","lat":43.30262,"lon":5.40071,"is_reserved":false,"is_disabled":false,"rental_uris":{"android":"levelo://app?vid=94a14aeb-e8b9-4d00-a3d4-dcbfef13331d","ios":"levelo://app?vid=94a14aeb-e8b9-4d00-a3d4-dcbfef13331d"},"vehicle_type_id":"4","last_reported":1730923845,"current_range_meters":34000,"station_id":"ce4bgvh2rcd13ifvqcs0","pricing_plan_id":"cebpf4jnsgd1na2vs0mg"},{"bike_id":"a5bc2fce-204d-4ecc-bd2f-0a758ce61f0d","system_id":"levelo_inurba_marseille","lat":43.28001,"lon":5.40001,"is_reserved":false,"is_disabled":false,"rental_uris":{"android":"levelo://app?vid=a5bc2fce-204d-4ecc-bd2f-0a758ce61f0d","ios":"levelo://app?vid=a5bc2fce-204d-4ecc-bd2f-0a758ce61f0d"},"vehicle_type_id":"4","last_reported":1730923845,"current_range_meters":8000,"station_id":"ce4bho92rcd13ifvqh4g","pricing_plan_id":"cebpf4jnsgd1na2vs0mg"},{"bike_id":"217cb4ee-27ff-4d31-b65e-970053c50be1","system_id":"levelo_inurba_marseille","lat":43.29909,"lon":5.37469,"is_reserved":false,"is_disabled":false,"rental_uris":{"android":"levelo://app?vid=217cb4ee-27ff-4d31-b65e-970053c50be1","ios":"levelo://app?vid=217cb4ee-27ff-4d31-b65e-970053c50be1"},"vehicle_type_id":"4","last_reported":1730923845,"current_range_meters":27600,"station_id":"ce4bgjh2rcd13ifvqbg0","pricing_plan_id":"cebpf4jnsgd1na2vs0mg"},{"bike_id":"4d3c374a-1f45-46b9-8607-f64397074506","system_id":"levelo_inurba_marseille","lat":43.25084,"lon":5.39507,"is_reserved":false,"is_disabled":false,"rental_uris":{"android":"levelo://app?vid=4d3c374a-1f45-46b9-8607-f64397074506","ios":"levelo://app?vid=4d3c374a-1f45-46b9-8607-f64397074506"},"vehicle_type_id":"4","last_reported":1730923845,"current_range_meters":29600,"station_id":"ce4bhm12rcd13ifvqgkg","pricing_plan_id":"cebpf4jnsgd1na2vs0mg"},{"bike_id":"51f74c20-bcaa-4e5d-8f3c-e32ef0f7f0a2","system_id":"levelo_inurba_marseille","lat":43.26936,"lon":5.40253,"is_reserved":false,"is_disabled":false,"rental_uris":{"android":"levelo://app?vid=51f74c20-bcaa-4e5d-8f3c-e32ef0f7f0a2","ios":"levelo://app?vid=51f74c20-bcaa-4e5d-8f3c-e32ef0f7f0a2"},"vehicle_type_id":"4","last_reported":1730923845,"current_range_meters":8000,"station_id":"cjm6bp8fraef2m0cb0m0","pricing_plan_id":"cebpf4jnsgd1na2vs0mg"},{"bike_id":"903b0ec3-2165-4ecf-84f1-2edb22136500","system_id":"levelo_inurba_marseille","lat":43.281616,"lon":5.426453,"is_reserved":false,"is_disabled":false,"rental_uris":{"android":"levelo://app?vid=903b0ec3-2165-4ecf-84f1-2edb22136500","ios":"levelo://app?vid=903b0ec3-2165-4ecf-84f1-2edb22136500"},"vehicle_type_id":"4","last_reported":1730923845,"current_range_meters":38000,"station_id":"ce4bhkp2rcd13ifvqgd0","pricing_plan_id":"cebpf4jnsgd1na2vs0mg"},{"bike_id":"b7dd8bea-767b-4a90-a1d4-bc825086e891","system_id":"levelo_inurba_marseille","lat":43.30137,"lon":5.39871,"is_reserved":false,"is_disabled":false,"rental_uris":{"android":"levelo://app?vid=b7dd8bea-767b-4a90-a1d4-bc825086e891","ios":"levelo://app?vid=b7dd8bea-767b-4a90-a1d4-bc825086e891"},"vehicle_type_id":"4","last_reported":1730923845,"current_range_meters":27200,"station_id":"ce4bh0h2rcd13ifvqd40","pricing_plan_id":"cebpf4jnsgd1na2vs0mg"},{"bike_id":"9a0ae2e4-d1fa-4de6-b4c7-29ff5e540266","system_id":"levelo_inurba_marseille","lat":43.34126,"lon":5.40902,"is_reserved":false,"is_disabled":false,"rental_uris":{"android":"levelo://app?vid=9a0ae2e4-d1fa-4de6-b4c7-29ff5e540266","ios":"levelo://app?vid=9a0ae2e4-d1fa-4de6-b4c7-29ff5e540266"},"vehicle_type_id":"4","last_reported":1730923845,"current_range_meters":32000,"station_id":"ce4bhqh2rcd13ifvqhlg","pricing_plan_id":"cebpf4jnsgd1na2vs0mg"},{"bike_id":"fa75792c-e5d5-4826-a65d-b964422195e2","system_id":"levelo_inurba_marseille","lat":43.31748,"lon":5.39016,"is_reserved":false,"is_disabled":false,"rental_uris":{"android":"levelo://app?vid=fa75792c-e5d5-4826-a65d-b964422195e2","ios":"levelo://app?vid=fa75792c-e5d5-4826-a65d-b964422195e2"},"vehicle_type_id":"4","last_reported":1730923845,"current_range_meters":38800,"station_id":"ce4bhqp2rcd13ifvqhng","pricing_plan_id":"cebpf4jnsgd1na2vs0mg"},{"bike_id":"688369d1-5be0-444d-b25e-23eb08c2c55f","system_id":"levelo_inurba_marseille","lat":43.31996,"lon":5.38141,"is_reserved":false,"is_disabled":false,"rental_uris":{"android":"levelo://app?vid=688369d1-5be0-444d-b25e-23eb08c2c55f","ios":"levelo://app?vid=688369d1-5be0-444d-b25e-23eb08c2c55f"},"vehicle_type_id":"4","last_reported":1730923845,"current_range_meters":12400,"station_id":"ce4bhr12rcd13ifvqhpg","pricing_plan_id":"cebpf4jnsgd1na2vs0mg"},{"bike_id":"dee376ac-3809-4888-b3c6-3f4b373d74ca","system_id":"levelo_inurba_marseille","lat":43.29414,"lon":5.38626,"is_reserved":false,"is_disabled":false,"rental_uris":{"android":"levelo://app?vid=dee376ac-3809-4888-b3c6-3f4b373d74ca","ios":"levelo://app?vid=dee376ac-3809-4888-b3c6-3f4b373d74ca"},"vehicle_type_id":"4","last_reported":1730923845,"current_range_meters":30400,"station_id":"ce4bh2h2rcd13ifvqdh0","pricing_plan_id":"cebpf4jnsgd1na2vs0mg"},{"bike_id":"ff9de953-270d-4def-a0a3-76b703002c3c","system_id":"levelo_inurba_marseille","lat":43.29257,"lon":5.38423,"is_reserved":false,"is_disabled":false,"rental_uris":{"android":"levelo://app?vid=ff9de953-270d-4def-a0a3-76b703002c3c","ios":"levelo://app?vid=ff9de953-270d-4def-a0a3-76b703002c3c"},"vehicle_type_id":"4","last_reported":1730923845,"current_range_meters":32800,"station_id":"ce4bh692rcd13ifvqea0","pricing_plan_id":"cebpf4jnsgd1na2vs0mg"},{"bike_id":"55a677bd-87c6-4021-ae5c-c9a5693b7d71","system_id":"levelo_inurba_marseille","lat":43.31333,"lon":5.39695,"is_reserved":false,"is_disabled":false,"rental_uris":{"android":"levelo://app?vid=55a677bd-87c6-4021-ae5c-c9a5693b7d71","ios":"levelo://app?vid=55a677bd-87c6-4021-ae5c-c9a5693b7d71"},"vehicle_type_id":"4","last_reported":1730923845,"current_range_meters":40000,"station_id":"ce4bgvp2rcd13ifvqcu0","pricing_plan_id":"cebpf4jnsgd1na2vs0mg"},{"bike_id":"4e5d727a-7c34-44b8-af94-45a54b88c1cc","system_id":"levelo_inurba_marseille","lat":43.33717,"lon":5.39174,"is_reserved":false,"is_disabled":false,"rental_uris":{"android":"levelo://app?vid=4e5d727a-7c34-44b8-af94-45a54b88c1cc","ios":"levelo://app?vid=4e5d727a-7c34-44b8-af94-45a54b88c1cc"},"vehicle_type_id":"4","last_reported":1730923845,"current_range_meters":39200,"station_id":"ce4bhr92rcd13ifvqhsg","pricing_plan_id":"cebpf4jnsgd1na2vs0mg"},{"bike_id":"831a29dd-5449-4d91-8f14-83d54ecf0699","system_id":"levelo_inurba_marseille","lat":43.29799,"lon":5.40417,"is_reserved":false,"is_disabled":false,"rental_uris":{"android":"levelo://app?vid=831a29dd-5449-4d91-8f14-83d54ecf0699","ios":"levelo://app?vid=831a29dd-5449-4d91-8f14-83d54ecf0699"},"vehicle_type_id":"4","last_reported":1730923845,"current_range_meters":33600,"station_id":"ce4bh112rcd13ifvqd90","pricing_plan_id":"cebpf4jnsgd1na2vs0mg"},{"bike_id":"eb71f28f-65f9-4307-a51d-b9bdf1958f6d","system_id":"levelo_inurba_marseille","lat":43.29171,"lon":5.37147,"is_reserved":false,"is_disabled":false,"rental_uris":{"android":"levelo://app?vid=eb71f28f-65f9-4307-a51d-b9bdf1958f6d","ios":"levelo://app?vid=eb71f28f-65f9-4307-a51d-b9bdf1958f6d"},"vehicle_type_id":"4","last_reported":1730923845,"current_range_meters":27600,"station_id":"ce4bha92rcd13ifvqeh0","pricing_plan_id":"cebpf4jnsgd1na2vs0mg"},{"bike_id":"2ac59b30-95ad-4d41-84cd-66b709f67fc4","system_id":"levelo_inurba_marseille","lat":43.337444,"lon":5.374475,"is_reserved":false,"is_disabled":false,"rental_uris":{"android":"levelo://app?vid=2ac59b30-95ad-4d41-84cd-66b709f67fc4","ios":"levelo://app?vid=2ac59b30-95ad-4d41-84cd-66b709f67fc4"},"vehicle_type_id":"4","last_reported":1730923845,"current_range_meters":35600,"station_id":"","pricing_plan_id":"cebpf4jnsgd1na2vs0mg"},{"bike_id":"56582536-782d-4150-b211-11ae50de7bf8","system_id":"levelo_inurba_marseille","lat":43.27314,"lon":5.39071,"is_reserved":false,"is_disabled":false,"rental_uris":{"android":"levelo://app?vid=56582536-782d-4150-b211-11ae50de7bf8","ios":"levelo://app?vid=56582536-782d-4150-b211-11ae50de7bf8"},"vehicle_type_id":"4","last_reported":1730923845,"current_range_meters":35600,"station_id":"ce4bhgp2rcd13ifvqfe0","pricing_plan_id":"cebpf4jnsgd1na2vs0mg"},{"bike_id":"d398d794-d5fa-4ae6-b063-9466efe93a0b","system_id":"levelo_inurba_marseille","lat":43.32341,"lon":5.40626,"is_reserved":false,"is_disabled":false,"rental_uris":{"android":"levelo://app?vid=d398d794-d5fa-4ae6-b063-9466efe93a0b","ios":"levelo://app?vid=d398d794-d5fa-4ae6-b063-9466efe93a0b"},"vehicle_type_id":"4","last_reported":1730923845,"current_range_meters":22400,"station_id":"ce4bhq92rcd13ifvqhjg","pricing_plan_id":"cebpf4jnsgd1na2vs0mg"},{"bike_id":"a429d417-ae34-4edf-87c8-05ac18f72a29","system_id":"levelo_inurba_marseille","lat":43.31064,"lon":5.38352,"is_reserved":false,"is_disabled":false,"rental_uris":{"android":"levelo://app?vid=a429d417-ae34-4edf-87c8-05ac18f72a29","ios":"levelo://app?vid=a429d417-ae34-4edf-87c8-05ac18f72a29"},"vehicle_type_id":"4","last_reported":1730923845,"current_range_meters":8400,"station_id":"ce4bgv92rcd13ifvqcr0","pricing_plan_id":"cebpf4jnsgd1na2vs0mg"},{"bike_id":"45ec8368-958d-4bb0-9555-354fb9ce4760","system_id":"levelo_inurba_marseille","lat":43.31491,"lon":5.37309,"is_reserved":false,"is_disabled":false,"rental_uris":{"android":"levelo://app?vid=45ec8368-958d-4bb0-9555-354fb9ce4760","ios":"levelo://app?vid=45ec8368-958d-4bb0-9555-354fb9ce4760"},"vehicle_type_id":"4","last_reported":1730923845,"current_range_meters":32000,"station_id":"ce4bgt12rcd13ifvqcd0","pricing_plan_id":"cebpf4jnsgd1na2vs0mg"},{"bike_id":"3d161c35-9f40-4b08-a68a-f579008f18ef","system_id":"levelo_inurba_marseille","lat":43.2572,"lon":5.41106,"is_reserved":false,"is_disabled":false,"rental_uris":{"android":"levelo://app?vid=3d161c35-9f40-4b08-a68a-f579008f18ef","ios":"levelo://app?vid=3d161c35-9f40-4b08-a68a-f579008f18ef"},"vehicle_type_id":"4","last_reported":1730923845,"current_range_meters":34800,"station_id":"ce4bhkp2rcd13ifvqgd0","pricing_plan_id":"cebpf4jnsgd1na2vs0mg"},{"bike_id":"3efb3103-ea1f-426f-a199-b5e2cc263a89","system_id":"levelo_inurba_marseille","lat":43.31274,"lon":5.40172,"is_reserved":false,"is_disabled":false,"rental_uris":{"android":"levelo://app?vid=3efb3103-ea1f-426f-a199-b5e2cc263a89","ios":"levelo://app?vid=3efb3103-ea1f-426f-a199-b5e2cc263a89"},"vehicle_type_id":"4","last_reported":1730923845,"current_range_meters":29600,"station_id":"ce4bh092rcd13ifvqd30","pricing_plan_id":"cebpf4jnsgd1na2vs0mg"},{"bike_id":"91dbb18e-7c31-498e-8c65-eddd96e1049a","system_id":"levelo_inurba_marseille","lat":43.28695,"lon":5.37382,"is_reserved":false,"is_disabled":false,"rental_uris":{"android":"levelo://app?vid=91dbb18e-7c31-498e-8c65-eddd96e1049a","ios":"levelo://app?vid=91dbb18e-7c31-498e-8c65-eddd96e1049a"},"vehicle_type_id":"4","last_reported":1730923845,"current_range_meters":34000,"station_id":"ce4bh3p2rcd13ifvqdq0","pricing_plan_id":"cebpf4jnsgd1na2vs0mg"},{"bike_id":"a53b139e-364b-46e8-b9bf-a9a5a826f0ed","system_id":"levelo_inurba_marseille","lat":43.27437,"lon":5.39388,"is_reserved":false,"is_disabled":false,"rental_uris":{"android":"levelo://app?vid=a53b139e-364b-46e8-b9bf-a9a5a826f0ed","ios":"levelo://app?vid=a53b139e-364b-46e8-b9bf-a9a5a826f0ed"},"vehicle_type_id":"4","last_reported":1730923845,"current_range_meters":38800,"station_id":"ce4bhdp2rcd13ifvqf20","pricing_plan_id":"cebpf4jnsgd1na2vs0mg"},{"bike_id":"44144d57-9c23-4136-92b5-7992ae432d41","system_id":"levelo_inurba_marseille","lat":43.29964,"lon":5.41326,"is_reserved":false,"is_disabled":false,"rental_uris":{"android":"levelo://app?vid=44144d57-9c23-4136-92b5-7992ae432d41","ios":"levelo://app?vid=44144d57-9c23-4136-92b5-7992ae432d41"},"vehicle_type_id":"4","last_reported":1730923845,"current_range_meters":37600,"station_id":"ce4bhp12rcd13ifvqh9g","pricing_plan_id":"cebpf4jnsgd1na2vs0mg"},{"bike_id":"44d1a068-e057-4d92-b9bf-a37ba139810f","system_id":"levelo_inurba_marseille","lat":43.292046,"lon":5.358012,"is_reserved":false,"is_disabled":false,"rental_uris":{"android":"levelo://app?vid=44d1a068-e057-4d92-b9bf-a37ba139810f","ios":"levelo://app?vid=44d1a068-e057-4d92-b9bf-a37ba139810f"},"vehicle_type_id":"4","last_reported":1730923845,"current_range_meters":20800,"station_id":"ce4bhph2rcd13ifvqhdg","pricing_plan_id":"cebpf4jnsgd1na2vs0mg"},{"bike_id":"85de2998-380a-4d61-b23b-be8766460c85","system_id":"levelo_inurba_marseille","lat":43.27922,"lon":5.39579,"is_reserved":false,"is_disabled":false,"rental_uris":{"android":"levelo://app?vid=85de2998-380a-4d61-b23b-be8766460c85","ios":"levelo://app?vid=85de2998-380a-4d61-b23b-be8766460c85"},"vehicle_type_id":"4","last_reported":1730923845,"current_range_meters":6400,"station_id":"ce4bhf92rcd13ifvqf40","pricing_plan_id":"cebpf4jnsgd1na2vs0mg"},{"bike_id":"24aba072-c534-4c86-b994-950e5196ce73","system_id":"levelo_inurba_marseille","lat":43.28613,"lon":5.35104,"is_reserved":false,"is_disabled":false,"rental_uris":{"android":"levelo://app?vid=24aba072-c534-4c86-b994-950e5196ce73","ios":"levelo://app?vid=24aba072-c534-4c86-b994-950e5196ce73"},"vehicle_type_id":"4","last_reported":1730923845,"current_range_meters":6000,"station_id":"ce4bhch2rcd13ifvqeug","pricing_plan_id":"cebpf4jnsgd1na2vs0mg"},{"bike_id":"0072c09f-84dc-4387-89a5-d8c408b867ad","system_id":"levelo_inurba_marseille","lat":43.30136,"lon":5.39865,"is_reserved":false,"is_disabled":false,"rental_uris":{"android":"levelo://app?vid=0072c09f-84dc-4387-89a5-d8c408b867ad","ios":"levelo://app?vid=0072c09f-84dc-4387-89a5-d8c408b867ad"},"vehicle_type_id":"4","last_reported":1730923845,"current_range_meters":38800,"station_id":"ce4bh0h2rcd13ifvqd40","pricing_plan_id":"cebpf4jnsgd1na2vs0mg"},{"bike_id":"ecc2597c-73b2-4662-b036-f015722a8a69","system_id":"levelo_inurba_marseille","lat":43.22941,"lon":5.35377,"is_reserved":false,"is_disabled":false,"rental_uris":{"android":"levelo://app?vid=ecc2597c-73b2-4662-b036-f015722a8a69","ios":"levelo://app?vid=ecc2597c-73b2-4662-b036-f015722a8a69"},"vehicle_type_id":"4","last_reported":1730923845,"current_range_meters":38000,"station_id":"cpo3532slgdg3j2ikp40","pricing_plan_id":"cebpf4jnsgd1na2vs0mg"},{"bike_id":"ba358931-b444-4977-afd4-cf9fc66e9573","system_id":"levelo_inurba_marseille","lat":43.28731,"lon":5.37952,"is_reserved":false,"is_disabled":false,"rental_uris":{"android":"levelo://app?vid=ba358931-b444-4977-afd4-cf9fc66e9573","ios":"levelo://app?vid=ba358931-b444-4977-afd4-cf9fc66e9573"},"vehicle_type_id":"4","last_reported":1730923845,"current_range_meters":38800,"station_id":"ce4bh9p2rcd13ifvqec0","pricing_plan_id":"cebpf4jnsgd1na2vs0mg"},{"bike_id":"52af7a3b-ddda-465a-a3b9-5cc6f08e1552","system_id":"levelo_inurba_marseille","lat":43.24167,"lon":5.36397,"is_reserved":false,"is_disabled":false,"rental_uris":{"android":"levelo://app?vid=52af7a3b-ddda-465a-a3b9-5cc6f08e1552","ios":"levelo://app?vid=52af7a3b-ddda-465a-a3b9-5cc6f08e1552"},"vehicle_type_id":"4","last_reported":1730923845,"current_range_meters":19200,"station_id":"cpo36qri1sfpv3e86is0","pricing_plan_id":"cebpf4jnsgd1na2vs0mg"},{"bike_id":"c8908898-597c-4769-9a3c-a8548f4da9f2","system_id":"levelo_inurba_marseille","lat":43.31277,"lon":5.40165,"is_reserved":false,"is_disabled":false,"rental_uris":{"android":"levelo://app?vid=c8908898-597c-4769-9a3c-a8548f4da9f2","ios":"levelo://app?vid=c8908898-597c-4769-9a3c-a8548f4da9f2"},"vehicle_type_id":"4","last_reported":1730923845,"current_range_meters":19200,"station_id":"ce4bh092rcd13ifvqd30","pricing_plan_id":"cebpf4jnsgd1na2vs0mg"},{"bike_id":"a9ab6975-5db2-422d-b93e-792aa035710e","system_id":"levelo_inurba_marseille","lat":43.29548,"lon":5.42275,"is_reserved":false,"is_disabled":false,"rental_uris":{"android":"levelo://app?vid=a9ab6975-5db2-422d-b93e-792aa035710e","ios":"levelo://app?vid=a9ab6975-5db2-422d-b93e-792aa035710e"},"vehicle_type_id":"4","last_reported":1730923845,"current_range_meters":38000,"station_id":"ce4bhph2rcd13ifvqhdg","pricing_plan_id":"cebpf4jnsgd1na2vs0mg"},{"bike_id":"cb886b27-0a1a-4738-870e-8b61baafe4ab","system_id":"levelo_inurba_marseille","lat":43.31363,"lon":5.38487,"is_reserved":false,"is_disabled":false,"rental_uris":{"android":"levelo://app?vid=cb886b27-0a1a-4738-870e-8b61baafe4ab","ios":"levelo://app?vid=cb886b27-0a1a-4738-870e-8b61baafe4ab"},"vehicle_type_id":"4","last_reported":1730923845,"current_range_meters":20800,"station_id":"ce4bgt92rcd13ifvqcf0","pricing_plan_id":"cebpf4jnsgd1na2vs0mg"},{"bike_id":"bd559305-8d24-4973-a957-3096c8457e44","system_id":"levelo_inurba_marseille","lat":43.29795,"lon":5.38091,"is_reserved":false,"is_disabled":false,"rental_uris":{"android":"levelo://app?vid=bd559305-8d24-4973-a957-3096c8457e44","ios":"levelo://app?vid=bd559305-8d24-4973-a957-3096c8457e44"},"vehicle_type_id":"4","last_reported":1730923845,"current_range_meters":39200,"station_id":"ce4bgip2rcd13ifvqbb0","pricing_plan_id":"cebpf4jnsgd1na2vs0mg"},{"bike_id":"923d8709-2f23-428d-889a-a4c82a103832","system_id":"levelo_inurba_marseille","lat":43.3041,"lon":5.41286,"is_reserved":false,"is_disabled":false,"rental_uris":{"android":"levelo://app?vid=923d8709-2f23-428d-889a-a4c82a103832","ios":"levelo://app?vid=923d8709-2f23-428d-889a-a4c82a103832"},"vehicle_type_id":"4","last_reported":1730923845,"current_range_meters":38400,"station_id":"ce4bhop2rcd13ifvqh8g","pricing_plan_id":"cebpf4jnsgd1na2vs0mg"},{"bike_id":"dceb96ca-70a3-487e-8000-99af81b9f887","system_id":"levelo_inurba_marseille","lat":43.27305,"lon":5.39092,"is_reserved":false,"is_disabled":false,"rental_uris":{"android":"levelo://app?vid=dceb96ca-70a3-487e-8000-99af81b9f887","ios":"levelo://app?vid=dceb96ca-70a3-487e-8000-99af81b9f887"},"vehicle_type_id":"4","last_reported":1730923845,"current_range_meters":28400,"station_id":"ce4bhgp2rcd13ifvqfe0","pricing_plan_id":"cebpf4jnsgd1na2vs0mg"},{"bike_id":"792af9eb-5e87-4e49-9e31-c852adb2f915","system_id":"levelo_inurba_marseille","lat":43.26035,"lon":5.37544,"is_reserved":false,"is_disabled":false,"rental_uris":{"android":"levelo://app?vid=792af9eb-5e87-4e49-9e31-c852adb2f915","ios":"levelo://app?vid=792af9eb-5e87-4e49-9e31-c852adb2f915"},"vehicle_type_id":"4","last_reported":1730923845,"current_range_meters":37600,"station_id":"ce4bhgh2rcd13ifvqfa0","pricing_plan_id":"cebpf4jnsgd1na2vs0mg"},{"bike_id":"dd591836-f417-403f-84a9-67ff85978f8f","system_id":"levelo_inurba_marseille","lat":43.23186,"lon":5.39981,"is_reserved":false,"is_disabled":false,"rental_uris":{"android":"levelo://app?vid=dd591836-f417-403f-84a9-67ff85978f8f","ios":"levelo://app?vid=dd591836-f417-403f-84a9-67ff85978f8f"},"vehicle_type_id":"4","last_reported":1730923845,"current_range_meters":6000,"station_id":"ce4bhn12rcd13ifvqgqg","pricing_plan_id":"cebpf4jnsgd1na2vs0mg"},{"bike_id":"3dec25da-d0c6-4951-a8d2-159d7102cdbc","system_id":"levelo_inurba_marseille","lat":43.27812,"lon":5.4071,"is_reserved":false,"is_disabled":false,"rental_uris":{"android":"levelo://app?vid=3dec25da-d0c6-4951-a8d2-159d7102cdbc","ios":"levelo://app?vid=3dec25da-d0c6-4951-a8d2-159d7102cdbc"},"vehicle_type_id":"4","last_reported":1730923845,"current_range_meters":7200,"station_id":"ce4bhnh2rcd13ifvqgtg","pricing_plan_id":"cebpf4jnsgd1na2vs0mg"},{"bike_id":"85359c8d-cc51-4aa1-991a-1be21e554660","system_id":"levelo_inurba_marseille","lat":43.23179,"lon":5.39986,"is_reserved":false,"is_disabled":false,"rental_uris":{"android":"levelo://app?vid=85359c8d-cc51-4aa1-991a-1be21e554660","ios":"levelo://app?vid=85359c8d-cc51-4aa1-991a-1be21e554660"},"vehicle_type_id":"4","last_reported":1730923845,"current_range_meters":9600,"station_id":"ce4bhn12rcd13ifvqgqg","pricing_plan_id":"cebpf4jnsgd1na2vs0mg"},{"bike_id":"03e3d18b-a415-4f79-96ef-4cd3fb356397","system_id":"levelo_inurba_marseille","lat":43.28839,"lon":5.35837,"is_reserved":false,"is_disabled":false,"rental_uris":{"android":"levelo://app?vid=03e3d18b-a415-4f79-96ef-4cd3fb356397","ios":"levelo://app?vid=03e3d18b-a415-4f79-96ef-4cd3fb356397"},"vehicle_type_id":"4","last_reported":1730923845,"current_range_meters":10000,"station_id":"ce4bhb12rcd13ifvqem0","pricing_plan_id":"cebpf4jnsgd1na2vs0mg"},{"bike_id":"b5e4d49a-962c-4f8a-a04d-3f6cc2fc9466","system_id":"levelo_inurba_marseille","lat":43.28357,"lon":5.38634,"is_reserved":false,"is_disabled":false,"rental_uris":{"android":"levelo://app?vid=b5e4d49a-962c-4f8a-a04d-3f6cc2fc9466","ios":"levelo://app?vid=b5e4d49a-962c-4f8a-a04d-3f6cc2fc9466"},"vehicle_type_id":"4","last_reported":1730923845,"current_range_meters":28000,"station_id":"ce4bh492rcd13ifvqdvg","pricing_plan_id":"cebpf4jnsgd1na2vs0mg"},{"bike_id":"af546fe3-bcc5-4039-9c62-1b20f638cc9c","system_id":"levelo_inurba_marseille","lat":43.27568,"lon":5.3842,"is_reserved":false,"is_disabled":false,"rental_uris":{"android":"levelo://app?vid=af546fe3-bcc5-4039-9c62-1b20f638cc9c","ios":"levelo://app?vid=af546fe3-bcc5-4039-9c62-1b20f638cc9c"},"vehicle_type_id":"4","last_reported":1730923845,"current_range_meters":26800,"station_id":"ce4bhh92rcd13ifvqfi0","pricing_plan_id":"cebpf4jnsgd1na2vs0mg"},{"bike_id":"27b827b3-9e6a-40e5-85ac-202e46f3f38b","system_id":"levelo_inurba_marseille","lat":43.29522,"lon":5.39036,"is_reserved":false,"is_disabled":false,"rental_uris":{"android":"levelo://app?vid=27b827b3-9e6a-40e5-85ac-202e46f3f38b","ios":"levelo://app?vid=27b827b3-9e6a-40e5-85ac-202e46f3f38b"},"vehicle_type_id":"4","last_reported":1730923845,"current_range_meters":38800,"station_id":"ce4bh3p2rcd13ifvqdp0","pricing_plan_id":"cebpf4jnsgd1na2vs0mg"},{"bike_id":"b90b2c99-8d53-4ffd-bebc-8805e3eaa459","system_id":"levelo_inurba_marseille","lat":43.31269,"lon":5.40167,"is_reserved":false,"is_disabled":false,"rental_uris":{"android":"levelo://app?vid=b90b2c99-8d53-4ffd-bebc-8805e3eaa459","ios":"levelo://app?vid=b90b2c99-8d53-4ffd-bebc-8805e3eaa459"},"vehicle_type_id":"4","last_reported":1730923845,"current_range_meters":28400,"station_id":"ce4bh092rcd13ifvqd30","pricing_plan_id":"cebpf4jnsgd1na2vs0mg"},{"bike_id":"5335c7ad-0841-43aa-932e-a1f6a43a39ae","system_id":"levelo_inurba_marseille","lat":43.28704,"lon":5.37381,"is_reserved":false,"is_disabled":false,"rental_uris":{"android":"levelo://app?vid=5335c7ad-0841-43aa-932e-a1f6a43a39ae","ios":"levelo://app?vid=5335c7ad-0841-43aa-932e-a1f6a43a39ae"},"vehicle_type_id":"4","last_reported":1730923845,"current_range_meters":3200,"station_id":"ce4bh3p2rcd13ifvqdq0","pricing_plan_id":"cebpf4jnsgd1na2vs0mg"},{"bike_id":"e1b40269-a25a-4065-82a5-bf1a7369efff","system_id":"levelo_inurba_marseille","lat":43.26491,"lon":5.39544,"is_reserved":false,"is_disabled":false,"rental_uris":{"android":"levelo://app?vid=e1b40269-a25a-4065-82a5-bf1a7369efff","ios":"levelo://app?vid=e1b40269-a25a-4065-82a5-bf1a7369efff"},"vehicle_type_id":"4","last_reported":1730923845,"current_range_meters":38800,"station_id":"ce4bhi12rcd13ifvqfq0","pricing_plan_id":"cebpf4jnsgd1na2vs0mg"},{"bike_id":"d9bbf1c0-094c-464e-9ae6-21c662c890df","system_id":"levelo_inurba_marseille","lat":43.29873,"lon":5.3973,"is_reserved":false,"is_disabled":false,"rental_uris":{"android":"levelo://app?vid=d9bbf1c0-094c-464e-9ae6-21c662c890df","ios":"levelo://app?vid=d9bbf1c0-094c-464e-9ae6-21c662c890df"},"vehicle_type_id":"4","last_reported":1730923845,"current_range_meters":36400,"station_id":"ce4bh0h2rcd13ifvqd50","pricing_plan_id":"cebpf4jnsgd1na2vs0mg"},{"bike_id":"07766af5-d982-4977-b2a1-98a3259b6a82","system_id":"levelo_inurba_marseille","lat":43.28442,"lon":5.3918,"is_reserved":false,"is_disabled":false,"rental_uris":{"android":"levelo://app?vid=07766af5-d982-4977-b2a1-98a3259b6a82","ios":"levelo://app?vid=07766af5-d982-4977-b2a1-98a3259b6a82"},"vehicle_type_id":"4","last_reported":1730923845,"current_range_meters":11600,"station_id":"ce4bhoh2rcd13ifvqh5g","pricing_plan_id":"cebpf4jnsgd1na2vs0mg"},{"bike_id":"7b03e489-e38f-490f-b482-ed7db3c26bb0","system_id":"levelo_inurba_marseille","lat":43.29876,"lon":5.39742,"is_reserved":false,"is_disabled":false,"rental_uris":{"android":"levelo://app?vid=7b03e489-e38f-490f-b482-ed7db3c26bb0","ios":"levelo://app?vid=7b03e489-e38f-490f-b482-ed7db3c26bb0"},"vehicle_type_id":"4","last_reported":1730923845,"current_range_meters":30000,"station_id":"ce4bh0h2rcd13ifvqd50","pricing_plan_id":"cebpf4jnsgd1na2vs0mg"},{"bike_id":"dbb9d7e1-47a6-4aca-8ba7-74197f1d3d58","system_id":"levelo_inurba_marseille","lat":43.29525,"lon":5.39035,"is_reserved":false,"is_disabled":false,"rental_uris":{"android":"levelo://app?vid=dbb9d7e1-47a6-4aca-8ba7-74197f1d3d58","ios":"levelo://app?vid=dbb9d7e1-47a6-4aca-8ba7-74197f1d3d58"},"vehicle_type_id":"4","last_reported":1730923845,"current_range_meters":22400,"station_id":"ce4bh3p2rcd13ifvqdp0","pricing_plan_id":"cebpf4jnsgd1na2vs0mg"},{"bike_id":"ed17c239-cb6f-4f10-b65f-0cc43f17f6f9","system_id":"levelo_inurba_marseille","lat":43.28846,"lon":5.39324,"is_reserved":false,"is_disabled":false,"rental_uris":{"android":"levelo://app?vid=ed17c239-cb6f-4f10-b65f-0cc43f17f6f9","ios":"levelo://app?vid=ed17c239-cb6f-4f10-b65f-0cc43f17f6f9"},"vehicle_type_id":"4","last_reported":1730923845,"current_range_meters":22800,"station_id":"ce4bh2p2rcd13ifvqdi0","pricing_plan_id":"cebpf4jnsgd1na2vs0mg"},{"bike_id":"f7580a0d-9afe-4cc1-8e42-f3683f9d2ed1","system_id":"levelo_inurba_marseille","lat":43.27903,"lon":5.380038,"is_reserved":false,"is_disabled":false,"rental_uris":{"android":"levelo://app?vid=f7580a0d-9afe-4cc1-8e42-f3683f9d2ed1","ios":"levelo://app?vid=f7580a0d-9afe-4cc1-8e42-f3683f9d2ed1"},"vehicle_type_id":"4","last_reported":1730923845,"current_range_meters":13600,"station_id":"ce4bhf92rcd13ifvqf50","pricing_plan_id":"cebpf4jnsgd1na2vs0mg"},{"bike_id":"c66cfd2b-6b27-48f4-8608-0c3afce51f13","system_id":"levelo_inurba_marseille","lat":43.30894,"lon":5.3966,"is_reserved":false,"is_disabled":false,"rental_uris":{"android":"levelo://app?vid=c66cfd2b-6b27-48f4-8608-0c3afce51f13","ios":"levelo://app?vid=c66cfd2b-6b27-48f4-8608-0c3afce51f13"},"vehicle_type_id":"4","last_reported":1730923845,"current_range_meters":33200,"station_id":"ce4bh012rcd13ifvqcv0","pricing_plan_id":"cebpf4jnsgd1na2vs0mg"},{"bike_id":"95a18c43-005b-4f4c-a0a0-e2f3ea31cfab","system_id":"levelo_inurba_marseille","lat":43.26063,"lon":5.39398,"is_reserved":false,"is_disabled":false,"rental_uris":{"android":"levelo://app?vid=95a18c43-005b-4f4c-a0a0-e2f3ea31cfab","ios":"levelo://app?vid=95a18c43-005b-4f4c-a0a0-e2f3ea31cfab"},"vehicle_type_id":"4","last_reported":1730923845,"current_range_meters":25200,"station_id":"ce4bhh92rcd13ifvqfj0","pricing_plan_id":"cebpf4jnsgd1na2vs0mg"},{"bike_id":"26e3c9ec-2466-487b-a1be-32176a27c1ef","system_id":"levelo_inurba_marseille","lat":43.29615,"lon":5.37725,"is_reserved":false,"is_disabled":false,"rental_uris":{"android":"levelo://app?vid=26e3c9ec-2466-487b-a1be-32176a27c1ef","ios":"levelo://app?vid=26e3c9ec-2466-487b-a1be-32176a27c1ef"},"vehicle_type_id":"4","last_reported":1730923845,"current_range_meters":7200,"station_id":"ce4bgi92rcd13ifvqb90","pricing_plan_id":"cebpf4jnsgd1na2vs0mg"},{"bike_id":"fdc5d142-07b8-4e8e-89c8-c536c031d9e2","system_id":"levelo_inurba_marseille","lat":43.292701,"lon":5.384518,"is_reserved":false,"is_disabled":false,"rental_uris":{"android":"levelo://app?vid=fdc5d142-07b8-4e8e-89c8-c536c031d9e2","ios":"levelo://app?vid=fdc5d142-07b8-4e8e-89c8-c536c031d9e2"},"vehicle_type_id":"4","last_reported":1730923845,"current_range_meters":4800,"station_id":"ce4bh692rcd13ifvqea0","pricing_plan_id":"cebpf4jnsgd1na2vs0mg"},{"bike_id":"6de8b30d-5f14-4a6a-a24d-df5b471f9e88","system_id":"levelo_inurba_marseille","lat":43.29264,"lon":5.384357,"is_reserved":false,"is_disabled":false,"rental_uris":{"android":"levelo://app?vid=6de8b30d-5f14-4a6a-a24d-df5b471f9e88","ios":"levelo://app?vid=6de8b30d-5f14-4a6a-a24d-df5b471f9e88"},"vehicle_type_id":"4","last_reported":1730923845,"current_range_meters":6400,"station_id":"ce4bh692rcd13ifvqea0","pricing_plan_id":"cebpf4jnsgd1na2vs0mg"},{"bike_id":"0007c120-2b8f-49c1-b3a2-b69854c6b2ad","system_id":"levelo_inurba_marseille","lat":43.27996,"lon":5.40006,"is_reserved":false,"is_disabled":false,"rental_uris":{"android":"levelo://app?vid=0007c120-2b8f-49c1-b3a2-b69854c6b2ad","ios":"levelo://app?vid=0007c120-2b8f-49c1-b3a2-b69854c6b2ad"},"vehicle_type_id":"4","last_reported":1730923845,"current_range_meters":33600,"station_id":"ce4bho92rcd13ifvqh4g","pricing_plan_id":"cebpf4jnsgd1na2vs0mg"},{"bike_id":"0676d849-58b6-4143-8d93-e6ea116edbf5","system_id":"levelo_inurba_marseille","lat":43.25721,"lon":5.41052,"is_reserved":false,"is_disabled":false,"rental_uris":{"android":"levelo://app?vid=0676d849-58b6-4143-8d93-e6ea116edbf5","ios":"levelo://app?vid=0676d849-58b6-4143-8d93-e6ea116edbf5"},"vehicle_type_id":"4","last_reported":1730923845,"current_range_meters":16800,"station_id":"ce4bhkp2rcd13ifvqgd0","pricing_plan_id":"cebpf4jnsgd1na2vs0mg"},{"bike_id":"76a6e6d2-4686-4b04-b754-fb622b90a2bd","system_id":"levelo_inurba_marseille","lat":43.30135,"lon":5.39874,"is_reserved":false,"is_disabled":false,"rental_uris":{"android":"levelo://app?vid=76a6e6d2-4686-4b04-b754-fb622b90a2bd","ios":"levelo://app?vid=76a6e6d2-4686-4b04-b754-fb622b90a2bd"},"vehicle_type_id":"4","last_reported":1730923845,"current_range_meters":38800,"station_id":"ce4bh0h2rcd13ifvqd40","pricing_plan_id":"cebpf4jnsgd1na2vs0mg"},{"bike_id":"071f6a7d-4cb1-4225-a85b-d80374abb03a","system_id":"levelo_inurba_marseille","lat":43.28442,"lon":5.3919,"is_reserved":false,"is_disabled":false,"rental_uris":{"android":"levelo://app?vid=071f6a7d-4cb1-4225-a85b-d80374abb03a","ios":"levelo://app?vid=071f6a7d-4cb1-4225-a85b-d80374abb03a"},"vehicle_type_id":"4","last_reported":1730923845,"current_range_meters":20000,"station_id":"ce4bhoh2rcd13ifvqh5g","pricing_plan_id":"cebpf4jnsgd1na2vs0mg"},{"bike_id":"00fe3816-0493-45e7-9996-c04de4179916","system_id":"levelo_inurba_marseille","lat":43.28609,"lon":5.37064,"is_reserved":false,"is_disabled":false,"rental_uris":{"android":"levelo://app?vid=00fe3816-0493-45e7-9996-c04de4179916","ios":"levelo://app?vid=00fe3816-0493-45e7-9996-c04de4179916"},"vehicle_type_id":"4","last_reported":1730923845,"current_range_meters":6000,"station_id":"ce4bht12rcd13ifvqi60","pricing_plan_id":"cebpf4jnsgd1na2vs0mg"},{"bike_id":"8436ecb3-47e0-4cca-9ae8-d7421c2f92f4","system_id":"levelo_inurba_marseille","lat":43.23178,"lon":5.39981,"is_reserved":false,"is_disabled":false,"rental_uris":{"android":"levelo://app?vid=8436ecb3-47e0-4cca-9ae8-d7421c2f92f4","ios":"levelo://app?vid=8436ecb3-47e0-4cca-9ae8-d7421c2f92f4"},"vehicle_type_id":"4","last_reported":1730923845,"current_range_meters":8800,"station_id":"ce4bhn12rcd13ifvqgqg","pricing_plan_id":"cebpf4jnsgd1na2vs0mg"},{"bike_id":"20c6ca9a-76ba-4e3f-9eeb-2a6da9712f70","system_id":"levelo_inurba_marseille","lat":43.3128,"lon":5.40167,"is_reserved":false,"is_disabled":false,"rental_uris":{"android":"levelo://app?vid=20c6ca9a-76ba-4e3f-9eeb-2a6da9712f70","ios":"levelo://app?vid=20c6ca9a-76ba-4e3f-9eeb-2a6da9712f70"},"vehicle_type_id":"4","last_reported":1730923845,"current_range_meters":14800,"station_id":"ce4bh092rcd13ifvqd30","pricing_plan_id":"cebpf4jnsgd1na2vs0mg"},{"bike_id":"0235ad22-6d87-4f43-b0e9-92ff12bebbf1","system_id":"levelo_inurba_marseille","lat":43.2465,"lon":5.38895,"is_reserved":false,"is_disabled":false,"rental_uris":{"android":"levelo://app?vid=0235ad22-6d87-4f43-b0e9-92ff12bebbf1","ios":"levelo://app?vid=0235ad22-6d87-4f43-b0e9-92ff12bebbf1"},"vehicle_type_id":"4","last_reported":1730923845,"current_range_meters":38800,"station_id":"ce4bhg12rcd13ifvqf60","pricing_plan_id":"cebpf4jnsgd1na2vs0mg"},{"bike_id":"2c774fec-e7d8-45fd-a68c-a9f213bd2e31","system_id":"levelo_inurba_marseille","lat":43.279453,"lon":5.410534,"is_reserved":false,"is_disabled":false,"rental_uris":{"android":"levelo://app?vid=2c774fec-e7d8-45fd-a68c-a9f213bd2e31","ios":"levelo://app?vid=2c774fec-e7d8-45fd-a68c-a9f213bd2e31"},"vehicle_type_id":"4","last_reported":1730923845,"current_range_meters":30000,"station_id":"ce4bhnp2rcd13ifvqh0g","pricing_plan_id":"cebpf4jnsgd1na2vs0mg"},{"bike_id":"436ef769-34a6-47fe-a884-d5fab131c5b4","system_id":"levelo_inurba_marseille","lat":43.25866,"lon":5.39902,"is_reserved":false,"is_disabled":false,"rental_uris":{"android":"levelo://app?vid=436ef769-34a6-47fe-a884-d5fab131c5b4","ios":"levelo://app?vid=436ef769-34a6-47fe-a884-d5fab131c5b4"},"vehicle_type_id":"4","last_reported":1730923845,"current_range_meters":38800,"station_id":"ce4bhl92rcd13ifvqghg","pricing_plan_id":"cebpf4jnsgd1na2vs0mg"},{"bike_id":"ae71a3a8-d9d9-4d77-8cbf-c0abe19dcab1","system_id":"levelo_inurba_marseille","lat":43.31169,"lon":5.38711,"is_reserved":false,"is_disabled":false,"rental_uris":{"android":"levelo://app?vid=ae71a3a8-d9d9-4d77-8cbf-c0abe19dcab1","ios":"levelo://app?vid=ae71a3a8-d9d9-4d77-8cbf-c0abe19dcab1"},"vehicle_type_id":"4","last_reported":1730923845,"current_range_meters":7200,"station_id":"ce4bgv12rcd13ifvqcp0","pricing_plan_id":"cebpf4jnsgd1na2vs0mg"},{"bike_id":"eddbfe76-8b03-461a-80ed-f58e73c78f72","system_id":"levelo_inurba_marseille","lat":43.30315,"lon":5.40434,"is_reserved":false,"is_disabled":false,"rental_uris":{"android":"levelo://app?vid=eddbfe76-8b03-461a-80ed-f58e73c78f72","ios":"levelo://app?vid=eddbfe76-8b03-461a-80ed-f58e73c78f72"},"vehicle_type_id":"4","last_reported":1730923845,"current_range_meters":38800,"station_id":"ce4bh012rcd13ifvqd10","pricing_plan_id":"cebpf4jnsgd1na2vs0mg"},{"bike_id":"9a16b6c4-4c1b-48e4-a6d9-c244c6eec5f9","system_id":"levelo_inurba_marseille","lat":43.28929,"lon":5.38405,"is_reserved":false,"is_disabled":false,"rental_uris":{"android":"levelo://app?vid=9a16b6c4-4c1b-48e4-a6d9-c244c6eec5f9","ios":"levelo://app?vid=9a16b6c4-4c1b-48e4-a6d9-c244c6eec5f9"},"vehicle_type_id":"4","last_reported":1730923845,"current_range_meters":4800,"station_id":"ce4bh612rcd13ifvqe6g","pricing_plan_id":"cebpf4jnsgd1na2vs0mg"},{"bike_id":"a731dd33-10c2-4158-b07e-2a8192e06221","system_id":"levelo_inurba_marseille","lat":43.27172,"lon":5.40992,"is_reserved":false,"is_disabled":false,"rental_uris":{"android":"levelo://app?vid=a731dd33-10c2-4158-b07e-2a8192e06221","ios":"levelo://app?vid=a731dd33-10c2-4158-b07e-2a8192e06221"},"vehicle_type_id":"4","last_reported":1730923845,"current_range_meters":33200,"station_id":"ce4bhl12rcd13ifvqgf0","pricing_plan_id":"cebpf4jnsgd1na2vs0mg"},{"bike_id":"d4c18f27-9621-4995-970c-0ef0e8e838f7","system_id":"levelo_inurba_marseille","lat":43.30888,"lon":5.39639,"is_reserved":false,"is_disabled":false,"rental_uris":{"android":"levelo://app?vid=d4c18f27-9621-4995-970c-0ef0e8e838f7","ios":"levelo://app?vid=d4c18f27-9621-4995-970c-0ef0e8e838f7"},"vehicle_type_id":"4","last_reported":1730923845,"current_range_meters":28400,"station_id":"ce4bh012rcd13ifvqcv0","pricing_plan_id":"cebpf4jnsgd1na2vs0mg"},{"bike_id":"1d3b5267-b0f2-4113-9405-d63e466792fa","system_id":"levelo_inurba_marseille","lat":43.28671,"lon":5.36349,"is_reserved":false,"is_disabled":false,"rental_uris":{"android":"levelo://app?vid=1d3b5267-b0f2-4113-9405-d63e466792fa","ios":"levelo://app?vid=1d3b5267-b0f2-4113-9405-d63e466792fa"},"vehicle_type_id":"4","last_reported":1730923845,"current_range_meters":26800,"station_id":"ce4bhah2rcd13ifvqej0","pricing_plan_id":"cebpf4jnsgd1na2vs0mg"},{"bike_id":"8a5ab0b8-50e6-4a14-a130-e6e58f46cb70","system_id":"levelo_inurba_marseille","lat":43.29519,"lon":5.39398,"is_reserved":false,"is_disabled":false,"rental_uris":{"android":"levelo://app?vid=8a5ab0b8-50e6-4a14-a130-e6e58f46cb70","ios":"levelo://app?vid=8a5ab0b8-50e6-4a14-a130-e6e58f46cb70"},"vehicle_type_id":"4","last_reported":1730923845,"current_range_meters":17200,"station_id":"ce4bh292rcd13ifvqdf0","pricing_plan_id":"cebpf4jnsgd1na2vs0mg"},{"bike_id":"80ad4f15-6f11-4a73-9f09-0d153fd86984","system_id":"levelo_inurba_marseille","lat":43.29417,"lon":5.38619,"is_reserved":false,"is_disabled":false,"rental_uris":{"android":"levelo://app?vid=80ad4f15-6f11-4a73-9f09-0d153fd86984","ios":"levelo://app?vid=80ad4f15-6f11-4a73-9f09-0d153fd86984"},"vehicle_type_id":"4","last_reported":1730923845,"current_range_meters":33200,"station_id":"ce4bh2h2rcd13ifvqdh0","pricing_plan_id":"cebpf4jnsgd1na2vs0mg"},{"bike_id":"578d6ccc-063d-4fdd-9c83-153ec4e3d3de","system_id":"levelo_inurba_marseille","lat":43.28359,"lon":5.38638,"is_reserved":false,"is_disabled":false,"rental_uris":{"android":"levelo://app?vid=578d6ccc-063d-4fdd-9c83-153ec4e3d3de","ios":"levelo://app?vid=578d6ccc-063d-4fdd-9c83-153ec4e3d3de"},"vehicle_type_id":"4","last_reported":1730923845,"current_range_meters":32800,"station_id":"ce4bh492rcd13ifvqdvg","pricing_plan_id":"cebpf4jnsgd1na2vs0mg"},{"bike_id":"a9db5bdd-ffe8-47b1-ae7d-61ce3c7c65e1","system_id":"levelo_inurba_marseille","lat":43.32541,"lon":5.41434,"is_reserved":false,"is_disabled":false,"rental_uris":{"android":"levelo://app?vid=a9db5bdd-ffe8-47b1-ae7d-61ce3c7c65e1","ios":"levelo://app?vid=a9db5bdd-ffe8-47b1-ae7d-61ce3c7c65e1"},"vehicle_type_id":"4","last_reported":1730923845,"current_range_meters":37600,"station_id":"ce4bhq12rcd13ifvqhhg","pricing_plan_id":"cebpf4jnsgd1na2vs0mg"},{"bike_id":"e8e8e8e9-08c1-402e-b5a4-f215d1376162","system_id":"levelo_inurba_marseille","lat":43.24179,"lon":5.39737,"is_reserved":false,"is_disabled":false,"rental_uris":{"android":"levelo://app?vid=e8e8e8e9-08c1-402e-b5a4-f215d1376162","ios":"levelo://app?vid=e8e8e8e9-08c1-402e-b5a4-f215d1376162"},"vehicle_type_id":"4","last_reported":1730923845,"current_range_meters":36800,"station_id":"ce4bhn12rcd13ifvqgpg","pricing_plan_id":"cebpf4jnsgd1na2vs0mg"},{"bike_id":"4be9ecf1-9a96-4389-9da1-65643f53aa30","system_id":"levelo_inurba_marseille","lat":43.26679,"lon":5.38264,"is_reserved":false,"is_disabled":false,"rental_uris":{"android":"levelo://app?vid=4be9ecf1-9a96-4389-9da1-65643f53aa30","ios":"levelo://app?vid=4be9ecf1-9a96-4389-9da1-65643f53aa30"},"vehicle_type_id":"4","last_reported":1730923845,"current_range_meters":38800,"station_id":"ce4bhg92rcd13ifvqf90","pricing_plan_id":"cebpf4jnsgd1na2vs0mg"},{"bike_id":"9a242017-b2b8-4871-b084-3d4890f99b1c","system_id":"levelo_inurba_marseille","lat":43.31274,"lon":5.40169,"is_reserved":false,"is_disabled":false,"rental_uris":{"android":"levelo://app?vid=9a242017-b2b8-4871-b084-3d4890f99b1c","ios":"levelo://app?vid=9a242017-b2b8-4871-b084-3d4890f99b1c"},"vehicle_type_id":"4","last_reported":1730923845,"current_range_meters":24400,"station_id":"ce4bh092rcd13ifvqd30","pricing_plan_id":"cebpf4jnsgd1na2vs0mg"},{"bike_id":"b89de553-ece7-4f05-be05-40bcfbb19999","system_id":"levelo_inurba_marseille","lat":43.29252,"lon":5.38432,"is_reserved":false,"is_disabled":false,"rental_uris":{"android":"levelo://app?vid=b89de553-ece7-4f05-be05-40bcfbb19999","ios":"levelo://app?vid=b89de553-ece7-4f05-be05-40bcfbb19999"},"vehicle_type_id":"4","last_reported":1730923845,"current_range_meters":24800,"station_id":"ce4bh692rcd13ifvqea0","pricing_plan_id":"cebpf4jnsgd1na2vs0mg"},{"bike_id":"e2ebc34f-8877-44b7-b7e6-cf338a86e03b","system_id":"levelo_inurba_marseille","lat":43.29874,"lon":5.38907,"is_reserved":false,"is_disabled":false,"rental_uris":{"android":"levelo://app?vid=e2ebc34f-8877-44b7-b7e6-cf338a86e03b","ios":"levelo://app?vid=e2ebc34f-8877-44b7-b7e6-cf338a86e03b"},"vehicle_type_id":"4","last_reported":1730923845,"current_range_meters":38800,"station_id":"ce4bh392rcd13ifvqdl0","pricing_plan_id":"cebpf4jnsgd1na2vs0mg"},{"bike_id":"b663770e-64eb-4d5f-85ad-006e1429bde2","system_id":"levelo_inurba_marseille","lat":43.29034,"lon":5.37559,"is_reserved":false,"is_disabled":false,"rental_uris":{"android":"levelo://app?vid=b663770e-64eb-4d5f-85ad-006e1429bde2","ios":"levelo://app?vid=b663770e-64eb-4d5f-85ad-006e1429bde2"},"vehicle_type_id":"4","last_reported":1730923845,"current_range_meters":36800,"station_id":"ce4bh692rcd13ifvqe90","pricing_plan_id":"cebpf4jnsgd1na2vs0mg"},{"bike_id":"3d59477b-e46c-4282-9c17-cc3b50a4f9ed","system_id":"levelo_inurba_marseille","lat":43.25829,"lon":5.39421,"is_reserved":false,"is_disabled":false,"rental_uris":{"android":"levelo://app?vid=3d59477b-e46c-4282-9c17-cc3b50a4f9ed","ios":"levelo://app?vid=3d59477b-e46c-4282-9c17-cc3b50a4f9ed"},"vehicle_type_id":"4","last_reported":1730923845,"current_range_meters":6400,"station_id":"ce4bhip2rcd13ifvqft0","pricing_plan_id":"cebpf4jnsgd1na2vs0mg"},{"bike_id":"d3e54780-ddfb-432e-bfd3-55d19e8c43c8","system_id":"levelo_inurba_marseille","lat":43.31752,"lon":5.39026,"is_reserved":false,"is_disabled":false,"rental_uris":{"android":"levelo://app?vid=d3e54780-ddfb-432e-bfd3-55d19e8c43c8","ios":"levelo://app?vid=d3e54780-ddfb-432e-bfd3-55d19e8c43c8"},"vehicle_type_id":"4","last_reported":1730923845,"current_range_meters":36400,"station_id":"ce4bhqp2rcd13ifvqhng","pricing_plan_id":"cebpf4jnsgd1na2vs0mg"},{"bike_id":"575ba5d2-89b1-4fa2-90a8-bfc83bb813e2","system_id":"levelo_inurba_marseille","lat":43.29859,"lon":5.39731,"is_reserved":false,"is_disabled":false,"rental_uris":{"android":"levelo://app?vid=575ba5d2-89b1-4fa2-90a8-bfc83bb813e2","ios":"levelo://app?vid=575ba5d2-89b1-4fa2-90a8-bfc83bb813e2"},"vehicle_type_id":"4","last_reported":1730923845,"current_range_meters":38800,"station_id":"ce4bh0h2rcd13ifvqd50","pricing_plan_id":"cebpf4jnsgd1na2vs0mg"},{"bike_id":"79615549-e59b-487e-beeb-f6929057808b","system_id":"levelo_inurba_marseille","lat":43.27976,"lon":5.41676,"is_reserved":false,"is_disabled":false,"rental_uris":{"android":"levelo://app?vid=79615549-e59b-487e-beeb-f6929057808b","ios":"levelo://app?vid=79615549-e59b-487e-beeb-f6929057808b"},"vehicle_type_id":"4","last_reported":1730923845,"current_range_meters":29600,"station_id":"ce4bho12rcd13ifvqh1g","pricing_plan_id":"cebpf4jnsgd1na2vs0mg"},{"bike_id":"a482a3a2-2edd-4960-90b1-3f8fafdad5f6","system_id":"levelo_inurba_marseille","lat":43.31279,"lon":5.40163,"is_reserved":false,"is_disabled":false,"rental_uris":{"android":"levelo://app?vid=a482a3a2-2edd-4960-90b1-3f8fafdad5f6","ios":"levelo://app?vid=a482a3a2-2edd-4960-90b1-3f8fafdad5f6"},"vehicle_type_id":"4","last_reported":1730923845,"current_range_meters":25200,"station_id":"ce4bh092rcd13ifvqd30","pricing_plan_id":"cebpf4jnsgd1na2vs0mg"},{"bike_id":"86be4b55-aa9f-4a49-9caf-b4438599fb25","system_id":"levelo_inurba_marseille","lat":43.29513,"lon":5.39401,"is_reserved":false,"is_disabled":false,"rental_uris":{"android":"levelo://app?vid=86be4b55-aa9f-4a49-9caf-b4438599fb25","ios":"levelo://app?vid=86be4b55-aa9f-4a49-9caf-b4438599fb25"},