{"last_updated":1715544411,"ttl":30,"version":"2.2","data":{"bikes":[{"bike_id":"95e225e7-a123-4fc6-87fa-47321cba25c8","system_id":"levelo_inurba_marseille","lat":43.31341,"lon":5.367098,"is_reserved":false,"is_disabled":false,"rental_uris":{"android":"levelo://app?vid=95e225e7-a123-4fc6-87fa-47321cba25c8","ios":"levelo://app?vid=95e225e7-a123-4fc6-87fa-47321cba25c8"},"vehicle_type_id":"4","last_reported":1715544411,"current_range_meters":8800,"station_id":"ce4bgr92rcd13ifvqc6g","pricing_plan_id":"cebpf4jnsgd1na2vs0mg"},{"bike_id":"bf9c276b-87fc-4e1c-bdbd-9ba1a09e3c0c","system_id":"levelo_inurba_marseille","lat":43.31358,"lon":5.367,"is_reserved":false,"is_disabled":false,"rental_uris":{"android":"levelo://app?vid=bf9c276b-87fc-4e1c-bdbd-9ba1a09e3c0c","ios":"levelo://app?vid=bf9c276b-87fc-4e1c-bdbd-9ba1a09e3c0c"},"vehicle_type_id":"4","last_reported":1715544411,"current_range_meters":28000,"station_id":"ce4bgr92rcd13ifvqc6g","pricing_plan_id":"cebpf4jnsgd1na2vs0mg"},{"bike_id":"3a70ba63-25f4-435b-ac9b-fc2c3c10bb91","system_id":"levelo_inurba_marseille","lat":43.31227,"lon":5.3685,"is_reserved":false,"is_disabled":false,"rental_uris":{"android":"levelo://app?vid=3a70ba63-25f4-435b-ac9b-fc2c3c10bb91","ios":"levelo://app?vid=3a70ba63-25f4-435b-ac9b-fc2c3c10bb91"},"vehicle_type_id":"4","last_reported":1715544411,"current_range_meters":22400,"station_id":"ce4bgl92rcd13ifvqbq0","pricing_plan_id":"cebpf4jnsgd1na2vs0mg"},{"bike_id":"ee6ffe7e-a4de-42f2-911f-9f3a8f7d837b","system_id":"levelo_inurba_marseille","lat":43.31223,"lon":5.36857,"is_reserved":false,"is_disabled":false,"rental_uris":{"android":"levelo://app?vid=ee6ffe7e-a4de-42f2-911f-9f3a8f7d837b","ios":"levelo://app?vid=ee6ffe7e-a4de-42f2-911f-9f3a8f7d837b"},"vehicle_type_id":"4","last_reported":1715544411,"current_range_meters":0,"station_id":"ce4bgl92rcd13ifvqbq0","pricing_plan_id":"cebpf4jnsgd1na2vs0mg"},{"bike_id":"a3fdc4f9-e269-446d-8128-30131ff4d8a3","system_id":"levelo_inurba_marseille","lat":43.312239,"lon":5.368562,"is_reserved":false,"is_disabled":false,"rental_uris":{"android":"levelo://app?vid=a3fdc4f9-e269-446d-8128-30131ff4d8a3","ios":"levelo://app?vid=a3fdc4f9-e269-446d-8128-30131ff4d8a3"},"vehicle_type_id":"4","last_reported":1715544411,"current_range_meters":7200,"station_id":"ce4bgl92rcd13ifvqbq0","pricing_plan_id":"cebpf4jnsgd1na2vs0mg"},{"bike_id":"a8517e63-4453-4da2-8618-3e0c4b0b8c83","system_id":"levelo_inurba_marseille","lat":43.309076,"lon":5.368465,"is_reserved":false,"is_disabled":false,"rental_uris":{"android":"levelo://app?vid=a8517e63-4453-4da2-8618-3e0c4b0b8c83","ios":"levelo://app?vid=a8517e63-4453-4da2-8618-3e0c4b0b8c83"},"vehicle_type_id":"4","last_reported":1715544411,"current_range_meters":4000,"station_id":"ce4bgn92rcd13ifvqbvg","pricing_plan_id":"cebpf4jnsgd1na2vs0mg"},{"bike_id":"db6f6797-78c0-465b-8d9b-89665f1dfa94","system_id":"levelo_inurba_marseille","lat":43.314811,"lon":5.373103,"is_reserved":false,"is_disabled":false,"rental_uris":{"android":"levelo://app?vid=db6f6797-78c0-465b-8d9b-89665f1dfa94","ios":"levelo://app?vid=db6f6797-78c0-465b-8d9b-89665f1dfa94"},"vehicle_type_id":"4","last_reported":1715544411,"current_range_meters":17200,"station_id":"ce4bgt12rcd13ifvqcd0","pricing_plan_id":"cebpf4jnsgd1na2vs0mg"},{"bike_id":"a5e69463-6f45-417a-8768-ec28c2f42fed","system_id":"levelo_inurba_marseille","lat":43.309034,"lon":5.371783,"is_reserved":false,"is_disabled":false,"rental_uris":{"android":"levelo://app?vid=a5e69463-6f45-417a-8768-ec28c2f42fed","ios":"levelo://app?vid=a5e69463-6f45-417a-8768-ec28c2f42fed"},"vehicle_type_id":"4","last_reported":1715544411,"current_range_meters":26000,"station_id":"ce4bguh2rcd13ifvqckg","pricing_plan_id":"cebpf4jnsgd1na2vs0mg"},{"bike_id":"c12ff891-35b2-41c5-acd2-5be83598470f","system_id":"levelo_inurba_marseille","lat":43.309039,"lon":5.371797,"is_reserved":false,"is_disabled":false,"rental_uris":{"android":"levelo://app?vid=c12ff891-35b2-41c5-acd2-5be83598470f","ios":"levelo://app?vid=c12ff891-35b2-41c5-acd2-5be83598470f"},"vehicle_type_id":"4","last_reported":1715544411,"current_range_meters":3200,"station_id":"ce4bguh2rcd13ifvqckg","pricing_plan_id":"cebpf4jnsgd1na2vs0mg"},{"bike_id":"b51ef6bf-a947-421a-8cc1-38a26c495777","system_id":"levelo_inurba_marseille","lat":43.309039,"lon":5.371797,"is_reserved":false,"is_disabled":false,"rental_uris":{"android":"levelo://app?vid=b51ef6bf-a947-421a-8cc1-38a26c495777","ios":"levelo://app?vid=b51ef6bf-a947-421a-8cc1-38a26c495777"},"vehicle_type_id":"4","last_reported":1715544411,"current_range_meters":1200,"station_id":"ce4bguh2rcd13ifvqckg","pricing_plan_id":"cebpf4jnsgd1na2vs0mg"},{"bike_id":"029db4bb-e798-428e-bedb-a9ff4a1fcf4d","system_id":"levelo_inurba_marseille","lat":43.305714,"lon":5.365633,"is_reserved":false,"is_disabled":false,"rental_uris":{"android":"levelo://app?vid=029db4bb-e798-428e-bedb-a9ff4a1fcf4d","ios":"levelo://app?vid=029db4bb-e798-428e-bedb-a9ff4a1fcf4d"},"vehicle_type_id":"4","last_reported":1715544411,"current_range_meters":0,"station_id":"ce4bgs12rcd13ifvqcag","pricing_plan_id":"cebpf4jnsgd1na2vs0mg"},{"bike_id":"3bc3bdee-a660-4406-b266-436c85a32cbf","system_id":"levelo_inurba_marseille","lat":43.30541,"lon":5.36698,"is_reserved":false,"is_disabled":false,"rental_uris":{"android":"levelo://app?vid=3bc3bdee-a660-4406-b266-436c85a32cbf","ios":"levelo://app?vid=3bc3bdee-a660-4406-b266-436c85a32cbf"},"vehicle_type_id":"4","last_reported":1715544411,"current_range_meters":0,"station_id":"ce4bgrp2rcd13ifvqc9g","pricing_plan_id":"cebpf4jnsgd1na2vs0mg"},{"bike_id":"0703b065-36ac-4091-bcf3-24d5446884d4","system_id":"levelo_inurba_marseille","lat":43.30537,"lon":5.36703,"is_reserved":false,"is_disabled":false,"rental_uris":{"android":"levelo://app?vid=0703b065-36ac-4091-bcf3-24d5446884d4","ios":"levelo://app?vid=0703b065-36ac-4091-bcf3-24d5446884d4"},"vehicle_type_id":"4","last_reported":1715544411,"current_range_meters":14000,"station_id":"","pricing_plan_id":"cebpf4jnsgd1na2vs0mg"},{"bike_id":"e774366e-ed6f-41b0-be80-0dbba613a6c1","system_id":"levelo_inurba_marseille","lat":43.30536,"lon":5.36532,"is_reserved":false,"is_disabled":false,"rental_uris":{"android":"levelo://app?vid=e774366e-ed6f-41b0-be80-0dbba613a6c1","ios":"levelo://app?vid=e774366e-ed6f-41b0-be80-0dbba613a6c1"},"vehicle_type_id":"4","last_reported":1715544411,"current_range_meters":0,"station_id":"ce4bgs12rcd13ifvqcag","pricing_plan_id":"cebpf4jnsgd1na2vs0mg"},{"bike_id":"4611b674-7837-4c93-ad10-1a2709f82526","system_id":"levelo_inurba_marseille","lat":43.305989,"lon":5.37225,"is_reserved":false,"is_disabled":false,"rental_uris":{"android":"levelo://app?vid=4611b674-7837-4c93-ad10-1a2709f82526","ios":"levelo://app?vid=4611b674-7837-4c93-ad10-1a2709f82526"},"vehicle_type_id":"4","last_reported":1715544411,"current_range_meters":15600,"station_id":"ce4bgqh2rcd13ifvqc4g","pricing_plan_id":"cebpf4jnsgd1na2vs0mg"},{"bike_id":"d5e8fbf3-8ca5-4d43-ad50-fe0f6ce736b4","system_id":"levelo_inurba_marseille","lat":43.305989,"lon":5.37225,"is_reserved":false,"is_disabled":false,"rental_uris":{"android":"levelo://app?vid=d5e8fbf3-8ca5-4d43-ad50-fe0f6ce736b4","ios":"levelo://app?vid=d5e8fbf3-8ca5-4d43-ad50-fe0f6ce736b4"},"vehicle_type_id":"4","last_reported":1715544411,"current_range_meters":13600,"station_id":"ce4bgqh2rcd13ifvqc4g","pricing_plan_id":"cebpf4jnsgd1na2vs0mg"},{"bike_id":"4fc5a5f8-c61b-4d0f-8e4d-73bbeb34c4a0","system_id":"levelo_inurba_marseille","lat":43.311125,"lon":5.377624,"is_reserved":false,"is_disabled":false,"rental_uris":{"android":"levelo://app?vid=4fc5a5f8-c61b-4d0f-8e4d-73bbeb34c4a0","ios":"levelo://app?vid=4fc5a5f8-c61b-4d0f-8e4d-73bbeb34c4a0"},"vehicle_type_id":"4","last_reported":1715544411,"current_range_meters":31200,"station_id":"ce4bgt92rcd13ifvqcg0","pricing_plan_id":"cebpf4jnsgd1na2vs0mg"},{"bike_id":"f0285697-ee5c-4e06-9d59-af9dadefd921","system_id":"levelo_inurba_marseille","lat":43.311146,"lon":5.377656,"is_reserved":false,"is_disabled":false,"rental_uris":{"android":"levelo://app?vid=f0285697-ee5c-4e06-9d59-af9dadefd921","ios":"levelo://app?vid=f0285697-ee5c-4e06-9d59-af9dadefd921"},"vehicle_type_id":"4","last_reported":1715544411,"current_range_meters":0,"station_id":"ce4bgt92rcd13ifvqcg0","pricing_plan_id":"cebpf4jnsgd1na2vs0mg"},{"bike_id":"7f04f73f-373e-4809-8821-6fce7302850c","system_id":"levelo_inurba_marseille","lat":43.311131,"lon":5.377651,"is_reserved":false,"is_disabled":false,"rental_uris":{"android":"levelo://app?vid=7f04f73f-373e-4809-8821-6fce7302850c","ios":"levelo://app?vid=7f04f73f-373e-4809-8821-6fce7302850c"},"vehicle_type_id":"4","last_reported":1715544411,"current_range_meters":0,"station_id":"ce4bgt92rcd13ifvqcg0","pricing_plan_id":"cebpf4jnsgd1na2vs0mg"},{"bike_id":"a8420d12-5ea1-4553-ba77-74153419b9a1","system_id":"levelo_inurba_marseille","lat":43.307847,"lon":5.376459,"is_reserved":false,"is_disabled":false,"rental_uris":{"android":"levelo://app?vid=a8420d12-5ea1-4553-ba77-74153419b9a1","ios":"levelo://app?vid=a8420d12-5ea1-4553-ba77-74153419b9a1"},"vehicle_type_id":"4","last_reported":1715544411,"current_range_meters":30800,"station_id":"ce4bgv92rcd13ifvqcq0","pricing_plan_id":"cebpf4jnsgd1na2vs0mg"},{"bike_id":"b6a7f136-c9e2-4f3e-9657-eea3f776d96c","system_id":"levelo_inurba_marseille","lat":43.30543,"lon":5.37319,"is_reserved":false,"is_disabled":false,"rental_uris":{"android":"levelo://app?vid=b6a7f136-c9e2-4f3e-9657-eea3f776d96c","ios":"levelo://app?vid=b6a7f136-c9e2-4f3e-9657-eea3f776d96c"},"vehicle_type_id":"4","last_reported":1715544411,"current_range_meters":0,"station_id":"","pricing_plan_id":"cebpf4jnsgd1na2vs0mg"},{"bike_id":"57e96d4e-aa35-4a7e-8ac8-a7cd46ff08fa","system_id":"levelo_inurba_marseille","lat":43.307945,"lon":5.376487,"is_reserved":false,"is_disabled":false,"rental_uris":{"android":"levelo://app?vid=57e96d4e-aa35-4a7e-8ac8-a7cd46ff08fa","ios":"levelo://app?vid=57e96d4e-aa35-4a7e-8ac8-a7cd46ff08fa"},"vehicle_type_id":"4","last_reported":1715544411,"current_range_meters":0,"station_id":"ce4bgv92rcd13ifvqcq0","pricing_plan_id":"cebpf4jnsgd1na2vs0mg"},{"bike_id":"3d83e1ea-9f6f-49ec-b1af-4bf968092d6d","system_id":"levelo_inurba_marseille","lat":43.317075,"lon":5.377367,"is_reserved":false,"is_disabled":false,"rental_uris":{"android":"levelo://app?vid=3d83e1ea-9f6f-49ec-b1af-4bf968092d6d","ios":"levelo://app?vid=3d83e1ea-9f6f-49ec-b1af-4bf968092d6d"},"vehicle_type_id":"4","last_reported":1715544411,"current_range_meters":12000,"station_id":"ce4bgth2rcd13ifvqch0","pricing_plan_id":"cebpf4jnsgd1na2vs0mg"},{"bike_id":"a9852b3e-fe4c-4fef-81bc-aa2fd8745527","system_id":"levelo_inurba_marseille","lat":43.317075,"lon":5.377367,"is_reserved":false,"is_disabled":false,"rental_uris":{"android":"levelo://app?vid=a9852b3e-fe4c-4fef-81bc-aa2fd8745527","ios":"levelo://app?vid=a9852b3e-fe4c-4fef-81bc-aa2fd8745527"},"vehicle_type_id":"4","last_reported":1715544411,"current_range_meters":16000,"station_id":"ce4bgth2rcd13ifvqch0","pricing_plan_id":"cebpf4jnsgd1na2vs0mg"},{"bike_id":"f0cea8f3-6f46-44c3-804d-742aca6c4c97","system_id":"levelo_inurba_marseille","lat":43.317075,"lon":5.377367,"is_reserved":false,"is_disabled":false,"rental_uris":{"android":"levelo://app?vid=f0cea8f3-6f46-44c3-804d-742aca6c4c97","ios":"levelo://app?vid=f0cea8f3-6f46-44c3-804d-742aca6c4c97"},"vehicle_type_id":"4","last_reported":1715544411,"current_range_meters":18400,"station_id":"ce4bgth2rcd13ifvqch0","pricing_plan_id":"cebpf4jnsgd1na2vs0mg"},{"bike_id":"0f4b6e89-9fe6-4a81-ba1f-899d10458085","system_id":"levelo_inurba_marseille","lat":43.303046,"lon":5.368981,"is_reserved":false,"is_disabled":false,"rental_uris":{"android":"levelo://app?vid=0f4b6e89-9fe6-4a81-ba1f-899d10458085","ios":"levelo://app?vid=0f4b6e89-9fe6-4a81-ba1f-899d10458085"},"vehicle_type_id":"4","last_reported":1715544411,"current_range_meters":0,"station_id":"ce4bgqh2rcd13ifvqc5g","pricing_plan_id":"cebpf4jnsgd1na2vs0mg"},{"bike_id":"2494b6ab-2097-4882-8e97-b48d4e280392","system_id":"levelo_inurba_marseille","lat":43.315289,"lon":5.380349,"is_reserved":false,"is_disabled":false,"rental_uris":{"android":"levelo://app?vid=2494b6ab-2097-4882-8e97-b48d4e280392","ios":"levelo://app?vid=2494b6ab-2097-4882-8e97-b48d4e280392"},"vehicle_type_id":"4","last_reported":1715544411,"current_range_meters":2000,"station_id":"ce4bhsp2rcd13ifvqi50","pricing_plan_id":"cebpf4jnsgd1na2vs0mg"},{"bike_id":"a37cdda5-216b-490e-9d2b-eead123fc9e0","system_id":"levelo_inurba_marseille","lat":43.315289,"lon":5.380349,"is_reserved":false,"is_disabled":false,"rental_uris":{"android":"levelo://app?vid=a37cdda5-216b-490e-9d2b-eead123fc9e0","ios":"levelo://app?vid=a37cdda5-216b-490e-9d2b-eead123fc9e0"},"vehicle_type_id":"4","last_reported":1715544411,"current_range_meters":8000,"station_id":"ce4bhsp2rcd13ifvqi50","pricing_plan_id":"cebpf4jnsgd1na2vs0mg"},{"bike_id":"e7e281f5-a277-4018-b388-dd9df87eeab7","system_id":"levelo_inurba_marseille","lat":43.308012,"lon":5.381511,"is_reserved":false,"is_disabled":false,"rental_uris":{"android":"levelo://app?vid=e7e281f5-a277-4018-b388-dd9df87eeab7","ios":"levelo://app?vid=e7e281f5-a277-4018-b388-dd9df87eeab7"},"vehicle_type_id":"4","last_reported":1715544411,"current_range_meters":11600,"station_id":"ce4bgt12rcd13ifvqce0","pricing_plan_id":"cebpf4jnsgd1na2vs0mg"},{"bike_id":"c090b4a3-8df5-4222-9fd9-6efab201f20e","system_id":"levelo_inurba_marseille","lat":43.308012,"lon":5.381511,"is_reserved":false,"is_disabled":false,"rental_uris":{"android":"levelo://app?vid=c090b4a3-8df5-4222-9fd9-6efab201f20e","ios":"levelo://app?vid=c090b4a3-8df5-4222-9fd9-6efab201f20e"},"vehicle_type_id":"4","last_reported":1715544411,"current_range_meters":21200,"station_id":"ce4bgt12rcd13ifvqce0","pricing_plan_id":"cebpf4jnsgd1na2vs0mg"},{"bike_id":"950062fa-3a7b-463b-9e6c-f55aa078604c","system_id":"levelo_inurba_marseille","lat":43.30304,"lon":5.37633,"is_reserved":false,"is_disabled":false,"rental_uris":{"android":"levelo://app?vid=950062fa-3a7b-463b-9e6c-f55aa078604c","ios":"levelo://app?vid=950062fa-3a7b-463b-9e6c-f55aa078604c"},"vehicle_type_id":"4","last_reported":1715544411,"current_range_meters":16800,"station_id":"","pricing_plan_id":"cebpf4jnsgd1na2vs0mg"},{"bike_id":"538925c6-1285-4f12-8bc5-74f08d2f1766","system_id":"levelo_inurba_marseille","lat":43.299028,"lon":5.381509,"is_reserved":false,"is_disabled":false,"rental_uris":{"android":"levelo://app?vid=538925c6-1285-4f12-8bc5-74f08d2f1766","ios":"levelo://app?vid=538925c6-1285-4f12-8bc5-74f08d2f1766"},"vehicle_type_id":"4","last_reported":1715544411,"current_range_meters":0,"station_id":"ce4bgj12rcd13ifvqbc0","pricing_plan_id":"cebpf4jnsgd1na2vs0mg"},{"bike_id":"4eb37566-cfb5-4c86-a3ea-ad0e279d9efa","system_id":"levelo_inurba_marseille","lat":43.324771,"lon":5.36557,"is_reserved":false,"is_disabled":false,"rental_uris":{"android":"levelo://app?vid=4eb37566-cfb5-4c86-a3ea-ad0e279d9efa","ios":"levelo://app?vid=4eb37566-cfb5-4c86-a3ea-ad0e279d9efa"},"vehicle_type_id":"4","last_reported":1715544411,"current_range_meters":22000,"station_id":"ce4bhs12rcd13ifvqhvg","pricing_plan_id":"cebpf4jnsgd1na2vs0mg"},{"bike_id":"e462428f-8777-46bf-be71-6ec0eeb2736e","system_id":"levelo_inurba_marseille","lat":43.324771,"lon":5.36557,"is_reserved":false,"is_disabled":false,"rental_uris":{"android":"levelo://app?vid=e462428f-8777-46bf-be71-6ec0eeb2736e","ios":"levelo://app?vid=e462428f-8777-46bf-be71-6ec0eeb2736e"},"vehicle_type_id":"4","last_reported":1715544411,"current_range_meters":11200,"station_id":"ce4bhs12rcd13ifvqhvg","pricing_plan_id":"cebpf4jnsgd1na2vs0mg"},{"bike_id":"de363a9b-b8dd-4f25-97c4-05ca23eea0b0","system_id":"levelo_inurba_marseille","lat":43.324771,"lon":5.36557,"is_reserved":false,"is_disabled":false,"rental_uris":{"android":"levelo://app?vid=de363a9b-b8dd-4f25-97c4-05ca23eea0b0","ios":"levelo://app?vid=de363a9b-b8dd-4f25-97c4-05ca23eea0b0"},"vehicle_type_id":"4","last_reported":1715544411,"current_range_meters":26000,"station_id":"ce4bhs12rcd13ifvqhvg","pricing_plan_id":"cebpf4jnsgd1na2vs0mg"},{"bike_id":"43671154-6e2a-41f7-a74e-cc016c296fcd","system_id":"levelo_inurba_marseille","lat":43.324771,"lon":5.36557,"is_reserved":false,"is_disabled":false,"rental_uris":{"android":"levelo://app?vid=43671154-6e2a-41f7-a74e-cc016c296fcd","ios":"levelo://app?vid=43671154-6e2a-41f7-a74e-cc016c296fcd"},"vehicle_type_id":"4","last_reported":1715544411,"current_range_meters":24800,"station_id":"ce4bhs12rcd13ifvqhvg","pricing_plan_id":"cebpf4jnsgd1na2vs0mg"},{"bike_id":"26bd8217-5511-4bf1-a4d4-7323f3ee6d22","system_id":"levelo_inurba_marseille","lat":43.324771,"lon":5.36557,"is_reserved":false,"is_disabled":false,"rental_uris":{"android":"levelo://app?vid=26bd8217-5511-4bf1-a4d4-7323f3ee6d22","ios":"levelo://app?vid=26bd8217-5511-4bf1-a4d4-7323f3ee6d22"},"vehicle_type_id":"4","last_reported":1715544411,"current_range_meters":14800,"station_id":"ce4bhs12rcd13ifvqhvg","pricing_plan_id":"cebpf4jnsgd1na2vs0mg"},{"bike_id":"0124e475-9766-4a20-9aa8-9243a8d4fa7f","system_id":"levelo_inurba_marseille","lat":43.324771,"lon":5.36557,"is_reserved":false,"is_disabled":false,"rental_uris":{"android":"levelo://app?vid=0124e475-9766-4a20-9aa8-9243a8d4fa7f","ios":"levelo://app?vid=0124e475-9766-4a20-9aa8-9243a8d4fa7f"},"vehicle_type_id":"4","last_reported":1715544411,"current_range_meters":8800,"station_id":"ce4bhs12rcd13ifvqhvg","pricing_plan_id":"cebpf4jnsgd1na2vs0mg"},{"bike_id":"68c31631-8922-423d-ab80-6114d95ceaa2","system_id":"levelo_inurba_marseille","lat":43.324771,"lon":5.36557,"is_reserved":false,"is_disabled":false,"rental_uris":{"android":"levelo://app?vid=68c31631-8922-423d-ab80-6114d95ceaa2","ios":"levelo://app?vid=68c31631-8922-423d-ab80-6114d95ceaa2"},"vehicle_type_id":"4","last_reported":1715544411,"current_range_meters":2400,"station_id":"ce4bhs12rcd13ifvqhvg","pricing_plan_id":"cebpf4jnsgd1na2vs0mg"},{"bike_id":"1d3de0b0-7934-4fcc-b39a-497c4cf68f7b","system_id":"levelo_inurba_marseille","lat":43.324771,"lon":5.36557,"is_reserved":false,"is_disabled":false,"rental_uris":{"android":"levelo://app?vid=1d3de0b0-7934-4fcc-b39a-497c4cf68f7b","ios":"levelo://app?vid=1d3de0b0-7934-4fcc-b39a-497c4cf68f7b"},"vehicle_type_id":"4","last_reported":1715544411,"current_range_meters":20800,"station_id":"ce4bhs12rcd13ifvqhvg","pricing_plan_id":"cebpf4jnsgd1na2vs0mg"},{"bike_id":"7279300e-a5c4-4f3b-858a-e2bd296be7c9","system_id":"levelo_inurba_marseille","lat":43.324771,"lon":5.36557,"is_reserved":false,"is_disabled":false,"rental_uris":{"android":"levelo://app?vid=7279300e-a5c4-4f3b-858a-e2bd296be7c9","ios":"levelo://app?vid=7279300e-a5c4-4f3b-858a-e2bd296be7c9"},"vehicle_type_id":"4","last_reported":1715544411,"current_range_meters":13600,"station_id":"ce4bhs12rcd13ifvqhvg","pricing_plan_id":"cebpf4jnsgd1na2vs0mg"},{"bike_id":"4a9a9665-1cd2-49ce-8806-5d25ff857789","system_id":"levelo_inurba_marseille","lat":43.324771,"lon":5.36557,"is_reserved":false,"is_disabled":false,"rental_uris":{"android":"levelo://app?vid=4a9a9665-1cd2-49ce-8806-5d25ff857789","ios":"levelo://app?vid=4a9a9665-1cd2-49ce-8806-5d25ff857789"},"vehicle_type_id":"4","last_reported":1715544411,"current_range_meters":16400,"station_id":"ce4bhs12rcd13ifvqhvg","pricing_plan_id":"cebpf4jnsgd1na2vs0mg"},{"bike_id":"237b19c4-af93-4f0b-8df7-a29b40704832","system_id":"levelo_inurba_marseille","lat":43.324771,"lon":5.36557,"is_reserved":false,"is_disabled":false,"rental_uris":{"android":"levelo://app?vid=237b19c4-af93-4f0b-8df7-a29b40704832","ios":"levelo://app?vid=237b19c4-af93-4f0b-8df7-a29b40704832"},"vehicle_type_id":"4","last_reported":1715544411,"current_range_meters":27600,"station_id":"ce4bhs12rcd13ifvqhvg","pricing_plan_id":"cebpf4jnsgd1na2vs0mg"},{"bike_id":"855e19b2-a879-402e-b914-323ad8136d11","system_id":"levelo_inurba_marseille","lat":43.324771,"lon":5.36557,"is_reserved":false,"is_disabled":false,"rental_uris":{"android":"levelo://app?vid=855e19b2-a879-402e-b914-323ad8136d11","ios":"levelo://app?vid=855e19b2-a879-402e-b914-323ad8136d11"},"vehicle_type_id":"4","last_reported":1715544411,"current_range_meters":16000,"station_id":"ce4bhs12rcd13ifvqhvg","pricing_plan_id":"cebpf4jnsgd1na2vs0mg"},{"bike_id":"ab294a79-14d3-426e-b97b-f105f6a1e37c","system_id":"levelo_inurba_marseille","lat":43.324771,"lon":5.36557,"is_reserved":false,"is_disabled":false,"rental_uris":{"android":"levelo://app?vid=ab294a79-14d3-426e-b97b-f105f6a1e37c","ios":"levelo://app?vid=ab294a79-14d3-426e-b97b-f105f6a1e37c"},"vehicle_type_id":"4","last_reported":1715544411,"current_range_meters":27600,"station_id":"ce4bhs12rcd13ifvqhvg","pricing_plan_id":"cebpf4jnsgd1na2vs0mg"},{"bike_id":"b0ae57a5-47d8-43f1-a382-5843f5a2c0bd","system_id":"levelo_inurba_marseille","lat":43.324771,"lon":5.36557,"is_reserved":false,"is_disabled":false,"rental_uris":{"android":"levelo://app?vid=b0ae57a5-47d8-43f1-a382-5843f5a2c0bd","ios":"levelo://app?vid=b0ae57a5-47d8-43f1-a382-5843f5a2c0bd"},"vehicle_type_id":"4","last_reported":1715544411,"current_range_meters":400,"station_id":"ce4bhs12rcd13ifvqhvg","pricing_plan_id":"cebpf4jnsgd1na2vs0mg"},{"bike_id":"27864151-07c6-46e0-bb7f-76413df57206","system_id":"levelo_inurba_marseille","lat":43.32491,"lon":5.365573,"is_reserved":false,"is_disabled":false,"rental_uris":{"android":"levelo://app?vid=27864151-07c6-46e0-bb7f-76413df57206","ios":"levelo://app?vid=27864151-07c6-46e0-bb7f-76413df57206"},"vehicle_type_id":"4","last_reported":1715544411,"current_range_meters":15600,"station_id":"ce4bhs12rcd13ifvqhvg","pricing_plan_id":"cebpf4jnsgd1na2vs0mg"},{"bike_id":"5a060ff6-f03d-40f4-bb03-a175c8e25d5e","system_id":"levelo_inurba_marseille","lat":43.310804,"lon":5.38359,"is_reserved":false,"is_disabled":false,"rental_uris":{"android":"levelo://app?vid=5a060ff6-f03d-40f4-bb03-a175c8e25d5e","ios":"levelo://app?vid=5a060ff6-f03d-40f4-bb03-a175c8e25d5e"},"vehicle_type_id":"4","last_reported":1715544411,"current_range_meters":25600,"station_id":"ce4bgv92rcd13ifvqcr0","pricing_plan_id":"cebpf4jnsgd1na2vs0mg"},{"bike_id":"33531eb2-a914-4029-9236-a417e697981b","system_id":"levelo_inurba_marseille","lat":43.302784,"lon":5.377158,"is_reserved":false,"is_disabled":false,"rental_uris":{"android":"levelo://app?vid=33531eb2-a914-4029-9236-a417e697981b","ios":"levelo://app?vid=33531eb2-a914-4029-9236-a417e697981b"},"vehicle_type_id":"4","last_reported":1715544411,"current_range_meters":0,"station_id":"ce4bguh2rcd13ifvqcj0","pricing_plan_id":"cebpf4jnsgd1na2vs0mg"},{"bike_id":"8de2c7d2-c3a3-4686-86ad-312a25cb5c9d","system_id":"levelo_inurba_marseille","lat":43.31065,"lon":5.38359,"is_reserved":false,"is_disabled":false,"rental_uris":{"android":"levelo://app?vid=8de2c7d2-c3a3-4686-86ad-312a25cb5c9d","ios":"levelo://app?vid=8de2c7d2-c3a3-4686-86ad-312a25cb5c9d"},"vehicle_type_id":"4","last_reported":1715544411,"current_range_meters":0,"station_id":"ce4bgv92rcd13ifvqcr0","pricing_plan_id":"cebpf4jnsgd1na2vs0mg"},{"bike_id":"c894008a-faf3-4b2f-84e4-6baed900ee3a","system_id":"levelo_inurba_marseille","lat":43.301429,"lon":5.37413,"is_reserved":false,"is_disabled":false,"rental_uris":{"android":"levelo://app?vid=c894008a-faf3-4b2f-84e4-6baed900ee3a","ios":"levelo://app?vid=c894008a-faf3-4b2f-84e4-6baed900ee3a"},"vehicle_type_id":"4","last_reported":1715544411,"current_range_meters":16400,"station_id":"ce4bgs92rcd13ifvqcc0","pricing_plan_id":"cebpf4jnsgd1na2vs0mg"},{"bike_id":"ee0fc8ee-80b1-42c7-96f1-04a2e550f7b7","system_id":"levelo_inurba_marseille","lat":43.319935,"lon":5.381699,"is_reserved":false,"is_disabled":false,"rental_uris":{"android":"levelo://app?vid=ee0fc8ee-80b1-42c7-96f1-04a2e550f7b7","ios":"levelo://app?vid=ee0fc8ee-80b1-42c7-96f1-04a2e550f7b7"},"vehicle_type_id":"4","last_reported":1715544411,"current_range_meters":16000,"station_id":"ce4bhr12rcd13ifvqhpg","pricing_plan_id":"cebpf4jnsgd1na2vs0mg"},{"bike_id":"51e5688c-3d19-4704-9ccc-c61cbd80ac96","system_id":"levelo_inurba_marseille","lat":43.31996,"lon":5.38147,"is_reserved":false,"is_disabled":false,"rental_uris":{"android":"levelo://app?vid=51e5688c-3d19-4704-9ccc-c61cbd80ac96","ios":"levelo://app?vid=51e5688c-3d19-4704-9ccc-c61cbd80ac96"},"vehicle_type_id":"4","last_reported":1715544411,"current_range_meters":800,"station_id":"ce4bhr12rcd13ifvqhpg","pricing_plan_id":"cebpf4jnsgd1na2vs0mg"},{"bike_id":"74c1be8a-5439-4116-8ee0-b58b150fd1e3","system_id":"levelo_inurba_marseille","lat":43.319935,"lon":5.381699,"is_reserved":false,"is_disabled":false,"rental_uris":{"android":"levelo://app?vid=74c1be8a-5439-4116-8ee0-b58b150fd1e3","ios":"levelo://app?vid=74c1be8a-5439-4116-8ee0-b58b150fd1e3"},"vehicle_type_id":"4","last_reported":1715544411,"current_range_meters":3200,"station_id":"ce4bhr12rcd13ifvqhpg","pricing_plan_id":"cebpf4jnsgd1na2vs0mg"},{"bike_id":"5b5c7d4a-642c-4f85-a763-b039d49ed0ee","system_id":"levelo_inurba_marseille","lat":43.315289,"lon":5.380349,"is_reserved":false,"is_disabled":false,"rental_uris":{"android":"levelo://app?vid=5b5c7d4a-642c-4f85-a763-b039d49ed0ee","ios":"levelo://app?vid=5b5c7d4a-642c-4f85-a763-b039d49ed0ee"},"vehicle_type_id":"4","last_reported":1715544411,"current_range_meters":8800,"station_id":"ce4bhsp2rcd13ifvqi50","pricing_plan_id":"cebpf4jnsgd1na2vs0mg"},{"bike_id":"6f256ac6-520d-48bf-98b5-42517360cc67","system_id":"levelo_inurba_marseille","lat":43.29999,"lon":5.37115,"is_reserved":false,"is_disabled":false,"rental_uris":{"android":"levelo://app?vid=6f256ac6-520d-48bf-98b5-42517360cc67","ios":"levelo://app?vid=6f256ac6-520d-48bf-98b5-42517360cc67"},"vehicle_type_id":"4","last_reported":1715544411,"current_range_meters":0,"station_id":"ce4bgr92rcd13ifvqc7g","pricing_plan_id":"cebpf4jnsgd1na2vs0mg"},{"bike_id":"c5b61f3f-8ad6-416b-a2ca-c0144cdd8adf","system_id":"levelo_inurba_marseille","lat":43.31348,"lon":5.38499,"is_reserved":false,"is_disabled":false,"rental_uris":{"android":"levelo://app?vid=c5b61f3f-8ad6-416b-a2ca-c0144cdd8adf","ios":"levelo://app?vid=c5b61f3f-8ad6-416b-a2ca-c0144cdd8adf"},"vehicle_type_id":"4","last_reported":1715544411,"current_range_meters":25600,"station_id":"ce4bgt92rcd13ifvqcf0","pricing_plan_id":"cebpf4jnsgd1na2vs0mg"},{"bike_id":"063de0fb-4fab-4906-b59c-ec6d7eb05c3c","system_id":"levelo_inurba_marseille","lat":43.313571,"lon":5.384829,"is_reserved":false,"is_disabled":false,"rental_uris":{"android":"levelo://app?vid=063de0fb-4fab-4906-b59c-ec6d7eb05c3c","ios":"levelo://app?vid=063de0fb-4fab-4906-b59c-ec6d7eb05c3c"},"vehicle_type_id":"4","last_reported":1715544411,"current_range_meters":8000,"station_id":"ce4bgt92rcd13ifvqcf0","pricing_plan_id":"cebpf4jnsgd1na2vs0mg"},{"bike_id":"ca59b5d0-aee7-4542-8497-b47ae6a2bfed","system_id":"levelo_inurba_marseille","lat":43.299724,"lon":5.371829,"is_reserved":false,"is_disabled":false,"rental_uris":{"android":"levelo://app?vid=ca59b5d0-aee7-4542-8497-b47ae6a2bfed","ios":"levelo://app?vid=ca59b5d0-aee7-4542-8497-b47ae6a2bfed"},"vehicle_type_id":"4","last_reported":1715544411,"current_range_meters":9600,"station_id":"ce4bgr92rcd13ifvqc7g","pricing_plan_id":"cebpf4jnsgd1na2vs0mg"},{"bike_id":"f7521637-4f75-408b-8ac8-2a2f3a504e88","system_id":"levelo_inurba_marseille","lat":43.299222,"lon":5.365554,"is_reserved":false,"is_disabled":false,"rental_uris":{"android":"levelo://app?vid=f7521637-4f75-408b-8ac8-2a2f3a504e88","ios":"levelo://app?vid=f7521637-4f75-408b-8ac8-2a2f3a504e88"},"vehicle_type_id":"4","last_reported":1715544411,"current_range_meters":18800,"station_id":"ce4bgm92rcd13ifvqbr0","pricing_plan_id":"cebpf4jnsgd1na2vs0mg"},{"bike_id":"d1db4f7f-5578-4ada-bee6-e32f339b2aaf","system_id":"levelo_inurba_marseille","lat":43.299724,"lon":5.371829,"is_reserved":false,"is_disabled":false,"rental_uris":{"android":"levelo://app?vid=d1db4f7f-5578-4ada-bee6-e32f339b2aaf","ios":"levelo://app?vid=d1db4f7f-5578-4ada-bee6-e32f339b2aaf"},"vehicle_type_id":"4","last_reported":1715544411,"current_range_meters":31200,"station_id":"ce4bgr92rcd13ifvqc7g","pricing_plan_id":"cebpf4jnsgd1na2vs0mg"},{"bike_id":"deb3fb2f-2610-4335-a63d-7e6cd9ef4bd3","system_id":"levelo_inurba_marseille","lat":43.299209,"lon":5.365547,"is_reserved":false,"is_disabled":false,"rental_uris":{"android":"levelo://app?vid=deb3fb2f-2610-4335-a63d-7e6cd9ef4bd3","ios":"levelo://app?vid=deb3fb2f-2610-4335-a63d-7e6cd9ef4bd3"},"vehicle_type_id":"4","last_reported":1715544411,"current_range_meters":5200,"station_id":"ce4bgm92rcd13ifvqbr0","pricing_plan_id":"cebpf4jnsgd1na2vs0mg"},{"bike_id":"8f079099-8992-4b8a-8b1b-fcb0b1cd7c09","system_id":"levelo_inurba_marseille","lat":43.299222,"lon":5.365554,"is_reserved":false,"is_disabled":false,"rental_uris":{"android":"levelo://app?vid=8f079099-8992-4b8a-8b1b-fcb0b1cd7c09","ios":"levelo://app?vid=8f079099-8992-4b8a-8b1b-fcb0b1cd7c09"},"vehicle_type_id":"4","last_reported":1715544411,"current_range_meters":20000,"station_id":"ce4bgm92rcd13ifvqbr0","pricing_plan_id":"cebpf4jnsgd1na2vs0mg"},{"bike_id":"c4ce9ba5-0d90-4def-be44-66778b5d8a07","system_id":"levelo_inurba_marseille","lat":43.299222,"lon":5.365554,"is_reserved":false,"is_disabled":false,"rental_uris":{"android":"levelo://app?vid=c4ce9ba5-0d90-4def-be44-66778b5d8a07","ios":"levelo://app?vid=c4ce9ba5-0d90-4def-be44-66778b5d8a07"},"vehicle_type_id":"4","last_reported":1715544411,"current_range_meters":31200,"station_id":"ce4bgm92rcd13ifvqbr0","pricing_plan_id":"cebpf4jnsgd1na2vs0mg"},{"bike_id":"c3463c40-4d99-4505-9224-42ec4c2531cc","system_id":"levelo_inurba_marseille","lat":43.299222,"lon":5.365554,"is_reserved":false,"is_disabled":false,"rental_uris":{"android":"levelo://app?vid=c3463c40-4d99-4505-9224-42ec4c2531cc","ios":"levelo://app?vid=c3463c40-4d99-4505-9224-42ec4c2531cc"},"vehicle_type_id":"4","last_reported":1715544411,"current_range_meters":20800,"station_id":"ce4bgm92rcd13ifvqbr0","pricing_plan_id":"cebpf4jnsgd1na2vs0mg"},{"bike_id":"99931154-abaf-4d13-83e5-1e1e7c6e73fa","system_id":"levelo_inurba_marseille","lat":43.299724,"lon":5.371829,"is_reserved":false,"is_disabled":false,"rental_uris":{"android":"levelo://app?vid=99931154-abaf-4d13-83e5-1e1e7c6e73fa","ios":"levelo://app?vid=99931154-abaf-4d13-83e5-1e1e7c6e73fa"},"vehicle_type_id":"4","last_reported":1715544411,"current_range_meters":22000,"station_id":"ce4bgr92rcd13ifvqc7g","pricing_plan_id":"cebpf4jnsgd1na2vs0mg"},{"bike_id":"b4ef5481-0c20-4d8a-a118-28a06e18352d","system_id":"levelo_inurba_marseille","lat":43.299724,"lon":5.371829,"is_reserved":false,"is_disabled":false,"rental_uris":{"android":"levelo://app?vid=b4ef5481-0c20-4d8a-a118-28a06e18352d","ios":"levelo://app?vid=b4ef5481-0c20-4d8a-a118-28a06e18352d"},"vehicle_type_id":"4","last_reported":1715544411,"current_range_meters":23600,"station_id":"ce4bgr92rcd13ifvqc7g","pricing_plan_id":"cebpf4jnsgd1na2vs0mg"},{"bike_id":"49796e12-97f0-41c5-a2b4-c1b7a292b956","system_id":"levelo_inurba_marseille","lat":43.29969,"lon":5.3718,"is_reserved":false,"is_disabled":false,"rental_uris":{"android":"levelo://app?vid=49796e12-97f0-41c5-a2b4-c1b7a292b956","ios":"levelo://app?vid=49796e12-97f0-41c5-a2b4-c1b7a292b956"},"vehicle_type_id":"4","last_reported":1715544411,"current_range_meters":25200,"station_id":"ce4bgr92rcd13ifvqc7g","pricing_plan_id":"cebpf4jnsgd1na2vs0mg"},{"bike_id":"a7491aa1-ba86-4c34-850e-77a48fcfbaf0","system_id":"levelo_inurba_marseille","lat":43.299724,"lon":5.371829,"is_reserved":false,"is_disabled":false,"rental_uris":{"android":"levelo://app?vid=a7491aa1-ba86-4c34-850e-77a48fcfbaf0","ios":"levelo://app?vid=a7491aa1-ba86-4c34-850e-77a48fcfbaf0"},"vehicle_type_id":"4","last_reported":1715544411,"current_range_meters":22400,"station_id":"ce4bgr92rcd13ifvqc7g","pricing_plan_id":"cebpf4jnsgd1na2vs0mg"},{"bike_id":"6d6de4d9-ff33-4407-bf77-ecaa99c5fb7a","system_id":"levelo_inurba_marseille","lat":43.299209,"lon":5.365547,"is_reserved":false,"is_disabled":false,"rental_uris":{"android":"levelo://app?vid=6d6de4d9-ff33-4407-bf77-ecaa99c5fb7a","ios":"levelo://app?vid=6d6de4d9-ff33-4407-bf77-ecaa99c5fb7a"},"vehicle_type_id":"4","last_reported":1715544411,"current_range_meters":25600,"station_id":"ce4bgm92rcd13ifvqbr0","pricing_plan_id":"cebpf4jnsgd1na2vs0mg"},{"bike_id":"83a2c810-8ba8-42c4-b4df-0a00fc270c76","system_id":"levelo_inurba_marseille","lat":43.29957,"lon":5.37179,"is_reserved":false,"is_disabled":false,"rental_uris":{"android":"levelo://app?vid=83a2c810-8ba8-42c4-b4df-0a00fc270c76","ios":"levelo://app?vid=83a2c810-8ba8-42c4-b4df-0a00fc270c76"},"vehicle_type_id":"4","last_reported":1715544411,"current_range_meters":26000,"station_id":"ce4bgr92rcd13ifvqc7g","pricing_plan_id":"cebpf4jnsgd1na2vs0mg"},{"bike_id":"9a9b6ad6-57d0-402b-8888-0ebc24e803a8","system_id":"levelo_inurba_marseille","lat":43.305364,"lon":5.384119,"is_reserved":false,"is_disabled":false,"rental_uris":{"android":"levelo://app?vid=9a9b6ad6-57d0-402b-8888-0ebc24e803a8","ios":"levelo://app?vid=9a9b6ad6-57d0-402b-8888-0ebc24e803a8"},"vehicle_type_id":"4","last_reported":1715544411,"current_range_meters":4800,"station_id":"ce4bgg92rcd13ifvqb30","pricing_plan_id":"cebpf4jnsgd1na2vs0mg"},{"bike_id":"860469e0-666f-4082-bf03-0a6e819dc473","system_id":"levelo_inurba_marseille","lat":43.298433,"lon":5.362774,"is_reserved":false,"is_disabled":false,"rental_uris":{"android":"levelo://app?vid=860469e0-666f-4082-bf03-0a6e819dc473","ios":"levelo://app?vid=860469e0-666f-4082-bf03-0a6e819dc473"},"vehicle_type_id":"4","last_reported":1715544411,"current_range_meters":0,"station_id":"ce4bgpp2rcd13ifvqc3g","pricing_plan_id":"cebpf4jnsgd1na2vs0mg"},{"bike_id":"c9c10aab-c195-40b8-a2a5-6556b39f281b","system_id":"levelo_inurba_marseille","lat":43.298433,"lon":5.362774,"is_reserved":false,"is_disabled":false,"rental_uris":{"android":"levelo://app?vid=c9c10aab-c195-40b8-a2a5-6556b39f281b","ios":"levelo://app?vid=c9c10aab-c195-40b8-a2a5-6556b39f281b"},"vehicle_type_id":"4","last_reported":1715544411,"current_range_meters":4400,"station_id":"ce4bgpp2rcd13ifvqc3g","pricing_plan_id":"cebpf4jnsgd1na2vs0mg"},{"bike_id":"26c4e3bf-690a-45ee-9f62-b5ce66bb81b1","system_id":"levelo_inurba_marseille","lat":43.298433,"lon":5.362774,"is_reserved":false,"is_disabled":false,"rental_uris":{"android":"levelo://app?vid=26c4e3bf-690a-45ee-9f62-b5ce66bb81b1","ios":"levelo://app?vid=26c4e3bf-690a-45ee-9f62-b5ce66bb81b1"},"vehicle_type_id":"4","last_reported":1715544411,"current_range_meters":16000,"station_id":"ce4bgpp2rcd13ifvqc3g","pricing_plan_id":"cebpf4jnsgd1na2vs0mg"},{"bike_id":"b3181f21-d786-4b7f-8ec4-ecefe2bb86c0","system_id":"levelo_inurba_marseille","lat":43.305364,"lon":5.384119,"is_reserved":false,"is_disabled":false,"rental_uris":{"android":"levelo://app?vid=b3181f21-d786-4b7f-8ec4-ecefe2bb86c0","ios":"levelo://app?vid=b3181f21-d786-4b7f-8ec4-ecefe2bb86c0"},"vehicle_type_id":"4","last_reported":1715544411,"current_range_meters":20000,"station_id":"ce4bgg92rcd13ifvqb30","pricing_plan_id":"cebpf4jnsgd1na2vs0mg"},{"bike_id":"be795811-94bf-49c8-ba32-c791734da9f2","system_id":"levelo_inurba_marseille","lat":43.31178,"lon":5.38713,"is_reserved":false,"is_disabled":false,"rental_uris":{"android":"levelo://app?vid=be795811-94bf-49c8-ba32-c791734da9f2","ios":"levelo://app?vid=be795811-94bf-49c8-ba32-c791734da9f2"},"vehicle_type_id":"4","last_reported":1715544411,"current_range_meters":0,"station_id":"ce4bgv12rcd13ifvqcp0","pricing_plan_id":"cebpf4jnsgd1na2vs0mg"},{"bike_id":"11589c3c-99b7-49aa-be2b-63d488cd380b","system_id":"levelo_inurba_marseille","lat":43.3118,"lon":5.38714,"is_reserved":false,"is_disabled":false,"rental_uris":{"android":"levelo://app?vid=11589c3c-99b7-49aa-be2b-63d488cd380b","ios":"levelo://app?vid=11589c3c-99b7-49aa-be2b-63d488cd380b"},"vehicle_type_id":"4","last_reported":1715544411,"current_range_meters":0,"station_id":"ce4bgv12rcd13ifvqcp0","pricing_plan_id":"cebpf4jnsgd1na2vs0mg"},{"bike_id":"369e8993-b00e-40d9-b74f-7f4273eae57c","system_id":"levelo_inurba_marseille","lat":43.31168,"lon":5.38715,"is_reserved":false,"is_disabled":false,"rental_uris":{"android":"levelo://app?vid=369e8993-b00e-40d9-b74f-7f4273eae57c","ios":"levelo://app?vid=369e8993-b00e-40d9-b74f-7f4273eae57c"},"vehicle_type_id":"4","last_reported":1715544411,"current_range_meters":18800,"station_id":"ce4bgv12rcd13ifvqcp0","pricing_plan_id":"cebpf4jnsgd1na2vs0mg"},{"bike_id":"20098e46-a186-42e9-b8fd-b34e3e438ea3","system_id":"levelo_inurba_marseille","lat":43.311722,"lon":5.387247,"is_reserved":false,"is_disabled":false,"rental_uris":{"android":"levelo://app?vid=20098e46-a186-42e9-b8fd-b34e3e438ea3","ios":"levelo://app?vid=20098e46-a186-42e9-b8fd-b34e3e438ea3"},"vehicle_type_id":"4","last_reported":1715544411,"current_range_meters":12400,"station_id":"ce4bgv12rcd13ifvqcp0","pricing_plan_id":"cebpf4jnsgd1na2vs0mg"},{"bike_id":"7070e582-e1a7-4d4d-a48b-77174caa0ccb","system_id":"levelo_inurba_marseille","lat":43.32787,"lon":5.36578,"is_reserved":false,"is_disabled":false,"rental_uris":{"android":"levelo://app?vid=7070e582-e1a7-4d4d-a48b-77174caa0ccb","ios":"levelo://app?vid=7070e582-e1a7-4d4d-a48b-77174caa0ccb"},"vehicle_type_id":"4","last_reported":1715544411,"current_range_meters":3600,"station_id":"","pricing_plan_id":"cebpf4jnsgd1na2vs0mg"},{"bike_id":"e56c306d-138f-496a-acde-841eb89640ef","system_id":"levelo_inurba_marseille","lat":43.297774,"lon":5.370875,"is_reserved":false,"is_disabled":false,"rental_uris":{"android":"levelo://app?vid=e56c306d-138f-496a-acde-841eb89640ef","ios":"levelo://app?vid=e56c306d-138f-496a-acde-841eb89640ef"},"vehicle_type_id":"4","last_reported":1715544411,"current_range_meters":4400,"station_id":"ce4bgop2rcd13ifvqc1g","pricing_plan_id":"cebpf4jnsgd1na2vs0mg"},{"bike_id":"1cede37f-2f2b-40a1-966e-f14d33b89311","system_id":"levelo_inurba_marseille","lat":43.297774,"lon":5.370875,"is_reserved":false,"is_disabled":false,"rental_uris":{"android":"levelo://app?vid=1cede37f-2f2b-40a1-966e-f14d33b89311","ios":"levelo://app?vid=1cede37f-2f2b-40a1-966e-f14d33b89311"},"vehicle_type_id":"4","last_reported":1715544411,"current_range_meters":10800,"station_id":"ce4bgop2rcd13ifvqc1g","pricing_plan_id":"cebpf4jnsgd1na2vs0mg"},{"bike_id":"e6518aec-4447-4831-9a33-797b739846c3","system_id":"levelo_inurba_marseille","lat":43.322872,"lon":5.382756,"is_reserved":false,"is_disabled":false,"rental_uris":{"android":"levelo://app?vid=e6518aec-4447-4831-9a33-797b739846c3","ios":"levelo://app?vid=e6518aec-4447-4831-9a33-797b739846c3"},"vehicle_type_id":"4","last_reported":1715544411,"current_range_meters":16800,"station_id":"ce4bhr12rcd13ifvqhqg","pricing_plan_id":"cebpf4jnsgd1na2vs0mg"},{"bike_id":"25b2c10a-1f15-475c-a410-a8b2c8d46b05","system_id":"levelo_inurba_marseille","lat":43.297794,"lon":5.370888,"is_reserved":false,"is_disabled":false,"rental_uris":{"android":"levelo://app?vid=25b2c10a-1f15-475c-a410-a8b2c8d46b05","ios":"levelo://app?vid=25b2c10a-1f15-475c-a410-a8b2c8d46b05"},"vehicle_type_id":"4","last_reported":1715544411,"current_range_meters":20400,"station_id":"ce4bgop2rcd13ifvqc1g","pricing_plan_id":"cebpf4jnsgd1na2vs0mg"},{"bike_id":"38b1639f-0b7b-4041-8f45-51cfa44eaefb","system_id":"levelo_inurba_marseille","lat":43.297163,"lon":5.365866,"is_reserved":false,"is_disabled":false,"rental_uris":{"android":"levelo://app?vid=38b1639f-0b7b-4041-8f45-51cfa44eaefb","ios":"levelo://app?vid=38b1639f-0b7b-4041-8f45-51cfa44eaefb"},"vehicle_type_id":"4","last_reported":1715544411,"current_range_meters":0,"station_id":"ce4bgn12rcd13ifvqbt0","pricing_plan_id":"cebpf4jnsgd1na2vs0mg"},{"bike_id":"b04bec95-6c6a-4600-976f-f23ecfbbab48","system_id":"levelo_inurba_marseille","lat":43.32798,"lon":5.36086,"is_reserved":false,"is_disabled":false,"rental_uris":{"android":"levelo://app?vid=b04bec95-6c6a-4600-976f-f23ecfbbab48","ios":"levelo://app?vid=b04bec95-6c6a-4600-976f-f23ecfbbab48"},"vehicle_type_id":"4","last_reported":1715544411,"current_range_meters":0,"station_id":"","pricing_plan_id":"cebpf4jnsgd1na2vs0mg"},{"bike_id":"54c6d9c6-4ac8-4e9a-81b1-17afd8c0f212","system_id":"levelo_inurba_marseille","lat":43.296131,"lon":5.370791,"is_reserved":false,"is_disabled":false,"rental_uris":{"android":"levelo://app?vid=54c6d9c6-4ac8-4e9a-81b1-17afd8c0f212","ios":"levelo://app?vid=54c6d9c6-4ac8-4e9a-81b1-17afd8c0f212"},"vehicle_type_id":"4","last_reported":1715544411,"current_range_meters":3200,"station_id":"ce4bgnh2rcd13ifvqc0g","pricing_plan_id":"cebpf4jnsgd1na2vs0mg"},{"bike_id":"c4f272bc-1af9-4a90-b68d-f37ff42605b6","system_id":"levelo_inurba_marseille","lat":43.296131,"lon":5.370773,"is_reserved":false,"is_disabled":false,"rental_uris":{"android":"levelo://app?vid=c4f272bc-1af9-4a90-b68d-f37ff42605b6","ios":"levelo://app?vid=c4f272bc-1af9-4a90-b68d-f37ff42605b6"},"vehicle_type_id":"4","last_reported":1715544411,"current_range_meters":20400,"station_id":"ce4bgnh2rcd13ifvqc0g","pricing_plan_id":"cebpf4jnsgd1na2vs0mg"},{"bike_id":"249aa143-d74b-479e-a727-16d8930a9d51","system_id":"levelo_inurba_marseille","lat":43.296129,"lon":5.370777,"is_reserved":false,"is_disabled":false,"rental_uris":{"android":"levelo://app?vid=249aa143-d74b-479e-a727-16d8930a9d51","ios":"levelo://app?vid=249aa143-d74b-479e-a727-16d8930a9d51"},"vehicle_type_id":"4","last_reported":1715544411,"current_range_meters":30000,"station_id":"ce4bgnh2rcd13ifvqc0g","pricing_plan_id":"cebpf4jnsgd1na2vs0mg"},{"bike_id":"708a3a31-5c6d-409d-9e03-5053931e30ce","system_id":"levelo_inurba_marseille","lat":43.296131,"lon":5.370791,"is_reserved":false,"is_disabled":false,"rental_uris":{"android":"levelo://app?vid=708a3a31-5c6d-409d-9e03-5053931e30ce","ios":"levelo://app?vid=708a3a31-5c6d-409d-9e03-5053931e30ce"},"vehicle_type_id":"4","last_reported":1715544411,"current_range_meters":12000,"station_id":"ce4bgnh2rcd13ifvqc0g","pricing_plan_id":"cebpf4jnsgd1na2vs0mg"},{"bike_id":"bb8f7e95-afce-4a76-ac3d-9d96aede76a3","system_id":"levelo_inurba_marseille","lat":43.29579,"lon":5.3674,"is_reserved":false,"is_disabled":false,"rental_uris":{"android":"levelo://app?vid=bb8f7e95-afce-4a76-ac3d-9d96aede76a3","ios":"levelo://app?vid=bb8f7e95-afce-4a76-ac3d-9d96aede76a3"},"vehicle_type_id":"4","last_reported":1715544411,"current_range_meters":7200,"station_id":"ce4bgph2rcd13ifvqc2g","pricing_plan_id":"cebpf4jnsgd1na2vs0mg"},{"bike_id":"03559cc2-0e7d-4e18-80ef-75a3877cda9a","system_id":"levelo_inurba_marseille","lat":43.29577,"lon":5.36744,"is_reserved":false,"is_disabled":false,"rental_uris":{"android":"levelo://app?vid=03559cc2-0e7d-4e18-80ef-75a3877cda9a","ios":"levelo://app?vid=03559cc2-0e7d-4e18-80ef-75a3877cda9a"},"vehicle_type_id":"4","last_reported":1715544411,"current_range_meters":21600,"station_id":"ce4bgph2rcd13ifvqc2g","pricing_plan_id":"cebpf4jnsgd1na2vs0mg"},{"bike_id":"1ef83942-a1cc-44bc-9793-19918d9362e1","system_id":"levelo_inurba_marseille","lat":43.29577,"lon":5.36746,"is_reserved":false,"is_disabled":false,"rental_uris":{"android":"levelo://app?vid=1ef83942-a1cc-44bc-9793-19918d9362e1","ios":"levelo://app?vid=1ef83942-a1cc-44bc-9793-19918d9362e1"},"vehicle_type_id":"4","last_reported":1715544411,"current_range_meters":4000,"station_id":"ce4bgph2rcd13ifvqc2g","pricing_plan_id":"cebpf4jnsgd1na2vs0mg"},{"bike_id":"889cb231-fb20-46be-8ea4-b9d318ce0b8f","system_id":"levelo_inurba_marseille","lat":43.299028,"lon":5.381509,"is_reserved":false,"is_disabled":false,"rental_uris":{"android":"levelo://app?vid=889cb231-fb20-46be-8ea4-b9d318ce0b8f","ios":"levelo://app?vid=889cb231-fb20-46be-8ea4-b9d318ce0b8f"},"vehicle_type_id":"4","last_reported":1715544411,"current_range_meters":15200,"station_id":"ce4bgj12rcd13ifvqbc0","pricing_plan_id":"cebpf4jnsgd1na2vs0mg"},{"bike_id":"588f760f-d458-4159-8879-638c521fd7aa","system_id":"levelo_inurba_marseille","lat":43.299028,"lon":5.381509,"is_reserved":false,"is_disabled":false,"rental_uris":{"android":"levelo://app?vid=588f760f-d458-4159-8879-638c521fd7aa","ios":"levelo://app?vid=588f760f-d458-4159-8879-638c521fd7aa"},"vehicle_type_id":"4","last_reported":1715544411,"current_range_meters":28800,"station_id":"ce4bgj12rcd13ifvqbc0","pricing_plan_id":"cebpf4jnsgd1na2vs0mg"},{"bike_id":"d08039be-8fd1-4512-b562-1df9b8a1f572","system_id":"levelo_inurba_marseille","lat":43.309589,"lon":5.390258,"is_reserved":false,"is_disabled":false,"rental_uris":{"android":"levelo://app?vid=d08039be-8fd1-4512-b562-1df9b8a1f572","ios":"levelo://app?vid=d08039be-8fd1-4512-b562-1df9b8a1f572"},"vehicle_type_id":"4","last_reported":1715544411,"current_range_meters":7600,"station_id":"ce4bgup2rcd13ifvqco0","pricing_plan_id":"cebpf4jnsgd1na2vs0mg"},{"bike_id":"351c40e3-787f-499b-a012-2b1390afad35","system_id":"levelo_inurba_marseille","lat":43.309589,"lon":5.390258,"is_reserved":false,"is_disabled":false,"rental_uris":{"android":"levelo://app?vid=351c40e3-787f-499b-a012-2b1390afad35","ios":"levelo://app?vid=351c40e3-787f-499b-a012-2b1390afad35"},"vehicle_type_id":"4","last_reported":1715544411,"current_range_meters":3600,"station_id":"ce4bgup2rcd13ifvqco0","pricing_plan_id":"cebpf4jnsgd1na2vs0mg"},{"bike_id":"d0fabeab-50be-4cad-9f88-fe3d4f884d63","system_id":"levelo_inurba_marseille","lat":43.296935,"lon":5.376544,"is_reserved":false,"is_disabled":false,"rental_uris":{"android":"levelo://app?vid=d0fabeab-50be-4cad-9f88-fe3d4f884d63","ios":"levelo://app?vid=d0fabeab-50be-4cad-9f88-fe3d4f884d63"},"vehicle_type_id":"4","last_reported":1715544411,"current_range_meters":16400,"station_id":"ce4bgkh2rcd13ifvqbl0","pricing_plan_id":"cebpf4jnsgd1na2vs0mg"},{"bike_id":"204e4239-90cc-43d1-9021-766374ec9744","system_id":"levelo_inurba_marseille","lat":43.296935,"lon":5.376544,"is_reserved":false,"is_disabled":false,"rental_uris":{"android":"levelo://app?vid=204e4239-90cc-43d1-9021-766374ec9744","ios":"levelo://app?vid=204e4239-90cc-43d1-9021-766374ec9744"},"vehicle_type_id":"4","last_reported":1715544411,"current_range_meters":22000,"station_id":"ce4bgkh2rcd13ifvqbl0","pricing_plan_id":"cebpf4jnsgd1na2vs0mg"},{"bike_id":"cc309202-af59-4f69-9fd3-2a277a3567d4","system_id":"levelo_inurba_marseille","lat":43.29697,"lon":5.37694,"is_reserved":false,"is_disabled":false,"rental_uris":{"android":"levelo://app?vid=cc309202-af59-4f69-9fd3-2a277a3567d4","ios":"levelo://app?vid=cc309202-af59-4f69-9fd3-2a277a3567d4"},"vehicle_type_id":"4","last_reported":1715544411,"current_range_meters":0,"station_id":"ce4bgkh2rcd13ifvqbl0","pricing_plan_id":"cebpf4jnsgd1na2vs0mg"},{"bike_id":"dd619d8f-c082-4169-bcbf-e35600b67f53","system_id":"levelo_inurba_marseille","lat":43.296935,"lon":5.376544,"is_reserved":false,"is_disabled":false,"rental_uris":{"android":"levelo://app?vid=dd619d8f-c082-4169-bcbf-e35600b67f53","ios":"levelo://app?vid=dd619d8f-c082-4169-bcbf-e35600b67f53"},"vehicle_type_id":"4","last_reported":1715544411,"current_range_meters":5200,"station_id":"ce4bgkh2rcd13ifvqbl0","pricing_plan_id":"cebpf4jnsgd1na2vs0mg"},{"bike_id":"cbe5f818-73fd-41ad-b7e0-f8f18f7a3eca","system_id":"levelo_inurba_marseille","lat":43.317557,"lon":5.390173,"is_reserved":false,"is_disabled":false,"rental_uris":{"android":"levelo://app?vid=cbe5f818-73fd-41ad-b7e0-f8f18f7a3eca","ios":"levelo://app?vid=cbe5f818-73fd-41ad-b7e0-f8f18f7a3eca"},"vehicle_type_id":"4","last_reported":1715544411,"current_range_meters":15600,"station_id":"ce4bhqp2rcd13ifvqhng","pricing_plan_id":"cebpf4jnsgd1na2vs0mg"},{"bike_id":"f4370606-a28c-45d0-a8c9-82b39a4368a6","system_id":"levelo_inurba_marseille","lat":43.317557,"lon":5.390173,"is_reserved":false,"is_disabled":false,"rental_uris":{"android":"levelo://app?vid=f4370606-a28c-45d0-a8c9-82b39a4368a6","ios":"levelo://app?vid=f4370606-a28c-45d0-a8c9-82b39a4368a6"},"vehicle_type_id":"4","last_reported":1715544411,"current_range_meters":5200,"station_id":"ce4bhqp2rcd13ifvqhng","pricing_plan_id":"cebpf4jnsgd1na2vs0mg"},{"bike_id":"8c5d0ed8-42ed-40cb-a936-579009a59b9e","system_id":"levelo_inurba_marseille","lat":43.317557,"lon":5.390173,"is_reserved":false,"is_disabled":false,"rental_uris":{"android":"levelo://app?vid=8c5d0ed8-42ed-40cb-a936-579009a59b9e","ios":"levelo://app?vid=8c5d0ed8-42ed-40cb-a936-579009a59b9e"},"vehicle_type_id":"4","last_reported":1715544411,"current_range_meters":8000,"station_id":"ce4bhqp2rcd13ifvqhng","pricing_plan_id":"cebpf4jnsgd1na2vs0mg"},{"bike_id":"8aa41c21-d1fa-4eb8-a69d-94ab068f2ea2","system_id":"levelo_inurba_marseille","lat":43.317557,"lon":5.390173,"is_reserved":false,"is_disabled":false,"rental_uris":{"android":"levelo://app?vid=8aa41c21-d1fa-4eb8-a69d-94ab068f2ea2","ios":"levelo://app?vid=8aa41c21-d1fa-4eb8-a69d-94ab068f2ea2"},"vehicle_type_id":"4","last_reported":1715544411,"current_range_meters":0,"station_id":"ce4bhqp2rcd13ifvqhng","pricing_plan_id":"cebpf4jnsgd1na2vs0mg"},{"bike_id":"c2582d1d-abf6-4b68-a9fa-3f9646f3fdc7","system_id":"levelo_inurba_marseille","lat":43.298037,"lon":5.381066,"is_reserved":false,"is_disabled":false,"rental_uris":{"android":"levelo://app?vid=c2582d1d-abf6-4b68-a9fa-3f9646f3fdc7","ios":"levelo://app?vid=c2582d1d-abf6-4b68-a9fa-3f9646f3fdc7"},"vehicle_type_id":"4","last_reported":1715544411,"current_range_meters":19600,"station_id":"ce4bgip2rcd13ifvqbb0","pricing_plan_id":"cebpf4jnsgd1na2vs0mg"},{"bike_id":"32698e96-9410-4c4b-a09c-4b53201653b1","system_id":"levelo_inurba_marseille","lat":43.298037,"lon":5.381066,"is_reserved":false,"is_disabled":false,"rental_uris":{"android":"levelo://app?vid=32698e96-9410-4c4b-a09c-4b53201653b1","ios":"levelo://app?vid=32698e96-9410-4c4b-a09c-4b53201653b1"},"vehicle_type_id":"4","last_reported":1715544411,"current_range_meters":20000,"station_id":"ce4bgip2rcd13ifvqbb0","pricing_plan_id":"cebpf4jnsgd1na2vs0mg"},{"bike_id":"173b6d06-317c-430b-9133-0451a0c84974","system_id":"levelo_inurba_marseille","lat":43.298037,"lon":5.381066,"is_reserved":false,"is_disabled":false,"rental_uris":{"android":"levelo://app?vid=173b6d06-317c-430b-9133-0451a0c84974","ios":"levelo://app?vid=173b6d06-317c-430b-9133-0451a0c84974"},"vehicle_type_id":"4","last_reported":1715544411,"current_range_meters":22400,"station_id":"ce4bgip2rcd13ifvqbb0","pricing_plan_id":"cebpf4jnsgd1na2vs0mg"},{"bike_id":"c1771e5a-2b99-4f7b-a00b-8f0ee2761292","system_id":"levelo_inurba_marseille","lat":43.298037,"lon":5.381066,"is_reserved":false,"is_disabled":false,"rental_uris":{"android":"levelo://app?vid=c1771e5a-2b99-4f7b-a00b-8f0ee2761292","ios":"levelo://app?vid=c1771e5a-2b99-4f7b-a00b-8f0ee2761292"},"vehicle_type_id":"4","last_reported":1715544411,"current_range_meters":31200,"station_id":"ce4bgip2rcd13ifvqbb0","pricing_plan_id":"cebpf4jnsgd1na2vs0mg"},{"bike_id":"1434d384-4b7c-40f4-8946-ba14ad5a438c","system_id":"levelo_inurba_marseille","lat":43.298037,"lon":5.381066,"is_reserved":false,"is_disabled":false,"rental_uris":{"android":"levelo://app?vid=1434d384-4b7c-40f4-8946-ba14ad5a438c","ios":"levelo://app?vid=1434d384-4b7c-40f4-8946-ba14ad5a438c"},"vehicle_type_id":"4","last_reported":1715544411,"current_range_meters":18000,"station_id":"ce4bgip2rcd13ifvqbb0","pricing_plan_id":"cebpf4jnsgd1na2vs0mg"},{"bike_id":"4f4a67bd-1cba-46d3-a413-e2a848b3c5d0","system_id":"levelo_inurba_marseille","lat":43.295748,"lon":5.37522,"is_reserved":false,"is_disabled":false,"rental_uris":{"android":"levelo://app?vid=4f4a67bd-1cba-46d3-a413-e2a848b3c5d0","ios":"levelo://app?vid=4f4a67bd-1cba-46d3-a413-e2a848b3c5d0"},"vehicle_type_id":"4","last_reported":1715544411,"current_range_meters":5200,"station_id":"ce4bgh92rcd13ifvqb50","pricing_plan_id":"cebpf4jnsgd1na2vs0mg"},{"bike_id":"5c7c9e51-01f2-42a0-8a30-cbb238b17135","system_id":"levelo_inurba_marseille","lat":43.295748,"lon":5.37522,"is_reserved":false,"is_disabled":false,"rental_uris":{"android":"levelo://app?vid=5c7c9e51-01f2-42a0-8a30-cbb238b17135","ios":"levelo://app?vid=5c7c9e51-01f2-42a0-8a30-cbb238b17135"},"vehicle_type_id":"4","last_reported":1715544411,"current_range_meters":25200,"station_id":"ce4bgh92rcd13ifvqb50","pricing_plan_id":"cebpf4jnsgd1na2vs0mg"},{"bike_id":"c38421a1-4135-47fe-bc57-7439875c57eb","system_id":"levelo_inurba_marseille","lat":43.298037,"lon":5.381066,"is_reserved":false,"is_disabled":false,"rental_uris":{"android":"levelo://app?vid=c38421a1-4135-47fe-bc57-7439875c57eb","ios":"levelo://app?vid=c38421a1-4135-47fe-bc57-7439875c57eb"},"vehicle_type_id":"4","last_reported":1715544411,"current_range_meters":0,"station_id":"ce4bgip2rcd13ifvqbb0","pricing_plan_id":"cebpf4jnsgd1na2vs0mg"},{"bike_id":"318628df-dfb6-41ec-8e7e-91a62f836ced","system_id":"levelo_inurba_marseille","lat":43.295748,"lon":5.37522,"is_reserved":false,"is_disabled":false,"rental_uris":{"android":"levelo://app?vid=318628df-dfb6-41ec-8e7e-91a62f836ced","ios":"levelo://app?vid=318628df-dfb6-41ec-8e7e-91a62f836ced"},"vehicle_type_id":"4","last_reported":1715544411,"current_range_meters":0,"station_id":"ce4bgh92rcd13ifvqb50","pricing_plan_id":"cebpf4jnsgd1na2vs0mg"},{"bike_id":"67fe1cd0-85f6-42c7-85ea-38d89a7a4eb9","system_id":"levelo_inurba_marseille","lat":43.304274,"lon":5.388873,"is_reserved":false,"is_disabled":false,"rental_uris":{"android":"levelo://app?vid=67fe1cd0-85f6-42c7-85ea-38d89a7a4eb9","ios":"levelo://app?vid=67fe1cd0-85f6-42c7-85ea-38d89a7a4eb9"},"vehicle_type_id":"4","last_reported":1715544411,"current_range_meters":400,"station_id":"ce4bgk12rcd13ifvqbi0","pricing_plan_id":"cebpf4jnsgd1na2vs0mg"},{"bike_id":"6589c4ad-b352-4370-8a09-14aed06739bb","system_id":"levelo_inurba_marseille","lat":43.304278,"lon":5.388868,"is_reserved":false,"is_disabled":false,"rental_uris":{"android":"levelo://app?vid=6589c4ad-b352-4370-8a09-14aed06739bb","ios":"levelo://app?vid=6589c4ad-b352-4370-8a09-14aed06739bb"},"vehicle_type_id":"4","last_reported":1715544411,"current_range_meters":0,"station_id":"ce4bgk12rcd13ifvqbi0","pricing_plan_id":"cebpf4jnsgd1na2vs0mg"},{"bike_id":"f3ed059e-18b8-4bfd-9081-ef86c3a418cf","system_id":"levelo_inurba_marseille","lat":43.29614,"lon":5.37715,"is_reserved":false,"is_disabled":false,"rental_uris":{"android":"levelo://app?vid=f3ed059e-18b8-4bfd-9081-ef86c3a418cf","ios":"levelo://app?vid=f3ed059e-18b8-4bfd-9081-ef86c3a418cf"},"vehicle_type_id":"4","last_reported":1715544411,"current_range_meters":17600,"station_id":"ce4bgi92rcd13ifvqb90","pricing_plan_id":"cebpf4jnsgd1na2vs0mg"},{"bike_id":"388a7c49-30da-4316-b396-22c7104dcc91","system_id":"levelo_inurba_marseille","lat":43.299707,"lon":5.384859,"is_reserved":false,"is_disabled":false,"rental_uris":{"android":"levelo://app?vid=388a7c49-30da-4316-b396-22c7104dcc91","ios":"levelo://app?vid=388a7c49-30da-4316-b396-22c7104dcc91"},"vehicle_type_id":"4","last_reported":1715544411,"current_range_meters":16000,"station_id":"ce4bgj92rcd13ifvqbd0","pricing_plan_id":"cebpf4jnsgd1na2vs0mg"},{"bike_id":"5a9f529d-bd57-4b49-9e53-fe95fa45fe0b","system_id":"levelo_inurba_marseille","lat":43.299707,"lon":5.384859,"is_reserved":false,"is_disabled":false,"rental_uris":{"android":"levelo://app?vid=5a9f529d-bd57-4b49-9e53-fe95fa45fe0b","ios":"levelo://app?vid=5a9f529d-bd57-4b49-9e53-fe95fa45fe0b"},"vehicle_type_id":"4","last_reported":1715544411,"current_range_meters":0,"station_id":"ce4bgj92rcd13ifvqbd0","pricing_plan_id":"cebpf4jnsgd1na2vs0mg"},{"bike_id":"430a87ca-d005-4f9c-b6e7-198f2de08dfd","system_id":"levelo_inurba_marseille","lat":43.299707,"lon":5.384859,"is_reserved":false,"is_disabled":false,"rental_uris":{"android":"levelo://app?vid=430a87ca-d005-4f9c-b6e7-198f2de08dfd","ios":"levelo://app?vid=430a87ca-d005-4f9c-b6e7-198f2de08dfd"},"vehicle_type_id":"4","last_reported":1715544411,"current_range_meters":0,"station_id":"ce4bgj92rcd13ifvqbd0","pricing_plan_id":"cebpf4jnsgd1na2vs0mg"},{"bike_id":"6fe06eeb-25f6-4f5e-a9f8-b8c302b08255","system_id":"levelo_inurba_marseille","lat":43.29972,"lon":5.38489,"is_reserved":false,"is_disabled":false,"rental_uris":{"android":"levelo://app?vid=6fe06eeb-25f6-4f5e-a9f8-b8c302b08255","ios":"levelo://app?vid=6fe06eeb-25f6-4f5e-a9f8-b8c302b08255"},"vehicle_type_id":"4","last_reported":1715544411,"current_range_meters":16800,"station_id":"ce4bgj92rcd13ifvqbd0","pricing_plan_id":"cebpf4jnsgd1na2vs0mg"},{"bike_id":"63cef53c-8965-47d9-8e28-6bf963303d5a","system_id":"levelo_inurba_marseille","lat":43.29973,"lon":5.38494,"is_reserved":false,"is_disabled":false,"rental_uris":{"android":"levelo://app?vid=63cef53c-8965-47d9-8e28-6bf963303d5a","ios":"levelo://app?vid=63cef53c-8965-47d9-8e28-6bf963303d5a"},"vehicle_type_id":"4","last_reported":1715544411,"current_range_meters":0,"station_id":"ce4bgj92rcd13ifvqbd0","pricing_plan_id":"cebpf4jnsgd1na2vs0mg"},{"bike_id":"54aeaa4c-5aed-491b-8219-1a56168fda65","system_id":"levelo_inurba_marseille","lat":43.299724,"lon":5.384848,"is_reserved":false,"is_disabled":false,"rental_uris":{"android":"levelo://app?vid=54aeaa4c-5aed-491b-8219-1a56168fda65","ios":"levelo://app?vid=54aeaa4c-5aed-491b-8219-1a56168fda65"},"vehicle_type_id":"4","last_reported":1715544411,"current_range_meters":0,"station_id":"ce4bgj92rcd13ifvqbd0","pricing_plan_id":"cebpf4jnsgd1na2vs0mg"},{"bike_id":"c9ee70a0-36c6-49d3-b15b-408e6c137769","system_id":"levelo_inurba_marseille","lat":43.29967,"lon":5.3849,"is_reserved":false,"is_disabled":false,"rental_uris":{"android":"levelo://app?vid=c9ee70a0-36c6-49d3-b15b-408e6c137769","ios":"levelo://app?vid=c9ee70a0-36c6-49d3-b15b-408e6c137769"},"vehicle_type_id":"4","last_reported":1715544411,"current_range_meters":24400,"station_id":"ce4bgj92rcd13ifvqbd0","pricing_plan_id":"cebpf4jnsgd1na2vs0mg"},{"bike_id":"12c05337-06de-4068-bc8a-b39149c52be0","system_id":"levelo_inurba_marseille","lat":43.2997,"lon":5.38499,"is_reserved":false,"is_disabled":false,"rental_uris":{"android":"levelo://app?vid=12c05337-06de-4068-bc8a-b39149c52be0","ios":"levelo://app?vid=12c05337-06de-4068-bc8a-b39149c52be0"},"vehicle_type_id":"4","last_reported":1715544411,"current_range_meters":0,"station_id":"ce4bgj92rcd13ifvqbd0","pricing_plan_id":"cebpf4jnsgd1na2vs0mg"},{"bike_id":"7eddbbc3-4245-4ddb-a595-5e2f5e0009b0","system_id":"levelo_inurba_marseille","lat":43.29963,"lon":5.38499,"is_reserved":false,"is_disabled":false,"rental_uris":{"android":"levelo://app?vid=7eddbbc3-4245-4ddb-a595-5e2f5e0009b0","ios":"levelo://app?vid=7eddbbc3-4245-4ddb-a595-5e2f5e0009b0"},"vehicle_type_id":"4","last_reported":1715544411,"current_range_meters":2400,"station_id":"ce4bgj92rcd13ifvqbd0","pricing_plan_id":"cebpf4jnsgd1na2vs0mg"},{"bike_id":"cfcfe417-fbd7-4a61-bb14-b301e1b66302","system_id":"levelo_inurba_marseille","lat":43.32364,"lon":5.38881,"is_reserved":false,"is_disabled":false,"rental_uris":{"android":"levelo://app?vid=cfcfe417-fbd7-4a61-bb14-b301e1b66302","ios":"levelo://app?vid=cfcfe417-fbd7-4a61-bb14-b301e1b66302"},"vehicle_type_id":"4","last_reported":1715544411,"current_range_meters":0,"station_id":"ce4bhqp2rcd13ifvqhog","pricing_plan_id":"cebpf4jnsgd1na2vs0mg"},{"bike_id":"fe062707-5805-428a-8745-3ae02dc90e84","system_id":"levelo_inurba_marseille","lat":43.32363,"lon":5.38885,"is_reserved":false,"is_disabled":false,"rental_uris":{"android":"levelo://app?vid=fe062707-5805-428a-8745-3ae02dc90e84","ios":"levelo://app?vid=fe062707-5805-428a-8745-3ae02dc90e84"},"vehicle_type_id":"4","last_reported":1715544411,"current_range_meters":8000,"station_id":"ce4bhqp2rcd13ifvqhog","pricing_plan_id":"cebpf4jnsgd1na2vs0mg"},{"bike_id":"cdabc6dc-0880-452d-b3a5-eac97aaaf2a7","system_id":"levelo_inurba_marseille","lat":43.32367,"lon":5.388836,"is_reserved":false,"is_disabled":false,"rental_uris":{"android":"levelo://app?vid=cdabc6dc-0880-452d-b3a5-eac97aaaf2a7","ios":"levelo://app?vid=cdabc6dc-0880-452d-b3a5-eac97aaaf2a7"},"vehicle_type_id":"4","last_reported":1715544411,"current_range_meters":8400,"station_id":"ce4bhqp2rcd13ifvqhog","pricing_plan_id":"cebpf4jnsgd1na2vs0mg"},{"bike_id":"43da8d25-b8d4-4a12-bf2a-7656b706b8e9","system_id":"levelo_inurba_marseille","lat":43.32367,"lon":5.388836,"is_reserved":false,"is_disabled":false,"rental_uris":{"android":"levelo://app?vid=43da8d25-b8d4-4a12-bf2a-7656b706b8e9","ios":"levelo://app?vid=43da8d25-b8d4-4a12-bf2a-7656b706b8e9"},"vehicle_type_id":"4","last_reported":1715544411,"current_range_meters":5200,"station_id":"ce4bhqp2rcd13ifvqhog","pricing_plan_id":"cebpf4jnsgd1na2vs0mg"},{"bike_id":"43c3fe2d-ba9a-4426-92bf-017e88ac91f3","system_id":"levelo_inurba_marseille","lat":43.29602,"lon":5.381084,"is_reserved":false,"is_disabled":false,"rental_uris":{"android":"levelo://app?vid=43c3fe2d-ba9a-4426-92bf-017e88ac91f3","ios":"levelo://app?vid=43c3fe2d-ba9a-4426-92bf-017e88ac91f3"},"vehicle_type_id":"4","last_reported":1715544411,"current_range_meters":10800,"station_id":"ce4bgl12rcd13ifvqbo0","pricing_plan_id":"cebpf4jnsgd1na2vs0mg"},{"bike_id":"8055a288-740a-425b-897b-07f1b3e56b63","system_id":"levelo_inurba_marseille","lat":43.29602,"lon":5.381084,"is_reserved":false,"is_disabled":false,"rental_uris":{"android":"levelo://app?vid=8055a288-740a-425b-897b-07f1b3e56b63","ios":"levelo://app?vid=8055a288-740a-425b-897b-07f1b3e56b63"},"vehicle_type_id":"4","last_reported":1715544411,"current_range_meters":30000,"station_id":"ce4bgl12rcd13ifvqbo0","pricing_plan_id":"cebpf4jnsgd1na2vs0mg"},{"bike_id":"361c5e19-86c3-4bf9-b66b-0bcaf81df1e5","system_id":"levelo_inurba_marseille","lat":43.29602,"lon":5.381084,"is_reserved":false,"is_disabled":false,"rental_uris":{"android":"levelo://app?vid=361c5e19-86c3-4bf9-b66b-0bcaf81df1e5","ios":"levelo://app?vid=361c5e19-86c3-4bf9-b66b-0bcaf81df1e5"},"vehicle_type_id":"4","last_reported":1715544411,"current_range_meters":0,"station_id":"ce4bgl12rcd13ifvqbo0","pricing_plan_id":"cebpf4jnsgd1na2vs0mg"},{"bike_id":"ae6762bc-7f13-4f6f-8ac2-f2042423b49b","system_id":"levelo_inurba_marseille","lat":43.29602,"lon":5.381084,"is_reserved":false,"is_disabled":false,"rental_uris":{"android":"levelo://app?vid=ae6762bc-7f13-4f6f-8ac2-f2042423b49b","ios":"levelo://app?vid=ae6762bc-7f13-4f6f-8ac2-f2042423b49b"},"vehicle_type_id":"4","last_reported":1715544411,"current_range_meters":0,"station_id":"ce4bgl12rcd13ifvqbo0","pricing_plan_id":"cebpf4jnsgd1na2vs0mg"},{"bike_id":"85ccc75e-c94f-4b3c-b44c-c53921643630","system_id":"levelo_inurba_marseille","lat":43.32871,"lon":5.38359,"is_reserved":false,"is_disabled":false,"rental_uris":{"android":"levelo://app?vid=85ccc75e-c94f-4b3c-b44c-c53921643630","ios":"levelo://app?vid=85ccc75e-c94f-4b3c-b44c-c53921643630"},"vehicle_type_id":"4","last_reported":1715544411,"current_range_meters":9600,"station_id":"","pricing_plan_id":"cebpf4jnsgd1na2vs0mg"},{"bike_id":"41ffe99f-4636-4fc9-867f-a4b2e75041fc","system_id":"levelo_inurba_marseille","lat":43.30605,"lon":5.39354,"is_reserved":false,"is_disabled":false,"rental_uris":{"android":"levelo://app?vid=41ffe99f-4636-4fc9-867f-a4b2e75041fc","ios":"levelo://app?vid=41ffe99f-4636-4fc9-867f-a4b2e75041fc"},"vehicle_type_id":"4","last_reported":1715544411,"current_range_meters":0,"station_id":"ce4bh0p2rcd13ifvqd80","pricing_plan_id":"cebpf4jnsgd1na2vs0mg"},{"bike_id":"44b9709e-8cb8-4f1d-8196-a4d6093036d2","system_id":"levelo_inurba_marseille","lat":43.2936,"lon":5.37835,"is_reserved":false,"is_disabled":false,"rental_uris":{"android":"levelo://app?vid=44b9709e-8cb8-4f1d-8196-a4d6093036d2","ios":"levelo://app?vid=44b9709e-8cb8-4f1d-8196-a4d6093036d2"},"vehicle_type_id":"4","last_reported":1715544411,"current_range_meters":21600,"station_id":"ce4bgjh2rcd13ifvqbf0","pricing_plan_id":"cebpf4jnsgd1na2vs0mg"},{"bike_id":"03137d64-8414-480c-88b1-600d94be2132","system_id":"levelo_inurba_marseille","lat":43.303002,"lon":5.392142,"is_reserved":false,"is_disabled":false,"rental_uris":{"android":"levelo://app?vid=03137d64-8414-480c-88b1-600d94be2132","ios":"levelo://app?vid=03137d64-8414-480c-88b1-600d94be2132"},"vehicle_type_id":"4","last_reported":1715544411,"current_range_meters":6800,"station_id":"ce4bgkh2rcd13ifvqbk0","pricing_plan_id":"cebpf4jnsgd1na2vs0mg"},{"bike_id":"00ca90fb-9dea-49a5-a007-db39dd8eb06a","system_id":"levelo_inurba_marseille","lat":43.302992,"lon":5.392136,"is_reserved":false,"is_disabled":false,"rental_uris":{"android":"levelo://app?vid=00ca90fb-9dea-49a5-a007-db39dd8eb06a","ios":"levelo://app?vid=00ca90fb-9dea-49a5-a007-db39dd8eb06a"},"vehicle_type_id":"4","last_reported":1715544411,"current_range_meters":16400,"station_id":"ce4bgkh2rcd13ifvqbk0","pricing_plan_id":"cebpf4jnsgd1na2vs0mg"},{"bike_id":"7667ef9c-713d-42b3-ac12-241ec577151d","system_id":"levelo_inurba_marseille","lat":43.30294,"lon":5.39217,"is_reserved":false,"is_disabled":false,"rental_uris":{"android":"levelo://app?vid=7667ef9c-713d-42b3-ac12-241ec577151d","ios":"levelo://app?vid=7667ef9c-713d-42b3-ac12-241ec577151d"},"vehicle_type_id":"4","last_reported":1715544411,"current_range_meters":0,"station_id":"ce4bgkh2rcd13ifvqbk0","pricing_plan_id":"cebpf4jnsgd1na2vs0mg"},{"bike_id":"c555fec9-640d-4314-8a95-5aa370eaf352","system_id":"levelo_inurba_marseille","lat":43.298764,"lon":5.388973,"is_reserved":false,"is_disabled":false,"rental_uris":{"android":"levelo://app?vid=c555fec9-640d-4314-8a95-5aa370eaf352","ios":"levelo://app?vid=c555fec9-640d-4314-8a95-5aa370eaf352"},"vehicle_type_id":"4","last_reported":1715544411,"current_range_meters":0,"station_id":"ce4bh392rcd13ifvqdl0","pricing_plan_id":"cebpf4jnsgd1na2vs0mg"},{"bike_id":"264842b1-cb72-44b5-9e74-403c0cf2a3e1","system_id":"levelo_inurba_marseille","lat":43.298764,"lon":5.388973,"is_reserved":false,"is_disabled":false,"rental_uris":{"android":"levelo://app?vid=264842b1-cb72-44b5-9e74-403c0cf2a3e1","ios":"levelo://app?vid=264842b1-cb72-44b5-9e74-403c0cf2a3e1"},"vehicle_type_id":"4","last_reported":1715544411,"current_range_meters":1600,"station_id":"ce4bh392rcd13ifvqdl0","pricing_plan_id":"cebpf4jnsgd1na2vs0mg"},{"bike_id":"9ec56098-c4cd-4d34-9306-761766b0aac9","system_id":"levelo_inurba_marseille","lat":43.298764,"lon":5.388973,"is_reserved":false,"is_disabled":false,"rental_uris":{"android":"levelo://app?vid=9ec56098-c4cd-4d34-9306-761766b0aac9","ios":"levelo://app?vid=9ec56098-c4cd-4d34-9306-761766b0aac9"},"vehicle_type_id":"4","last_reported":1715544411,"current_range_meters":8800,"station_id":"ce4bh392rcd13ifvqdl0","pricing_plan_id":"cebpf4jnsgd1na2vs0mg"},{"bike_id":"520e972c-0f08-4f2e-b5dd-b7ee1ed552e9","system_id":"levelo_inurba_marseille","lat":43.298764,"lon":5.388973,"is_reserved":false,"is_disabled":false,"rental_uris":{"android":"levelo://app?vid=520e972c-0f08-4f2e-b5dd-b7ee1ed552e9","ios":"levelo://app?vid=520e972c-0f08-4f2e-b5dd-b7ee1ed552e9"},"vehicle_type_id":"4","last_reported":1715544411,"current_range_meters":5600,"station_id":"ce4bh392rcd13ifvqdl0","pricing_plan_id":"cebpf4jnsgd1na2vs0mg"},{"bike_id":"0386a323-38a3-45a2-b41a-420d0c2f4cb0","system_id":"levelo_inurba_marseille","lat":43.291671,"lon":5.371575,"is_reserved":false,"is_disabled":false,"rental_uris":{"android":"levelo://app?vid=0386a323-38a3-45a2-b41a-420d0c2f4cb0","ios":"levelo://app?vid=0386a323-38a3-45a2-b41a-420d0c2f4cb0"},"vehicle_type_id":"4","last_reported":1715544411,"current_range_meters":0,"station_id":"ce4bha92rcd13ifvqeh0","pricing_plan_id":"cebpf4jnsgd1na2vs0mg"},{"bike_id":"3d6b2480-c345-428a-a4a7-be8d328ca983","system_id":"levelo_inurba_marseille","lat":43.29864,"lon":5.38914,"is_reserved":false,"is_disabled":false,"rental_uris":{"android":"levelo://app?vid=3d6b2480-c345-428a-a4a7-be8d328ca983","ios":"levelo://app?vid=3d6b2480-c345-428a-a4a7-be8d328ca983"},"vehicle_type_id":"4","last_reported":1715544411,"current_range_meters":0,"station_id":"ce4bh392rcd13ifvqdl0","pricing_plan_id":"cebpf4jnsgd1na2vs0mg"},{"bike_id":"959a0992-8fc3-4bc9-b7f5-c770907dbfdf","system_id":"levelo_inurba_marseille","lat":43.309047,"lon":5.396551,"is_reserved":false,"is_disabled":false,"rental_uris":{"android":"levelo://app?vid=959a0992-8fc3-4bc9-b7f5-c770907dbfdf","ios":"levelo://app?vid=959a0992-8fc3-4bc9-b7f5-c770907dbfdf"},"vehicle_type_id":"4","last_reported":1715544411,"current_range_meters":11200,"station_id":"ce4bh012rcd13ifvqcv0","pricing_plan_id":"cebpf4jnsgd1na2vs0mg"},{"bike_id":"c99c2d4d-0244-465a-8fc9-0233344d12f4","system_id":"levelo_inurba_marseille","lat":43.309038,"lon":5.396546,"is_reserved":false,"is_disabled":false,"rental_uris":{"android":"levelo://app?vid=c99c2d4d-0244-465a-8fc9-0233344d12f4","ios":"levelo://app?vid=c99c2d4d-0244-465a-8fc9-0233344d12f4"},"vehicle_type_id":"4","last_reported":1715544411,"current_range_meters":14000,"station_id":"ce4bh012rcd13ifvqcv0","pricing_plan_id":"cebpf4jnsgd1na2vs0mg"},{"bike_id":"9b07692f-8165-4e09-bc27-f2dda30af358","system_id":"levelo_inurba_marseille","lat":43.309038,"lon":5.396546,"is_reserved":false,"is_disabled":false,"rental_uris":{"android":"levelo://app?vid=9b07692f-8165-4e09-bc27-f2dda30af358","ios":"levelo://app?vid=9b07692f-8165-4e09-bc27-f2dda30af358"},"vehicle_type_id":"4","last_reported":1715544411,"current_range_meters":18400,"station_id":"ce4bh012rcd13ifvqcv0","pricing_plan_id":"cebpf4jnsgd1na2vs0mg"},{"bike_id":"c377eb74-2281-480c-a770-3bf7f3fc0cb2","system_id":"levelo_inurba_marseille","lat":43.309047,"lon":5.396551,"is_reserved":false,"is_disabled":false,"rental_uris":{"android":"levelo://app?vid=c377eb74-2281-480c-a770-3bf7f3fc0cb2","ios":"levelo://app?vid=c377eb74-2281-480c-a770-3bf7f3fc0cb2"},"vehicle_type_id":"4","last_reported":1715544411,"current_range_meters":3600,"station_id":"ce4bh012rcd13ifvqcv0","pricing_plan_id":"cebpf4jnsgd1na2vs0mg"},{"bike_id":"c94ca745-518a-4f1f-9e36-3dace1591ff1","system_id":"levelo_inurba_marseille","lat":43.313291,"lon":5.396838,"is_reserved":false,"is_disabled":false,"rental_uris":{"android":"levelo://app?vid=c94ca745-518a-4f1f-9e36-3dace1591ff1","ios":"levelo://app?vid=c94ca745-518a-4f1f-9e36-3dace1591ff1"},"vehicle_type_id":"4","last_reported":1715544411,"current_range_meters":0,"station_id":"ce4bgvp2rcd13ifvqcu0","pricing_plan_id":"cebpf4jnsgd1na2vs0mg"},{"bike_id":"cbf65c65-13ba-4912-87a0-7d17c6850fc1","system_id":"levelo_inurba_marseille","lat":43.309047,"lon":5.396551,"is_reserved":false,"is_disabled":false,"rental_uris":{"android":"levelo://app?vid=cbf65c65-13ba-4912-87a0-7d17c6850fc1","ios":"levelo://app?vid=cbf65c65-13ba-4912-87a0-7d17c6850fc1"},"vehicle_type_id":"4","last_reported":1715544411,"current_range_meters":4400,"station_id":"ce4bh012rcd13ifvqcv0","pricing_plan_id":"cebpf4jnsgd1na2vs0mg"},{"bike_id":"085f886e-0ee3-47dc-a422-27cecfe95520","system_id":"levelo_inurba_marseille","lat":43.309038,"lon":5.396546,"is_reserved":false,"is_disabled":false,"rental_uris":{"android":"levelo://app?vid=085f886e-0ee3-47dc-a422-27cecfe95520","ios":"levelo://app?vid=085f886e-0ee3-47dc-a422-27cecfe95520"},"vehicle_type_id":"4","last_reported":1715544411,"current_range_meters":12000,"station_id":"ce4bh012rcd13ifvqcv0","pricing_plan_id":"cebpf4jnsgd1na2vs0mg"},{"bike_id":"498c0f91-1c31-41e0-8f24-93bee4f9ab8d","system_id":"levelo_inurba_marseille","lat":43.309038,"lon":5.396546,"is_reserved":false,"is_disabled":false,"rental_uris":{"android":"levelo://app?vid=498c0f91-1c31-41e0-8f24-93bee4f9ab8d","ios":"levelo://app?vid=498c0f91-1c31-41e0-8f24-93bee4f9ab8d"},"vehicle_type_id":"4","last_reported":1715544411,"current_range_meters":18000,"station_id":"ce4bh012rcd13ifvqcv0","pricing_plan_id":"cebpf4jnsgd1na2vs0mg"},{"bike_id":"904928ca-2d34-4974-a111-cb1c806a9b82","system_id":"levelo_inurba_marseille","lat":43.29529,"lon":5.385581,"is_reserved":false,"is_disabled":false,"rental_uris":{"android":"levelo://app?vid=904928ca-2d34-4974-a111-cb1c806a9b82","ios":"levelo://app?vid=904928ca-2d34-4974-a111-cb1c806a9b82"},"vehicle_type_id":"4","last_reported":1715544411,"current_range_meters":22000,"station_id":"ce4bgih2rcd13ifvqba0","pricing_plan_id":"cebpf4jnsgd1na2vs0mg"},{"bike_id":"708d6bee-a0eb-4686-84bc-28eda6d63a4e","system_id":"levelo_inurba_marseille","lat":43.29529,"lon":5.385581,"is_reserved":false,"is_disabled":false,"rental_uris":{"android":"levelo://app?vid=708d6bee-a0eb-4686-84bc-28eda6d63a4e","ios":"levelo://app?vid=708d6bee-a0eb-4686-84bc-28eda6d63a4e"},"vehicle_type_id":"4","last_reported":1715544411,"current_range_meters":31200,"station_id":"ce4bgih2rcd13ifvqba0","pricing_plan_id":"cebpf4jnsgd1na2vs0mg"},{"bike_id":"09c7105e-dd4c-42b9-9283-01e0b14ef672","system_id":"levelo_inurba_marseille","lat":43.29529,"lon":5.385581,"is_reserved":false,"is_disabled":false,"rental_uris":{"android":"levelo://app?vid=09c7105e-dd4c-42b9-9283-01e0b14ef672","ios":"levelo://app?vid=09c7105e-dd4c-42b9-9283-01e0b14ef672"},"vehicle_type_id":"4","last_reported":1715544411,"current_range_meters":0,"station_id":"ce4bgih2rcd13ifvqba0","pricing_plan_id":"cebpf4jnsgd1na2vs0mg"},{"bike_id":"045828d2-cdb9-49d1-bd04-0995f40997aa","system_id":"levelo_inurba_marseille","lat":43.313291,"lon":5.396838,"is_reserved":false,"is_disabled":false,"rental_uris":{"android":"levelo://app?vid=045828d2-cdb9-49d1-bd04-0995f40997aa","ios":"levelo://app?vid=045828d2-cdb9-49d1-bd04-0995f40997aa"},"vehicle_type_id":"4","last_reported":1715544411,"current_range_meters":4400,"station_id":"ce4bgvp2rcd13ifvqcu0","pricing_plan_id":"cebpf4jnsgd1na2vs0mg"},{"bike_id":"b4459a64-fba6-4e70-8553-a43d68cf6275","system_id":"levelo_inurba_marseille","lat":43.29185,"lon":5.35636,"is_reserved":false,"is_disabled":false,"rental_uris":{"android":"levelo://app?vid=b4459a64-fba6-4e70-8553-a43d68cf6275","ios":"levelo://app?vid=b4459a64-fba6-4e70-8553-a43d68cf6275"},"vehicle_type_id":"4","last_reported":1715544411,"current_range_meters":28000,"station_id":"","pricing_plan_id":"cebpf4jnsgd1na2vs0mg"},{"bike_id":"ed4fadb3-fc27-4bf1-a70a-038596545b7c","system_id":"levelo_inurba_marseille","lat":43.290779,"lon":5.371482,"is_reserved":false,"is_disabled":false,"rental_uris":{"android":"levelo://app?vid=ed4fadb3-fc27-4bf1-a70a-038596545b7c","ios":"levelo://app?vid=ed4fadb3-fc27-4bf1-a70a-038596545b7c"},"vehicle_type_id":"4","last_reported":1715544411,"current_range_meters":29600,"station_id":"ce4bh5p2rcd13ifvqe4g","pricing_plan_id":"cebpf4jnsgd1na2vs0mg"},{"bike_id":"4eb3a1db-a6b0-4c4b-a888-5cc3f04b6a86","system_id":"levelo_inurba_marseille","lat":43.29055,"lon":5.37154,"is_reserved":false,"is_disabled":false,"rental_uris":{"android":"levelo://app?vid=4eb3a1db-a6b0-4c4b-a888-5cc3f04b6a86","ios":"levelo://app?vid=4eb3a1db-a6b0-4c4b-a888-5cc3f04b6a86"},"vehicle_type_id":"4","last_reported":1715544411,"current_range_meters":0,"station_id":"ce4bh5p2rcd13ifvqe4g","pricing_plan_id":"cebpf4jnsgd1na2vs0mg"},{"bike_id":"4fb9809e-16dd-438d-a0fb-138d63cab4f3","system_id":"levelo_inurba_marseille","lat":43.302008,"lon":5.394694,"is_reserved":false,"is_disabled":false,"rental_uris":{"android":"levelo://app?vid=4fb9809e-16dd-438d-a0fb-138d63cab4f3","ios":"levelo://app?vid=4fb9809e-16dd-438d-a0fb-138d63cab4f3"},"vehicle_type_id":"4","last_reported":1715544411,"current_range_meters":8800,"station_id":"ce4bh0p2rcd13ifvqd70","pricing_plan_id":"cebpf4jnsgd1na2vs0mg"},{"bike_id":"40570d62-b883-4893-bda0-e75dca3c6e0e","system_id":"levelo_inurba_marseille","lat":43.302008,"lon":5.394694,"is_reserved":false,"is_disabled":false,"rental_uris":{"android":"levelo://app?vid=40570d62-b883-4893-bda0-e75dca3c6e0e","ios":"levelo://app?vid=40570d62-b883-4893-bda0-e75dca3c6e0e"},"vehicle_type_id":"4","last_reported":1715544411,"current_range_meters":20400,"station_id":"ce4bh0p2rcd13ifvqd70","pricing_plan_id":"cebpf4jnsgd1na2vs0mg"},{"bike_id":"3742d5d1-90f3-4fb8-8dfa-aa804f04c8e6","system_id":"levelo_inurba_marseille","lat":43.29036,"lon":5.35918,"is_reserved":false,"is_disabled":false,"rental_uris":{"android":"levelo://app?vid=3742d5d1-90f3-4fb8-8dfa-aa804f04c8e6","ios":"levelo://app?vid=3742d5d1-90f3-4fb8-8dfa-aa804f04c8e6"},"vehicle_type_id":"4","last_reported":1715544411,"current_range_meters":0,"station_id":"ce4bha92rcd13ifvqeg0","pricing_plan_id":"cebpf4jnsgd1na2vs0mg"},{"bike_id":"608e5e22-62d8-4b14-8ac0-934a3f05afe7","system_id":"levelo_inurba_marseille","lat":43.289444,"lon":5.366501,"is_reserved":false,"is_disabled":false,"rental_uris":{"android":"levelo://app?vid=608e5e22-62d8-4b14-8ac0-934a3f05afe7","ios":"levelo://app?vid=608e5e22-62d8-4b14-8ac0-934a3f05afe7"},"vehicle_type_id":"4","last_reported":1715544411,"current_range_meters":17200,"station_id":"","pricing_plan_id":"cebpf4jnsgd1na2vs0mg"},{"bike_id":"88486e45-1ca7-4d6e-9dc8-9841e992a170","system_id":"levelo_inurba_marseille","lat":43.290319,"lon":5.375732,"is_reserved":false,"is_disabled":false,"rental_uris":{"android":"levelo://app?vid=88486e45-1ca7-4d6e-9dc8-9841e992a170","ios":"levelo://app?vid=88486e45-1ca7-4d6e-9dc8-9841e992a170"},"vehicle_type_id":"4","last_reported":1715544411,"current_range_meters":6000,"station_id":"ce4bh692rcd13ifvqe90","pricing_plan_id":"cebpf4jnsgd1na2vs0mg"},{"bike_id":"e2ddfd69-cc0a-4c4e-b38b-c14c8618f9e8","system_id":"levelo_inurba_marseille","lat":43.29415,"lon":5.3863,"is_reserved":false,"is_disabled":false,"rental_uris":{"android":"levelo://app?vid=e2ddfd69-cc0a-4c4e-b38b-c14c8618f9e8","ios":"levelo://app?vid=e2ddfd69-cc0a-4c4e-b38b-c14c8618f9e8"},"vehicle_type_id":"4","last_reported":1715544411,"current_range_meters":0,"station_id":"ce4bh2h2rcd13ifvqdh0","pricing_plan_id":"cebpf4jnsgd1na2vs0mg"},{"bike_id":"162f2f53-1f29-4080-ab3d-4df637e54b13","system_id":"levelo_inurba_marseille","lat":43.290327,"lon":5.375711,"is_reserved":false,"is_disabled":false,"rental_uris":{"android":"levelo://app?vid=162f2f53-1f29-4080-ab3d-4df637e54b13","ios":"levelo://app?vid=162f2f53-1f29-4080-ab3d-4df637e54b13"},"vehicle_type_id":"4","last_reported":1715544411,"current_range_meters":14400,"station_id":"ce4bh692rcd13ifvqe90","pricing_plan_id":"cebpf4jnsgd1na2vs0mg"},{"bike_id":"6f47debf-ddf8-4960-a4a9-0a653bfac122","system_id":"levelo_inurba_marseille","lat":43.289468,"lon":5.363719,"is_reserved":false,"is_disabled":false,"rental_uris":{"android":"levelo://app?vid=6f47debf-ddf8-4960-a4a9-0a653bfac122","ios":"levelo://app?vid=6f47debf-ddf8-4960-a4a9-0a653bfac122"},"vehicle_type_id":"4","last_reported":1715544411,"current_range_meters":14800,"station_id":"ce4bhc92rcd13ifvqetg","pricing_plan_id":"cebpf4jnsgd1na2vs0mg"},{"bike_id":"ecba5ac0-be83-4913-82ab-fc0f941f4547","system_id":"levelo_inurba_marseille","lat":43.289468,"lon":5.363719,"is_reserved":false,"is_disabled":false,"rental_uris":{"android":"levelo://app?vid=ecba5ac0-be83-4913-82ab-fc0f941f4547","ios":"levelo://app?vid=ecba5ac0-be83-4913-82ab-fc0f941f4547"},"vehicle_type_id":"4","last_reported":1715544411,"current_range_meters":0,"station_id":"ce4bhc92rcd13ifvqetg","pricing_plan_id":"cebpf4jnsgd1na2vs0mg"},{"bike_id":"00c73e74-95f4-4b59-a8ea-4929a5be5c14","system_id":"levelo_inurba_marseille","lat":43.28928,"lon":5.36384,"is_reserved":false,"is_disabled":false,"rental_uris":{"android":"levelo://app?vid=00c73e74-95f4-4b59-a8ea-4929a5be5c14","ios":"levelo://app?vid=00c73e74-95f4-4b59-a8ea-4929a5be5c14"},"vehicle_type_id":"4","last_reported":1715544411,"current_range_meters":0,"station_id":"ce4bhc92rcd13ifvqetg","pricing_plan_id":"cebpf4jnsgd1na2vs0mg"},{"bike_id":"dd872668-71fe-4d24-81a8-82bd36297cbf","system_id":"levelo_inurba_marseille","lat":43.304296,"lon":5.397513,"is_reserved":false,"is_disabled":false,"rental_uris":{"android":"levelo://app?vid=dd872668-71fe-4d24-81a8-82bd36297cbf","ios":"levelo://app?vid=dd872668-71fe-4d24-81a8-82bd36297cbf"},"vehicle_type_id":"4","last_reported":1715544411,"current_range_meters":1600,"station_id":"ce4bh092rcd13ifvqd20","pricing_plan_id":"cebpf4jnsgd1na2vs0mg"},{"bike_id":"5ae01cca-8224-4761-b49b-42c719047912","system_id":"levelo_inurba_marseille","lat":43.304274,"lon":5.397513,"is_reserved":false,"is_disabled":false,"rental_uris":{"android":"levelo://app?vid=5ae01cca-8224-4761-b49b-42c719047912","ios":"levelo://app?vid=5ae01cca-8224-4761-b49b-42c719047912"},"vehicle_type_id":"4","last_reported":1715544411,"current_range_meters":27200,"station_id":"ce4bh092rcd13ifvqd20","pricing_plan_id":"cebpf4jnsgd1na2vs0mg"},{"bike_id":"2b1b675d-1d39-477f-b7a8-1d34a4095ff8","system_id":"levelo_inurba_marseille","lat":43.304296,"lon":5.397513,"is_reserved":false,"is_disabled":false,"rental_uris":{"android":"levelo://app?vid=2b1b675d-1d39-477f-b7a8-1d34a4095ff8","ios":"levelo://app?vid=2b1b675d-1d39-477f-b7a8-1d34a4095ff8"},"vehicle_type_id":"4","last_reported":1715544411,"current_range_meters":18800,"station_id":"ce4bh092rcd13ifvqd20","pricing_plan_id":"cebpf4jnsgd1na2vs0mg"},{"bike_id":"e1879c55-9216-43bf-af94-e1e73d3d7d99","system_id":"levelo_inurba_marseille","lat":43.304296,"lon":5.397513,"is_reserved":false,"is_disabled":false,"rental_uris":{"android":"levelo://app?vid=e1879c55-9216-43bf-af94-e1e73d3d7d99","ios":"levelo://app?vid=e1879c55-9216-43bf-af94-e1e73d3d7d99"},"vehicle_type_id":"4","last_reported":1715544411,"current_range_meters":9200,"station_id":"ce4bh092rcd13ifvqd20","pricing_plan_id":"cebpf4jnsgd1na2vs0mg"},{"bike_id":"b0e7bd4a-0735-4a1b-adcd-cfeabf84cc25","system_id":"levelo_inurba_marseille","lat":43.30414,"lon":5.39748,"is_reserved":false,"is_disabled":false,"rental_uris":{"android":"levelo://app?vid=b0e7bd4a-0735-4a1b-adcd-cfeabf84cc25","ios":"levelo://app?vid=b0e7bd4a-0735-4a1b-adcd-cfeabf84cc25"},"vehicle_type_id":"4","last_reported":1715544411,"current_range_meters":0,"station_id":"ce4bh092rcd13ifvqd20","pricing_plan_id":"cebpf4jnsgd1na2vs0mg"},{"bike_id":"a43ce67a-e506-4c6a-b6eb-c9d4096e42a8","system_id":"levelo_inurba_marseille","lat":43.304296,"lon":5.397513,"is_reserved":false,"is_disabled":false,"rental_uris":{"android":"levelo://app?vid=a43ce67a-e506-4c6a-b6eb-c9d4096e42a8","ios":"levelo://app?vid=a43ce67a-e506-4c6a-b6eb-c9d4096e42a8"},"vehicle_type_id":"4","last_reported":1715544411,"current_range_meters":14800,"station_id":"ce4bh092rcd13ifvqd20","pricing_plan_id":"cebpf4jnsgd1na2vs0mg"},{"bike_id":"c5e8dc34-a64d-490a-86fb-3b6b675310a2","system_id":"levelo_inurba_marseille","lat":43.304296,"lon":5.397513,"is_reserved":false,"is_disabled":false,"rental_uris":{"android":"levelo://app?vid=c5e8dc34-a64d-490a-86fb-3b6b675310a2","ios":"levelo://app?vid=c5e8dc34-a64d-490a-86fb-3b6b675310a2"},"vehicle_type_id":"4","last_reported":1715544411,"current_range_meters":5600,"station_id":"ce4bh092rcd13ifvqd20","pricing_plan_id":"cebpf4jnsgd1na2vs0mg"},{"bike_id":"2a68e5a1-3fb5-420d-8e50-09162f39d2d1","system_id":"levelo_inurba_marseille","lat":43.292644,"lon":5.384257,"is_reserved":false,"is_disabled":false,"rental_uris":{"android":"levelo://app?vid=2a68e5a1-3fb5-420d-8e50-09162f39d2d1","ios":"levelo://app?vid=2a68e5a1-3fb5-420d-8e50-09162f39d2d1"},"vehicle_type_id":"4","last_reported":1715544411,"current_range_meters":28800,"station_id":"ce4bh692rcd13ifvqea0","pricing_plan_id":"cebpf4jnsgd1na2vs0mg"},{"bike_id":"700d2e87-8eb2-461a-b65c-4965dc889b37","system_id":"levelo_inurba_marseille","lat":43.304296,"lon":5.397513,"is_reserved":false,"is_disabled":false,"rental_uris":{"android":"levelo://app?vid=700d2e87-8eb2-461a-b65c-4965dc889b37","ios":"levelo://app?vid=700d2e87-8eb2-461a-b65c-4965dc889b37"},"vehicle_type_id":"4","last_reported":1715544411,"current_range_meters":400,"station_id":"ce4bh092rcd13ifvqd20","pricing_plan_id":"cebpf4jnsgd1na2vs0mg"},{"bike_id":"96d83050-1089-4ad9-949d-dc652488fd4b","system_id":"levelo_inurba_marseille","lat":43.29253,"lon":5.3845,"is_reserved":false,"is_disabled":false,"rental_uris":{"android":"levelo://app?vid=96d83050-1089-4ad9-949d-dc652488fd4b","ios":"levelo://app?vid=96d83050-1089-4ad9-949d-dc652488fd4b"},"vehicle_type_id":"4","last_reported":1715544411,"current_range_meters":0,"station_id":"ce4bh692rcd13ifvqea0","pricing_plan_id":"cebpf4jnsgd1na2vs0mg"},{"bike_id":"e95c6ceb-742b-445c-9f37-b2b849db9b91","system_id":"levelo_inurba_marseille","lat":43.29002,"lon":5.35607,"is_reserved":false,"is_disabled":false,"rental_uris":{"android":"levelo://app?vid=e95c6ceb-742b-445c-9f37-b2b849db9b91","ios":"levelo://app?vid=e95c6ceb-742b-445c-9f37-b2b849db9b91"},"vehicle_type_id":"4","last_reported":1715544411,"current_range_meters":0,"station_id":"ce4bhb92rcd13ifvqen0","pricing_plan_id":"cebpf4jnsgd1na2vs0mg"},{"bike_id":"27df304c-eb85-49a9-8a29-96253c5b4bf8","system_id":"levelo_inurba_marseille","lat":43.290995,"lon":5.381361,"is_reserved":false,"is_disabled":false,"rental_uris":{"android":"levelo://app?vid=27df304c-eb85-49a9-8a29-96253c5b4bf8","ios":"levelo://app?vid=27df304c-eb85-49a9-8a29-96253c5b4bf8"},"vehicle_type_id":"4","last_reported":1715544411,"current_range_meters":0,"station_id":"ce4bh512rcd13ifvqe2g","pricing_plan_id":"cebpf4jnsgd1na2vs0mg"},{"bike_id":"e73e76e2-dd41-4fe9-b191-5528b8019d98","system_id":"levelo_inurba_marseille","lat":43.297815,"lon":5.393548,"is_reserved":false,"is_disabled":false,"rental_uris":{"android":"levelo://app?vid=e73e76e2-dd41-4fe9-b191-5528b8019d98","ios":"levelo://app?vid=e73e76e2-dd41-4fe9-b191-5528b8019d98"},"vehicle_type_id":"4","last_reported":1715544411,"current_range_meters":6800,"station_id":"chh1huq6cuj3fo74tm60","pricing_plan_id":"cebpf4jnsgd1na2vs0mg"},{"bike_id":"aabdf73a-05d5-4ae7-8ff4-f62fd350ace8","system_id":"levelo_inurba_marseille","lat":43.295169,"lon":5.390426,"is_reserved":false,"is_disabled":false,"rental_uris":{"android":"levelo://app?vid=aabdf73a-05d5-4ae7-8ff4-f62fd350ace8","ios":"levelo://app?vid=aabdf73a-05d5-4ae7-8ff4-f62fd350ace8"},"vehicle_type_id":"4","last_reported":1715544411,"current_range_meters":0,"station_id":"ce4bh3p2rcd13ifvqdp0","pricing_plan_id":"cebpf4jnsgd1na2vs0mg"},{"bike_id":"30451b25-a282-4aaa-9327-d951b85052f8","system_id":"levelo_inurba_marseille","lat":43.29788,"lon":5.3934,"is_reserved":false,"is_disabled":false,"rental_uris":{"android":"levelo://app?vid=30451b25-a282-4aaa-9327-d951b85052f8","ios":"levelo://app?vid=30451b25-a282-4aaa-9327-d951b85052f8"},"vehicle_type_id":"4","last_reported":1715544411,"current_range_meters":8400,"station_id":"chh1huq6cuj3fo74tm60","pricing_plan_id":"cebpf4jnsgd1na2vs0mg"},{"bike_id":"0c4f01d5-b35e-43f9-892a-0d94845a8f8c","system_id":"levelo_inurba_marseille","lat":43.330442,"lon":5.389148,"is_reserved":false,"is_disabled":false,"rental_uris":{"android":"levelo://app?vid=0c4f01d5-b35e-43f9-892a-0d94845a8f8c","ios":"levelo://app?vid=0c4f01d5-b35e-43f9-892a-0d94845a8f8c"},"vehicle_type_id":"4","last_reported":1715544411,"current_range_meters":24000,"station_id":"ce4bhr92rcd13ifvqhrg","pricing_plan_id":"cebpf4jnsgd1na2vs0mg"},{"bike_id":"47ac6b1a-5f66-4d3a-9095-12d28a7f7216","system_id":"levelo_inurba_marseille","lat":43.29776,"lon":5.39342,"is_reserved":false,"is_disabled":false,"rental_uris":{"android":"levelo://app?vid=47ac6b1a-5f66-4d3a-9095-12d28a7f7216","ios":"levelo://app?vid=47ac6b1a-5f66-4d3a-9095-12d28a7f7216"},"vehicle_type_id":"4","last_reported":1715544411,"current_range_meters":0,"station_id":"chh1huq6cuj3fo74tm60","pricing_plan_id":"cebpf4jnsgd1na2vs0mg"},{"bike_id":"6ec6dffd-aa9e-46e4-ae54-cb7b1089ab03","system_id":"levelo_inurba_marseille","lat":43.3302,"lon":5.3904,"is_reserved":false,"is_disabled":false,"rental_uris":{"android":"levelo://app?vid=6ec6dffd-aa9e-46e4-ae54-cb7b1089ab03","ios":"levelo://app?vid=6ec6dffd-aa9e-46e4-ae54-cb7b1089ab03"},"vehicle_type_id":"4","last_reported":1715544411,"current_range_meters":6400,"station_id":"ce4bhr92rcd13ifvqhrg","pricing_plan_id":"cebpf4jnsgd1na2vs0mg"},{"bike_id":"a5196df5-8423-4b65-86e3-4c9d05aa7265","system_id":"levelo_inurba_marseille","lat":43.330442,"lon":5.389148,"is_reserved":false,"is_disabled":false,"rental_uris":{"android":"levelo://app?vid=a5196df5-8423-4b65-86e3-4c9d05aa7265","ios":"levelo://app?vid=a5196df5-8423-4b65-86e3-4c9d05aa7265"},"vehicle_type_id":"4","last_reported":1715544411,"current_range_meters":8800,"station_id":"ce4bhr92rcd13ifvqhrg","pricing_plan_id":"cebpf4jnsgd1na2vs0mg"},{"bike_id":"58557355-6001-4f60-8b81-b339dab23738","system_id":"levelo_inurba_marseille","lat":43.289743,"lon":5.378304,"is_reserved":false,"is_disabled":false,"rental_uris":{"android":"levelo://app?vid=58557355-6001-4f60-8b81-b339dab23738","ios":"levelo://app?vid=58557355-6001-4f60-8b81-b339dab23738"},"vehicle_type_id":"4","last_reported":1715544411,"current_range_meters":2400,"station_id":"ce4bh9p2rcd13ifvqed0","pricing_plan_id":"cebpf4jnsgd1na2vs0mg"},{"bike_id":"df4b7a6a-4d5a-488a-86ec-a45d33e2f1c8","system_id":"levelo_inurba_marseille","lat":43.29776,"lon":5.39353,"is_reserved":false,"is_disabled":false,"rental_uris":{"android":"levelo://app?vid=df4b7a6a-4d5a-488a-86ec-a45d33e2f1c8","ios":"levelo://app?vid=df4b7a6a-4d5a-488a-86ec-a45d33e2f1c8"},"vehicle_type_id":"4","last_reported":1715544411,"current_range_meters":12800,"station_id":"chh1huq6cuj3fo74tm60","pricing_plan_id":"cebpf4jnsgd1na2vs0mg"},{"bike_id":"68240ea1-9f41-4741-bd52-ca81f3cf37c4","system_id":"levelo_inurba_marseille","lat":43.289743,"lon":5.378304,"is_reserved":false,"is_disabled":false,"rental_uris":{"android":"levelo://app?vid=68240ea1-9f41-4741-bd52-ca81f3cf37c4","ios":"levelo://app?vid=68240ea1-9f41-4741-bd52-ca81f3cf37c4"},"vehicle_type_id":"4","last_reported":1715544411,"current_range_meters":30800,"station_id":"ce4bh9p2rcd13ifvqed0","pricing_plan_id":"cebpf4jnsgd1na2vs0mg"},{"bike_id":"28d64041-4404-4ce6-8cc0-b2b6f3fe2052","system_id":"levelo_inurba_marseille","lat":43.290094,"lon":5.381264,"is_reserved":false,"is_disabled":false,"rental_uris":{"android":"levelo://app?vid=28d64041-4404-4ce6-8cc0-b2b6f3fe2052","ios":"levelo://app?vid=28d64041-4404-4ce6-8cc0-b2b6f3fe2052"},"vehicle_type_id":"4","last_reported":1715544411,"current_range_meters":9200,"station_id":"ce4bh4p2rcd13ifvqe1g","pricing_plan_id":"cebpf4jnsgd1na2vs0mg"},{"bike_id":"f5bca667-983c-4199-8a77-9d63e9732643","system_id":"levelo_inurba_marseille","lat":43.288077,"lon":5.365367,"is_reserved":false,"is_disabled":false,"rental_uris":{"android":"levelo://app?vid=f5bca667-983c-4199-8a77-9d63e9732643","ios":"levelo://app?vid=f5bca667-983c-4199-8a77-9d63e9732643"},"vehicle_type_id":"4","last_reported":1715544411,"current_range_meters":0,"station_id":"","pricing_plan_id":"cebpf4jnsgd1na2vs0mg"},{"bike_id":"d17e9997-2995-41b2-96c1-020d8813a5c8","system_id":"levelo_inurba_marseille","lat":43.290094,"lon":5.381264,"is_reserved":false,"is_disabled":false,"rental_uris":{"android":"levelo://app?vid=d17e9997-2995-41b2-96c1-020d8813a5c8","ios":"levelo://app?vid=d17e9997-2995-41b2-96c1-020d8813a5c8"},"vehicle_type_id":"4","last_reported":1715544411,"current_range_meters":26400,"station_id":"ce4bh4p2rcd13ifvqe1g","pricing_plan_id":"cebpf4jnsgd1na2vs0mg"},{"bike_id":"0ef32479-0c47-4960-9bf4-50754f500fa1","system_id":"levelo_inurba_marseille","lat":43.28854,"lon":5.35867,"is_reserved":false,"is_disabled":false,"rental_uris":{"android":"levelo://app?vid=0ef32479-0c47-4960-9bf4-50754f500fa1","ios":"levelo://app?vid=0ef32479-0c47-4960-9bf4-50754f500fa1"},"vehicle_type_id":"4","last_reported":1715544411,"current_range_meters":0,"station_id":"ce4bhb12rcd13ifvqem0","pricing_plan_id":"cebpf4jnsgd1na2vs0mg"},{"bike_id":"6b7f3e45-36b1-4f19-999b-12f4382b93c5","system_id":"levelo_inurba_marseille","lat":43.2885,"lon":5.35858,"is_reserved":false,"is_disabled":false,"rental_uris":{"android":"levelo://app?vid=6b7f3e45-36b1-4f19-999b-12f4382b93c5","ios":"levelo://app?vid=6b7f3e45-36b1-4f19-999b-12f4382b93c5"},"vehicle_type_id":"4","last_reported":1715544411,"current_range_meters":0,"station_id":"ce4bhb12rcd13ifvqem0","pricing_plan_id":"cebpf4jnsgd1na2vs0mg"},{"bike_id":"a6fe3be9-2ae1-42ce-9d62-911bb3dea5fa","system_id":"levelo_inurba_marseille","lat":43.28843,"lon":5.35855,"is_reserved":false,"is_disabled":false,"rental_uris":{"android":"levelo://app?vid=a6fe3be9-2ae1-42ce-9d62-911bb3dea5fa","ios":"levelo://app?vid=a6fe3be9-2ae1-42ce-9d62-911bb3dea5fa"},"vehicle_type_id":"4","last_reported":1715544411,"current_range_meters":25200,"station_id":"ce4bhb12rcd13ifvqem0","pricing_plan_id":"cebpf4jnsgd1na2vs0mg"},{"bike_id":"abac1c59-0594-419c-9efd-d2a30df071d6","system_id":"levelo_inurba_marseille","lat":43.31267,"lon":5.40171,"is_reserved":false,"is_disabled":false,"rental_uris":{"android":"levelo://app?vid=abac1c59-0594-419c-9efd-d2a30df071d6","ios":"levelo://app?vid=abac1c59-0594-419c-9efd-d2a30df071d6"},"vehicle_type_id":"4","last_reported":1715544411,"current_range_meters":0,"station_id":"ce4bh092rcd13ifvqd30","pricing_plan_id":"cebpf4jnsgd1na2vs0mg"},{"bike_id":"cec67d2e-905a-4cbd-af4d-3631c4cf4948","system_id":"levelo_inurba_marseille","lat":43.30923,"lon":5.40141,"is_reserved":false,"is_disabled":false,"rental_uris":{"android":"levelo://app?vid=cec67d2e-905a-4cbd-af4d-3631c4cf4948","ios":"levelo://app?vid=cec67d2e-905a-4cbd-af4d-3631c4cf4948"},"vehicle_type_id":"4","last_reported":1715544411,"current_range_meters":0,"station_id":"ce4bgvp2rcd13ifvqct0","pricing_plan_id":"cebpf4jnsgd1na2vs0mg"},{"bike_id":"59ae8ca9-3944-4a0a-8371-987d89fa7a8b","system_id":"levelo_inurba_marseille","lat":43.30642,"lon":5.401031,"is_reserved":false,"is_disabled":false,"rental_uris":{"android":"levelo://app?vid=59ae8ca9-3944-4a0a-8371-987d89fa7a8b","ios":"levelo://app?vid=59ae8ca9-3944-4a0a-8371-987d89fa7a8b"},"vehicle_type_id":"4","last_reported":1715544411,"current_range_meters":2000,"station_id":"ce4bh112rcd13ifvqda0","pricing_plan_id":"cebpf4jnsgd1na2vs0mg"},{"bike_id":"a4cc72da-ba19-4e7f-b681-6578293aff10","system_id":"levelo_inurba_marseille","lat":43.306412,"lon":5.401035,"is_reserved":false,"is_disabled":false,"rental_uris":{"android":"levelo://app?vid=a4cc72da-ba19-4e7f-b681-6578293aff10","ios":"levelo://app?vid=a4cc72da-ba19-4e7f-b681-6578293aff10"},"vehicle_type_id":"4","last_reported":1715544411,"current_range_meters":19600,"station_id":"ce4bh112rcd13ifvqda0","pricing_plan_id":"cebpf4jnsgd1na2vs0mg"},{"bike_id":"f7932a42-aa5c-439b-b535-65dd8ccd41cf","system_id":"levelo_inurba_marseille","lat":43.33751,"lon":5.37493,"is_reserved":false,"is_disabled":false,"rental_uris":{"android":"levelo://app?vid=f7932a42-aa5c-439b-b535-65dd8ccd41cf","ios":"levelo://app?vid=f7932a42-aa5c-439b-b535-65dd8ccd41cf"},"vehicle_type_id":"4","last_reported":1715544411,"current_range_meters":29600,"station_id":"","pricing_plan_id":"cebpf4jnsgd1na2vs0mg"},{"bike_id":"91d9714b-b35f-47ce-8f34-022bf351236f","system_id":"levelo_inurba_marseille","lat":43.33762,"lon":5.37436,"is_reserved":false,"is_disabled":false,"rental_uris":{"android":"levelo://app?vid=91d9714b-b35f-47ce-8f34-022bf351236f","ios":"levelo://app?vid=91d9714b-b35f-47ce-8f34-022bf351236f"},"vehicle_type_id":"4","last_reported":1715544411,"current_range_meters":20000,"station_id":"","pricing_plan_id":"cebpf4jnsgd1na2vs0mg"},{"bike_id":"c09d8909-52ff-4c98-b4b5-55d7c0cbe0dc","system_id":"levelo_inurba_marseille","lat":43.306412,"lon":5.401035,"is_reserved":false,"is_disabled":false,"rental_uris":{"android":"levelo://app?vid=c09d8909-52ff-4c98-b4b5-55d7c0cbe0dc","ios":"levelo://app?vid=c09d8909-52ff-4c98-b4b5-55d7c0cbe0dc"},"vehicle_type_id":"4","last_reported":1715544411,"current_range_meters":22000,"station_id":"ce4bh112rcd13ifvqda0","pricing_plan_id":"cebpf4jnsgd1na2vs0mg"},{"bike_id":"8430f5ea-f42f-4faa-ac00-ab028bc86e37","system_id":"levelo_inurba_marseille","lat":43.30642,"lon":5.401031,"is_reserved":false,"is_disabled":false,"rental_uris":{"android":"levelo://app?vid=8430f5ea-f42f-4faa-ac00-ab028bc86e37","ios":"levelo://app?vid=8430f5ea-f42f-4faa-ac00-ab028bc86e37"},"vehicle_type_id":"4","last_reported":1715544411,"current_range_meters":13200,"station_id":"ce4bh112rcd13ifvqda0","pricing_plan_id":"cebpf4jnsgd1na2vs0mg"},{"bike_id":"0233cedc-f517-4b06-adf4-05ec27e12ffa","system_id":"levelo_inurba_marseille","lat":43.301117,"lon":5.398795,"is_reserved":false,"is_disabled":false,"rental_uris":{"android":"levelo://app?vid=0233cedc-f517-4b06-adf4-05ec27e12ffa","ios":"levelo://app?vid=0233cedc-f517-4b06-adf4-05ec27e12ffa"},"vehicle_type_id":"4","last_reported":1715544411,"current_range_meters":1200,"station_id":"ce4bh0h2rcd13ifvqd40","pricing_plan_id":"cebpf4jnsgd1na2vs0mg"},{"bike_id":"6bd41076-ccc6-4b33-a01e-5a51bd4aa0c9","system_id":"levelo_inurba_marseille","lat":43.301117,"lon":5.398795,"is_reserved":false,"is_disabled":false,"rental_uris":{"android":"levelo://app?vid=6bd41076-ccc6-4b33-a01e-5a51bd4aa0c9","ios":"levelo://app?vid=6bd41076-ccc6-4b33-a01e-5a51bd4aa0c9"},"vehicle_type_id":"4","last_reported":1715544411,"current_range_meters":26800,"station_id":"ce4bh0h2rcd13ifvqd40","pricing_plan_id":"cebpf4jnsgd1na2vs0mg"},{"bike_id":"77e39373-b33e-4b8c-b565-99023b8f204b","system_id":"levelo_inurba_marseille","lat":43.301117,"lon":5.398795,"is_reserved":false,"is_disabled":false,"rental_uris":{"android":"levelo://app?vid=77e39373-b33e-4b8c-b565-99023b8f204b","ios":"levelo://app?vid=77e39373-b33e-4b8c-b565-99023b8f204b"},"vehicle_type_id":"4","last_reported":1715544411,"current_range_meters":16800,"station_id":"ce4bh0h2rcd13ifvqd40","pricing_plan_id":"cebpf4jnsgd1na2vs0mg"},{"bike_id":"ce8306d4-61f1-41a1-94ca-ee1af64a5eda","system_id":"levelo_inurba_marseille","lat":43.301117,"lon":5.398795,"is_reserved":false,"is_disabled":false,"rental_uris":{"android":"levelo://app?vid=ce8306d4-61f1-41a1-94ca-ee1af64a5eda","ios":"levelo://app?vid=ce8306d4-61f1-41a1-94ca-ee1af64a5eda"},"vehicle_type_id":"4","last_reported":1715544411,"current_range_meters":16000,"station_id":"ce4bh0h2rcd13ifvqd40","pricing_plan_id":"cebpf4jnsgd1na2vs0mg"},{"bike_id":"5e8189e8-232d-4f03-9743-76fbbb6fa4d3","system_id":"levelo_inurba_marseille","lat":43.30141,"lon":5.39874,"is_reserved":false,"is_disabled":false,"rental_uris":{"android":"levelo://app?vid=5e8189e8-232d-4f03-9743-76fbbb6fa4d3","ios":"levelo://app?vid=5e8189e8-232d-4f03-9743-76fbbb6fa4d3"},"vehicle_type_id":"4","last_reported":1715544411,"current_range_meters":0,"station_id":"ce4bh0h2rcd13ifvqd40","pricing_plan_id":"cebpf4jnsgd1na2vs0mg"},{"bike_id":"91266183-f089-41f9-b680-9b6f42362c41","system_id":"levelo_inurba_marseille","lat":43.28714,"lon":5.360948,"is_reserved":false,"is_disabled":false,"rental_uris":{"android":"levelo://app?vid=91266183-f089-41f9-b680-9b6f42362c41","ios":"levelo://app?vid=91266183-f089-41f9-b680-9b6f42362c41"},"vehicle_type_id":"4","last_reported":1715544411,"current_range_meters":19600,"station_id":"","pricing_plan_id":"cebpf4jnsgd1na2vs0mg"},{"bike_id":"b7d96ac0-9b79-4541-9d5a-856e23a2ba45","system_id":"levelo_inurba_marseille","lat":43.298681,"lon":5.397225,"is_reserved":false,"is_disabled":false,"rental_uris":{"android":"levelo://app?vid=b7d96ac0-9b79-4541-9d5a-856e23a2ba45","ios":"levelo://app?vid=b7d96ac0-9b79-4541-9d5a-856e23a2ba45"},"vehicle_type_id":"4","last_reported":1715544411,"current_range_meters":6800,"station_id":"ce4bh0h2rcd13ifvqd50","pricing_plan_id":"cebpf4jnsgd1na2vs0mg"},{"bike_id":"d722cbee-e56d-4ce9-a696-3c734e50d542","system_id":"levelo_inurba_marseille","lat":43.289307,"lon":5.38406,"is_reserved":false,"is_disabled":false,"rental_uris":{"android":"levelo://app?vid=d722cbee-e56d-4ce9-a696-3c734e50d542","ios":"levelo://app?vid=d722cbee-e56d-4ce9-a696-3c734e50d542"},"vehicle_type_id":"4","last_reported":1715544411,"current_range_meters":17600,"station_id":"ce4bh612rcd13ifvqe6g","pricing_plan_id":"cebpf4jnsgd1na2vs0mg"},{"bike_id":"7dfd6f99-d433-4c9e-88d6-5e9f6965fd1b","system_id":"levelo_inurba_marseille","lat":43.298681,"lon":5.397225,"is_reserved":false,"is_disabled":false,"rental_uris":{"android":"levelo://app?vid=7dfd6f99-d433-4c9e-88d6-5e9f6965fd1b","ios":"levelo://app?vid=7dfd6f99-d433-4c9e-88d6-5e9f6965fd1b"},"vehicle_type_id":"4","last_reported":1715544411,"current_range_meters":4400,"station_id":"ce4bh0h2rcd13ifvqd50","pricing_plan_id":"cebpf4jnsgd1na2vs0mg"},{"bike_id":"b7f3c4ee-c2a4-4fe8-ba13-a33195883e0a","system_id":"levelo_inurba_marseille","lat":43.28703,"lon":5.3738,"is_reserved":false,"is_disabled":false,"rental_uris":{"android":"levelo://app?vid=b7f3c4ee-c2a4-4fe8-ba13-a33195883e0a","ios":"levelo://app?vid=b7f3c4ee-c2a4-4fe8-ba13-a33195883e0a"},"vehicle_type_id":"4","last_reported":1715544411,"current_range_meters":0,"station_id":"ce4bh3p2rcd13ifvqdq0","pricing_plan_id":"cebpf4jnsgd1na2vs0mg"},{"bike_id":"56b60055-9121-41a6-b5f3-fb16b2a718cb","system_id":"levelo_inurba_marseille","lat":43.30642,"lon":5.401031,"is_reserved":false,"is_disabled":false,"rental_uris":{"android":"levelo://app?vid=56b60055-9121-41a6-b5f3-fb16b2a718cb","ios":"levelo://app?vid=56b60055-9121-41a6-b5f3-fb16b2a718cb"},"vehicle_type_id":"4","last_reported":1715544411,"current_range_meters":17600,"station_id":"ce4bh112rcd13ifvqda0","pricing_plan_id":"cebpf4jnsgd1na2vs0mg"},