{"last_updated":1698498359,"ttl":30,"version":"2.2","data":{"bikes":[{"bike_id":"c6caa212-72bf-4941-8daa-51aab969b0d4","system_id":"levelo_inurba_marseille","lat":43.312239,"lon":5.368562,"is_reserved":false,"is_disabled":false,"rental_uris":{"android":"levelo://app?vid=c6caa212-72bf-4941-8daa-51aab969b0d4","ios":"levelo://app?vid=c6caa212-72bf-4941-8daa-51aab969b0d4"},"vehicle_type_id":"4","last_reported":1698498359,"current_range_meters":30400,"station_id":"ce4bgl92rcd13ifvqbq0","pricing_plan_id":"free"},{"bike_id":"c9978231-1229-4889-bbe8-07f9ff786d37","system_id":"levelo_inurba_marseille","lat":43.312239,"lon":5.368562,"is_reserved":false,"is_disabled":false,"rental_uris":{"android":"levelo://app?vid=c9978231-1229-4889-bbe8-07f9ff786d37","ios":"levelo://app?vid=c9978231-1229-4889-bbe8-07f9ff786d37"},"vehicle_type_id":"4","last_reported":1698498359,"current_range_meters":29600,"station_id":"ce4bgl92rcd13ifvqbq0","pricing_plan_id":"free"},{"bike_id":"b18e9e6b-a1f9-4214-bccf-c203588b7340","system_id":"levelo_inurba_marseille","lat":43.312239,"lon":5.368562,"is_reserved":false,"is_disabled":false,"rental_uris":{"android":"levelo://app?vid=b18e9e6b-a1f9-4214-bccf-c203588b7340","ios":"levelo://app?vid=b18e9e6b-a1f9-4214-bccf-c203588b7340"},"vehicle_type_id":"4","last_reported":1698498359,"current_range_meters":18000,"station_id":"ce4bgl92rcd13ifvqbq0","pricing_plan_id":"free"},{"bike_id":"ae8d16f4-3b31-49e4-9b61-d5d5dd88c388","system_id":"levelo_inurba_marseille","lat":43.312239,"lon":5.368562,"is_reserved":false,"is_disabled":false,"rental_uris":{"android":"levelo://app?vid=ae8d16f4-3b31-49e4-9b61-d5d5dd88c388","ios":"levelo://app?vid=ae8d16f4-3b31-49e4-9b61-d5d5dd88c388"},"vehicle_type_id":"4","last_reported":1698498359,"current_range_meters":31200,"station_id":"ce4bgl92rcd13ifvqbq0","pricing_plan_id":"free"},{"bike_id":"52ed6c9e-6f1d-46e9-b511-69e2834cf6df","system_id":"levelo_inurba_marseille","lat":43.314811,"lon":5.373103,"is_reserved":false,"is_disabled":false,"rental_uris":{"android":"levelo://app?vid=52ed6c9e-6f1d-46e9-b511-69e2834cf6df","ios":"levelo://app?vid=52ed6c9e-6f1d-46e9-b511-69e2834cf6df"},"vehicle_type_id":"4","last_reported":1698498359,"current_range_meters":14000,"station_id":"ce4bgt12rcd13ifvqcd0","pricing_plan_id":"free"},{"bike_id":"dbbdea51-7e3d-4271-bd96-c3aabecbd7e2","system_id":"levelo_inurba_marseille","lat":43.315783,"lon":5.372523,"is_reserved":false,"is_disabled":false,"rental_uris":{"android":"levelo://app?vid=dbbdea51-7e3d-4271-bd96-c3aabecbd7e2","ios":"levelo://app?vid=dbbdea51-7e3d-4271-bd96-c3aabecbd7e2"},"vehicle_type_id":"4","last_reported":1698498359,"current_range_meters":8000,"station_id":"","pricing_plan_id":"free"},{"bike_id":"458ac946-ea85-4d31-9763-ffc20b0c7da2","system_id":"levelo_inurba_marseille","lat":43.309039,"lon":5.371797,"is_reserved":false,"is_disabled":false,"rental_uris":{"android":"levelo://app?vid=458ac946-ea85-4d31-9763-ffc20b0c7da2","ios":"levelo://app?vid=458ac946-ea85-4d31-9763-ffc20b0c7da2"},"vehicle_type_id":"4","last_reported":1698498359,"current_range_meters":25200,"station_id":"ce4bguh2rcd13ifvqckg","pricing_plan_id":"free"},{"bike_id":"b8c338c6-4505-4f9e-bbcc-edb5d275a4fe","system_id":"levelo_inurba_marseille","lat":43.309039,"lon":5.371797,"is_reserved":false,"is_disabled":false,"rental_uris":{"android":"levelo://app?vid=b8c338c6-4505-4f9e-bbcc-edb5d275a4fe","ios":"levelo://app?vid=b8c338c6-4505-4f9e-bbcc-edb5d275a4fe"},"vehicle_type_id":"4","last_reported":1698498359,"current_range_meters":28400,"station_id":"ce4bguh2rcd13ifvqckg","pricing_plan_id":"free"},{"bike_id":"9deab848-1a95-4259-91a0-be62a401124d","system_id":"levelo_inurba_marseille","lat":43.305714,"lon":5.365633,"is_reserved":false,"is_disabled":false,"rental_uris":{"android":"levelo://app?vid=9deab848-1a95-4259-91a0-be62a401124d","ios":"levelo://app?vid=9deab848-1a95-4259-91a0-be62a401124d"},"vehicle_type_id":"4","last_reported":1698498359,"current_range_meters":25200,"station_id":"ce4bgs12rcd13ifvqcag","pricing_plan_id":"free"},{"bike_id":"4e4ad93b-e1c6-4bc8-b949-f43cf1f581fc","system_id":"levelo_inurba_marseille","lat":43.305714,"lon":5.365633,"is_reserved":false,"is_disabled":false,"rental_uris":{"android":"levelo://app?vid=4e4ad93b-e1c6-4bc8-b949-f43cf1f581fc","ios":"levelo://app?vid=4e4ad93b-e1c6-4bc8-b949-f43cf1f581fc"},"vehicle_type_id":"4","last_reported":1698498359,"current_range_meters":12000,"station_id":"ce4bgs12rcd13ifvqcag","pricing_plan_id":"free"},{"bike_id":"26339396-e48d-49bc-9c7d-f857acf8e656","system_id":"levelo_inurba_marseille","lat":43.30539,"lon":5.36558,"is_reserved":false,"is_disabled":false,"rental_uris":{"android":"levelo://app?vid=26339396-e48d-49bc-9c7d-f857acf8e656","ios":"levelo://app?vid=26339396-e48d-49bc-9c7d-f857acf8e656"},"vehicle_type_id":"4","last_reported":1698498359,"current_range_meters":12800,"station_id":"ce4bgs12rcd13ifvqcag","pricing_plan_id":"free"},{"bike_id":"7eef37c4-881a-4ec1-90a6-a7d819789a07","system_id":"levelo_inurba_marseille","lat":43.305373,"lon":5.365382,"is_reserved":false,"is_disabled":false,"rental_uris":{"android":"levelo://app?vid=7eef37c4-881a-4ec1-90a6-a7d819789a07","ios":"levelo://app?vid=7eef37c4-881a-4ec1-90a6-a7d819789a07"},"vehicle_type_id":"4","last_reported":1698498359,"current_range_meters":16000,"station_id":"ce4bgs12rcd13ifvqcag","pricing_plan_id":"free"},{"bike_id":"ced6f5ee-5a90-44f6-9547-67b07b154853","system_id":"levelo_inurba_marseille","lat":43.305706,"lon":5.365654,"is_reserved":false,"is_disabled":false,"rental_uris":{"android":"levelo://app?vid=ced6f5ee-5a90-44f6-9547-67b07b154853","ios":"levelo://app?vid=ced6f5ee-5a90-44f6-9547-67b07b154853"},"vehicle_type_id":"4","last_reported":1698498359,"current_range_meters":28400,"station_id":"ce4bgs12rcd13ifvqcag","pricing_plan_id":"free"},{"bike_id":"f252b071-dddd-4e5f-ad07-506846af6d1a","system_id":"levelo_inurba_marseille","lat":43.305714,"lon":5.365633,"is_reserved":false,"is_disabled":false,"rental_uris":{"android":"levelo://app?vid=f252b071-dddd-4e5f-ad07-506846af6d1a","ios":"levelo://app?vid=f252b071-dddd-4e5f-ad07-506846af6d1a"},"vehicle_type_id":"4","last_reported":1698498359,"current_range_meters":19600,"station_id":"ce4bgs12rcd13ifvqcag","pricing_plan_id":"free"},{"bike_id":"c98c517f-e688-4931-8665-e18bad980041","system_id":"levelo_inurba_marseille","lat":43.30536,"lon":5.36528,"is_reserved":false,"is_disabled":false,"rental_uris":{"android":"levelo://app?vid=c98c517f-e688-4931-8665-e18bad980041","ios":"levelo://app?vid=c98c517f-e688-4931-8665-e18bad980041"},"vehicle_type_id":"4","last_reported":1698498359,"current_range_meters":21200,"station_id":"","pricing_plan_id":"free"},{"bike_id":"b5cb91ee-ac0e-462e-89db-f4f453f0d81d","system_id":"levelo_inurba_marseille","lat":43.305706,"lon":5.365654,"is_reserved":false,"is_disabled":false,"rental_uris":{"android":"levelo://app?vid=b5cb91ee-ac0e-462e-89db-f4f453f0d81d","ios":"levelo://app?vid=b5cb91ee-ac0e-462e-89db-f4f453f0d81d"},"vehicle_type_id":"4","last_reported":1698498359,"current_range_meters":26800,"station_id":"ce4bgs12rcd13ifvqcag","pricing_plan_id":"free"},{"bike_id":"040b26a1-b74a-4012-8c0a-122f303b6c94","system_id":"levelo_inurba_marseille","lat":43.3053,"lon":5.36532,"is_reserved":false,"is_disabled":false,"rental_uris":{"android":"levelo://app?vid=040b26a1-b74a-4012-8c0a-122f303b6c94","ios":"levelo://app?vid=040b26a1-b74a-4012-8c0a-122f303b6c94"},"vehicle_type_id":"4","last_reported":1698498359,"current_range_meters":22800,"station_id":"ce4bgs12rcd13ifvqcag","pricing_plan_id":"free"},{"bike_id":"56a3dee9-23a7-4fd1-bfa5-ab06f723286f","system_id":"levelo_inurba_marseille","lat":43.317075,"lon":5.377367,"is_reserved":false,"is_disabled":false,"rental_uris":{"android":"levelo://app?vid=56a3dee9-23a7-4fd1-bfa5-ab06f723286f","ios":"levelo://app?vid=56a3dee9-23a7-4fd1-bfa5-ab06f723286f"},"vehicle_type_id":"4","last_reported":1698498359,"current_range_meters":31600,"station_id":"ce4bgth2rcd13ifvqch0","pricing_plan_id":"free"},{"bike_id":"e3f253a1-9788-4492-938f-39b642fbd881","system_id":"levelo_inurba_marseille","lat":43.32166,"lon":5.37095,"is_reserved":false,"is_disabled":false,"rental_uris":{"android":"levelo://app?vid=e3f253a1-9788-4492-938f-39b642fbd881","ios":"levelo://app?vid=e3f253a1-9788-4492-938f-39b642fbd881"},"vehicle_type_id":"4","last_reported":1698498359,"current_range_meters":8800,"station_id":"","pricing_plan_id":"free"},{"bike_id":"4ec60f9e-590a-4056-a12d-0d1497d332b0","system_id":"levelo_inurba_marseille","lat":43.301907,"lon":5.366303,"is_reserved":false,"is_disabled":false,"rental_uris":{"android":"levelo://app?vid=4ec60f9e-590a-4056-a12d-0d1497d332b0","ios":"levelo://app?vid=4ec60f9e-590a-4056-a12d-0d1497d332b0"},"vehicle_type_id":"4","last_reported":1698498359,"current_range_meters":2400,"station_id":"ce4bgrh2rcd13ifvqc8g","pricing_plan_id":"free"},{"bike_id":"0dac2059-a2f2-4c16-a07c-871d2d5c8612","system_id":"levelo_inurba_marseille","lat":43.301939,"lon":5.366286,"is_reserved":false,"is_disabled":false,"rental_uris":{"android":"levelo://app?vid=0dac2059-a2f2-4c16-a07c-871d2d5c8612","ios":"levelo://app?vid=0dac2059-a2f2-4c16-a07c-871d2d5c8612"},"vehicle_type_id":"4","last_reported":1698498359,"current_range_meters":16400,"station_id":"ce4bgrh2rcd13ifvqc8g","pricing_plan_id":"free"},{"bike_id":"52bd845f-835a-443b-afe8-009cd38a898b","system_id":"levelo_inurba_marseille","lat":43.308012,"lon":5.381511,"is_reserved":false,"is_disabled":false,"rental_uris":{"android":"levelo://app?vid=52bd845f-835a-443b-afe8-009cd38a898b","ios":"levelo://app?vid=52bd845f-835a-443b-afe8-009cd38a898b"},"vehicle_type_id":"4","last_reported":1698498359,"current_range_meters":27200,"station_id":"ce4bgt12rcd13ifvqce0","pricing_plan_id":"free"},{"bike_id":"d797f1e6-f3ca-4ad7-8b56-5ed6191da53c","system_id":"levelo_inurba_marseille","lat":43.304606,"lon":5.379026,"is_reserved":false,"is_disabled":false,"rental_uris":{"android":"levelo://app?vid=d797f1e6-f3ca-4ad7-8b56-5ed6191da53c","ios":"levelo://app?vid=d797f1e6-f3ca-4ad7-8b56-5ed6191da53c"},"vehicle_type_id":"4","last_reported":1698498359,"current_range_meters":30800,"station_id":"ce4bgup2rcd13ifvqcn0","pricing_plan_id":"free"},{"bike_id":"c156c093-c655-444a-a56b-9d2928206d5f","system_id":"levelo_inurba_marseille","lat":43.30463,"lon":5.3791,"is_reserved":false,"is_disabled":false,"rental_uris":{"android":"levelo://app?vid=c156c093-c655-444a-a56b-9d2928206d5f","ios":"levelo://app?vid=c156c093-c655-444a-a56b-9d2928206d5f"},"vehicle_type_id":"4","last_reported":1698498359,"current_range_meters":23600,"station_id":"ce4bgup2rcd13ifvqcn0","pricing_plan_id":"free"},{"bike_id":"1047bcc5-10ff-460b-bd6f-eac1d4a67db4","system_id":"levelo_inurba_marseille","lat":43.31745,"lon":5.382537,"is_reserved":false,"is_disabled":false,"rental_uris":{"android":"levelo://app?vid=1047bcc5-10ff-460b-bd6f-eac1d4a67db4","ios":"levelo://app?vid=1047bcc5-10ff-460b-bd6f-eac1d4a67db4"},"vehicle_type_id":"4","last_reported":1698498359,"current_range_meters":0,"station_id":"","pricing_plan_id":"free"},{"bike_id":"3ef288f2-e1ee-4fdc-9c5a-111b9e9a2313","system_id":"levelo_inurba_marseille","lat":43.302784,"lon":5.377158,"is_reserved":false,"is_disabled":false,"rental_uris":{"android":"levelo://app?vid=3ef288f2-e1ee-4fdc-9c5a-111b9e9a2313","ios":"levelo://app?vid=3ef288f2-e1ee-4fdc-9c5a-111b9e9a2313"},"vehicle_type_id":"4","last_reported":1698498359,"current_range_meters":13600,"station_id":"ce4bguh2rcd13ifvqcj0","pricing_plan_id":"free"},{"bike_id":"9da511e7-cd36-4557-b715-98862a74edc7","system_id":"levelo_inurba_marseille","lat":43.302784,"lon":5.377158,"is_reserved":false,"is_disabled":false,"rental_uris":{"android":"levelo://app?vid=9da511e7-cd36-4557-b715-98862a74edc7","ios":"levelo://app?vid=9da511e7-cd36-4557-b715-98862a74edc7"},"vehicle_type_id":"4","last_reported":1698498359,"current_range_meters":7600,"station_id":"ce4bguh2rcd13ifvqcj0","pricing_plan_id":"free"},{"bike_id":"38ade422-60c6-461f-b185-2b90fe9889bd","system_id":"levelo_inurba_marseille","lat":43.301429,"lon":5.37413,"is_reserved":false,"is_disabled":false,"rental_uris":{"android":"levelo://app?vid=38ade422-60c6-461f-b185-2b90fe9889bd","ios":"levelo://app?vid=38ade422-60c6-461f-b185-2b90fe9889bd"},"vehicle_type_id":"4","last_reported":1698498359,"current_range_meters":19600,"station_id":"ce4bgs92rcd13ifvqcc0","pricing_plan_id":"free"},{"bike_id":"8bd5ce1d-f3bc-4e89-9550-075eba8ae356","system_id":"levelo_inurba_marseille","lat":43.302784,"lon":5.377158,"is_reserved":false,"is_disabled":false,"rental_uris":{"android":"levelo://app?vid=8bd5ce1d-f3bc-4e89-9550-075eba8ae356","ios":"levelo://app?vid=8bd5ce1d-f3bc-4e89-9550-075eba8ae356"},"vehicle_type_id":"4","last_reported":1698498359,"current_range_meters":31600,"station_id":"ce4bguh2rcd13ifvqcj0","pricing_plan_id":"free"},{"bike_id":"eaf12d31-137b-43e8-a3a0-c79af6333db7","system_id":"levelo_inurba_marseille","lat":43.302784,"lon":5.377158,"is_reserved":false,"is_disabled":false,"rental_uris":{"android":"levelo://app?vid=eaf12d31-137b-43e8-a3a0-c79af6333db7","ios":"levelo://app?vid=eaf12d31-137b-43e8-a3a0-c79af6333db7"},"vehicle_type_id":"4","last_reported":1698498359,"current_range_meters":25200,"station_id":"ce4bguh2rcd13ifvqcj0","pricing_plan_id":"free"},{"bike_id":"60cb8787-095d-459e-be6f-a0fb12bc51ce","system_id":"levelo_inurba_marseille","lat":43.320055,"lon":5.381213,"is_reserved":false,"is_disabled":false,"rental_uris":{"android":"levelo://app?vid=60cb8787-095d-459e-be6f-a0fb12bc51ce","ios":"levelo://app?vid=60cb8787-095d-459e-be6f-a0fb12bc51ce"},"vehicle_type_id":"4","last_reported":1698498359,"current_range_meters":0,"station_id":"ce4bhr12rcd13ifvqhpg","pricing_plan_id":"free"},{"bike_id":"608be8b1-2271-4a8d-9fdc-07efb486958d","system_id":"levelo_inurba_marseille","lat":43.320031,"lon":5.381286,"is_reserved":false,"is_disabled":false,"rental_uris":{"android":"levelo://app?vid=608be8b1-2271-4a8d-9fdc-07efb486958d","ios":"levelo://app?vid=608be8b1-2271-4a8d-9fdc-07efb486958d"},"vehicle_type_id":"4","last_reported":1698498359,"current_range_meters":8000,"station_id":"ce4bhr12rcd13ifvqhpg","pricing_plan_id":"free"},{"bike_id":"30cab3fe-310c-4b37-9d08-4dd213d8ea73","system_id":"levelo_inurba_marseille","lat":43.313571,"lon":5.384829,"is_reserved":false,"is_disabled":false,"rental_uris":{"android":"levelo://app?vid=30cab3fe-310c-4b37-9d08-4dd213d8ea73","ios":"levelo://app?vid=30cab3fe-310c-4b37-9d08-4dd213d8ea73"},"vehicle_type_id":"4","last_reported":1698498359,"current_range_meters":22400,"station_id":"ce4bgt92rcd13ifvqcf0","pricing_plan_id":"free"},{"bike_id":"4597d961-1910-4ed2-9be4-7abb0c7705f7","system_id":"levelo_inurba_marseille","lat":43.297794,"lon":5.370888,"is_reserved":false,"is_disabled":false,"rental_uris":{"android":"levelo://app?vid=4597d961-1910-4ed2-9be4-7abb0c7705f7","ios":"levelo://app?vid=4597d961-1910-4ed2-9be4-7abb0c7705f7"},"vehicle_type_id":"4","last_reported":1698498359,"current_range_meters":25200,"station_id":"ce4bgop2rcd13ifvqc1g","pricing_plan_id":"free"},{"bike_id":"5ba66772-20b6-408d-a6c3-0df1cd4bb678","system_id":"levelo_inurba_marseille","lat":43.3264,"lon":5.367334,"is_reserved":false,"is_disabled":false,"rental_uris":{"android":"levelo://app?vid=5ba66772-20b6-408d-a6c3-0df1cd4bb678","ios":"levelo://app?vid=5ba66772-20b6-408d-a6c3-0df1cd4bb678"},"vehicle_type_id":"4","last_reported":1698498359,"current_range_meters":17600,"station_id":"","pricing_plan_id":"free"},{"bike_id":"7dc75b37-acd3-40a8-ba78-4f361b4379da","system_id":"levelo_inurba_marseille","lat":43.326415,"lon":5.367336,"is_reserved":false,"is_disabled":false,"rental_uris":{"android":"levelo://app?vid=7dc75b37-acd3-40a8-ba78-4f361b4379da","ios":"levelo://app?vid=7dc75b37-acd3-40a8-ba78-4f361b4379da"},"vehicle_type_id":"4","last_reported":1698498359,"current_range_meters":13600,"station_id":"ce4bhs92rcd13ifvqi0g","pricing_plan_id":"free"},{"bike_id":"44a461fc-3099-44f7-90f8-4d2a89617d9f","system_id":"levelo_inurba_marseille","lat":43.326434,"lon":5.367337,"is_reserved":false,"is_disabled":false,"rental_uris":{"android":"levelo://app?vid=44a461fc-3099-44f7-90f8-4d2a89617d9f","ios":"levelo://app?vid=44a461fc-3099-44f7-90f8-4d2a89617d9f"},"vehicle_type_id":"4","last_reported":1698498359,"current_range_meters":21200,"station_id":"","pricing_plan_id":"free"},{"bike_id":"aa453108-7e15-4b42-9fcc-747f43260123","system_id":"levelo_inurba_marseille","lat":43.31547,"lon":5.38644,"is_reserved":false,"is_disabled":false,"rental_uris":{"android":"levelo://app?vid=aa453108-7e15-4b42-9fcc-747f43260123","ios":"levelo://app?vid=aa453108-7e15-4b42-9fcc-747f43260123"},"vehicle_type_id":"4","last_reported":1698498359,"current_range_meters":4000,"station_id":"","pricing_plan_id":"free"},{"bike_id":"194715f0-65ad-4882-8751-bb225c573cf0","system_id":"levelo_inurba_marseille","lat":43.298433,"lon":5.362774,"is_reserved":false,"is_disabled":false,"rental_uris":{"android":"levelo://app?vid=194715f0-65ad-4882-8751-bb225c573cf0","ios":"levelo://app?vid=194715f0-65ad-4882-8751-bb225c573cf0"},"vehicle_type_id":"4","last_reported":1698498359,"current_range_meters":31200,"station_id":"ce4bgpp2rcd13ifvqc3g","pricing_plan_id":"free"},{"bike_id":"329d0214-f3e2-4fbd-af91-41425905a86b","system_id":"levelo_inurba_marseille","lat":43.298433,"lon":5.362774,"is_reserved":false,"is_disabled":false,"rental_uris":{"android":"levelo://app?vid=329d0214-f3e2-4fbd-af91-41425905a86b","ios":"levelo://app?vid=329d0214-f3e2-4fbd-af91-41425905a86b"},"vehicle_type_id":"4","last_reported":1698498359,"current_range_meters":6000,"station_id":"ce4bgpp2rcd13ifvqc3g","pricing_plan_id":"free"},{"bike_id":"1ac651e2-992b-42f2-9b7f-03ee6b43b1d4","system_id":"levelo_inurba_marseille","lat":43.298468,"lon":5.362843,"is_reserved":false,"is_disabled":false,"rental_uris":{"android":"levelo://app?vid=1ac651e2-992b-42f2-9b7f-03ee6b43b1d4","ios":"levelo://app?vid=1ac651e2-992b-42f2-9b7f-03ee6b43b1d4"},"vehicle_type_id":"4","last_reported":1698498359,"current_range_meters":31200,"station_id":"ce4bgpp2rcd13ifvqc3g","pricing_plan_id":"free"},{"bike_id":"673ee776-5295-4a19-966b-cafc558d4fc0","system_id":"levelo_inurba_marseille","lat":43.305364,"lon":5.384119,"is_reserved":false,"is_disabled":false,"rental_uris":{"android":"levelo://app?vid=673ee776-5295-4a19-966b-cafc558d4fc0","ios":"levelo://app?vid=673ee776-5295-4a19-966b-cafc558d4fc0"},"vehicle_type_id":"4","last_reported":1698498359,"current_range_meters":21200,"station_id":"ce4bgg92rcd13ifvqb30","pricing_plan_id":"free"},{"bike_id":"f63ab549-bd5c-4862-ae87-1afa1ac01e62","system_id":"levelo_inurba_marseille","lat":43.29844,"lon":5.36271,"is_reserved":false,"is_disabled":false,"rental_uris":{"android":"levelo://app?vid=f63ab549-bd5c-4862-ae87-1afa1ac01e62","ios":"levelo://app?vid=f63ab549-bd5c-4862-ae87-1afa1ac01e62"},"vehicle_type_id":"4","last_reported":1698498359,"current_range_meters":24400,"station_id":"ce4bgpp2rcd13ifvqc3g","pricing_plan_id":"free"},{"bike_id":"9162b7e5-7872-4b75-951b-0ef062237f7d","system_id":"levelo_inurba_marseille","lat":43.298433,"lon":5.362774,"is_reserved":false,"is_disabled":false,"rental_uris":{"android":"levelo://app?vid=9162b7e5-7872-4b75-951b-0ef062237f7d","ios":"levelo://app?vid=9162b7e5-7872-4b75-951b-0ef062237f7d"},"vehicle_type_id":"4","last_reported":1698498359,"current_range_meters":26000,"station_id":"ce4bgpp2rcd13ifvqc3g","pricing_plan_id":"free"},{"bike_id":"a5c36592-787a-4d17-90f9-0b8d29ed817a","system_id":"levelo_inurba_marseille","lat":43.299243,"lon":5.37481,"is_reserved":false,"is_disabled":false,"rental_uris":{"android":"levelo://app?vid=a5c36592-787a-4d17-90f9-0b8d29ed817a","ios":"levelo://app?vid=a5c36592-787a-4d17-90f9-0b8d29ed817a"},"vehicle_type_id":"4","last_reported":1698498359,"current_range_meters":9600,"station_id":"ce4bgjh2rcd13ifvqbg0","pricing_plan_id":"free"},{"bike_id":"83e76199-0912-4f11-a10b-659eccd00aba","system_id":"levelo_inurba_marseille","lat":43.299243,"lon":5.374807,"is_reserved":false,"is_disabled":false,"rental_uris":{"android":"levelo://app?vid=83e76199-0912-4f11-a10b-659eccd00aba","ios":"levelo://app?vid=83e76199-0912-4f11-a10b-659eccd00aba"},"vehicle_type_id":"4","last_reported":1698498359,"current_range_meters":22000,"station_id":"ce4bgjh2rcd13ifvqbg0","pricing_plan_id":"free"},{"bike_id":"b57dc74c-22f3-4961-a0c7-22cdf578c289","system_id":"levelo_inurba_marseille","lat":43.32644,"lon":5.37499,"is_reserved":false,"is_disabled":false,"rental_uris":{"android":"levelo://app?vid=b57dc74c-22f3-4961-a0c7-22cdf578c289","ios":"levelo://app?vid=b57dc74c-22f3-4961-a0c7-22cdf578c289"},"vehicle_type_id":"4","last_reported":1698498359,"current_range_meters":5200,"station_id":"","pricing_plan_id":"free"},{"bike_id":"53ac5cb3-ae8d-420e-83f0-7068ee5dc780","system_id":"levelo_inurba_marseille","lat":43.297794,"lon":5.370888,"is_reserved":false,"is_disabled":false,"rental_uris":{"android":"levelo://app?vid=53ac5cb3-ae8d-420e-83f0-7068ee5dc780","ios":"levelo://app?vid=53ac5cb3-ae8d-420e-83f0-7068ee5dc780"},"vehicle_type_id":"4","last_reported":1698498359,"current_range_meters":17200,"station_id":"ce4bgop2rcd13ifvqc1g","pricing_plan_id":"free"},{"bike_id":"9ebea4a1-fe4f-407d-88e2-239afec2997d","system_id":"levelo_inurba_marseille","lat":43.322872,"lon":5.382756,"is_reserved":false,"is_disabled":false,"rental_uris":{"android":"levelo://app?vid=9ebea4a1-fe4f-407d-88e2-239afec2997d","ios":"levelo://app?vid=9ebea4a1-fe4f-407d-88e2-239afec2997d"},"vehicle_type_id":"4","last_reported":1698498359,"current_range_meters":28400,"station_id":"ce4bhr12rcd13ifvqhqg","pricing_plan_id":"free"},{"bike_id":"0e8233d2-0d57-470f-8c07-e9f753046a4f","system_id":"levelo_inurba_marseille","lat":43.322872,"lon":5.382756,"is_reserved":false,"is_disabled":false,"rental_uris":{"android":"levelo://app?vid=0e8233d2-0d57-470f-8c07-e9f753046a4f","ios":"levelo://app?vid=0e8233d2-0d57-470f-8c07-e9f753046a4f"},"vehicle_type_id":"4","last_reported":1698498359,"current_range_meters":31200,"station_id":"ce4bhr12rcd13ifvqhqg","pricing_plan_id":"free"},{"bike_id":"d45fb2e2-880d-46d1-b1d5-8cda5f2471a4","system_id":"levelo_inurba_marseille","lat":43.328371,"lon":5.366909,"is_reserved":false,"is_disabled":false,"rental_uris":{"android":"levelo://app?vid=d45fb2e2-880d-46d1-b1d5-8cda5f2471a4","ios":"levelo://app?vid=d45fb2e2-880d-46d1-b1d5-8cda5f2471a4"},"vehicle_type_id":"4","last_reported":1698498359,"current_range_meters":30400,"station_id":"ce4bhs92rcd13ifvqi0g","pricing_plan_id":"free"},{"bike_id":"19e42d64-157d-40ae-b137-d8dfd0ff929e","system_id":"levelo_inurba_marseille","lat":43.328371,"lon":5.366909,"is_reserved":false,"is_disabled":false,"rental_uris":{"android":"levelo://app?vid=19e42d64-157d-40ae-b137-d8dfd0ff929e","ios":"levelo://app?vid=19e42d64-157d-40ae-b137-d8dfd0ff929e"},"vehicle_type_id":"4","last_reported":1698498359,"current_range_meters":30800,"station_id":"ce4bhs92rcd13ifvqi0g","pricing_plan_id":"free"},{"bike_id":"2a5f0f12-1641-4d39-a26a-6930d1747836","system_id":"levelo_inurba_marseille","lat":43.328371,"lon":5.366909,"is_reserved":false,"is_disabled":false,"rental_uris":{"android":"levelo://app?vid=2a5f0f12-1641-4d39-a26a-6930d1747836","ios":"levelo://app?vid=2a5f0f12-1641-4d39-a26a-6930d1747836"},"vehicle_type_id":"4","last_reported":1698498359,"current_range_meters":31200,"station_id":"ce4bhs92rcd13ifvqi0g","pricing_plan_id":"free"},{"bike_id":"31130dc6-5ed8-4293-b413-320ec368d91d","system_id":"levelo_inurba_marseille","lat":43.328371,"lon":5.366909,"is_reserved":false,"is_disabled":false,"rental_uris":{"android":"levelo://app?vid=31130dc6-5ed8-4293-b413-320ec368d91d","ios":"levelo://app?vid=31130dc6-5ed8-4293-b413-320ec368d91d"},"vehicle_type_id":"4","last_reported":1698498359,"current_range_meters":31200,"station_id":"ce4bhs92rcd13ifvqi0g","pricing_plan_id":"free"},{"bike_id":"2bf09692-7151-4aba-9fa7-8ce1d6106004","system_id":"levelo_inurba_marseille","lat":43.328303,"lon":5.366873,"is_reserved":false,"is_disabled":false,"rental_uris":{"android":"levelo://app?vid=2bf09692-7151-4aba-9fa7-8ce1d6106004","ios":"levelo://app?vid=2bf09692-7151-4aba-9fa7-8ce1d6106004"},"vehicle_type_id":"4","last_reported":1698498359,"current_range_meters":13200,"station_id":"","pricing_plan_id":"free"},{"bike_id":"a9aa720c-2c3a-44d6-a5ac-73cba80bea1d","system_id":"levelo_inurba_marseille","lat":43.328316,"lon":5.366746,"is_reserved":false,"is_disabled":false,"rental_uris":{"android":"levelo://app?vid=a9aa720c-2c3a-44d6-a5ac-73cba80bea1d","ios":"levelo://app?vid=a9aa720c-2c3a-44d6-a5ac-73cba80bea1d"},"vehicle_type_id":"4","last_reported":1698498359,"current_range_meters":4000,"station_id":"ce4bhs92rcd13ifvqi0g","pricing_plan_id":"free"},{"bike_id":"d9b85d54-96b3-4a3d-b7f8-56bcf6efa423","system_id":"levelo_inurba_marseille","lat":43.328371,"lon":5.366909,"is_reserved":false,"is_disabled":false,"rental_uris":{"android":"levelo://app?vid=d9b85d54-96b3-4a3d-b7f8-56bcf6efa423","ios":"levelo://app?vid=d9b85d54-96b3-4a3d-b7f8-56bcf6efa423"},"vehicle_type_id":"4","last_reported":1698498359,"current_range_meters":9600,"station_id":"ce4bhs92rcd13ifvqi0g","pricing_plan_id":"free"},{"bike_id":"74969574-3604-4c5d-839b-c8dc1379693c","system_id":"levelo_inurba_marseille","lat":43.32834,"lon":5.36679,"is_reserved":false,"is_disabled":false,"rental_uris":{"android":"levelo://app?vid=74969574-3604-4c5d-839b-c8dc1379693c","ios":"levelo://app?vid=74969574-3604-4c5d-839b-c8dc1379693c"},"vehicle_type_id":"4","last_reported":1698498359,"current_range_meters":18000,"station_id":"ce4bhs92rcd13ifvqi0g","pricing_plan_id":"free"},{"bike_id":"0f907e2c-05e8-48dc-a620-d7931b7cd65a","system_id":"levelo_inurba_marseille","lat":43.328371,"lon":5.366909,"is_reserved":false,"is_disabled":false,"rental_uris":{"android":"levelo://app?vid=0f907e2c-05e8-48dc-a620-d7931b7cd65a","ios":"levelo://app?vid=0f907e2c-05e8-48dc-a620-d7931b7cd65a"},"vehicle_type_id":"4","last_reported":1698498359,"current_range_meters":28000,"station_id":"ce4bhs92rcd13ifvqi0g","pricing_plan_id":"free"},{"bike_id":"d6eb6fa4-047c-44a7-b556-d9d81b21158e","system_id":"levelo_inurba_marseille","lat":43.29573,"lon":5.367355,"is_reserved":false,"is_disabled":false,"rental_uris":{"android":"levelo://app?vid=d6eb6fa4-047c-44a7-b556-d9d81b21158e","ios":"levelo://app?vid=d6eb6fa4-047c-44a7-b556-d9d81b21158e"},"vehicle_type_id":"4","last_reported":1698498359,"current_range_meters":31600,"station_id":"ce4bgph2rcd13ifvqc2g","pricing_plan_id":"free"},{"bike_id":"f3d0381f-7a2d-409e-a12f-bd3d9095653d","system_id":"levelo_inurba_marseille","lat":43.329673,"lon":5.365468,"is_reserved":false,"is_disabled":false,"rental_uris":{"android":"levelo://app?vid=f3d0381f-7a2d-409e-a12f-bd3d9095653d","ios":"levelo://app?vid=f3d0381f-7a2d-409e-a12f-bd3d9095653d"},"vehicle_type_id":"4","last_reported":1698498359,"current_range_meters":5200,"station_id":"","pricing_plan_id":"free"},{"bike_id":"5270f8f8-ce57-4abf-bc5c-64cf0a744521","system_id":"levelo_inurba_marseille","lat":43.32343,"lon":5.38512,"is_reserved":false,"is_disabled":false,"rental_uris":{"android":"levelo://app?vid=5270f8f8-ce57-4abf-bc5c-64cf0a744521","ios":"levelo://app?vid=5270f8f8-ce57-4abf-bc5c-64cf0a744521"},"vehicle_type_id":"4","last_reported":1698498359,"current_range_meters":0,"station_id":"ce4bhqp2rcd13ifvqhog","pricing_plan_id":"free"},{"bike_id":"86281dd2-6630-4ca7-a419-15fda787aca3","system_id":"levelo_inurba_marseille","lat":43.30949,"lon":5.39028,"is_reserved":false,"is_disabled":false,"rental_uris":{"android":"levelo://app?vid=86281dd2-6630-4ca7-a419-15fda787aca3","ios":"levelo://app?vid=86281dd2-6630-4ca7-a419-15fda787aca3"},"vehicle_type_id":"4","last_reported":1698498359,"current_range_meters":12800,"station_id":"ce4bgup2rcd13ifvqco0","pricing_plan_id":"free"},{"bike_id":"19cb6c01-1515-483d-a86c-c461189eb3a1","system_id":"levelo_inurba_marseille","lat":43.295748,"lon":5.37522,"is_reserved":false,"is_disabled":false,"rental_uris":{"android":"levelo://app?vid=19cb6c01-1515-483d-a86c-c461189eb3a1","ios":"levelo://app?vid=19cb6c01-1515-483d-a86c-c461189eb3a1"},"vehicle_type_id":"4","last_reported":1698498359,"current_range_meters":23200,"station_id":"ce4bgh92rcd13ifvqb50","pricing_plan_id":"free"},{"bike_id":"e538fdb6-e775-45f8-91cd-8b131485907e","system_id":"levelo_inurba_marseille","lat":43.304274,"lon":5.388873,"is_reserved":false,"is_disabled":false,"rental_uris":{"android":"levelo://app?vid=e538fdb6-e775-45f8-91cd-8b131485907e","ios":"levelo://app?vid=e538fdb6-e775-45f8-91cd-8b131485907e"},"vehicle_type_id":"4","last_reported":1698498359,"current_range_meters":10400,"station_id":"ce4bgk12rcd13ifvqbi0","pricing_plan_id":"free"},{"bike_id":"8b8c29ae-a5b2-44b4-a1a6-2248097f896d","system_id":"levelo_inurba_marseille","lat":43.295622,"lon":5.375288,"is_reserved":false,"is_disabled":false,"rental_uris":{"android":"levelo://app?vid=8b8c29ae-a5b2-44b4-a1a6-2248097f896d","ios":"levelo://app?vid=8b8c29ae-a5b2-44b4-a1a6-2248097f896d"},"vehicle_type_id":"4","last_reported":1698498359,"current_range_meters":0,"station_id":"ce4bgh92rcd13ifvqb50","pricing_plan_id":"free"},{"bike_id":"04b49b7e-77ad-44b9-b0c9-3fda8120bd6d","system_id":"levelo_inurba_marseille","lat":43.296263,"lon":5.377094,"is_reserved":false,"is_disabled":false,"rental_uris":{"android":"levelo://app?vid=04b49b7e-77ad-44b9-b0c9-3fda8120bd6d","ios":"levelo://app?vid=04b49b7e-77ad-44b9-b0c9-3fda8120bd6d"},"vehicle_type_id":"4","last_reported":1698498359,"current_range_meters":0,"station_id":"ce4bgi92rcd13ifvqb90","pricing_plan_id":"free"},{"bike_id":"50ba0a4e-dc52-4b36-bbea-ef74378b458b","system_id":"levelo_inurba_marseille","lat":43.29698,"lon":5.3812,"is_reserved":false,"is_disabled":false,"rental_uris":{"android":"levelo://app?vid=50ba0a4e-dc52-4b36-bbea-ef74378b458b","ios":"levelo://app?vid=50ba0a4e-dc52-4b36-bbea-ef74378b458b"},"vehicle_type_id":"4","last_reported":1698498359,"current_range_meters":0,"station_id":"","pricing_plan_id":"free"},{"bike_id":"b7bac6ed-3a43-43af-8fd8-df24eb55eea7","system_id":"levelo_inurba_marseille","lat":43.323668,"lon":5.388812,"is_reserved":false,"is_disabled":false,"rental_uris":{"android":"levelo://app?vid=b7bac6ed-3a43-43af-8fd8-df24eb55eea7","ios":"levelo://app?vid=b7bac6ed-3a43-43af-8fd8-df24eb55eea7"},"vehicle_type_id":"4","last_reported":1698498359,"current_range_meters":6400,"station_id":"","pricing_plan_id":"free"},{"bike_id":"6c7fa3d7-f148-4f17-a4f4-e92f76a23f9a","system_id":"levelo_inurba_marseille","lat":43.29602,"lon":5.381084,"is_reserved":false,"is_disabled":false,"rental_uris":{"android":"levelo://app?vid=6c7fa3d7-f148-4f17-a4f4-e92f76a23f9a","ios":"levelo://app?vid=6c7fa3d7-f148-4f17-a4f4-e92f76a23f9a"},"vehicle_type_id":"4","last_reported":1698498359,"current_range_meters":13200,"station_id":"ce4bgl12rcd13ifvqbo0","pricing_plan_id":"free"},{"bike_id":"bbab7e28-ee01-4080-b12e-dd8baccd43d0","system_id":"levelo_inurba_marseille","lat":43.32394,"lon":5.389747,"is_reserved":false,"is_disabled":false,"rental_uris":{"android":"levelo://app?vid=bbab7e28-ee01-4080-b12e-dd8baccd43d0","ios":"levelo://app?vid=bbab7e28-ee01-4080-b12e-dd8baccd43d0"},"vehicle_type_id":"4","last_reported":1698498359,"current_range_meters":9200,"station_id":"","pricing_plan_id":"free"},{"bike_id":"d7f347e9-ce81-4498-b37b-555e8cca3483","system_id":"levelo_inurba_marseille","lat":43.305994,"lon":5.393687,"is_reserved":false,"is_disabled":false,"rental_uris":{"android":"levelo://app?vid=d7f347e9-ce81-4498-b37b-555e8cca3483","ios":"levelo://app?vid=d7f347e9-ce81-4498-b37b-555e8cca3483"},"vehicle_type_id":"4","last_reported":1698498359,"current_range_meters":1200,"station_id":"ce4bh0p2rcd13ifvqd80","pricing_plan_id":"free"},{"bike_id":"c86d16f5-35cf-472e-9d64-6fbb233a8ba6","system_id":"levelo_inurba_marseille","lat":43.2936,"lon":5.37835,"is_reserved":false,"is_disabled":false,"rental_uris":{"android":"levelo://app?vid=c86d16f5-35cf-472e-9d64-6fbb233a8ba6","ios":"levelo://app?vid=c86d16f5-35cf-472e-9d64-6fbb233a8ba6"},"vehicle_type_id":"4","last_reported":1698498359,"current_range_meters":12400,"station_id":"ce4bgjh2rcd13ifvqbf0","pricing_plan_id":"free"},{"bike_id":"02ca4b71-b06a-4ec3-9b2b-f32e1b9ec82c","system_id":"levelo_inurba_marseille","lat":43.29197,"lon":5.35788,"is_reserved":false,"is_disabled":false,"rental_uris":{"android":"levelo://app?vid=02ca4b71-b06a-4ec3-9b2b-f32e1b9ec82c","ios":"levelo://app?vid=02ca4b71-b06a-4ec3-9b2b-f32e1b9ec82c"},"vehicle_type_id":"4","last_reported":1698498359,"current_range_meters":4000,"station_id":"ce4bhb12rcd13ifvqel0","pricing_plan_id":"free"},{"bike_id":"2f94da5e-e549-45fe-9cbf-31d9fe2c532c","system_id":"levelo_inurba_marseille","lat":43.29529,"lon":5.385581,"is_reserved":false,"is_disabled":false,"rental_uris":{"android":"levelo://app?vid=2f94da5e-e549-45fe-9cbf-31d9fe2c532c","ios":"levelo://app?vid=2f94da5e-e549-45fe-9cbf-31d9fe2c532c"},"vehicle_type_id":"4","last_reported":1698498359,"current_range_meters":13200,"station_id":"ce4bgih2rcd13ifvqba0","pricing_plan_id":"free"},{"bike_id":"126d4670-e812-40c6-9f2a-535ee2ec9a6b","system_id":"levelo_inurba_marseille","lat":43.33219,"lon":5.38149,"is_reserved":false,"is_disabled":false,"rental_uris":{"android":"levelo://app?vid=126d4670-e812-40c6-9f2a-535ee2ec9a6b","ios":"levelo://app?vid=126d4670-e812-40c6-9f2a-535ee2ec9a6b"},"vehicle_type_id":"4","last_reported":1698498359,"current_range_meters":0,"station_id":"","pricing_plan_id":"free"},{"bike_id":"d445e7dc-8f39-4198-8d15-1838ad42556e","system_id":"levelo_inurba_marseille","lat":43.30202,"lon":5.394678,"is_reserved":false,"is_disabled":false,"rental_uris":{"android":"levelo://app?vid=d445e7dc-8f39-4198-8d15-1838ad42556e","ios":"levelo://app?vid=d445e7dc-8f39-4198-8d15-1838ad42556e"},"vehicle_type_id":"4","last_reported":1698498359,"current_range_meters":18000,"station_id":"ce4bh0p2rcd13ifvqd70","pricing_plan_id":"free"},{"bike_id":"3ba9337c-3a4c-4b79-bb22-9c08f678ee27","system_id":"levelo_inurba_marseille","lat":43.3339,"lon":5.37907,"is_reserved":false,"is_disabled":false,"rental_uris":{"android":"levelo://app?vid=3ba9337c-3a4c-4b79-bb22-9c08f678ee27","ios":"levelo://app?vid=3ba9337c-3a4c-4b79-bb22-9c08f678ee27"},"vehicle_type_id":"4","last_reported":1698498359,"current_range_meters":14800,"station_id":"","pricing_plan_id":"free"},{"bike_id":"367f0b8d-fdcd-4558-8a16-217710ffdc92","system_id":"levelo_inurba_marseille","lat":43.294153,"lon":5.386305,"is_reserved":false,"is_disabled":false,"rental_uris":{"android":"levelo://app?vid=367f0b8d-fdcd-4558-8a16-217710ffdc92","ios":"levelo://app?vid=367f0b8d-fdcd-4558-8a16-217710ffdc92"},"vehicle_type_id":"4","last_reported":1698498359,"current_range_meters":800,"station_id":"ce4bh2h2rcd13ifvqdh0","pricing_plan_id":"free"},{"bike_id":"6cf2e859-5fee-4106-8d9c-9ead95da2a0e","system_id":"levelo_inurba_marseille","lat":43.289184,"lon":5.366408,"is_reserved":false,"is_disabled":false,"rental_uris":{"android":"levelo://app?vid=6cf2e859-5fee-4106-8d9c-9ead95da2a0e","ios":"levelo://app?vid=6cf2e859-5fee-4106-8d9c-9ead95da2a0e"},"vehicle_type_id":"4","last_reported":1698498359,"current_range_meters":9600,"station_id":"ce4bhap2rcd13ifvqek0","pricing_plan_id":"free"},{"bike_id":"9f303a6b-8080-469d-9347-09d9ea7e6365","system_id":"levelo_inurba_marseille","lat":43.289184,"lon":5.366408,"is_reserved":false,"is_disabled":false,"rental_uris":{"android":"levelo://app?vid=9f303a6b-8080-469d-9347-09d9ea7e6365","ios":"levelo://app?vid=9f303a6b-8080-469d-9347-09d9ea7e6365"},"vehicle_type_id":"4","last_reported":1698498359,"current_range_meters":0,"station_id":"ce4bhap2rcd13ifvqek0","pricing_plan_id":"free"},{"bike_id":"70eff93c-b6b0-46b7-99a3-742c38070b6f","system_id":"levelo_inurba_marseille","lat":43.289468,"lon":5.363719,"is_reserved":false,"is_disabled":false,"rental_uris":{"android":"levelo://app?vid=70eff93c-b6b0-46b7-99a3-742c38070b6f","ios":"levelo://app?vid=70eff93c-b6b0-46b7-99a3-742c38070b6f"},"vehicle_type_id":"4","last_reported":1698498359,"current_range_meters":19600,"station_id":"ce4bhc92rcd13ifvqetg","pricing_plan_id":"free"},{"bike_id":"7cf0d677-b9f0-4b88-ad5d-a0fbf3f52bea","system_id":"levelo_inurba_marseille","lat":43.289468,"lon":5.363719,"is_reserved":false,"is_disabled":false,"rental_uris":{"android":"levelo://app?vid=7cf0d677-b9f0-4b88-ad5d-a0fbf3f52bea","ios":"levelo://app?vid=7cf0d677-b9f0-4b88-ad5d-a0fbf3f52bea"},"vehicle_type_id":"4","last_reported":1698498359,"current_range_meters":4400,"station_id":"ce4bhc92rcd13ifvqetg","pricing_plan_id":"free"},{"bike_id":"316206b5-95a2-434c-afee-6f652d0607a4","system_id":"levelo_inurba_marseille","lat":43.290494,"lon":5.377476,"is_reserved":false,"is_disabled":false,"rental_uris":{"android":"levelo://app?vid=316206b5-95a2-434c-afee-6f652d0607a4","ios":"levelo://app?vid=316206b5-95a2-434c-afee-6f652d0607a4"},"vehicle_type_id":"4","last_reported":1698498359,"current_range_meters":20400,"station_id":"","pricing_plan_id":"free"},{"bike_id":"b91b4758-cc48-4403-a8f3-71acca758b5f","system_id":"levelo_inurba_marseille","lat":43.290103,"lon":5.356114,"is_reserved":false,"is_disabled":false,"rental_uris":{"android":"levelo://app?vid=b91b4758-cc48-4403-a8f3-71acca758b5f","ios":"levelo://app?vid=b91b4758-cc48-4403-a8f3-71acca758b5f"},"vehicle_type_id":"4","last_reported":1698498359,"current_range_meters":18400,"station_id":"ce4bhb92rcd13ifvqen0","pricing_plan_id":"free"},{"bike_id":"9b2690d5-6132-4b1f-ac89-be215e5b2686","system_id":"levelo_inurba_marseille","lat":43.33039,"lon":5.38921,"is_reserved":false,"is_disabled":false,"rental_uris":{"android":"levelo://app?vid=9b2690d5-6132-4b1f-ac89-be215e5b2686","ios":"levelo://app?vid=9b2690d5-6132-4b1f-ac89-be215e5b2686"},"vehicle_type_id":"4","last_reported":1698498359,"current_range_meters":9600,"station_id":"ce4bhr92rcd13ifvqhrg","pricing_plan_id":"free"},{"bike_id":"c3a594b7-25ef-43ff-b1b5-b73d039f95a4","system_id":"levelo_inurba_marseille","lat":43.291374,"lon":5.383094,"is_reserved":false,"is_disabled":false,"rental_uris":{"android":"levelo://app?vid=c3a594b7-25ef-43ff-b1b5-b73d039f95a4","ios":"levelo://app?vid=c3a594b7-25ef-43ff-b1b5-b73d039f95a4"},"vehicle_type_id":"4","last_reported":1698498359,"current_range_meters":400,"station_id":"","pricing_plan_id":"free"},{"bike_id":"ae9a66dd-43b3-4aa5-b399-18ce0d250f39","system_id":"levelo_inurba_marseille","lat":43.312812,"lon":5.401687,"is_reserved":false,"is_disabled":false,"rental_uris":{"android":"levelo://app?vid=ae9a66dd-43b3-4aa5-b399-18ce0d250f39","ios":"levelo://app?vid=ae9a66dd-43b3-4aa5-b399-18ce0d250f39"},"vehicle_type_id":"4","last_reported":1698498359,"current_range_meters":26400,"station_id":"ce4bh092rcd13ifvqd30","pricing_plan_id":"free"},{"bike_id":"b8b86af1-cec4-4342-9ccd-63b72ae54516","system_id":"levelo_inurba_marseille","lat":43.33749,"lon":5.374395,"is_reserved":false,"is_disabled":false,"rental_uris":{"android":"levelo://app?vid=b8b86af1-cec4-4342-9ccd-63b72ae54516","ios":"levelo://app?vid=b8b86af1-cec4-4342-9ccd-63b72ae54516"},"vehicle_type_id":"4","last_reported":1698498359,"current_range_meters":31200,"station_id":"","pricing_plan_id":"free"},{"bike_id":"ff1215a5-a99f-44e8-b91f-1103dd9599eb","system_id":"levelo_inurba_marseille","lat":43.309371,"lon":5.401449,"is_reserved":false,"is_disabled":false,"rental_uris":{"android":"levelo://app?vid=ff1215a5-a99f-44e8-b91f-1103dd9599eb","ios":"levelo://app?vid=ff1215a5-a99f-44e8-b91f-1103dd9599eb"},"vehicle_type_id":"4","last_reported":1698498359,"current_range_meters":13200,"station_id":"ce4bgvp2rcd13ifvqct0","pricing_plan_id":"free"},{"bike_id":"4daf1309-3dd7-466c-a685-d3ed4a7f541a","system_id":"levelo_inurba_marseille","lat":43.291994,"lon":5.392907,"is_reserved":false,"is_disabled":false,"rental_uris":{"android":"levelo://app?vid=4daf1309-3dd7-466c-a685-d3ed4a7f541a","ios":"levelo://app?vid=4daf1309-3dd7-466c-a685-d3ed4a7f541a"},"vehicle_type_id":"4","last_reported":1698498359,"current_range_meters":0,"station_id":"ce4bh192rcd13ifvqdd0","pricing_plan_id":"free"},{"bike_id":"a611ad20-6b93-47a9-a662-560d909d33c1","system_id":"levelo_inurba_marseille","lat":43.286591,"lon":5.363346,"is_reserved":false,"is_disabled":false,"rental_uris":{"android":"levelo://app?vid=a611ad20-6b93-47a9-a662-560d909d33c1","ios":"levelo://app?vid=a611ad20-6b93-47a9-a662-560d909d33c1"},"vehicle_type_id":"4","last_reported":1698498359,"current_range_meters":1200,"station_id":"ce4bhah2rcd13ifvqej0","pricing_plan_id":"free"},{"bike_id":"44d40a1d-56df-44fd-962a-0a03eaea3bc4","system_id":"levelo_inurba_marseille","lat":43.286593,"lon":5.363346,"is_reserved":false,"is_disabled":false,"rental_uris":{"android":"levelo://app?vid=44d40a1d-56df-44fd-962a-0a03eaea3bc4","ios":"levelo://app?vid=44d40a1d-56df-44fd-962a-0a03eaea3bc4"},"vehicle_type_id":"4","last_reported":1698498359,"current_range_meters":0,"station_id":"ce4bhah2rcd13ifvqej0","pricing_plan_id":"free"},{"bike_id":"d424870f-1a88-44c9-badc-e04791b8af37","system_id":"levelo_inurba_marseille","lat":43.29868,"lon":5.39734,"is_reserved":false,"is_disabled":false,"rental_uris":{"android":"levelo://app?vid=d424870f-1a88-44c9-badc-e04791b8af37","ios":"levelo://app?vid=d424870f-1a88-44c9-badc-e04791b8af37"},"vehicle_type_id":"4","last_reported":1698498359,"current_range_meters":0,"station_id":"ce4bh0h2rcd13ifvqd50","pricing_plan_id":"free"},{"bike_id":"b347fb81-4172-4147-a583-fc40e77f4370","system_id":"levelo_inurba_marseille","lat":43.302759,"lon":5.400793,"is_reserved":false,"is_disabled":false,"rental_uris":{"android":"levelo://app?vid=b347fb81-4172-4147-a583-fc40e77f4370","ios":"levelo://app?vid=b347fb81-4172-4147-a583-fc40e77f4370"},"vehicle_type_id":"4","last_reported":1698498359,"current_range_meters":13600,"station_id":"ce4bgvh2rcd13ifvqcs0","pricing_plan_id":"free"},{"bike_id":"8663b1fd-3c18-4343-bcb4-dd4b8c6b7495","system_id":"levelo_inurba_marseille","lat":43.302759,"lon":5.400793,"is_reserved":false,"is_disabled":false,"rental_uris":{"android":"levelo://app?vid=8663b1fd-3c18-4343-bcb4-dd4b8c6b7495","ios":"levelo://app?vid=8663b1fd-3c18-4343-bcb4-dd4b8c6b7495"},"vehicle_type_id":"4","last_reported":1698498359,"current_range_meters":4400,"station_id":"ce4bgvh2rcd13ifvqcs0","pricing_plan_id":"free"},{"bike_id":"3a231a62-c64c-4126-a31f-d269254a3c0a","system_id":"levelo_inurba_marseille","lat":43.302759,"lon":5.400793,"is_reserved":false,"is_disabled":false,"rental_uris":{"android":"levelo://app?vid=3a231a62-c64c-4126-a31f-d269254a3c0a","ios":"levelo://app?vid=3a231a62-c64c-4126-a31f-d269254a3c0a"},"vehicle_type_id":"4","last_reported":1698498359,"current_range_meters":3600,"station_id":"ce4bgvh2rcd13ifvqcs0","pricing_plan_id":"free"},{"bike_id":"d6ac773e-9f79-4701-b12d-7c6cf01db75e","system_id":"levelo_inurba_marseille","lat":43.289307,"lon":5.38406,"is_reserved":false,"is_disabled":false,"rental_uris":{"android":"levelo://app?vid=d6ac773e-9f79-4701-b12d-7c6cf01db75e","ios":"levelo://app?vid=d6ac773e-9f79-4701-b12d-7c6cf01db75e"},"vehicle_type_id":"4","last_reported":1698498359,"current_range_meters":6800,"station_id":"ce4bh612rcd13ifvqe6g","pricing_plan_id":"free"},{"bike_id":"0595a62d-7597-4711-bfa1-c1bf961125f8","system_id":"levelo_inurba_marseille","lat":43.302759,"lon":5.400793,"is_reserved":false,"is_disabled":false,"rental_uris":{"android":"levelo://app?vid=0595a62d-7597-4711-bfa1-c1bf961125f8","ios":"levelo://app?vid=0595a62d-7597-4711-bfa1-c1bf961125f8"},"vehicle_type_id":"4","last_reported":1698498359,"current_range_meters":24000,"station_id":"ce4bgvh2rcd13ifvqcs0","pricing_plan_id":"free"},{"bike_id":"1e86a61d-06bc-4f5c-811d-3a2fb3383324","system_id":"levelo_inurba_marseille","lat":43.31649,"lon":5.40434,"is_reserved":false,"is_disabled":false,"rental_uris":{"android":"levelo://app?vid=1e86a61d-06bc-4f5c-811d-3a2fb3383324","ios":"levelo://app?vid=1e86a61d-06bc-4f5c-811d-3a2fb3383324"},"vehicle_type_id":"4","last_reported":1698498359,"current_range_meters":31200,"station_id":"ce4bh012rcd13ifvqd00","pricing_plan_id":"free"},{"bike_id":"da7df19b-6d68-4294-86be-2c2629ba5a44","system_id":"levelo_inurba_marseille","lat":43.31645,"lon":5.40438,"is_reserved":false,"is_disabled":false,"rental_uris":{"android":"levelo://app?vid=da7df19b-6d68-4294-86be-2c2629ba5a44","ios":"levelo://app?vid=da7df19b-6d68-4294-86be-2c2629ba5a44"},"vehicle_type_id":"4","last_reported":1698498359,"current_range_meters":29200,"station_id":"ce4bh012rcd13ifvqd00","pricing_plan_id":"free"},{"bike_id":"97e9fd41-909a-41b8-b92c-823edb64fb83","system_id":"levelo_inurba_marseille","lat":43.273609,"lon":5.362708,"is_reserved":false,"is_disabled":false,"rental_uris":{"android":"levelo://app?vid=97e9fd41-909a-41b8-b92c-823edb64fb83","ios":"levelo://app?vid=97e9fd41-909a-41b8-b92c-823edb64fb83"},"vehicle_type_id":"4","last_reported":1698498359,"current_range_meters":26400,"station_id":"ce4bhbh2rcd13ifvqeo0","pricing_plan_id":"free"},{"bike_id":"c9742148-b87c-475a-abc8-45b5b470ed7f","system_id":"levelo_inurba_marseille","lat":43.285856,"lon":5.350771,"is_reserved":false,"is_disabled":false,"rental_uris":{"android":"levelo://app?vid=c9742148-b87c-475a-abc8-45b5b470ed7f","ios":"levelo://app?vid=c9742148-b87c-475a-abc8-45b5b470ed7f"},"vehicle_type_id":"4","last_reported":1698498359,"current_range_meters":10400,"station_id":"ce4bhch2rcd13ifvqeug","pricing_plan_id":"free"},{"bike_id":"9913a7de-041f-4558-9c9f-bcb11c25c7f7","system_id":"levelo_inurba_marseille","lat":43.28615,"lon":5.35101,"is_reserved":false,"is_disabled":false,"rental_uris":{"android":"levelo://app?vid=9913a7de-041f-4558-9c9f-bcb11c25c7f7","ios":"levelo://app?vid=9913a7de-041f-4558-9c9f-bcb11c25c7f7"},"vehicle_type_id":"4","last_reported":1698498359,"current_range_meters":18800,"station_id":"ce4bhch2rcd13ifvqeug","pricing_plan_id":"free"},{"bike_id":"d41c0283-5083-459e-bc0e-55c299be791b","system_id":"levelo_inurba_marseille","lat":43.2861,"lon":5.35113,"is_reserved":false,"is_disabled":false,"rental_uris":{"android":"levelo://app?vid=d41c0283-5083-459e-bc0e-55c299be791b","ios":"levelo://app?vid=d41c0283-5083-459e-bc0e-55c299be791b"},"vehicle_type_id":"4","last_reported":1698498359,"current_range_meters":26000,"station_id":"ce4bhch2rcd13ifvqeug","pricing_plan_id":"free"},{"bike_id":"ac127aac-26ea-46cc-b4d5-ee5e0b351e09","system_id":"levelo_inurba_marseille","lat":43.286094,"lon":5.351001,"is_reserved":false,"is_disabled":false,"rental_uris":{"android":"levelo://app?vid=ac127aac-26ea-46cc-b4d5-ee5e0b351e09","ios":"levelo://app?vid=ac127aac-26ea-46cc-b4d5-ee5e0b351e09"},"vehicle_type_id":"4","last_reported":1698498359,"current_range_meters":23600,"station_id":"ce4bhch2rcd13ifvqeug","pricing_plan_id":"free"},{"bike_id":"bf0d98b7-5806-48a7-aeaa-4d54f450d9c1","system_id":"levelo_inurba_marseille","lat":43.2861,"lon":5.35095,"is_reserved":false,"is_disabled":false,"rental_uris":{"android":"levelo://app?vid=bf0d98b7-5806-48a7-aeaa-4d54f450d9c1","ios":"levelo://app?vid=bf0d98b7-5806-48a7-aeaa-4d54f450d9c1"},"vehicle_type_id":"4","last_reported":1698498359,"current_range_meters":14400,"station_id":"ce4bhch2rcd13ifvqeug","pricing_plan_id":"free"},{"bike_id":"33961be2-8a1c-446c-a1fe-ceb6b131d57d","system_id":"levelo_inurba_marseille","lat":43.300357,"lon":5.403081,"is_reserved":false,"is_disabled":false,"rental_uris":{"android":"levelo://app?vid=33961be2-8a1c-446c-a1fe-ceb6b131d57d","ios":"levelo://app?vid=33961be2-8a1c-446c-a1fe-ceb6b131d57d"},"vehicle_type_id":"4","last_reported":1698498359,"current_range_meters":9600,"station_id":"","pricing_plan_id":"free"},{"bike_id":"64bf0b14-47b8-4b12-98dd-bc32140abe64","system_id":"levelo_inurba_marseille","lat":43.284074,"lon":5.375257,"is_reserved":false,"is_disabled":false,"rental_uris":{"android":"levelo://app?vid=64bf0b14-47b8-4b12-98dd-bc32140abe64","ios":"levelo://app?vid=64bf0b14-47b8-4b12-98dd-bc32140abe64"},"vehicle_type_id":"4","last_reported":1698498359,"current_range_meters":31200,"station_id":"ce4bh412rcd13ifvqds0","pricing_plan_id":"free"},{"bike_id":"63c1cd1f-fda5-487f-9411-13714ee6e81d","system_id":"levelo_inurba_marseille","lat":43.29564,"lon":5.400205,"is_reserved":false,"is_disabled":false,"rental_uris":{"android":"levelo://app?vid=63c1cd1f-fda5-487f-9411-13714ee6e81d","ios":"levelo://app?vid=63c1cd1f-fda5-487f-9411-13714ee6e81d"},"vehicle_type_id":"4","last_reported":1698498359,"current_range_meters":4800,"station_id":"ce4bh312rcd13ifvqdj0","pricing_plan_id":"free"},{"bike_id":"ed4f5b31-1b78-40d6-9b8c-195fe4a03a99","system_id":"levelo_inurba_marseille","lat":43.286595,"lon":5.386795,"is_reserved":false,"is_disabled":false,"rental_uris":{"android":"levelo://app?vid=ed4f5b31-1b78-40d6-9b8c-195fe4a03a99","ios":"levelo://app?vid=ed4f5b31-1b78-40d6-9b8c-195fe4a03a99"},"vehicle_type_id":"4","last_reported":1698498359,"current_range_meters":24400,"station_id":"ce4bh492rcd13ifvqdug","pricing_plan_id":"free"},{"bike_id":"a04dca67-8317-445e-90d6-5788929468fd","system_id":"levelo_inurba_marseille","lat":43.33674,"lon":5.39198,"is_reserved":false,"is_disabled":false,"rental_uris":{"android":"levelo://app?vid=a04dca67-8317-445e-90d6-5788929468fd","ios":"levelo://app?vid=a04dca67-8317-445e-90d6-5788929468fd"},"vehicle_type_id":"4","last_reported":1698498359,"current_range_meters":6000,"station_id":"","pricing_plan_id":"free"},{"bike_id":"ddaade42-04bf-48ee-bfe5-efdcb326fcf4","system_id":"levelo_inurba_marseille","lat":43.33717,"lon":5.391857,"is_reserved":false,"is_disabled":false,"rental_uris":{"android":"levelo://app?vid=ddaade42-04bf-48ee-bfe5-efdcb326fcf4","ios":"levelo://app?vid=ddaade42-04bf-48ee-bfe5-efdcb326fcf4"},"vehicle_type_id":"4","last_reported":1698498359,"current_range_meters":29200,"station_id":"ce4bhr92rcd13ifvqhsg","pricing_plan_id":"free"},{"bike_id":"2f666bbb-190f-4291-ade2-95e2c0cfd815","system_id":"levelo_inurba_marseille","lat":43.325281,"lon":5.405683,"is_reserved":false,"is_disabled":false,"rental_uris":{"android":"levelo://app?vid=2f666bbb-190f-4291-ade2-95e2c0cfd815","ios":"levelo://app?vid=2f666bbb-190f-4291-ade2-95e2c0cfd815"},"vehicle_type_id":"4","last_reported":1698498359,"current_range_meters":18000,"station_id":"","pricing_plan_id":"free"},{"bike_id":"33939e23-4e54-4138-b4b3-ece6c24315c7","system_id":"levelo_inurba_marseille","lat":43.284219,"lon":5.3497,"is_reserved":false,"is_disabled":false,"rental_uris":{"android":"levelo://app?vid=33939e23-4e54-4138-b4b3-ece6c24315c7","ios":"levelo://app?vid=33939e23-4e54-4138-b4b3-ece6c24315c7"},"vehicle_type_id":"4","last_reported":1698498359,"current_range_meters":6000,"station_id":"ce4bhbh2rcd13ifvqepg","pricing_plan_id":"free"},{"bike_id":"f9a38b94-dde8-46be-9789-0a8256aab001","system_id":"levelo_inurba_marseille","lat":43.284219,"lon":5.3497,"is_reserved":false,"is_disabled":false,"rental_uris":{"android":"levelo://app?vid=f9a38b94-dde8-46be-9789-0a8256aab001","ios":"levelo://app?vid=f9a38b94-dde8-46be-9789-0a8256aab001"},"vehicle_type_id":"4","last_reported":1698498359,"current_range_meters":12800,"station_id":"ce4bhbh2rcd13ifvqepg","pricing_plan_id":"free"},{"bike_id":"a9314f46-e1eb-4d9c-a467-31f7409e825a","system_id":"levelo_inurba_marseille","lat":43.284219,"lon":5.3497,"is_reserved":false,"is_disabled":false,"rental_uris":{"android":"levelo://app?vid=a9314f46-e1eb-4d9c-a467-31f7409e825a","ios":"levelo://app?vid=a9314f46-e1eb-4d9c-a467-31f7409e825a"},"vehicle_type_id":"4","last_reported":1698498359,"current_range_meters":19600,"station_id":"ce4bhbh2rcd13ifvqepg","pricing_plan_id":"free"},{"bike_id":"01ef666a-af4e-4c1e-9ba6-1d6dafd59cf4","system_id":"levelo_inurba_marseille","lat":43.28414,"lon":5.34977,"is_reserved":false,"is_disabled":false,"rental_uris":{"android":"levelo://app?vid=01ef666a-af4e-4c1e-9ba6-1d6dafd59cf4","ios":"levelo://app?vid=01ef666a-af4e-4c1e-9ba6-1d6dafd59cf4"},"vehicle_type_id":"4","last_reported":1698498359,"current_range_meters":7600,"station_id":"ce4bhbh2rcd13ifvqepg","pricing_plan_id":"free"},{"bike_id":"88678e82-a6ff-44ae-9082-f2b047f14fad","system_id":"levelo_inurba_marseille","lat":43.282754,"lon":5.350519,"is_reserved":false,"is_disabled":false,"rental_uris":{"android":"levelo://app?vid=88678e82-a6ff-44ae-9082-f2b047f14fad","ios":"levelo://app?vid=88678e82-a6ff-44ae-9082-f2b047f14fad"},"vehicle_type_id":"4","last_reported":1698498359,"current_range_meters":31600,"station_id":"ce4bhbp2rcd13ifvqerg","pricing_plan_id":"free"},{"bike_id":"9571b93a-c27b-4d98-a634-a54a912611d2","system_id":"levelo_inurba_marseille","lat":43.28271,"lon":5.35064,"is_reserved":false,"is_disabled":false,"rental_uris":{"android":"levelo://app?vid=9571b93a-c27b-4d98-a634-a54a912611d2","ios":"levelo://app?vid=9571b93a-c27b-4d98-a634-a54a912611d2"},"vehicle_type_id":"4","last_reported":1698498359,"current_range_meters":21200,"station_id":"ce4bhbp2rcd13ifvqerg","pricing_plan_id":"free"},{"bike_id":"e1eadf62-deb9-4a73-8188-1cf6d1e2f675","system_id":"levelo_inurba_marseille","lat":43.282754,"lon":5.350519,"is_reserved":false,"is_disabled":false,"rental_uris":{"android":"levelo://app?vid=e1eadf62-deb9-4a73-8188-1cf6d1e2f675","ios":"levelo://app?vid=e1eadf62-deb9-4a73-8188-1cf6d1e2f675"},"vehicle_type_id":"4","last_reported":1698498359,"current_range_meters":4800,"station_id":"ce4bhbp2rcd13ifvqerg","pricing_plan_id":"free"},{"bike_id":"5a1f64c8-137d-42bc-9cef-811493ff7b13","system_id":"levelo_inurba_marseille","lat":43.282744,"lon":5.350533,"is_reserved":false,"is_disabled":false,"rental_uris":{"android":"levelo://app?vid=5a1f64c8-137d-42bc-9cef-811493ff7b13","ios":"levelo://app?vid=5a1f64c8-137d-42bc-9cef-811493ff7b13"},"vehicle_type_id":"4","last_reported":1698498359,"current_range_meters":16000,"station_id":"ce4bhbp2rcd13ifvqerg","pricing_plan_id":"free"},{"bike_id":"0a3a5722-85b0-46c0-9120-f53c84ba3d53","system_id":"levelo_inurba_marseille","lat":43.28266,"lon":5.35064,"is_reserved":false,"is_disabled":false,"rental_uris":{"android":"levelo://app?vid=0a3a5722-85b0-46c0-9120-f53c84ba3d53","ios":"levelo://app?vid=0a3a5722-85b0-46c0-9120-f53c84ba3d53"},"vehicle_type_id":"4","last_reported":1698498359,"current_range_meters":3200,"station_id":"ce4bhbp2rcd13ifvqerg","pricing_plan_id":"free"},{"bike_id":"03226c7e-0744-439b-bc10-c278fdb4c0d9","system_id":"levelo_inurba_marseille","lat":43.282658,"lon":5.35058,"is_reserved":false,"is_disabled":false,"rental_uris":{"android":"levelo://app?vid=03226c7e-0744-439b-bc10-c278fdb4c0d9","ios":"levelo://app?vid=03226c7e-0744-439b-bc10-c278fdb4c0d9"},"vehicle_type_id":"4","last_reported":1698498359,"current_range_meters":17600,"station_id":"ce4bhbp2rcd13ifvqerg","pricing_plan_id":"free"},{"bike_id":"ca4623d8-8baa-4109-bc54-79b14cc743b1","system_id":"levelo_inurba_marseille","lat":43.282754,"lon":5.350519,"is_reserved":false,"is_disabled":false,"rental_uris":{"android":"levelo://app?vid=ca4623d8-8baa-4109-bc54-79b14cc743b1","ios":"levelo://app?vid=ca4623d8-8baa-4109-bc54-79b14cc743b1"},"vehicle_type_id":"4","last_reported":1698498359,"current_range_meters":6400,"station_id":"ce4bhbp2rcd13ifvqerg","pricing_plan_id":"free"},{"bike_id":"af0cffae-c26a-43d2-a2e8-2f24df84c530","system_id":"levelo_inurba_marseille","lat":43.282754,"lon":5.350519,"is_reserved":false,"is_disabled":false,"rental_uris":{"android":"levelo://app?vid=af0cffae-c26a-43d2-a2e8-2f24df84c530","ios":"levelo://app?vid=af0cffae-c26a-43d2-a2e8-2f24df84c530"},"vehicle_type_id":"4","last_reported":1698498359,"current_range_meters":22000,"station_id":"ce4bhbp2rcd13ifvqerg","pricing_plan_id":"free"},{"bike_id":"b1ff035d-34cc-48e8-a773-f9107774893c","system_id":"levelo_inurba_marseille","lat":43.28039,"lon":5.36943,"is_reserved":false,"is_disabled":false,"rental_uris":{"android":"levelo://app?vid=b1ff035d-34cc-48e8-a773-f9107774893c","ios":"levelo://app?vid=b1ff035d-34cc-48e8-a773-f9107774893c"},"vehicle_type_id":"4","last_reported":1698498359,"current_range_meters":23600,"station_id":"ce4bha12rcd13ifvqef0","pricing_plan_id":"free"},{"bike_id":"1ca242fe-6084-4f9b-8b54-35d465872844","system_id":"levelo_inurba_marseille","lat":43.29041,"lon":5.399634,"is_reserved":false,"is_disabled":false,"rental_uris":{"android":"levelo://app?vid=1ca242fe-6084-4f9b-8b54-35d465872844","ios":"levelo://app?vid=1ca242fe-6084-4f9b-8b54-35d465872844"},"vehicle_type_id":"4","last_reported":1698498359,"current_range_meters":19600,"station_id":"ce4bh392rcd13ifvqdm0","pricing_plan_id":"free"},{"bike_id":"00a35d08-d641-49ce-873e-67957ff25adc","system_id":"levelo_inurba_marseille","lat":43.296263,"lon":5.40601,"is_reserved":false,"is_disabled":false,"rental_uris":{"android":"levelo://app?vid=00a35d08-d641-49ce-873e-67957ff25adc","ios":"levelo://app?vid=00a35d08-d641-49ce-873e-67957ff25adc"},"vehicle_type_id":"4","last_reported":1698498359,"current_range_meters":23600,"station_id":"ce4bh0h2rcd13ifvqd60","pricing_plan_id":"free"},{"bike_id":"29876592-0c34-49c4-bb69-24740e968f0b","system_id":"levelo_inurba_marseille","lat":43.326605,"lon":5.409903,"is_reserved":false,"is_disabled":false,"rental_uris":{"android":"levelo://app?vid=29876592-0c34-49c4-bb69-24740e968f0b","ios":"levelo://app?vid=29876592-0c34-49c4-bb69-24740e968f0b"},"vehicle_type_id":"4","last_reported":1698498359,"current_range_meters":30800,"station_id":"ce4bhpp2rcd13ifvqhgg","pricing_plan_id":"free"},{"bike_id":"7e64ff34-55d1-40f8-ac94-d34eeba50e79","system_id":"levelo_inurba_marseille","lat":43.30419,"lon":5.41277,"is_reserved":false,"is_disabled":false,"rental_uris":{"android":"levelo://app?vid=7e64ff34-55d1-40f8-ac94-d34eeba50e79","ios":"levelo://app?vid=7e64ff34-55d1-40f8-ac94-d34eeba50e79"},"vehicle_type_id":"4","last_reported":1698498359,"current_range_meters":9600,"station_id":"ce4bhop2rcd13ifvqh8g","pricing_plan_id":"free"},{"bike_id":"36b71ab4-2807-433a-832b-15f5faddc1b1","system_id":"levelo_inurba_marseille","lat":43.279087,"lon":5.380114,"is_reserved":false,"is_disabled":false,"rental_uris":{"android":"levelo://app?vid=36b71ab4-2807-433a-832b-15f5faddc1b1","ios":"levelo://app?vid=36b71ab4-2807-433a-832b-15f5faddc1b1"},"vehicle_type_id":"4","last_reported":1698498359,"current_range_meters":15600,"station_id":"ce4bhf92rcd13ifvqf50","pricing_plan_id":"free"},{"bike_id":"cdb027d0-f10a-4e78-bfef-5d176a53cade","system_id":"levelo_inurba_marseille","lat":43.28711,"lon":5.39996,"is_reserved":false,"is_disabled":false,"rental_uris":{"android":"levelo://app?vid=cdb027d0-f10a-4e78-bfef-5d176a53cade","ios":"levelo://app?vid=cdb027d0-f10a-4e78-bfef-5d176a53cade"},"vehicle_type_id":"4","last_reported":1698498359,"current_range_meters":31200,"station_id":"ce4bho92rcd13ifvqh3g","pricing_plan_id":"free"},{"bike_id":"6ce650be-bdc3-492b-9184-04853b5aea8d","system_id":"levelo_inurba_marseille","lat":43.287154,"lon":5.399979,"is_reserved":false,"is_disabled":false,"rental_uris":{"android":"levelo://app?vid=6ce650be-bdc3-492b-9184-04853b5aea8d","ios":"levelo://app?vid=6ce650be-bdc3-492b-9184-04853b5aea8d"},"vehicle_type_id":"4","last_reported":1698498359,"current_range_meters":18000,"station_id":"ce4bho92rcd13ifvqh3g","pricing_plan_id":"free"},{"bike_id":"ab441268-3e03-4104-94cc-7705d60c6788","system_id":"levelo_inurba_marseille","lat":43.320699,"lon":5.415193,"is_reserved":false,"is_disabled":false,"rental_uris":{"android":"levelo://app?vid=ab441268-3e03-4104-94cc-7705d60c6788","ios":"levelo://app?vid=ab441268-3e03-4104-94cc-7705d60c6788"},"vehicle_type_id":"4","last_reported":1698498359,"current_range_meters":19600,"station_id":"","pricing_plan_id":"free"},{"bike_id":"7d471b17-32f3-4e97-997d-b880e35400c2","system_id":"levelo_inurba_marseille","lat":43.320045,"lon":5.415046,"is_reserved":false,"is_disabled":false,"rental_uris":{"android":"levelo://app?vid=7d471b17-32f3-4e97-997d-b880e35400c2","ios":"levelo://app?vid=7d471b17-32f3-4e97-997d-b880e35400c2"},"vehicle_type_id":"4","last_reported":1698498359,"current_range_meters":1200,"station_id":"ce4bhq92rcd13ifvqhkg","pricing_plan_id":"free"},{"bike_id":"258d7b54-804d-4ea7-84f9-cd1976cd1a8c","system_id":"levelo_inurba_marseille","lat":43.320045,"lon":5.415046,"is_reserved":false,"is_disabled":false,"rental_uris":{"android":"levelo://app?vid=258d7b54-804d-4ea7-84f9-cd1976cd1a8c","ios":"levelo://app?vid=258d7b54-804d-4ea7-84f9-cd1976cd1a8c"},"vehicle_type_id":"4","last_reported":1698498359,"current_range_meters":31200,"station_id":"ce4bhq92rcd13ifvqhkg","pricing_plan_id":"free"},{"bike_id":"e8058626-e776-47f9-a158-39b3030ec999","system_id":"levelo_inurba_marseille","lat":43.290103,"lon":5.356114,"is_reserved":false,"is_disabled":false,"rental_uris":{"android":"levelo://app?vid=e8058626-e776-47f9-a158-39b3030ec999","ios":"levelo://app?vid=e8058626-e776-47f9-a158-39b3030ec999"},"vehicle_type_id":"4","last_reported":1698498359,"current_range_meters":26000,"station_id":"ce4bhb92rcd13ifvqen0","pricing_plan_id":"free"},{"bike_id":"26027bab-c93f-4139-a2ad-60cddb491642","system_id":"levelo_inurba_marseille","lat":43.32535,"lon":5.41441,"is_reserved":false,"is_disabled":false,"rental_uris":{"android":"levelo://app?vid=26027bab-c93f-4139-a2ad-60cddb491642","ios":"levelo://app?vid=26027bab-c93f-4139-a2ad-60cddb491642"},"vehicle_type_id":"4","last_reported":1698498359,"current_range_meters":0,"station_id":"","pricing_plan_id":"free"},{"bike_id":"12139fe8-36e0-4dca-9d2c-c6c891232c1a","system_id":"levelo_inurba_marseille","lat":43.27619,"lon":5.36101,"is_reserved":false,"is_disabled":false,"rental_uris":{"android":"levelo://app?vid=12139fe8-36e0-4dca-9d2c-c6c891232c1a","ios":"levelo://app?vid=12139fe8-36e0-4dca-9d2c-c6c891232c1a"},"vehicle_type_id":"4","last_reported":1698498359,"current_range_meters":18000,"station_id":"ce4bgj92rcd13ifvqbe0","pricing_plan_id":"free"},{"bike_id":"fa1410ed-1f97-41a3-a24b-805bc43a67ef","system_id":"levelo_inurba_marseille","lat":43.325233,"lon":5.414318,"is_reserved":false,"is_disabled":false,"rental_uris":{"android":"levelo://app?vid=fa1410ed-1f97-41a3-a24b-805bc43a67ef","ios":"levelo://app?vid=fa1410ed-1f97-41a3-a24b-805bc43a67ef"},"vehicle_type_id":"4","last_reported":1698498359,"current_range_meters":31600,"station_id":"ce4bhq12rcd13ifvqhhg","pricing_plan_id":"free"},{"bike_id":"416d4d5c-ebeb-4596-b345-8f52eb68f4cf","system_id":"levelo_inurba_marseille","lat":43.27611,"lon":5.36106,"is_reserved":false,"is_disabled":false,"rental_uris":{"android":"levelo://app?vid=416d4d5c-ebeb-4596-b345-8f52eb68f4cf","ios":"levelo://app?vid=416d4d5c-ebeb-4596-b345-8f52eb68f4cf"},"vehicle_type_id":"4","last_reported":1698498359,"current_range_meters":20000,"station_id":"ce4bgj92rcd13ifvqbe0","pricing_plan_id":"free"},{"bike_id":"7ca328c8-c88c-42bd-a6ee-f15389d61ffd","system_id":"levelo_inurba_marseille","lat":43.280868,"lon":5.396572,"is_reserved":false,"is_disabled":false,"rental_uris":{"android":"levelo://app?vid=7ca328c8-c88c-42bd-a6ee-f15389d61ffd","ios":"levelo://app?vid=7ca328c8-c88c-42bd-a6ee-f15389d61ffd"},"vehicle_type_id":"4","last_reported":1698498359,"current_range_meters":7200,"station_id":"ce4bho12rcd13ifvqh2g","pricing_plan_id":"free"},{"bike_id":"8492783d-44d8-4933-ba78-1f3757a5cb2c","system_id":"levelo_inurba_marseille","lat":43.28077,"lon":5.39645,"is_reserved":false,"is_disabled":false,"rental_uris":{"android":"levelo://app?vid=8492783d-44d8-4933-ba78-1f3757a5cb2c","ios":"levelo://app?vid=8492783d-44d8-4933-ba78-1f3757a5cb2c"},"vehicle_type_id":"4","last_reported":1698498359,"current_range_meters":11200,"station_id":"ce4bho12rcd13ifvqh2g","pricing_plan_id":"free"},{"bike_id":"928a2e0b-da4b-450a-9e7b-3c468a4e5b0b","system_id":"levelo_inurba_marseille","lat":43.28077,"lon":5.39659,"is_reserved":false,"is_disabled":false,"rental_uris":{"android":"levelo://app?vid=928a2e0b-da4b-450a-9e7b-3c468a4e5b0b","ios":"levelo://app?vid=928a2e0b-da4b-450a-9e7b-3c468a4e5b0b"},"vehicle_type_id":"4","last_reported":1698498359,"current_range_meters":6000,"station_id":"ce4bho12rcd13ifvqh2g","pricing_plan_id":"free"},{"bike_id":"7d072c04-7585-49f1-a568-e9b4ec5b0230","system_id":"levelo_inurba_marseille","lat":43.303837,"lon":5.418724,"is_reserved":false,"is_disabled":false,"rental_uris":{"android":"levelo://app?vid=7d072c04-7585-49f1-a568-e9b4ec5b0230","ios":"levelo://app?vid=7d072c04-7585-49f1-a568-e9b4ec5b0230"},"vehicle_type_id":"4","last_reported":1698498359,"current_range_meters":21200,"station_id":"ce4bhop2rcd13ifvqh7g","pricing_plan_id":"free"},{"bike_id":"63779662-4cac-4ee5-b27b-11f091117287","system_id":"levelo_inurba_marseille","lat":43.278399,"lon":5.392139,"is_reserved":false,"is_disabled":false,"rental_uris":{"android":"levelo://app?vid=63779662-4cac-4ee5-b27b-11f091117287","ios":"levelo://app?vid=63779662-4cac-4ee5-b27b-11f091117287"},"vehicle_type_id":"4","last_reported":1698498359,"current_range_meters":4400,"station_id":"ce4bhjp2rcd13ifvqga0","pricing_plan_id":"free"},{"bike_id":"83e3ee46-7c56-48b6-8954-80dbc64e1b03","system_id":"levelo_inurba_marseille","lat":43.303837,"lon":5.418724,"is_reserved":false,"is_disabled":false,"rental_uris":{"android":"levelo://app?vid=83e3ee46-7c56-48b6-8954-80dbc64e1b03","ios":"levelo://app?vid=83e3ee46-7c56-48b6-8954-80dbc64e1b03"},"vehicle_type_id":"4","last_reported":1698498359,"current_range_meters":29200,"station_id":"ce4bhop2rcd13ifvqh7g","pricing_plan_id":"free"},{"bike_id":"e7280c76-97a5-4bf7-8dc2-e0126822f31f","system_id":"levelo_inurba_marseille","lat":43.3385,"lon":5.40706,"is_reserved":false,"is_disabled":false,"rental_uris":{"android":"levelo://app?vid=e7280c76-97a5-4bf7-8dc2-e0126822f31f","ios":"levelo://app?vid=e7280c76-97a5-4bf7-8dc2-e0126822f31f"},"vehicle_type_id":"4","last_reported":1698498359,"current_range_meters":31200,"station_id":"","pricing_plan_id":"free"},{"bike_id":"e64a62bb-c387-4d6a-a690-79611da6449f","system_id":"levelo_inurba_marseille","lat":43.33825,"lon":5.40764,"is_reserved":false,"is_disabled":false,"rental_uris":{"android":"levelo://app?vid=e64a62bb-c387-4d6a-a690-79611da6449f","ios":"levelo://app?vid=e64a62bb-c387-4d6a-a690-79611da6449f"},"vehicle_type_id":"4","last_reported":1698498359,"current_range_meters":31200,"station_id":"","pricing_plan_id":"free"},{"bike_id":"8ab2f707-edf0-4e18-bfdd-5772797effad","system_id":"levelo_inurba_marseille","lat":43.273613,"lon":5.362705,"is_reserved":false,"is_disabled":false,"rental_uris":{"android":"levelo://app?vid=8ab2f707-edf0-4e18-bfdd-5772797effad","ios":"levelo://app?vid=8ab2f707-edf0-4e18-bfdd-5772797effad"},"vehicle_type_id":"4","last_reported":1698498359,"current_range_meters":23200,"station_id":"ce4bhbh2rcd13ifvqeo0","pricing_plan_id":"free"},{"bike_id":"e9aee49b-5407-4f1b-a737-12be435dad45","system_id":"levelo_inurba_marseille","lat":43.27374,"lon":5.36255,"is_reserved":false,"is_disabled":false,"rental_uris":{"android":"levelo://app?vid=e9aee49b-5407-4f1b-a737-12be435dad45","ios":"levelo://app?vid=e9aee49b-5407-4f1b-a737-12be435dad45"},"vehicle_type_id":"4","last_reported":1698498359,"current_range_meters":6800,"station_id":"ce4bhbh2rcd13ifvqeo0","pricing_plan_id":"free"},{"bike_id":"768aca3c-84cd-4e6f-94b4-c8963f2a9449","system_id":"levelo_inurba_marseille","lat":43.273613,"lon":5.362705,"is_reserved":false,"is_disabled":false,"rental_uris":{"android":"levelo://app?vid=768aca3c-84cd-4e6f-94b4-c8963f2a9449","ios":"levelo://app?vid=768aca3c-84cd-4e6f-94b4-c8963f2a9449"},"vehicle_type_id":"4","last_reported":1698498359,"current_range_meters":3200,"station_id":"ce4bhbh2rcd13ifvqeo0","pricing_plan_id":"free"},{"bike_id":"4f7425f7-accd-4423-ba1e-f2632d76b62f","system_id":"levelo_inurba_marseille","lat":43.273613,"lon":5.362705,"is_reserved":false,"is_disabled":false,"rental_uris":{"android":"levelo://app?vid=4f7425f7-accd-4423-ba1e-f2632d76b62f","ios":"levelo://app?vid=4f7425f7-accd-4423-ba1e-f2632d76b62f"},"vehicle_type_id":"4","last_reported":1698498359,"current_range_meters":24400,"station_id":"ce4bhbh2rcd13ifvqeo0","pricing_plan_id":"free"},{"bike_id":"59538ba3-2ee3-4703-bdbe-5be76cbc273d","system_id":"levelo_inurba_marseille","lat":43.273609,"lon":5.362708,"is_reserved":false,"is_disabled":false,"rental_uris":{"android":"levelo://app?vid=59538ba3-2ee3-4703-bdbe-5be76cbc273d","ios":"levelo://app?vid=59538ba3-2ee3-4703-bdbe-5be76cbc273d"},"vehicle_type_id":"4","last_reported":1698498359,"current_range_meters":16000,"station_id":"ce4bhbh2rcd13ifvqeo0","pricing_plan_id":"free"},{"bike_id":"840c8e80-67e5-4cfc-ae77-f6037ff3adfb","system_id":"levelo_inurba_marseille","lat":43.273609,"lon":5.362708,"is_reserved":false,"is_disabled":false,"rental_uris":{"android":"levelo://app?vid=840c8e80-67e5-4cfc-ae77-f6037ff3adfb","ios":"levelo://app?vid=840c8e80-67e5-4cfc-ae77-f6037ff3adfb"},"vehicle_type_id":"4","last_reported":1698498359,"current_range_meters":6000,"station_id":"ce4bhbh2rcd13ifvqeo0","pricing_plan_id":"free"},{"bike_id":"51419e9d-80f8-4246-83b5-e275bd59c5b4","system_id":"levelo_inurba_marseille","lat":43.27364,"lon":5.36249,"is_reserved":false,"is_disabled":false,"rental_uris":{"android":"levelo://app?vid=51419e9d-80f8-4246-83b5-e275bd59c5b4","ios":"levelo://app?vid=51419e9d-80f8-4246-83b5-e275bd59c5b4"},"vehicle_type_id":"4","last_reported":1698498359,"current_range_meters":8800,"station_id":"ce4bhbh2rcd13ifvqeo0","pricing_plan_id":"free"},{"bike_id":"3383cf48-63f2-477f-987f-db213542c168","system_id":"levelo_inurba_marseille","lat":43.276771,"lon":5.388799,"is_reserved":false,"is_disabled":false,"rental_uris":{"android":"levelo://app?vid=3383cf48-63f2-477f-987f-db213542c168","ios":"levelo://app?vid=3383cf48-63f2-477f-987f-db213542c168"},"vehicle_type_id":"4","last_reported":1698498359,"current_range_meters":20400,"station_id":"ce4bhi12rcd13ifvqfo0","pricing_plan_id":"free"},{"bike_id":"bd1d2962-e358-4a6a-ac06-439079960044","system_id":"levelo_inurba_marseille","lat":43.2781,"lon":5.3949,"is_reserved":false,"is_disabled":false,"rental_uris":{"android":"levelo://app?vid=bd1d2962-e358-4a6a-ac06-439079960044","ios":"levelo://app?vid=bd1d2962-e358-4a6a-ac06-439079960044"},"vehicle_type_id":"4","last_reported":1698498359,"current_range_meters":400,"station_id":"","pricing_plan_id":"free"},{"bike_id":"326a39f6-b48c-414b-95b7-85f4879acf06","system_id":"levelo_inurba_marseille","lat":43.280073,"lon":5.400065,"is_reserved":false,"is_disabled":false,"rental_uris":{"android":"levelo://app?vid=326a39f6-b48c-414b-95b7-85f4879acf06","ios":"levelo://app?vid=326a39f6-b48c-414b-95b7-85f4879acf06"},"vehicle_type_id":"4","last_reported":1698498359,"current_range_meters":18400,"station_id":"ce4bho92rcd13ifvqh4g","pricing_plan_id":"free"},{"bike_id":"2d2ebc23-c6f2-4731-a0c0-47427c93401e","system_id":"levelo_inurba_marseille","lat":43.28004,"lon":5.40009,"is_reserved":false,"is_disabled":false,"rental_uris":{"android":"levelo://app?vid=2d2ebc23-c6f2-4731-a0c0-47427c93401e","ios":"levelo://app?vid=2d2ebc23-c6f2-4731-a0c0-47427c93401e"},"vehicle_type_id":"4","last_reported":1698498359,"current_range_meters":18800,"station_id":"ce4bho92rcd13ifvqh4g","pricing_plan_id":"free"},{"bike_id":"5b35f7d8-a663-46b0-9eea-2f2aa7e56907","system_id":"levelo_inurba_marseille","lat":43.27999,"lon":5.40001,"is_reserved":false,"is_disabled":false,"rental_uris":{"android":"levelo://app?vid=5b35f7d8-a663-46b0-9eea-2f2aa7e56907","ios":"levelo://app?vid=5b35f7d8-a663-46b0-9eea-2f2aa7e56907"},"vehicle_type_id":"4","last_reported":1698498359,"current_range_meters":24800,"station_id":"ce4bho92rcd13ifvqh4g","pricing_plan_id":"free"},{"bike_id":"ec8d3a24-902c-4c20-8778-3fb350baf3ed","system_id":"levelo_inurba_marseille","lat":43.27991,"lon":5.40001,"is_reserved":false,"is_disabled":false,"rental_uris":{"android":"levelo://app?vid=ec8d3a24-902c-4c20-8778-3fb350baf3ed","ios":"levelo://app?vid=ec8d3a24-902c-4c20-8778-3fb350baf3ed"},"vehicle_type_id":"4","last_reported":1698498359,"current_range_meters":20400,"station_id":"ce4bho92rcd13ifvqh4g","pricing_plan_id":"free"},{"bike_id":"c0f2a393-5bc7-447f-a0cf-a0543a23114b","system_id":"levelo_inurba_marseille","lat":43.27844,"lon":5.39918,"is_reserved":false,"is_disabled":false,"rental_uris":{"android":"levelo://app?vid=c0f2a393-5bc7-447f-a0cf-a0543a23114b","ios":"levelo://app?vid=c0f2a393-5bc7-447f-a0cf-a0543a23114b"},"vehicle_type_id":"4","last_reported":1698498359,"current_range_meters":24400,"station_id":"","pricing_plan_id":"free"},{"bike_id":"10771e27-9dfa-483f-a879-18ff14f74247","system_id":"levelo_inurba_marseille","lat":43.310021,"lon":5.425067,"is_reserved":false,"is_disabled":false,"rental_uris":{"android":"levelo://app?vid=10771e27-9dfa-483f-a879-18ff14f74247","ios":"levelo://app?vid=10771e27-9dfa-483f-a879-18ff14f74247"},"vehicle_type_id":"4","last_reported":1698498359,"current_range_meters":0,"station_id":"","pricing_plan_id":"free"},{"bike_id":"b2993f19-13ef-4e3b-8d1e-14232d152eca","system_id":"levelo_inurba_marseille","lat":43.273129,"lon":5.390725,"is_reserved":false,"is_disabled":false,"rental_uris":{"android":"levelo://app?vid=b2993f19-13ef-4e3b-8d1e-14232d152eca","ios":"levelo://app?vid=b2993f19-13ef-4e3b-8d1e-14232d152eca"},"vehicle_type_id":"4","last_reported":1698498359,"current_range_meters":18000,"station_id":"ce4bhgp2rcd13ifvqfe0","pricing_plan_id":"free"},{"bike_id":"92526578-4b8e-4fde-aa87-9f44df389176","system_id":"levelo_inurba_marseille","lat":43.273129,"lon":5.390725,"is_reserved":false,"is_disabled":false,"rental_uris":{"android":"levelo://app?vid=92526578-4b8e-4fde-aa87-9f44df389176","ios":"levelo://app?vid=92526578-4b8e-4fde-aa87-9f44df389176"},"vehicle_type_id":"4","last_reported":1698498359,"current_range_meters":14000,"station_id":"ce4bhgp2rcd13ifvqfe0","pricing_plan_id":"free"},{"bike_id":"274a1840-651d-4470-bf57-8e1199d157e9","system_id":"levelo_inurba_marseille","lat":43.274099,"lon":5.394019,"is_reserved":false,"is_disabled":false,"rental_uris":{"android":"levelo://app?vid=274a1840-651d-4470-bf57-8e1199d157e9","ios":"levelo://app?vid=274a1840-651d-4470-bf57-8e1199d157e9"},"vehicle_type_id":"4","last_reported":1698498359,"current_range_meters":18400,"station_id":"ce4bhdp2rcd13ifvqf20","pricing_plan_id":"free"},{"bike_id":"b362bf84-1877-49c9-b856-e78f70735526","system_id":"levelo_inurba_marseille","lat":43.295523,"lon":5.422926,"is_reserved":false,"is_disabled":false,"rental_uris":{"android":"levelo://app?vid=b362bf84-1877-49c9-b856-e78f70735526","ios":"levelo://app?vid=b362bf84-1877-49c9-b856-e78f70735526"},"vehicle_type_id":"4","last_reported":1698498359,"current_range_meters":31600,"station_id":"ce4bhph2rcd13ifvqhdg","pricing_plan_id":"free"},{"bike_id":"b538149e-b1ca-49e4-81d6-8bf98fbcd396","system_id":"levelo_inurba_marseille","lat":43.295522,"lon":5.42279,"is_reserved":false,"is_disabled":false,"rental_uris":{"android":"levelo://app?vid=b538149e-b1ca-49e4-81d6-8bf98fbcd396","ios":"levelo://app?vid=b538149e-b1ca-49e4-81d6-8bf98fbcd396"},"vehicle_type_id":"4","last_reported":1698498359,"current_range_meters":27600,"station_id":"ce4bhph2rcd13ifvqhdg","pricing_plan_id":"free"},{"bike_id":"e3efe61e-9322-4f49-a6dd-4614f779027a","system_id":"levelo_inurba_marseille","lat":43.295523,"lon":5.422926,"is_reserved":false,"is_disabled":false,"rental_uris":{"android":"levelo://app?vid=e3efe61e-9322-4f49-a6dd-4614f779027a","ios":"levelo://app?vid=e3efe61e-9322-4f49-a6dd-4614f779027a"},"vehicle_type_id":"4","last_reported":1698498359,"current_range_meters":31600,"station_id":"ce4bhph2rcd13ifvqhdg","pricing_plan_id":"free"},{"bike_id":"52c3dfc8-e5d4-4e7c-a71e-bdfa6da57408","system_id":"levelo_inurba_marseille","lat":43.295523,"lon":5.422926,"is_reserved":false,"is_disabled":false,"rental_uris":{"android":"levelo://app?vid=52c3dfc8-e5d4-4e7c-a71e-bdfa6da57408","ios":"levelo://app?vid=52c3dfc8-e5d4-4e7c-a71e-bdfa6da57408"},"vehicle_type_id":"4","last_reported":1698498359,"current_range_meters":9200,"station_id":"ce4bhph2rcd13ifvqhdg","pricing_plan_id":"free"},{"bike_id":"69008444-ab5b-44f5-902c-25c48e6f0be1","system_id":"levelo_inurba_marseille","lat":43.29552,"lon":5.422923,"is_reserved":false,"is_disabled":false,"rental_uris":{"android":"levelo://app?vid=69008444-ab5b-44f5-902c-25c48e6f0be1","ios":"levelo://app?vid=69008444-ab5b-44f5-902c-25c48e6f0be1"},"vehicle_type_id":"4","last_reported":1698498359,"current_range_meters":30000,"station_id":"ce4bhph2rcd13ifvqhdg","pricing_plan_id":"free"},{"bike_id":"4f1e0cd1-79a1-41c8-853d-3d450b57d61f","system_id":"levelo_inurba_marseille","lat":43.295523,"lon":5.422926,"is_reserved":false,"is_disabled":false,"rental_uris":{"android":"levelo://app?vid=4f1e0cd1-79a1-41c8-853d-3d450b57d61f","ios":"levelo://app?vid=4f1e0cd1-79a1-41c8-853d-3d450b57d61f"},"vehicle_type_id":"4","last_reported":1698498359,"current_range_meters":1600,"station_id":"ce4bhph2rcd13ifvqhdg","pricing_plan_id":"free"},{"bike_id":"beddb4ee-5de8-4d49-8187-1bc884228971","system_id":"levelo_inurba_marseille","lat":43.272116,"lon":5.391763,"is_reserved":false,"is_disabled":false,"rental_uris":{"android":"levelo://app?vid=beddb4ee-5de8-4d49-8187-1bc884228971","ios":"levelo://app?vid=beddb4ee-5de8-4d49-8187-1bc884228971"},"vehicle_type_id":"4","last_reported":1698498359,"current_range_meters":13600,"station_id":"ce4bhhp2rcd13ifvqfm0","pricing_plan_id":"free"},{"bike_id":"8c567938-dd7f-485a-bae6-ce456cfa21b1","system_id":"levelo_inurba_marseille","lat":43.278128,"lon":5.407195,"is_reserved":false,"is_disabled":false,"rental_uris":{"android":"levelo://app?vid=8c567938-dd7f-485a-bae6-ce456cfa21b1","ios":"levelo://app?vid=8c567938-dd7f-485a-bae6-ce456cfa21b1"},"vehicle_type_id":"4","last_reported":1698498359,"current_range_meters":9200,"station_id":"ce4bhnh2rcd13ifvqgtg","pricing_plan_id":"free"},{"bike_id":"a6cc0f9e-077e-4b4f-a80c-5fd3237f540a","system_id":"levelo_inurba_marseille","lat":43.279427,"lon":5.41042,"is_reserved":false,"is_disabled":false,"rental_uris":{"android":"levelo://app?vid=a6cc0f9e-077e-4b4f-a80c-5fd3237f540a","ios":"levelo://app?vid=a6cc0f9e-077e-4b4f-a80c-5fd3237f540a"},"vehicle_type_id":"4","last_reported":1698498359,"current_range_meters":10800,"station_id":"ce4bhnp2rcd13ifvqh0g","pricing_plan_id":"free"},{"bike_id":"891e1734-0f2b-4304-8bd4-989a6a3bbdb4","system_id":"levelo_inurba_marseille","lat":43.279378,"lon":5.410365,"is_reserved":false,"is_disabled":false,"rental_uris":{"android":"levelo://app?vid=891e1734-0f2b-4304-8bd4-989a6a3bbdb4","ios":"levelo://app?vid=891e1734-0f2b-4304-8bd4-989a6a3bbdb4"},"vehicle_type_id":"4","last_reported":1698498359,"current_range_meters":27200,"station_id":"ce4bhnp2rcd13ifvqh0g","pricing_plan_id":"free"},{"bike_id":"66a46cce-2509-423f-8e36-ccbf8c1330ab","system_id":"levelo_inurba_marseille","lat":43.269285,"lon":5.389003,"is_reserved":false,"is_disabled":false,"rental_uris":{"android":"levelo://app?vid=66a46cce-2509-423f-8e36-ccbf8c1330ab","ios":"levelo://app?vid=66a46cce-2509-423f-8e36-ccbf8c1330ab"},"vehicle_type_id":"4","last_reported":1698498359,"current_range_meters":19200,"station_id":"ce4bhhh2rcd13ifvqfl0","pricing_plan_id":"free"},{"bike_id":"34812c28-3d40-4de3-97e4-73218596d650","system_id":"levelo_inurba_marseille","lat":43.26681,"lon":5.382694,"is_reserved":false,"is_disabled":false,"rental_uris":{"android":"levelo://app?vid=34812c28-3d40-4de3-97e4-73218596d650","ios":"levelo://app?vid=34812c28-3d40-4de3-97e4-73218596d650"},"vehicle_type_id":"4","last_reported":1698498359,"current_range_meters":15600,"station_id":"ce4bhg92rcd13ifvqf90","pricing_plan_id":"free"},{"bike_id":"aecb4086-6664-44b3-8c20-5f0c4dc462bf","system_id":"levelo_inurba_marseille","lat":43.26547,"lon":5.37294,"is_reserved":false,"is_disabled":false,"rental_uris":{"android":"levelo://app?vid=aecb4086-6664-44b3-8c20-5f0c4dc462bf","ios":"levelo://app?vid=aecb4086-6664-44b3-8c20-5f0c4dc462bf"},"vehicle_type_id":"4","last_reported":1698498359,"current_range_meters":14800,"station_id":"ce4bhg12rcd13ifvqf70","pricing_plan_id":"free"},{"bike_id":"488a0649-87cf-456d-807d-2170606c658b","system_id":"levelo_inurba_marseille","lat":43.27996,"lon":5.416624,"is_reserved":false,"is_disabled":false,"rental_uris":{"android":"levelo://app?vid=488a0649-87cf-456d-807d-2170606c658b","ios":"levelo://app?vid=488a0649-87cf-456d-807d-2170606c658b"},"vehicle_type_id":"4","last_reported":1698498359,"current_range_meters":7200,"station_id":"ce4bho12rcd13ifvqh1g","pricing_plan_id":"free"},{"bike_id":"2b5420ae-4f6a-403e-91eb-9520764caefd","system_id":"levelo_inurba_marseille","lat":43.27994,"lon":5.41656,"is_reserved":false,"is_disabled":false,"rental_uris":{"android":"levelo://app?vid=2b5420ae-4f6a-403e-91eb-9520764caefd","ios":"levelo://app?vid=2b5420ae-4f6a-403e-91eb-9520764caefd"},"vehicle_type_id":"4","last_reported":1698498359,"current_range_meters":22400,"station_id":"ce4bho12rcd13ifvqh1g","pricing_plan_id":"free"},{"bike_id":"7634259e-bf53-43ab-8d7c-304be36a6c81","system_id":"levelo_inurba_marseille","lat":43.27998,"lon":5.41665,"is_reserved":false,"is_disabled":false,"rental_uris":{"android":"levelo://app?vid=7634259e-bf53-43ab-8d7c-304be36a6c81","ios":"levelo://app?vid=7634259e-bf53-43ab-8d7c-304be36a6c81"},"vehicle_type_id":"4","last_reported":1698498359,"current_range_meters":6400,"station_id":"ce4bho12rcd13ifvqh1g","pricing_plan_id":"free"},{"bike_id":"fa91a7dd-ac3f-4c1e-85b6-842cda240372","system_id":"levelo_inurba_marseille","lat":43.27994,"lon":5.41661,"is_reserved":false,"is_disabled":false,"rental_uris":{"android":"levelo://app?vid=fa91a7dd-ac3f-4c1e-85b6-842cda240372","ios":"levelo://app?vid=fa91a7dd-ac3f-4c1e-85b6-842cda240372"},"vehicle_type_id":"4","last_reported":1698498359,"current_range_meters":21200,"station_id":"ce4bho12rcd13ifvqh1g","pricing_plan_id":"free"},{"bike_id":"e22ecce5-51d4-4b38-9bfb-7d3da9b25f6a","system_id":"levelo_inurba_marseille","lat":43.29278,"lon":5.42852,"is_reserved":false,"is_disabled":false,"rental_uris":{"android":"levelo://app?vid=e22ecce5-51d4-4b38-9bfb-7d3da9b25f6a","ios":"levelo://app?vid=e22ecce5-51d4-4b38-9bfb-7d3da9b25f6a"},"vehicle_type_id":"4","last_reported":1698498359,"current_range_meters":28800,"station_id":"","pricing_plan_id":"free"},{"bike_id":"2687313b-4537-4b0d-956b-7965a5770ee1","system_id":"levelo_inurba_marseille","lat":43.328212,"lon":5.431596,"is_reserved":false,"is_disabled":false,"rental_uris":{"android":"levelo://app?vid=2687313b-4537-4b0d-956b-7965a5770ee1","ios":"levelo://app?vid=2687313b-4537-4b0d-956b-7965a5770ee1"},"vehicle_type_id":"4","last_reported":1698498359,"current_range_meters":19600,"station_id":"","pricing_plan_id":"free"},{"bike_id":"92ef32e9-798e-404b-b833-4cf468d16cef","system_id":"levelo_inurba_marseille","lat":43.26587,"lon":5.38988,"is_reserved":false,"is_disabled":false,"rental_uris":{"android":"levelo://app?vid=92ef32e9-798e-404b-b833-4cf468d16cef","ios":"levelo://app?vid=92ef32e9-798e-404b-b833-4cf468d16cef"},"vehicle_type_id":"4","last_reported":1698498359,"current_range_meters":16400,"station_id":"ce4bhe12rcd13ifvqf30","pricing_plan_id":"free"},{"bike_id":"3d2872c2-b4fb-4fcf-b142-afa57f3dc297","system_id":"levelo_inurba_marseille","lat":43.308051,"lon":5.43527,"is_reserved":false,"is_disabled":false,"rental_uris":{"android":"levelo://app?vid=3d2872c2-b4fb-4fcf-b142-afa57f3dc297","ios":"levelo://app?vid=3d2872c2-b4fb-4fcf-b142-afa57f3dc297"},"vehicle_type_id":"4","last_reported":1698498359,"current_range_meters":28800,"station_id":"ce4bhph2rcd13ifvqheg","pricing_plan_id":"free"},{"bike_id":"c57659cd-18d9-4d2c-bfd0-ed3341bc5494","system_id":"levelo_inurba_marseille","lat":43.265571,"lon":5.390032,"is_reserved":false,"is_disabled":false,"rental_uris":{"android":"levelo://app?vid=c57659cd-18d9-4d2c-bfd0-ed3341bc5494","ios":"levelo://app?vid=c57659cd-18d9-4d2c-bfd0-ed3341bc5494"},"vehicle_type_id":"4","last_reported":1698498359,"current_range_meters":19200,"station_id":"ce4bhe12rcd13ifvqf30","pricing_plan_id":"free"},{"bike_id":"d27ecf52-c266-4c80-a7e9-1cef4b9fb408","system_id":"levelo_inurba_marseille","lat":43.265673,"lon":5.389969,"is_reserved":false,"is_disabled":false,"rental_uris":{"android":"levelo://app?vid=d27ecf52-c266-4c80-a7e9-1cef4b9fb408","ios":"levelo://app?vid=d27ecf52-c266-4c80-a7e9-1cef4b9fb408"},"vehicle_type_id":"4","last_reported":1698498359,"current_range_meters":14400,"station_id":"ce4bhe12rcd13ifvqf30","pricing_plan_id":"free"},{"bike_id":"a66b7863-b084-4479-9a5a-d7ada46d04eb","system_id":"levelo_inurba_marseille","lat":43.265688,"lon":5.390184,"is_reserved":false,"is_disabled":false,"rental_uris":{"android":"levelo://app?vid=a66b7863-b084-4479-9a5a-d7ada46d04eb","ios":"levelo://app?vid=a66b7863-b084-4479-9a5a-d7ada46d04eb"},"vehicle_type_id":"4","last_reported":1698498359,"current_range_meters":31200,"station_id":"ce4bhe12rcd13ifvqf30","pricing_plan_id":"free"},{"bike_id":"551651b3-e3a4-4c13-b386-0c994ab79927","system_id":"levelo_inurba_marseille","lat":43.26565,"lon":5.390059,"is_reserved":false,"is_disabled":false,"rental_uris":{"android":"levelo://app?vid=551651b3-e3a4-4c13-b386-0c994ab79927","ios":"levelo://app?vid=551651b3-e3a4-4c13-b386-0c994ab79927"},"vehicle_type_id":"4","last_reported":1698498359,"current_range_meters":31200,"station_id":"ce4bhe12rcd13ifvqf30","pricing_plan_id":"free"},{"bike_id":"7d483789-d78e-4a71-b13c-9c5165760ef4","system_id":"levelo_inurba_marseille","lat":43.280784,"lon":5.396622,"is_reserved":false,"is_disabled":false,"rental_uris":{"android":"levelo://app?vid=7d483789-d78e-4a71-b13c-9c5165760ef4","ios":"levelo://app?vid=7d483789-d78e-4a71-b13c-9c5165760ef4"},"vehicle_type_id":"4","last_reported":1698498359,"current_range_meters":30800,"station_id":"ce4bho12rcd13ifvqh2g","pricing_plan_id":"free"},{"bike_id":"ef820029-ec67-41ac-9e3f-01bf5be908ad","system_id":"levelo_inurba_marseille","lat":43.265451,"lon":5.390001,"is_reserved":false,"is_disabled":false,"rental_uris":{"android":"levelo://app?vid=ef820029-ec67-41ac-9e3f-01bf5be908ad","ios":"levelo://app?vid=ef820029-ec67-41ac-9e3f-01bf5be908ad"},"vehicle_type_id":"4","last_reported":1698498359,"current_range_meters":10400,"station_id":"ce4bhe12rcd13ifvqf30","pricing_plan_id":"free"},{"bike_id":"58e78a94-2329-4d25-bb89-c167243430d4","system_id":"levelo_inurba_marseille","lat":43.26938,"lon":5.40251,"is_reserved":false,"is_disabled":false,"rental_uris":{"android":"levelo://app?vid=58e78a94-2329-4d25-bb89-c167243430d4","ios":"levelo://app?vid=58e78a94-2329-4d25-bb89-c167243430d4"},"vehicle_type_id":"4","last_reported":1698498359,"current_range_meters":21600,"station_id":"cjm6bp8fraef2m0cb0m0","pricing_plan_id":"free"},{"bike_id":"ffb44ad3-4af7-472a-9d95-988acd0fd95d","system_id":"levelo_inurba_marseille","lat":43.317601,"lon":5.436344,"is_reserved":false,"is_disabled":false,"rental_uris":{"android":"levelo://app?vid=ffb44ad3-4af7-472a-9d95-988acd0fd95d","ios":"levelo://app?vid=ffb44ad3-4af7-472a-9d95-988acd0fd95d"},"vehicle_type_id":"4","last_reported":1698498359,"current_range_meters":20000,"station_id":"","pricing_plan_id":"free"},{"bike_id":"75b5f92c-917f-4e31-a596-c73744c85042","system_id":"levelo_inurba_marseille","lat":43.317597,"lon":5.436379,"is_reserved":false,"is_disabled":false,"rental_uris":{"android":"levelo://app?vid=75b5f92c-917f-4e31-a596-c73744c85042","ios":"levelo://app?vid=75b5f92c-917f-4e31-a596-c73744c85042"},"vehicle_type_id":"4","last_reported":1698498359,"current_range_meters":19200,"station_id":"","pricing_plan_id":"free"},{"bike_id":"6972960f-6ecd-4bd9-ace5-3c0d7d26ea39","system_id":"levelo_inurba_marseille","lat":43.331883,"lon":5.431859,"is_reserved":false,"is_disabled":false,"rental_uris":{"android":"levelo://app?vid=6972960f-6ecd-4bd9-ace5-3c0d7d26ea39","ios":"levelo://app?vid=6972960f-6ecd-4bd9-ace5-3c0d7d26ea39"},"vehicle_type_id":"4","last_reported":1698498359,"current_range_meters":4000,"station_id":"","pricing_plan_id":"free"},{"bike_id":"d0c8b192-fd2c-4aa1-81e6-f52818b1ea5e","system_id":"levelo_inurba_marseille","lat":43.261782,"lon":5.374515,"is_reserved":false,"is_disabled":false,"rental_uris":{"android":"levelo://app?vid=d0c8b192-fd2c-4aa1-81e6-f52818b1ea5e","ios":"levelo://app?vid=d0c8b192-fd2c-4aa1-81e6-f52818b1ea5e"},"vehicle_type_id":"4","last_reported":1698498359,"current_range_meters":30000,"station_id":"ce4bhgp2rcd13ifvqfc0","pricing_plan_id":"free"},{"bike_id":"0f7b7cc6-e92a-4cb3-8a92-7c2a466330d9","system_id":"levelo_inurba_marseille","lat":43.317118,"lon":5.437053,"is_reserved":false,"is_disabled":false,"rental_uris":{"android":"levelo://app?vid=0f7b7cc6-e92a-4cb3-8a92-7c2a466330d9","ios":"levelo://app?vid=0f7b7cc6-e92a-4cb3-8a92-7c2a466330d9"},"vehicle_type_id":"4","last_reported":1698498359,"current_range_meters":8800,"station_id":"ce4bhp92rcd13ifvqhcg","pricing_plan_id":"free"},{"bike_id":"46d93f98-1887-4ceb-9643-e5fcb0605d48","system_id":"levelo_inurba_marseille","lat":43.31716,"lon":5.43707,"is_reserved":false,"is_disabled":false,"rental_uris":{"android":"levelo://app?vid=46d93f98-1887-4ceb-9643-e5fcb0605d48","ios":"levelo://app?vid=46d93f98-1887-4ceb-9643-e5fcb0605d48"},"vehicle_type_id":"4","last_reported":1698498359,"current_range_meters":18800,"station_id":"ce4bhp92rcd13ifvqhcg","pricing_plan_id":"free"},{"bike_id":"bf7f8cc3-6015-4be2-a668-f27bf19833ec","system_id":"levelo_inurba_marseille","lat":43.261782,"lon":5.374515,"is_reserved":false,"is_disabled":false,"rental_uris":{"android":"levelo://app?vid=bf7f8cc3-6015-4be2-a668-f27bf19833ec","ios":"levelo://app?vid=bf7f8cc3-6015-4be2-a668-f27bf19833ec"},"vehicle_type_id":"4","last_reported":1698498359,"current_range_meters":24400,"station_id":"ce4bhgp2rcd13ifvqfc0","pricing_plan_id":"free"},{"bike_id":"379a37f8-5906-4962-b246-dcc5e1990ab5","system_id":"levelo_inurba_marseille","lat":43.2616,"lon":5.37306,"is_reserved":false,"is_disabled":false,"rental_uris":{"android":"levelo://app?vid=379a37f8-5906-4962-b246-dcc5e1990ab5","ios":"levelo://app?vid=379a37f8-5906-4962-b246-dcc5e1990ab5"},"vehicle_type_id":"4","last_reported":1698498359,"current_range_meters":26800,"station_id":"","pricing_plan_id":"free"},{"bike_id":"0f6e06b6-e4a3-4934-95ba-d442725605c3","system_id":"levelo_inurba_marseille","lat":43.271368,"lon":5.40928,"is_reserved":false,"is_disabled":false,"rental_uris":{"android":"levelo://app?vid=0f6e06b6-e4a3-4934-95ba-d442725605c3","ios":"levelo://app?vid=0f6e06b6-e4a3-4934-95ba-d442725605c3"},"vehicle_type_id":"4","last_reported":1698498359,"current_range_meters":22000,"station_id":"ce4bhl12rcd13ifvqgf0","pricing_plan_id":"free"},{"bike_id":"41d69114-99ae-4aee-a18b-7a154ec9cdc6","system_id":"levelo_inurba_marseille","lat":43.271368,"lon":5.40928,"is_reserved":false,"is_disabled":false,"rental_uris":{"android":"levelo://app?vid=41d69114-99ae-4aee-a18b-7a154ec9cdc6","ios":"levelo://app?vid=41d69114-99ae-4aee-a18b-7a154ec9cdc6"},"vehicle_type_id":"4","last_reported":1698498359,"current_range_meters":32000,"station_id":"ce4bhl12rcd13ifvqgf0","pricing_plan_id":"free"},{"bike_id":"6edd0d8c-cd64-4d6a-ba57-e9a358bddd57","system_id":"levelo_inurba_marseille","lat":43.271368,"lon":5.40928,"is_reserved":false,"is_disabled":false,"rental_uris":{"android":"levelo://app?vid=6edd0d8c-cd64-4d6a-ba57-e9a358bddd57","ios":"levelo://app?vid=6edd0d8c-cd64-4d6a-ba57-e9a358bddd57"},"vehicle_type_id":"4","last_reported":1698498359,"current_range_meters":31600,"station_id":"ce4bhl12rcd13ifvqgf0","pricing_plan_id":"free"},{"bike_id":"115b44f0-d820-48da-b20e-6b6571349e52","system_id":"levelo_inurba_marseille","lat":43.271368,"lon":5.40928,"is_reserved":false,"is_disabled":false,"rental_uris":{"android":"levelo://app?vid=115b44f0-d820-48da-b20e-6b6571349e52","ios":"levelo://app?vid=115b44f0-d820-48da-b20e-6b6571349e52"},"vehicle_type_id":"4","last_reported":1698498359,"current_range_meters":29600,"station_id":"ce4bhl12rcd13ifvqgf0","pricing_plan_id":"free"},{"bike_id":"4eef6400-f0b7-4546-b29d-e82ed348e4c7","system_id":"levelo_inurba_marseille","lat":43.271388,"lon":5.409269,"is_reserved":false,"is_disabled":false,"rental_uris":{"android":"levelo://app?vid=4eef6400-f0b7-4546-b29d-e82ed348e4c7","ios":"levelo://app?vid=4eef6400-f0b7-4546-b29d-e82ed348e4c7"},"vehicle_type_id":"4","last_reported":1698498359,"current_range_meters":30400,"station_id":"ce4bhl12rcd13ifvqgf0","pricing_plan_id":"free"},{"bike_id":"15ccd908-8f01-48bf-924e-56477397b171","system_id":"levelo_inurba_marseille","lat":43.271368,"lon":5.40928,"is_reserved":false,"is_disabled":false,"rental_uris":{"android":"levelo://app?vid=15ccd908-8f01-48bf-924e-56477397b171","ios":"levelo://app?vid=15ccd908-8f01-48bf-924e-56477397b171"},"vehicle_type_id":"4","last_reported":1698498359,"current_range_meters":31600,"station_id":"ce4bhl12rcd13ifvqgf0","pricing_plan_id":"free"},{"bike_id":"db134fa0-24a1-4cbc-94dd-badb46e7154b","system_id":"levelo_inurba_marseille","lat":43.271388,"lon":5.409269,"is_reserved":false,"is_disabled":false,"rental_uris":{"android":"levelo://app?vid=db134fa0-24a1-4cbc-94dd-badb46e7154b","ios":"levelo://app?vid=db134fa0-24a1-4cbc-94dd-badb46e7154b"},"vehicle_type_id":"4","last_reported":1698498359,"current_range_meters":31600,"station_id":"ce4bhl12rcd13ifvqgf0","pricing_plan_id":"free"},{"bike_id":"412c74ec-ff75-41b8-b7a8-b03575a5be22","system_id":"levelo_inurba_marseille","lat":43.271368,"lon":5.40928,"is_reserved":false,"is_disabled":false,"rental_uris":{"android":"levelo://app?vid=412c74ec-ff75-41b8-b7a8-b03575a5be22","ios":"levelo://app?vid=412c74ec-ff75-41b8-b7a8-b03575a5be22"},"vehicle_type_id":"4","last_reported":1698498359,"current_range_meters":32000,"station_id":"ce4bhl12rcd13ifvqgf0","pricing_plan_id":"free"},{"bike_id":"19690968-8a08-41ab-959e-0ceb939875b4","system_id":"levelo_inurba_marseille","lat":43.267959,"lon":5.402687,"is_reserved":false,"is_disabled":false,"rental_uris":{"android":"levelo://app?vid=19690968-8a08-41ab-959e-0ceb939875b4","ios":"levelo://app?vid=19690968-8a08-41ab-959e-0ceb939875b4"},"vehicle_type_id":"4","last_reported":1698498359,"current_range_meters":16400,"station_id":"ce501612rcd8frsf0b60","pricing_plan_id":"free"},{"bike_id":"77e34670-3093-4706-b2e4-bebeb79a1d6a","system_id":"levelo_inurba_marseille","lat":43.29898,"lon":5.43657,"is_reserved":false,"is_disabled":false,"rental_uris":{"android":"levelo://app?vid=77e34670-3093-4706-b2e4-bebeb79a1d6a","ios":"levelo://app?vid=77e34670-3093-4706-b2e4-bebeb79a1d6a"},"vehicle_type_id":"4","last_reported":1698498359,"current_range_meters":28800,"station_id":"ce4bhpp2rcd13ifvqhfg","pricing_plan_id":"free"},{"bike_id":"062fe57f-f882-438c-a6a5-1a59cb82dd9e","system_id":"levelo_inurba_marseille","lat":43.298768,"lon":5.43643,"is_reserved":false,"is_disabled":false,"rental_uris":{"android":"levelo://app?vid=062fe57f-f882-438c-a6a5-1a59cb82dd9e","ios":"levelo://app?vid=062fe57f-f882-438c-a6a5-1a59cb82dd9e"},"vehicle_type_id":"4","last_reported":1698498359,"current_range_meters":29600,"station_id":"ce4bhpp2rcd13ifvqhfg","pricing_plan_id":"free"},{"bike_id":"712603d3-9d76-46c0-bbe0-94e2f446a22f","system_id":"levelo_inurba_marseille","lat":43.298768,"lon":5.43643,"is_reserved":false,"is_disabled":false,"rental_uris":{"android":"levelo://app?vid=712603d3-9d76-46c0-bbe0-94e2f446a22f","ios":"levelo://app?vid=712603d3-9d76-46c0-bbe0-94e2f446a22f"},"vehicle_type_id":"4","last_reported":1698498359,"current_range_meters":31600,"station_id":"ce4bhpp2rcd13ifvqhfg","pricing_plan_id":"free"},{"bike_id":"ffc2450b-ca65-48be-877c-e67a64d84a69","system_id":"levelo_inurba_marseille","lat":43.298768,"lon":5.43643,"is_reserved":false,"is_disabled":false,"rental_uris":{"android":"levelo://app?vid=ffc2450b-ca65-48be-877c-e67a64d84a69","ios":"levelo://app?vid=ffc2450b-ca65-48be-877c-e67a64d84a69"},"vehicle_type_id":"4","last_reported":1698498359,"current_range_meters":20400,"station_id":"ce4bhpp2rcd13ifvqhfg","pricing_plan_id":"free"},{"bike_id":"27c489d4-de84-4500-b91a-bc1ecf03afc7","system_id":"levelo_inurba_marseille","lat":43.298768,"lon":5.43643,"is_reserved":false,"is_disabled":false,"rental_uris":{"android":"levelo://app?vid=27c489d4-de84-4500-b91a-bc1ecf03afc7","ios":"levelo://app?vid=27c489d4-de84-4500-b91a-bc1ecf03afc7"},"vehicle_type_id":"4","last_reported":1698498359,"current_range_meters":30000,"station_id":"ce4bhpp2rcd13ifvqhfg","pricing_plan_id":"free"},{"bike_id":"2d68e311-fa6b-4262-8748-c58e046b15d1","system_id":"levelo_inurba_marseille","lat":43.298768,"lon":5.43643,"is_reserved":false,"is_disabled":false,"rental_uris":{"android":"levelo://app?vid=2d68e311-fa6b-4262-8748-c58e046b15d1","ios":"levelo://app?vid=2d68e311-fa6b-4262-8748-c58e046b15d1"},"vehicle_type_id":"4","last_reported":1698498359,"current_range_meters":31600,"station_id":"ce4bhpp2rcd13ifvqhfg","pricing_plan_id":"free"},{"bike_id":"36e5429c-c15a-45b6-b462-b1f2d94699c7","system_id":"levelo_inurba_marseille","lat":43.298768,"lon":5.43643,"is_reserved":false,"is_disabled":false,"rental_uris":{"android":"levelo://app?vid=36e5429c-c15a-45b6-b462-b1f2d94699c7","ios":"levelo://app?vid=36e5429c-c15a-45b6-b462-b1f2d94699c7"},"vehicle_type_id":"4","last_reported":1698498359,"current_range_meters":6800,"station_id":"ce4bhpp2rcd13ifvqhfg","pricing_plan_id":"free"},{"bike_id":"6b770adf-9f1d-4df7-a077-fafb0b7d34f5","system_id":"levelo_inurba_marseille","lat":43.260292,"lon":5.375771,"is_reserved":false,"is_disabled":false,"rental_uris":{"android":"levelo://app?vid=6b770adf-9f1d-4df7-a077-fafb0b7d34f5","ios":"levelo://app?vid=6b770adf-9f1d-4df7-a077-fafb0b7d34f5"},"vehicle_type_id":"4","last_reported":1698498359,"current_range_meters":23600,"station_id":"ce4bhgh2rcd13ifvqfa0","pricing_plan_id":"free"},{"bike_id":"71ded16b-8784-48a2-a834-d35ee984298c","system_id":"levelo_inurba_marseille","lat":43.28152,"lon":5.42635,"is_reserved":false,"is_disabled":false,"rental_uris":{"android":"levelo://app?vid=71ded16b-8784-48a2-a834-d35ee984298c","ios":"levelo://app?vid=71ded16b-8784-48a2-a834-d35ee984298c"},"vehicle_type_id":"4","last_reported":1698498359,"current_range_meters":26000,"station_id":"ce4bhnh2rcd13ifvqgug","pricing_plan_id":"free"},{"bike_id":"b3ed3ed0-1380-476b-9cd6-63fae2b42a55","system_id":"levelo_inurba_marseille","lat":43.28151,"lon":5.42638,"is_reserved":false,"is_disabled":false,"rental_uris":{"android":"levelo://app?vid=b3ed3ed0-1380-476b-9cd6-63fae2b42a55","ios":"levelo://app?vid=b3ed3ed0-1380-476b-9cd6-63fae2b42a55"},"vehicle_type_id":"4","last_reported":1698498359,"current_range_meters":7600,"station_id":"ce4bhnh2rcd13ifvqgug","pricing_plan_id":"free"},{"bike_id":"7b10985c-21fd-4acd-a803-b40384cefaf3","system_id":"levelo_inurba_marseille","lat":43.28155,"lon":5.42642,"is_reserved":false,"is_disabled":false,"rental_uris":{"android":"levelo://app?vid=7b10985c-21fd-4acd-a803-b40384cefaf3","ios":"levelo://app?vid=7b10985c-21fd-4acd-a803-b40384cefaf3"},"vehicle_type_id":"4","last_reported":1698498359,"current_range_meters":3200,"station_id":"ce4bhnh2rcd13ifvqgug","pricing_plan_id":"free"},{"bike_id":"6864ff70-8a9a-4de1-bc39-32275a2746b4","system_id":"levelo_inurba_marseille","lat":43.28154,"lon":5.42646,"is_reserved":false,"is_disabled":false,"rental_uris":{"android":"levelo://app?vid=6864ff70-8a9a-4de1-bc39-32275a2746b4","ios":"levelo://app?vid=6864ff70-8a9a-4de1-bc39-32275a2746b4"},"vehicle_type_id":"4","last_reported":1698498359,"current_range_meters":20400,"station_id":"ce4bhnh2rcd13ifvqgug","pricing_plan_id":"free"},{"bike_id":"34a1abce-f097-4a4d-a862-4c8711e0a57b","system_id":"levelo_inurba_marseille","lat":43.281537,"lon":5.42646,"is_reserved":false,"is_disabled":false,"rental_uris":{"android":"levelo://app?vid=34a1abce-f097-4a4d-a862-4c8711e0a57b","ios":"levelo://app?vid=34a1abce-f097-4a4d-a862-4c8711e0a57b"},"vehicle_type_id":"4","last_reported":1698498359,"current_range_meters":400,"station_id":"ce4bhnh2rcd13ifvqgug","pricing_plan_id":"free"},{"bike_id":"9159a0c7-6374-4645-86b4-d189ad0a225d","system_id":"levelo_inurba_marseille","lat":43.281536,"lon":5.426463,"is_reserved":false,"is_disabled":false,"rental_uris":{"android":"levelo://app?vid=9159a0c7-6374-4645-86b4-d189ad0a225d","ios":"levelo://app?vid=9159a0c7-6374-4645-86b4-d189ad0a225d"},"vehicle_type_id":"4","last_reported":1698498359,"current_range_meters":12000,"station_id":"ce4bhnh2rcd13ifvqgug","pricing_plan_id":"free"},{"bike_id":"45d05dc7-f764-49e5-9bac-7bc1d077a4f3","system_id":"levelo_inurba_marseille","lat":43.2815,"lon":5.4265,"is_reserved":false,"is_disabled":false,"rental_uris":{"android":"levelo://app?vid=45d05dc7-f764-49e5-9bac-7bc1d077a4f3","ios":"levelo://app?vid=45d05dc7-f764-49e5-9bac-7bc1d077a4f3"},