{"last_updated":1717693686,"ttl":30,"version":"2.2","data":{"bikes":[{"bike_id":"b210bfbe-3bbf-4265-80d6-600642f35691","system_id":"levelo_inurba_marseille","lat":43.312239,"lon":5.368562,"is_reserved":false,"is_disabled":false,"rental_uris":{"android":"levelo://app?vid=b210bfbe-3bbf-4265-80d6-600642f35691","ios":"levelo://app?vid=b210bfbe-3bbf-4265-80d6-600642f35691"},"vehicle_type_id":"4","last_reported":1717693686,"current_range_meters":5600,"station_id":"ce4bgl92rcd13ifvqbq0","pricing_plan_id":"cebpf4jnsgd1na2vs0mg"},{"bike_id":"28cffee4-ee8b-4a2c-b7e5-4a184a96ad87","system_id":"levelo_inurba_marseille","lat":43.312239,"lon":5.368562,"is_reserved":false,"is_disabled":false,"rental_uris":{"android":"levelo://app?vid=28cffee4-ee8b-4a2c-b7e5-4a184a96ad87","ios":"levelo://app?vid=28cffee4-ee8b-4a2c-b7e5-4a184a96ad87"},"vehicle_type_id":"4","last_reported":1717693686,"current_range_meters":5200,"station_id":"ce4bgl92rcd13ifvqbq0","pricing_plan_id":"cebpf4jnsgd1na2vs0mg"},{"bike_id":"683aac6e-bf63-415e-b607-d0adee3c35c6","system_id":"levelo_inurba_marseille","lat":43.312239,"lon":5.368562,"is_reserved":false,"is_disabled":false,"rental_uris":{"android":"levelo://app?vid=683aac6e-bf63-415e-b607-d0adee3c35c6","ios":"levelo://app?vid=683aac6e-bf63-415e-b607-d0adee3c35c6"},"vehicle_type_id":"4","last_reported":1717693686,"current_range_meters":0,"station_id":"ce4bgl92rcd13ifvqbq0","pricing_plan_id":"cebpf4jnsgd1na2vs0mg"},{"bike_id":"6dd8169c-bec0-4df0-9f56-f9edb18a0441","system_id":"levelo_inurba_marseille","lat":43.314811,"lon":5.373104,"is_reserved":false,"is_disabled":false,"rental_uris":{"android":"levelo://app?vid=6dd8169c-bec0-4df0-9f56-f9edb18a0441","ios":"levelo://app?vid=6dd8169c-bec0-4df0-9f56-f9edb18a0441"},"vehicle_type_id":"4","last_reported":1717693686,"current_range_meters":0,"station_id":"ce4bgt12rcd13ifvqcd0","pricing_plan_id":"cebpf4jnsgd1na2vs0mg"},{"bike_id":"ee7383d4-fdd8-46f9-ad27-c5193471fa6d","system_id":"levelo_inurba_marseille","lat":43.3158,"lon":5.37483,"is_reserved":false,"is_disabled":false,"rental_uris":{"android":"levelo://app?vid=ee7383d4-fdd8-46f9-ad27-c5193471fa6d","ios":"levelo://app?vid=ee7383d4-fdd8-46f9-ad27-c5193471fa6d"},"vehicle_type_id":"4","last_reported":1717693686,"current_range_meters":2400,"station_id":"","pricing_plan_id":"cebpf4jnsgd1na2vs0mg"},{"bike_id":"d5dee682-53f1-46aa-aae0-c4a5545a944a","system_id":"levelo_inurba_marseille","lat":43.305712,"lon":5.365641,"is_reserved":false,"is_disabled":false,"rental_uris":{"android":"levelo://app?vid=d5dee682-53f1-46aa-aae0-c4a5545a944a","ios":"levelo://app?vid=d5dee682-53f1-46aa-aae0-c4a5545a944a"},"vehicle_type_id":"4","last_reported":1717693686,"current_range_meters":0,"station_id":"ce4bgs12rcd13ifvqcag","pricing_plan_id":"cebpf4jnsgd1na2vs0mg"},{"bike_id":"4373d221-dede-483c-8787-2124bb87356c","system_id":"levelo_inurba_marseille","lat":43.305706,"lon":5.365654,"is_reserved":false,"is_disabled":false,"rental_uris":{"android":"levelo://app?vid=4373d221-dede-483c-8787-2124bb87356c","ios":"levelo://app?vid=4373d221-dede-483c-8787-2124bb87356c"},"vehicle_type_id":"4","last_reported":1717693686,"current_range_meters":16400,"station_id":"ce4bgs12rcd13ifvqcag","pricing_plan_id":"cebpf4jnsgd1na2vs0mg"},{"bike_id":"07462aba-3060-405e-9a22-1ca568cbdd4a","system_id":"levelo_inurba_marseille","lat":43.311125,"lon":5.377624,"is_reserved":false,"is_disabled":false,"rental_uris":{"android":"levelo://app?vid=07462aba-3060-405e-9a22-1ca568cbdd4a","ios":"levelo://app?vid=07462aba-3060-405e-9a22-1ca568cbdd4a"},"vehicle_type_id":"4","last_reported":1717693686,"current_range_meters":25600,"station_id":"ce4bgt92rcd13ifvqcg0","pricing_plan_id":"cebpf4jnsgd1na2vs0mg"},{"bike_id":"d6be8808-0b4d-457b-ae8a-2a2c5fa69830","system_id":"levelo_inurba_marseille","lat":43.311131,"lon":5.377651,"is_reserved":false,"is_disabled":false,"rental_uris":{"android":"levelo://app?vid=d6be8808-0b4d-457b-ae8a-2a2c5fa69830","ios":"levelo://app?vid=d6be8808-0b4d-457b-ae8a-2a2c5fa69830"},"vehicle_type_id":"4","last_reported":1717693686,"current_range_meters":16800,"station_id":"ce4bgt92rcd13ifvqcg0","pricing_plan_id":"cebpf4jnsgd1na2vs0mg"},{"bike_id":"ded7b1e3-9ead-4849-a8dd-0fe4aa983dc2","system_id":"levelo_inurba_marseille","lat":43.307945,"lon":5.376487,"is_reserved":false,"is_disabled":false,"rental_uris":{"android":"levelo://app?vid=ded7b1e3-9ead-4849-a8dd-0fe4aa983dc2","ios":"levelo://app?vid=ded7b1e3-9ead-4849-a8dd-0fe4aa983dc2"},"vehicle_type_id":"4","last_reported":1717693686,"current_range_meters":5600,"station_id":"ce4bgv92rcd13ifvqcq0","pricing_plan_id":"cebpf4jnsgd1na2vs0mg"},{"bike_id":"f5b731c4-63dd-4086-b110-bca6ffb33c5d","system_id":"levelo_inurba_marseille","lat":43.307945,"lon":5.376487,"is_reserved":false,"is_disabled":false,"rental_uris":{"android":"levelo://app?vid=f5b731c4-63dd-4086-b110-bca6ffb33c5d","ios":"levelo://app?vid=f5b731c4-63dd-4086-b110-bca6ffb33c5d"},"vehicle_type_id":"4","last_reported":1717693686,"current_range_meters":7200,"station_id":"ce4bgv92rcd13ifvqcq0","pricing_plan_id":"cebpf4jnsgd1na2vs0mg"},{"bike_id":"cffad6ce-21f5-4467-830e-0d7d1e6f70dd","system_id":"levelo_inurba_marseille","lat":43.30304,"lon":5.368987,"is_reserved":false,"is_disabled":false,"rental_uris":{"android":"levelo://app?vid=cffad6ce-21f5-4467-830e-0d7d1e6f70dd","ios":"levelo://app?vid=cffad6ce-21f5-4467-830e-0d7d1e6f70dd"},"vehicle_type_id":"4","last_reported":1717693686,"current_range_meters":31200,"station_id":"ce4bgqh2rcd13ifvqc5g","pricing_plan_id":"cebpf4jnsgd1na2vs0mg"},{"bike_id":"277bc5d4-e6b6-46e9-8976-99c0dc6b269a","system_id":"levelo_inurba_marseille","lat":43.303046,"lon":5.368981,"is_reserved":false,"is_disabled":false,"rental_uris":{"android":"levelo://app?vid=277bc5d4-e6b6-46e9-8976-99c0dc6b269a","ios":"levelo://app?vid=277bc5d4-e6b6-46e9-8976-99c0dc6b269a"},"vehicle_type_id":"4","last_reported":1717693686,"current_range_meters":31200,"station_id":"ce4bgqh2rcd13ifvqc5g","pricing_plan_id":"cebpf4jnsgd1na2vs0mg"},{"bike_id":"111c17f9-7108-41a7-880b-d2a8bce9ccd5","system_id":"levelo_inurba_marseille","lat":43.30304,"lon":5.368987,"is_reserved":false,"is_disabled":false,"rental_uris":{"android":"levelo://app?vid=111c17f9-7108-41a7-880b-d2a8bce9ccd5","ios":"levelo://app?vid=111c17f9-7108-41a7-880b-d2a8bce9ccd5"},"vehicle_type_id":"4","last_reported":1717693686,"current_range_meters":0,"station_id":"ce4bgqh2rcd13ifvqc5g","pricing_plan_id":"cebpf4jnsgd1na2vs0mg"},{"bike_id":"c5beb947-d5e5-4e25-81af-fc0046179a8b","system_id":"levelo_inurba_marseille","lat":43.315289,"lon":5.380349,"is_reserved":false,"is_disabled":false,"rental_uris":{"android":"levelo://app?vid=c5beb947-d5e5-4e25-81af-fc0046179a8b","ios":"levelo://app?vid=c5beb947-d5e5-4e25-81af-fc0046179a8b"},"vehicle_type_id":"4","last_reported":1717693686,"current_range_meters":24400,"station_id":"ce4bhsp2rcd13ifvqi50","pricing_plan_id":"cebpf4jnsgd1na2vs0mg"},{"bike_id":"aef4228f-a457-4bdc-a681-3cc10f01f18a","system_id":"levelo_inurba_marseille","lat":43.301939,"lon":5.366286,"is_reserved":false,"is_disabled":false,"rental_uris":{"android":"levelo://app?vid=aef4228f-a457-4bdc-a681-3cc10f01f18a","ios":"levelo://app?vid=aef4228f-a457-4bdc-a681-3cc10f01f18a"},"vehicle_type_id":"4","last_reported":1717693686,"current_range_meters":22800,"station_id":"ce4bgrh2rcd13ifvqc8g","pricing_plan_id":"cebpf4jnsgd1na2vs0mg"},{"bike_id":"91fba890-0d53-4836-991d-eab6cbe7576d","system_id":"levelo_inurba_marseille","lat":43.301939,"lon":5.366286,"is_reserved":false,"is_disabled":false,"rental_uris":{"android":"levelo://app?vid=91fba890-0d53-4836-991d-eab6cbe7576d","ios":"levelo://app?vid=91fba890-0d53-4836-991d-eab6cbe7576d"},"vehicle_type_id":"4","last_reported":1717693686,"current_range_meters":22400,"station_id":"ce4bgrh2rcd13ifvqc8g","pricing_plan_id":"cebpf4jnsgd1na2vs0mg"},{"bike_id":"d01231e7-3109-473c-93d2-1c492ecabfaf","system_id":"levelo_inurba_marseille","lat":43.301939,"lon":5.366286,"is_reserved":false,"is_disabled":false,"rental_uris":{"android":"levelo://app?vid=d01231e7-3109-473c-93d2-1c492ecabfaf","ios":"levelo://app?vid=d01231e7-3109-473c-93d2-1c492ecabfaf"},"vehicle_type_id":"4","last_reported":1717693686,"current_range_meters":13200,"station_id":"ce4bgrh2rcd13ifvqc8g","pricing_plan_id":"cebpf4jnsgd1na2vs0mg"},{"bike_id":"1dfcc79d-235f-4615-8197-0e9fcf241169","system_id":"levelo_inurba_marseille","lat":43.301939,"lon":5.366286,"is_reserved":false,"is_disabled":false,"rental_uris":{"android":"levelo://app?vid=1dfcc79d-235f-4615-8197-0e9fcf241169","ios":"levelo://app?vid=1dfcc79d-235f-4615-8197-0e9fcf241169"},"vehicle_type_id":"4","last_reported":1717693686,"current_range_meters":31200,"station_id":"ce4bgrh2rcd13ifvqc8g","pricing_plan_id":"cebpf4jnsgd1na2vs0mg"},{"bike_id":"bfece02b-8c05-4ea6-a4a5-b613c61d7324","system_id":"levelo_inurba_marseille","lat":43.302232,"lon":5.371355,"is_reserved":false,"is_disabled":false,"rental_uris":{"android":"levelo://app?vid=bfece02b-8c05-4ea6-a4a5-b613c61d7324","ios":"levelo://app?vid=bfece02b-8c05-4ea6-a4a5-b613c61d7324"},"vehicle_type_id":"4","last_reported":1717693686,"current_range_meters":18800,"station_id":"","pricing_plan_id":"cebpf4jnsgd1na2vs0mg"},{"bike_id":"63a51843-90d2-46cd-ba36-4227d040b7e6","system_id":"levelo_inurba_marseille","lat":43.324771,"lon":5.36557,"is_reserved":false,"is_disabled":false,"rental_uris":{"android":"levelo://app?vid=63a51843-90d2-46cd-ba36-4227d040b7e6","ios":"levelo://app?vid=63a51843-90d2-46cd-ba36-4227d040b7e6"},"vehicle_type_id":"4","last_reported":1717693686,"current_range_meters":10800,"station_id":"ce4bhs12rcd13ifvqhvg","pricing_plan_id":"cebpf4jnsgd1na2vs0mg"},{"bike_id":"6ee0b93b-784d-4a7c-a71e-21fe41d83b23","system_id":"levelo_inurba_marseille","lat":43.307956,"lon":5.381654,"is_reserved":false,"is_disabled":false,"rental_uris":{"android":"levelo://app?vid=6ee0b93b-784d-4a7c-a71e-21fe41d83b23","ios":"levelo://app?vid=6ee0b93b-784d-4a7c-a71e-21fe41d83b23"},"vehicle_type_id":"4","last_reported":1717693686,"current_range_meters":6800,"station_id":"ce4bgg92rcd13ifvqb30","pricing_plan_id":"cebpf4jnsgd1na2vs0mg"},{"bike_id":"f994ff5b-7f0a-4188-855e-9e16c1f025bf","system_id":"levelo_inurba_marseille","lat":43.324771,"lon":5.36557,"is_reserved":false,"is_disabled":false,"rental_uris":{"android":"levelo://app?vid=f994ff5b-7f0a-4188-855e-9e16c1f025bf","ios":"levelo://app?vid=f994ff5b-7f0a-4188-855e-9e16c1f025bf"},"vehicle_type_id":"4","last_reported":1717693686,"current_range_meters":3600,"station_id":"ce4bhs12rcd13ifvqhvg","pricing_plan_id":"cebpf4jnsgd1na2vs0mg"},{"bike_id":"a0d4b820-e472-448b-a7c8-4101166b4320","system_id":"levelo_inurba_marseille","lat":43.310804,"lon":5.38359,"is_reserved":false,"is_disabled":false,"rental_uris":{"android":"levelo://app?vid=a0d4b820-e472-448b-a7c8-4101166b4320","ios":"levelo://app?vid=a0d4b820-e472-448b-a7c8-4101166b4320"},"vehicle_type_id":"4","last_reported":1717693686,"current_range_meters":800,"station_id":"ce4bgv92rcd13ifvqcr0","pricing_plan_id":"cebpf4jnsgd1na2vs0mg"},{"bike_id":"0a06c50e-1884-453b-9423-c62a66c23c6c","system_id":"levelo_inurba_marseille","lat":43.30148,"lon":5.3741,"is_reserved":false,"is_disabled":false,"rental_uris":{"android":"levelo://app?vid=0a06c50e-1884-453b-9423-c62a66c23c6c","ios":"levelo://app?vid=0a06c50e-1884-453b-9423-c62a66c23c6c"},"vehicle_type_id":"4","last_reported":1717693686,"current_range_meters":22400,"station_id":"ce4bgs92rcd13ifvqcc0","pricing_plan_id":"cebpf4jnsgd1na2vs0mg"},{"bike_id":"3d24971d-47a4-4dc3-a909-8e90c37bdbe2","system_id":"levelo_inurba_marseille","lat":43.31991,"lon":5.38144,"is_reserved":false,"is_disabled":false,"rental_uris":{"android":"levelo://app?vid=3d24971d-47a4-4dc3-a909-8e90c37bdbe2","ios":"levelo://app?vid=3d24971d-47a4-4dc3-a909-8e90c37bdbe2"},"vehicle_type_id":"4","last_reported":1717693686,"current_range_meters":0,"station_id":"ce4bhr12rcd13ifvqhpg","pricing_plan_id":"cebpf4jnsgd1na2vs0mg"},{"bike_id":"3601c9bb-3dd6-4346-8cdb-3af2b71d3178","system_id":"levelo_inurba_marseille","lat":43.313558,"lon":5.384748,"is_reserved":false,"is_disabled":false,"rental_uris":{"android":"levelo://app?vid=3601c9bb-3dd6-4346-8cdb-3af2b71d3178","ios":"levelo://app?vid=3601c9bb-3dd6-4346-8cdb-3af2b71d3178"},"vehicle_type_id":"4","last_reported":1717693686,"current_range_meters":400,"station_id":"ce4bgt92rcd13ifvqcf0","pricing_plan_id":"cebpf4jnsgd1na2vs0mg"},{"bike_id":"573cc50d-59a7-4560-8ff0-a7f10cd3f6f5","system_id":"levelo_inurba_marseille","lat":43.313572,"lon":5.384849,"is_reserved":false,"is_disabled":false,"rental_uris":{"android":"levelo://app?vid=573cc50d-59a7-4560-8ff0-a7f10cd3f6f5","ios":"levelo://app?vid=573cc50d-59a7-4560-8ff0-a7f10cd3f6f5"},"vehicle_type_id":"4","last_reported":1717693686,"current_range_meters":22000,"station_id":"ce4bgt92rcd13ifvqcf0","pricing_plan_id":"cebpf4jnsgd1na2vs0mg"},{"bike_id":"5c431ea1-4c9c-49e1-aedc-6c5138f06b60","system_id":"levelo_inurba_marseille","lat":43.313571,"lon":5.384829,"is_reserved":false,"is_disabled":false,"rental_uris":{"android":"levelo://app?vid=5c431ea1-4c9c-49e1-aedc-6c5138f06b60","ios":"levelo://app?vid=5c431ea1-4c9c-49e1-aedc-6c5138f06b60"},"vehicle_type_id":"4","last_reported":1717693686,"current_range_meters":18000,"station_id":"ce4bgt92rcd13ifvqcf0","pricing_plan_id":"cebpf4jnsgd1na2vs0mg"},{"bike_id":"fcadf571-bd8e-4e8a-8ea5-620a941baacc","system_id":"levelo_inurba_marseille","lat":43.313571,"lon":5.384829,"is_reserved":false,"is_disabled":false,"rental_uris":{"android":"levelo://app?vid=fcadf571-bd8e-4e8a-8ea5-620a941baacc","ios":"levelo://app?vid=fcadf571-bd8e-4e8a-8ea5-620a941baacc"},"vehicle_type_id":"4","last_reported":1717693686,"current_range_meters":0,"station_id":"ce4bgt92rcd13ifvqcf0","pricing_plan_id":"cebpf4jnsgd1na2vs0mg"},{"bike_id":"239c9e3d-973c-4a91-9e7d-945c381a5864","system_id":"levelo_inurba_marseille","lat":43.31356,"lon":5.38489,"is_reserved":false,"is_disabled":false,"rental_uris":{"android":"levelo://app?vid=239c9e3d-973c-4a91-9e7d-945c381a5864","ios":"levelo://app?vid=239c9e3d-973c-4a91-9e7d-945c381a5864"},"vehicle_type_id":"4","last_reported":1717693686,"current_range_meters":14400,"station_id":"ce4bgt92rcd13ifvqcf0","pricing_plan_id":"cebpf4jnsgd1na2vs0mg"},{"bike_id":"294693c1-cba8-4278-8b1b-7d85e7ebac18","system_id":"levelo_inurba_marseille","lat":43.31361,"lon":5.38489,"is_reserved":false,"is_disabled":false,"rental_uris":{"android":"levelo://app?vid=294693c1-cba8-4278-8b1b-7d85e7ebac18","ios":"levelo://app?vid=294693c1-cba8-4278-8b1b-7d85e7ebac18"},"vehicle_type_id":"4","last_reported":1717693686,"current_range_meters":0,"station_id":"ce4bgt92rcd13ifvqcf0","pricing_plan_id":"cebpf4jnsgd1na2vs0mg"},{"bike_id":"80b95d16-c22a-4b1c-b413-a909906bf869","system_id":"levelo_inurba_marseille","lat":43.31352,"lon":5.38493,"is_reserved":false,"is_disabled":false,"rental_uris":{"android":"levelo://app?vid=80b95d16-c22a-4b1c-b413-a909906bf869","ios":"levelo://app?vid=80b95d16-c22a-4b1c-b413-a909906bf869"},"vehicle_type_id":"4","last_reported":1717693686,"current_range_meters":17600,"station_id":"ce4bgt92rcd13ifvqcf0","pricing_plan_id":"cebpf4jnsgd1na2vs0mg"},{"bike_id":"9f16f6d3-150e-456e-b322-82d06421ca27","system_id":"levelo_inurba_marseille","lat":43.313196,"lon":5.385048,"is_reserved":false,"is_disabled":false,"rental_uris":{"android":"levelo://app?vid=9f16f6d3-150e-456e-b322-82d06421ca27","ios":"levelo://app?vid=9f16f6d3-150e-456e-b322-82d06421ca27"},"vehicle_type_id":"4","last_reported":1717693686,"current_range_meters":16400,"station_id":"ce4bgt92rcd13ifvqcf0","pricing_plan_id":"cebpf4jnsgd1na2vs0mg"},{"bike_id":"2e3e4448-f0c8-4865-b820-afe3181c2208","system_id":"levelo_inurba_marseille","lat":43.299222,"lon":5.365554,"is_reserved":false,"is_disabled":false,"rental_uris":{"android":"levelo://app?vid=2e3e4448-f0c8-4865-b820-afe3181c2208","ios":"levelo://app?vid=2e3e4448-f0c8-4865-b820-afe3181c2208"},"vehicle_type_id":"4","last_reported":1717693686,"current_range_meters":1600,"station_id":"ce4bgm92rcd13ifvqbr0","pricing_plan_id":"cebpf4jnsgd1na2vs0mg"},{"bike_id":"33034f96-4a9a-4946-89ac-8a1d6a67cf62","system_id":"levelo_inurba_marseille","lat":43.299222,"lon":5.365554,"is_reserved":false,"is_disabled":false,"rental_uris":{"android":"levelo://app?vid=33034f96-4a9a-4946-89ac-8a1d6a67cf62","ios":"levelo://app?vid=33034f96-4a9a-4946-89ac-8a1d6a67cf62"},"vehicle_type_id":"4","last_reported":1717693686,"current_range_meters":16000,"station_id":"ce4bgm92rcd13ifvqbr0","pricing_plan_id":"cebpf4jnsgd1na2vs0mg"},{"bike_id":"8d2283a6-877f-41b5-9953-8569b683eb51","system_id":"levelo_inurba_marseille","lat":43.29844,"lon":5.36271,"is_reserved":false,"is_disabled":false,"rental_uris":{"android":"levelo://app?vid=8d2283a6-877f-41b5-9953-8569b683eb51","ios":"levelo://app?vid=8d2283a6-877f-41b5-9953-8569b683eb51"},"vehicle_type_id":"4","last_reported":1717693686,"current_range_meters":0,"station_id":"ce4bgpp2rcd13ifvqc3g","pricing_plan_id":"cebpf4jnsgd1na2vs0mg"},{"bike_id":"db3f63e9-da07-40ef-bf86-bc40f251d33a","system_id":"levelo_inurba_marseille","lat":43.299243,"lon":5.37481,"is_reserved":false,"is_disabled":false,"rental_uris":{"android":"levelo://app?vid=db3f63e9-da07-40ef-bf86-bc40f251d33a","ios":"levelo://app?vid=db3f63e9-da07-40ef-bf86-bc40f251d33a"},"vehicle_type_id":"4","last_reported":1717693686,"current_range_meters":2800,"station_id":"ce4bgjh2rcd13ifvqbg0","pricing_plan_id":"cebpf4jnsgd1na2vs0mg"},{"bike_id":"c95ab4ac-ad46-471c-af6f-8d8c1d0a5dd5","system_id":"levelo_inurba_marseille","lat":43.311763,"lon":5.387151,"is_reserved":false,"is_disabled":false,"rental_uris":{"android":"levelo://app?vid=c95ab4ac-ad46-471c-af6f-8d8c1d0a5dd5","ios":"levelo://app?vid=c95ab4ac-ad46-471c-af6f-8d8c1d0a5dd5"},"vehicle_type_id":"4","last_reported":1717693686,"current_range_meters":16000,"station_id":"ce4bgv12rcd13ifvqcp0","pricing_plan_id":"cebpf4jnsgd1na2vs0mg"},{"bike_id":"639bf0cb-db3f-487e-9c25-dd9d7c41bb33","system_id":"levelo_inurba_marseille","lat":43.311722,"lon":5.387247,"is_reserved":false,"is_disabled":false,"rental_uris":{"android":"levelo://app?vid=639bf0cb-db3f-487e-9c25-dd9d7c41bb33","ios":"levelo://app?vid=639bf0cb-db3f-487e-9c25-dd9d7c41bb33"},"vehicle_type_id":"4","last_reported":1717693686,"current_range_meters":18000,"station_id":"ce4bgv12rcd13ifvqcp0","pricing_plan_id":"cebpf4jnsgd1na2vs0mg"},{"bike_id":"5976f5f3-c901-439f-8d9e-7563c070b285","system_id":"levelo_inurba_marseille","lat":43.311458,"lon":5.387545,"is_reserved":false,"is_disabled":false,"rental_uris":{"android":"levelo://app?vid=5976f5f3-c901-439f-8d9e-7563c070b285","ios":"levelo://app?vid=5976f5f3-c901-439f-8d9e-7563c070b285"},"vehicle_type_id":"4","last_reported":1717693686,"current_range_meters":0,"station_id":"ce4bgv12rcd13ifvqcp0","pricing_plan_id":"cebpf4jnsgd1na2vs0mg"},{"bike_id":"11d3cfc6-3c02-48d1-8dfc-397779471610","system_id":"levelo_inurba_marseille","lat":43.297774,"lon":5.370875,"is_reserved":false,"is_disabled":false,"rental_uris":{"android":"levelo://app?vid=11d3cfc6-3c02-48d1-8dfc-397779471610","ios":"levelo://app?vid=11d3cfc6-3c02-48d1-8dfc-397779471610"},"vehicle_type_id":"4","last_reported":1717693686,"current_range_meters":0,"station_id":"ce4bgop2rcd13ifvqc1g","pricing_plan_id":"cebpf4jnsgd1na2vs0mg"},{"bike_id":"fbac4e32-df3e-47a6-906f-f55b105eb4c7","system_id":"levelo_inurba_marseille","lat":43.322838,"lon":5.38279,"is_reserved":false,"is_disabled":false,"rental_uris":{"android":"levelo://app?vid=fbac4e32-df3e-47a6-906f-f55b105eb4c7","ios":"levelo://app?vid=fbac4e32-df3e-47a6-906f-f55b105eb4c7"},"vehicle_type_id":"4","last_reported":1717693686,"current_range_meters":0,"station_id":"ce4bhr12rcd13ifvqhqg","pricing_plan_id":"cebpf4jnsgd1na2vs0mg"},{"bike_id":"36f965c7-cefe-4119-9eca-67bf51b46c1c","system_id":"levelo_inurba_marseille","lat":43.297163,"lon":5.365866,"is_reserved":false,"is_disabled":false,"rental_uris":{"android":"levelo://app?vid=36f965c7-cefe-4119-9eca-67bf51b46c1c","ios":"levelo://app?vid=36f965c7-cefe-4119-9eca-67bf51b46c1c"},"vehicle_type_id":"4","last_reported":1717693686,"current_range_meters":25600,"station_id":"ce4bgn12rcd13ifvqbt0","pricing_plan_id":"cebpf4jnsgd1na2vs0mg"},{"bike_id":"af9d38c9-2ae1-4ab4-a10a-7142d041bdda","system_id":"levelo_inurba_marseille","lat":43.29705,"lon":5.366098,"is_reserved":false,"is_disabled":false,"rental_uris":{"android":"levelo://app?vid=af9d38c9-2ae1-4ab4-a10a-7142d041bdda","ios":"levelo://app?vid=af9d38c9-2ae1-4ab4-a10a-7142d041bdda"},"vehicle_type_id":"4","last_reported":1717693686,"current_range_meters":0,"station_id":"ce4bgn12rcd13ifvqbt0","pricing_plan_id":"cebpf4jnsgd1na2vs0mg"},{"bike_id":"0ce47508-ddda-4a2d-bf26-bd59ba974675","system_id":"levelo_inurba_marseille","lat":43.299769,"lon":5.380757,"is_reserved":false,"is_disabled":false,"rental_uris":{"android":"levelo://app?vid=0ce47508-ddda-4a2d-bf26-bd59ba974675","ios":"levelo://app?vid=0ce47508-ddda-4a2d-bf26-bd59ba974675"},"vehicle_type_id":"4","last_reported":1717693686,"current_range_meters":7200,"station_id":"","pricing_plan_id":"cebpf4jnsgd1na2vs0mg"},{"bike_id":"a9596b5b-bfd3-464d-b775-41507d521f56","system_id":"levelo_inurba_marseille","lat":43.2968,"lon":5.37291,"is_reserved":false,"is_disabled":false,"rental_uris":{"android":"levelo://app?vid=a9596b5b-bfd3-464d-b775-41507d521f56","ios":"levelo://app?vid=a9596b5b-bfd3-464d-b775-41507d521f56"},"vehicle_type_id":"4","last_reported":1717693686,"current_range_meters":0,"station_id":"ce4bgk12rcd13ifvqbj0","pricing_plan_id":"cebpf4jnsgd1na2vs0mg"},{"bike_id":"0630808b-b6d9-4138-8f3d-e0a6375eb3c1","system_id":"levelo_inurba_marseille","lat":43.321335,"lon":5.386659,"is_reserved":false,"is_disabled":false,"rental_uris":{"android":"levelo://app?vid=0630808b-b6d9-4138-8f3d-e0a6375eb3c1","ios":"levelo://app?vid=0630808b-b6d9-4138-8f3d-e0a6375eb3c1"},"vehicle_type_id":"4","last_reported":1717693686,"current_range_meters":7200,"station_id":"","pricing_plan_id":"cebpf4jnsgd1na2vs0mg"},{"bike_id":"1b5f22f3-298e-401c-b2c0-4af6a1080a6e","system_id":"levelo_inurba_marseille","lat":43.296131,"lon":5.370773,"is_reserved":false,"is_disabled":false,"rental_uris":{"android":"levelo://app?vid=1b5f22f3-298e-401c-b2c0-4af6a1080a6e","ios":"levelo://app?vid=1b5f22f3-298e-401c-b2c0-4af6a1080a6e"},"vehicle_type_id":"4","last_reported":1717693686,"current_range_meters":19600,"station_id":"ce4bgnh2rcd13ifvqc0g","pricing_plan_id":"cebpf4jnsgd1na2vs0mg"},{"bike_id":"026ee513-3b1d-402d-a300-8b32bb820f7c","system_id":"levelo_inurba_marseille","lat":43.29573,"lon":5.367355,"is_reserved":false,"is_disabled":false,"rental_uris":{"android":"levelo://app?vid=026ee513-3b1d-402d-a300-8b32bb820f7c","ios":"levelo://app?vid=026ee513-3b1d-402d-a300-8b32bb820f7c"},"vehicle_type_id":"4","last_reported":1717693686,"current_range_meters":0,"station_id":"ce4bgph2rcd13ifvqc2g","pricing_plan_id":"cebpf4jnsgd1na2vs0mg"},{"bike_id":"37d1efa3-6967-491f-aa70-24ac58c5c545","system_id":"levelo_inurba_marseille","lat":43.29576,"lon":5.36752,"is_reserved":false,"is_disabled":false,"rental_uris":{"android":"levelo://app?vid=37d1efa3-6967-491f-aa70-24ac58c5c545","ios":"levelo://app?vid=37d1efa3-6967-491f-aa70-24ac58c5c545"},"vehicle_type_id":"4","last_reported":1717693686,"current_range_meters":0,"station_id":"ce4bgph2rcd13ifvqc2g","pricing_plan_id":"cebpf4jnsgd1na2vs0mg"},{"bike_id":"74f76bda-9a5b-4527-8360-7e040ef723c1","system_id":"levelo_inurba_marseille","lat":43.299028,"lon":5.381509,"is_reserved":false,"is_disabled":false,"rental_uris":{"android":"levelo://app?vid=74f76bda-9a5b-4527-8360-7e040ef723c1","ios":"levelo://app?vid=74f76bda-9a5b-4527-8360-7e040ef723c1"},"vehicle_type_id":"4","last_reported":1717693686,"current_range_meters":5600,"station_id":"ce4bgj12rcd13ifvqbc0","pricing_plan_id":"cebpf4jnsgd1na2vs0mg"},{"bike_id":"477aaab2-08e5-4991-8ccb-6909bbb7ee1f","system_id":"levelo_inurba_marseille","lat":43.317557,"lon":5.390173,"is_reserved":false,"is_disabled":false,"rental_uris":{"android":"levelo://app?vid=477aaab2-08e5-4991-8ccb-6909bbb7ee1f","ios":"levelo://app?vid=477aaab2-08e5-4991-8ccb-6909bbb7ee1f"},"vehicle_type_id":"4","last_reported":1717693686,"current_range_meters":27600,"station_id":"ce4bhqp2rcd13ifvqhng","pricing_plan_id":"cebpf4jnsgd1na2vs0mg"},{"bike_id":"0957a4d3-bd8a-4a76-ba68-3bf8590a8a7e","system_id":"levelo_inurba_marseille","lat":43.296935,"lon":5.376544,"is_reserved":false,"is_disabled":false,"rental_uris":{"android":"levelo://app?vid=0957a4d3-bd8a-4a76-ba68-3bf8590a8a7e","ios":"levelo://app?vid=0957a4d3-bd8a-4a76-ba68-3bf8590a8a7e"},"vehicle_type_id":"4","last_reported":1717693686,"current_range_meters":27200,"station_id":"ce4bgkh2rcd13ifvqbl0","pricing_plan_id":"cebpf4jnsgd1na2vs0mg"},{"bike_id":"4a7dc422-b978-46ab-8d01-4743008a8292","system_id":"levelo_inurba_marseille","lat":43.309488,"lon":5.39027,"is_reserved":false,"is_disabled":false,"rental_uris":{"android":"levelo://app?vid=4a7dc422-b978-46ab-8d01-4743008a8292","ios":"levelo://app?vid=4a7dc422-b978-46ab-8d01-4743008a8292"},"vehicle_type_id":"4","last_reported":1717693686,"current_range_meters":28000,"station_id":"ce4bgup2rcd13ifvqco0","pricing_plan_id":"cebpf4jnsgd1na2vs0mg"},{"bike_id":"d7c149e0-3175-489b-83a6-5908d53b6e09","system_id":"levelo_inurba_marseille","lat":43.309589,"lon":5.390258,"is_reserved":false,"is_disabled":false,"rental_uris":{"android":"levelo://app?vid=d7c149e0-3175-489b-83a6-5908d53b6e09","ios":"levelo://app?vid=d7c149e0-3175-489b-83a6-5908d53b6e09"},"vehicle_type_id":"4","last_reported":1717693686,"current_range_meters":28800,"station_id":"ce4bgup2rcd13ifvqco0","pricing_plan_id":"cebpf4jnsgd1na2vs0mg"},{"bike_id":"ca1f1bbc-09a9-47a9-9985-f2acea13d634","system_id":"levelo_inurba_marseille","lat":43.295748,"lon":5.37522,"is_reserved":false,"is_disabled":false,"rental_uris":{"android":"levelo://app?vid=ca1f1bbc-09a9-47a9-9985-f2acea13d634","ios":"levelo://app?vid=ca1f1bbc-09a9-47a9-9985-f2acea13d634"},"vehicle_type_id":"4","last_reported":1717693686,"current_range_meters":18400,"station_id":"ce4bgh92rcd13ifvqb50","pricing_plan_id":"cebpf4jnsgd1na2vs0mg"},{"bike_id":"27b5a94b-0bd4-408b-accc-51f3818c5d6b","system_id":"levelo_inurba_marseille","lat":43.317557,"lon":5.390173,"is_reserved":false,"is_disabled":false,"rental_uris":{"android":"levelo://app?vid=27b5a94b-0bd4-408b-accc-51f3818c5d6b","ios":"levelo://app?vid=27b5a94b-0bd4-408b-accc-51f3818c5d6b"},"vehicle_type_id":"4","last_reported":1717693686,"current_range_meters":30000,"station_id":"ce4bhqp2rcd13ifvqhng","pricing_plan_id":"cebpf4jnsgd1na2vs0mg"},{"bike_id":"6f082eb6-97c3-477d-9c22-8b9160800708","system_id":"levelo_inurba_marseille","lat":43.298037,"lon":5.381066,"is_reserved":false,"is_disabled":false,"rental_uris":{"android":"levelo://app?vid=6f082eb6-97c3-477d-9c22-8b9160800708","ios":"levelo://app?vid=6f082eb6-97c3-477d-9c22-8b9160800708"},"vehicle_type_id":"4","last_reported":1717693686,"current_range_meters":28800,"station_id":"ce4bgip2rcd13ifvqbb0","pricing_plan_id":"cebpf4jnsgd1na2vs0mg"},{"bike_id":"31098386-9ea2-4cd0-86ba-29373506791a","system_id":"levelo_inurba_marseille","lat":43.295748,"lon":5.37522,"is_reserved":false,"is_disabled":false,"rental_uris":{"android":"levelo://app?vid=31098386-9ea2-4cd0-86ba-29373506791a","ios":"levelo://app?vid=31098386-9ea2-4cd0-86ba-29373506791a"},"vehicle_type_id":"4","last_reported":1717693686,"current_range_meters":0,"station_id":"ce4bgh92rcd13ifvqb50","pricing_plan_id":"cebpf4jnsgd1na2vs0mg"},{"bike_id":"ae535770-de86-4f57-be0c-2e1a2893b17f","system_id":"levelo_inurba_marseille","lat":43.298037,"lon":5.381066,"is_reserved":false,"is_disabled":false,"rental_uris":{"android":"levelo://app?vid=ae535770-de86-4f57-be0c-2e1a2893b17f","ios":"levelo://app?vid=ae535770-de86-4f57-be0c-2e1a2893b17f"},"vehicle_type_id":"4","last_reported":1717693686,"current_range_meters":0,"station_id":"ce4bgip2rcd13ifvqbb0","pricing_plan_id":"cebpf4jnsgd1na2vs0mg"},{"bike_id":"6bff3438-67de-4aeb-9a35-282cf7aaa91a","system_id":"levelo_inurba_marseille","lat":43.297952,"lon":5.38094,"is_reserved":false,"is_disabled":false,"rental_uris":{"android":"levelo://app?vid=6bff3438-67de-4aeb-9a35-282cf7aaa91a","ios":"levelo://app?vid=6bff3438-67de-4aeb-9a35-282cf7aaa91a"},"vehicle_type_id":"4","last_reported":1717693686,"current_range_meters":0,"station_id":"ce4bgip2rcd13ifvqbb0","pricing_plan_id":"cebpf4jnsgd1na2vs0mg"},{"bike_id":"8aced3aa-3d5f-4acf-9611-00d20715560f","system_id":"levelo_inurba_marseille","lat":43.298037,"lon":5.381066,"is_reserved":false,"is_disabled":false,"rental_uris":{"android":"levelo://app?vid=8aced3aa-3d5f-4acf-9611-00d20715560f","ios":"levelo://app?vid=8aced3aa-3d5f-4acf-9611-00d20715560f"},"vehicle_type_id":"4","last_reported":1717693686,"current_range_meters":18000,"station_id":"ce4bgip2rcd13ifvqbb0","pricing_plan_id":"cebpf4jnsgd1na2vs0mg"},{"bike_id":"e3001de7-3901-4635-a0c8-024aa442d7d4","system_id":"levelo_inurba_marseille","lat":43.295748,"lon":5.37522,"is_reserved":false,"is_disabled":false,"rental_uris":{"android":"levelo://app?vid=e3001de7-3901-4635-a0c8-024aa442d7d4","ios":"levelo://app?vid=e3001de7-3901-4635-a0c8-024aa442d7d4"},"vehicle_type_id":"4","last_reported":1717693686,"current_range_meters":30400,"station_id":"ce4bgh92rcd13ifvqb50","pricing_plan_id":"cebpf4jnsgd1na2vs0mg"},{"bike_id":"e07a7f84-bc7e-4c0b-a831-a7c078fc7e8e","system_id":"levelo_inurba_marseille","lat":43.29479,"lon":5.36313,"is_reserved":false,"is_disabled":false,"rental_uris":{"android":"levelo://app?vid=e07a7f84-bc7e-4c0b-a831-a7c078fc7e8e","ios":"levelo://app?vid=e07a7f84-bc7e-4c0b-a831-a7c078fc7e8e"},"vehicle_type_id":"4","last_reported":1717693686,"current_range_meters":13600,"station_id":"","pricing_plan_id":"cebpf4jnsgd1na2vs0mg"},{"bike_id":"c33e608d-3e29-40b2-830d-536b0afef106","system_id":"levelo_inurba_marseille","lat":43.296263,"lon":5.377094,"is_reserved":false,"is_disabled":false,"rental_uris":{"android":"levelo://app?vid=c33e608d-3e29-40b2-830d-536b0afef106","ios":"levelo://app?vid=c33e608d-3e29-40b2-830d-536b0afef106"},"vehicle_type_id":"4","last_reported":1717693686,"current_range_meters":0,"station_id":"ce4bgi92rcd13ifvqb90","pricing_plan_id":"cebpf4jnsgd1na2vs0mg"},{"bike_id":"b1533c53-4063-415f-9eb7-b3a023a164a8","system_id":"levelo_inurba_marseille","lat":43.295664,"lon":5.375839,"is_reserved":false,"is_disabled":false,"rental_uris":{"android":"levelo://app?vid=b1533c53-4063-415f-9eb7-b3a023a164a8","ios":"levelo://app?vid=b1533c53-4063-415f-9eb7-b3a023a164a8"},"vehicle_type_id":"4","last_reported":1717693686,"current_range_meters":0,"station_id":"","pricing_plan_id":"cebpf4jnsgd1na2vs0mg"},{"bike_id":"2b4f56f7-b557-4e4f-9b3a-46f1282eeeef","system_id":"levelo_inurba_marseille","lat":43.30442,"lon":5.38938,"is_reserved":false,"is_disabled":false,"rental_uris":{"android":"levelo://app?vid=2b4f56f7-b557-4e4f-9b3a-46f1282eeeef","ios":"levelo://app?vid=2b4f56f7-b557-4e4f-9b3a-46f1282eeeef"},"vehicle_type_id":"4","last_reported":1717693686,"current_range_meters":0,"station_id":"ce4bgk12rcd13ifvqbi0","pricing_plan_id":"cebpf4jnsgd1na2vs0mg"},{"bike_id":"d1460fa2-0139-4d06-ba74-f2fe5ab73ed5","system_id":"levelo_inurba_marseille","lat":43.29596,"lon":5.37715,"is_reserved":false,"is_disabled":false,"rental_uris":{"android":"levelo://app?vid=d1460fa2-0139-4d06-ba74-f2fe5ab73ed5","ios":"levelo://app?vid=d1460fa2-0139-4d06-ba74-f2fe5ab73ed5"},"vehicle_type_id":"4","last_reported":1717693686,"current_range_meters":0,"station_id":"ce4bgi92rcd13ifvqb90","pricing_plan_id":"cebpf4jnsgd1na2vs0mg"},{"bike_id":"f002a57b-5446-4b2c-b755-ea5084cc2c99","system_id":"levelo_inurba_marseille","lat":43.298037,"lon":5.381066,"is_reserved":false,"is_disabled":false,"rental_uris":{"android":"levelo://app?vid=f002a57b-5446-4b2c-b755-ea5084cc2c99","ios":"levelo://app?vid=f002a57b-5446-4b2c-b755-ea5084cc2c99"},"vehicle_type_id":"4","last_reported":1717693686,"current_range_meters":0,"station_id":"ce4bgip2rcd13ifvqbb0","pricing_plan_id":"cebpf4jnsgd1na2vs0mg"},{"bike_id":"fca5966f-12f1-407b-b3f6-81e84a9a0def","system_id":"levelo_inurba_marseille","lat":43.299895,"lon":5.385069,"is_reserved":false,"is_disabled":false,"rental_uris":{"android":"levelo://app?vid=fca5966f-12f1-407b-b3f6-81e84a9a0def","ios":"levelo://app?vid=fca5966f-12f1-407b-b3f6-81e84a9a0def"},"vehicle_type_id":"4","last_reported":1717693686,"current_range_meters":20400,"station_id":"ce4bgj92rcd13ifvqbd0","pricing_plan_id":"cebpf4jnsgd1na2vs0mg"},{"bike_id":"9b1f14e9-a452-4814-81d9-fcca9f2374ae","system_id":"levelo_inurba_marseille","lat":43.295245,"lon":5.374966,"is_reserved":false,"is_disabled":false,"rental_uris":{"android":"levelo://app?vid=9b1f14e9-a452-4814-81d9-fcca9f2374ae","ios":"levelo://app?vid=9b1f14e9-a452-4814-81d9-fcca9f2374ae"},"vehicle_type_id":"4","last_reported":1717693686,"current_range_meters":0,"station_id":"ce4bgkp2rcd13ifvqbmg","pricing_plan_id":"cebpf4jnsgd1na2vs0mg"},{"bike_id":"fe253ee3-5c41-4f26-8d2c-3b202a5e8ff0","system_id":"levelo_inurba_marseille","lat":43.295279,"lon":5.375048,"is_reserved":false,"is_disabled":false,"rental_uris":{"android":"levelo://app?vid=fe253ee3-5c41-4f26-8d2c-3b202a5e8ff0","ios":"levelo://app?vid=fe253ee3-5c41-4f26-8d2c-3b202a5e8ff0"},"vehicle_type_id":"4","last_reported":1717693686,"current_range_meters":400,"station_id":"ce4bgkp2rcd13ifvqbmg","pricing_plan_id":"cebpf4jnsgd1na2vs0mg"},{"bike_id":"7f8fac96-c670-4453-810f-f7c846b45be0","system_id":"levelo_inurba_marseille","lat":43.299707,"lon":5.384859,"is_reserved":false,"is_disabled":false,"rental_uris":{"android":"levelo://app?vid=7f8fac96-c670-4453-810f-f7c846b45be0","ios":"levelo://app?vid=7f8fac96-c670-4453-810f-f7c846b45be0"},"vehicle_type_id":"4","last_reported":1717693686,"current_range_meters":23600,"station_id":"ce4bgj92rcd13ifvqbd0","pricing_plan_id":"cebpf4jnsgd1na2vs0mg"},{"bike_id":"cea072ca-f460-4392-b7b6-6e3b47cff9d6","system_id":"levelo_inurba_marseille","lat":43.295279,"lon":5.375048,"is_reserved":false,"is_disabled":false,"rental_uris":{"android":"levelo://app?vid=cea072ca-f460-4392-b7b6-6e3b47cff9d6","ios":"levelo://app?vid=cea072ca-f460-4392-b7b6-6e3b47cff9d6"},"vehicle_type_id":"4","last_reported":1717693686,"current_range_meters":15600,"station_id":"ce4bgkp2rcd13ifvqbmg","pricing_plan_id":"cebpf4jnsgd1na2vs0mg"},{"bike_id":"3b6107b5-0d17-42c6-94e6-e6e3bbdb7ed5","system_id":"levelo_inurba_marseille","lat":43.299724,"lon":5.384848,"is_reserved":false,"is_disabled":false,"rental_uris":{"android":"levelo://app?vid=3b6107b5-0d17-42c6-94e6-e6e3bbdb7ed5","ios":"levelo://app?vid=3b6107b5-0d17-42c6-94e6-e6e3bbdb7ed5"},"vehicle_type_id":"4","last_reported":1717693686,"current_range_meters":400,"station_id":"ce4bgj92rcd13ifvqbd0","pricing_plan_id":"cebpf4jnsgd1na2vs0mg"},{"bike_id":"429beb61-3996-427f-8944-a237bc5563c1","system_id":"levelo_inurba_marseille","lat":43.298037,"lon":5.381066,"is_reserved":false,"is_disabled":false,"rental_uris":{"android":"levelo://app?vid=429beb61-3996-427f-8944-a237bc5563c1","ios":"levelo://app?vid=429beb61-3996-427f-8944-a237bc5563c1"},"vehicle_type_id":"4","last_reported":1717693686,"current_range_meters":1600,"station_id":"ce4bgip2rcd13ifvqbb0","pricing_plan_id":"cebpf4jnsgd1na2vs0mg"},{"bike_id":"3718897c-f3ec-47f5-8810-ca720cb7157c","system_id":"levelo_inurba_marseille","lat":43.29602,"lon":5.381084,"is_reserved":false,"is_disabled":false,"rental_uris":{"android":"levelo://app?vid=3718897c-f3ec-47f5-8810-ca720cb7157c","ios":"levelo://app?vid=3718897c-f3ec-47f5-8810-ca720cb7157c"},"vehicle_type_id":"4","last_reported":1717693686,"current_range_meters":12400,"station_id":"ce4bgl12rcd13ifvqbo0","pricing_plan_id":"cebpf4jnsgd1na2vs0mg"},{"bike_id":"30d2ea15-6c60-4f87-b9ea-8587723f2f36","system_id":"levelo_inurba_marseille","lat":43.297007,"lon":5.381292,"is_reserved":false,"is_disabled":false,"rental_uris":{"android":"levelo://app?vid=30d2ea15-6c60-4f87-b9ea-8587723f2f36","ios":"levelo://app?vid=30d2ea15-6c60-4f87-b9ea-8587723f2f36"},"vehicle_type_id":"4","last_reported":1717693686,"current_range_meters":18400,"station_id":"","pricing_plan_id":"cebpf4jnsgd1na2vs0mg"},{"bike_id":"3fdb4f3d-c0e4-4a89-9c99-2101896ccf07","system_id":"levelo_inurba_marseille","lat":43.29573,"lon":5.367355,"is_reserved":false,"is_disabled":false,"rental_uris":{"android":"levelo://app?vid=3fdb4f3d-c0e4-4a89-9c99-2101896ccf07","ios":"levelo://app?vid=3fdb4f3d-c0e4-4a89-9c99-2101896ccf07"},"vehicle_type_id":"4","last_reported":1717693686,"current_range_meters":4800,"station_id":"ce4bgph2rcd13ifvqc2g","pricing_plan_id":"cebpf4jnsgd1na2vs0mg"},{"bike_id":"3c833405-1db3-4eca-871c-53d48cd058b7","system_id":"levelo_inurba_marseille","lat":43.32367,"lon":5.388836,"is_reserved":false,"is_disabled":false,"rental_uris":{"android":"levelo://app?vid=3c833405-1db3-4eca-871c-53d48cd058b7","ios":"levelo://app?vid=3c833405-1db3-4eca-871c-53d48cd058b7"},"vehicle_type_id":"4","last_reported":1717693686,"current_range_meters":8400,"station_id":"ce4bhqp2rcd13ifvqhog","pricing_plan_id":"cebpf4jnsgd1na2vs0mg"},{"bike_id":"ee7d499d-e01c-4f7d-a1c7-787315e8cfa1","system_id":"levelo_inurba_marseille","lat":43.323626,"lon":5.389049,"is_reserved":false,"is_disabled":false,"rental_uris":{"android":"levelo://app?vid=ee7d499d-e01c-4f7d-a1c7-787315e8cfa1","ios":"levelo://app?vid=ee7d499d-e01c-4f7d-a1c7-787315e8cfa1"},"vehicle_type_id":"4","last_reported":1717693686,"current_range_meters":0,"station_id":"ce4bhqp2rcd13ifvqhog","pricing_plan_id":"cebpf4jnsgd1na2vs0mg"},{"bike_id":"217e5cf5-2c46-4faa-88ef-fa591d057538","system_id":"levelo_inurba_marseille","lat":43.29601,"lon":5.381084,"is_reserved":false,"is_disabled":false,"rental_uris":{"android":"levelo://app?vid=217e5cf5-2c46-4faa-88ef-fa591d057538","ios":"levelo://app?vid=217e5cf5-2c46-4faa-88ef-fa591d057538"},"vehicle_type_id":"4","last_reported":1717693686,"current_range_meters":0,"station_id":"ce4bgl12rcd13ifvqbo0","pricing_plan_id":"cebpf4jnsgd1na2vs0mg"},{"bike_id":"88f0dbfb-0b81-4e18-b00a-d4c0d5739eb7","system_id":"levelo_inurba_marseille","lat":43.29602,"lon":5.381084,"is_reserved":false,"is_disabled":false,"rental_uris":{"android":"levelo://app?vid=88f0dbfb-0b81-4e18-b00a-d4c0d5739eb7","ios":"levelo://app?vid=88f0dbfb-0b81-4e18-b00a-d4c0d5739eb7"},"vehicle_type_id":"4","last_reported":1717693686,"current_range_meters":7200,"station_id":"ce4bgl12rcd13ifvqbo0","pricing_plan_id":"cebpf4jnsgd1na2vs0mg"},{"bike_id":"06179781-f757-4594-9370-632eebb3f189","system_id":"levelo_inurba_marseille","lat":43.292749,"lon":5.368398,"is_reserved":false,"is_disabled":false,"rental_uris":{"android":"levelo://app?vid=06179781-f757-4594-9370-632eebb3f189","ios":"levelo://app?vid=06179781-f757-4594-9370-632eebb3f189"},"vehicle_type_id":"4","last_reported":1717693686,"current_range_meters":31200,"station_id":"ce4bhbp2rcd13ifvqesg","pricing_plan_id":"cebpf4jnsgd1na2vs0mg"},{"bike_id":"bd3578b2-ff06-4ef7-bfd7-964442e5cd2f","system_id":"levelo_inurba_marseille","lat":43.292707,"lon":5.36837,"is_reserved":false,"is_disabled":false,"rental_uris":{"android":"levelo://app?vid=bd3578b2-ff06-4ef7-bfd7-964442e5cd2f","ios":"levelo://app?vid=bd3578b2-ff06-4ef7-bfd7-964442e5cd2f"},"vehicle_type_id":"4","last_reported":1717693686,"current_range_meters":7600,"station_id":"","pricing_plan_id":"cebpf4jnsgd1na2vs0mg"},{"bike_id":"bef2fd37-b92a-48f3-b23f-8d9084d27236","system_id":"levelo_inurba_marseille","lat":43.29271,"lon":5.36848,"is_reserved":false,"is_disabled":false,"rental_uris":{"android":"levelo://app?vid=bef2fd37-b92a-48f3-b23f-8d9084d27236","ios":"levelo://app?vid=bef2fd37-b92a-48f3-b23f-8d9084d27236"},"vehicle_type_id":"4","last_reported":1717693686,"current_range_meters":25200,"station_id":"ce4bhbp2rcd13ifvqesg","pricing_plan_id":"cebpf4jnsgd1na2vs0mg"},{"bike_id":"afba772d-a7b2-45aa-8518-652cf4156aa2","system_id":"levelo_inurba_marseille","lat":43.293076,"lon":5.374585,"is_reserved":false,"is_disabled":false,"rental_uris":{"android":"levelo://app?vid=afba772d-a7b2-45aa-8518-652cf4156aa2","ios":"levelo://app?vid=afba772d-a7b2-45aa-8518-652cf4156aa2"},"vehicle_type_id":"4","last_reported":1717693686,"current_range_meters":0,"station_id":"","pricing_plan_id":"cebpf4jnsgd1na2vs0mg"},{"bike_id":"6726dffe-bf9d-46a6-910a-3334472921e7","system_id":"levelo_inurba_marseille","lat":43.293009,"lon":5.374584,"is_reserved":false,"is_disabled":false,"rental_uris":{"android":"levelo://app?vid=6726dffe-bf9d-46a6-910a-3334472921e7","ios":"levelo://app?vid=6726dffe-bf9d-46a6-910a-3334472921e7"},"vehicle_type_id":"4","last_reported":1717693686,"current_range_meters":5600,"station_id":"ce4bgi12rcd13ifvqb70","pricing_plan_id":"cebpf4jnsgd1na2vs0mg"},{"bike_id":"bdb604d1-dd13-4423-85ef-7a11722c39e1","system_id":"levelo_inurba_marseille","lat":43.292869,"lon":5.37437,"is_reserved":false,"is_disabled":false,"rental_uris":{"android":"levelo://app?vid=bdb604d1-dd13-4423-85ef-7a11722c39e1","ios":"levelo://app?vid=bdb604d1-dd13-4423-85ef-7a11722c39e1"},"vehicle_type_id":"4","last_reported":1717693686,"current_range_meters":21200,"station_id":"ce4bgi12rcd13ifvqb70","pricing_plan_id":"cebpf4jnsgd1na2vs0mg"},{"bike_id":"bb0bc3ca-a790-4fc4-a1bc-b1c30617eb73","system_id":"levelo_inurba_marseille","lat":43.29222,"lon":5.36376,"is_reserved":false,"is_disabled":false,"rental_uris":{"android":"levelo://app?vid=bb0bc3ca-a790-4fc4-a1bc-b1c30617eb73","ios":"levelo://app?vid=bb0bc3ca-a790-4fc4-a1bc-b1c30617eb73"},"vehicle_type_id":"4","last_reported":1717693686,"current_range_meters":0,"station_id":"","pricing_plan_id":"cebpf4jnsgd1na2vs0mg"},{"bike_id":"c3d2dc58-3076-49c3-986f-d439af4eefb3","system_id":"levelo_inurba_marseille","lat":43.309589,"lon":5.390258,"is_reserved":false,"is_disabled":false,"rental_uris":{"android":"levelo://app?vid=c3d2dc58-3076-49c3-986f-d439af4eefb3","ios":"levelo://app?vid=c3d2dc58-3076-49c3-986f-d439af4eefb3"},"vehicle_type_id":"4","last_reported":1717693686,"current_range_meters":1600,"station_id":"ce4bgup2rcd13ifvqco0","pricing_plan_id":"cebpf4jnsgd1na2vs0mg"},{"bike_id":"c452b9cf-671e-49f6-ad57-72b022fc10ba","system_id":"levelo_inurba_marseille","lat":43.303002,"lon":5.392142,"is_reserved":false,"is_disabled":false,"rental_uris":{"android":"levelo://app?vid=c452b9cf-671e-49f6-ad57-72b022fc10ba","ios":"levelo://app?vid=c452b9cf-671e-49f6-ad57-72b022fc10ba"},"vehicle_type_id":"4","last_reported":1717693686,"current_range_meters":30400,"station_id":"ce4bgkh2rcd13ifvqbk0","pricing_plan_id":"cebpf4jnsgd1na2vs0mg"},{"bike_id":"99e13555-99d9-4525-b6e4-1fe231292271","system_id":"levelo_inurba_marseille","lat":43.303002,"lon":5.392142,"is_reserved":false,"is_disabled":false,"rental_uris":{"android":"levelo://app?vid=99e13555-99d9-4525-b6e4-1fe231292271","ios":"levelo://app?vid=99e13555-99d9-4525-b6e4-1fe231292271"},"vehicle_type_id":"4","last_reported":1717693686,"current_range_meters":19200,"station_id":"ce4bgkh2rcd13ifvqbk0","pricing_plan_id":"cebpf4jnsgd1na2vs0mg"},{"bike_id":"424dbd24-cef5-4b25-bf2b-070761e25c03","system_id":"levelo_inurba_marseille","lat":43.292311,"lon":5.360731,"is_reserved":false,"is_disabled":false,"rental_uris":{"android":"levelo://app?vid=424dbd24-cef5-4b25-bf2b-070761e25c03","ios":"levelo://app?vid=424dbd24-cef5-4b25-bf2b-070761e25c03"},"vehicle_type_id":"4","last_reported":1717693686,"current_range_meters":12400,"station_id":"ce4bhbh2rcd13ifvqeqg","pricing_plan_id":"cebpf4jnsgd1na2vs0mg"},{"bike_id":"28af6fb5-28b1-4f4a-be56-157c505a82b7","system_id":"levelo_inurba_marseille","lat":43.292311,"lon":5.360731,"is_reserved":false,"is_disabled":false,"rental_uris":{"android":"levelo://app?vid=28af6fb5-28b1-4f4a-be56-157c505a82b7","ios":"levelo://app?vid=28af6fb5-28b1-4f4a-be56-157c505a82b7"},"vehicle_type_id":"4","last_reported":1717693686,"current_range_meters":1600,"station_id":"ce4bhbh2rcd13ifvqeqg","pricing_plan_id":"cebpf4jnsgd1na2vs0mg"},{"bike_id":"d98b26d0-b572-4c2c-92d5-f6a7c84e879c","system_id":"levelo_inurba_marseille","lat":43.292311,"lon":5.360731,"is_reserved":false,"is_disabled":false,"rental_uris":{"android":"levelo://app?vid=d98b26d0-b572-4c2c-92d5-f6a7c84e879c","ios":"levelo://app?vid=d98b26d0-b572-4c2c-92d5-f6a7c84e879c"},"vehicle_type_id":"4","last_reported":1717693686,"current_range_meters":8800,"station_id":"ce4bhbh2rcd13ifvqeqg","pricing_plan_id":"cebpf4jnsgd1na2vs0mg"},{"bike_id":"241a8045-bc0d-445c-9c36-bdfc1407d2b0","system_id":"levelo_inurba_marseille","lat":43.292311,"lon":5.360731,"is_reserved":false,"is_disabled":false,"rental_uris":{"android":"levelo://app?vid=241a8045-bc0d-445c-9c36-bdfc1407d2b0","ios":"levelo://app?vid=241a8045-bc0d-445c-9c36-bdfc1407d2b0"},"vehicle_type_id":"4","last_reported":1717693686,"current_range_meters":31600,"station_id":"ce4bhbh2rcd13ifvqeqg","pricing_plan_id":"cebpf4jnsgd1na2vs0mg"},{"bike_id":"7a679125-1b02-48ec-bb63-ff0661686b9f","system_id":"levelo_inurba_marseille","lat":43.292311,"lon":5.360731,"is_reserved":false,"is_disabled":false,"rental_uris":{"android":"levelo://app?vid=7a679125-1b02-48ec-bb63-ff0661686b9f","ios":"levelo://app?vid=7a679125-1b02-48ec-bb63-ff0661686b9f"},"vehicle_type_id":"4","last_reported":1717693686,"current_range_meters":31200,"station_id":"ce4bhbh2rcd13ifvqeqg","pricing_plan_id":"cebpf4jnsgd1na2vs0mg"},{"bike_id":"a1385118-1174-412d-a505-6a0e242919e9","system_id":"levelo_inurba_marseille","lat":43.29225,"lon":5.36056,"is_reserved":false,"is_disabled":false,"rental_uris":{"android":"levelo://app?vid=a1385118-1174-412d-a505-6a0e242919e9","ios":"levelo://app?vid=a1385118-1174-412d-a505-6a0e242919e9"},"vehicle_type_id":"4","last_reported":1717693686,"current_range_meters":30000,"station_id":"ce4bhbh2rcd13ifvqeqg","pricing_plan_id":"cebpf4jnsgd1na2vs0mg"},{"bike_id":"c4b21e6b-3bcf-4fb6-a7a1-8df4680a63c0","system_id":"levelo_inurba_marseille","lat":43.30085,"lon":5.390856,"is_reserved":false,"is_disabled":false,"rental_uris":{"android":"levelo://app?vid=c4b21e6b-3bcf-4fb6-a7a1-8df4680a63c0","ios":"levelo://app?vid=c4b21e6b-3bcf-4fb6-a7a1-8df4680a63c0"},"vehicle_type_id":"4","last_reported":1717693686,"current_range_meters":16400,"station_id":"ce4bh192rcd13ifvqdb0","pricing_plan_id":"cebpf4jnsgd1na2vs0mg"},{"bike_id":"1e7f4ff1-90d5-400e-b285-fce2f85cca5f","system_id":"levelo_inurba_marseille","lat":43.293009,"lon":5.374584,"is_reserved":false,"is_disabled":false,"rental_uris":{"android":"levelo://app?vid=1e7f4ff1-90d5-400e-b285-fce2f85cca5f","ios":"levelo://app?vid=1e7f4ff1-90d5-400e-b285-fce2f85cca5f"},"vehicle_type_id":"4","last_reported":1717693686,"current_range_meters":800,"station_id":"ce4bgi12rcd13ifvqb70","pricing_plan_id":"cebpf4jnsgd1na2vs0mg"},{"bike_id":"b8d99a06-5a02-48f3-bdc9-0d6db0389032","system_id":"levelo_inurba_marseille","lat":43.298764,"lon":5.388973,"is_reserved":false,"is_disabled":false,"rental_uris":{"android":"levelo://app?vid=b8d99a06-5a02-48f3-bdc9-0d6db0389032","ios":"levelo://app?vid=b8d99a06-5a02-48f3-bdc9-0d6db0389032"},"vehicle_type_id":"4","last_reported":1717693686,"current_range_meters":12400,"station_id":"ce4bh392rcd13ifvqdl0","pricing_plan_id":"cebpf4jnsgd1na2vs0mg"},{"bike_id":"631b0c4f-607e-4d5b-8afb-8846e0c1ab71","system_id":"levelo_inurba_marseille","lat":43.292311,"lon":5.360731,"is_reserved":false,"is_disabled":false,"rental_uris":{"android":"levelo://app?vid=631b0c4f-607e-4d5b-8afb-8846e0c1ab71","ios":"levelo://app?vid=631b0c4f-607e-4d5b-8afb-8846e0c1ab71"},"vehicle_type_id":"4","last_reported":1717693686,"current_range_meters":5600,"station_id":"ce4bhbh2rcd13ifvqeqg","pricing_plan_id":"cebpf4jnsgd1na2vs0mg"},{"bike_id":"ecd58bed-6ddc-4195-b93e-ecd36b6565a9","system_id":"levelo_inurba_marseille","lat":43.291675,"lon":5.371583,"is_reserved":false,"is_disabled":false,"rental_uris":{"android":"levelo://app?vid=ecd58bed-6ddc-4195-b93e-ecd36b6565a9","ios":"levelo://app?vid=ecd58bed-6ddc-4195-b93e-ecd36b6565a9"},"vehicle_type_id":"4","last_reported":1717693686,"current_range_meters":26400,"station_id":"ce4bha92rcd13ifvqeh0","pricing_plan_id":"cebpf4jnsgd1na2vs0mg"},{"bike_id":"8ad91473-4ced-42e9-a366-72da95da357c","system_id":"levelo_inurba_marseille","lat":43.298764,"lon":5.388973,"is_reserved":false,"is_disabled":false,"rental_uris":{"android":"levelo://app?vid=8ad91473-4ced-42e9-a366-72da95da357c","ios":"levelo://app?vid=8ad91473-4ced-42e9-a366-72da95da357c"},"vehicle_type_id":"4","last_reported":1717693686,"current_range_meters":26000,"station_id":"ce4bh392rcd13ifvqdl0","pricing_plan_id":"cebpf4jnsgd1na2vs0mg"},{"bike_id":"432c0659-2943-4200-81dd-4e0fa4fbf33a","system_id":"levelo_inurba_marseille","lat":43.291675,"lon":5.371583,"is_reserved":false,"is_disabled":false,"rental_uris":{"android":"levelo://app?vid=432c0659-2943-4200-81dd-4e0fa4fbf33a","ios":"levelo://app?vid=432c0659-2943-4200-81dd-4e0fa4fbf33a"},"vehicle_type_id":"4","last_reported":1717693686,"current_range_meters":0,"station_id":"ce4bha92rcd13ifvqeh0","pricing_plan_id":"cebpf4jnsgd1na2vs0mg"},{"bike_id":"358776d5-1fa3-42ef-8829-515395e127ab","system_id":"levelo_inurba_marseille","lat":43.291675,"lon":5.371583,"is_reserved":false,"is_disabled":false,"rental_uris":{"android":"levelo://app?vid=358776d5-1fa3-42ef-8829-515395e127ab","ios":"levelo://app?vid=358776d5-1fa3-42ef-8829-515395e127ab"},"vehicle_type_id":"4","last_reported":1717693686,"current_range_meters":16800,"station_id":"ce4bha92rcd13ifvqeh0","pricing_plan_id":"cebpf4jnsgd1na2vs0mg"},{"bike_id":"f8d4ba12-16ee-4144-84e5-24eb5abf4270","system_id":"levelo_inurba_marseille","lat":43.29302,"lon":5.37848,"is_reserved":false,"is_disabled":false,"rental_uris":{"android":"levelo://app?vid=f8d4ba12-16ee-4144-84e5-24eb5abf4270","ios":"levelo://app?vid=f8d4ba12-16ee-4144-84e5-24eb5abf4270"},"vehicle_type_id":"4","last_reported":1717693686,"current_range_meters":18000,"station_id":"","pricing_plan_id":"cebpf4jnsgd1na2vs0mg"},{"bike_id":"65bd4727-c236-4bd8-a5e8-ae5219133b3f","system_id":"levelo_inurba_marseille","lat":43.31327,"lon":5.39686,"is_reserved":false,"is_disabled":false,"rental_uris":{"android":"levelo://app?vid=65bd4727-c236-4bd8-a5e8-ae5219133b3f","ios":"levelo://app?vid=65bd4727-c236-4bd8-a5e8-ae5219133b3f"},"vehicle_type_id":"4","last_reported":1717693686,"current_range_meters":3200,"station_id":"ce4bgvp2rcd13ifvqcu0","pricing_plan_id":"cebpf4jnsgd1na2vs0mg"},{"bike_id":"ee8a4fde-c749-4664-8a08-03c520cf84ef","system_id":"levelo_inurba_marseille","lat":43.31333,"lon":5.39686,"is_reserved":false,"is_disabled":false,"rental_uris":{"android":"levelo://app?vid=ee8a4fde-c749-4664-8a08-03c520cf84ef","ios":"levelo://app?vid=ee8a4fde-c749-4664-8a08-03c520cf84ef"},"vehicle_type_id":"4","last_reported":1717693686,"current_range_meters":0,"station_id":"ce4bgvp2rcd13ifvqcu0","pricing_plan_id":"cebpf4jnsgd1na2vs0mg"},{"bike_id":"eee1a769-1bbf-4627-bd8e-4e8732de1e06","system_id":"levelo_inurba_marseille","lat":43.313291,"lon":5.396838,"is_reserved":false,"is_disabled":false,"rental_uris":{"android":"levelo://app?vid=eee1a769-1bbf-4627-bd8e-4e8732de1e06","ios":"levelo://app?vid=eee1a769-1bbf-4627-bd8e-4e8732de1e06"},"vehicle_type_id":"4","last_reported":1717693686,"current_range_meters":14000,"station_id":"ce4bgvp2rcd13ifvqcu0","pricing_plan_id":"cebpf4jnsgd1na2vs0mg"},{"bike_id":"a7192888-67ad-4567-baa4-472b4c0f2430","system_id":"levelo_inurba_marseille","lat":43.313291,"lon":5.396838,"is_reserved":false,"is_disabled":false,"rental_uris":{"android":"levelo://app?vid=a7192888-67ad-4567-baa4-472b4c0f2430","ios":"levelo://app?vid=a7192888-67ad-4567-baa4-472b4c0f2430"},"vehicle_type_id":"4","last_reported":1717693686,"current_range_meters":6800,"station_id":"ce4bgvp2rcd13ifvqcu0","pricing_plan_id":"cebpf4jnsgd1na2vs0mg"},{"bike_id":"80e3a331-54f9-41d4-add9-990f48a74f27","system_id":"levelo_inurba_marseille","lat":43.313291,"lon":5.396838,"is_reserved":false,"is_disabled":false,"rental_uris":{"android":"levelo://app?vid=80e3a331-54f9-41d4-add9-990f48a74f27","ios":"levelo://app?vid=80e3a331-54f9-41d4-add9-990f48a74f27"},"vehicle_type_id":"4","last_reported":1717693686,"current_range_meters":9600,"station_id":"ce4bgvp2rcd13ifvqcu0","pricing_plan_id":"cebpf4jnsgd1na2vs0mg"},{"bike_id":"772bf9a8-2d07-4523-a9d8-08ff3dcd4fe9","system_id":"levelo_inurba_marseille","lat":43.292005,"lon":5.357875,"is_reserved":false,"is_disabled":false,"rental_uris":{"android":"levelo://app?vid=772bf9a8-2d07-4523-a9d8-08ff3dcd4fe9","ios":"levelo://app?vid=772bf9a8-2d07-4523-a9d8-08ff3dcd4fe9"},"vehicle_type_id":"4","last_reported":1717693686,"current_range_meters":22000,"station_id":"ce4bhb12rcd13ifvqel0","pricing_plan_id":"cebpf4jnsgd1na2vs0mg"},{"bike_id":"d8237fcd-4c57-4a06-8c71-28885f0a2320","system_id":"levelo_inurba_marseille","lat":43.31333,"lon":5.39692,"is_reserved":false,"is_disabled":false,"rental_uris":{"android":"levelo://app?vid=d8237fcd-4c57-4a06-8c71-28885f0a2320","ios":"levelo://app?vid=d8237fcd-4c57-4a06-8c71-28885f0a2320"},"vehicle_type_id":"4","last_reported":1717693686,"current_range_meters":0,"station_id":"ce4bgvp2rcd13ifvqcu0","pricing_plan_id":"cebpf4jnsgd1na2vs0mg"},{"bike_id":"8d2b419a-d0e2-4f5b-b3e1-4be1f3f1a9da","system_id":"levelo_inurba_marseille","lat":43.313291,"lon":5.396838,"is_reserved":false,"is_disabled":false,"rental_uris":{"android":"levelo://app?vid=8d2b419a-d0e2-4f5b-b3e1-4be1f3f1a9da","ios":"levelo://app?vid=8d2b419a-d0e2-4f5b-b3e1-4be1f3f1a9da"},"vehicle_type_id":"4","last_reported":1717693686,"current_range_meters":14800,"station_id":"ce4bgvp2rcd13ifvqcu0","pricing_plan_id":"cebpf4jnsgd1na2vs0mg"},{"bike_id":"8686f8ab-e600-4f91-a4f3-44e093f68584","system_id":"levelo_inurba_marseille","lat":43.313291,"lon":5.396838,"is_reserved":false,"is_disabled":false,"rental_uris":{"android":"levelo://app?vid=8686f8ab-e600-4f91-a4f3-44e093f68584","ios":"levelo://app?vid=8686f8ab-e600-4f91-a4f3-44e093f68584"},"vehicle_type_id":"4","last_reported":1717693686,"current_range_meters":7600,"station_id":"ce4bgvp2rcd13ifvqcu0","pricing_plan_id":"cebpf4jnsgd1na2vs0mg"},{"bike_id":"5e6d6724-cf49-41f9-923e-d110d8cce47d","system_id":"levelo_inurba_marseille","lat":43.313291,"lon":5.396838,"is_reserved":false,"is_disabled":false,"rental_uris":{"android":"levelo://app?vid=5e6d6724-cf49-41f9-923e-d110d8cce47d","ios":"levelo://app?vid=5e6d6724-cf49-41f9-923e-d110d8cce47d"},"vehicle_type_id":"4","last_reported":1717693686,"current_range_meters":8800,"station_id":"ce4bgvp2rcd13ifvqcu0","pricing_plan_id":"cebpf4jnsgd1na2vs0mg"},{"bike_id":"841d5592-012e-42c6-9aa5-bb8012400d74","system_id":"levelo_inurba_marseille","lat":43.313291,"lon":5.396838,"is_reserved":false,"is_disabled":false,"rental_uris":{"android":"levelo://app?vid=841d5592-012e-42c6-9aa5-bb8012400d74","ios":"levelo://app?vid=841d5592-012e-42c6-9aa5-bb8012400d74"},"vehicle_type_id":"4","last_reported":1717693686,"current_range_meters":16400,"station_id":"ce4bgvp2rcd13ifvqcu0","pricing_plan_id":"cebpf4jnsgd1na2vs0mg"},{"bike_id":"4d3c82a3-c6c6-4d5c-a61a-301f82f9bcdc","system_id":"levelo_inurba_marseille","lat":43.313291,"lon":5.396838,"is_reserved":false,"is_disabled":false,"rental_uris":{"android":"levelo://app?vid=4d3c82a3-c6c6-4d5c-a61a-301f82f9bcdc","ios":"levelo://app?vid=4d3c82a3-c6c6-4d5c-a61a-301f82f9bcdc"},"vehicle_type_id":"4","last_reported":1717693686,"current_range_meters":28400,"station_id":"ce4bgvp2rcd13ifvqcu0","pricing_plan_id":"cebpf4jnsgd1na2vs0mg"},{"bike_id":"b99f042b-ca8e-48a4-ab23-b60430e5a890","system_id":"levelo_inurba_marseille","lat":43.291994,"lon":5.357886,"is_reserved":false,"is_disabled":false,"rental_uris":{"android":"levelo://app?vid=b99f042b-ca8e-48a4-ab23-b60430e5a890","ios":"levelo://app?vid=b99f042b-ca8e-48a4-ab23-b60430e5a890"},"vehicle_type_id":"4","last_reported":1717693686,"current_range_meters":30400,"station_id":"ce4bhb12rcd13ifvqel0","pricing_plan_id":"cebpf4jnsgd1na2vs0mg"},{"bike_id":"1284db2c-059d-45f3-bbd6-136c3f338afa","system_id":"levelo_inurba_marseille","lat":43.29533,"lon":5.38539,"is_reserved":false,"is_disabled":false,"rental_uris":{"android":"levelo://app?vid=1284db2c-059d-45f3-bbd6-136c3f338afa","ios":"levelo://app?vid=1284db2c-059d-45f3-bbd6-136c3f338afa"},"vehicle_type_id":"4","last_reported":1717693686,"current_range_meters":21600,"station_id":"ce4bgih2rcd13ifvqba0","pricing_plan_id":"cebpf4jnsgd1na2vs0mg"},{"bike_id":"91d10afe-f243-4284-a701-912d4bf11002","system_id":"levelo_inurba_marseille","lat":43.313291,"lon":5.396838,"is_reserved":false,"is_disabled":false,"rental_uris":{"android":"levelo://app?vid=91d10afe-f243-4284-a701-912d4bf11002","ios":"levelo://app?vid=91d10afe-f243-4284-a701-912d4bf11002"},"vehicle_type_id":"4","last_reported":1717693686,"current_range_meters":4400,"station_id":"ce4bgvp2rcd13ifvqcu0","pricing_plan_id":"cebpf4jnsgd1na2vs0mg"},{"bike_id":"2fc81c4f-33d5-4755-b029-1d9f3d5f91d3","system_id":"levelo_inurba_marseille","lat":43.292005,"lon":5.357875,"is_reserved":false,"is_disabled":false,"rental_uris":{"android":"levelo://app?vid=2fc81c4f-33d5-4755-b029-1d9f3d5f91d3","ios":"levelo://app?vid=2fc81c4f-33d5-4755-b029-1d9f3d5f91d3"},"vehicle_type_id":"4","last_reported":1717693686,"current_range_meters":0,"station_id":"ce4bhb12rcd13ifvqel0","pricing_plan_id":"cebpf4jnsgd1na2vs0mg"},{"bike_id":"3ddd508b-e503-4a22-82f3-0345313e4d6e","system_id":"levelo_inurba_marseille","lat":43.290779,"lon":5.371482,"is_reserved":false,"is_disabled":false,"rental_uris":{"android":"levelo://app?vid=3ddd508b-e503-4a22-82f3-0345313e4d6e","ios":"levelo://app?vid=3ddd508b-e503-4a22-82f3-0345313e4d6e"},"vehicle_type_id":"4","last_reported":1717693686,"current_range_meters":1200,"station_id":"ce4bh5p2rcd13ifvqe4g","pricing_plan_id":"cebpf4jnsgd1na2vs0mg"},{"bike_id":"1c161ca6-0f07-4768-bed6-ef8d8208bff6","system_id":"levelo_inurba_marseille","lat":43.290779,"lon":5.371482,"is_reserved":false,"is_disabled":false,"rental_uris":{"android":"levelo://app?vid=1c161ca6-0f07-4768-bed6-ef8d8208bff6","ios":"levelo://app?vid=1c161ca6-0f07-4768-bed6-ef8d8208bff6"},"vehicle_type_id":"4","last_reported":1717693686,"current_range_meters":4800,"station_id":"ce4bh5p2rcd13ifvqe4g","pricing_plan_id":"cebpf4jnsgd1na2vs0mg"},{"bike_id":"1dfb018e-7a88-4208-9773-afc7a117c8f5","system_id":"levelo_inurba_marseille","lat":43.29059,"lon":5.37223,"is_reserved":false,"is_disabled":false,"rental_uris":{"android":"levelo://app?vid=1dfb018e-7a88-4208-9773-afc7a117c8f5","ios":"levelo://app?vid=1dfb018e-7a88-4208-9773-afc7a117c8f5"},"vehicle_type_id":"4","last_reported":1717693686,"current_range_meters":0,"station_id":"","pricing_plan_id":"cebpf4jnsgd1na2vs0mg"},{"bike_id":"5ace92fd-91a6-4a73-9dae-b16d9eeee26e","system_id":"levelo_inurba_marseille","lat":43.302008,"lon":5.394694,"is_reserved":false,"is_disabled":false,"rental_uris":{"android":"levelo://app?vid=5ace92fd-91a6-4a73-9dae-b16d9eeee26e","ios":"levelo://app?vid=5ace92fd-91a6-4a73-9dae-b16d9eeee26e"},"vehicle_type_id":"4","last_reported":1717693686,"current_range_meters":800,"station_id":"ce4bh0p2rcd13ifvqd70","pricing_plan_id":"cebpf4jnsgd1na2vs0mg"},{"bike_id":"9f08c5b9-e4ee-473d-8c61-a46fa8d9b163","system_id":"levelo_inurba_marseille","lat":43.290624,"lon":5.359245,"is_reserved":false,"is_disabled":false,"rental_uris":{"android":"levelo://app?vid=9f08c5b9-e4ee-473d-8c61-a46fa8d9b163","ios":"levelo://app?vid=9f08c5b9-e4ee-473d-8c61-a46fa8d9b163"},"vehicle_type_id":"4","last_reported":1717693686,"current_range_meters":3600,"station_id":"ce4bha92rcd13ifvqeg0","pricing_plan_id":"cebpf4jnsgd1na2vs0mg"},{"bike_id":"3ce0adaa-bff0-492c-a1f5-ccf26acf3e3d","system_id":"levelo_inurba_marseille","lat":43.298681,"lon":5.397225,"is_reserved":false,"is_disabled":false,"rental_uris":{"android":"levelo://app?vid=3ce0adaa-bff0-492c-a1f5-ccf26acf3e3d","ios":"levelo://app?vid=3ce0adaa-bff0-492c-a1f5-ccf26acf3e3d"},"vehicle_type_id":"4","last_reported":1717693686,"current_range_meters":16400,"station_id":"ce4bh0h2rcd13ifvqd50","pricing_plan_id":"cebpf4jnsgd1na2vs0mg"},{"bike_id":"10575261-7595-4b06-bc2c-e1d982e40d1b","system_id":"levelo_inurba_marseille","lat":43.29435,"lon":5.38611,"is_reserved":false,"is_disabled":false,"rental_uris":{"android":"levelo://app?vid=10575261-7595-4b06-bc2c-e1d982e40d1b","ios":"levelo://app?vid=10575261-7595-4b06-bc2c-e1d982e40d1b"},"vehicle_type_id":"4","last_reported":1717693686,"current_range_meters":2400,"station_id":"ce4bh2h2rcd13ifvqdh0","pricing_plan_id":"cebpf4jnsgd1na2vs0mg"},{"bike_id":"5bf0a926-2fce-43aa-b35c-bad0e783fe62","system_id":"levelo_inurba_marseille","lat":43.290624,"lon":5.359245,"is_reserved":false,"is_disabled":false,"rental_uris":{"android":"levelo://app?vid=5bf0a926-2fce-43aa-b35c-bad0e783fe62","ios":"levelo://app?vid=5bf0a926-2fce-43aa-b35c-bad0e783fe62"},"vehicle_type_id":"4","last_reported":1717693686,"current_range_meters":26400,"station_id":"ce4bha92rcd13ifvqeg0","pricing_plan_id":"cebpf4jnsgd1na2vs0mg"},{"bike_id":"a31abb3e-fb3b-4318-b386-28f8076984c5","system_id":"levelo_inurba_marseille","lat":43.294162,"lon":5.386292,"is_reserved":false,"is_disabled":false,"rental_uris":{"android":"levelo://app?vid=a31abb3e-fb3b-4318-b386-28f8076984c5","ios":"levelo://app?vid=a31abb3e-fb3b-4318-b386-28f8076984c5"},"vehicle_type_id":"4","last_reported":1717693686,"current_range_meters":23200,"station_id":"ce4bh2h2rcd13ifvqdh0","pricing_plan_id":"cebpf4jnsgd1na2vs0mg"},{"bike_id":"e0b49416-8d4e-46fc-8ba6-b934dd8e5557","system_id":"levelo_inurba_marseille","lat":43.2942,"lon":5.3862,"is_reserved":false,"is_disabled":false,"rental_uris":{"android":"levelo://app?vid=e0b49416-8d4e-46fc-8ba6-b934dd8e5557","ios":"levelo://app?vid=e0b49416-8d4e-46fc-8ba6-b934dd8e5557"},"vehicle_type_id":"4","last_reported":1717693686,"current_range_meters":0,"station_id":"ce4bh2h2rcd13ifvqdh0","pricing_plan_id":"cebpf4jnsgd1na2vs0mg"},{"bike_id":"d217ae98-71b8-45dd-8090-447bfcfb4241","system_id":"levelo_inurba_marseille","lat":43.29418,"lon":5.3862,"is_reserved":false,"is_disabled":false,"rental_uris":{"android":"levelo://app?vid=d217ae98-71b8-45dd-8090-447bfcfb4241","ios":"levelo://app?vid=d217ae98-71b8-45dd-8090-447bfcfb4241"},"vehicle_type_id":"4","last_reported":1717693686,"current_range_meters":0,"station_id":"ce4bh2h2rcd13ifvqdh0","pricing_plan_id":"cebpf4jnsgd1na2vs0mg"},{"bike_id":"e2ae74a4-7bb2-44df-affd-ae654dccb908","system_id":"levelo_inurba_marseille","lat":43.29419,"lon":5.38626,"is_reserved":false,"is_disabled":false,"rental_uris":{"android":"levelo://app?vid=e2ae74a4-7bb2-44df-affd-ae654dccb908","ios":"levelo://app?vid=e2ae74a4-7bb2-44df-affd-ae654dccb908"},"vehicle_type_id":"4","last_reported":1717693686,"current_range_meters":0,"station_id":"ce4bh2h2rcd13ifvqdh0","pricing_plan_id":"cebpf4jnsgd1na2vs0mg"},{"bike_id":"d8c836a6-15f9-4795-961e-b6dc23fd723a","system_id":"levelo_inurba_marseille","lat":43.289184,"lon":5.366408,"is_reserved":false,"is_disabled":false,"rental_uris":{"android":"levelo://app?vid=d8c836a6-15f9-4795-961e-b6dc23fd723a","ios":"levelo://app?vid=d8c836a6-15f9-4795-961e-b6dc23fd723a"},"vehicle_type_id":"4","last_reported":1717693686,"current_range_meters":1200,"station_id":"ce4bhap2rcd13ifvqek0","pricing_plan_id":"cebpf4jnsgd1na2vs0mg"},{"bike_id":"2c94dd65-6005-4429-afe7-a62a52cebaf3","system_id":"levelo_inurba_marseille","lat":43.294147,"lon":5.386208,"is_reserved":false,"is_disabled":false,"rental_uris":{"android":"levelo://app?vid=2c94dd65-6005-4429-afe7-a62a52cebaf3","ios":"levelo://app?vid=2c94dd65-6005-4429-afe7-a62a52cebaf3"},"vehicle_type_id":"4","last_reported":1717693686,"current_range_meters":0,"station_id":"ce4bh2h2rcd13ifvqdh0","pricing_plan_id":"cebpf4jnsgd1na2vs0mg"},{"bike_id":"19c2df29-27fd-4d68-8986-a50e7d393015","system_id":"levelo_inurba_marseille","lat":43.294162,"lon":5.386292,"is_reserved":false,"is_disabled":false,"rental_uris":{"android":"levelo://app?vid=19c2df29-27fd-4d68-8986-a50e7d393015","ios":"levelo://app?vid=19c2df29-27fd-4d68-8986-a50e7d393015"},"vehicle_type_id":"4","last_reported":1717693686,"current_range_meters":0,"station_id":"ce4bh2h2rcd13ifvqdh0","pricing_plan_id":"cebpf4jnsgd1na2vs0mg"},{"bike_id":"e1de0304-73bb-4650-8303-aadc65ad9d5d","system_id":"levelo_inurba_marseille","lat":43.289184,"lon":5.366408,"is_reserved":false,"is_disabled":false,"rental_uris":{"android":"levelo://app?vid=e1de0304-73bb-4650-8303-aadc65ad9d5d","ios":"levelo://app?vid=e1de0304-73bb-4650-8303-aadc65ad9d5d"},"vehicle_type_id":"4","last_reported":1717693686,"current_range_meters":13600,"station_id":"ce4bhap2rcd13ifvqek0","pricing_plan_id":"cebpf4jnsgd1na2vs0mg"},{"bike_id":"f57719a2-65f7-45ac-9f8f-5e0bedc24687","system_id":"levelo_inurba_marseille","lat":43.289184,"lon":5.366408,"is_reserved":false,"is_disabled":false,"rental_uris":{"android":"levelo://app?vid=f57719a2-65f7-45ac-9f8f-5e0bedc24687","ios":"levelo://app?vid=f57719a2-65f7-45ac-9f8f-5e0bedc24687"},"vehicle_type_id":"4","last_reported":1717693686,"current_range_meters":4800,"station_id":"ce4bhap2rcd13ifvqek0","pricing_plan_id":"cebpf4jnsgd1na2vs0mg"},{"bike_id":"f0658eea-c915-445b-8a38-c16b9e65961a","system_id":"levelo_inurba_marseille","lat":43.289184,"lon":5.366408,"is_reserved":false,"is_disabled":false,"rental_uris":{"android":"levelo://app?vid=f0658eea-c915-445b-8a38-c16b9e65961a","ios":"levelo://app?vid=f0658eea-c915-445b-8a38-c16b9e65961a"},"vehicle_type_id":"4","last_reported":1717693686,"current_range_meters":8400,"station_id":"ce4bhap2rcd13ifvqek0","pricing_plan_id":"cebpf4jnsgd1na2vs0mg"},{"bike_id":"a9692441-bd47-428c-ae26-94bc260cafa9","system_id":"levelo_inurba_marseille","lat":43.28932,"lon":5.36634,"is_reserved":false,"is_disabled":false,"rental_uris":{"android":"levelo://app?vid=a9692441-bd47-428c-ae26-94bc260cafa9","ios":"levelo://app?vid=a9692441-bd47-428c-ae26-94bc260cafa9"},"vehicle_type_id":"4","last_reported":1717693686,"current_range_meters":0,"station_id":"ce4bhap2rcd13ifvqek0","pricing_plan_id":"cebpf4jnsgd1na2vs0mg"},{"bike_id":"d405a145-35d2-4ac8-bf92-08bb31600ef2","system_id":"levelo_inurba_marseille","lat":43.289184,"lon":5.366408,"is_reserved":false,"is_disabled":false,"rental_uris":{"android":"levelo://app?vid=d405a145-35d2-4ac8-bf92-08bb31600ef2","ios":"levelo://app?vid=d405a145-35d2-4ac8-bf92-08bb31600ef2"},"vehicle_type_id":"4","last_reported":1717693686,"current_range_meters":17600,"station_id":"ce4bhap2rcd13ifvqek0","pricing_plan_id":"cebpf4jnsgd1na2vs0mg"},{"bike_id":"c402639e-a543-4919-8c3a-4fa18ea35c7a","system_id":"levelo_inurba_marseille","lat":43.289184,"lon":5.366408,"is_reserved":false,"is_disabled":false,"rental_uris":{"android":"levelo://app?vid=c402639e-a543-4919-8c3a-4fa18ea35c7a","ios":"levelo://app?vid=c402639e-a543-4919-8c3a-4fa18ea35c7a"},"vehicle_type_id":"4","last_reported":1717693686,"current_range_meters":0,"station_id":"ce4bhap2rcd13ifvqek0","pricing_plan_id":"cebpf4jnsgd1na2vs0mg"},{"bike_id":"7fb0519a-81a1-4c72-a0af-b7fb78fa5723","system_id":"levelo_inurba_marseille","lat":43.289468,"lon":5.363719,"is_reserved":false,"is_disabled":false,"rental_uris":{"android":"levelo://app?vid=7fb0519a-81a1-4c72-a0af-b7fb78fa5723","ios":"levelo://app?vid=7fb0519a-81a1-4c72-a0af-b7fb78fa5723"},"vehicle_type_id":"4","last_reported":1717693686,"current_range_meters":10800,"station_id":"ce4bhc92rcd13ifvqetg","pricing_plan_id":"cebpf4jnsgd1na2vs0mg"},{"bike_id":"8cc5dcc1-1e2c-4444-a51e-cf4b071450f1","system_id":"levelo_inurba_marseille","lat":43.30248,"lon":5.396188,"is_reserved":false,"is_disabled":false,"rental_uris":{"android":"levelo://app?vid=8cc5dcc1-1e2c-4444-a51e-cf4b071450f1","ios":"levelo://app?vid=8cc5dcc1-1e2c-4444-a51e-cf4b071450f1"},"vehicle_type_id":"4","last_reported":1717693686,"current_range_meters":28000,"station_id":"ce4bh192rcd13ifvqdb0","pricing_plan_id":"cebpf4jnsgd1na2vs0mg"},{"bike_id":"8c1ef832-f483-4cf5-95c6-15a4a6084638","system_id":"levelo_inurba_marseille","lat":43.292642,"lon":5.384254,"is_reserved":false,"is_disabled":false,"rental_uris":{"android":"levelo://app?vid=8c1ef832-f483-4cf5-95c6-15a4a6084638","ios":"levelo://app?vid=8c1ef832-f483-4cf5-95c6-15a4a6084638"},"vehicle_type_id":"4","last_reported":1717693686,"current_range_meters":2400,"station_id":"ce4bh692rcd13ifvqea0","pricing_plan_id":"cebpf4jnsgd1na2vs0mg"},{"bike_id":"e2147445-80d7-482e-bbe6-22001511e30f","system_id":"levelo_inurba_marseille","lat":43.29573,"lon":5.367355,"is_reserved":false,"is_disabled":false,"rental_uris":{"android":"levelo://app?vid=e2147445-80d7-482e-bbe6-22001511e30f","ios":"levelo://app?vid=e2147445-80d7-482e-bbe6-22001511e30f"},"vehicle_type_id":"4","last_reported":1717693686,"current_range_meters":7200,"station_id":"ce4bgph2rcd13ifvqc2g","pricing_plan_id":"cebpf4jnsgd1na2vs0mg"},{"bike_id":"cffc201d-7790-486d-afc6-9a1555dad034","system_id":"levelo_inurba_marseille","lat":43.292509,"lon":5.384034,"is_reserved":false,"is_disabled":false,"rental_uris":{"android":"levelo://app?vid=cffc201d-7790-486d-afc6-9a1555dad034","ios":"levelo://app?vid=cffc201d-7790-486d-afc6-9a1555dad034"},"vehicle_type_id":"4","last_reported":1717693686,"current_range_meters":0,"station_id":"ce4bh692rcd13ifvqea0","pricing_plan_id":"cebpf4jnsgd1na2vs0mg"},{"bike_id":"9c44da68-7e45-4d79-9a29-b2bac94a5896","system_id":"levelo_inurba_marseille","lat":43.292644,"lon":5.384257,"is_reserved":false,"is_disabled":false,"rental_uris":{"android":"levelo://app?vid=9c44da68-7e45-4d79-9a29-b2bac94a5896","ios":"levelo://app?vid=9c44da68-7e45-4d79-9a29-b2bac94a5896"},"vehicle_type_id":"4","last_reported":1717693686,"current_range_meters":22000,"station_id":"ce4bh692rcd13ifvqea0","pricing_plan_id":"cebpf4jnsgd1na2vs0mg"},{"bike_id":"54fab329-a405-44bc-8e0e-261a27accd67","system_id":"levelo_inurba_marseille","lat":43.292476,"lon":5.384124,"is_reserved":false,"is_disabled":false,"rental_uris":{"android":"levelo://app?vid=54fab329-a405-44bc-8e0e-261a27accd67","ios":"levelo://app?vid=54fab329-a405-44bc-8e0e-261a27accd67"},"vehicle_type_id":"4","last_reported":1717693686,"current_range_meters":0,"station_id":"ce4bh692rcd13ifvqea0","pricing_plan_id":"cebpf4jnsgd1na2vs0mg"},{"bike_id":"a1a65014-26c6-4a30-9d76-8174e2588725","system_id":"levelo_inurba_marseille","lat":43.29261,"lon":5.38445,"is_reserved":false,"is_disabled":false,"rental_uris":{"android":"levelo://app?vid=a1a65014-26c6-4a30-9d76-8174e2588725","ios":"levelo://app?vid=a1a65014-26c6-4a30-9d76-8174e2588725"},"vehicle_type_id":"4","last_reported":1717693686,"current_range_meters":0,"station_id":"ce4bh692rcd13ifvqea0","pricing_plan_id":"cebpf4jnsgd1na2vs0mg"},{"bike_id":"d5383f6d-7178-49c7-b2a8-ef21895f2207","system_id":"levelo_inurba_marseille","lat":43.292644,"lon":5.384257,"is_reserved":false,"is_disabled":false,"rental_uris":{"android":"levelo://app?vid=d5383f6d-7178-49c7-b2a8-ef21895f2207","ios":"levelo://app?vid=d5383f6d-7178-49c7-b2a8-ef21895f2207"},"vehicle_type_id":"4","last_reported":1717693686,"current_range_meters":21600,"station_id":"ce4bh692rcd13ifvqea0","pricing_plan_id":"cebpf4jnsgd1na2vs0mg"},{"bike_id":"e16eb9db-e44c-4033-85b3-e71dda9c52d2","system_id":"levelo_inurba_marseille","lat":43.290103,"lon":5.356114,"is_reserved":false,"is_disabled":false,"rental_uris":{"android":"levelo://app?vid=e16eb9db-e44c-4033-85b3-e71dda9c52d2","ios":"levelo://app?vid=e16eb9db-e44c-4033-85b3-e71dda9c52d2"},"vehicle_type_id":"4","last_reported":1717693686,"current_range_meters":8800,"station_id":"ce4bhb92rcd13ifvqen0","pricing_plan_id":"cebpf4jnsgd1na2vs0mg"},{"bike_id":"cdece18e-1667-4eae-9667-0e8601b12ee2","system_id":"levelo_inurba_marseille","lat":43.290104,"lon":5.356111,"is_reserved":false,"is_disabled":false,"rental_uris":{"android":"levelo://app?vid=cdece18e-1667-4eae-9667-0e8601b12ee2","ios":"levelo://app?vid=cdece18e-1667-4eae-9667-0e8601b12ee2"},"vehicle_type_id":"4","last_reported":1717693686,"current_range_meters":9200,"station_id":"ce4bhb92rcd13ifvqen0","pricing_plan_id":"cebpf4jnsgd1na2vs0mg"},{"bike_id":"f814f3e2-6bc5-4231-b739-9112904cdc48","system_id":"levelo_inurba_marseille","lat":43.290104,"lon":5.356111,"is_reserved":false,"is_disabled":false,"rental_uris":{"android":"levelo://app?vid=f814f3e2-6bc5-4231-b739-9112904cdc48","ios":"levelo://app?vid=f814f3e2-6bc5-4231-b739-9112904cdc48"},"vehicle_type_id":"4","last_reported":1717693686,"current_range_meters":400,"station_id":"ce4bhb92rcd13ifvqen0","pricing_plan_id":"cebpf4jnsgd1na2vs0mg"},{"bike_id":"aa561591-b191-4e98-b6a1-d63b4f238270","system_id":"levelo_inurba_marseille","lat":43.290995,"lon":5.381361,"is_reserved":false,"is_disabled":false,"rental_uris":{"android":"levelo://app?vid=aa561591-b191-4e98-b6a1-d63b4f238270","ios":"levelo://app?vid=aa561591-b191-4e98-b6a1-d63b4f238270"},"vehicle_type_id":"4","last_reported":1717693686,"current_range_meters":16000,"station_id":"ce4bh512rcd13ifvqe2g","pricing_plan_id":"cebpf4jnsgd1na2vs0mg"},{"bike_id":"8c423b99-855b-4f40-962f-ec09c99734bd","system_id":"levelo_inurba_marseille","lat":43.290995,"lon":5.381361,"is_reserved":false,"is_disabled":false,"rental_uris":{"android":"levelo://app?vid=8c423b99-855b-4f40-962f-ec09c99734bd","ios":"levelo://app?vid=8c423b99-855b-4f40-962f-ec09c99734bd"},"vehicle_type_id":"4","last_reported":1717693686,"current_range_meters":0,"station_id":"ce4bh512rcd13ifvqe2g","pricing_plan_id":"cebpf4jnsgd1na2vs0mg"},{"bike_id":"97056a6d-d124-48bf-a807-8dfb2e0e0e9a","system_id":"levelo_inurba_marseille","lat":43.29517,"lon":5.39014,"is_reserved":false,"is_disabled":false,"rental_uris":{"android":"levelo://app?vid=97056a6d-d124-48bf-a807-8dfb2e0e0e9a","ios":"levelo://app?vid=97056a6d-d124-48bf-a807-8dfb2e0e0e9a"},"vehicle_type_id":"4","last_reported":1717693686,"current_range_meters":0,"station_id":"ce4bh3p2rcd13ifvqdp0","pricing_plan_id":"cebpf4jnsgd1na2vs0mg"},{"bike_id":"fbf5e91a-ea2d-4333-8b2b-34699029fc3c","system_id":"levelo_inurba_marseille","lat":43.289741,"lon":5.378306,"is_reserved":false,"is_disabled":false,"rental_uris":{"android":"levelo://app?vid=fbf5e91a-ea2d-4333-8b2b-34699029fc3c","ios":"levelo://app?vid=fbf5e91a-ea2d-4333-8b2b-34699029fc3c"},"vehicle_type_id":"4","last_reported":1717693686,"current_range_meters":2000,"station_id":"ce4bh9p2rcd13ifvqed0","pricing_plan_id":"cebpf4jnsgd1na2vs0mg"},{"bike_id":"975da0d8-20a9-4491-bb08-4b6f58de0efa","system_id":"levelo_inurba_marseille","lat":43.29515,"lon":5.39022,"is_reserved":false,"is_disabled":false,"rental_uris":{"android":"levelo://app?vid=975da0d8-20a9-4491-bb08-4b6f58de0efa","ios":"levelo://app?vid=975da0d8-20a9-4491-bb08-4b6f58de0efa"},"vehicle_type_id":"4","last_reported":1717693686,"current_range_meters":0,"station_id":"ce4bh3p2rcd13ifvqdp0","pricing_plan_id":"cebpf4jnsgd1na2vs0mg"},{"bike_id":"734b6035-a0f1-4528-a239-9032c9fb7ca5","system_id":"levelo_inurba_marseille","lat":43.330442,"lon":5.389148,"is_reserved":false,"is_disabled":false,"rental_uris":{"android":"levelo://app?vid=734b6035-a0f1-4528-a239-9032c9fb7ca5","ios":"levelo://app?vid=734b6035-a0f1-4528-a239-9032c9fb7ca5"},"vehicle_type_id":"4","last_reported":1717693686,"current_range_meters":30800,"station_id":"ce4bhr92rcd13ifvqhrg","pricing_plan_id":"cebpf4jnsgd1na2vs0mg"},{"bike_id":"c3182ab6-600c-4d9b-8acc-b9b9702c5222","system_id":"levelo_inurba_marseille","lat":43.295169,"lon":5.390426,"is_reserved":false,"is_disabled":false,"rental_uris":{"android":"levelo://app?vid=c3182ab6-600c-4d9b-8acc-b9b9702c5222","ios":"levelo://app?vid=c3182ab6-600c-4d9b-8acc-b9b9702c5222"},"vehicle_type_id":"4","last_reported":1717693686,"current_range_meters":12800,"station_id":"ce4bh3p2rcd13ifvqdp0","pricing_plan_id":"cebpf4jnsgd1na2vs0mg"},{"bike_id":"58c4402a-e4ef-447a-8ada-af4ca324c5a1","system_id":"levelo_inurba_marseille","lat":43.288622,"lon":5.358791,"is_reserved":false,"is_disabled":false,"rental_uris":{"android":"levelo://app?vid=58c4402a-e4ef-447a-8ada-af4ca324c5a1","ios":"levelo://app?vid=58c4402a-e4ef-447a-8ada-af4ca324c5a1"},"vehicle_type_id":"4","last_reported":1717693686,"current_range_meters":0,"station_id":"ce4bhb12rcd13ifvqem0","pricing_plan_id":"cebpf4jnsgd1na2vs0mg"},{"bike_id":"ab5ebd7c-c669-4d7c-9678-084507ed0a57","system_id":"levelo_inurba_marseille","lat":43.288485,"lon":5.358556,"is_reserved":false,"is_disabled":false,"rental_uris":{"android":"levelo://app?vid=ab5ebd7c-c669-4d7c-9678-084507ed0a57","ios":"levelo://app?vid=ab5ebd7c-c669-4d7c-9678-084507ed0a57"},"vehicle_type_id":"4","last_reported":1717693686,"current_range_meters":0,"station_id":"ce4bhb12rcd13ifvqem0","pricing_plan_id":"cebpf4jnsgd1na2vs0mg"},{"bike_id":"7d02b91c-63ba-4a24-ba3c-242d361958b4","system_id":"levelo_inurba_marseille","lat":43.28856,"lon":5.358371,"is_reserved":false,"is_disabled":false,"rental_uris":{"android":"levelo://app?vid=7d02b91c-63ba-4a24-ba3c-242d361958b4","ios":"levelo://app?vid=7d02b91c-63ba-4a24-ba3c-242d361958b4"},"vehicle_type_id":"4","last_reported":1717693686,"current_range_meters":0,"station_id":"ce4bhb12rcd13ifvqem0","pricing_plan_id":"cebpf4jnsgd1na2vs0mg"},{"bike_id":"30562ad8-da6e-4941-a328-61ebf6b71ee8","system_id":"levelo_inurba_marseille","lat":43.312628,"lon":5.401676,"is_reserved":false,"is_disabled":false,"rental_uris":{"android":"levelo://app?vid=30562ad8-da6e-4941-a328-61ebf6b71ee8","ios":"levelo://app?vid=30562ad8-da6e-4941-a328-61ebf6b71ee8"},"vehicle_type_id":"4","last_reported":1717693686,"current_range_meters":800,"station_id":"ce4bh092rcd13ifvqd30","pricing_plan_id":"cebpf4jnsgd1na2vs0mg"},{"bike_id":"d866d6a5-f89a-4795-b2b0-118399f8734c","system_id":"levelo_inurba_marseille","lat":43.288208,"lon":5.358498,"is_reserved":false,"is_disabled":false,"rental_uris":{"android":"levelo://app?vid=d866d6a5-f89a-4795-b2b0-118399f8734c","ios":"levelo://app?vid=d866d6a5-f89a-4795-b2b0-118399f8734c"},"vehicle_type_id":"4","last_reported":1717693686,"current_range_meters":0,"station_id":"ce4bhb12rcd13ifvqem0","pricing_plan_id":"cebpf4jnsgd1na2vs0mg"},{"bike_id":"f5d81ff7-7e0d-44d8-86e3-2548419d17b8","system_id":"levelo_inurba_marseille","lat":43.337412,"lon":5.37457,"is_reserved":false,"is_disabled":false,"rental_uris":{"android":"levelo://app?vid=f5d81ff7-7e0d-44d8-86e3-2548419d17b8","ios":"levelo://app?vid=f5d81ff7-7e0d-44d8-86e3-2548419d17b8"},"vehicle_type_id":"4","last_reported":1717693686,"current_range_meters":5600,"station_id":"","pricing_plan_id":"cebpf4jnsgd1na2vs0mg"},{"bike_id":"f4edbb75-5681-4528-b7a3-1779ccab221c","system_id":"levelo_inurba_marseille","lat":43.312609,"lon":5.401662,"is_reserved":false,"is_disabled":false,"rental_uris":{"android":"levelo://app?vid=f4edbb75-5681-4528-b7a3-1779ccab221c","ios":"levelo://app?vid=f4edbb75-5681-4528-b7a3-1779ccab221c"},"vehicle_type_id":"4","last_reported":1717693686,"current_range_meters":16800,"station_id":"ce4bh092rcd13ifvqd30","pricing_plan_id":"cebpf4jnsgd1na2vs0mg"},{"bike_id":"4e785c2c-3400-4ee1-ae07-455aa733d567","system_id":"levelo_inurba_marseille","lat":43.337418,"lon":5.37491,"is_reserved":false,"is_disabled":false,"rental_uris":{"android":"levelo://app?vid=4e785c2c-3400-4ee1-ae07-455aa733d567","ios":"levelo://app?vid=4e785c2c-3400-4ee1-ae07-455aa733d567"},"vehicle_type_id":"4","last_reported":1717693686,"current_range_meters":24400,"station_id":"","pricing_plan_id":"cebpf4jnsgd1na2vs0mg"},{"bike_id":"cbf27dc7-e173-49ec-8104-fc8f00280f03","system_id":"levelo_inurba_marseille","lat":43.33753,"lon":5.37454,"is_reserved":false,"is_disabled":false,"rental_uris":{"android":"levelo://app?vid=cbf27dc7-e173-49ec-8104-fc8f00280f03","ios":"levelo://app?vid=cbf27dc7-e173-49ec-8104-fc8f00280f03"},"vehicle_type_id":"4","last_reported":1717693686,"current_range_meters":24000,"station_id":"","pricing_plan_id":"cebpf4jnsgd1na2vs0mg"},{"bike_id":"07afa5f4-9a67-4f07-af4f-b25e20e056a1","system_id":"levelo_inurba_marseille","lat":43.309371,"lon":5.401449,"is_reserved":false,"is_disabled":false,"rental_uris":{"android":"levelo://app?vid=07afa5f4-9a67-4f07-af4f-b25e20e056a1","ios":"levelo://app?vid=07afa5f4-9a67-4f07-af4f-b25e20e056a1"},"vehicle_type_id":"4","last_reported":1717693686,"current_range_meters":21200,"station_id":"ce4bgvp2rcd13ifvqct0","pricing_plan_id":"cebpf4jnsgd1na2vs0mg"},{"bike_id":"27185a59-66a3-43d4-b216-3f080a9d5026","system_id":"levelo_inurba_marseille","lat":43.301117,"lon":5.398795,"is_reserved":false,"is_disabled":false,"rental_uris":{"android":"levelo://app?vid=27185a59-66a3-43d4-b216-3f080a9d5026","ios":"levelo://app?vid=27185a59-66a3-43d4-b216-3f080a9d5026"},"vehicle_type_id":"4","last_reported":1717693686,"current_range_meters":0,"station_id":"ce4bh0h2rcd13ifvqd40","pricing_plan_id":"cebpf4jnsgd1na2vs0mg"},{"bike_id":"527cd745-7343-49a8-a83f-e7a487063a59","system_id":"levelo_inurba_marseille","lat":43.28727,"lon":5.36078,"is_reserved":false,"is_disabled":false,"rental_uris":{"android":"levelo://app?vid=527cd745-7343-49a8-a83f-e7a487063a59","ios":"levelo://app?vid=527cd745-7343-49a8-a83f-e7a487063a59"},"vehicle_type_id":"4","last_reported":1717693686,"current_range_meters":14400,"station_id":"cki0cbj6b192h4jlfktg","pricing_plan_id":"cebpf4jnsgd1na2vs0mg"},{"bike_id":"960ced4d-2eea-47b1-9376-42cd8a1776af","system_id":"levelo_inurba_marseille","lat":43.301117,"lon":5.398795,"is_reserved":false,"is_disabled":false,"rental_uris":{"android":"levelo://app?vid=960ced4d-2eea-47b1-9376-42cd8a1776af","ios":"levelo://app?vid=960ced4d-2eea-47b1-9376-42cd8a1776af"},"vehicle_type_id":"4","last_reported":1717693686,"current_range_meters":12400,"station_id":"ce4bh0h2rcd13ifvqd40","pricing_plan_id":"cebpf4jnsgd1na2vs0mg"},{"bike_id":"edf6b584-3c41-4026-b2b8-eb31218e2ec9","system_id":"levelo_inurba_marseille","lat":43.301117,"lon":5.398795,"is_reserved":false,"is_disabled":false,"rental_uris":{"android":"levelo://app?vid=edf6b584-3c41-4026-b2b8-eb31218e2ec9","ios":"levelo://app?vid=edf6b584-3c41-4026-b2b8-eb31218e2ec9"},"vehicle_type_id":"4","last_reported":1717693686,"current_range_meters":400,"station_id":"ce4bh0h2rcd13ifvqd40","pricing_plan_id":"cebpf4jnsgd1na2vs0mg"},{"bike_id":"9dbf8bb9-87bd-4ba4-b0bf-5a0f043ced58","system_id":"levelo_inurba_marseille","lat":43.28727,"lon":5.36078,"is_reserved":false,"is_disabled":false,"rental_uris":{"android":"levelo://app?vid=9dbf8bb9-87bd-4ba4-b0bf-5a0f043ced58","ios":"levelo://app?vid=9dbf8bb9-87bd-4ba4-b0bf-5a0f043ced58"},"vehicle_type_id":"4","last_reported":1717693686,"current_range_meters":8800,"station_id":"cki0cbj6b192h4jlfktg","pricing_plan_id":"cebpf4jnsgd1na2vs0mg"},{"bike_id":"89991599-4a80-43e4-a1e1-3e7e36ad79b7","system_id":"levelo_inurba_marseille","lat":43.28727,"lon":5.36078,"is_reserved":false,"is_disabled":false,"rental_uris":{"android":"levelo://app?vid=89991599-4a80-43e4-a1e1-3e7e36ad79b7","ios":"levelo://app?vid=89991599-4a80-43e4-a1e1-3e7e36ad79b7"},"vehicle_type_id":"4","last_reported":1717693686,"current_range_meters":31200,"station_id":"cki0cbj6b192h4jlfktg","pricing_plan_id":"cebpf4jnsgd1na2vs0mg"},{"bike_id":"a118885a-0295-4587-91d7-1e5d7b5ab0bd","system_id":"levelo_inurba_marseille","lat":43.286591,"lon":5.363346,"is_reserved":false,"is_disabled":false,"rental_uris":{"android":"levelo://app?vid=a118885a-0295-4587-91d7-1e5d7b5ab0bd","ios":"levelo://app?vid=a118885a-0295-4587-91d7-1e5d7b5ab0bd"},"vehicle_type_id":"4","last_reported":1717693686,"current_range_meters":5600,"station_id":"ce4bhah2rcd13ifvqej0","pricing_plan_id":"cebpf4jnsgd1na2vs0mg"},{"bike_id":"5150cb3b-0be1-445a-9aed-798b710b1d7f","system_id":"levelo_inurba_marseille","lat":43.286641,"lon":5.363528,"is_reserved":false,"is_disabled":false,"rental_uris":{"android":"levelo://app?vid=5150cb3b-0be1-445a-9aed-798b710b1d7f","ios":"levelo://app?vid=5150cb3b-0be1-445a-9aed-798b710b1d7f"},"vehicle_type_id":"4","last_reported":1717693686,"current_range_meters":0,"station_id":"ce4bhah2rcd13ifvqej0","pricing_plan_id":"cebpf4jnsgd1na2vs0mg"},{"bike_id":"644b9821-1c44-4282-b073-1edf70497e76","system_id":"levelo_inurba_marseille","lat":43.286961,"lon":5.373785,"is_reserved":false,"is_disabled":false,"rental_uris":{"android":"levelo://app?vid=644b9821-1c44-4282-b073-1edf70497e76","ios":"levelo://app?vid=644b9821-1c44-4282-b073-1edf70497e76"},"vehicle_type_id":"4","last_reported":1717693686,"current_range_meters":0,"station_id":"ce4bh3p2rcd13ifvqdq0","pricing_plan_id":"cebpf4jnsgd1na2vs0mg"},{"bike_id":"71fd20ca-6dad-4422-bdfd-7b0ddd435b92","system_id":"levelo_inurba_marseille","lat":43.286961,"lon":5.373785,"is_reserved":false,"is_disabled":false,"rental_uris":{"android":"levelo://app?vid=71fd20ca-6dad-4422-bdfd-7b0ddd435b92","ios":"levelo://app?vid=71fd20ca-6dad-4422-bdfd-7b0ddd435b92"},"vehicle_type_id":"4","last_reported":1717693686,"current_range_meters":17600,"station_id":"ce4bh3p2rcd13ifvqdq0","pricing_plan_id":"cebpf4jnsgd1na2vs0mg"},{"bike_id":"4c8f6161-9a40-48b0-b51b-282f1b440831","system_id":"levelo_inurba_marseille","lat":43.28656,"lon":5.36356,"is_reserved":false,"is_disabled":false,"rental_uris":{"android":"levelo://app?vid=4c8f6161-9a40-48b0-b51b-282f1b440831","ios":"levelo://app?vid=4c8f6161-9a40-48b0-b51b-282f1b440831"},"vehicle_type_id":"4","last_reported":1717693686,"current_range_meters":2000,"station_id":"ce4bhah2rcd13ifvqej0","pricing_plan_id":"cebpf4jnsgd1na2vs0mg"},{"bike_id":"663fa89c-0893-41e6-95a9-f381d6abe183","system_id":"levelo_inurba_marseille","lat":43.286554,"lon":5.363406,"is_reserved":false,"is_disabled":false,"rental_uris":{"android":"levelo://app?vid=663fa89c-0893-41e6-95a9-f381d6abe183","ios":"levelo://app?vid=663fa89c-0893-41e6-95a9-f381d6abe183"},"vehicle_type_id":"4","last_reported":1717693686,"current_range_meters":800,"station_id":"ce4bhah2rcd13ifvqej0","pricing_plan_id":"cebpf4jnsgd1na2vs0mg"},{"bike_id":"9322dd90-889a-4566-9299-a4813289d853","system_id":"levelo_inurba_marseille","lat":43.295196,"lon":5.39397,"is_reserved":false,"is_disabled":false,"rental_uris":{"android":"levelo://app?vid=9322dd90-889a-4566-9299-a4813289d853","ios":"levelo://app?vid=9322dd90-889a-4566-9299-a4813289d853"},"vehicle_type_id":"4","last_reported":1717693686,"current_range_meters":3200,"station_id":"ce4bh292rcd13ifvqdf0","pricing_plan_id":"cebpf4jnsgd1na2vs0mg"},{"bike_id":"ef990cdd-970a-41d3-8c35-1bbc825cbe39","system_id":"levelo_inurba_marseille","lat":43.289307,"lon":5.38406,"is_reserved":false,"is_disabled":false,"rental_uris":{"android":"levelo://app?vid=ef990cdd-970a-41d3-8c35-1bbc825cbe39","ios":"levelo://app?vid=ef990cdd-970a-41d3-8c35-1bbc825cbe39"},"vehicle_type_id":"4","last_reported":1717693686,"current_range_meters":0,"station_id":"ce4bh612rcd13ifvqe6g","pricing_plan_id":"cebpf4jnsgd1na2vs0mg"},{"bike_id":"8dcde315-cca8-4cab-bd21-e1c503a9738c","system_id":"levelo_inurba_marseille","lat":43.289307,"lon":5.38406,"is_reserved":false,"is_disabled":false,"rental_uris":{"android":"levelo://app?vid=8dcde315-cca8-4cab-bd21-e1c503a9738c","ios":"levelo://app?vid=8dcde315-cca8-4cab-bd21-e1c503a9738c"},"vehicle_type_id":"4","last_reported":1717693686,"current_range_meters":4400,"station_id":"ce4bh612rcd13ifvqe6g","pricing_plan_id":"cebpf4jnsgd1na2vs0mg"},{"bike_id":"89b21abb-0bd5-4572-bf53-0734f10f515d","system_id":"levelo_inurba_marseille","lat":43.302684,"lon":5.400823,"is_reserved":false,"is_disabled":false,"rental_uris":{"android":"levelo://app?vid=89b21abb-0bd5-4572-bf53-0734f10f515d","ios":"levelo://app?vid=89b21abb-0bd5-4572-bf53-0734f10f515d"},"vehicle_type_id":"4","last_reported":1717693686,"current_range_meters":0,"station_id":"","pricing_plan_id":"cebpf4jnsgd1na2vs0mg"},{"bike_id":"1cfced67-44e3-42f6-8a78-2cdbd3ec73a0","system_id":"levelo_inurba_marseille","lat":43.310804,"lon":5.38359,"is_reserved":false,"is_disabled":false,"rental_uris":{"android":"levelo://app?vid=1cfced67-44e3-42f6-8a78-2cdbd3ec73a0","ios":"levelo://app?vid=1cfced67-44e3-42f6-8a78-2cdbd3ec73a0"},"vehicle_type_id":"4","last_reported":1717693686,"current_range_meters":17200,"station_id":"ce4bgv92rcd13ifvqcr0","pricing_plan_id":"cebpf4jnsgd1na2vs0mg"},{"bike_id":"daec2ac8-6633-4b05-80ab-1db20fb84dbc","system_id":"levelo_inurba_marseille","lat":43.286039,"lon":5.370679,"is_reserved":false,"is_disabled":false,"rental_uris":{"android":"levelo://app?vid=daec2ac8-6633-4b05-80ab-1db20fb84dbc","ios":"levelo://app?vid=daec2ac8-6633-4b05-80ab-1db20fb84dbc"},"vehicle_type_id":"4","last_reported":1717693686,"current_range_meters":800,"station_id":"ce4bht12rcd13ifvqi60","pricing_plan_id":"cebpf4jnsgd1na2vs0mg"},{"bike_id":"6371b547-ae33-4e19-adf5-ce5ede1dde61","system_id":"levelo_inurba_marseille","lat":43.289066,"lon":5.384121,"is_reserved":false,"is_disabled":false,"rental_uris":{"android":"levelo://app?vid=6371b547-ae33-4e19-adf5-ce5ede1dde61","ios":"levelo://app?vid=6371b547-ae33-4e19-adf5-ce5ede1dde61"},"vehicle_type_id":"4","last_reported":1717693686,"current_range_meters":0,"station_id":"ce4bh612rcd13ifvqe6g","pricing_plan_id":"cebpf4jnsgd1na2vs0mg"},{"bike_id":"3f09567a-9751-4e43-9511-e2c6c278599d","system_id":"levelo_inurba_marseille","lat":43.287184,"lon":5.37937,"is_reserved":false,"is_disabled":false,"rental_uris":{"android":"levelo://app?vid=3f09567a-9751-4e43-9511-e2c6c278599d","ios":"levelo://app?vid=3f09567a-9751-4e43-9511-e2c6c278599d"},"vehicle_type_id":"4","last_reported":1717693686,"current_range_meters":1600,"station_id":"ce4bh9p2rcd13ifvqec0","pricing_plan_id":"cebpf4jnsgd1na2vs0mg"},{"bike_id":"ded2e40d-6e3a-4e7a-9885-03183c0187b9","system_id":"levelo_inurba_marseille","lat":43.287249,"lon":5.379342,"is_reserved":false,"is_disabled":false,"rental_uris":{"android":"levelo://app?vid=ded2e40d-6e3a-4e7a-9885-03183c0187b9","ios":"levelo://app?vid=ded2e40d-6e3a-4e7a-9885-03183c0187b9"},"vehicle_type_id":"4","last_reported":1717693686,"current_range_meters":0,"station_id":"ce4bh9p2rcd13ifvqec0","pricing_plan_id":"cebpf4jnsgd1na2vs0mg"},{"bike_id":"2e529bb4-5911-4cfa-aef0-ca8127765a9d","system_id":"levelo_inurba_marseille","lat":43.287185,"lon":5.379373,"is_reserved":false,"is_disabled":false,"rental_uris":{"android":"levelo://app?vid=2e529bb4-5911-4cfa-aef0-ca8127765a9d","ios":"levelo://app?vid=2e529bb4-5911-4cfa-aef0-ca8127765a9d"},"vehicle_type_id":"4","last_reported":1717693686,"current_range_meters":8800,"station_id":"ce4bh9p2rcd13ifvqec0","pricing_plan_id":"cebpf4jnsgd1na2vs0mg"},{"bike_id":"99b901b4-5b5c-4b1c-9026-55ba8d01d6ff","system_id":"levelo_inurba_marseille","lat":43.287162,"lon":5.379316,"is_reserved":false,"is_disabled":false,"rental_uris":{"android":"levelo://app?vid=99b901b4-5b5c-4b1c-9026-55ba8d01d6ff","ios":"levelo://app?vid=99b901b4-5b5c-4b1c-9026-55ba8d01d6ff"},"vehicle_type_id":"4","last_reported":1717693686,"current_range_meters":13200,"station_id":"ce4bh9p2rcd13ifvqec0","pricing_plan_id":"cebpf4jnsgd1na2vs0mg"},{"bike_id":"77e84cc9-314e-4c29-9bb7-382a3474e07a","system_id":"levelo_inurba_marseille","lat":43.287185,"lon":5.379373,"is_reserved":false,"is_disabled":false,"rental_uris":{"android":"levelo://app?vid=77e84cc9-314e-4c29-9bb7-382a3474e07a","ios":"levelo://app?vid=77e84cc9-314e-4c29-9bb7-382a3474e07a"},"vehicle_type_id":"4","last_reported":1717693686,"current_range_meters":0,"station_id":"ce4bh9p2rcd13ifvqec0","pricing_plan_id":"cebpf4jnsgd1na2vs0mg"},{"bike_id":"5aeb0edb-d492-4ef5-95f7-e24209889bf1","system_id":"levelo_inurba_marseille","lat":43.316225,"lon":5.404363,"is_reserved":false,"is_disabled":false,"rental_uris":{"android":"levelo://app?vid=5aeb0edb-d492-4ef5-95f7-e24209889bf1","ios":"levelo://app?vid=5aeb0edb-d492-4ef5-95f7-e24209889bf1"},"vehicle_type_id":"4","last_reported":1717693686,"current_range_meters":0,"station_id":"","pricing_plan_id":"cebpf4jnsgd1na2vs0mg"},{"bike_id":"66e04b2f-1680-4574-85f1-db63b1f8e917","system_id":"levelo_inurba_marseille","lat":43.316821,"lon":5.404737,"is_reserved":false,"is_disabled":false,"rental_uris":{"android":"levelo://app?vid=66e04b2f-1680-4574-85f1-db63b1f8e917","ios":"levelo://app?vid=66e04b2f-1680-4574-85f1-db63b1f8e917"},"vehicle_type_id":"4","last_reported":1717693686,"current_range_meters":7600,"station_id":"ce4bh012rcd13ifvqd00","pricing_plan_id":"cebpf4jnsgd1na2vs0mg"},{"bike_id":"47bb7228-42c7-4e50-a51a-38e7c7566b8d","system_id":"levelo_inurba_marseille","lat":43.316828,"lon":5.404723,"is_reserved":false,"is_disabled":false,"rental_uris":{"android":"levelo://app?vid=47bb7228-42c7-4e50-a51a-38e7c7566b8d","ios":"levelo://app?vid=47bb7228-42c7-4e50-a51a-38e7c7566b8d"},"vehicle_type_id":"4","last_reported":1717693686,"current_range_meters":0,"station_id":"ce4bh012rcd13ifvqd00","pricing_plan_id":"cebpf4jnsgd1na2vs0mg"},{"bike_id":"79c8136b-d92c-43bf-b467-ba6ea05ec791","system_id":"levelo_inurba_marseille","lat":43.31686,"lon":5.40471,"is_reserved":false,"is_disabled":false,"rental_uris":{"android":"levelo://app?vid=79c8136b-d92c-43bf-b467-ba6ea05ec791","ios":"levelo://app?vid=79c8136b-d92c-43bf-b467-ba6ea05ec791"},"vehicle_type_id":"4","last_reported":1717693686,"current_range_meters":0,"station_id":"ce4bh012rcd13ifvqd00","pricing_plan_id":"cebpf4jnsgd1na2vs0mg"},{"bike_id":"8602dd06-8392-479f-956b-d1308f91b76e","system_id":"levelo_inurba_marseille","lat":43.316821,"lon":5.404737,"is_reserved":false,"is_disabled":false,"rental_uris":{"android":"levelo://app?vid=8602dd06-8392-479f-956b-d1308f91b76e","ios":"levelo://app?vid=8602dd06-8392-479f-956b-d1308f91b76e"},"vehicle_type_id":"4","last_reported":1717693686,"current_range_meters":9200,"station_id":"ce4bh012rcd13ifvqd00","pricing_plan_id":"cebpf4jnsgd1na2vs0mg"},{"bike_id":"7f4647ea-3370-4d30-b0c8-01e14727b822","system_id":"levelo_inurba_marseille","lat":43.316821,"lon":5.404737,"is_reserved":false,"is_disabled":false,"rental_uris":{"android":"levelo://app?vid=7f4647ea-3370-4d30-b0c8-01e14727b822","ios":"levelo://app?vid=7f4647ea-3370-4d30-b0c8-01e14727b822"},"vehicle_type_id":"4","last_reported":1717693686,"current_range_meters":13200,"station_id":"ce4bh012rcd13ifvqd00","pricing_plan_id":"cebpf4jnsgd1na2vs0mg"},{"bike_id":"b1c1af13-0f72-457d-88cc-e9ba512a628c","system_id":"levelo_inurba_marseille","lat":43.295713,"lon":5.399639,"is_reserved":false,"is_disabled":false,"rental_uris":{"android":"levelo://app?vid=b1c1af13-0f72-457d-88cc-e9ba512a628c","ios":"levelo://app?vid=b1c1af13-0f72-457d-88cc-e9ba512a628c"},"vehicle_type_id":"4","last_reported":1717693686,"current_range_meters":26800,"station_id":"ce4bh312rcd13ifvqdj0","pricing_plan_id":"cebpf4jnsgd1na2vs0mg"},{"bike_id":"0db6ab40-b235-4c27-89d5-ce605c5a21b1","system_id":"levelo_inurba_marseille","lat":43.284538,"lon":5.358657,"is_reserved":false,"is_disabled":false,"rental_uris":{"android":"levelo://app?vid=0db6ab40-b235-4c27-89d5-ce605c5a21b1","ios":"levelo://app?vid=0db6ab40-b235-4c27-89d5-ce605c5a21b1"},"vehicle_type_id":"4","last_reported":1717693686,"current_range_meters":0,"station_id":"ce4bhah2rcd13ifvqei0","pricing_plan_id":"cebpf4jnsgd1na2vs0mg"},{"bike_id":"8c43d1e3-6a70-4167-8fdb-4a09b47132fe","system_id":"levelo_inurba_marseille","lat":43.284538,"lon":5.358657,"is_reserved":false,"is_disabled":false,"rental_uris":{"android":"levelo://app?vid=8c43d1e3-6a70-4167-8fdb-4a09b47132fe","ios":"levelo://app?vid=8c43d1e3-6a70-4167-8fdb-4a09b47132fe"},"vehicle_type_id":"4","last_reported":1717693686,"current_range_meters":21200,"station_id":"ce4bhah2rcd13ifvqei0","pricing_plan_id":"cebpf4jnsgd1na2vs0mg"},{"bike_id":"596aec3a-e589-48e1-8550-7ac6178c1192","system_id":"levelo_inurba_marseille","lat":43.28457,"lon":5.35878,"is_reserved":false,"is_disabled":false,"rental_uris":{"android":"levelo://app?vid=596aec3a-e589-48e1-8550-7ac6178c1192","ios":"levelo://app?vid=596aec3a-e589-48e1-8550-7ac6178c1192"},"vehicle_type_id":"4","last_reported":1717693686,"current_range_meters":0,"station_id":"ce4bhah2rcd13ifvqei0","pricing_plan_id":"cebpf4jnsgd1na2vs0mg"},{"bike_id":"8dd619dd-7622-4855-9ff7-6395e6d3d4b5","system_id":"levelo_inurba_marseille","lat":43.28451,"lon":5.35895,"is_reserved":false,"is_disabled":false,"rental_uris":{"android":"levelo://app?vid=8dd619dd-7622-4855-9ff7-6395e6d3d4b5","ios":"levelo://app?vid=8dd619dd-7622-4855-9ff7-6395e6d3d4b5"},"vehicle_type_id":"4","last_reported":1717693686,"current_range_meters":800,"station_id":"ce4bhah2rcd13ifvqei0","pricing_plan_id":"cebpf4jnsgd1na2vs0mg"},{"bike_id":"05c76924-f7d2-4895-94b8-b9e6c11a62e3","system_id":"levelo_inurba_marseille","lat":43.294314,"lon":5.397498,"is_reserved":false,"is_disabled":false,"rental_uris":{"android":"levelo://app?vid=05c76924-f7d2-4895-94b8-b9e6c11a62e3","ios":"levelo://app?vid=05c76924-f7d2-4895-94b8-b9e6c11a62e3"},"vehicle_type_id":"4","last_reported":1717693686,"current_range_meters":5200,"station_id":"ce4bh3h2rcd13ifvqdo0","pricing_plan_id":"cebpf4jnsgd1na2vs0mg"},{"bike_id":"5101ac99-9480-4bc1-841b-29da6d7c14bd","system_id":"levelo_inurba_marseille","lat":43.284534,"lon":5.358662,"is_reserved":false,"is_disabled":false,"rental_uris":{"android":"levelo://app?vid=5101ac99-9480-4bc1-841b-29da6d7c14bd","ios":"levelo://app?vid=5101ac99-9480-4bc1-841b-29da6d7c14bd"},"vehicle_type_id":"4","last_reported":1717693686,"current_range_meters":27200,"station_id":"ce4bhah2rcd13ifvqei0","pricing_plan_id":"cebpf4jnsgd1na2vs0mg"},{"bike_id":"1504fafa-5b4e-43a0-bcbd-5190724722fb","system_id":"levelo_inurba_marseille","lat":43.285856,"lon":5.350771,"is_reserved":false,"is_disabled":false,"rental_uris":{"android":"levelo://app?vid=1504fafa-5b4e-43a0-bcbd-5190724722fb","ios":"levelo://app?vid=1504fafa-5b4e-43a0-bcbd-5190724722fb"},"vehicle_type_id":"4","last_reported":1717693686,"current_range_meters":2800,"station_id":"ce4bhch2rcd13ifvqeug","pricing_plan_id":"cebpf4jnsgd1na2vs0mg"},{"bike_id":"7ae79b5b-c5db-4c1e-875b-3371f563d206","system_id":"levelo_inurba_marseille","lat":43.28613,"lon":5.35099,"is_reserved":false,"is_disabled":false,"rental_uris":{"android":"levelo://app?vid=7ae79b5b-c5db-4c1e-875b-3371f563d206","ios":"levelo://app?vid=7ae79b5b-c5db-4c1e-875b-3371f563d206"},"vehicle_type_id":"4","last_reported":1717693686,"current_range_meters":30800,"station_id":"ce4bhch2rcd13ifvqeug","pricing_plan_id":"cebpf4jnsgd1na2vs0mg"},{"bike_id":"4d5cceed-1ec8-418d-8d64-14400aa92610","system_id":"levelo_inurba_marseille","lat":43.285856,"lon":5.350771,"is_reserved":false,"is_disabled":false,"rental_uris":{"android":"levelo://app?vid=4d5cceed-1ec8-418d-8d64-14400aa92610","ios":"levelo://app?vid=4d5cceed-1ec8-418d-8d64-14400aa92610"},"vehicle_type_id":"4","last_reported":1717693686,"current_range_meters":29200,"station_id":"ce4bhch2rcd13ifvqeug","pricing_plan_id":"cebpf4jnsgd1na2vs0mg"},{"bike_id":"77d80ccf-680c-44a4-b88e-772ba529b984","system_id":"levelo_inurba_marseille","lat":43.285856,"lon":5.350771,"is_reserved":false,"is_disabled":false,"rental_uris":{"android":"levelo://app?vid=77d80ccf-680c-44a4-b88e-772ba529b984","ios":"levelo://app?vid=77d80ccf-680c-44a4-b88e-772ba529b984"},"vehicle_type_id":"4","last_reported":1717693686,"current_range_meters":10000,"station_id":"ce4bhch2rcd13ifvqeug","pricing_plan_id":"cebpf4jnsgd1na2vs0mg"},{"bike_id":"724950fc-4720-4927-ba64-e86417cfe7d9","system_id":"levelo_inurba_marseille","lat":43.285856,"lon":5.350771,"is_reserved":false,"is_disabled":false,"rental_uris":{"android":"levelo://app?vid=724950fc-4720-4927-ba64-e86417cfe7d9","ios":"levelo://app?vid=724950fc-4720-4927-ba64-e86417cfe7d9"},"vehicle_type_id":"4","last_reported":1717693686,"current_range_meters":30400,"station_id":"ce4bhch2rcd13ifvqeug","pricing_plan_id":"cebpf4jnsgd1na2vs0mg"},{"bike_id":"9321dddd-46d3-43f4-a958-339f739099e3","system_id":"levelo_inurba_marseille","lat":43.284534,"lon":5.358662,"is_reserved":false,"is_disabled":false,"rental_uris":{"android":"levelo://app?vid=9321dddd-46d3-43f4-a958-339f739099e3","ios":"levelo://app?vid=9321dddd-46d3-43f4-a958-339f739099e3"},"vehicle_type_id":"4","last_reported":1717693686,"current_range_meters":0,"station_id":"ce4bhah2rcd13ifvqei0","pricing_plan_id":"cebpf4jnsgd1na2vs0mg"},{"bike_id":"29d571b2-7267-44b5-8e60-24059b85a35c","system_id":"levelo_inurba_marseille","lat":43.284164,"lon":5.37509,"is_reserved":false,"is_disabled":false,"rental_uris":{"android":"levelo://app?vid=29d571b2-7267-44b5-8e60-24059b85a35c","ios":"levelo://app?vid=29d571b2-7267-44b5-8e60-24059b85a35c"},"vehicle_type_id":"4","last_reported":1717693686,"current_range_meters":0,"station_id":"ce4bh412rcd13ifvqds0","pricing_plan_id":"cebpf4jnsgd1na2vs0mg"},