{"last_updated":1742652529,"ttl":60,"version":"2.2","data":{"bikes":[{"bike_id":"da611728-b36b-43cf-83bc-a61c224b3ca5","system_id":"levelo_inurba_marseille","lat":43.26557,"lon":5.37284,"is_reserved":false,"is_disabled":false,"rental_uris":{"android":"levelo://app?vid=da611728-b36b-43cf-83bc-a61c224b3ca5","ios":"levelo://app?vid=da611728-b36b-43cf-83bc-a61c224b3ca5"},"vehicle_type_id":"4","last_reported":1742652529,"current_range_meters":2800,"station_id":"ce4bhg12rcd13ifvqf70","pricing_plan_id":"cebpf4jnsgd1na2vs0mg"},{"bike_id":"49db28d3-a884-4b82-8d69-edbe7b9691f6","system_id":"levelo_inurba_marseille","lat":43.23959,"lon":5.36629,"is_reserved":false,"is_disabled":true,"rental_uris":{"android":"levelo://app?vid=49db28d3-a884-4b82-8d69-edbe7b9691f6","ios":"levelo://app?vid=49db28d3-a884-4b82-8d69-edbe7b9691f6"},"vehicle_type_id":"4","last_reported":1742652529,"current_range_meters":2800,"station_id":"ce4bhi12rcd13ifvqfp0","pricing_plan_id":"cebpf4jnsgd1na2vs0mg"},{"bike_id":"69db74dd-e12d-430d-ae31-9054a8736761","system_id":"levelo_inurba_marseille","lat":43.30214,"lon":5.39474,"is_reserved":false,"is_disabled":false,"rental_uris":{"android":"levelo://app?vid=69db74dd-e12d-430d-ae31-9054a8736761","ios":"levelo://app?vid=69db74dd-e12d-430d-ae31-9054a8736761"},"vehicle_type_id":"4","last_reported":1742652529,"current_range_meters":2800,"station_id":"ce4bh692rcd13ifvqea0","pricing_plan_id":"cebpf4jnsgd1na2vs0mg"},{"bike_id":"f6e2e501-dca0-4e6d-8474-93a5438e7aac","system_id":"levelo_inurba_marseille","lat":43.30467,"lon":5.37906,"is_reserved":false,"is_disabled":false,"rental_uris":{"android":"levelo://app?vid=f6e2e501-dca0-4e6d-8474-93a5438e7aac","ios":"levelo://app?vid=f6e2e501-dca0-4e6d-8474-93a5438e7aac"},"vehicle_type_id":"4","last_reported":1742652529,"current_range_meters":3200,"station_id":"ce4bgup2rcd13ifvqcn0","pricing_plan_id":"cebpf4jnsgd1na2vs0mg"},{"bike_id":"62bf2f5c-9819-4816-afad-4a268d7a76b8","system_id":"levelo_inurba_marseille","lat":43.24172,"lon":5.36401,"is_reserved":false,"is_disabled":true,"rental_uris":{"android":"levelo://app?vid=62bf2f5c-9819-4816-afad-4a268d7a76b8","ios":"levelo://app?vid=62bf2f5c-9819-4816-afad-4a268d7a76b8"},"vehicle_type_id":"4","last_reported":1742652529,"current_range_meters":3600,"station_id":"cpo36qri1sfpv3e86is0","pricing_plan_id":"cebpf4jnsgd1na2vs0mg"},{"bike_id":"beb16beb-3ead-43c9-a97b-e8f1fb4c3ecf","system_id":"levelo_inurba_marseille","lat":43.22931,"lon":5.35375,"is_reserved":false,"is_disabled":false,"rental_uris":{"android":"levelo://app?vid=beb16beb-3ead-43c9-a97b-e8f1fb4c3ecf","ios":"levelo://app?vid=beb16beb-3ead-43c9-a97b-e8f1fb4c3ecf"},"vehicle_type_id":"4","last_reported":1742652529,"current_range_meters":3200,"station_id":"cpo3532slgdg3j2ikp40","pricing_plan_id":"cebpf4jnsgd1na2vs0mg"},{"bike_id":"4634faa0-4608-4e2e-b0b4-54ae950ece8d","system_id":"levelo_inurba_marseille","lat":43.29631,"lon":5.40596,"is_reserved":false,"is_disabled":false,"rental_uris":{"android":"levelo://app?vid=4634faa0-4608-4e2e-b0b4-54ae950ece8d","ios":"levelo://app?vid=4634faa0-4608-4e2e-b0b4-54ae950ece8d"},"vehicle_type_id":"4","last_reported":1742652529,"current_range_meters":3600,"station_id":"ce4bh0h2rcd13ifvqd60","pricing_plan_id":"cebpf4jnsgd1na2vs0mg"},{"bike_id":"fb5273f8-65d7-427f-96a9-df050ae6ac3e","system_id":"levelo_inurba_marseille","lat":43.29969,"lon":5.37161,"is_reserved":false,"is_disabled":false,"rental_uris":{"android":"levelo://app?vid=fb5273f8-65d7-427f-96a9-df050ae6ac3e","ios":"levelo://app?vid=fb5273f8-65d7-427f-96a9-df050ae6ac3e"},"vehicle_type_id":"4","last_reported":1742652529,"current_range_meters":3200,"station_id":"ce4bgr92rcd13ifvqc7g","pricing_plan_id":"cebpf4jnsgd1na2vs0mg"},{"bike_id":"6d89b2d1-1ebb-4c5f-9ca7-20fc5eb2285e","system_id":"levelo_inurba_marseille","lat":43.29508,"lon":5.37505,"is_reserved":false,"is_disabled":false,"rental_uris":{"android":"levelo://app?vid=6d89b2d1-1ebb-4c5f-9ca7-20fc5eb2285e","ios":"levelo://app?vid=6d89b2d1-1ebb-4c5f-9ca7-20fc5eb2285e"},"vehicle_type_id":"4","last_reported":1742652529,"current_range_meters":3600,"station_id":"ce4bgkp2rcd13ifvqbmg","pricing_plan_id":"cebpf4jnsgd1na2vs0mg"},{"bike_id":"a565168a-01e6-44c1-8baa-7253c08cdc6c","system_id":"levelo_inurba_marseille","lat":43.2835,"lon":5.38107,"is_reserved":false,"is_disabled":false,"rental_uris":{"android":"levelo://app?vid=a565168a-01e6-44c1-8baa-7253c08cdc6c","ios":"levelo://app?vid=a565168a-01e6-44c1-8baa-7253c08cdc6c"},"vehicle_type_id":"4","last_reported":1742652529,"current_range_meters":3600,"station_id":"ce4bh412rcd13ifvqdr0","pricing_plan_id":"cebpf4jnsgd1na2vs0mg"},{"bike_id":"54368fe5-1166-4a52-b613-d705392a258c","system_id":"levelo_inurba_marseille","lat":43.30938,"lon":5.40127,"is_reserved":false,"is_disabled":false,"rental_uris":{"android":"levelo://app?vid=54368fe5-1166-4a52-b613-d705392a258c","ios":"levelo://app?vid=54368fe5-1166-4a52-b613-d705392a258c"},"vehicle_type_id":"4","last_reported":1742652529,"current_range_meters":4000,"station_id":"ce4bgvp2rcd13ifvqct0","pricing_plan_id":"cebpf4jnsgd1na2vs0mg"},{"bike_id":"b25c16cc-fcf3-4005-ae0f-e8353c1178cb","system_id":"levelo_inurba_marseille","lat":43.2467,"lon":5.38143,"is_reserved":false,"is_disabled":true,"rental_uris":{"android":"levelo://app?vid=b25c16cc-fcf3-4005-ae0f-e8353c1178cb","ios":"levelo://app?vid=b25c16cc-fcf3-4005-ae0f-e8353c1178cb"},"vehicle_type_id":"4","last_reported":1742652529,"current_range_meters":4000,"station_id":"ce4bhih2rcd13ifvqfr0","pricing_plan_id":"cebpf4jnsgd1na2vs0mg"},{"bike_id":"b4ac5f40-9e46-4ceb-a9a7-5fe64596cae6","system_id":"levelo_inurba_marseille","lat":43.28419,"lon":5.34976,"is_reserved":false,"is_disabled":false,"rental_uris":{"android":"levelo://app?vid=b4ac5f40-9e46-4ceb-a9a7-5fe64596cae6","ios":"levelo://app?vid=b4ac5f40-9e46-4ceb-a9a7-5fe64596cae6"},"vehicle_type_id":"4","last_reported":1742652529,"current_range_meters":4000,"station_id":"ce4bhbh2rcd13ifvqepg","pricing_plan_id":"cebpf4jnsgd1na2vs0mg"},{"bike_id":"4258e938-383f-48f5-9f74-7f7cf207c8c4","system_id":"levelo_inurba_marseille","lat":43.30529,"lon":5.36709,"is_reserved":false,"is_disabled":false,"rental_uris":{"android":"levelo://app?vid=4258e938-383f-48f5-9f74-7f7cf207c8c4","ios":"levelo://app?vid=4258e938-383f-48f5-9f74-7f7cf207c8c4"},"vehicle_type_id":"4","last_reported":1742652529,"current_range_meters":4400,"station_id":"ce4bgrp2rcd13ifvqc9g","pricing_plan_id":"cebpf4jnsgd1na2vs0mg"},{"bike_id":"e89f52be-c8f1-4809-8bb4-bce082030875","system_id":"levelo_inurba_marseille","lat":43.23966,"lon":5.36628,"is_reserved":false,"is_disabled":false,"rental_uris":{"android":"levelo://app?vid=e89f52be-c8f1-4809-8bb4-bce082030875","ios":"levelo://app?vid=e89f52be-c8f1-4809-8bb4-bce082030875"},"vehicle_type_id":"4","last_reported":1742652529,"current_range_meters":4400,"station_id":"ce4bhi12rcd13ifvqfp0","pricing_plan_id":"cebpf4jnsgd1na2vs0mg"},{"bike_id":"41f865e5-8519-409d-b0d7-727a304f0bb7","system_id":"levelo_inurba_marseille","lat":43.30139,"lon":5.37404,"is_reserved":false,"is_disabled":false,"rental_uris":{"android":"levelo://app?vid=41f865e5-8519-409d-b0d7-727a304f0bb7","ios":"levelo://app?vid=41f865e5-8519-409d-b0d7-727a304f0bb7"},"vehicle_type_id":"4","last_reported":1742652529,"current_range_meters":4400,"station_id":"ce4bgs92rcd13ifvqcc0","pricing_plan_id":"cebpf4jnsgd1na2vs0mg"},{"bike_id":"d35478d3-cc64-4a1d-91b2-e2a04d0e0ec6","system_id":"levelo_inurba_marseille","lat":43.30637,"lon":5.40093,"is_reserved":false,"is_disabled":false,"rental_uris":{"android":"levelo://app?vid=d35478d3-cc64-4a1d-91b2-e2a04d0e0ec6","ios":"levelo://app?vid=d35478d3-cc64-4a1d-91b2-e2a04d0e0ec6"},"vehicle_type_id":"4","last_reported":1742652529,"current_range_meters":4400,"station_id":"ce4bh112rcd13ifvqda0","pricing_plan_id":"cebpf4jnsgd1na2vs0mg"},{"bike_id":"1c3b5361-695c-4ccc-94f9-aca7f37b6d45","system_id":"levelo_inurba_marseille","lat":43.23199,"lon":5.35561,"is_reserved":false,"is_disabled":false,"rental_uris":{"android":"levelo://app?vid=1c3b5361-695c-4ccc-94f9-aca7f37b6d45","ios":"levelo://app?vid=1c3b5361-695c-4ccc-94f9-aca7f37b6d45"},"vehicle_type_id":"4","last_reported":1742652529,"current_range_meters":4800,"station_id":"ce4bhu92rcd13ifvqi70","pricing_plan_id":"cebpf4jnsgd1na2vs0mg"},{"bike_id":"a67c54b6-5ce9-4632-8070-5ca7d5b7fc9e","system_id":"levelo_inurba_marseille","lat":43.23063,"lon":5.35495,"is_reserved":false,"is_disabled":false,"rental_uris":{"android":"levelo://app?vid=a67c54b6-5ce9-4632-8070-5ca7d5b7fc9e","ios":"levelo://app?vid=a67c54b6-5ce9-4632-8070-5ca7d5b7fc9e"},"vehicle_type_id":"4","last_reported":1742652529,"current_range_meters":4800,"station_id":"cpo3342slgdg3j2ifvpg","pricing_plan_id":"cebpf4jnsgd1na2vs0mg"},{"bike_id":"b704d347-63f0-4a2b-9ee3-98096bdcd227","system_id":"levelo_inurba_marseille","lat":43.29923,"lon":5.37475,"is_reserved":false,"is_disabled":false,"rental_uris":{"android":"levelo://app?vid=b704d347-63f0-4a2b-9ee3-98096bdcd227","ios":"levelo://app?vid=b704d347-63f0-4a2b-9ee3-98096bdcd227"},"vehicle_type_id":"4","last_reported":1742652529,"current_range_meters":4800,"station_id":"ce4bgjh2rcd13ifvqbg0","pricing_plan_id":"cebpf4jnsgd1na2vs0mg"},{"bike_id":"8ea57d8c-864a-4c8b-baba-561f978fcc38","system_id":"levelo_inurba_marseille","lat":43.30155,"lon":5.38091,"is_reserved":false,"is_disabled":false,"rental_uris":{"android":"levelo://app?vid=8ea57d8c-864a-4c8b-baba-561f978fcc38","ios":"levelo://app?vid=8ea57d8c-864a-4c8b-baba-561f978fcc38"},"vehicle_type_id":"4","last_reported":1742652529,"current_range_meters":5600,"station_id":"ce4bgjp2rcd13ifvqbh0","pricing_plan_id":"cebpf4jnsgd1na2vs0mg"},{"bike_id":"83bf067d-7370-46e1-8d97-31ba71106982","system_id":"levelo_inurba_marseille","lat":43.272108,"lon":5.391554,"is_reserved":false,"is_disabled":false,"rental_uris":{"android":"levelo://app?vid=83bf067d-7370-46e1-8d97-31ba71106982","ios":"levelo://app?vid=83bf067d-7370-46e1-8d97-31ba71106982"},"vehicle_type_id":"4","last_reported":1742652529,"current_range_meters":5600,"station_id":"","pricing_plan_id":"cebpf4jnsgd1na2vs0mg"},{"bike_id":"3b944351-2b96-45a5-ab9d-8e6649d43b91","system_id":"levelo_inurba_marseille","lat":43.29573,"lon":5.37511,"is_reserved":false,"is_disabled":false,"rental_uris":{"android":"levelo://app?vid=3b944351-2b96-45a5-ab9d-8e6649d43b91","ios":"levelo://app?vid=3b944351-2b96-45a5-ab9d-8e6649d43b91"},"vehicle_type_id":"4","last_reported":1742652529,"current_range_meters":5600,"station_id":"ce4bgh92rcd13ifvqb50","pricing_plan_id":"cebpf4jnsgd1na2vs0mg"},{"bike_id":"437b802e-c59f-48e0-84fb-30bebbad2bad","system_id":"levelo_inurba_marseille","lat":43.23155,"lon":5.43707,"is_reserved":false,"is_disabled":false,"rental_uris":{"android":"levelo://app?vid=437b802e-c59f-48e0-84fb-30bebbad2bad","ios":"levelo://app?vid=437b802e-c59f-48e0-84fb-30bebbad2bad"},"vehicle_type_id":"4","last_reported":1742652529,"current_range_meters":4800,"station_id":"ce4bhmp2rcd13ifvqgog","pricing_plan_id":"cebpf4jnsgd1na2vs0mg"},{"bike_id":"1c7a37db-dbe3-46a1-942f-096d457fc162","system_id":"levelo_inurba_marseille","lat":43.23153,"lon":5.43709,"is_reserved":false,"is_disabled":false,"rental_uris":{"android":"levelo://app?vid=1c7a37db-dbe3-46a1-942f-096d457fc162","ios":"levelo://app?vid=1c7a37db-dbe3-46a1-942f-096d457fc162"},"vehicle_type_id":"4","last_reported":1742652529,"current_range_meters":6000,"station_id":"ce4bhmp2rcd13ifvqgog","pricing_plan_id":"cebpf4jnsgd1na2vs0mg"},{"bike_id":"5598a285-a859-428b-94b8-9502fa251890","system_id":"levelo_inurba_marseille","lat":43.25587,"lon":5.38214,"is_reserved":false,"is_disabled":false,"rental_uris":{"android":"levelo://app?vid=5598a285-a859-428b-94b8-9502fa251890","ios":"levelo://app?vid=5598a285-a859-428b-94b8-9502fa251890"},"vehicle_type_id":"4","last_reported":1742652529,"current_range_meters":6000,"station_id":"ce4bhih2rcd13ifvqfs0","pricing_plan_id":"cebpf4jnsgd1na2vs0mg"},{"bike_id":"11cb751c-0727-47a8-9bcf-26289ef891a0","system_id":"levelo_inurba_marseille","lat":43.28407,"lon":5.37517,"is_reserved":false,"is_disabled":false,"rental_uris":{"android":"levelo://app?vid=11cb751c-0727-47a8-9bcf-26289ef891a0","ios":"levelo://app?vid=11cb751c-0727-47a8-9bcf-26289ef891a0"},"vehicle_type_id":"4","last_reported":1742652529,"current_range_meters":6000,"station_id":"ce4bh412rcd13ifvqds0","pricing_plan_id":"cebpf4jnsgd1na2vs0mg"},{"bike_id":"5990d2c8-5e39-43b5-b058-48b9c83aee0c","system_id":"levelo_inurba_marseille","lat":43.29622,"lon":5.37166,"is_reserved":false,"is_disabled":false,"rental_uris":{"android":"levelo://app?vid=5990d2c8-5e39-43b5-b058-48b9c83aee0c","ios":"levelo://app?vid=5990d2c8-5e39-43b5-b058-48b9c83aee0c"},"vehicle_type_id":"4","last_reported":1742652529,"current_range_meters":5600,"station_id":"ce4bgnh2rcd13ifvqc0g","pricing_plan_id":"cebpf4jnsgd1na2vs0mg"},{"bike_id":"2e3c3eef-02c6-4020-8ae4-a4958d3a9520","system_id":"levelo_inurba_marseille","lat":43.29643,"lon":5.40594,"is_reserved":false,"is_disabled":true,"rental_uris":{"android":"levelo://app?vid=2e3c3eef-02c6-4020-8ae4-a4958d3a9520","ios":"levelo://app?vid=2e3c3eef-02c6-4020-8ae4-a4958d3a9520"},"vehicle_type_id":"4","last_reported":1742652529,"current_range_meters":6000,"station_id":"ce4bh0h2rcd13ifvqd60","pricing_plan_id":"cebpf4jnsgd1na2vs0mg"},{"bike_id":"e950891c-b773-49c6-aae7-c4a710a5d084","system_id":"levelo_inurba_marseille","lat":43.28265,"lon":5.35057,"is_reserved":false,"is_disabled":false,"rental_uris":{"android":"levelo://app?vid=e950891c-b773-49c6-aae7-c4a710a5d084","ios":"levelo://app?vid=e950891c-b773-49c6-aae7-c4a710a5d084"},"vehicle_type_id":"4","last_reported":1742652529,"current_range_meters":6000,"station_id":"ce4bhbp2rcd13ifvqerg","pricing_plan_id":"cebpf4jnsgd1na2vs0mg"},{"bike_id":"4e130c3f-1e9a-4e1a-a546-fa10a03dc915","system_id":"levelo_inurba_marseille","lat":43.24663,"lon":5.38154,"is_reserved":false,"is_disabled":false,"rental_uris":{"android":"levelo://app?vid=4e130c3f-1e9a-4e1a-a546-fa10a03dc915","ios":"levelo://app?vid=4e130c3f-1e9a-4e1a-a546-fa10a03dc915"},"vehicle_type_id":"4","last_reported":1742652529,"current_range_meters":6000,"station_id":"ce4bhih2rcd13ifvqfr0","pricing_plan_id":"cebpf4jnsgd1na2vs0mg"},{"bike_id":"ddd0714b-8261-4037-96da-738b13084ece","system_id":"levelo_inurba_marseille","lat":43.28446,"lon":5.392,"is_reserved":false,"is_disabled":false,"rental_uris":{"android":"levelo://app?vid=ddd0714b-8261-4037-96da-738b13084ece","ios":"levelo://app?vid=ddd0714b-8261-4037-96da-738b13084ece"},"vehicle_type_id":"4","last_reported":1742652529,"current_range_meters":6000,"station_id":"ce4bhoh2rcd13ifvqh5g","pricing_plan_id":"cebpf4jnsgd1na2vs0mg"},{"bike_id":"896a1529-3771-4123-8f00-dde2c032c768","system_id":"levelo_inurba_marseille","lat":43.26061,"lon":5.39406,"is_reserved":false,"is_disabled":false,"rental_uris":{"android":"levelo://app?vid=896a1529-3771-4123-8f00-dde2c032c768","ios":"levelo://app?vid=896a1529-3771-4123-8f00-dde2c032c768"},"vehicle_type_id":"4","last_reported":1742652529,"current_range_meters":6400,"station_id":"ce4bhh92rcd13ifvqfj0","pricing_plan_id":"cebpf4jnsgd1na2vs0mg"},{"bike_id":"9689a4b5-b9bb-45af-815b-74c4658ab903","system_id":"levelo_inurba_marseille","lat":43.25934,"lon":5.40919,"is_reserved":false,"is_disabled":false,"rental_uris":{"android":"levelo://app?vid=9689a4b5-b9bb-45af-815b-74c4658ab903","ios":"levelo://app?vid=9689a4b5-b9bb-45af-815b-74c4658ab903"},"vehicle_type_id":"4","last_reported":1742652529,"current_range_meters":6400,"station_id":"ce4bhm92rcd13ifvqglg","pricing_plan_id":"cebpf4jnsgd1na2vs0mg"},{"bike_id":"1d4db556-ede9-4251-b1c8-cfedafe541b4","system_id":"levelo_inurba_marseille","lat":43.30134,"lon":5.37407,"is_reserved":false,"is_disabled":false,"rental_uris":{"android":"levelo://app?vid=1d4db556-ede9-4251-b1c8-cfedafe541b4","ios":"levelo://app?vid=1d4db556-ede9-4251-b1c8-cfedafe541b4"},"vehicle_type_id":"4","last_reported":1742652529,"current_range_meters":6400,"station_id":"ce4bgs92rcd13ifvqcc0","pricing_plan_id":"cebpf4jnsgd1na2vs0mg"},{"bike_id":"26247666-dc43-4f8c-badb-1dca18145970","system_id":"levelo_inurba_marseille","lat":43.24077,"lon":5.37748,"is_reserved":false,"is_disabled":false,"rental_uris":{"android":"levelo://app?vid=26247666-dc43-4f8c-badb-1dca18145970","ios":"levelo://app?vid=26247666-dc43-4f8c-badb-1dca18145970"},"vehicle_type_id":"4","last_reported":1742652529,"current_range_meters":6400,"station_id":"ce4bhnp2rcd13ifvqgvg","pricing_plan_id":"cebpf4jnsgd1na2vs0mg"},{"bike_id":"1f4b5356-d265-454a-aa48-2f7dec9d4d2a","system_id":"levelo_inurba_marseille","lat":43.3372,"lon":5.39188,"is_reserved":false,"is_disabled":false,"rental_uris":{"android":"levelo://app?vid=1f4b5356-d265-454a-aa48-2f7dec9d4d2a","ios":"levelo://app?vid=1f4b5356-d265-454a-aa48-2f7dec9d4d2a"},"vehicle_type_id":"4","last_reported":1742652529,"current_range_meters":6400,"station_id":"ce4bhr92rcd13ifvqhsg","pricing_plan_id":"cebpf4jnsgd1na2vs0mg"},{"bike_id":"52c16ac5-3447-4053-956c-78fc8bf0dc7c","system_id":"levelo_inurba_marseille","lat":43.32354,"lon":5.36758,"is_reserved":false,"is_disabled":false,"rental_uris":{"android":"levelo://app?vid=52c16ac5-3447-4053-956c-78fc8bf0dc7c","ios":"levelo://app?vid=52c16ac5-3447-4053-956c-78fc8bf0dc7c"},"vehicle_type_id":"4","last_reported":1742652529,"current_range_meters":6800,"station_id":"ce4bhsh2rcd13ifvqi2g","pricing_plan_id":"cebpf4jnsgd1na2vs0mg"},{"bike_id":"d000c8ac-0c96-4fc1-ac84-5f67409cab71","system_id":"levelo_inurba_marseille","lat":43.32474,"lon":5.36556,"is_reserved":false,"is_disabled":false,"rental_uris":{"android":"levelo://app?vid=d000c8ac-0c96-4fc1-ac84-5f67409cab71","ios":"levelo://app?vid=d000c8ac-0c96-4fc1-ac84-5f67409cab71"},"vehicle_type_id":"4","last_reported":1742652529,"current_range_meters":6800,"station_id":"ce4bhs12rcd13ifvqhvg","pricing_plan_id":"cebpf4jnsgd1na2vs0mg"},{"bike_id":"bf5d7bdb-65a8-4310-b955-6a76e2cbd7fe","system_id":"levelo_inurba_marseille","lat":43.33709,"lon":5.39174,"is_reserved":false,"is_disabled":false,"rental_uris":{"android":"levelo://app?vid=bf5d7bdb-65a8-4310-b955-6a76e2cbd7fe","ios":"levelo://app?vid=bf5d7bdb-65a8-4310-b955-6a76e2cbd7fe"},"vehicle_type_id":"4","last_reported":1742652529,"current_range_meters":6800,"station_id":"ce4bhr92rcd13ifvqhsg","pricing_plan_id":"cebpf4jnsgd1na2vs0mg"},{"bike_id":"81a5cf23-6086-44b4-beb4-858c535ef12d","system_id":"levelo_inurba_marseille","lat":43.29851,"lon":5.36279,"is_reserved":false,"is_disabled":false,"rental_uris":{"android":"levelo://app?vid=81a5cf23-6086-44b4-beb4-858c535ef12d","ios":"levelo://app?vid=81a5cf23-6086-44b4-beb4-858c535ef12d"},"vehicle_type_id":"4","last_reported":1742652529,"current_range_meters":6800,"station_id":"ce4bgpp2rcd13ifvqc3g","pricing_plan_id":"cebpf4jnsgd1na2vs0mg"},{"bike_id":"187679a9-b94f-4409-9660-059e6f95607e","system_id":"levelo_inurba_marseille","lat":43.27216,"lon":5.39183,"is_reserved":false,"is_disabled":false,"rental_uris":{"android":"levelo://app?vid=187679a9-b94f-4409-9660-059e6f95607e","ios":"levelo://app?vid=187679a9-b94f-4409-9660-059e6f95607e"},"vehicle_type_id":"4","last_reported":1742652529,"current_range_meters":6800,"station_id":"ce4bhhp2rcd13ifvqfm0","pricing_plan_id":"cebpf4jnsgd1na2vs0mg"},{"bike_id":"c0aad327-9e06-4c47-baeb-dcbe0038d6f7","system_id":"levelo_inurba_marseille","lat":43.30142,"lon":5.37431,"is_reserved":false,"is_disabled":false,"rental_uris":{"android":"levelo://app?vid=c0aad327-9e06-4c47-baeb-dcbe0038d6f7","ios":"levelo://app?vid=c0aad327-9e06-4c47-baeb-dcbe0038d6f7"},"vehicle_type_id":"4","last_reported":1742652529,"current_range_meters":6800,"station_id":"ce4bgs92rcd13ifvqcc0","pricing_plan_id":"cebpf4jnsgd1na2vs0mg"},{"bike_id":"a08bc789-bb30-4320-a862-869558ad92b8","system_id":"levelo_inurba_marseille","lat":43.302722,"lon":5.396204,"is_reserved":false,"is_disabled":false,"rental_uris":{"android":"levelo://app?vid=a08bc789-bb30-4320-a862-869558ad92b8","ios":"levelo://app?vid=a08bc789-bb30-4320-a862-869558ad92b8"},"vehicle_type_id":"4","last_reported":1742652529,"current_range_meters":6800,"station_id":"ce4bh0p2rcd13ifvqd70","pricing_plan_id":"cebpf4jnsgd1na2vs0mg"},{"bike_id":"470a6f1d-18a2-44be-b94b-d3b94abe1f91","system_id":"levelo_inurba_marseille","lat":43.26177,"lon":5.37915,"is_reserved":false,"is_disabled":false,"rental_uris":{"android":"levelo://app?vid=470a6f1d-18a2-44be-b94b-d3b94abe1f91","ios":"levelo://app?vid=470a6f1d-18a2-44be-b94b-d3b94abe1f91"},"vehicle_type_id":"4","last_reported":1742652529,"current_range_meters":6800,"station_id":"ce4bhjp2rcd13ifvqg90","pricing_plan_id":"cebpf4jnsgd1na2vs0mg"},{"bike_id":"2e4f1e96-9bac-46f7-bf83-3e76dce27ed5","system_id":"levelo_inurba_marseille","lat":43.30158,"lon":5.38805,"is_reserved":false,"is_disabled":false,"rental_uris":{"android":"levelo://app?vid=2e4f1e96-9bac-46f7-bf83-3e76dce27ed5","ios":"levelo://app?vid=2e4f1e96-9bac-46f7-bf83-3e76dce27ed5"},"vehicle_type_id":"4","last_reported":1742652529,"current_range_meters":6800,"station_id":"ce4bghh2rcd13ifvqb60","pricing_plan_id":"cebpf4jnsgd1na2vs0mg"},{"bike_id":"48a1e514-2333-46a0-8d89-9f67a1b981ca","system_id":"levelo_inurba_marseille","lat":43.30502,"lon":5.36515,"is_reserved":false,"is_disabled":false,"rental_uris":{"android":"levelo://app?vid=48a1e514-2333-46a0-8d89-9f67a1b981ca","ios":"levelo://app?vid=48a1e514-2333-46a0-8d89-9f67a1b981ca"},"vehicle_type_id":"4","last_reported":1742652529,"current_range_meters":7200,"station_id":"ce4bgs12rcd13ifvqcag","pricing_plan_id":"cebpf4jnsgd1na2vs0mg"},{"bike_id":"c5fee7ce-e99b-41d7-bf02-104474486b07","system_id":"levelo_inurba_marseille","lat":43.23202,"lon":5.35554,"is_reserved":false,"is_disabled":false,"rental_uris":{"android":"levelo://app?vid=c5fee7ce-e99b-41d7-bf02-104474486b07","ios":"levelo://app?vid=c5fee7ce-e99b-41d7-bf02-104474486b07"},"vehicle_type_id":"4","last_reported":1742652529,"current_range_meters":7200,"station_id":"ce4bhu92rcd13ifvqi70","pricing_plan_id":"cebpf4jnsgd1na2vs0mg"},{"bike_id":"94f4cd97-7bfd-4217-840f-6260ab666b8e","system_id":"levelo_inurba_marseille","lat":43.2962,"lon":5.37713,"is_reserved":false,"is_disabled":false,"rental_uris":{"android":"levelo://app?vid=94f4cd97-7bfd-4217-840f-6260ab666b8e","ios":"levelo://app?vid=94f4cd97-7bfd-4217-840f-6260ab666b8e"},"vehicle_type_id":"4","last_reported":1742652529,"current_range_meters":8000,"station_id":"ce4bgi92rcd13ifvqb90","pricing_plan_id":"cebpf4jnsgd1na2vs0mg"},{"bike_id":"fde39a5d-608a-438e-a4f4-c3f941833a4d","system_id":"levelo_inurba_marseille","lat":43.29919,"lon":5.37474,"is_reserved":false,"is_disabled":false,"rental_uris":{"android":"levelo://app?vid=fde39a5d-608a-438e-a4f4-c3f941833a4d","ios":"levelo://app?vid=fde39a5d-608a-438e-a4f4-c3f941833a4d"},"vehicle_type_id":"4","last_reported":1742652529,"current_range_meters":7200,"station_id":"ce4bgjh2rcd13ifvqbg0","pricing_plan_id":"cebpf4jnsgd1na2vs0mg"},{"bike_id":"632be735-9cbd-40bb-8114-edca2052078c","system_id":"levelo_inurba_marseille","lat":43.27677,"lon":5.38894,"is_reserved":false,"is_disabled":false,"rental_uris":{"android":"levelo://app?vid=632be735-9cbd-40bb-8114-edca2052078c","ios":"levelo://app?vid=632be735-9cbd-40bb-8114-edca2052078c"},"vehicle_type_id":"4","last_reported":1742652529,"current_range_meters":7200,"station_id":"ce4bhi12rcd13ifvqfo0","pricing_plan_id":"cebpf4jnsgd1na2vs0mg"},{"bike_id":"7872f180-f75b-4e9d-8f04-12e6c17037a5","system_id":"levelo_inurba_marseille","lat":43.32484,"lon":5.36576,"is_reserved":false,"is_disabled":false,"rental_uris":{"android":"levelo://app?vid=7872f180-f75b-4e9d-8f04-12e6c17037a5","ios":"levelo://app?vid=7872f180-f75b-4e9d-8f04-12e6c17037a5"},"vehicle_type_id":"4","last_reported":1742652529,"current_range_meters":7200,"station_id":"ce4bhs12rcd13ifvqhvg","pricing_plan_id":"cebpf4jnsgd1na2vs0mg"},{"bike_id":"34791d82-19d8-45ce-83b9-0d4f19bcc6ae","system_id":"levelo_inurba_marseille","lat":43.282957,"lon":5.427101,"is_reserved":false,"is_disabled":false,"rental_uris":{"android":"levelo://app?vid=34791d82-19d8-45ce-83b9-0d4f19bcc6ae","ios":"levelo://app?vid=34791d82-19d8-45ce-83b9-0d4f19bcc6ae"},"vehicle_type_id":"4","last_reported":1742652529,"current_range_meters":7200,"station_id":"ce4bhnh2rcd13ifvqgug","pricing_plan_id":"cebpf4jnsgd1na2vs0mg"},{"bike_id":"84f03867-aacb-43ca-bd47-7f0a2e624c27","system_id":"levelo_inurba_marseille","lat":43.28573,"lon":5.39501,"is_reserved":false,"is_disabled":false,"rental_uris":{"android":"levelo://app?vid=84f03867-aacb-43ca-bd47-7f0a2e624c27","ios":"levelo://app?vid=84f03867-aacb-43ca-bd47-7f0a2e624c27"},"vehicle_type_id":"4","last_reported":1742652529,"current_range_meters":8000,"station_id":"ce4bh292rcd13ifvqdg0","pricing_plan_id":"cebpf4jnsgd1na2vs0mg"},{"bike_id":"0faeda17-87f9-4308-b369-97acc6c5068b","system_id":"levelo_inurba_marseille","lat":43.2455,"lon":5.39511,"is_reserved":false,"is_disabled":false,"rental_uris":{"android":"levelo://app?vid=0faeda17-87f9-4308-b369-97acc6c5068b","ios":"levelo://app?vid=0faeda17-87f9-4308-b369-97acc6c5068b"},"vehicle_type_id":"4","last_reported":1742652529,"current_range_meters":8000,"station_id":"ce4bhlp2rcd13ifvqgjg","pricing_plan_id":"cebpf4jnsgd1na2vs0mg"},{"bike_id":"eb108d44-dc79-4d6f-bd84-02aa0abda9a2","system_id":"levelo_inurba_marseille","lat":43.29533,"lon":5.3904,"is_reserved":false,"is_disabled":false,"rental_uris":{"android":"levelo://app?vid=eb108d44-dc79-4d6f-bd84-02aa0abda9a2","ios":"levelo://app?vid=eb108d44-dc79-4d6f-bd84-02aa0abda9a2"},"vehicle_type_id":"4","last_reported":1742652529,"current_range_meters":8000,"station_id":"ce4bh3p2rcd13ifvqdp0","pricing_plan_id":"cebpf4jnsgd1na2vs0mg"},{"bike_id":"b00605e3-b50e-457e-a9d6-59adef6bb5fb","system_id":"levelo_inurba_marseille","lat":43.28156,"lon":5.42657,"is_reserved":false,"is_disabled":false,"rental_uris":{"android":"levelo://app?vid=b00605e3-b50e-457e-a9d6-59adef6bb5fb","ios":"levelo://app?vid=b00605e3-b50e-457e-a9d6-59adef6bb5fb"},"vehicle_type_id":"4","last_reported":1742652529,"current_range_meters":8000,"station_id":"ce4bhnh2rcd13ifvqgug","pricing_plan_id":"cebpf4jnsgd1na2vs0mg"},{"bike_id":"312ef421-78b3-4801-9408-63746d758ccd","system_id":"levelo_inurba_marseille","lat":43.24808,"lon":5.37453,"is_reserved":false,"is_disabled":false,"rental_uris":{"android":"levelo://app?vid=312ef421-78b3-4801-9408-63746d758ccd","ios":"levelo://app?vid=312ef421-78b3-4801-9408-63746d758ccd"},"vehicle_type_id":"4","last_reported":1742652529,"current_range_meters":8000,"station_id":"ce4bhgh2rcd13ifvqfb0","pricing_plan_id":"cebpf4jnsgd1na2vs0mg"},{"bike_id":"9ea013c3-3314-45aa-90b1-cd20db66a6bf","system_id":"levelo_inurba_marseille","lat":43.2622,"lon":5.37462,"is_reserved":false,"is_disabled":false,"rental_uris":{"android":"levelo://app?vid=9ea013c3-3314-45aa-90b1-cd20db66a6bf","ios":"levelo://app?vid=9ea013c3-3314-45aa-90b1-cd20db66a6bf"},"vehicle_type_id":"4","last_reported":1742652529,"current_range_meters":8000,"station_id":"ce4bhgp2rcd13ifvqfc0","pricing_plan_id":"cebpf4jnsgd1na2vs0mg"},{"bike_id":"378e5c7f-b330-4939-a0e3-351b957c2b9a","system_id":"levelo_inurba_marseille","lat":43.250838,"lon":5.395272,"is_reserved":false,"is_disabled":false,"rental_uris":{"android":"levelo://app?vid=378e5c7f-b330-4939-a0e3-351b957c2b9a","ios":"levelo://app?vid=378e5c7f-b330-4939-a0e3-351b957c2b9a"},"vehicle_type_id":"4","last_reported":1742652529,"current_range_meters":8000,"station_id":"","pricing_plan_id":"cebpf4jnsgd1na2vs0mg"},{"bike_id":"ed66e5a9-80a0-4895-8101-180a6e79cce7","system_id":"levelo_inurba_marseille","lat":43.26796,"lon":5.3941,"is_reserved":false,"is_disabled":false,"rental_uris":{"android":"levelo://app?vid=ed66e5a9-80a0-4895-8101-180a6e79cce7","ios":"levelo://app?vid=ed66e5a9-80a0-4895-8101-180a6e79cce7"},"vehicle_type_id":"4","last_reported":1742652529,"current_range_meters":8000,"station_id":"ce4bhh12rcd13ifvqfg0","pricing_plan_id":"cebpf4jnsgd1na2vs0mg"},{"bike_id":"fe47978a-1ef6-424f-b9ed-8713afe389ae","system_id":"levelo_inurba_marseille","lat":43.29513,"lon":5.37502,"is_reserved":false,"is_disabled":false,"rental_uris":{"android":"levelo://app?vid=fe47978a-1ef6-424f-b9ed-8713afe389ae","ios":"levelo://app?vid=fe47978a-1ef6-424f-b9ed-8713afe389ae"},"vehicle_type_id":"4","last_reported":1742652529,"current_range_meters":8000,"station_id":"ce4bgkp2rcd13ifvqbmg","pricing_plan_id":"cebpf4jnsgd1na2vs0mg"},{"bike_id":"b95dd8b3-8b42-4b01-a436-eb7561400e51","system_id":"levelo_inurba_marseille","lat":43.2957,"lon":5.37517,"is_reserved":false,"is_disabled":false,"rental_uris":{"android":"levelo://app?vid=b95dd8b3-8b42-4b01-a436-eb7561400e51","ios":"levelo://app?vid=b95dd8b3-8b42-4b01-a436-eb7561400e51"},"vehicle_type_id":"4","last_reported":1742652529,"current_range_meters":8000,"station_id":"ce4bgh92rcd13ifvqb50","pricing_plan_id":"cebpf4jnsgd1na2vs0mg"},{"bike_id":"295b2b96-8a22-4b6f-a45b-df5a7ed58969","system_id":"levelo_inurba_marseille","lat":43.33732,"lon":5.3917,"is_reserved":false,"is_disabled":false,"rental_uris":{"android":"levelo://app?vid=295b2b96-8a22-4b6f-a45b-df5a7ed58969","ios":"levelo://app?vid=295b2b96-8a22-4b6f-a45b-df5a7ed58969"},"vehicle_type_id":"4","last_reported":1742652529,"current_range_meters":8400,"station_id":"ce4bhr92rcd13ifvqhsg","pricing_plan_id":"cebpf4jnsgd1na2vs0mg"},{"bike_id":"10e8ca3e-8415-4db2-bd99-6d8438c9a57a","system_id":"levelo_inurba_marseille","lat":43.29911,"lon":5.37475,"is_reserved":false,"is_disabled":false,"rental_uris":{"android":"levelo://app?vid=10e8ca3e-8415-4db2-bd99-6d8438c9a57a","ios":"levelo://app?vid=10e8ca3e-8415-4db2-bd99-6d8438c9a57a"},"vehicle_type_id":"4","last_reported":1742652529,"current_range_meters":8400,"station_id":"ce4bgjh2rcd13ifvqbg0","pricing_plan_id":"cebpf4jnsgd1na2vs0mg"},{"bike_id":"30f74d27-9970-4afa-b900-f9accdc2d04a","system_id":"levelo_inurba_marseille","lat":43.26229,"lon":5.40454,"is_reserved":false,"is_disabled":false,"rental_uris":{"android":"levelo://app?vid=30f74d27-9970-4afa-b900-f9accdc2d04a","ios":"levelo://app?vid=30f74d27-9970-4afa-b900-f9accdc2d04a"},"vehicle_type_id":"4","last_reported":1742652529,"current_range_meters":8400,"station_id":"ce4bhmh2rcd13ifvqgmg","pricing_plan_id":"cebpf4jnsgd1na2vs0mg"},{"bike_id":"598a68e0-1d30-4a77-a087-0d5c856706a2","system_id":"levelo_inurba_marseille","lat":43.258641,"lon":5.398934,"is_reserved":false,"is_disabled":false,"rental_uris":{"android":"levelo://app?vid=598a68e0-1d30-4a77-a087-0d5c856706a2","ios":"levelo://app?vid=598a68e0-1d30-4a77-a087-0d5c856706a2"},"vehicle_type_id":"4","last_reported":1742652529,"current_range_meters":8400,"station_id":"ce4bhmp2rcd13ifvqgog","pricing_plan_id":"cebpf4jnsgd1na2vs0mg"},{"bike_id":"276613ec-3310-44d6-ae3f-44328dd4fd15","system_id":"levelo_inurba_marseille","lat":43.25833,"lon":5.39442,"is_reserved":false,"is_disabled":false,"rental_uris":{"android":"levelo://app?vid=276613ec-3310-44d6-ae3f-44328dd4fd15","ios":"levelo://app?vid=276613ec-3310-44d6-ae3f-44328dd4fd15"},"vehicle_type_id":"4","last_reported":1742652529,"current_range_meters":8400,"station_id":"ce4bhip2rcd13ifvqft0","pricing_plan_id":"cebpf4jnsgd1na2vs0mg"},{"bike_id":"a6d6a801-e8a2-4a79-94ba-3402e2e8f551","system_id":"levelo_inurba_marseille","lat":43.29732,"lon":5.37697,"is_reserved":false,"is_disabled":false,"rental_uris":{"android":"levelo://app?vid=a6d6a801-e8a2-4a79-94ba-3402e2e8f551","ios":"levelo://app?vid=a6d6a801-e8a2-4a79-94ba-3402e2e8f551"},"vehicle_type_id":"4","last_reported":1742652529,"current_range_meters":8400,"station_id":"ce4bgkh2rcd13ifvqbl0","pricing_plan_id":"cebpf4jnsgd1na2vs0mg"},{"bike_id":"65b642d2-4bbc-47bd-9c36-3f213e795fd7","system_id":"levelo_inurba_marseille","lat":43.2583,"lon":5.39418,"is_reserved":false,"is_disabled":false,"rental_uris":{"android":"levelo://app?vid=65b642d2-4bbc-47bd-9c36-3f213e795fd7","ios":"levelo://app?vid=65b642d2-4bbc-47bd-9c36-3f213e795fd7"},"vehicle_type_id":"4","last_reported":1742652529,"current_range_meters":8400,"station_id":"ce4bhip2rcd13ifvqft0","pricing_plan_id":"cebpf4jnsgd1na2vs0mg"},{"bike_id":"a0803fc7-7c01-4615-afb9-e1e35a6349e8","system_id":"levelo_inurba_marseille","lat":43.2816,"lon":5.42619,"is_reserved":false,"is_disabled":false,"rental_uris":{"android":"levelo://app?vid=a0803fc7-7c01-4615-afb9-e1e35a6349e8","ios":"levelo://app?vid=a0803fc7-7c01-4615-afb9-e1e35a6349e8"},"vehicle_type_id":"4","last_reported":1742652529,"current_range_meters":8400,"station_id":"ce4bhnh2rcd13ifvqgug","pricing_plan_id":"cebpf4jnsgd1na2vs0mg"},{"bike_id":"b2afa99a-301e-4532-b637-a120ee8a20c9","system_id":"levelo_inurba_marseille","lat":43.23062,"lon":5.35506,"is_reserved":false,"is_disabled":false,"rental_uris":{"android":"levelo://app?vid=b2afa99a-301e-4532-b637-a120ee8a20c9","ios":"levelo://app?vid=b2afa99a-301e-4532-b637-a120ee8a20c9"},"vehicle_type_id":"4","last_reported":1742652529,"current_range_meters":9200,"station_id":"cpo3342slgdg3j2ifvpg","pricing_plan_id":"cebpf4jnsgd1na2vs0mg"},{"bike_id":"7a80749b-56dc-4ab1-a2d7-268dfcb799e2","system_id":"levelo_inurba_marseille","lat":43.2396,"lon":5.36629,"is_reserved":false,"is_disabled":false,"rental_uris":{"android":"levelo://app?vid=7a80749b-56dc-4ab1-a2d7-268dfcb799e2","ios":"levelo://app?vid=7a80749b-56dc-4ab1-a2d7-268dfcb799e2"},"vehicle_type_id":"4","last_reported":1742652529,"current_range_meters":8800,"station_id":"ce4bhi12rcd13ifvqfp0","pricing_plan_id":"cebpf4jnsgd1na2vs0mg"},{"bike_id":"98ccc432-9b2a-43af-a5bc-519131c0a420","system_id":"levelo_inurba_marseille","lat":43.24545,"lon":5.39525,"is_reserved":false,"is_disabled":false,"rental_uris":{"android":"levelo://app?vid=98ccc432-9b2a-43af-a5bc-519131c0a420","ios":"levelo://app?vid=98ccc432-9b2a-43af-a5bc-519131c0a420"},"vehicle_type_id":"4","last_reported":1742652529,"current_range_meters":8800,"station_id":"ce4bhlp2rcd13ifvqgjg","pricing_plan_id":"cebpf4jnsgd1na2vs0mg"},{"bike_id":"ab331795-b796-4503-ac6f-0c226caf095d","system_id":"levelo_inurba_marseille","lat":43.30315,"lon":5.36908,"is_reserved":false,"is_disabled":false,"rental_uris":{"android":"levelo://app?vid=ab331795-b796-4503-ac6f-0c226caf095d","ios":"levelo://app?vid=ab331795-b796-4503-ac6f-0c226caf095d"},"vehicle_type_id":"4","last_reported":1742652529,"current_range_meters":8800,"station_id":"ce4bgqh2rcd13ifvqc5g","pricing_plan_id":"cebpf4jnsgd1na2vs0mg"},{"bike_id":"a1bbdd29-ad6e-4e1b-9168-3b777f9cc8e8","system_id":"levelo_inurba_marseille","lat":43.29261,"lon":5.38447,"is_reserved":false,"is_disabled":false,"rental_uris":{"android":"levelo://app?vid=a1bbdd29-ad6e-4e1b-9168-3b777f9cc8e8","ios":"levelo://app?vid=a1bbdd29-ad6e-4e1b-9168-3b777f9cc8e8"},"vehicle_type_id":"4","last_reported":1742652529,"current_range_meters":8800,"station_id":"ce4bh692rcd13ifvqea0","pricing_plan_id":"cebpf4jnsgd1na2vs0mg"},{"bike_id":"5dd81119-aa6c-46d9-84b7-0c4a2cf3a209","system_id":"levelo_inurba_marseille","lat":43.24657,"lon":5.38885,"is_reserved":false,"is_disabled":false,"rental_uris":{"android":"levelo://app?vid=5dd81119-aa6c-46d9-84b7-0c4a2cf3a209","ios":"levelo://app?vid=5dd81119-aa6c-46d9-84b7-0c4a2cf3a209"},"vehicle_type_id":"4","last_reported":1742652529,"current_range_meters":8800,"station_id":"ce4bhg12rcd13ifvqf60","pricing_plan_id":"cebpf4jnsgd1na2vs0mg"},{"bike_id":"84f44fa9-ac79-46e0-9019-b8125ec3ae03","system_id":"levelo_inurba_marseille","lat":43.26563,"lon":5.39008,"is_reserved":false,"is_disabled":false,"rental_uris":{"android":"levelo://app?vid=84f44fa9-ac79-46e0-9019-b8125ec3ae03","ios":"levelo://app?vid=84f44fa9-ac79-46e0-9019-b8125ec3ae03"},"vehicle_type_id":"4","last_reported":1742652529,"current_range_meters":8800,"station_id":"ce4bhe12rcd13ifvqf30","pricing_plan_id":"cebpf4jnsgd1na2vs0mg"},{"bike_id":"395a6abc-4d8a-435b-8e3d-758afed4d7b6","system_id":"levelo_inurba_marseille","lat":43.25578,"lon":5.38239,"is_reserved":false,"is_disabled":false,"rental_uris":{"android":"levelo://app?vid=395a6abc-4d8a-435b-8e3d-758afed4d7b6","ios":"levelo://app?vid=395a6abc-4d8a-435b-8e3d-758afed4d7b6"},"vehicle_type_id":"4","last_reported":1742652529,"current_range_meters":8800,"station_id":"ce4bhih2rcd13ifvqfs0","pricing_plan_id":"cebpf4jnsgd1na2vs0mg"},{"bike_id":"cc7f5ddc-cc2b-4cbc-8ccd-fa6712d5d80a","system_id":"levelo_inurba_marseille","lat":43.30146,"lon":5.37415,"is_reserved":false,"is_disabled":false,"rental_uris":{"android":"levelo://app?vid=cc7f5ddc-cc2b-4cbc-8ccd-fa6712d5d80a","ios":"levelo://app?vid=cc7f5ddc-cc2b-4cbc-8ccd-fa6712d5d80a"},"vehicle_type_id":"4","last_reported":1742652529,"current_range_meters":8800,"station_id":"ce4bgs92rcd13ifvqcc0","pricing_plan_id":"cebpf4jnsgd1na2vs0mg"},{"bike_id":"0e5a755d-f9b7-4a48-a463-d77b84698a97","system_id":"levelo_inurba_marseille","lat":43.2963,"lon":5.37715,"is_reserved":false,"is_disabled":false,"rental_uris":{"android":"levelo://app?vid=0e5a755d-f9b7-4a48-a463-d77b84698a97","ios":"levelo://app?vid=0e5a755d-f9b7-4a48-a463-d77b84698a97"},"vehicle_type_id":"4","last_reported":1742652529,"current_range_meters":9200,"station_id":"ce4bgi92rcd13ifvqb90","pricing_plan_id":"cebpf4jnsgd1na2vs0mg"},{"bike_id":"e1e493b8-6ddd-477f-a5c7-ce583728c84a","system_id":"levelo_inurba_marseille","lat":43.29012,"lon":5.38127,"is_reserved":false,"is_disabled":false,"rental_uris":{"android":"levelo://app?vid=e1e493b8-6ddd-477f-a5c7-ce583728c84a","ios":"levelo://app?vid=e1e493b8-6ddd-477f-a5c7-ce583728c84a"},"vehicle_type_id":"4","last_reported":1742652529,"current_range_meters":9200,"station_id":"ce4bh4p2rcd13ifvqe1g","pricing_plan_id":"cebpf4jnsgd1na2vs0mg"},{"bike_id":"200b26b1-a8be-44fc-aed0-a02f7d88a7bb","system_id":"levelo_inurba_marseille","lat":43.28416,"lon":5.34984,"is_reserved":false,"is_disabled":false,"rental_uris":{"android":"levelo://app?vid=200b26b1-a8be-44fc-aed0-a02f7d88a7bb","ios":"levelo://app?vid=200b26b1-a8be-44fc-aed0-a02f7d88a7bb"},"vehicle_type_id":"4","last_reported":1742652529,"current_range_meters":9200,"station_id":"ce4bhbh2rcd13ifvqepg","pricing_plan_id":"cebpf4jnsgd1na2vs0mg"},{"bike_id":"7f396ae9-244b-4126-bc7a-2312f6e4d9ee","system_id":"levelo_inurba_marseille","lat":43.33738,"lon":5.39184,"is_reserved":false,"is_disabled":false,"rental_uris":{"android":"levelo://app?vid=7f396ae9-244b-4126-bc7a-2312f6e4d9ee","ios":"levelo://app?vid=7f396ae9-244b-4126-bc7a-2312f6e4d9ee"},"vehicle_type_id":"4","last_reported":1742652529,"current_range_meters":9200,"station_id":"ce4bhr92rcd13ifvqhsg","pricing_plan_id":"cebpf4jnsgd1na2vs0mg"},{"bike_id":"9b2d20a7-0aea-4d2e-ad05-e6342ca3bd1d","system_id":"levelo_inurba_marseille","lat":43.25864,"lon":5.39903,"is_reserved":false,"is_disabled":false,"rental_uris":{"android":"levelo://app?vid=9b2d20a7-0aea-4d2e-ad05-e6342ca3bd1d","ios":"levelo://app?vid=9b2d20a7-0aea-4d2e-ad05-e6342ca3bd1d"},"vehicle_type_id":"4","last_reported":1742652529,"current_range_meters":9200,"station_id":"ce4bhl92rcd13ifvqghg","pricing_plan_id":"cebpf4jnsgd1na2vs0mg"},{"bike_id":"b5fcb98a-c8d5-4f1a-a9b4-b3362af2a9c7","system_id":"levelo_inurba_marseille","lat":43.2306,"lon":5.35497,"is_reserved":false,"is_disabled":false,"rental_uris":{"android":"levelo://app?vid=b5fcb98a-c8d5-4f1a-a9b4-b3362af2a9c7","ios":"levelo://app?vid=b5fcb98a-c8d5-4f1a-a9b4-b3362af2a9c7"},"vehicle_type_id":"4","last_reported":1742652529,"current_range_meters":9200,"station_id":"cpo3342slgdg3j2ifvpg","pricing_plan_id":"cebpf4jnsgd1na2vs0mg"},{"bike_id":"a564807e-5bd6-4a71-b02f-5054fff067f9","system_id":"levelo_inurba_marseille","lat":43.24658,"lon":5.38167,"is_reserved":false,"is_disabled":false,"rental_uris":{"android":"levelo://app?vid=a564807e-5bd6-4a71-b02f-5054fff067f9","ios":"levelo://app?vid=a564807e-5bd6-4a71-b02f-5054fff067f9"},"vehicle_type_id":"4","last_reported":1742652529,"current_range_meters":9200,"station_id":"ce4bhih2rcd13ifvqfr0","pricing_plan_id":"cebpf4jnsgd1na2vs0mg"},{"bike_id":"b0b2b118-5db8-4b2a-838f-fcf30962e045","system_id":"levelo_inurba_marseille","lat":43.25507,"lon":5.37645,"is_reserved":false,"is_disabled":false,"rental_uris":{"android":"levelo://app?vid=b0b2b118-5db8-4b2a-838f-fcf30962e045","ios":"levelo://app?vid=b0b2b118-5db8-4b2a-838f-fcf30962e045"},"vehicle_type_id":"4","last_reported":1742652529,"current_range_meters":9200,"station_id":"ce4bhh12rcd13ifvqff0","pricing_plan_id":"cebpf4jnsgd1na2vs0mg"},{"bike_id":"26063575-0a4e-4beb-a67a-e0ca3b470f4c","system_id":"levelo_inurba_marseille","lat":43.29201,"lon":5.39312,"is_reserved":false,"is_disabled":false,"rental_uris":{"android":"levelo://app?vid=26063575-0a4e-4beb-a67a-e0ca3b470f4c","ios":"levelo://app?vid=26063575-0a4e-4beb-a67a-e0ca3b470f4c"},"vehicle_type_id":"4","last_reported":1742652529,"current_range_meters":9200,"station_id":"ce4bh192rcd13ifvqdd0","pricing_plan_id":"cebpf4jnsgd1na2vs0mg"},{"bike_id":"592af5a9-2361-415d-8802-df60b01982cc","system_id":"levelo_inurba_marseille","lat":43.28274,"lon":5.35064,"is_reserved":false,"is_disabled":true,"rental_uris":{"android":"levelo://app?vid=592af5a9-2361-415d-8802-df60b01982cc","ios":"levelo://app?vid=592af5a9-2361-415d-8802-df60b01982cc"},"vehicle_type_id":"4","last_reported":1742652529,"current_range_meters":9200,"station_id":"ce4bhbp2rcd13ifvqerg","pricing_plan_id":"cebpf4jnsgd1na2vs0mg"},{"bike_id":"fe239f3d-5c83-42bd-8b99-e0b3f3784fb5","system_id":"levelo_inurba_marseille","lat":43.24622,"lon":5.38398,"is_reserved":false,"is_disabled":false,"rental_uris":{"android":"levelo://app?vid=fe239f3d-5c83-42bd-8b99-e0b3f3784fb5","ios":"levelo://app?vid=fe239f3d-5c83-42bd-8b99-e0b3f3784fb5"},"vehicle_type_id":"4","last_reported":1742652529,"current_range_meters":9200,"station_id":"","pricing_plan_id":"cebpf4jnsgd1na2vs0mg"},{"bike_id":"d0f4a8ea-0418-4c34-ad6f-e2b25894c468","system_id":"levelo_inurba_marseille","lat":43.30169,"lon":5.37432,"is_reserved":false,"is_disabled":false,"rental_uris":{"android":"levelo://app?vid=d0f4a8ea-0418-4c34-ad6f-e2b25894c468","ios":"levelo://app?vid=d0f4a8ea-0418-4c34-ad6f-e2b25894c468"},"vehicle_type_id":"4","last_reported":1742652529,"current_range_meters":9600,"station_id":"ce4bgs92rcd13ifvqcc0","pricing_plan_id":"cebpf4jnsgd1na2vs0mg"},{"bike_id":"f4e6c8dd-1568-40f1-81d1-25d671d49a75","system_id":"levelo_inurba_marseille","lat":43.29922,"lon":5.37491,"is_reserved":false,"is_disabled":false,"rental_uris":{"android":"levelo://app?vid=f4e6c8dd-1568-40f1-81d1-25d671d49a75","ios":"levelo://app?vid=f4e6c8dd-1568-40f1-81d1-25d671d49a75"},"vehicle_type_id":"4","last_reported":1742652529,"current_range_meters":9600,"station_id":"ce4bgjh2rcd13ifvqbg0","pricing_plan_id":"cebpf4jnsgd1na2vs0mg"},{"bike_id":"b2e9dee8-e85b-4097-bad4-e93b919991c2","system_id":"levelo_inurba_marseille","lat":43.26211,"lon":5.37457,"is_reserved":false,"is_disabled":false,"rental_uris":{"android":"levelo://app?vid=b2e9dee8-e85b-4097-bad4-e93b919991c2","ios":"levelo://app?vid=b2e9dee8-e85b-4097-bad4-e93b919991c2"},"vehicle_type_id":"4","last_reported":1742652529,"current_range_meters":9600,"station_id":"ce4bhgp2rcd13ifvqfc0","pricing_plan_id":"cebpf4jnsgd1na2vs0mg"},{"bike_id":"708fadf4-ccfd-48b5-9443-a821058d5de8","system_id":"levelo_inurba_marseille","lat":43.29303,"lon":5.3746,"is_reserved":false,"is_disabled":false,"rental_uris":{"android":"levelo://app?vid=708fadf4-ccfd-48b5-9443-a821058d5de8","ios":"levelo://app?vid=708fadf4-ccfd-48b5-9443-a821058d5de8"},"vehicle_type_id":"4","last_reported":1742652529,"current_range_meters":9600,"station_id":"ce4bgi12rcd13ifvqb70","pricing_plan_id":"cebpf4jnsgd1na2vs0mg"},{"bike_id":"c4f89292-9fc9-4465-a81d-35a9f9b71dd4","system_id":"levelo_inurba_marseille","lat":43.28079,"lon":5.39663,"is_reserved":false,"is_disabled":false,"rental_uris":{"android":"levelo://app?vid=c4f89292-9fc9-4465-a81d-35a9f9b71dd4","ios":"levelo://app?vid=c4f89292-9fc9-4465-a81d-35a9f9b71dd4"},"vehicle_type_id":"4","last_reported":1742652529,"current_range_meters":9600,"station_id":"ce4bho12rcd13ifvqh2g","pricing_plan_id":"cebpf4jnsgd1na2vs0mg"},{"bike_id":"477a1e89-8867-4e29-b2aa-70ae4cdf85cc","system_id":"levelo_inurba_marseille","lat":43.30936,"lon":5.40137,"is_reserved":false,"is_disabled":false,"rental_uris":{"android":"levelo://app?vid=477a1e89-8867-4e29-b2aa-70ae4cdf85cc","ios":"levelo://app?vid=477a1e89-8867-4e29-b2aa-70ae4cdf85cc"},"vehicle_type_id":"4","last_reported":1742652529,"current_range_meters":9600,"station_id":"ce4bgvp2rcd13ifvqct0","pricing_plan_id":"cebpf4jnsgd1na2vs0mg"},{"bike_id":"bfca29db-30a0-47c3-9c55-769e3d4c04ae","system_id":"levelo_inurba_marseille","lat":43.26202,"lon":5.37931,"is_reserved":false,"is_disabled":false,"rental_uris":{"android":"levelo://app?vid=bfca29db-30a0-47c3-9c55-769e3d4c04ae","ios":"levelo://app?vid=bfca29db-30a0-47c3-9c55-769e3d4c04ae"},"vehicle_type_id":"4","last_reported":1742652529,"current_range_meters":10000,"station_id":"ce4bhjp2rcd13ifvqg90","pricing_plan_id":"cebpf4jnsgd1na2vs0mg"},{"bike_id":"936b9240-0781-429a-9c01-2220acd8b398","system_id":"levelo_inurba_marseille","lat":43.26955,"lon":5.38634,"is_reserved":false,"is_disabled":false,"rental_uris":{"android":"levelo://app?vid=936b9240-0781-429a-9c01-2220acd8b398","ios":"levelo://app?vid=936b9240-0781-429a-9c01-2220acd8b398"},"vehicle_type_id":"4","last_reported":1742652529,"current_range_meters":10000,"station_id":"ce4bhh92rcd13ifvqfh0","pricing_plan_id":"cebpf4jnsgd1na2vs0mg"},{"bike_id":"d459651c-b15f-4ece-9ae9-49dce789e945","system_id":"levelo_inurba_marseille","lat":43.30534,"lon":5.36557,"is_reserved":false,"is_disabled":false,"rental_uris":{"android":"levelo://app?vid=d459651c-b15f-4ece-9ae9-49dce789e945","ios":"levelo://app?vid=d459651c-b15f-4ece-9ae9-49dce789e945"},"vehicle_type_id":"4","last_reported":1742652529,"current_range_meters":10000,"station_id":"ce4bgs12rcd13ifvqcag","pricing_plan_id":"cebpf4jnsgd1na2vs0mg"},{"bike_id":"475122dc-1039-4828-b534-7b2fbdf79e20","system_id":"levelo_inurba_marseille","lat":43.23208,"lon":5.3556,"is_reserved":false,"is_disabled":false,"rental_uris":{"android":"levelo://app?vid=475122dc-1039-4828-b534-7b2fbdf79e20","ios":"levelo://app?vid=475122dc-1039-4828-b534-7b2fbdf79e20"},"vehicle_type_id":"4","last_reported":1742652529,"current_range_meters":10000,"station_id":"ce4bhu92rcd13ifvqi70","pricing_plan_id":"cebpf4jnsgd1na2vs0mg"},{"bike_id":"e4fad953-b623-423b-9d97-e5ba1d1ad411","system_id":"levelo_inurba_marseille","lat":43.29512,"lon":5.37497,"is_reserved":false,"is_disabled":false,"rental_uris":{"android":"levelo://app?vid=e4fad953-b623-423b-9d97-e5ba1d1ad411","ios":"levelo://app?vid=e4fad953-b623-423b-9d97-e5ba1d1ad411"},"vehicle_type_id":"4","last_reported":1742652529,"current_range_meters":10000,"station_id":"ce4bgkp2rcd13ifvqbmg","pricing_plan_id":"cebpf4jnsgd1na2vs0mg"},{"bike_id":"f0c503f8-a03c-4d21-b0ba-050943f49ace","system_id":"levelo_inurba_marseille","lat":43.26777,"lon":5.39406,"is_reserved":false,"is_disabled":false,"rental_uris":{"android":"levelo://app?vid=f0c503f8-a03c-4d21-b0ba-050943f49ace","ios":"levelo://app?vid=f0c503f8-a03c-4d21-b0ba-050943f49ace"},"vehicle_type_id":"4","last_reported":1742652529,"current_range_meters":9600,"station_id":"ce4bhh12rcd13ifvqfg0","pricing_plan_id":"cebpf4jnsgd1na2vs0mg"},{"bike_id":"6a7e6ea3-0dea-4fb5-9495-8803ab0e1523","system_id":"levelo_inurba_marseille","lat":43.30469,"lon":5.37914,"is_reserved":false,"is_disabled":false,"rental_uris":{"android":"levelo://app?vid=6a7e6ea3-0dea-4fb5-9495-8803ab0e1523","ios":"levelo://app?vid=6a7e6ea3-0dea-4fb5-9495-8803ab0e1523"},"vehicle_type_id":"4","last_reported":1742652529,"current_range_meters":10800,"station_id":"ce4bgup2rcd13ifvqcn0","pricing_plan_id":"cebpf4jnsgd1na2vs0mg"},{"bike_id":"9683555e-fe04-4de7-b706-7a9b0019a6a7","system_id":"levelo_inurba_marseille","lat":43.33753,"lon":5.37495,"is_reserved":false,"is_disabled":true,"rental_uris":{"android":"levelo://app?vid=9683555e-fe04-4de7-b706-7a9b0019a6a7","ios":"levelo://app?vid=9683555e-fe04-4de7-b706-7a9b0019a6a7"},"vehicle_type_id":"4","last_reported":1742652529,"current_range_meters":10800,"station_id":"ce4bh2h2rcd13ifvqdh0","pricing_plan_id":"cebpf4jnsgd1na2vs0mg"},{"bike_id":"93c79749-a42a-4ec9-9323-9b842c98ff15","system_id":"levelo_inurba_marseille","lat":43.28617,"lon":5.35106,"is_reserved":false,"is_disabled":false,"rental_uris":{"android":"levelo://app?vid=93c79749-a42a-4ec9-9323-9b842c98ff15","ios":"levelo://app?vid=93c79749-a42a-4ec9-9323-9b842c98ff15"},"vehicle_type_id":"4","last_reported":1742652529,"current_range_meters":10800,"station_id":"ce4bhch2rcd13ifvqeug","pricing_plan_id":"cebpf4jnsgd1na2vs0mg"},{"bike_id":"b4ed3917-c967-47a3-9a03-8c3eb9859802","system_id":"levelo_inurba_marseille","lat":43.3229,"lon":5.38269,"is_reserved":false,"is_disabled":false,"rental_uris":{"android":"levelo://app?vid=b4ed3917-c967-47a3-9a03-8c3eb9859802","ios":"levelo://app?vid=b4ed3917-c967-47a3-9a03-8c3eb9859802"},"vehicle_type_id":"4","last_reported":1742652529,"current_range_meters":10000,"station_id":"ce4bhr12rcd13ifvqhqg","pricing_plan_id":"cebpf4jnsgd1na2vs0mg"},{"bike_id":"dd89ae27-2fe0-48ae-9a86-c058e65d1d1a","system_id":"levelo_inurba_marseille","lat":43.28491,"lon":5.38544,"is_reserved":false,"is_disabled":false,"rental_uris":{"android":"levelo://app?vid=dd89ae27-2fe0-48ae-9a86-c058e65d1d1a","ios":"levelo://app?vid=dd89ae27-2fe0-48ae-9a86-c058e65d1d1a"},"vehicle_type_id":"4","last_reported":1742652529,"current_range_meters":10800,"station_id":"ce4bh8p2rcd13ifvqeb0","pricing_plan_id":"cebpf4jnsgd1na2vs0mg"},{"bike_id":"ba505d0e-cf2d-4b3c-80c1-691446dc1c45","system_id":"levelo_inurba_marseille","lat":43.2707,"lon":5.4228,"is_reserved":false,"is_disabled":false,"rental_uris":{"android":"levelo://app?vid=ba505d0e-cf2d-4b3c-80c1-691446dc1c45","ios":"levelo://app?vid=ba505d0e-cf2d-4b3c-80c1-691446dc1c45"},"vehicle_type_id":"4","last_reported":1742652529,"current_range_meters":11200,"station_id":"ce4bhk92rcd13ifvqgb0","pricing_plan_id":"cebpf4jnsgd1na2vs0mg"},{"bike_id":"7b7ea55c-8767-46a9-b4ac-39c298121ff3","system_id":"levelo_inurba_marseille","lat":43.2725,"lon":5.39193,"is_reserved":false,"is_disabled":false,"rental_uris":{"android":"levelo://app?vid=7b7ea55c-8767-46a9-b4ac-39c298121ff3","ios":"levelo://app?vid=7b7ea55c-8767-46a9-b4ac-39c298121ff3"},"vehicle_type_id":"4","last_reported":1742652529,"current_range_meters":11200,"station_id":"ce4bhhp2rcd13ifvqfm0","pricing_plan_id":"cebpf4jnsgd1na2vs0mg"},{"bike_id":"9ae3d78e-981d-439f-b40e-72568ea11ae2","system_id":"levelo_inurba_marseille","lat":43.29174,"lon":5.37165,"is_reserved":false,"is_disabled":false,"rental_uris":{"android":"levelo://app?vid=9ae3d78e-981d-439f-b40e-72568ea11ae2","ios":"levelo://app?vid=9ae3d78e-981d-439f-b40e-72568ea11ae2"},"vehicle_type_id":"4","last_reported":1742652529,"current_range_meters":10800,"station_id":"ce4bha92rcd13ifvqeh0","pricing_plan_id":"cebpf4jnsgd1na2vs0mg"},{"bike_id":"8cbc2c39-8eea-4680-b488-3adae242f8be","system_id":"levelo_inurba_marseille","lat":43.24188,"lon":5.39733,"is_reserved":false,"is_disabled":false,"rental_uris":{"android":"levelo://app?vid=8cbc2c39-8eea-4680-b488-3adae242f8be","ios":"levelo://app?vid=8cbc2c39-8eea-4680-b488-3adae242f8be"},"vehicle_type_id":"4","last_reported":1742652529,"current_range_meters":11200,"station_id":"ce4bhn12rcd13ifvqgpg","pricing_plan_id":"cebpf4jnsgd1na2vs0mg"},{"bike_id":"eca16342-ffb3-4b0f-9684-ce48797df636","system_id":"levelo_inurba_marseille","lat":43.23161,"lon":5.43667,"is_reserved":false,"is_disabled":false,"rental_uris":{"android":"levelo://app?vid=eca16342-ffb3-4b0f-9684-ce48797df636","ios":"levelo://app?vid=eca16342-ffb3-4b0f-9684-ce48797df636"},"vehicle_type_id":"4","last_reported":1742652529,"current_range_meters":11200,"station_id":"ce4bhmp2rcd13ifvqgog","pricing_plan_id":"cebpf4jnsgd1na2vs0mg"},{"bike_id":"16784492-6bb0-4dfd-a37c-0b309868075c","system_id":"levelo_inurba_marseille","lat":43.30624,"lon":5.36593,"is_reserved":false,"is_disabled":false,"rental_uris":{"android":"levelo://app?vid=16784492-6bb0-4dfd-a37c-0b309868075c","ios":"levelo://app?vid=16784492-6bb0-4dfd-a37c-0b309868075c"},"vehicle_type_id":"4","last_reported":1742652529,"current_range_meters":11600,"station_id":"","pricing_plan_id":"cebpf4jnsgd1na2vs0mg"},{"bike_id":"82e83c60-a4c6-4c3a-91fd-a9a6509ceafa","system_id":"levelo_inurba_marseille","lat":43.30132,"lon":5.37427,"is_reserved":false,"is_disabled":false,"rental_uris":{"android":"levelo://app?vid=82e83c60-a4c6-4c3a-91fd-a9a6509ceafa","ios":"levelo://app?vid=82e83c60-a4c6-4c3a-91fd-a9a6509ceafa"},"vehicle_type_id":"4","last_reported":1742652529,"current_range_meters":11600,"station_id":"ce4bgs92rcd13ifvqcc0","pricing_plan_id":"cebpf4jnsgd1na2vs0mg"},{"bike_id":"9c332837-ff21-4c4f-b58a-6cc79abb01a9","system_id":"levelo_inurba_marseille","lat":43.26068,"lon":5.39394,"is_reserved":false,"is_disabled":false,"rental_uris":{"android":"levelo://app?vid=9c332837-ff21-4c4f-b58a-6cc79abb01a9","ios":"levelo://app?vid=9c332837-ff21-4c4f-b58a-6cc79abb01a9"},"vehicle_type_id":"4","last_reported":1742652529,"current_range_meters":11600,"station_id":"ce4bhh92rcd13ifvqfj0","pricing_plan_id":"cebpf4jnsgd1na2vs0mg"},{"bike_id":"3f3f99da-6673-441e-a5b3-6857219a400e","system_id":"levelo_inurba_marseille","lat":43.25016,"lon":5.38917,"is_reserved":false,"is_disabled":false,"rental_uris":{"android":"levelo://app?vid=3f3f99da-6673-441e-a5b3-6857219a400e","ios":"levelo://app?vid=3f3f99da-6673-441e-a5b3-6857219a400e"},"vehicle_type_id":"4","last_reported":1742652529,"current_range_meters":11600,"station_id":"ce4bhgp2rcd13ifvqfd0","pricing_plan_id":"cebpf4jnsgd1na2vs0mg"},{"bike_id":"5a5ff56b-fd5c-4321-ab60-059ff483287c","system_id":"levelo_inurba_marseille","lat":43.2827,"lon":5.35062,"is_reserved":false,"is_disabled":false,"rental_uris":{"android":"levelo://app?vid=5a5ff56b-fd5c-4321-ab60-059ff483287c","ios":"levelo://app?vid=5a5ff56b-fd5c-4321-ab60-059ff483287c"},"vehicle_type_id":"4","last_reported":1742652529,"current_range_meters":11600,"station_id":"ce4bhbp2rcd13ifvqerg","pricing_plan_id":"cebpf4jnsgd1na2vs0mg"},{"bike_id":"08457a50-6d47-4388-8be8-f4f6e3578f70","system_id":"levelo_inurba_marseille","lat":43.27318,"lon":5.39072,"is_reserved":false,"is_disabled":false,"rental_uris":{"android":"levelo://app?vid=08457a50-6d47-4388-8be8-f4f6e3578f70","ios":"levelo://app?vid=08457a50-6d47-4388-8be8-f4f6e3578f70"},"vehicle_type_id":"4","last_reported":1742652529,"current_range_meters":11600,"station_id":"ce4bhgp2rcd13ifvqfe0","pricing_plan_id":"cebpf4jnsgd1na2vs0mg"},{"bike_id":"2b5a616a-3650-49da-9f3b-e0332b691af0","system_id":"levelo_inurba_marseille","lat":43.29294,"lon":5.37173,"is_reserved":false,"is_disabled":false,"rental_uris":{"android":"levelo://app?vid=2b5a616a-3650-49da-9f3b-e0332b691af0","ios":"levelo://app?vid=2b5a616a-3650-49da-9f3b-e0332b691af0"},"vehicle_type_id":"4","last_reported":1742652529,"current_range_meters":11600,"station_id":"ce4bgh92rcd13ifvqb40","pricing_plan_id":"cebpf4jnsgd1na2vs0mg"},{"bike_id":"9b31107c-4377-4eee-9fde-a3dc5fc210bb","system_id":"levelo_inurba_marseille","lat":43.31224,"lon":5.3686,"is_reserved":false,"is_disabled":false,"rental_uris":{"android":"levelo://app?vid=9b31107c-4377-4eee-9fde-a3dc5fc210bb","ios":"levelo://app?vid=9b31107c-4377-4eee-9fde-a3dc5fc210bb"},"vehicle_type_id":"4","last_reported":1742652529,"current_range_meters":11600,"station_id":"ce4bgl92rcd13ifvqbq0","pricing_plan_id":"cebpf4jnsgd1na2vs0mg"},{"bike_id":"ba0a9964-ab62-4807-b18d-12500e496f19","system_id":"levelo_inurba_marseille","lat":43.28627,"lon":5.35098,"is_reserved":false,"is_disabled":true,"rental_uris":{"android":"levelo://app?vid=ba0a9964-ab62-4807-b18d-12500e496f19","ios":"levelo://app?vid=ba0a9964-ab62-4807-b18d-12500e496f19"},"vehicle_type_id":"4","last_reported":1742652529,"current_range_meters":11600,"station_id":"ce4bhch2rcd13ifvqeug","pricing_plan_id":"cebpf4jnsgd1na2vs0mg"},{"bike_id":"72503a27-a949-4a46-b139-c44d4f416a58","system_id":"levelo_inurba_marseille","lat":43.23197,"lon":5.35557,"is_reserved":false,"is_disabled":false,"rental_uris":{"android":"levelo://app?vid=72503a27-a949-4a46-b139-c44d4f416a58","ios":"levelo://app?vid=72503a27-a949-4a46-b139-c44d4f416a58"},"vehicle_type_id":"4","last_reported":1742652529,"current_range_meters":12000,"station_id":"ce4bhu92rcd13ifvqi70","pricing_plan_id":"cebpf4jnsgd1na2vs0mg"},{"bike_id":"d16d5ae2-a108-44f8-a226-14fecf4f3137","system_id":"levelo_inurba_marseille","lat":43.27995,"lon":5.40008,"is_reserved":false,"is_disabled":false,"rental_uris":{"android":"levelo://app?vid=d16d5ae2-a108-44f8-a226-14fecf4f3137","ios":"levelo://app?vid=d16d5ae2-a108-44f8-a226-14fecf4f3137"},"vehicle_type_id":"4","last_reported":1742652529,"current_range_meters":12000,"station_id":"ce4bho92rcd13ifvqh4g","pricing_plan_id":"cebpf4jnsgd1na2vs0mg"},{"bike_id":"8e7a1370-e339-4e76-9786-16044d5fb274","system_id":"levelo_inurba_marseille","lat":43.27217,"lon":5.39182,"is_reserved":false,"is_disabled":false,"rental_uris":{"android":"levelo://app?vid=8e7a1370-e339-4e76-9786-16044d5fb274","ios":"levelo://app?vid=8e7a1370-e339-4e76-9786-16044d5fb274"},"vehicle_type_id":"4","last_reported":1742652529,"current_range_meters":12000,"station_id":"ce4bhhp2rcd13ifvqfm0","pricing_plan_id":"cebpf4jnsgd1na2vs0mg"},{"bike_id":"76636d70-fb6e-4eb5-aa8d-c2587f364638","system_id":"levelo_inurba_marseille","lat":43.28487,"lon":5.38416,"is_reserved":false,"is_disabled":false,"rental_uris":{"android":"levelo://app?vid=76636d70-fb6e-4eb5-aa8d-c2587f364638","ios":"levelo://app?vid=76636d70-fb6e-4eb5-aa8d-c2587f364638"},"vehicle_type_id":"4","last_reported":1742652529,"current_range_meters":12400,"station_id":"ce4bh512rcd13ifvqe3g","pricing_plan_id":"cebpf4jnsgd1na2vs0mg"},{"bike_id":"140d1708-b02b-4f3d-8b67-ad95553b03f4","system_id":"levelo_inurba_marseille","lat":43.30139,"lon":5.37422,"is_reserved":false,"is_disabled":false,"rental_uris":{"android":"levelo://app?vid=140d1708-b02b-4f3d-8b67-ad95553b03f4","ios":"levelo://app?vid=140d1708-b02b-4f3d-8b67-ad95553b03f4"},"vehicle_type_id":"4","last_reported":1742652529,"current_range_meters":12400,"station_id":"ce4bgs92rcd13ifvqcc0","pricing_plan_id":"cebpf4jnsgd1na2vs0mg"},{"bike_id":"a4fe5d25-c122-4363-af9c-87564fd713cb","system_id":"levelo_inurba_marseille","lat":43.29196,"lon":5.35808,"is_reserved":false,"is_disabled":false,"rental_uris":{"android":"levelo://app?vid=a4fe5d25-c122-4363-af9c-87564fd713cb","ios":"levelo://app?vid=a4fe5d25-c122-4363-af9c-87564fd713cb"},"vehicle_type_id":"4","last_reported":1742652529,"current_range_meters":12400,"station_id":"ce4bhb12rcd13ifvqel0","pricing_plan_id":"cebpf4jnsgd1na2vs0mg"},{"bike_id":"302da745-dc3e-489e-b2c8-445dcb3c38b1","system_id":"levelo_inurba_marseille","lat":43.2307,"lon":5.35473,"is_reserved":false,"is_disabled":false,"rental_uris":{"android":"levelo://app?vid=302da745-dc3e-489e-b2c8-445dcb3c38b1","ios":"levelo://app?vid=302da745-dc3e-489e-b2c8-445dcb3c38b1"},"vehicle_type_id":"4","last_reported":1742652529,"current_range_meters":12400,"station_id":"cpo3342slgdg3j2ifvpg","pricing_plan_id":"cebpf4jnsgd1na2vs0mg"},{"bike_id":"34002cd0-c0a5-44a7-ba50-ce9e1675b363","system_id":"levelo_inurba_marseille","lat":43.32337,"lon":5.40624,"is_reserved":false,"is_disabled":false,"rental_uris":{"android":"levelo://app?vid=34002cd0-c0a5-44a7-ba50-ce9e1675b363","ios":"levelo://app?vid=34002cd0-c0a5-44a7-ba50-ce9e1675b363"},"vehicle_type_id":"4","last_reported":1742652529,"current_range_meters":12800,"station_id":"ce4bhq92rcd13ifvqhjg","pricing_plan_id":"cebpf4jnsgd1na2vs0mg"},{"bike_id":"7d9bf2d2-5153-499c-a1fb-dcb365a9e566","system_id":"levelo_inurba_marseille","lat":43.24166,"lon":5.39711,"is_reserved":false,"is_disabled":false,"rental_uris":{"android":"levelo://app?vid=7d9bf2d2-5153-499c-a1fb-dcb365a9e566","ios":"levelo://app?vid=7d9bf2d2-5153-499c-a1fb-dcb365a9e566"},"vehicle_type_id":"4","last_reported":1742652529,"current_range_meters":12800,"station_id":"ce4bhn12rcd13ifvqgpg","pricing_plan_id":"cebpf4jnsgd1na2vs0mg"},{"bike_id":"af80b356-d305-437f-a8b3-d0c8351b012f","system_id":"levelo_inurba_marseille","lat":43.299697,"lon":5.384691,"is_reserved":false,"is_disabled":false,"rental_uris":{"android":"levelo://app?vid=af80b356-d305-437f-a8b3-d0c8351b012f","ios":"levelo://app?vid=af80b356-d305-437f-a8b3-d0c8351b012f"},"vehicle_type_id":"4","last_reported":1742652529,"current_range_meters":12400,"station_id":"ce4bgj92rcd13ifvqbd0","pricing_plan_id":"cebpf4jnsgd1na2vs0mg"},{"bike_id":"2032e81a-8d24-4036-9cc6-bf67698b8322","system_id":"levelo_inurba_marseille","lat":43.2419,"lon":5.39724,"is_reserved":false,"is_disabled":false,"rental_uris":{"android":"levelo://app?vid=2032e81a-8d24-4036-9cc6-bf67698b8322","ios":"levelo://app?vid=2032e81a-8d24-4036-9cc6-bf67698b8322"},"vehicle_type_id":"4","last_reported":1742652529,"current_range_meters":12800,"station_id":"ce4bhn12rcd13ifvqgpg","pricing_plan_id":"cebpf4jnsgd1na2vs0mg"},{"bike_id":"5de49c0f-f3a1-489a-aa02-6ca0fb39e848","system_id":"levelo_inurba_marseille","lat":43.29578,"lon":5.42257,"is_reserved":false,"is_disabled":false,"rental_uris":{"android":"levelo://app?vid=5de49c0f-f3a1-489a-aa02-6ca0fb39e848","ios":"levelo://app?vid=5de49c0f-f3a1-489a-aa02-6ca0fb39e848"},"vehicle_type_id":"4","last_reported":1742652529,"current_range_meters":12800,"station_id":"ce4bhph2rcd13ifvqhdg","pricing_plan_id":"cebpf4jnsgd1na2vs0mg"},{"bike_id":"fe5195b3-d3e2-4bb8-9568-7eea4d075f88","system_id":"levelo_inurba_marseille","lat":43.26562,"lon":5.39002,"is_reserved":false,"is_disabled":false,"rental_uris":{"android":"levelo://app?vid=fe5195b3-d3e2-4bb8-9568-7eea4d075f88","ios":"levelo://app?vid=fe5195b3-d3e2-4bb8-9568-7eea4d075f88"},"vehicle_type_id":"4","last_reported":1742652529,"current_range_meters":13600,"station_id":"ce4bhe12rcd13ifvqf30","pricing_plan_id":"cebpf4jnsgd1na2vs0mg"},{"bike_id":"93cf0f72-793c-4c82-8c8d-7d96defc34a6","system_id":"levelo_inurba_marseille","lat":43.30148,"lon":5.37423,"is_reserved":false,"is_disabled":false,"rental_uris":{"android":"levelo://app?vid=93cf0f72-793c-4c82-8c8d-7d96defc34a6","ios":"levelo://app?vid=93cf0f72-793c-4c82-8c8d-7d96defc34a6"},"vehicle_type_id":"4","last_reported":1742652529,"current_range_meters":13600,"station_id":"ce4bgs92rcd13ifvqcc0","pricing_plan_id":"cebpf4jnsgd1na2vs0mg"},{"bike_id":"272bd483-3c2c-49ec-b30d-44ac080cfd01","system_id":"levelo_inurba_marseille","lat":43.32349,"lon":5.40631,"is_reserved":false,"is_disabled":false,"rental_uris":{"android":"levelo://app?vid=272bd483-3c2c-49ec-b30d-44ac080cfd01","ios":"levelo://app?vid=272bd483-3c2c-49ec-b30d-44ac080cfd01"},"vehicle_type_id":"4","last_reported":1742652529,"current_range_meters":13600,"station_id":"ce4bhq92rcd13ifvqhjg","pricing_plan_id":"cebpf4jnsgd1na2vs0mg"},{"bike_id":"de0341c6-f4dc-4536-bba7-6884077bddf6","system_id":"levelo_inurba_marseille","lat":43.28707,"lon":5.39995,"is_reserved":false,"is_disabled":false,"rental_uris":{"android":"levelo://app?vid=de0341c6-f4dc-4536-bba7-6884077bddf6","ios":"levelo://app?vid=de0341c6-f4dc-4536-bba7-6884077bddf6"},"vehicle_type_id":"4","last_reported":1742652529,"current_range_meters":14000,"station_id":"ce4bho92rcd13ifvqh3g","pricing_plan_id":"cebpf4jnsgd1na2vs0mg"},{"bike_id":"041746e8-f612-4f02-ba2c-e784ef31f6c4","system_id":"levelo_inurba_marseille","lat":43.23159,"lon":5.43712,"is_reserved":false,"is_disabled":false,"rental_uris":{"android":"levelo://app?vid=041746e8-f612-4f02-ba2c-e784ef31f6c4","ios":"levelo://app?vid=041746e8-f612-4f02-ba2c-e784ef31f6c4"},"vehicle_type_id":"4","last_reported":1742652529,"current_range_meters":14000,"station_id":"ce4bhmp2rcd13ifvqgog","pricing_plan_id":"cebpf4jnsgd1na2vs0mg"},{"bike_id":"1431f863-9220-411a-8a55-5b74b6dbf952","system_id":"levelo_inurba_marseille","lat":43.28346,"lon":5.38093,"is_reserved":false,"is_disabled":false,"rental_uris":{"android":"levelo://app?vid=1431f863-9220-411a-8a55-5b74b6dbf952","ios":"levelo://app?vid=1431f863-9220-411a-8a55-5b74b6dbf952"},"vehicle_type_id":"4","last_reported":1742652529,"current_range_meters":13600,"station_id":"ce4bh412rcd13ifvqdr0","pricing_plan_id":"cebpf4jnsgd1na2vs0mg"},{"bike_id":"0aed647b-5800-473b-9845-c03a254a5439","system_id":"levelo_inurba_marseille","lat":43.28465,"lon":5.35893,"is_reserved":false,"is_disabled":false,"rental_uris":{"android":"levelo://app?vid=0aed647b-5800-473b-9845-c03a254a5439","ios":"levelo://app?vid=0aed647b-5800-473b-9845-c03a254a5439"},"vehicle_type_id":"4","last_reported":1742652529,"current_range_meters":13600,"station_id":"ce4bhah2rcd13ifvqei0","pricing_plan_id":"cebpf4jnsgd1na2vs0mg"},{"bike_id":"a3f27226-fc26-4a45-81c4-0362f947f85b","system_id":"levelo_inurba_marseille","lat":43.26563,"lon":5.39006,"is_reserved":false,"is_disabled":false,"rental_uris":{"android":"levelo://app?vid=a3f27226-fc26-4a45-81c4-0362f947f85b","ios":"levelo://app?vid=a3f27226-fc26-4a45-81c4-0362f947f85b"},"vehicle_type_id":"4","last_reported":1742652529,"current_range_meters":14000,"station_id":"ce4bhe12rcd13ifvqf30","pricing_plan_id":"cebpf4jnsgd1na2vs0mg"},{"bike_id":"d9d90e28-0cde-498e-9e49-e2278f18bc23","system_id":"levelo_inurba_marseille","lat":43.32351,"lon":5.38928,"is_reserved":false,"is_disabled":false,"rental_uris":{"android":"levelo://app?vid=d9d90e28-0cde-498e-9e49-e2278f18bc23","ios":"levelo://app?vid=d9d90e28-0cde-498e-9e49-e2278f18bc23"},"vehicle_type_id":"4","last_reported":1742652529,"current_range_meters":14000,"station_id":"ce4bhqp2rcd13ifvqhog","pricing_plan_id":"cebpf4jnsgd1na2vs0mg"},{"bike_id":"141dd10c-af29-487a-9f9a-189bc4b3c05a","system_id":"levelo_inurba_marseille","lat":43.2958,"lon":5.37499,"is_reserved":false,"is_disabled":false,"rental_uris":{"android":"levelo://app?vid=141dd10c-af29-487a-9f9a-189bc4b3c05a","ios":"levelo://app?vid=141dd10c-af29-487a-9f9a-189bc4b3c05a"},"vehicle_type_id":"4","last_reported":1742652529,"current_range_meters":14000,"station_id":"ce4bgh92rcd13ifvqb50","pricing_plan_id":"cebpf4jnsgd1na2vs0mg"},{"bike_id":"28cb41c5-9b8a-42ab-9c5a-ece584372707","system_id":"levelo_inurba_marseille","lat":43.27566,"lon":5.38429,"is_reserved":false,"is_disabled":false,"rental_uris":{"android":"levelo://app?vid=28cb41c5-9b8a-42ab-9c5a-ece584372707","ios":"levelo://app?vid=28cb41c5-9b8a-42ab-9c5a-ece584372707"},"vehicle_type_id":"4","last_reported":1742652529,"current_range_meters":14400,"station_id":"ce4bhh92rcd13ifvqfi0","pricing_plan_id":"cebpf4jnsgd1na2vs0mg"},{"bike_id":"b31c40e2-6a54-4114-a6bc-9b6ae43fcc22","system_id":"levelo_inurba_marseille","lat":43.29936,"lon":5.36549,"is_reserved":false,"is_disabled":false,"rental_uris":{"android":"levelo://app?vid=b31c40e2-6a54-4114-a6bc-9b6ae43fcc22","ios":"levelo://app?vid=b31c40e2-6a54-4114-a6bc-9b6ae43fcc22"},"vehicle_type_id":"4","last_reported":1742652529,"current_range_meters":14400,"station_id":"ce4bgm92rcd13ifvqbr0","pricing_plan_id":"cebpf4jnsgd1na2vs0mg"},{"bike_id":"1d0a467a-5b25-41bf-80b7-e9cf9250cf77","system_id":"levelo_inurba_marseille","lat":43.24805,"lon":5.37456,"is_reserved":false,"is_disabled":false,"rental_uris":{"android":"levelo://app?vid=1d0a467a-5b25-41bf-80b7-e9cf9250cf77","ios":"levelo://app?vid=1d0a467a-5b25-41bf-80b7-e9cf9250cf77"},"vehicle_type_id":"4","last_reported":1742652529,"current_range_meters":14400,"station_id":"ce4bhgh2rcd13ifvqfb0","pricing_plan_id":"cebpf4jnsgd1na2vs0mg"},{"bike_id":"ca16d244-3c4d-404c-bd75-a361ad2324b1","system_id":"levelo_inurba_marseille","lat":43.29622,"lon":5.37703,"is_reserved":false,"is_disabled":false,"rental_uris":{"android":"levelo://app?vid=ca16d244-3c4d-404c-bd75-a361ad2324b1","ios":"levelo://app?vid=ca16d244-3c4d-404c-bd75-a361ad2324b1"},"vehicle_type_id":"4","last_reported":1742652529,"current_range_meters":14400,"station_id":"ce4bgi92rcd13ifvqb90","pricing_plan_id":"cebpf4jnsgd1na2vs0mg"},{"bike_id":"1b5e4322-ccd2-4075-8a15-786b60cecad2","system_id":"levelo_inurba_marseille","lat":43.30146,"lon":5.37427,"is_reserved":false,"is_disabled":false,"rental_uris":{"android":"levelo://app?vid=1b5e4322-ccd2-4075-8a15-786b60cecad2","ios":"levelo://app?vid=1b5e4322-ccd2-4075-8a15-786b60cecad2"},"vehicle_type_id":"4","last_reported":1742652529,"current_range_meters":14400,"station_id":"ce4bgs92rcd13ifvqcc0","pricing_plan_id":"cebpf4jnsgd1na2vs0mg"},{"bike_id":"63a2f354-d935-4700-8079-ca2ca575745a","system_id":"levelo_inurba_marseille","lat":43.31754,"lon":5.39018,"is_reserved":false,"is_disabled":false,"rental_uris":{"android":"levelo://app?vid=63a2f354-d935-4700-8079-ca2ca575745a","ios":"levelo://app?vid=63a2f354-d935-4700-8079-ca2ca575745a"},"vehicle_type_id":"4","last_reported":1742652529,"current_range_meters":14400,"station_id":"ce4bhqp2rcd13ifvqhng","pricing_plan_id":"cebpf4jnsgd1na2vs0mg"},{"bike_id":"d8878601-3ef9-4b69-ae9e-1dde88f059ac","system_id":"levelo_inurba_marseille","lat":43.24165,"lon":5.36411,"is_reserved":false,"is_disabled":false,"rental_uris":{"android":"levelo://app?vid=d8878601-3ef9-4b69-ae9e-1dde88f059ac","ios":"levelo://app?vid=d8878601-3ef9-4b69-ae9e-1dde88f059ac"},"vehicle_type_id":"4","last_reported":1742652529,"current_range_meters":14800,"station_id":"cpo36qri1sfpv3e86is0","pricing_plan_id":"cebpf4jnsgd1na2vs0mg"},{"bike_id":"625cb647-975c-423a-a260-85e27b88eddf","system_id":"levelo_inurba_marseille","lat":43.3027,"lon":5.37714,"is_reserved":false,"is_disabled":false,"rental_uris":{"android":"levelo://app?vid=625cb647-975c-423a-a260-85e27b88eddf","ios":"levelo://app?vid=625cb647-975c-423a-a260-85e27b88eddf"},"vehicle_type_id":"4","last_reported":1742652529,"current_range_meters":14800,"station_id":"ce4bguh2rcd13ifvqcj0","pricing_plan_id":"cebpf4jnsgd1na2vs0mg"},{"bike_id":"0b628453-7141-4e94-af58-07aa38b87efa","system_id":"levelo_inurba_marseille","lat":43.29917,"lon":5.37478,"is_reserved":false,"is_disabled":false,"rental_uris":{"android":"levelo://app?vid=0b628453-7141-4e94-af58-07aa38b87efa","ios":"levelo://app?vid=0b628453-7141-4e94-af58-07aa38b87efa"},"vehicle_type_id":"4","last_reported":1742652529,"current_range_meters":14800,"station_id":"ce4bgjh2rcd13ifvqbg0","pricing_plan_id":"cebpf4jnsgd1na2vs0mg"},{"bike_id":"c28a0dc1-aa01-4098-aa9d-0b95a008dcd2","system_id":"levelo_inurba_marseille","lat":43.299632,"lon":5.387053,"is_reserved":false,"is_disabled":false,"rental_uris":{"android":"levelo://app?vid=c28a0dc1-aa01-4098-aa9d-0b95a008dcd2","ios":"levelo://app?vid=c28a0dc1-aa01-4098-aa9d-0b95a008dcd2"},"vehicle_type_id":"4","last_reported":1742652529,"current_range_meters":14800,"station_id":"ce4bh0p2rcd13ifvqd70","pricing_plan_id":"cebpf4jnsgd1na2vs0mg"},{"bike_id":"729b0037-2b7c-43ee-871c-a25bf43da53a","system_id":"levelo_inurba_marseille","lat":43.26226,"lon":5.40447,"is_reserved":false,"is_disabled":false,"rental_uris":{"android":"levelo://app?vid=729b0037-2b7c-43ee-871c-a25bf43da53a","ios":"levelo://app?vid=729b0037-2b7c-43ee-871c-a25bf43da53a"},"vehicle_type_id":"4","last_reported":1742652529,"current_range_meters":14800,"station_id":"ce4bhmh2rcd13ifvqgmg","pricing_plan_id":"cebpf4jnsgd1na2vs0mg"},{"bike_id":"54835c02-6158-4aac-b2e9-f6650d514f97","system_id":"levelo_inurba_marseille","lat":43.24074,"lon":5.37754,"is_reserved":false,"is_disabled":false,"rental_uris":{"android":"levelo://app?vid=54835c02-6158-4aac-b2e9-f6650d514f97","ios":"levelo://app?vid=54835c02-6158-4aac-b2e9-f6650d514f97"},"vehicle_type_id":"4","last_reported":1742652529,"current_range_meters":15200,"station_id":"ce4bhnp2rcd13ifvqgvg","pricing_plan_id":"cebpf4jnsgd1na2vs0mg"},{"bike_id":"e95b9247-a66b-443b-89f7-bb4c4d272b86","system_id":"levelo_inurba_marseille","lat":43.31896,"lon":5.40731,"is_reserved":false,"is_disabled":false,"rental_uris":{"android":"levelo://app?vid=e95b9247-a66b-443b-89f7-bb4c4d272b86","ios":"levelo://app?vid=e95b9247-a66b-443b-89f7-bb4c4d272b86"},"vehicle_type_id":"4","last_reported":1742652529,"current_range_meters":15200,"station_id":"ce4bhq12rcd13ifvqhig","pricing_plan_id":"cebpf4jnsgd1na2vs0mg"},{"bike_id":"8a858ea1-7bd2-46ea-89e0-0e3881916363","system_id":"levelo_inurba_marseille","lat":43.25107,"lon":5.40337,"is_reserved":false,"is_disabled":true,"rental_uris":{"android":"levelo://app?vid=8a858ea1-7bd2-46ea-89e0-0e3881916363","ios":"levelo://app?vid=8a858ea1-7bd2-46ea-89e0-0e3881916363"},"vehicle_type_id":"4","last_reported":1742652529,"current_range_meters":15200,"station_id":"ce4bhlh2rcd13ifvqgig","pricing_plan_id":"cebpf4jnsgd1na2vs0mg"},{"bike_id":"5d4cc92c-eafe-478c-8820-ef016b1e9d02","system_id":"levelo_inurba_marseille","lat":43.29898,"lon":5.43655,"is_reserved":false,"is_disabled":false,"rental_uris":{"android":"levelo://app?vid=5d4cc92c-eafe-478c-8820-ef016b1e9d02","ios":"levelo://app?vid=5d4cc92c-eafe-478c-8820-ef016b1e9d02"},"vehicle_type_id":"4","last_reported":1742652529,"current_range_meters":15200,"station_id":"ce4bhpp2rcd13ifvqhfg","pricing_plan_id":"cebpf4jnsgd1na2vs0mg"},{"bike_id":"5fcd5f8c-5b95-474f-a440-7c7d88f49ccf","system_id":"levelo_inurba_marseille","lat":43.29623,"lon":5.37714,"is_reserved":false,"is_disabled":false,"rental_uris":{"android":"levelo://app?vid=5fcd5f8c-5b95-474f-a440-7c7d88f49ccf","ios":"levelo://app?vid=5fcd5f8c-5b95-474f-a440-7c7d88f49ccf"},"vehicle_type_id":"4","last_reported":1742652529,"current_range_meters":14800,"station_id":"ce4bgi92rcd13ifvqb90","pricing_plan_id":"cebpf4jnsgd1na2vs0mg"},{"bike_id":"a7c269ac-750b-4e61-a0a4-f774b818338f","system_id":"levelo_inurba_marseille","lat":43.2808,"lon":5.39666,"is_reserved":false,"is_disabled":false,"rental_uris":{"android":"levelo://app?vid=a7c269ac-750b-4e61-a0a4-f774b818338f","ios":"levelo://app?vid=a7c269ac-750b-4e61-a0a4-f774b818338f"},"vehicle_type_id":"4","last_reported":1742652529,"current_range_meters":15200,"station_id":"ce4bho12rcd13ifvqh2g","pricing_plan_id":"cebpf4jnsgd1na2vs0mg"},{"bike_id":"d954b141-3cee-4de0-9c29-d5babd11cd82","system_id":"levelo_inurba_marseille","lat":43.25091,"lon":5.39525,"is_reserved":false,"is_disabled":false,"rental_uris":{"android":"levelo://app?vid=d954b141-3cee-4de0-9c29-d5babd11cd82","ios":"levelo://app?vid=d954b141-3cee-4de0-9c29-d5babd11cd82"},"vehicle_type_id":"4","last_reported":1742652529,"current_range_meters":16000,"station_id":"ce4bhm12rcd13ifvqgkg","pricing_plan_id":"cebpf4jnsgd1na2vs0mg"},{"bike_id":"dc48b248-ccee-4808-9383-7059f967375c","system_id":"levelo_inurba_marseille","lat":43.24197,"lon":5.39707,"is_reserved":false,"is_disabled":false,"rental_uris":{"android":"levelo://app?vid=dc48b248-ccee-4808-9383-7059f967375c","ios":"levelo://app?vid=dc48b248-ccee-4808-9383-7059f967375c"},"vehicle_type_id":"4","last_reported":1742652529,"current_range_meters":15200,"station_id":"ce4bhn12rcd13ifvqgpg","pricing_plan_id":"cebpf4jnsgd1na2vs0mg"},{"bike_id":"83d9caaa-6c24-4c5e-a3c8-00405c5e5ad9","system_id":"levelo_inurba_marseille","lat":43.23971,"lon":5.36618,"is_reserved":false,"is_disabled":false,"rental_uris":{"android":"levelo://app?vid=83d9caaa-6c24-4c5e-a3c8-00405c5e5ad9","ios":"levelo://app?vid=83d9caaa-6c24-4c5e-a3c8-00405c5e5ad9"},"vehicle_type_id":"4","last_reported":1742652529,"current_range_meters":16000,"station_id":"ce4bhi12rcd13ifvqfp0","pricing_plan_id":"cebpf4jnsgd1na2vs0mg"},{"bike_id":"f160fbe8-2553-4ae3-b49b-5277cf022880","system_id":"levelo_inurba_marseille","lat":43.30151,"lon":5.37424,"is_reserved":false,"is_disabled":false,"rental_uris":{"android":"levelo://app?vid=f160fbe8-2553-4ae3-b49b-5277cf022880","ios":"levelo://app?vid=f160fbe8-2553-4ae3-b49b-5277cf022880"},"vehicle_type_id":"4","last_reported":1742652529,"current_range_meters":16000,"station_id":"ce4bgs92rcd13ifvqcc0","pricing_plan_id":"cebpf4jnsgd1na2vs0mg"},{"bike_id":"05196e82-2b3b-46d7-ab3e-37cd98e7884a","system_id":"levelo_inurba_marseille","lat":43.32653,"lon":5.41004,"is_reserved":false,"is_disabled":false,"rental_uris":{"android":"levelo://app?vid=05196e82-2b3b-46d7-ab3e-37cd98e7884a","ios":"levelo://app?vid=05196e82-2b3b-46d7-ab3e-37cd98e7884a"},"vehicle_type_id":"4","last_reported":1742652529,"current_range_meters":16000,"station_id":"ce4bhpp2rcd13ifvqhgg","pricing_plan_id":"cebpf4jnsgd1na2vs0mg"},{"bike_id":"5208868e-cde3-45d4-a2b9-a921857adb02","system_id":"levelo_inurba_marseille","lat":43.25113,"lon":5.40328,"is_reserved":false,"is_disabled":false,"rental_uris":{"android":"levelo://app?vid=5208868e-cde3-45d4-a2b9-a921857adb02","ios":"levelo://app?vid=5208868e-cde3-45d4-a2b9-a921857adb02"},"vehicle_type_id":"4","last_reported":1742652529,"current_range_meters":16000,"station_id":"ce4bhlh2rcd13ifvqgig","pricing_plan_id":"cebpf4jnsgd1na2vs0mg"},{"bike_id":"7b75d449-7c71-498f-b2ce-f002530eba03","system_id":"levelo_inurba_marseille","lat":43.30143,"lon":5.37415,"is_reserved":false,"is_disabled":false,"rental_uris":{"android":"levelo://app?vid=7b75d449-7c71-498f-b2ce-f002530eba03","ios":"levelo://app?vid=7b75d449-7c71-498f-b2ce-f002530eba03"},"vehicle_type_id":"4","last_reported":1742652529,"current_range_meters":16000,"station_id":"ce4bgs92rcd13ifvqcc0","pricing_plan_id":"cebpf4jnsgd1na2vs0mg"},{"bike_id":"751ff1ed-b498-4578-9bd4-943bf6c9d8eb","system_id":"levelo_inurba_marseille","lat":43.23191,"lon":5.3556,"is_reserved":false,"is_disabled":false,"rental_uris":{"android":"levelo://app?vid=751ff1ed-b498-4578-9bd4-943bf6c9d8eb","ios":"levelo://app?vid=751ff1ed-b498-4578-9bd4-943bf6c9d8eb"},"vehicle_type_id":"4","last_reported":1742652529,"current_range_meters":16000,"station_id":"ce4bhu92rcd13ifvqi70","pricing_plan_id":"cebpf4jnsgd1na2vs0mg"},{"bike_id":"9694aed1-f1a4-4d6f-a6e5-fb006029c59e","system_id":"levelo_inurba_marseille","lat":43.29923,"lon":5.37473,"is_reserved":false,"is_disabled":false,"rental_uris":{"android":"levelo://app?vid=9694aed1-f1a4-4d6f-a6e5-fb006029c59e","ios":"levelo://app?vid=9694aed1-f1a4-4d6f-a6e5-fb006029c59e"},"vehicle_type_id":"4","last_reported":1742652529,"current_range_meters":16000,"station_id":"ce4bgjh2rcd13ifvqbg0","pricing_plan_id":"cebpf4jnsgd1na2vs0mg"},{"bike_id":"07541760-82c4-4d38-b58c-85ffff07e965","system_id":"levelo_inurba_marseille","lat":43.23957,"lon":5.36638,"is_reserved":false,"is_disabled":false,"rental_uris":{"android":"levelo://app?vid=07541760-82c4-4d38-b58c-85ffff07e965","ios":"levelo://app?vid=07541760-82c4-4d38-b58c-85ffff07e965"},"vehicle_type_id":"4","last_reported":1742652529,"current_range_meters":16000,"station_id":"ce4bhi12rcd13ifvqfp0","pricing_plan_id":"cebpf4jnsgd1na2vs0mg"},{"bike_id":"4c406a29-ee9e-4446-b3db-6d7899ff79a2","system_id":"levelo_inurba_marseille","lat":43.24162,"lon":5.36421,"is_reserved":false,"is_disabled":false,"rental_uris":{"android":"levelo://app?vid=4c406a29-ee9e-4446-b3db-6d7899ff79a2","ios":"levelo://app?vid=4c406a29-ee9e-4446-b3db-6d7899ff79a2"},"vehicle_type_id":"4","last_reported":1742652529,"current_range_meters":16000,"station_id":"cpo36qri1sfpv3e86is0","pricing_plan_id":"cebpf4jnsgd1na2vs0mg"},{"bike_id":"f50a2da9-11b4-4844-9005-67718165bb4b","system_id":"levelo_inurba_marseille","lat":43.29296,"lon":5.37459,"is_reserved":false,"is_disabled":false,"rental_uris":{"android":"levelo://app?vid=f50a2da9-11b4-4844-9005-67718165bb4b","ios":"levelo://app?vid=f50a2da9-11b4-4844-9005-67718165bb4b"},"vehicle_type_id":"4","last_reported":1742652529,"current_range_meters":16000,"station_id":"ce4bgi12rcd13ifvqb70","pricing_plan_id":"cebpf4jnsgd1na2vs0mg"},{"bike_id":"7acd2d17-0b93-4578-b8b7-3ab0540e9541","system_id":"levelo_inurba_marseille","lat":43.2842,"lon":5.34965,"is_reserved":false,"is_disabled":false,"rental_uris":{"android":"levelo://app?vid=7acd2d17-0b93-4578-b8b7-3ab0540e9541","ios":"levelo://app?vid=7acd2d17-0b93-4578-b8b7-3ab0540e9541"},"vehicle_type_id":"4","last_reported":1742652529,"current_range_meters":16400,"station_id":"ce4bhbh2rcd13ifvqepg","pricing_plan_id":"cebpf4jnsgd1na2vs0mg"},{"bike_id":"e41bf9f2-5cdf-4a27-9e19-85dd8eb5dce8","system_id":"levelo_inurba_marseille","lat":43.30149,"lon":5.37422,"is_reserved":false,"is_disabled":false,"rental_uris":{"android":"levelo://app?vid=e41bf9f2-5cdf-4a27-9e19-85dd8eb5dce8","ios":"levelo://app?vid=e41bf9f2-5cdf-4a27-9e19-85dd8eb5dce8"},"vehicle_type_id":"4","last_reported":1742652529,"current_range_meters":16400,"station_id":"ce4bgs92rcd13ifvqcc0","pricing_plan_id":"cebpf4jnsgd1na2vs0mg"},{"bike_id":"0af74a1a-d6e1-4579-b1c6-27467ba405fe","system_id":"levelo_inurba_marseille","lat":43.29902,"lon":5.39761,"is_reserved":false,"is_disabled":true,"rental_uris":{"android":"levelo://app?vid=0af74a1a-d6e1-4579-b1c6-27467ba405fe","ios":"levelo://app?vid=0af74a1a-d6e1-4579-b1c6-27467ba405fe"},"vehicle_type_id":"4","last_reported":1742652529,"current_range_meters":16400,"station_id":"ce4bh0h2rcd13ifvqd50","pricing_plan_id":"cebpf4jnsgd1na2vs0mg"},{"bike_id":"c5227f22-fe69-4ef2-add7-7a3eaff78916","system_id":"levelo_inurba_marseille","lat":43.29508,"lon":5.37512,"is_reserved":false,"is_disabled":false,"rental_uris":{"android":"levelo://app?vid=c5227f22-fe69-4ef2-add7-7a3eaff78916","ios":"levelo://app?vid=c5227f22-fe69-4ef2-add7-7a3eaff78916"},"vehicle_type_id":"4","last_reported":1742652529,"current_range_meters":16400,"station_id":"ce4bgkp2rcd13ifvqbmg","pricing_plan_id":"cebpf4jnsgd1na2vs0mg"},{"bike_id":"8e467911-e66c-4a6b-8228-6c38a344fc87","system_id":"levelo_inurba_marseille","lat":43.30541,"lon":5.36538,"is_reserved":false,"is_disabled":false,"rental_uris":{"android":"levelo://app?vid=8e467911-e66c-4a6b-8228-6c38a344fc87","ios":"levelo://app?vid=8e467911-e66c-4a6b-8228-6c38a344fc87"},"vehicle_type_id":"4","last_reported":1742652529,"current_range_meters":16400,"station_id":"ce4bgs12rcd13ifvqcag","pricing_plan_id":"cebpf4jnsgd1na2vs0mg"},{"bike_id":"dd5d6d06-0e34-4684-b128-c77a8d50ab86","system_id":"levelo_inurba_marseille","lat":43.30141,"lon":5.37416,"is_reserved":false,"is_disabled":false,"rental_uris":{"android":"levelo://app?vid=dd5d6d06-0e34-4684-b128-c77a8d50ab86","ios":"levelo://app?vid=dd5d6d06-0e34-4684-b128-c77a8d50ab86"},"vehicle_type_id":"4","last_reported":1742652529,"current_range_meters":16400,"station_id":"ce4bgs92rcd13ifvqcc0","pricing_plan_id":"cebpf4jnsgd1na2vs0mg"},{"bike_id":"b6481d08-2d72-4e43-b8a6-7e58f8f29bc4","system_id":"levelo_inurba_marseille","lat":43.30372,"lon":5.42482,"is_reserved":false,"is_disabled":false,"rental_uris":{"android":"levelo://app?vid=b6481d08-2d72-4e43-b8a6-7e58f8f29bc4","ios":"levelo://app?vid=b6481d08-2d72-4e43-b8a6-7e58f8f29bc4"},"vehicle_type_id":"4","last_reported":1742652529,"current_range_meters":16400,"station_id":"ce4bhoh2rcd13ifvqh6g","pricing_plan_id":"cebpf4jnsgd1na2vs0mg"},{"bike_id":"23355478-830a-4a1f-8b14-9c6b1553c7a4","system_id":"levelo_inurba_marseille","lat":43.24391,"lon":5.37064,"is_reserved":false,"is_disabled":false,"rental_uris":{"android":"levelo://app?vid=23355478-830a-4a1f-8b14-9c6b1553c7a4","ios":"levelo://app?vid=23355478-830a-4a1f-8b14-9c6b1553c7a4"},"vehicle_type_id":"4","last_reported":1742652529,"current_range_meters":16400,"station_id":"ce4bhhh2rcd13ifvqfk0","pricing_plan_id":"cebpf4jnsgd1na2vs0mg"},{"bike_id":"79e25882-b9d1-4b2e-8582-65874dcda4a9","system_id":"levelo_inurba_marseille","lat":43.29914,"lon":5.37476,"is_reserved":false,"is_disabled":false,"rental_uris":{"android":"levelo://app?vid=79e25882-b9d1-4b2e-8582-65874dcda4a9","ios":"levelo://app?vid=79e25882-b9d1-4b2e-8582-65874dcda4a9"},"vehicle_type_id":"4","last_reported":1742652529,"current_range_meters":16400,"station_id":"ce4bgjh2rcd13ifvqbg0","pricing_plan_id":"cebpf4jnsgd1na2vs0mg"},{"bike_id":"1fee47b5-fab4-4ec1-a11f-e919827cdddc","system_id":"levelo_inurba_marseille","lat":43.32367,"lon":5.36773,"is_reserved":false,"is_disabled":false,"rental_uris":{"android":"levelo://app?vid=1fee47b5-fab4-4ec1-a11f-e919827cdddc","ios":"levelo://app?vid=1fee47b5-fab4-4ec1-a11f-e919827cdddc"},"vehicle_type_id":"4","last_reported":1742652529,"current_range_meters":16400,"station_id":"ce4bhsh2rcd13ifvqi2g","pricing_plan_id":"cebpf4jnsgd1na2vs0mg"},{"bike_id":"f5e67df2-634b-4b3a-b33a-d1730d5d5b54","system_id":"levelo_inurba_marseille","lat":43.3374,"lon":5.39168,"is_reserved":false,"is_disabled":false,"rental_uris":{"android":"levelo://app?vid=f5e67df2-634b-4b3a-b33a-d1730d5d5b54","ios":"levelo://app?vid=f5e67df2-634b-4b3a-b33a-d1730d5d5b54"},"vehicle_type_id":"4","last_reported":1742652529,"current_range_meters":16400,"station_id":"ce4bhr92rcd13ifvqhsg","pricing_plan_id":"cebpf4jnsgd1na2vs0mg"},{"bike_id":"ee812a97-d7cd-4032-b13b-89c9c4a9bc67","system_id":"levelo_inurba_marseille","lat":43.29595,"lon":5.36742,"is_reserved":false,"is_disabled":false,"rental_uris":{"android":"levelo://app?vid=ee812a97-d7cd-4032-b13b-89c9c4a9bc67","ios":"levelo://app?vid=ee812a97-d7cd-4032-b13b-89c9c4a9bc67"},"vehicle_type_id":"4","last_reported":1742652529,"current_range_meters":16400,"station_id":"ce4bgph2rcd13ifvqc2g","pricing_plan_id":"cebpf4jnsgd1na2vs0mg"},{"bike_id":"aaadcc7d-2d1c-4d3e-bf59-883d07ee3523","system_id":"levelo_inurba_marseille","lat":43.23153,"lon":5.43728,"is_reserved":false,"is_disabled":false,"rental_uris":{"android":"levelo://app?vid=aaadcc7d-2d1c-4d3e-bf59-883d07ee3523","ios":"levelo://app?vid=aaadcc7d-2d1c-4d3e-bf59-883d07ee3523"},"vehicle_type_id":"4","last_reported":1742652529,"current_range_meters":16400,"station_id":"ce4bhmp2rcd13ifvqgog","pricing_plan_id":"cebpf4jnsgd1na2vs0mg"},{"bike_id":"f8ff41b7-94c3-4164-990c-0c31908da696","system_id":"levelo_inurba_marseille","lat":43.23058,"lon":5.35492,"is_reserved":false,"is_disabled":false,"rental_uris":{"android":"levelo://app?vid=f8ff41b7-94c3-4164-990c-0c31908da696","ios":"levelo://app?vid=f8ff41b7-94c3-4164-990c-0c31908da696"},"vehicle_type_id":"4","last_reported":1742652529,"current_range_meters":16400,"station_id":"cpo3342slgdg3j2ifvpg","pricing_plan_id":"cebpf4jnsgd1na2vs0mg"},{"bike_id":"0a040448-b8a4-44c3-8931-064cc2f17f22","system_id":"levelo_inurba_marseille","lat":43.30214,"lon":5.39477,"is_reserved":false,"is_disabled":false,"rental_uris":{"android":"levelo://app?vid=0a040448-b8a4-44c3-8931-064cc2f17f22","ios":"levelo://app?vid=0a040448-b8a4-44c3-8931-064cc2f17f22"},"vehicle_type_id":"4","last_reported":1742652529,"current_range_meters":16400,"station_id":"ce4bh0p2rcd13ifvqd70","pricing_plan_id":"cebpf4jnsgd1na2vs0mg"},{"bike_id":"5f057e05-88ef-43f2-a315-beafe07070d0","system_id":"levelo_inurba_marseille","lat":43.23188,"lon":5.39981,"is_reserved":false,"is_disabled":false,"rental_uris":{"android":"levelo://app?vid=5f057e05-88ef-43f2-a315-beafe07070d0","ios":"levelo://app?vid=5f057e05-88ef-43f2-a315-beafe07070d0"},"vehicle_type_id":"4","last_reported":1742652529,"current_range_meters":16800,"station_id":"ce4bhn12rcd13ifvqgqg","pricing_plan_id":"cebpf4jnsgd1na2vs0mg"},{"bike_id":"cd897869-d51d-467c-9826-c044773d3f8c","system_id":"levelo_inurba_marseille","lat":43.24163,"lon":5.36407,"is_reserved":false,"is_disabled":false,"rental_uris":{"android":"levelo://app?vid=cd897869-d51d-467c-9826-c044773d3f8c","ios":"levelo://app?vid=cd897869-d51d-467c-9826-c044773d3f8c"},"vehicle_type_id":"4","last_reported":1742652529,"current_range_meters":16800,"station_id":"cpo36qri1sfpv3e86is0","pricing_plan_id":"cebpf4jnsgd1na2vs0mg"},{"bike_id":"e2b68c00-ea55-4d0f-ae98-6403b351276c","system_id":"levelo_inurba_marseille","lat":43.2307,"lon":5.3549,"is_reserved":false,"is_disabled":false,"rental_uris":{"android":"levelo://app?vid=e2b68c00-ea55-4d0f-ae98-6403b351276c","ios":"levelo://app?vid=e2b68c00-ea55-4d0f-ae98-6403b351276c"},"vehicle_type_id":"4","last_reported":1742652529,"current_range_meters":16800,"station_id":"cpo3342slgdg3j2ifvpg","pricing_plan_id":"cebpf4jnsgd1na2vs0mg"},{"bike_id":"0edca28e-bb2a-4eed-a9fd-458177a3a120","system_id":"levelo_inurba_marseille","lat":43.29572,"lon":5.37518,"is_reserved":false,"is_disabled":false,"rental_uris":{"android":"levelo://app?vid=0edca28e-bb2a-4eed-a9fd-458177a3a120","ios":"levelo://app?vid=0edca28e-bb2a-4eed-a9fd-458177a3a120"},"vehicle_type_id":"4","last_reported":1742652529,"current_range_meters":16800,"station_id":"ce4bgh92rcd13ifvqb50","pricing_plan_id":"cebpf4jnsgd1na2vs0mg"},{"bike_id":"4f567ab7-9eff-40bf-a3a6-c9fd8a1e4e42","system_id":"levelo_inurba_marseille","lat":43.28414,"lon":5.34981,"is_reserved":false,"is_disabled":false,"rental_uris":{"android":"levelo://app?vid=4f567ab7-9eff-40bf-a3a6-c9fd8a1e4e42","ios":"levelo://app?vid=4f567ab7-9eff-40bf-a3a6-c9fd8a1e4e42"},"vehicle_type_id":"4","last_reported":1742652529,"current_range_meters":16800,"station_id":"ce4bhbh2rcd13ifvqepg","pricing_plan_id":"cebpf4jnsgd1na2vs0mg"},{"bike_id":"f657da43-9a05-4822-9c77-ad8671579423","system_id":"levelo_inurba_marseille","lat":43.29577,"lon":5.3996,"is_reserved":false,"is_disabled":true,"rental_uris":{"android":"levelo://app?vid=f657da43-9a05-4822-9c77-ad8671579423","ios":"levelo://app?vid=f657da43-9a05-4822-9c77-ad8671579423"},"vehicle_type_id":"4","last_reported":1742652529,"current_range_meters":16800,"station_id":"ce4bh312rcd13ifvqdj0","pricing_plan_id":"cebpf4jnsgd1na2vs0mg"},{"bike_id":"e7f36315-33b7-4281-a35b-834987bb0230","system_id":"levelo_inurba_marseille","lat":43.29573,"lon":5.37498,"is_reserved":false,"is_disabled":false,"rental_uris":{"android":"levelo://app?vid=e7f36315-33b7-4281-a35b-834987bb0230","ios":"levelo://app?vid=e7f36315-33b7-4281-a35b-834987bb0230"},"vehicle_type_id":"4","last_reported":1742652529,"current_range_meters":16800,"station_id":"ce4bgh92rcd13ifvqb50","pricing_plan_id":"cebpf4jnsgd1na2vs0mg"},{"bike_id":"2b573b71-a392-4ec4-a047-044eb75af57b","system_id":"levelo_inurba_marseille","lat":43.30182,"lon":5.36622,"is_reserved":false,"is_disabled":false,"rental_uris":{"android":"levelo://app?vid=2b573b71-a392-4ec4-a047-044eb75af57b","ios":"levelo://app?vid=2b573b71-a392-4ec4-a047-044eb75af57b"},"vehicle_type_id":"4","last_reported":1742652529,"current_range_meters":16800,"station_id":"ce4bgrh2rcd13ifvqc8g","pricing_plan_id":"cebpf4jnsgd1na2vs0mg"},{"bike_id":"185fbe3b-beec-4e8d-a0fb-f3a643549f5b","system_id":"levelo_inurba_marseille","lat":43.31596,"lon":5.37228,"is_reserved":false,"is_disabled":false,"rental_uris":{"android":"levelo://app?vid=185fbe3b-beec-4e8d-a0fb-f3a643549f5b","ios":"levelo://app?vid=185fbe3b-beec-4e8d-a0fb-f3a643549f5b"},"vehicle_type_id":"4","last_reported":1742652529,"current_range_meters":17200,"station_id":"","pricing_plan_id":"cebpf4jnsgd1na2vs0mg"},{"bike_id":"9b0392c0-63f4-4a65-bc75-85417b5ebec5","system_id":"levelo_inurba_marseille","lat":43.29932,"lon":5.3751,"is_reserved":false,"is_disabled":false,"rental_uris":{"android":"levelo://app?vid=9b0392c0-63f4-4a65-bc75-85417b5ebec5","ios":"levelo://app?vid=9b0392c0-63f4-4a65-bc75-85417b5ebec5"},"vehicle_type_id":"4","last_reported":1742652529,"current_range_meters":17200,"station_id":"ce4bgjh2rcd13ifvqbg0","pricing_plan_id":"cebpf4jnsgd1na2vs0mg"},{"bike_id":"5c223777-549b-4d09-9654-1b617afc66e4","system_id":"levelo_inurba_marseille","lat":43.29857,"lon":5.36311,"is_reserved":false,"is_disabled":false,"rental_uris":{"android":"levelo://app?vid=5c223777-549b-4d09-9654-1b617afc66e4","ios":"levelo://app?vid=5c223777-549b-4d09-9654-1b617afc66e4"},"vehicle_type_id":"4","last_reported":1742652529,"current_range_meters":17200,"station_id":"ce4bgpp2rcd13ifvqc3g","pricing_plan_id":"cebpf4jnsgd1na2vs0mg"},{"bike_id":"988e44be-e99d-4e4f-b608-fc91a94b85aa","system_id":"levelo_inurba_marseille","lat":43.24075,"lon":5.37763,"is_reserved":false,"is_disabled":false,"rental_uris":{"android":"levelo://app?vid=988e44be-e99d-4e4f-b608-fc91a94b85aa","ios":"levelo://app?vid=988e44be-e99d-4e4f-b608-fc91a94b85aa"},"vehicle_type_id":"4","last_reported":1742652529,"current_range_meters":17200,"station_id":"ce4bhnp2rcd13ifvqgvg","pricing_plan_id":"cebpf4jnsgd1na2vs0mg"},{"bike_id":"73d92846-30fc-4563-932e-0012707ca463","system_id":"levelo_inurba_marseille","lat":43.27824,"lon":5.40711,"is_reserved":false,"is_disabled":false,"rental_uris":{"android":"levelo://app?vid=73d92846-30fc-4563-932e-0012707ca463","ios":"levelo://app?vid=73d92846-30fc-4563-932e-0012707ca463"},"vehicle_type_id":"4","last_reported":1742652529,"current_range_meters":17600,"station_id":"ce4bhnh2rcd13ifvqgtg","pricing_plan_id":"cebpf4jnsgd1na2vs0mg"},{"bike_id":"9f1aa6e3-12d9-4363-807d-3fbd3cb89d26","system_id":"levelo_inurba_marseille","lat":43.30484,"lon":5.37908,"is_reserved":false,"is_disabled":false,"rental_uris":{"android":"levelo://app?vid=9f1aa6e3-12d9-4363-807d-3fbd3cb89d26","ios":"levelo://app?vid=9f1aa6e3-12d9-4363-807d-3fbd3cb89d26"},"vehicle_type_id":"4","last_reported":1742652529,"current_range_meters":17600,"station_id":"ce4bgup2rcd13ifvqcn0","pricing_plan_id":"cebpf4jnsgd1na2vs0mg"},{"bike_id":"b757f5df-c902-43dd-8b0b-214a953b0b13","system_id":"levelo_inurba_marseille","lat":43.23151,"lon":5.43713,"is_reserved":false,"is_disabled":false,"rental_uris":{"android":"levelo://app?vid=b757f5df-c902-43dd-8b0b-214a953b0b13","ios":"levelo://app?vid=b757f5df-c902-43dd-8b0b-214a953b0b13"},"vehicle_type_id":"4","last_reported":1742652529,"current_range_meters":17600,"station_id":"ce4bhmp2rcd13ifvqgog","pricing_plan_id":"cebpf4jnsgd1na2vs0mg"},{"bike_id":"2d7c815c-5902-4c78-a7d5-20ec5920b85f","system_id":"levelo_inurba_marseille","lat":43.27997,"lon":5.40022,"is_reserved":false,"is_disabled":false,"rental_uris":{"android":"levelo://app?vid=2d7c815c-5902-4c78-a7d5-20ec5920b85f","ios":"levelo://app?vid=2d7c815c-5902-4c78-a7d5-20ec5920b85f"},"vehicle_type_id":"4","last_reported":1742652529,"current_range_meters":17600,"station_id":"ce4bho92rcd13ifvqh4g","pricing_plan_id":"cebpf4jnsgd1na2vs0mg"},{"bike_id":"b97b8876-d969-4576-b7ab-db9b2177d974","system_id":"levelo_inurba_marseille","lat":43.27632,"lon":5.38873,"is_reserved":false,"is_disabled":false,"rental_uris":{"android":"levelo://app?vid=b97b8876-d969-4576-b7ab-db9b2177d974","ios":"levelo://app?vid=b97b8876-d969-4576-b7ab-db9b2177d974"},"vehicle_type_id":"4","last_reported":1742652529,"current_range_meters":17600,"station_id":"","pricing_plan_id":"cebpf4jnsgd1na2vs0mg"},{"bike_id":"3bfbd693-4245-4281-88bd-3df0f5f2b072","system_id":"levelo_inurba_marseille","lat":43.24162,"lon":5.36409,"is_reserved":false,"is_disabled":false,"rental_uris":{"android":"levelo://app?vid=3bfbd693-4245-4281-88bd-3df0f5f2b072","ios":"levelo://app?vid=3bfbd693-4245-4281-88bd-3df0f5f2b072"},"vehicle_type_id":"4","last_reported":1742652529,"current_range_meters":17600,"station_id":"cpo36qri1sfpv3e86is0","pricing_plan_id":"cebpf4jnsgd1na2vs0mg"},{"bike_id":"8ac76298-3375-4b96-8a90-9315b1510fa4","system_id":"levelo_inurba_marseille","lat":43.27829,"lon":5.4073,"is_reserved":false,"is_disabled":true,"rental_uris":{"android":"levelo://app?vid=8ac76298-3375-4b96-8a90-9315b1510fa4","ios":"levelo://app?vid=8ac76298-3375-4b96-8a90-9315b1510fa4"},"vehicle_type_id":"4","last_reported":1742652529,"current_range_meters":17600,"station_id":"ce4bhnh2rcd13ifvqgtg","pricing_plan_id":"cebpf4jnsgd1na2vs0mg"},{"bike_id":"84848b31-9669-4fe9-b544-4603f4cc3125","system_id":"levelo_inurba_marseille","lat":43.2607,"lon":5.39391,"is_reserved":false,"is_disabled":false,"rental_uris":{"android":"levelo://app?vid=84848b31-9669-4fe9-b544-4603f4cc3125","ios":"levelo://app?vid=84848b31-9669-4fe9-b544-4603f4cc3125"},"vehicle_type_id":"4","last_reported":1742652529,"current_range_meters":17600,"station_id":"ce4bhh92rcd13ifvqfj0","pricing_plan_id":"cebpf4jnsgd1na2vs0mg"},{"bike_id":"c700eee3-fdc2-4ac8-9026-8c342356f994","system_id":"levelo_inurba_marseille","lat":43.27572,"lon":5.38431,"is_reserved":false,"is_disabled":false,"rental_uris":{"android":"levelo://app?vid=c700eee3-fdc2-4ac8-9026-8c342356f994","ios":"levelo://app?vid=c700eee3-fdc2-4ac8-9026-8c342356f994"},"vehicle_type_id":"4","last_reported":1742652529,"current_range_meters":17600,"station_id":"ce4bhh92rcd13ifvqfi0","pricing_plan_id":"cebpf4jnsgd1na2vs0mg"},{"bike_id":"73e8f034-8bc2-406f-8fdb-b367ec7748cd","system_id":"levelo_inurba_marseille","lat":43.29096,"lon":5.38127,"is_reserved":false,"is_disabled":false,"rental_uris":{"android":"levelo://app?vid=73e8f034-8bc2-406f-8fdb-b367ec7748cd","ios":"levelo://app?vid=73e8f034-8bc2-406f-8fdb-b367ec7748cd"},"vehicle_type_id":"4","last_reported":1742652529,"current_range_meters":17600,"station_id":"ce4bh512rcd13ifvqe2g","pricing_plan_id":"cebpf4jnsgd1na2vs0mg"},{"bike_id":"0b1dc631-c9e7-4faf-bb69-8f994665189e","system_id":"levelo_inurba_marseille","lat":43.25829,"lon":5.39424,"is_reserved":false,"is_disabled":false,"rental_uris":{"android":"levelo://app?vid=0b1dc631-c9e7-4faf-bb69-8f994665189e","ios":"levelo://app?vid=0b1dc631-c9e7-4faf-bb69-8f994665189e"},"vehicle_type_id":"4","last_reported":1742652529,"current_range_meters":17600,"station_id":"ce4bhip2rcd13ifvqft0","pricing_plan_id":"cebpf4jnsgd1na2vs0mg"},{"bike_id":"debcd884-a3cd-4efb-af69-3dfb45a8e5d3","system_id":"levelo_inurba_marseille","lat":43.29002,"lon":5.35619,"is_reserved":false,"is_disabled":false,"rental_uris":{"android":"levelo://app?vid=debcd884-a3cd-4efb-af69-3dfb45a8e5d3","ios":"levelo://app?vid=debcd884-a3cd-4efb-af69-3dfb45a8e5d3"},"vehicle_type_id":"4","last_reported":1742652529,"current_range_meters":17600,"station_id":"ce4bhb92rcd13ifvqen0","pricing_plan_id":"cebpf4jnsgd1na2vs0mg"},{"bike_id":"df1ddf11-1144-4b68-8219-400ef4c644d5","system_id":"levelo_inurba_marseille","lat":43.29852,"lon":5.36288,"is_reserved":false,"is_disabled":false,"rental_uris":{"android":"levelo://app?vid=df1ddf11-1144-4b68-8219-400ef4c644d5","ios":"levelo://app?vid=df1ddf11-1144-4b68-8219-400ef4c644d5"},"vehicle_type_id":"4","last_reported":1742652529,"current_range_meters":17600,"station_id":"ce4bgpp2rcd13ifvqc3g","pricing_plan_id":"cebpf4jnsgd1na2vs0mg"},{"bike_id":"3ee16eec-7b27-4483-bd0b-e7ab293982d2","system_id":"levelo_inurba_marseille","lat":43.30185,"lon":5.36609,"is_reserved":false,"is_disabled":false,"rental_uris":{"android":"levelo://app?vid=3ee16eec-7b27-4483-bd0b-e7ab293982d2","ios":"levelo://app?vid=3ee16eec-7b27-4483-bd0b-e7ab293982d2"},"vehicle_type_id":"4","last_reported":1742652529,"current_range_meters":17600,"station_id":"ce4bgrh2rcd13ifvqc8g","pricing_plan_id":"cebpf4jnsgd1na2vs0mg"},{"bike_id":"17238c44-02e8-4ba3-abe3-5ae6a9cab49f","system_id":"levelo_inurba_marseille","lat":43.31771,"lon":5.38983,"is_reserved":false,"is_disabled":true,"rental_uris":{"android":"levelo://app?vid=17238c44-02e8-4ba3-abe3-5ae6a9cab49f","ios":"levelo://app?vid=17238c44-02e8-4ba3-abe3-5ae6a9cab49f"},"vehicle_type_id":"4","last_reported":1742652529,"current_range_meters":18000,"station_id":"ce4bhqp2rcd13ifvqhng","pricing_plan_id":"cebpf4jnsgd1na2vs0mg"},{"bike_id":"125724fc-024f-4ceb-b71e-c2d526d7828e","system_id":"levelo_inurba_marseille","lat":43.28007,"lon":5.39989,"is_reserved":false,"is_disabled":false,"rental_uris":{"android":"levelo://app?vid=125724fc-024f-4ceb-b71e-c2d526d7828e","ios":"levelo://app?vid=125724fc-024f-4ceb-b71e-c2d526d7828e"},"vehicle_type_id":"4","last_reported":1742652529,"current_range_meters":18000,"station_id":"ce4bho92rcd13ifvqh4g","pricing_plan_id":"cebpf4jnsgd1na2vs0mg"},{"bike_id":"5835f47f-952e-4bfe-8cb6-cecb9e4a1fdf","system_id":"levelo_inurba_marseille","lat":43.282625,"lon":5.350622,"is_reserved":false,"is_disabled":false,"rental_uris":{"android":"levelo://app?vid=5835f47f-952e-4bfe-8cb6-cecb9e4a1fdf","ios":"levelo://app?vid=5835f47f-952e-4bfe-8cb6-cecb9e4a1fdf"},"vehicle_type_id":"4","last_reported":1742652529,"current_range_meters":18800,"station_id":"ce4bgkp2rcd13ifvqbmg","pricing_plan_id":"cebpf4jnsgd1na2vs0mg"},{"bike_id":"aeae7e42-a5a4-4d74-9af2-b34f1e1dcdcc","system_id":"levelo_inurba_marseille","lat":43.29518,"lon":5.37501,"is_reserved":false,"is_disabled":false,"rental_uris":{"android":"levelo://app?vid=aeae7e42-a5a4-4d74-9af2-b34f1e1dcdcc","ios":"levelo://app?vid=aeae7e42-a5a4-4d74-9af2-b34f1e1dcdcc"},"vehicle_type_id":"4","last_reported":1742652529,"current_range_meters":18800,"station_id":"ce4bgkp2rcd13ifvqbmg","pricing_plan_id":"cebpf4jnsgd1na2vs0mg"},{"bike_id":"362ce256-d873-44d5-8d0c-8eb3060da6b1","system_id":"levelo_inurba_marseille","lat":43.281578,"lon":5.426393,"is_reserved":false,"is_disabled":false,"rental_uris":{"android":"levelo://app?vid=362ce256-d873-44d5-8d0c-8eb3060da6b1","ios":"levelo://app?vid=362ce256-d873-44d5-8d0c-8eb3060da6b1"},"vehicle_type_id":"4","last_reported":1742652529,"current_range_meters":18800,"station_id":"ce4bhnh2rcd13ifvqgug","pricing_plan_id":"cebpf4jnsgd1na2vs0mg"},