{"last_updated":1701446937,"ttl":30,"version":"2.2","data":{"bikes":[{"bike_id":"3b70541b-c94b-40c4-a8af-6d33ea678dc9","system_id":"levelo_inurba_marseille","lat":43.312253,"lon":5.36842,"is_reserved":false,"is_disabled":false,"rental_uris":{"android":"levelo://app?vid=3b70541b-c94b-40c4-a8af-6d33ea678dc9","ios":"levelo://app?vid=3b70541b-c94b-40c4-a8af-6d33ea678dc9"},"vehicle_type_id":"4","last_reported":1701446937,"current_range_meters":0,"station_id":"ce4bgl92rcd13ifvqbq0","pricing_plan_id":"free"},{"bike_id":"2b235e74-5590-4d0c-b694-6a04d88d1c66","system_id":"levelo_inurba_marseille","lat":43.309039,"lon":5.371797,"is_reserved":false,"is_disabled":false,"rental_uris":{"android":"levelo://app?vid=2b235e74-5590-4d0c-b694-6a04d88d1c66","ios":"levelo://app?vid=2b235e74-5590-4d0c-b694-6a04d88d1c66"},"vehicle_type_id":"4","last_reported":1701446937,"current_range_meters":0,"station_id":"ce4bguh2rcd13ifvqckg","pricing_plan_id":"free"},{"bike_id":"78168e0c-c1e3-4d6c-b6be-f72972f55f7a","system_id":"levelo_inurba_marseille","lat":43.305368,"lon":5.367343,"is_reserved":false,"is_disabled":false,"rental_uris":{"android":"levelo://app?vid=78168e0c-c1e3-4d6c-b6be-f72972f55f7a","ios":"levelo://app?vid=78168e0c-c1e3-4d6c-b6be-f72972f55f7a"},"vehicle_type_id":"4","last_reported":1701446937,"current_range_meters":17600,"station_id":"ce4bgrp2rcd13ifvqc9g","pricing_plan_id":"free"},{"bike_id":"d19f9c27-9704-4d2d-b7a7-80bc2e61fc6a","system_id":"levelo_inurba_marseille","lat":43.305989,"lon":5.37225,"is_reserved":false,"is_disabled":false,"rental_uris":{"android":"levelo://app?vid=d19f9c27-9704-4d2d-b7a7-80bc2e61fc6a","ios":"levelo://app?vid=d19f9c27-9704-4d2d-b7a7-80bc2e61fc6a"},"vehicle_type_id":"4","last_reported":1701446937,"current_range_meters":20800,"station_id":"ce4bgqh2rcd13ifvqc4g","pricing_plan_id":"free"},{"bike_id":"3e583c49-1113-45db-b928-82fb549743bb","system_id":"levelo_inurba_marseille","lat":43.305989,"lon":5.37225,"is_reserved":false,"is_disabled":false,"rental_uris":{"android":"levelo://app?vid=3e583c49-1113-45db-b928-82fb549743bb","ios":"levelo://app?vid=3e583c49-1113-45db-b928-82fb549743bb"},"vehicle_type_id":"4","last_reported":1701446937,"current_range_meters":11200,"station_id":"ce4bgqh2rcd13ifvqc4g","pricing_plan_id":"free"},{"bike_id":"3298d00a-f536-43a8-a582-624a2177c63b","system_id":"levelo_inurba_marseille","lat":43.305989,"lon":5.37225,"is_reserved":false,"is_disabled":false,"rental_uris":{"android":"levelo://app?vid=3298d00a-f536-43a8-a582-624a2177c63b","ios":"levelo://app?vid=3298d00a-f536-43a8-a582-624a2177c63b"},"vehicle_type_id":"4","last_reported":1701446937,"current_range_meters":24000,"station_id":"ce4bgqh2rcd13ifvqc4g","pricing_plan_id":"free"},{"bike_id":"7bdbcfe9-924e-49e5-849f-fb7276f261aa","system_id":"levelo_inurba_marseille","lat":43.310568,"lon":5.377466,"is_reserved":false,"is_disabled":false,"rental_uris":{"android":"levelo://app?vid=7bdbcfe9-924e-49e5-849f-fb7276f261aa","ios":"levelo://app?vid=7bdbcfe9-924e-49e5-849f-fb7276f261aa"},"vehicle_type_id":"4","last_reported":1701446937,"current_range_meters":10400,"station_id":"","pricing_plan_id":"free"},{"bike_id":"5407d0de-7f9c-4b1d-b3f0-a73bd9a0a593","system_id":"levelo_inurba_marseille","lat":43.311125,"lon":5.377624,"is_reserved":false,"is_disabled":false,"rental_uris":{"android":"levelo://app?vid=5407d0de-7f9c-4b1d-b3f0-a73bd9a0a593","ios":"levelo://app?vid=5407d0de-7f9c-4b1d-b3f0-a73bd9a0a593"},"vehicle_type_id":"4","last_reported":1701446937,"current_range_meters":16000,"station_id":"ce4bgt92rcd13ifvqcg0","pricing_plan_id":"free"},{"bike_id":"f3e78d26-def7-4e22-ad54-42ee11372ec6","system_id":"levelo_inurba_marseille","lat":43.30439,"lon":5.36753,"is_reserved":false,"is_disabled":false,"rental_uris":{"android":"levelo://app?vid=f3e78d26-def7-4e22-ad54-42ee11372ec6","ios":"levelo://app?vid=f3e78d26-def7-4e22-ad54-42ee11372ec6"},"vehicle_type_id":"4","last_reported":1701446937,"current_range_meters":27600,"station_id":"","pricing_plan_id":"free"},{"bike_id":"f427a2c3-6e4a-446b-ae2f-9be8aa7f4122","system_id":"levelo_inurba_marseille","lat":43.31719,"lon":5.376813,"is_reserved":false,"is_disabled":false,"rental_uris":{"android":"levelo://app?vid=f427a2c3-6e4a-446b-ae2f-9be8aa7f4122","ios":"levelo://app?vid=f427a2c3-6e4a-446b-ae2f-9be8aa7f4122"},"vehicle_type_id":"4","last_reported":1701446937,"current_range_meters":1200,"station_id":"","pricing_plan_id":"free"},{"bike_id":"e913f328-1e31-4c22-bd87-f809ea246de4","system_id":"levelo_inurba_marseille","lat":43.317168,"lon":5.376883,"is_reserved":false,"is_disabled":false,"rental_uris":{"android":"levelo://app?vid=e913f328-1e31-4c22-bd87-f809ea246de4","ios":"levelo://app?vid=e913f328-1e31-4c22-bd87-f809ea246de4"},"vehicle_type_id":"4","last_reported":1701446937,"current_range_meters":3600,"station_id":"","pricing_plan_id":"free"},{"bike_id":"46251b67-ff86-48e9-89cd-2c7682a1ca52","system_id":"levelo_inurba_marseille","lat":43.317075,"lon":5.377367,"is_reserved":false,"is_disabled":false,"rental_uris":{"android":"levelo://app?vid=46251b67-ff86-48e9-89cd-2c7682a1ca52","ios":"levelo://app?vid=46251b67-ff86-48e9-89cd-2c7682a1ca52"},"vehicle_type_id":"4","last_reported":1701446937,"current_range_meters":14800,"station_id":"ce4bgth2rcd13ifvqch0","pricing_plan_id":"free"},{"bike_id":"5d7024a4-644a-4c27-8dd6-c7a6262abe5b","system_id":"levelo_inurba_marseille","lat":43.317075,"lon":5.377367,"is_reserved":false,"is_disabled":false,"rental_uris":{"android":"levelo://app?vid=5d7024a4-644a-4c27-8dd6-c7a6262abe5b","ios":"levelo://app?vid=5d7024a4-644a-4c27-8dd6-c7a6262abe5b"},"vehicle_type_id":"4","last_reported":1701446937,"current_range_meters":23200,"station_id":"ce4bgth2rcd13ifvqch0","pricing_plan_id":"free"},{"bike_id":"4424e131-6fff-435f-9a49-93f46fb125d5","system_id":"levelo_inurba_marseille","lat":43.317075,"lon":5.377367,"is_reserved":false,"is_disabled":false,"rental_uris":{"android":"levelo://app?vid=4424e131-6fff-435f-9a49-93f46fb125d5","ios":"levelo://app?vid=4424e131-6fff-435f-9a49-93f46fb125d5"},"vehicle_type_id":"4","last_reported":1701446937,"current_range_meters":29200,"station_id":"ce4bgth2rcd13ifvqch0","pricing_plan_id":"free"},{"bike_id":"fb6fd937-527b-4585-9058-0dfdc6436ac8","system_id":"levelo_inurba_marseille","lat":43.31348,"lon":5.37909,"is_reserved":false,"is_disabled":false,"rental_uris":{"android":"levelo://app?vid=fb6fd937-527b-4585-9058-0dfdc6436ac8","ios":"levelo://app?vid=fb6fd937-527b-4585-9058-0dfdc6436ac8"},"vehicle_type_id":"4","last_reported":1701446937,"current_range_meters":25200,"station_id":"","pricing_plan_id":"free"},{"bike_id":"f2ec7737-9aa0-4bb6-9c5b-263a8d91805b","system_id":"levelo_inurba_marseille","lat":43.30824,"lon":5.38177,"is_reserved":false,"is_disabled":false,"rental_uris":{"android":"levelo://app?vid=f2ec7737-9aa0-4bb6-9c5b-263a8d91805b","ios":"levelo://app?vid=f2ec7737-9aa0-4bb6-9c5b-263a8d91805b"},"vehicle_type_id":"4","last_reported":1701446937,"current_range_meters":14800,"station_id":"ce4bgt12rcd13ifvqce0","pricing_plan_id":"free"},{"bike_id":"19dcde97-826d-4c77-b8cf-d90ba7f775b0","system_id":"levelo_inurba_marseille","lat":43.324771,"lon":5.36557,"is_reserved":false,"is_disabled":false,"rental_uris":{"android":"levelo://app?vid=19dcde97-826d-4c77-b8cf-d90ba7f775b0","ios":"levelo://app?vid=19dcde97-826d-4c77-b8cf-d90ba7f775b0"},"vehicle_type_id":"4","last_reported":1701446937,"current_range_meters":18000,"station_id":"ce4bhs12rcd13ifvqhvg","pricing_plan_id":"free"},{"bike_id":"ef4bc631-9dc2-49a6-9365-f146578e022a","system_id":"levelo_inurba_marseille","lat":43.302784,"lon":5.377158,"is_reserved":false,"is_disabled":false,"rental_uris":{"android":"levelo://app?vid=ef4bc631-9dc2-49a6-9365-f146578e022a","ios":"levelo://app?vid=ef4bc631-9dc2-49a6-9365-f146578e022a"},"vehicle_type_id":"4","last_reported":1701446937,"current_range_meters":14800,"station_id":"ce4bguh2rcd13ifvqcj0","pricing_plan_id":"free"},{"bike_id":"5fc36373-76ee-4f34-8cd8-462ca544daec","system_id":"levelo_inurba_marseille","lat":43.301429,"lon":5.37413,"is_reserved":false,"is_disabled":false,"rental_uris":{"android":"levelo://app?vid=5fc36373-76ee-4f34-8cd8-462ca544daec","ios":"levelo://app?vid=5fc36373-76ee-4f34-8cd8-462ca544daec"},"vehicle_type_id":"4","last_reported":1701446937,"current_range_meters":12400,"station_id":"ce4bgs92rcd13ifvqcc0","pricing_plan_id":"free"},{"bike_id":"4250c6d2-749d-4dd5-b59c-c4ec398a8a23","system_id":"levelo_inurba_marseille","lat":43.32,"lon":5.38157,"is_reserved":false,"is_disabled":false,"rental_uris":{"android":"levelo://app?vid=4250c6d2-749d-4dd5-b59c-c4ec398a8a23","ios":"levelo://app?vid=4250c6d2-749d-4dd5-b59c-c4ec398a8a23"},"vehicle_type_id":"4","last_reported":1701446937,"current_range_meters":24800,"station_id":"ce4bhr12rcd13ifvqhpg","pricing_plan_id":"free"},{"bike_id":"2275aca5-3158-4c2c-8022-ca5d2714bc86","system_id":"levelo_inurba_marseille","lat":43.319997,"lon":5.381594,"is_reserved":false,"is_disabled":false,"rental_uris":{"android":"levelo://app?vid=2275aca5-3158-4c2c-8022-ca5d2714bc86","ios":"levelo://app?vid=2275aca5-3158-4c2c-8022-ca5d2714bc86"},"vehicle_type_id":"4","last_reported":1701446937,"current_range_meters":18800,"station_id":"ce4bhr12rcd13ifvqhpg","pricing_plan_id":"free"},{"bike_id":"7502ebd5-90c4-42cb-9a82-8938210d7bee","system_id":"levelo_inurba_marseille","lat":43.32,"lon":5.38165,"is_reserved":false,"is_disabled":false,"rental_uris":{"android":"levelo://app?vid=7502ebd5-90c4-42cb-9a82-8938210d7bee","ios":"levelo://app?vid=7502ebd5-90c4-42cb-9a82-8938210d7bee"},"vehicle_type_id":"4","last_reported":1701446937,"current_range_meters":20800,"station_id":"ce4bhr12rcd13ifvqhpg","pricing_plan_id":"free"},{"bike_id":"c564ba6b-0dd1-4ae9-abfe-67df573acc10","system_id":"levelo_inurba_marseille","lat":43.313571,"lon":5.384829,"is_reserved":false,"is_disabled":false,"rental_uris":{"android":"levelo://app?vid=c564ba6b-0dd1-4ae9-abfe-67df573acc10","ios":"levelo://app?vid=c564ba6b-0dd1-4ae9-abfe-67df573acc10"},"vehicle_type_id":"4","last_reported":1701446937,"current_range_meters":400,"station_id":"ce4bgt92rcd13ifvqcf0","pricing_plan_id":"free"},{"bike_id":"6d583b2d-dd94-484f-bd23-31135b1cc0ef","system_id":"levelo_inurba_marseille","lat":43.31376,"lon":5.38517,"is_reserved":false,"is_disabled":false,"rental_uris":{"android":"levelo://app?vid=6d583b2d-dd94-484f-bd23-31135b1cc0ef","ios":"levelo://app?vid=6d583b2d-dd94-484f-bd23-31135b1cc0ef"},"vehicle_type_id":"4","last_reported":1701446937,"current_range_meters":26800,"station_id":"","pricing_plan_id":"free"},{"bike_id":"748d12ab-8e09-4ecd-b2d2-cbe0ea9624f6","system_id":"levelo_inurba_marseille","lat":43.298466,"lon":5.367614,"is_reserved":false,"is_disabled":false,"rental_uris":{"android":"levelo://app?vid=748d12ab-8e09-4ecd-b2d2-cbe0ea9624f6","ios":"levelo://app?vid=748d12ab-8e09-4ecd-b2d2-cbe0ea9624f6"},"vehicle_type_id":"4","last_reported":1701446937,"current_range_meters":10400,"station_id":"","pricing_plan_id":"free"},{"bike_id":"1c3d4c2c-255e-43f2-8601-c2befcd43360","system_id":"levelo_inurba_marseille","lat":43.305364,"lon":5.384119,"is_reserved":false,"is_disabled":false,"rental_uris":{"android":"levelo://app?vid=1c3d4c2c-255e-43f2-8601-c2befcd43360","ios":"levelo://app?vid=1c3d4c2c-255e-43f2-8601-c2befcd43360"},"vehicle_type_id":"4","last_reported":1701446937,"current_range_meters":7200,"station_id":"ce4bgg92rcd13ifvqb30","pricing_plan_id":"free"},{"bike_id":"ab9c2b8b-9fe5-4dcc-bb0e-89bc32217e22","system_id":"levelo_inurba_marseille","lat":43.311722,"lon":5.387247,"is_reserved":false,"is_disabled":false,"rental_uris":{"android":"levelo://app?vid=ab9c2b8b-9fe5-4dcc-bb0e-89bc32217e22","ios":"levelo://app?vid=ab9c2b8b-9fe5-4dcc-bb0e-89bc32217e22"},"vehicle_type_id":"4","last_reported":1701446937,"current_range_meters":12800,"station_id":"ce4bgv12rcd13ifvqcp0","pricing_plan_id":"free"},{"bike_id":"044199e5-3443-4984-b151-477a87db8a3e","system_id":"levelo_inurba_marseille","lat":43.32805,"lon":5.36691,"is_reserved":false,"is_disabled":false,"rental_uris":{"android":"levelo://app?vid=044199e5-3443-4984-b151-477a87db8a3e","ios":"levelo://app?vid=044199e5-3443-4984-b151-477a87db8a3e"},"vehicle_type_id":"4","last_reported":1701446937,"current_range_meters":28400,"station_id":"ce4bhs92rcd13ifvqi0g","pricing_plan_id":"free"},{"bike_id":"65073be3-64d5-4947-9113-fd11101b78dd","system_id":"levelo_inurba_marseille","lat":43.322872,"lon":5.382756,"is_reserved":false,"is_disabled":false,"rental_uris":{"android":"levelo://app?vid=65073be3-64d5-4947-9113-fd11101b78dd","ios":"levelo://app?vid=65073be3-64d5-4947-9113-fd11101b78dd"},"vehicle_type_id":"4","last_reported":1701446937,"current_range_meters":12400,"station_id":"ce4bhr12rcd13ifvqhqg","pricing_plan_id":"free"},{"bike_id":"b79c00e9-2e26-4f63-a6b2-e6d49a437cf5","system_id":"levelo_inurba_marseille","lat":43.32831,"lon":5.36686,"is_reserved":false,"is_disabled":false,"rental_uris":{"android":"levelo://app?vid=b79c00e9-2e26-4f63-a6b2-e6d49a437cf5","ios":"levelo://app?vid=b79c00e9-2e26-4f63-a6b2-e6d49a437cf5"},"vehicle_type_id":"4","last_reported":1701446937,"current_range_meters":8000,"station_id":"ce4bhs92rcd13ifvqi0g","pricing_plan_id":"free"},{"bike_id":"38b36a3d-7fa0-425f-884d-37f0109ceebf","system_id":"levelo_inurba_marseille","lat":43.32836,"lon":5.36694,"is_reserved":false,"is_disabled":false,"rental_uris":{"android":"levelo://app?vid=38b36a3d-7fa0-425f-884d-37f0109ceebf","ios":"levelo://app?vid=38b36a3d-7fa0-425f-884d-37f0109ceebf"},"vehicle_type_id":"4","last_reported":1701446937,"current_range_meters":16800,"station_id":"ce4bhs92rcd13ifvqi0g","pricing_plan_id":"free"},{"bike_id":"5983625d-69f5-485f-a399-daec2999c965","system_id":"levelo_inurba_marseille","lat":43.321498,"lon":5.385696,"is_reserved":false,"is_disabled":false,"rental_uris":{"android":"levelo://app?vid=5983625d-69f5-485f-a399-daec2999c965","ios":"levelo://app?vid=5983625d-69f5-485f-a399-daec2999c965"},"vehicle_type_id":"4","last_reported":1701446937,"current_range_meters":6000,"station_id":"","pricing_plan_id":"free"},{"bike_id":"d1b54edb-4179-477c-bd05-036dd4f393fe","system_id":"levelo_inurba_marseille","lat":43.29606,"lon":5.36809,"is_reserved":false,"is_disabled":false,"rental_uris":{"android":"levelo://app?vid=d1b54edb-4179-477c-bd05-036dd4f393fe","ios":"levelo://app?vid=d1b54edb-4179-477c-bd05-036dd4f393fe"},"vehicle_type_id":"4","last_reported":1701446937,"current_range_meters":5200,"station_id":"","pricing_plan_id":"free"},{"bike_id":"31454357-9180-4e61-a459-1d2b01f1e648","system_id":"levelo_inurba_marseille","lat":43.29573,"lon":5.367355,"is_reserved":false,"is_disabled":false,"rental_uris":{"android":"levelo://app?vid=31454357-9180-4e61-a459-1d2b01f1e648","ios":"levelo://app?vid=31454357-9180-4e61-a459-1d2b01f1e648"},"vehicle_type_id":"4","last_reported":1701446937,"current_range_meters":28800,"station_id":"ce4bgph2rcd13ifvqc2g","pricing_plan_id":"free"},{"bike_id":"71797278-0c39-434b-a67d-03ec672580f8","system_id":"levelo_inurba_marseille","lat":43.309589,"lon":5.390258,"is_reserved":false,"is_disabled":false,"rental_uris":{"android":"levelo://app?vid=71797278-0c39-434b-a67d-03ec672580f8","ios":"levelo://app?vid=71797278-0c39-434b-a67d-03ec672580f8"},"vehicle_type_id":"4","last_reported":1701446937,"current_range_meters":25200,"station_id":"ce4bgup2rcd13ifvqco0","pricing_plan_id":"free"},{"bike_id":"b518acf2-82c7-4da6-881e-26eec680c27a","system_id":"levelo_inurba_marseille","lat":43.317557,"lon":5.390173,"is_reserved":false,"is_disabled":false,"rental_uris":{"android":"levelo://app?vid=b518acf2-82c7-4da6-881e-26eec680c27a","ios":"levelo://app?vid=b518acf2-82c7-4da6-881e-26eec680c27a"},"vehicle_type_id":"4","last_reported":1701446937,"current_range_meters":30800,"station_id":"ce4bhqp2rcd13ifvqhng","pricing_plan_id":"free"},{"bike_id":"924ed6f9-6e16-47ad-b0f3-2c783d56abbe","system_id":"levelo_inurba_marseille","lat":43.31754,"lon":5.39018,"is_reserved":false,"is_disabled":false,"rental_uris":{"android":"levelo://app?vid=924ed6f9-6e16-47ad-b0f3-2c783d56abbe","ios":"levelo://app?vid=924ed6f9-6e16-47ad-b0f3-2c783d56abbe"},"vehicle_type_id":"4","last_reported":1701446937,"current_range_meters":14800,"station_id":"ce4bhqp2rcd13ifvqhng","pricing_plan_id":"free"},{"bike_id":"ec985be4-7232-42d0-8f80-5faa332763f0","system_id":"levelo_inurba_marseille","lat":43.295766,"lon":5.375104,"is_reserved":false,"is_disabled":false,"rental_uris":{"android":"levelo://app?vid=ec985be4-7232-42d0-8f80-5faa332763f0","ios":"levelo://app?vid=ec985be4-7232-42d0-8f80-5faa332763f0"},"vehicle_type_id":"4","last_reported":1701446937,"current_range_meters":0,"station_id":"ce4bgh92rcd13ifvqb50","pricing_plan_id":"free"},{"bike_id":"1543f747-0cbd-4321-a65f-547a55674136","system_id":"levelo_inurba_marseille","lat":43.32175,"lon":5.38855,"is_reserved":false,"is_disabled":false,"rental_uris":{"android":"levelo://app?vid=1543f747-0cbd-4321-a65f-547a55674136","ios":"levelo://app?vid=1543f747-0cbd-4321-a65f-547a55674136"},"vehicle_type_id":"4","last_reported":1701446937,"current_range_meters":0,"station_id":"","pricing_plan_id":"free"},{"bike_id":"81c81765-686e-4ef8-8ba0-60d7276501a3","system_id":"levelo_inurba_marseille","lat":43.32177,"lon":5.38856,"is_reserved":false,"is_disabled":false,"rental_uris":{"android":"levelo://app?vid=81c81765-686e-4ef8-8ba0-60d7276501a3","ios":"levelo://app?vid=81c81765-686e-4ef8-8ba0-60d7276501a3"},"vehicle_type_id":"4","last_reported":1701446937,"current_range_meters":25600,"station_id":"","pricing_plan_id":"free"},{"bike_id":"13ca97e5-82b5-4e06-8d78-e9793b7e594e","system_id":"levelo_inurba_marseille","lat":43.297142,"lon":5.379705,"is_reserved":false,"is_disabled":false,"rental_uris":{"android":"levelo://app?vid=13ca97e5-82b5-4e06-8d78-e9793b7e594e","ios":"levelo://app?vid=13ca97e5-82b5-4e06-8d78-e9793b7e594e"},"vehicle_type_id":"4","last_reported":1701446937,"current_range_meters":22400,"station_id":"","pricing_plan_id":"free"},{"bike_id":"1c37265c-b224-4cff-81f1-4af54c32e72d","system_id":"levelo_inurba_marseille","lat":43.299707,"lon":5.384859,"is_reserved":false,"is_disabled":false,"rental_uris":{"android":"levelo://app?vid=1c37265c-b224-4cff-81f1-4af54c32e72d","ios":"levelo://app?vid=1c37265c-b224-4cff-81f1-4af54c32e72d"},"vehicle_type_id":"4","last_reported":1701446937,"current_range_meters":0,"station_id":"ce4bgj92rcd13ifvqbd0","pricing_plan_id":"free"},{"bike_id":"2210a55e-a0a0-48be-b442-eb4b12455b72","system_id":"levelo_inurba_marseille","lat":43.299717,"lon":5.384845,"is_reserved":false,"is_disabled":false,"rental_uris":{"android":"levelo://app?vid=2210a55e-a0a0-48be-b442-eb4b12455b72","ios":"levelo://app?vid=2210a55e-a0a0-48be-b442-eb4b12455b72"},"vehicle_type_id":"4","last_reported":1701446937,"current_range_meters":10000,"station_id":"ce4bgj92rcd13ifvqbd0","pricing_plan_id":"free"},{"bike_id":"952939cb-d2d9-4daf-a558-619bfc6656be","system_id":"levelo_inurba_marseille","lat":43.32369,"lon":5.38883,"is_reserved":false,"is_disabled":false,"rental_uris":{"android":"levelo://app?vid=952939cb-d2d9-4daf-a558-619bfc6656be","ios":"levelo://app?vid=952939cb-d2d9-4daf-a558-619bfc6656be"},"vehicle_type_id":"4","last_reported":1701446937,"current_range_meters":12000,"station_id":"ce4bhqp2rcd13ifvqhog","pricing_plan_id":"free"},{"bike_id":"df9aa6a5-fa2e-4b2d-99d4-9b7221f48d33","system_id":"levelo_inurba_marseille","lat":43.29601,"lon":5.381084,"is_reserved":false,"is_disabled":false,"rental_uris":{"android":"levelo://app?vid=df9aa6a5-fa2e-4b2d-99d4-9b7221f48d33","ios":"levelo://app?vid=df9aa6a5-fa2e-4b2d-99d4-9b7221f48d33"},"vehicle_type_id":"4","last_reported":1701446937,"current_range_meters":4400,"station_id":"ce4bgl12rcd13ifvqbo0","pricing_plan_id":"free"},{"bike_id":"c3c97dbf-ffd2-40c3-a14b-1227ef3d015d","system_id":"levelo_inurba_marseille","lat":43.29602,"lon":5.381084,"is_reserved":false,"is_disabled":false,"rental_uris":{"android":"levelo://app?vid=c3c97dbf-ffd2-40c3-a14b-1227ef3d015d","ios":"levelo://app?vid=c3c97dbf-ffd2-40c3-a14b-1227ef3d015d"},"vehicle_type_id":"4","last_reported":1701446937,"current_range_meters":28400,"station_id":"ce4bgl12rcd13ifvqbo0","pricing_plan_id":"free"},{"bike_id":"37e29aff-3b67-4923-97c3-2317d4c44c85","system_id":"levelo_inurba_marseille","lat":43.293009,"lon":5.374584,"is_reserved":false,"is_disabled":false,"rental_uris":{"android":"levelo://app?vid=37e29aff-3b67-4923-97c3-2317d4c44c85","ios":"levelo://app?vid=37e29aff-3b67-4923-97c3-2317d4c44c85"},"vehicle_type_id":"4","last_reported":1701446937,"current_range_meters":14800,"station_id":"ce4bgi12rcd13ifvqb70","pricing_plan_id":"free"},{"bike_id":"eaa0e7e7-2390-47fa-909b-7b240952cbef","system_id":"levelo_inurba_marseille","lat":43.319082,"lon":5.394262,"is_reserved":false,"is_disabled":false,"rental_uris":{"android":"levelo://app?vid=eaa0e7e7-2390-47fa-909b-7b240952cbef","ios":"levelo://app?vid=eaa0e7e7-2390-47fa-909b-7b240952cbef"},"vehicle_type_id":"4","last_reported":1701446937,"current_range_meters":18800,"station_id":"","pricing_plan_id":"free"},{"bike_id":"30d77d43-e016-4244-a5da-7cbe459a923e","system_id":"levelo_inurba_marseille","lat":43.292311,"lon":5.360731,"is_reserved":false,"is_disabled":false,"rental_uris":{"android":"levelo://app?vid=30d77d43-e016-4244-a5da-7cbe459a923e","ios":"levelo://app?vid=30d77d43-e016-4244-a5da-7cbe459a923e"},"vehicle_type_id":"4","last_reported":1701446937,"current_range_meters":15600,"station_id":"ce4bhbh2rcd13ifvqeqg","pricing_plan_id":"free"},{"bike_id":"895c6bc5-b764-4bc4-8ab7-602edf611389","system_id":"levelo_inurba_marseille","lat":43.292311,"lon":5.360731,"is_reserved":false,"is_disabled":false,"rental_uris":{"android":"levelo://app?vid=895c6bc5-b764-4bc4-8ab7-602edf611389","ios":"levelo://app?vid=895c6bc5-b764-4bc4-8ab7-602edf611389"},"vehicle_type_id":"4","last_reported":1701446937,"current_range_meters":22800,"station_id":"ce4bhbh2rcd13ifvqeqg","pricing_plan_id":"free"},{"bike_id":"c373bf55-733e-4172-8837-03468019f049","system_id":"levelo_inurba_marseille","lat":43.291675,"lon":5.371583,"is_reserved":false,"is_disabled":false,"rental_uris":{"android":"levelo://app?vid=c373bf55-733e-4172-8837-03468019f049","ios":"levelo://app?vid=c373bf55-733e-4172-8837-03468019f049"},"vehicle_type_id":"4","last_reported":1701446937,"current_range_meters":13200,"station_id":"ce4bha92rcd13ifvqeh0","pricing_plan_id":"free"},{"bike_id":"242753f3-027f-4674-81a9-cfb4297b1460","system_id":"levelo_inurba_marseille","lat":43.31328,"lon":5.396863,"is_reserved":false,"is_disabled":false,"rental_uris":{"android":"levelo://app?vid=242753f3-027f-4674-81a9-cfb4297b1460","ios":"levelo://app?vid=242753f3-027f-4674-81a9-cfb4297b1460"},"vehicle_type_id":"4","last_reported":1701446937,"current_range_meters":30400,"station_id":"ce4bgvp2rcd13ifvqcu0","pricing_plan_id":"free"},{"bike_id":"f1d71fe9-6ac8-4af1-8e3b-a4c164affe9c","system_id":"levelo_inurba_marseille","lat":43.2919,"lon":5.35816,"is_reserved":false,"is_disabled":false,"rental_uris":{"android":"levelo://app?vid=f1d71fe9-6ac8-4af1-8e3b-a4c164affe9c","ios":"levelo://app?vid=f1d71fe9-6ac8-4af1-8e3b-a4c164affe9c"},"vehicle_type_id":"4","last_reported":1701446937,"current_range_meters":6400,"station_id":"ce4bhb12rcd13ifvqel0","pricing_plan_id":"free"},{"bike_id":"ddf5cd5c-ba91-430f-905a-c0bd614328b6","system_id":"levelo_inurba_marseille","lat":43.309038,"lon":5.396546,"is_reserved":false,"is_disabled":false,"rental_uris":{"android":"levelo://app?vid=ddf5cd5c-ba91-430f-905a-c0bd614328b6","ios":"levelo://app?vid=ddf5cd5c-ba91-430f-905a-c0bd614328b6"},"vehicle_type_id":"4","last_reported":1701446937,"current_range_meters":0,"station_id":"ce4bh012rcd13ifvqcv0","pricing_plan_id":"free"},{"bike_id":"120666ad-52fd-46b6-bdfd-b9a0f1649384","system_id":"levelo_inurba_marseille","lat":43.309038,"lon":5.396546,"is_reserved":false,"is_disabled":false,"rental_uris":{"android":"levelo://app?vid=120666ad-52fd-46b6-bdfd-b9a0f1649384","ios":"levelo://app?vid=120666ad-52fd-46b6-bdfd-b9a0f1649384"},"vehicle_type_id":"4","last_reported":1701446937,"current_range_meters":21200,"station_id":"ce4bh012rcd13ifvqcv0","pricing_plan_id":"free"},{"bike_id":"6453f94e-31b1-4141-a454-0e152108b002","system_id":"levelo_inurba_marseille","lat":43.290327,"lon":5.375711,"is_reserved":false,"is_disabled":false,"rental_uris":{"android":"levelo://app?vid=6453f94e-31b1-4141-a454-0e152108b002","ios":"levelo://app?vid=6453f94e-31b1-4141-a454-0e152108b002"},"vehicle_type_id":"4","last_reported":1701446937,"current_range_meters":17200,"station_id":"ce4bh692rcd13ifvqe90","pricing_plan_id":"free"},{"bike_id":"1760b87b-243c-4b3e-ab60-b50883ca62b3","system_id":"levelo_inurba_marseille","lat":43.289468,"lon":5.363719,"is_reserved":false,"is_disabled":false,"rental_uris":{"android":"levelo://app?vid=1760b87b-243c-4b3e-ab60-b50883ca62b3","ios":"levelo://app?vid=1760b87b-243c-4b3e-ab60-b50883ca62b3"},"vehicle_type_id":"4","last_reported":1701446937,"current_range_meters":18800,"station_id":"ce4bhc92rcd13ifvqetg","pricing_plan_id":"free"},{"bike_id":"b504c3d3-f828-4dbe-91c9-c1187d4c3185","system_id":"levelo_inurba_marseille","lat":43.290104,"lon":5.356111,"is_reserved":false,"is_disabled":false,"rental_uris":{"android":"levelo://app?vid=b504c3d3-f828-4dbe-91c9-c1187d4c3185","ios":"levelo://app?vid=b504c3d3-f828-4dbe-91c9-c1187d4c3185"},"vehicle_type_id":"4","last_reported":1701446937,"current_range_meters":9600,"station_id":"ce4bhb92rcd13ifvqen0","pricing_plan_id":"free"},{"bike_id":"90408da1-0be5-41e7-a5d4-4fb647bb89a6","system_id":"levelo_inurba_marseille","lat":43.3304,"lon":5.38928,"is_reserved":false,"is_disabled":false,"rental_uris":{"android":"levelo://app?vid=90408da1-0be5-41e7-a5d4-4fb647bb89a6","ios":"levelo://app?vid=90408da1-0be5-41e7-a5d4-4fb647bb89a6"},"vehicle_type_id":"4","last_reported":1701446937,"current_range_meters":23200,"station_id":"ce4bhr92rcd13ifvqhrg","pricing_plan_id":"free"},{"bike_id":"52dc0a41-c034-4cb5-a8ca-c7452daff2f9","system_id":"levelo_inurba_marseille","lat":43.33043,"lon":5.3893,"is_reserved":false,"is_disabled":false,"rental_uris":{"android":"levelo://app?vid=52dc0a41-c034-4cb5-a8ca-c7452daff2f9","ios":"levelo://app?vid=52dc0a41-c034-4cb5-a8ca-c7452daff2f9"},"vehicle_type_id":"4","last_reported":1701446937,"current_range_meters":15600,"station_id":"ce4bhr92rcd13ifvqhrg","pricing_plan_id":"free"},{"bike_id":"49cd1ad5-d39e-4fa4-97c3-223fb3079ddd","system_id":"levelo_inurba_marseille","lat":43.290024,"lon":5.356078,"is_reserved":false,"is_disabled":false,"rental_uris":{"android":"levelo://app?vid=49cd1ad5-d39e-4fa4-97c3-223fb3079ddd","ios":"levelo://app?vid=49cd1ad5-d39e-4fa4-97c3-223fb3079ddd"},"vehicle_type_id":"4","last_reported":1701446937,"current_range_meters":20800,"station_id":"ce4bhb92rcd13ifvqen0","pricing_plan_id":"free"},{"bike_id":"6ae7adbc-0f0a-4d66-896e-6068a94f4f6f","system_id":"levelo_inurba_marseille","lat":43.290104,"lon":5.356111,"is_reserved":false,"is_disabled":false,"rental_uris":{"android":"levelo://app?vid=6ae7adbc-0f0a-4d66-896e-6068a94f4f6f","ios":"levelo://app?vid=6ae7adbc-0f0a-4d66-896e-6068a94f4f6f"},"vehicle_type_id":"4","last_reported":1701446937,"current_range_meters":7600,"station_id":"ce4bhb92rcd13ifvqen0","pricing_plan_id":"free"},{"bike_id":"1d26bcef-d811-4c9e-8360-b1df1abdf2f6","system_id":"levelo_inurba_marseille","lat":43.295169,"lon":5.390426,"is_reserved":false,"is_disabled":false,"rental_uris":{"android":"levelo://app?vid=1d26bcef-d811-4c9e-8360-b1df1abdf2f6","ios":"levelo://app?vid=1d26bcef-d811-4c9e-8360-b1df1abdf2f6"},"vehicle_type_id":"4","last_reported":1701446937,"current_range_meters":15200,"station_id":"ce4bh3p2rcd13ifvqdp0","pricing_plan_id":"free"},{"bike_id":"ea83e975-20a2-4e14-9d7e-e7efdcf6dd17","system_id":"levelo_inurba_marseille","lat":43.295169,"lon":5.390426,"is_reserved":false,"is_disabled":false,"rental_uris":{"android":"levelo://app?vid=ea83e975-20a2-4e14-9d7e-e7efdcf6dd17","ios":"levelo://app?vid=ea83e975-20a2-4e14-9d7e-e7efdcf6dd17"},"vehicle_type_id":"4","last_reported":1701446937,"current_range_meters":10400,"station_id":"ce4bh3p2rcd13ifvqdp0","pricing_plan_id":"free"},{"bike_id":"fdc2fc9e-2f29-4c49-bcea-7a560d4446be","system_id":"levelo_inurba_marseille","lat":43.33052,"lon":5.3906,"is_reserved":false,"is_disabled":false,"rental_uris":{"android":"levelo://app?vid=fdc2fc9e-2f29-4c49-bcea-7a560d4446be","ios":"levelo://app?vid=fdc2fc9e-2f29-4c49-bcea-7a560d4446be"},"vehicle_type_id":"4","last_reported":1701446937,"current_range_meters":12400,"station_id":"","pricing_plan_id":"free"},{"bike_id":"54f10c1d-64b2-426f-ad9f-a0d190aad68c","system_id":"levelo_inurba_marseille","lat":43.29513,"lon":5.39084,"is_reserved":false,"is_disabled":false,"rental_uris":{"android":"levelo://app?vid=54f10c1d-64b2-426f-ad9f-a0d190aad68c","ios":"levelo://app?vid=54f10c1d-64b2-426f-ad9f-a0d190aad68c"},"vehicle_type_id":"4","last_reported":1701446937,"current_range_meters":24400,"station_id":"ce4bh3p2rcd13ifvqdp0","pricing_plan_id":"free"},{"bike_id":"f71bec80-1512-44cd-95d2-3d7fdee5df30","system_id":"levelo_inurba_marseille","lat":43.33053,"lon":5.39063,"is_reserved":false,"is_disabled":false,"rental_uris":{"android":"levelo://app?vid=f71bec80-1512-44cd-95d2-3d7fdee5df30","ios":"levelo://app?vid=f71bec80-1512-44cd-95d2-3d7fdee5df30"},"vehicle_type_id":"4","last_reported":1701446937,"current_range_meters":15600,"station_id":"","pricing_plan_id":"free"},{"bike_id":"f66c9213-dd9b-4e84-b7da-8d1f252b7578","system_id":"levelo_inurba_marseille","lat":43.28871,"lon":5.35835,"is_reserved":false,"is_disabled":false,"rental_uris":{"android":"levelo://app?vid=f66c9213-dd9b-4e84-b7da-8d1f252b7578","ios":"levelo://app?vid=f66c9213-dd9b-4e84-b7da-8d1f252b7578"},"vehicle_type_id":"4","last_reported":1701446937,"current_range_meters":0,"station_id":"ce4bhb12rcd13ifvqem0","pricing_plan_id":"free"},{"bike_id":"d6f45f16-dec9-43f2-aa48-6d10bb9b9741","system_id":"levelo_inurba_marseille","lat":43.29332,"lon":5.388653,"is_reserved":false,"is_disabled":false,"rental_uris":{"android":"levelo://app?vid=d6f45f16-dec9-43f2-aa48-6d10bb9b9741","ios":"levelo://app?vid=d6f45f16-dec9-43f2-aa48-6d10bb9b9741"},"vehicle_type_id":"4","last_reported":1701446937,"current_range_meters":0,"station_id":"","pricing_plan_id":"free"},{"bike_id":"94907f9a-2d73-4196-93bb-c5df451ea335","system_id":"levelo_inurba_marseille","lat":43.33757,"lon":5.3746,"is_reserved":false,"is_disabled":false,"rental_uris":{"android":"levelo://app?vid=94907f9a-2d73-4196-93bb-c5df451ea335","ios":"levelo://app?vid=94907f9a-2d73-4196-93bb-c5df451ea335"},"vehicle_type_id":"4","last_reported":1701446937,"current_range_meters":23600,"station_id":"","pricing_plan_id":"free"},{"bike_id":"920728c3-d140-4eb7-9410-cfa127aa414b","system_id":"levelo_inurba_marseille","lat":43.33759,"lon":5.37468,"is_reserved":false,"is_disabled":false,"rental_uris":{"android":"levelo://app?vid=920728c3-d140-4eb7-9410-cfa127aa414b","ios":"levelo://app?vid=920728c3-d140-4eb7-9410-cfa127aa414b"},"vehicle_type_id":"4","last_reported":1701446937,"current_range_meters":29200,"station_id":"","pricing_plan_id":"free"},{"bike_id":"01bdb905-19d1-43c9-bdb1-9718f69f28c6","system_id":"levelo_inurba_marseille","lat":43.3377,"lon":5.37437,"is_reserved":false,"is_disabled":false,"rental_uris":{"android":"levelo://app?vid=01bdb905-19d1-43c9-bdb1-9718f69f28c6","ios":"levelo://app?vid=01bdb905-19d1-43c9-bdb1-9718f69f28c6"},"vehicle_type_id":"4","last_reported":1701446937,"current_range_meters":15600,"station_id":"","pricing_plan_id":"free"},{"bike_id":"983465aa-d51e-4e5a-9e7c-3b5cd31cd6ad","system_id":"levelo_inurba_marseille","lat":43.301117,"lon":5.398795,"is_reserved":false,"is_disabled":false,"rental_uris":{"android":"levelo://app?vid=983465aa-d51e-4e5a-9e7c-3b5cd31cd6ad","ios":"levelo://app?vid=983465aa-d51e-4e5a-9e7c-3b5cd31cd6ad"},"vehicle_type_id":"4","last_reported":1701446937,"current_range_meters":14400,"station_id":"ce4bh0h2rcd13ifvqd40","pricing_plan_id":"free"},{"bike_id":"5a30e92c-7dbe-4120-872f-45bdb9ce4fee","system_id":"levelo_inurba_marseille","lat":43.301117,"lon":5.398795,"is_reserved":false,"is_disabled":false,"rental_uris":{"android":"levelo://app?vid=5a30e92c-7dbe-4120-872f-45bdb9ce4fee","ios":"levelo://app?vid=5a30e92c-7dbe-4120-872f-45bdb9ce4fee"},"vehicle_type_id":"4","last_reported":1701446937,"current_range_meters":14000,"station_id":"ce4bh0h2rcd13ifvqd40","pricing_plan_id":"free"},{"bike_id":"f5cb98aa-91b2-4aaa-b991-9f1736f6cf24","system_id":"levelo_inurba_marseille","lat":43.286591,"lon":5.363346,"is_reserved":false,"is_disabled":false,"rental_uris":{"android":"levelo://app?vid=f5cb98aa-91b2-4aaa-b991-9f1736f6cf24","ios":"levelo://app?vid=f5cb98aa-91b2-4aaa-b991-9f1736f6cf24"},"vehicle_type_id":"4","last_reported":1701446937,"current_range_meters":26000,"station_id":"ce4bhah2rcd13ifvqej0","pricing_plan_id":"free"},{"bike_id":"85d4a40f-6f9b-4640-9f5a-13c1d99c2823","system_id":"levelo_inurba_marseille","lat":43.29024,"lon":5.38657,"is_reserved":false,"is_disabled":false,"rental_uris":{"android":"levelo://app?vid=85d4a40f-6f9b-4640-9f5a-13c1d99c2823","ios":"levelo://app?vid=85d4a40f-6f9b-4640-9f5a-13c1d99c2823"},"vehicle_type_id":"4","last_reported":1701446937,"current_range_meters":18800,"station_id":"ce4bh4p2rcd13ifvqe0g","pricing_plan_id":"free"},{"bike_id":"888a61e1-0eba-4525-bd7b-3db928d4ca23","system_id":"levelo_inurba_marseille","lat":43.286039,"lon":5.370681,"is_reserved":false,"is_disabled":false,"rental_uris":{"android":"levelo://app?vid=888a61e1-0eba-4525-bd7b-3db928d4ca23","ios":"levelo://app?vid=888a61e1-0eba-4525-bd7b-3db928d4ca23"},"vehicle_type_id":"4","last_reported":1701446937,"current_range_meters":2400,"station_id":"ce4bht12rcd13ifvqi60","pricing_plan_id":"free"},{"bike_id":"51e80092-f709-463a-96a2-8b25587b914d","system_id":"levelo_inurba_marseille","lat":43.286039,"lon":5.370681,"is_reserved":false,"is_disabled":false,"rental_uris":{"android":"levelo://app?vid=51e80092-f709-463a-96a2-8b25587b914d","ios":"levelo://app?vid=51e80092-f709-463a-96a2-8b25587b914d"},"vehicle_type_id":"4","last_reported":1701446937,"current_range_meters":28400,"station_id":"ce4bht12rcd13ifvqi60","pricing_plan_id":"free"},{"bike_id":"6ec219dd-e2f0-43e6-97be-b9ed2327cf64","system_id":"levelo_inurba_marseille","lat":43.286039,"lon":5.370679,"is_reserved":false,"is_disabled":false,"rental_uris":{"android":"levelo://app?vid=6ec219dd-e2f0-43e6-97be-b9ed2327cf64","ios":"levelo://app?vid=6ec219dd-e2f0-43e6-97be-b9ed2327cf64"},"vehicle_type_id":"4","last_reported":1701446937,"current_range_meters":28000,"station_id":"ce4bht12rcd13ifvqi60","pricing_plan_id":"free"},{"bike_id":"ab0a5040-9b0b-456e-9bc8-b22c631ba1b2","system_id":"levelo_inurba_marseille","lat":43.28803,"lon":5.35248,"is_reserved":false,"is_disabled":false,"rental_uris":{"android":"levelo://app?vid=ab0a5040-9b0b-456e-9bc8-b22c631ba1b2","ios":"levelo://app?vid=ab0a5040-9b0b-456e-9bc8-b22c631ba1b2"},"vehicle_type_id":"4","last_reported":1701446937,"current_range_meters":0,"station_id":"","pricing_plan_id":"free"},{"bike_id":"e944ab60-06d6-4c80-8a43-6e3d4ad3cea1","system_id":"levelo_inurba_marseille","lat":43.28716,"lon":5.37961,"is_reserved":false,"is_disabled":false,"rental_uris":{"android":"levelo://app?vid=e944ab60-06d6-4c80-8a43-6e3d4ad3cea1","ios":"levelo://app?vid=e944ab60-06d6-4c80-8a43-6e3d4ad3cea1"},"vehicle_type_id":"4","last_reported":1701446937,"current_range_meters":31200,"station_id":"ce4bh9p2rcd13ifvqec0","pricing_plan_id":"free"},{"bike_id":"4c8c59dc-41b1-4380-a494-eafe531ac568","system_id":"levelo_inurba_marseille","lat":43.283498,"lon":5.380948,"is_reserved":false,"is_disabled":false,"rental_uris":{"android":"levelo://app?vid=4c8c59dc-41b1-4380-a494-eafe531ac568","ios":"levelo://app?vid=4c8c59dc-41b1-4380-a494-eafe531ac568"},"vehicle_type_id":"4","last_reported":1701446937,"current_range_meters":27200,"station_id":"ce4bh412rcd13ifvqdr0","pricing_plan_id":"free"},{"bike_id":"f2663f86-3b07-45a8-b2f5-622da796f066","system_id":"levelo_inurba_marseille","lat":43.284538,"lon":5.358657,"is_reserved":false,"is_disabled":false,"rental_uris":{"android":"levelo://app?vid=f2663f86-3b07-45a8-b2f5-622da796f066","ios":"levelo://app?vid=f2663f86-3b07-45a8-b2f5-622da796f066"},"vehicle_type_id":"4","last_reported":1701446937,"current_range_meters":24000,"station_id":"ce4bhah2rcd13ifvqei0","pricing_plan_id":"free"},{"bike_id":"0ae73d83-e72b-4d78-acd8-a548fa777e08","system_id":"levelo_inurba_marseille","lat":43.284538,"lon":5.358657,"is_reserved":false,"is_disabled":false,"rental_uris":{"android":"levelo://app?vid=0ae73d83-e72b-4d78-acd8-a548fa777e08","ios":"levelo://app?vid=0ae73d83-e72b-4d78-acd8-a548fa777e08"},"vehicle_type_id":"4","last_reported":1701446937,"current_range_meters":31200,"station_id":"ce4bhah2rcd13ifvqei0","pricing_plan_id":"free"},{"bike_id":"fc53d595-8011-443b-9bd9-459aff9fcc6d","system_id":"levelo_inurba_marseille","lat":43.284538,"lon":5.358657,"is_reserved":false,"is_disabled":false,"rental_uris":{"android":"levelo://app?vid=fc53d595-8011-443b-9bd9-459aff9fcc6d","ios":"levelo://app?vid=fc53d595-8011-443b-9bd9-459aff9fcc6d"},"vehicle_type_id":"4","last_reported":1701446937,"current_range_meters":31600,"station_id":"ce4bhah2rcd13ifvqei0","pricing_plan_id":"free"},{"bike_id":"1fde6c7c-e1dc-44db-8897-388fa70add55","system_id":"levelo_inurba_marseille","lat":43.284538,"lon":5.358657,"is_reserved":false,"is_disabled":false,"rental_uris":{"android":"levelo://app?vid=1fde6c7c-e1dc-44db-8897-388fa70add55","ios":"levelo://app?vid=1fde6c7c-e1dc-44db-8897-388fa70add55"},"vehicle_type_id":"4","last_reported":1701446937,"current_range_meters":21200,"station_id":"ce4bhah2rcd13ifvqei0","pricing_plan_id":"free"},{"bike_id":"8d75093c-6297-419a-a74f-f7cdf7256386","system_id":"levelo_inurba_marseille","lat":43.295713,"lon":5.399639,"is_reserved":false,"is_disabled":false,"rental_uris":{"android":"levelo://app?vid=8d75093c-6297-419a-a74f-f7cdf7256386","ios":"levelo://app?vid=8d75093c-6297-419a-a74f-f7cdf7256386"},"vehicle_type_id":"4","last_reported":1701446937,"current_range_meters":12000,"station_id":"ce4bh312rcd13ifvqdj0","pricing_plan_id":"free"},{"bike_id":"7e449df7-1725-4fd3-a720-bcf4e080d4cd","system_id":"levelo_inurba_marseille","lat":43.295713,"lon":5.399639,"is_reserved":false,"is_disabled":false,"rental_uris":{"android":"levelo://app?vid=7e449df7-1725-4fd3-a720-bcf4e080d4cd","ios":"levelo://app?vid=7e449df7-1725-4fd3-a720-bcf4e080d4cd"},"vehicle_type_id":"4","last_reported":1701446937,"current_range_meters":16400,"station_id":"ce4bh312rcd13ifvqdj0","pricing_plan_id":"free"},{"bike_id":"f99fc4d8-709b-4cee-a32c-2cdd6f1e8b1e","system_id":"levelo_inurba_marseille","lat":43.337168,"lon":5.391825,"is_reserved":false,"is_disabled":false,"rental_uris":{"android":"levelo://app?vid=f99fc4d8-709b-4cee-a32c-2cdd6f1e8b1e","ios":"levelo://app?vid=f99fc4d8-709b-4cee-a32c-2cdd6f1e8b1e"},"vehicle_type_id":"4","last_reported":1701446937,"current_range_meters":25600,"station_id":"ce4bhr92rcd13ifvqhsg","pricing_plan_id":"free"},{"bike_id":"ca68dffd-1b55-42dd-a36f-67c8d14159fe","system_id":"levelo_inurba_marseille","lat":43.284219,"lon":5.3497,"is_reserved":false,"is_disabled":false,"rental_uris":{"android":"levelo://app?vid=ca68dffd-1b55-42dd-a36f-67c8d14159fe","ios":"levelo://app?vid=ca68dffd-1b55-42dd-a36f-67c8d14159fe"},"vehicle_type_id":"4","last_reported":1701446937,"current_range_meters":23600,"station_id":"ce4bhbh2rcd13ifvqepg","pricing_plan_id":"free"},{"bike_id":"8d7158fe-7b53-43db-9345-63e12ef4194d","system_id":"levelo_inurba_marseille","lat":43.284219,"lon":5.3497,"is_reserved":false,"is_disabled":false,"rental_uris":{"android":"levelo://app?vid=8d7158fe-7b53-43db-9345-63e12ef4194d","ios":"levelo://app?vid=8d7158fe-7b53-43db-9345-63e12ef4194d"},"vehicle_type_id":"4","last_reported":1701446937,"current_range_meters":23600,"station_id":"ce4bhbh2rcd13ifvqepg","pricing_plan_id":"free"},{"bike_id":"8e6098da-c693-4278-9fa3-8965cb048bea","system_id":"levelo_inurba_marseille","lat":43.284217,"lon":5.349697,"is_reserved":false,"is_disabled":false,"rental_uris":{"android":"levelo://app?vid=8e6098da-c693-4278-9fa3-8965cb048bea","ios":"levelo://app?vid=8e6098da-c693-4278-9fa3-8965cb048bea"},"vehicle_type_id":"4","last_reported":1701446937,"current_range_meters":31200,"station_id":"ce4bhbh2rcd13ifvqepg","pricing_plan_id":"free"},{"bike_id":"8e37c7df-9407-4b30-be79-a649ffe0b4ec","system_id":"levelo_inurba_marseille","lat":43.284219,"lon":5.3497,"is_reserved":false,"is_disabled":false,"rental_uris":{"android":"levelo://app?vid=8e37c7df-9407-4b30-be79-a649ffe0b4ec","ios":"levelo://app?vid=8e37c7df-9407-4b30-be79-a649ffe0b4ec"},"vehicle_type_id":"4","last_reported":1701446937,"current_range_meters":29200,"station_id":"ce4bhbh2rcd13ifvqepg","pricing_plan_id":"free"},{"bike_id":"2d70261f-feb0-4598-b0b0-d60000be38e5","system_id":"levelo_inurba_marseille","lat":43.284217,"lon":5.349697,"is_reserved":false,"is_disabled":false,"rental_uris":{"android":"levelo://app?vid=2d70261f-feb0-4598-b0b0-d60000be38e5","ios":"levelo://app?vid=2d70261f-feb0-4598-b0b0-d60000be38e5"},"vehicle_type_id":"4","last_reported":1701446937,"current_range_meters":31200,"station_id":"ce4bhbh2rcd13ifvqepg","pricing_plan_id":"free"},{"bike_id":"faf50001-2cbc-4d9d-8e71-ac0bb8f36179","system_id":"levelo_inurba_marseille","lat":43.284214,"lon":5.349706,"is_reserved":false,"is_disabled":false,"rental_uris":{"android":"levelo://app?vid=faf50001-2cbc-4d9d-8e71-ac0bb8f36179","ios":"levelo://app?vid=faf50001-2cbc-4d9d-8e71-ac0bb8f36179"},"vehicle_type_id":"4","last_reported":1701446937,"current_range_meters":24400,"station_id":"ce4bhbh2rcd13ifvqepg","pricing_plan_id":"free"},{"bike_id":"1d627f60-381d-45b6-9f2d-5e92ee9378de","system_id":"levelo_inurba_marseille","lat":43.282754,"lon":5.350519,"is_reserved":false,"is_disabled":false,"rental_uris":{"android":"levelo://app?vid=1d627f60-381d-45b6-9f2d-5e92ee9378de","ios":"levelo://app?vid=1d627f60-381d-45b6-9f2d-5e92ee9378de"},"vehicle_type_id":"4","last_reported":1701446937,"current_range_meters":20400,"station_id":"ce4bhbp2rcd13ifvqerg","pricing_plan_id":"free"},{"bike_id":"a61f9949-e31f-4447-9136-eee42a400807","system_id":"levelo_inurba_marseille","lat":43.28039,"lon":5.369297,"is_reserved":false,"is_disabled":false,"rental_uris":{"android":"levelo://app?vid=a61f9949-e31f-4447-9136-eee42a400807","ios":"levelo://app?vid=a61f9949-e31f-4447-9136-eee42a400807"},"vehicle_type_id":"4","last_reported":1701446937,"current_range_meters":28000,"station_id":"ce4bha12rcd13ifvqef0","pricing_plan_id":"free"},{"bike_id":"a9e2c13e-c278-44fb-b95d-b7c6c887fd1e","system_id":"levelo_inurba_marseille","lat":43.280382,"lon":5.369291,"is_reserved":false,"is_disabled":false,"rental_uris":{"android":"levelo://app?vid=a9e2c13e-c278-44fb-b95d-b7c6c887fd1e","ios":"levelo://app?vid=a9e2c13e-c278-44fb-b95d-b7c6c887fd1e"},"vehicle_type_id":"4","last_reported":1701446937,"current_range_meters":25600,"station_id":"ce4bha12rcd13ifvqef0","pricing_plan_id":"free"},{"bike_id":"4f817351-34ff-460f-abf0-90708b06d28d","system_id":"levelo_inurba_marseille","lat":43.280382,"lon":5.369291,"is_reserved":false,"is_disabled":false,"rental_uris":{"android":"levelo://app?vid=4f817351-34ff-460f-abf0-90708b06d28d","ios":"levelo://app?vid=4f817351-34ff-460f-abf0-90708b06d28d"},"vehicle_type_id":"4","last_reported":1701446937,"current_range_meters":14400,"station_id":"ce4bha12rcd13ifvqef0","pricing_plan_id":"free"},{"bike_id":"9fdb7f97-586d-42d2-befd-15216ba2e422","system_id":"levelo_inurba_marseille","lat":43.284317,"lon":5.391844,"is_reserved":false,"is_disabled":false,"rental_uris":{"android":"levelo://app?vid=9fdb7f97-586d-42d2-befd-15216ba2e422","ios":"levelo://app?vid=9fdb7f97-586d-42d2-befd-15216ba2e422"},"vehicle_type_id":"4","last_reported":1701446937,"current_range_meters":0,"station_id":"ce4bhoh2rcd13ifvqh5g","pricing_plan_id":"free"},{"bike_id":"a50c0429-afba-467a-8379-c3b5803a834a","system_id":"levelo_inurba_marseille","lat":43.304188,"lon":5.412904,"is_reserved":false,"is_disabled":false,"rental_uris":{"android":"levelo://app?vid=a50c0429-afba-467a-8379-c3b5803a834a","ios":"levelo://app?vid=a50c0429-afba-467a-8379-c3b5803a834a"},"vehicle_type_id":"4","last_reported":1701446937,"current_range_meters":22800,"station_id":"ce4bhop2rcd13ifvqh8g","pricing_plan_id":"free"},{"bike_id":"c93b1c9a-c4ae-4c26-bf86-e2b074651c4d","system_id":"levelo_inurba_marseille","lat":43.304188,"lon":5.412904,"is_reserved":false,"is_disabled":false,"rental_uris":{"android":"levelo://app?vid=c93b1c9a-c4ae-4c26-bf86-e2b074651c4d","ios":"levelo://app?vid=c93b1c9a-c4ae-4c26-bf86-e2b074651c4d"},"vehicle_type_id":"4","last_reported":1701446937,"current_range_meters":14800,"station_id":"ce4bhop2rcd13ifvqh8g","pricing_plan_id":"free"},{"bike_id":"65122aa7-b1a3-4573-8aa8-81424ca2bec9","system_id":"levelo_inurba_marseille","lat":43.304188,"lon":5.412904,"is_reserved":false,"is_disabled":false,"rental_uris":{"android":"levelo://app?vid=65122aa7-b1a3-4573-8aa8-81424ca2bec9","ios":"levelo://app?vid=65122aa7-b1a3-4573-8aa8-81424ca2bec9"},"vehicle_type_id":"4","last_reported":1701446937,"current_range_meters":12000,"station_id":"ce4bhop2rcd13ifvqh8g","pricing_plan_id":"free"},{"bike_id":"35821b44-e502-41aa-93c5-b27e1de44157","system_id":"levelo_inurba_marseille","lat":43.279087,"lon":5.380114,"is_reserved":false,"is_disabled":false,"rental_uris":{"android":"levelo://app?vid=35821b44-e502-41aa-93c5-b27e1de44157","ios":"levelo://app?vid=35821b44-e502-41aa-93c5-b27e1de44157"},"vehicle_type_id":"4","last_reported":1701446937,"current_range_meters":25600,"station_id":"ce4bhf92rcd13ifvqf50","pricing_plan_id":"free"},{"bike_id":"75cedba0-c0ad-4ff8-9903-d73e82001e49","system_id":"levelo_inurba_marseille","lat":43.279087,"lon":5.380114,"is_reserved":false,"is_disabled":false,"rental_uris":{"android":"levelo://app?vid=75cedba0-c0ad-4ff8-9903-d73e82001e49","ios":"levelo://app?vid=75cedba0-c0ad-4ff8-9903-d73e82001e49"},"vehicle_type_id":"4","last_reported":1701446937,"current_range_meters":30400,"station_id":"ce4bhf92rcd13ifvqf50","pricing_plan_id":"free"},{"bike_id":"38b22963-f711-4c56-89b9-352911970178","system_id":"levelo_inurba_marseille","lat":43.279087,"lon":5.380114,"is_reserved":false,"is_disabled":false,"rental_uris":{"android":"levelo://app?vid=38b22963-f711-4c56-89b9-352911970178","ios":"levelo://app?vid=38b22963-f711-4c56-89b9-352911970178"},"vehicle_type_id":"4","last_reported":1701446937,"current_range_meters":800,"station_id":"ce4bhf92rcd13ifvqf50","pricing_plan_id":"free"},{"bike_id":"edccd163-f6e1-4e7d-bc68-768d7ebe881c","system_id":"levelo_inurba_marseille","lat":43.321087,"lon":5.415092,"is_reserved":false,"is_disabled":false,"rental_uris":{"android":"levelo://app?vid=edccd163-f6e1-4e7d-bc68-768d7ebe881c","ios":"levelo://app?vid=edccd163-f6e1-4e7d-bc68-768d7ebe881c"},"vehicle_type_id":"4","last_reported":1701446937,"current_range_meters":25600,"station_id":"","pricing_plan_id":"free"},{"bike_id":"4a1a11ab-a759-443b-b4ae-6483e367336c","system_id":"levelo_inurba_marseille","lat":43.279691,"lon":5.387439,"is_reserved":false,"is_disabled":false,"rental_uris":{"android":"levelo://app?vid=4a1a11ab-a759-443b-b4ae-6483e367336c","ios":"levelo://app?vid=4a1a11ab-a759-443b-b4ae-6483e367336c"},"vehicle_type_id":"4","last_reported":1701446937,"current_range_meters":23200,"station_id":"","pricing_plan_id":"free"},{"bike_id":"efd2b5b0-e533-49ae-b810-7827cd438b0e","system_id":"levelo_inurba_marseille","lat":43.2926,"lon":5.40906,"is_reserved":false,"is_disabled":false,"rental_uris":{"android":"levelo://app?vid=efd2b5b0-e533-49ae-b810-7827cd438b0e","ios":"levelo://app?vid=efd2b5b0-e533-49ae-b810-7827cd438b0e"},"vehicle_type_id":"4","last_reported":1701446937,"current_range_meters":0,"station_id":"ce4bh192rcd13ifvqdc0","pricing_plan_id":"free"},{"bike_id":"ee845fcb-2b13-43ff-b968-c77ae0836b49","system_id":"levelo_inurba_marseille","lat":43.292569,"lon":5.409107,"is_reserved":false,"is_disabled":false,"rental_uris":{"android":"levelo://app?vid=ee845fcb-2b13-43ff-b968-c77ae0836b49","ios":"levelo://app?vid=ee845fcb-2b13-43ff-b968-c77ae0836b49"},"vehicle_type_id":"4","last_reported":1701446937,"current_range_meters":26400,"station_id":"ce4bh192rcd13ifvqdc0","pricing_plan_id":"free"},{"bike_id":"786b24d6-edad-4b85-bd75-bcd37e451834","system_id":"levelo_inurba_marseille","lat":43.280784,"lon":5.396622,"is_reserved":false,"is_disabled":false,"rental_uris":{"android":"levelo://app?vid=786b24d6-edad-4b85-bd75-bcd37e451834","ios":"levelo://app?vid=786b24d6-edad-4b85-bd75-bcd37e451834"},"vehicle_type_id":"4","last_reported":1701446937,"current_range_meters":30800,"station_id":"ce4bho12rcd13ifvqh2g","pricing_plan_id":"free"},{"bike_id":"2145da8a-16b1-4f20-b5ef-a33306ff61df","system_id":"levelo_inurba_marseille","lat":43.278401,"lon":5.392152,"is_reserved":false,"is_disabled":false,"rental_uris":{"android":"levelo://app?vid=2145da8a-16b1-4f20-b5ef-a33306ff61df","ios":"levelo://app?vid=2145da8a-16b1-4f20-b5ef-a33306ff61df"},"vehicle_type_id":"4","last_reported":1701446937,"current_range_meters":31200,"station_id":"ce4bhjp2rcd13ifvqga0","pricing_plan_id":"free"},{"bike_id":"e39e14d5-0de2-4b18-a471-b128dc379a61","system_id":"levelo_inurba_marseille","lat":43.278401,"lon":5.392152,"is_reserved":false,"is_disabled":false,"rental_uris":{"android":"levelo://app?vid=e39e14d5-0de2-4b18-a471-b128dc379a61","ios":"levelo://app?vid=e39e14d5-0de2-4b18-a471-b128dc379a61"},"vehicle_type_id":"4","last_reported":1701446937,"current_range_meters":21200,"station_id":"ce4bhjp2rcd13ifvqga0","pricing_plan_id":"free"},{"bike_id":"a7b76016-7d95-4d2a-a748-1326c375be09","system_id":"levelo_inurba_marseille","lat":43.275625,"lon":5.384392,"is_reserved":false,"is_disabled":false,"rental_uris":{"android":"levelo://app?vid=a7b76016-7d95-4d2a-a748-1326c375be09","ios":"levelo://app?vid=a7b76016-7d95-4d2a-a748-1326c375be09"},"vehicle_type_id":"4","last_reported":1701446937,"current_range_meters":31200,"station_id":"ce4bhh92rcd13ifvqfi0","pricing_plan_id":"free"},{"bike_id":"dc763106-72dd-4984-b475-f731b9f78f10","system_id":"levelo_inurba_marseille","lat":43.276771,"lon":5.388799,"is_reserved":false,"is_disabled":false,"rental_uris":{"android":"levelo://app?vid=dc763106-72dd-4984-b475-f731b9f78f10","ios":"levelo://app?vid=dc763106-72dd-4984-b475-f731b9f78f10"},"vehicle_type_id":"4","last_reported":1701446937,"current_range_meters":22000,"station_id":"ce4bhi12rcd13ifvqfo0","pricing_plan_id":"free"},{"bike_id":"e0561bd0-a2dc-4bf2-b33f-e1c2a3a9a27b","system_id":"levelo_inurba_marseille","lat":43.276769,"lon":5.388787,"is_reserved":false,"is_disabled":false,"rental_uris":{"android":"levelo://app?vid=e0561bd0-a2dc-4bf2-b33f-e1c2a3a9a27b","ios":"levelo://app?vid=e0561bd0-a2dc-4bf2-b33f-e1c2a3a9a27b"},"vehicle_type_id":"4","last_reported":1701446937,"current_range_meters":25200,"station_id":"ce4bhi12rcd13ifvqfo0","pricing_plan_id":"free"},{"bike_id":"db7ffdb9-f10e-41dc-9854-cecf34a3d463","system_id":"levelo_inurba_marseille","lat":43.279952,"lon":5.400085,"is_reserved":false,"is_disabled":false,"rental_uris":{"android":"levelo://app?vid=db7ffdb9-f10e-41dc-9854-cecf34a3d463","ios":"levelo://app?vid=db7ffdb9-f10e-41dc-9854-cecf34a3d463"},"vehicle_type_id":"4","last_reported":1701446937,"current_range_meters":31600,"station_id":"ce4bho92rcd13ifvqh4g","pricing_plan_id":"free"},{"bike_id":"b1aa665c-2e5d-4c40-8fd2-4fd96b4e5154","system_id":"levelo_inurba_marseille","lat":43.279952,"lon":5.400085,"is_reserved":false,"is_disabled":false,"rental_uris":{"android":"levelo://app?vid=b1aa665c-2e5d-4c40-8fd2-4fd96b4e5154","ios":"levelo://app?vid=b1aa665c-2e5d-4c40-8fd2-4fd96b4e5154"},"vehicle_type_id":"4","last_reported":1701446937,"current_range_meters":23600,"station_id":"ce4bho92rcd13ifvqh4g","pricing_plan_id":"free"},{"bike_id":"2008ad1c-c3ed-4aab-a90a-ec11e3a4e262","system_id":"levelo_inurba_marseille","lat":43.279952,"lon":5.400085,"is_reserved":false,"is_disabled":false,"rental_uris":{"android":"levelo://app?vid=2008ad1c-c3ed-4aab-a90a-ec11e3a4e262","ios":"levelo://app?vid=2008ad1c-c3ed-4aab-a90a-ec11e3a4e262"},"vehicle_type_id":"4","last_reported":1701446937,"current_range_meters":24000,"station_id":"ce4bho92rcd13ifvqh4g","pricing_plan_id":"free"},{"bike_id":"8b95fa19-34cb-496e-ada5-cf4ce57829c5","system_id":"levelo_inurba_marseille","lat":43.279952,"lon":5.400085,"is_reserved":false,"is_disabled":false,"rental_uris":{"android":"levelo://app?vid=8b95fa19-34cb-496e-ada5-cf4ce57829c5","ios":"levelo://app?vid=8b95fa19-34cb-496e-ada5-cf4ce57829c5"},"vehicle_type_id":"4","last_reported":1701446937,"current_range_meters":22400,"station_id":"ce4bho92rcd13ifvqh4g","pricing_plan_id":"free"},{"bike_id":"33918e0d-cdb0-4611-a687-3272d72d60a6","system_id":"levelo_inurba_marseille","lat":43.3253,"lon":5.42129,"is_reserved":false,"is_disabled":false,"rental_uris":{"android":"levelo://app?vid=33918e0d-cdb0-4611-a687-3272d72d60a6","ios":"levelo://app?vid=33918e0d-cdb0-4611-a687-3272d72d60a6"},"vehicle_type_id":"4","last_reported":1701446937,"current_range_meters":28000,"station_id":"","pricing_plan_id":"free"},{"bike_id":"0bf39cc2-12ce-46b3-a06b-31e1c17ddc34","system_id":"levelo_inurba_marseille","lat":43.31721,"lon":5.42399,"is_reserved":false,"is_disabled":false,"rental_uris":{"android":"levelo://app?vid=0bf39cc2-12ce-46b3-a06b-31e1c17ddc34","ios":"levelo://app?vid=0bf39cc2-12ce-46b3-a06b-31e1c17ddc34"},"vehicle_type_id":"4","last_reported":1701446937,"current_range_meters":22800,"station_id":"ce4bhp92rcd13ifvqhbg","pricing_plan_id":"free"},{"bike_id":"450f866a-2ce5-4cce-b471-8d51650d33b2","system_id":"levelo_inurba_marseille","lat":43.317121,"lon":5.423936,"is_reserved":false,"is_disabled":false,"rental_uris":{"android":"levelo://app?vid=450f866a-2ce5-4cce-b471-8d51650d33b2","ios":"levelo://app?vid=450f866a-2ce5-4cce-b471-8d51650d33b2"},"vehicle_type_id":"4","last_reported":1701446937,"current_range_meters":27600,"station_id":"ce4bhp92rcd13ifvqhbg","pricing_plan_id":"free"},{"bike_id":"92d88886-639d-41c5-9129-1bc0d1454262","system_id":"levelo_inurba_marseille","lat":43.310785,"lon":5.424305,"is_reserved":false,"is_disabled":false,"rental_uris":{"android":"levelo://app?vid=92d88886-639d-41c5-9129-1bc0d1454262","ios":"levelo://app?vid=92d88886-639d-41c5-9129-1bc0d1454262"},"vehicle_type_id":"4","last_reported":1701446937,"current_range_meters":29600,"station_id":"ce4bhp92rcd13ifvqhag","pricing_plan_id":"free"},{"bike_id":"894f6494-585b-4b1b-a39f-39b137cf17d0","system_id":"levelo_inurba_marseille","lat":43.310785,"lon":5.424305,"is_reserved":false,"is_disabled":false,"rental_uris":{"android":"levelo://app?vid=894f6494-585b-4b1b-a39f-39b137cf17d0","ios":"levelo://app?vid=894f6494-585b-4b1b-a39f-39b137cf17d0"},"vehicle_type_id":"4","last_reported":1701446937,"current_range_meters":13200,"station_id":"ce4bhp92rcd13ifvqhag","pricing_plan_id":"free"},{"bike_id":"b2e98327-1a0e-400d-9506-0fa7cd97cca5","system_id":"levelo_inurba_marseille","lat":43.273129,"lon":5.390725,"is_reserved":false,"is_disabled":false,"rental_uris":{"android":"levelo://app?vid=b2e98327-1a0e-400d-9506-0fa7cd97cca5","ios":"levelo://app?vid=b2e98327-1a0e-400d-9506-0fa7cd97cca5"},"vehicle_type_id":"4","last_reported":1701446937,"current_range_meters":24000,"station_id":"ce4bhgp2rcd13ifvqfe0","pricing_plan_id":"free"},{"bike_id":"39054965-f11d-4b0a-a732-c22945f74131","system_id":"levelo_inurba_marseille","lat":43.2955,"lon":5.42289,"is_reserved":false,"is_disabled":false,"rental_uris":{"android":"levelo://app?vid=39054965-f11d-4b0a-a732-c22945f74131","ios":"levelo://app?vid=39054965-f11d-4b0a-a732-c22945f74131"},"vehicle_type_id":"4","last_reported":1701446937,"current_range_meters":22400,"station_id":"ce4bhph2rcd13ifvqhdg","pricing_plan_id":"free"},{"bike_id":"1bfad2a7-9085-4112-a1a6-8467d98fb70b","system_id":"levelo_inurba_marseille","lat":43.272119,"lon":5.391741,"is_reserved":false,"is_disabled":false,"rental_uris":{"android":"levelo://app?vid=1bfad2a7-9085-4112-a1a6-8467d98fb70b","ios":"levelo://app?vid=1bfad2a7-9085-4112-a1a6-8467d98fb70b"},"vehicle_type_id":"4","last_reported":1701446937,"current_range_meters":2800,"station_id":"","pricing_plan_id":"free"},{"bike_id":"d3e86ee0-25cc-46da-9490-2861495a5777","system_id":"levelo_inurba_marseille","lat":43.26916,"lon":5.39764,"is_reserved":false,"is_disabled":false,"rental_uris":{"android":"levelo://app?vid=d3e86ee0-25cc-46da-9490-2861495a5777","ios":"levelo://app?vid=d3e86ee0-25cc-46da-9490-2861495a5777"},"vehicle_type_id":"4","last_reported":1701446937,"current_range_meters":24000,"station_id":"","pricing_plan_id":"free"},{"bike_id":"e3c3bd86-994a-4bc1-b77e-7c12a889ff73","system_id":"levelo_inurba_marseille","lat":43.266716,"lon":5.392156,"is_reserved":false,"is_disabled":false,"rental_uris":{"android":"levelo://app?vid=e3c3bd86-994a-4bc1-b77e-7c12a889ff73","ios":"levelo://app?vid=e3c3bd86-994a-4bc1-b77e-7c12a889ff73"},"vehicle_type_id":"4","last_reported":1701446937,"current_range_meters":15600,"station_id":"","pricing_plan_id":"free"},{"bike_id":"f4f7532f-a78a-4f91-b30d-01e3d37ebf1b","system_id":"levelo_inurba_marseille","lat":43.265569,"lon":5.390047,"is_reserved":false,"is_disabled":false,"rental_uris":{"android":"levelo://app?vid=f4f7532f-a78a-4f91-b30d-01e3d37ebf1b","ios":"levelo://app?vid=f4f7532f-a78a-4f91-b30d-01e3d37ebf1b"},"vehicle_type_id":"4","last_reported":1701446937,"current_range_meters":21200,"station_id":"ce4bhe12rcd13ifvqf30","pricing_plan_id":"free"},{"bike_id":"fb6c3024-525d-476e-8c23-d1bdfc005e98","system_id":"levelo_inurba_marseille","lat":43.261782,"lon":5.374515,"is_reserved":false,"is_disabled":false,"rental_uris":{"android":"levelo://app?vid=fb6c3024-525d-476e-8c23-d1bdfc005e98","ios":"levelo://app?vid=fb6c3024-525d-476e-8c23-d1bdfc005e98"},"vehicle_type_id":"4","last_reported":1701446937,"current_range_meters":16400,"station_id":"ce4bhgp2rcd13ifvqfc0","pricing_plan_id":"free"},{"bike_id":"6394474e-85a8-4fc5-ba69-bca97359fd9e","system_id":"levelo_inurba_marseille","lat":43.317104,"lon":5.436818,"is_reserved":false,"is_disabled":false,"rental_uris":{"android":"levelo://app?vid=6394474e-85a8-4fc5-ba69-bca97359fd9e","ios":"levelo://app?vid=6394474e-85a8-4fc5-ba69-bca97359fd9e"},"vehicle_type_id":"4","last_reported":1701446937,"current_range_meters":29600,"station_id":"ce4bhp92rcd13ifvqhcg","pricing_plan_id":"free"},{"bike_id":"0f660e43-c8af-47d2-a03e-16aa84e81a20","system_id":"levelo_inurba_marseille","lat":43.317104,"lon":5.436818,"is_reserved":false,"is_disabled":false,"rental_uris":{"android":"levelo://app?vid=0f660e43-c8af-47d2-a03e-16aa84e81a20","ios":"levelo://app?vid=0f660e43-c8af-47d2-a03e-16aa84e81a20"},"vehicle_type_id":"4","last_reported":1701446937,"current_range_meters":6000,"station_id":"ce4bhp92rcd13ifvqhcg","pricing_plan_id":"free"},{"bike_id":"ed2cf8df-32be-432f-a551-c14b6dffc84e","system_id":"levelo_inurba_marseille","lat":43.262012,"lon":5.379307,"is_reserved":false,"is_disabled":false,"rental_uris":{"android":"levelo://app?vid=ed2cf8df-32be-432f-a551-c14b6dffc84e","ios":"levelo://app?vid=ed2cf8df-32be-432f-a551-c14b6dffc84e"},"vehicle_type_id":"4","last_reported":1701446937,"current_range_meters":20400,"station_id":"ce4bhjp2rcd13ifvqg90","pricing_plan_id":"free"},{"bike_id":"0b2f324f-a5d8-4d51-a8fa-6b629dccc78e","system_id":"levelo_inurba_marseille","lat":43.271368,"lon":5.40928,"is_reserved":false,"is_disabled":false,"rental_uris":{"android":"levelo://app?vid=0b2f324f-a5d8-4d51-a8fa-6b629dccc78e","ios":"levelo://app?vid=0b2f324f-a5d8-4d51-a8fa-6b629dccc78e"},"vehicle_type_id":"4","last_reported":1701446937,"current_range_meters":26800,"station_id":"ce4bhl12rcd13ifvqgf0","pricing_plan_id":"free"},{"bike_id":"a486413e-18de-430f-8e8d-28b23dba31e2","system_id":"levelo_inurba_marseille","lat":43.267959,"lon":5.402687,"is_reserved":false,"is_disabled":false,"rental_uris":{"android":"levelo://app?vid=a486413e-18de-430f-8e8d-28b23dba31e2","ios":"levelo://app?vid=a486413e-18de-430f-8e8d-28b23dba31e2"},"vehicle_type_id":"4","last_reported":1701446937,"current_range_meters":10000,"station_id":"ce501612rcd8frsf0b60","pricing_plan_id":"free"},{"bike_id":"6d5827bb-e379-4067-bb3f-6136611daee9","system_id":"levelo_inurba_marseille","lat":43.298768,"lon":5.43643,"is_reserved":false,"is_disabled":false,"rental_uris":{"android":"levelo://app?vid=6d5827bb-e379-4067-bb3f-6136611daee9","ios":"levelo://app?vid=6d5827bb-e379-4067-bb3f-6136611daee9"},"vehicle_type_id":"4","last_reported":1701446937,"current_range_meters":31200,"station_id":"ce4bhpp2rcd13ifvqhfg","pricing_plan_id":"free"},{"bike_id":"3d92db85-fa12-42d2-9b53-65f2f9388e3c","system_id":"levelo_inurba_marseille","lat":43.298768,"lon":5.43643,"is_reserved":false,"is_disabled":false,"rental_uris":{"android":"levelo://app?vid=3d92db85-fa12-42d2-9b53-65f2f9388e3c","ios":"levelo://app?vid=3d92db85-fa12-42d2-9b53-65f2f9388e3c"},"vehicle_type_id":"4","last_reported":1701446937,"current_range_meters":21200,"station_id":"ce4bhpp2rcd13ifvqhfg","pricing_plan_id":"free"},{"bike_id":"a81d4960-c3b2-4479-bd7f-fd179911a5fc","system_id":"levelo_inurba_marseille","lat":43.281548,"lon":5.42643,"is_reserved":false,"is_disabled":false,"rental_uris":{"android":"levelo://app?vid=a81d4960-c3b2-4479-bd7f-fd179911a5fc","ios":"levelo://app?vid=a81d4960-c3b2-4479-bd7f-fd179911a5fc"},"vehicle_type_id":"4","last_reported":1701446937,"current_range_meters":20800,"station_id":"ce4bhnh2rcd13ifvqgug","pricing_plan_id":"free"},{"bike_id":"61e4435d-f142-423d-9949-4ecd2b38f618","system_id":"levelo_inurba_marseille","lat":43.281548,"lon":5.42643,"is_reserved":false,"is_disabled":false,"rental_uris":{"android":"levelo://app?vid=61e4435d-f142-423d-9949-4ecd2b38f618","ios":"levelo://app?vid=61e4435d-f142-423d-9949-4ecd2b38f618"},"vehicle_type_id":"4","last_reported":1701446937,"current_range_meters":19600,"station_id":"ce4bhnh2rcd13ifvqgug","pricing_plan_id":"free"},{"bike_id":"a265f57d-2203-4406-8278-bc194922c399","system_id":"levelo_inurba_marseille","lat":43.281551,"lon":5.426421,"is_reserved":false,"is_disabled":false,"rental_uris":{"android":"levelo://app?vid=a265f57d-2203-4406-8278-bc194922c399","ios":"levelo://app?vid=a265f57d-2203-4406-8278-bc194922c399"},"vehicle_type_id":"4","last_reported":1701446937,"current_range_meters":30800,"station_id":"ce4bhnh2rcd13ifvqgug","pricing_plan_id":"free"},{"bike_id":"b802834e-51f4-41a4-96cb-c31681473515","system_id":"levelo_inurba_marseille","lat":43.281548,"lon":5.42643,"is_reserved":false,"is_disabled":false,"rental_uris":{"android":"levelo://app?vid=b802834e-51f4-41a4-96cb-c31681473515","ios":"levelo://app?vid=b802834e-51f4-41a4-96cb-c31681473515"},"vehicle_type_id":"4","last_reported":1701446937,"current_range_meters":31200,"station_id":"ce4bhnh2rcd13ifvqgug","pricing_plan_id":"free"},{"bike_id":"3e4fb47e-33e8-4ee2-bfc1-1bd948cfa529","system_id":"levelo_inurba_marseille","lat":43.281548,"lon":5.42643,"is_reserved":false,"is_disabled":false,"rental_uris":{"android":"levelo://app?vid=3e4fb47e-33e8-4ee2-bfc1-1bd948cfa529","ios":"levelo://app?vid=3e4fb47e-33e8-4ee2-bfc1-1bd948cfa529"},"vehicle_type_id":"4","last_reported":1701446937,"current_range_meters":30800,"station_id":"ce4bhnh2rcd13ifvqgug","pricing_plan_id":"free"},{"bike_id":"16e3cf12-314c-4e26-8315-bcc6e17dd084","system_id":"levelo_inurba_marseille","lat":43.281548,"lon":5.42643,"is_reserved":false,"is_disabled":false,"rental_uris":{"android":"levelo://app?vid=16e3cf12-314c-4e26-8315-bcc6e17dd084","ios":"levelo://app?vid=16e3cf12-314c-4e26-8315-bcc6e17dd084"},"vehicle_type_id":"4","last_reported":1701446937,"current_range_meters":31200,"station_id":"ce4bhnh2rcd13ifvqgug","pricing_plan_id":"free"},{"bike_id":"d3df04f1-aa36-401c-b9f0-16ea3bba87de","system_id":"levelo_inurba_marseille","lat":43.281548,"lon":5.42643,"is_reserved":false,"is_disabled":false,"rental_uris":{"android":"levelo://app?vid=d3df04f1-aa36-401c-b9f0-16ea3bba87de","ios":"levelo://app?vid=d3df04f1-aa36-401c-b9f0-16ea3bba87de"},"vehicle_type_id":"4","last_reported":1701446937,"current_range_meters":17200,"station_id":"ce4bhnh2rcd13ifvqgug","pricing_plan_id":"free"},{"bike_id":"3532a786-7312-4db1-88be-2e5e8a274941","system_id":"levelo_inurba_marseille","lat":43.281548,"lon":5.42643,"is_reserved":false,"is_disabled":false,"rental_uris":{"android":"levelo://app?vid=3532a786-7312-4db1-88be-2e5e8a274941","ios":"levelo://app?vid=3532a786-7312-4db1-88be-2e5e8a274941"},"vehicle_type_id":"4","last_reported":1701446937,"current_range_meters":27600,"station_id":"ce4bhnh2rcd13ifvqgug","pricing_plan_id":"free"},{"bike_id":"834f8f19-b614-4c3c-8f37-6be55ae125e9","system_id":"levelo_inurba_marseille","lat":43.2607,"lon":5.393983,"is_reserved":false,"is_disabled":false,"rental_uris":{"android":"levelo://app?vid=834f8f19-b614-4c3c-8f37-6be55ae125e9","ios":"levelo://app?vid=834f8f19-b614-4c3c-8f37-6be55ae125e9"},"vehicle_type_id":"4","last_reported":1701446937,"current_range_meters":30000,"station_id":"ce4bhh92rcd13ifvqfj0","pricing_plan_id":"free"},{"bike_id":"52cce341-7072-4595-91c9-53590657977b","system_id":"levelo_inurba_marseille","lat":43.2607,"lon":5.393983,"is_reserved":false,"is_disabled":false,"rental_uris":{"android":"levelo://app?vid=52cce341-7072-4595-91c9-53590657977b","ios":"levelo://app?vid=52cce341-7072-4595-91c9-53590657977b"},"vehicle_type_id":"4","last_reported":1701446937,"current_range_meters":15200,"station_id":"ce4bhh92rcd13ifvqfj0","pricing_plan_id":"free"},{"bike_id":"e799e7fc-3993-4fd2-9e9a-6d9a3346800c","system_id":"levelo_inurba_marseille","lat":43.255782,"lon":5.382479,"is_reserved":false,"is_disabled":false,"rental_uris":{"android":"levelo://app?vid=e799e7fc-3993-4fd2-9e9a-6d9a3346800c","ios":"levelo://app?vid=e799e7fc-3993-4fd2-9e9a-6d9a3346800c"},"vehicle_type_id":"4","last_reported":1701446937,"current_range_meters":29200,"station_id":"ce4bhih2rcd13ifvqfs0","pricing_plan_id":"free"},{"bike_id":"701c18c4-6ee5-4642-9e8e-fc6ed0a020c6","system_id":"levelo_inurba_marseille","lat":43.270721,"lon":5.422764,"is_reserved":false,"is_disabled":false,"rental_uris":{"android":"levelo://app?vid=701c18c4-6ee5-4642-9e8e-fc6ed0a020c6","ios":"levelo://app?vid=701c18c4-6ee5-4642-9e8e-fc6ed0a020c6"},"vehicle_type_id":"4","last_reported":1701446937,"current_range_meters":20000,"station_id":"ce4bhk92rcd13ifvqgb0","pricing_plan_id":"free"},{"bike_id":"833afc2e-4d19-45ad-bafc-71f0d6fbfa4b","system_id":"levelo_inurba_marseille","lat":43.270721,"lon":5.422764,"is_reserved":false,"is_disabled":false,"rental_uris":{"android":"levelo://app?vid=833afc2e-4d19-45ad-bafc-71f0d6fbfa4b","ios":"levelo://app?vid=833afc2e-4d19-45ad-bafc-71f0d6fbfa4b"},"vehicle_type_id":"4","last_reported":1701446937,"current_range_meters":3200,"station_id":"ce4bhk92rcd13ifvqgb0","pricing_plan_id":"free"},{"bike_id":"9dbdbf4d-021f-41d9-8248-93041cd4a45c","system_id":"levelo_inurba_marseille","lat":43.270721,"lon":5.422764,"is_reserved":false,"is_disabled":false,"rental_uris":{"android":"levelo://app?vid=9dbdbf4d-021f-41d9-8248-93041cd4a45c","ios":"levelo://app?vid=9dbdbf4d-021f-41d9-8248-93041cd4a45c"},"vehicle_type_id":"4","last_reported":1701446937,"current_range_meters":14000,"station_id":"ce4bhk92rcd13ifvqgb0","pricing_plan_id":"free"},{"bike_id":"5c0693b6-d2e9-4446-940e-d4c2dff24c38","system_id":"levelo_inurba_marseille","lat":43.25871,"lon":5.39899,"is_reserved":false,"is_disabled":false,"rental_uris":{"android":"levelo://app?vid=5c0693b6-d2e9-4446-940e-d4c2dff24c38","ios":"levelo://app?vid=5c0693b6-d2e9-4446-940e-d4c2dff24c38"},"vehicle_type_id":"4","last_reported":1701446937,"current_range_meters":24800,"station_id":"ce4bhl92rcd13ifvqghg","pricing_plan_id":"free"},{"bike_id":"de4269ac-900c-4081-b5f8-179bb0d37f2e","system_id":"levelo_inurba_marseille","lat":43.250009,"lon":5.389195,"is_reserved":false,"is_disabled":false,"rental_uris":{"android":"levelo://app?vid=de4269ac-900c-4081-b5f8-179bb0d37f2e","ios":"levelo://app?vid=de4269ac-900c-4081-b5f8-179bb0d37f2e"},"vehicle_type_id":"4","last_reported":1701446937,"current_range_meters":28400,"station_id":"ce4bhgp2rcd13ifvqfd0","pricing_plan_id":"free"},{"bike_id":"f40be3b8-d4e7-4bca-8046-cc166ff21d50","system_id":"levelo_inurba_marseille","lat":43.24809,"lon":5.37457,"is_reserved":false,"is_disabled":false,"rental_uris":{"android":"levelo://app?vid=f40be3b8-d4e7-4bca-8046-cc166ff21d50","ios":"levelo://app?vid=f40be3b8-d4e7-4bca-8046-cc166ff21d50"},"vehicle_type_id":"4","last_reported":1701446937,"current_range_meters":22400,"station_id":"ce4bhgh2rcd13ifvqfb0","pricing_plan_id":"free"},{"bike_id":"a5a61786-a14f-4eaa-9721-d21812cb7087","system_id":"levelo_inurba_marseille","lat":43.250966,"lon":5.395186,"is_reserved":false,"is_disabled":false,"rental_uris":{"android":"levelo://app?vid=a5a61786-a14f-4eaa-9721-d21812cb7087","ios":"levelo://app?vid=a5a61786-a14f-4eaa-9721-d21812cb7087"},"vehicle_type_id":"4","last_reported":1701446937,"current_range_meters":13200,"station_id":"ce4bhm12rcd13ifvqgkg","pricing_plan_id":"free"},{"bike_id":"7b86737e-88b6-402e-953d-d66f821e4367","system_id":"levelo_inurba_marseille","lat":43.250966,"lon":5.395186,"is_reserved":false,"is_disabled":false,"rental_uris":{"android":"levelo://app?vid=7b86737e-88b6-402e-953d-d66f821e4367","ios":"levelo://app?vid=7b86737e-88b6-402e-953d-d66f821e4367"},"vehicle_type_id":"4","last_reported":1701446937,"current_range_meters":30800,"station_id":"ce4bhm12rcd13ifvqgkg","pricing_plan_id":"free"},{"bike_id":"efafa4a6-fe40-443d-b1ff-2408cef433f8","system_id":"levelo_inurba_marseille","lat":43.24693,"lon":5.382096,"is_reserved":false,"is_disabled":false,"rental_uris":{"android":"levelo://app?vid=efafa4a6-fe40-443d-b1ff-2408cef433f8","ios":"levelo://app?vid=efafa4a6-fe40-443d-b1ff-2408cef433f8"},"vehicle_type_id":"4","last_reported":1701446937,"current_range_meters":3600,"station_id":"ce4bhih2rcd13ifvqfr0","pricing_plan_id":"free"},{"bike_id":"3708b903-b9ab-49c0-99ec-0da3bb085746","system_id":"levelo_inurba_marseille","lat":43.25102,"lon":5.403214,"is_reserved":false,"is_disabled":false,"rental_uris":{"android":"levelo://app?vid=3708b903-b9ab-49c0-99ec-0da3bb085746","ios":"levelo://app?vid=3708b903-b9ab-49c0-99ec-0da3bb085746"},"vehicle_type_id":"4","last_reported":1701446937,"current_range_meters":26000,"station_id":"ce4bhlh2rcd13ifvqgig","pricing_plan_id":"free"},{"bike_id":"b4fc2ad8-933e-4544-8f2b-ffdb3d34e94b","system_id":"levelo_inurba_marseille","lat":43.246461,"lon":5.389014,"is_reserved":false,"is_disabled":false,"rental_uris":{"android":"levelo://app?vid=b4fc2ad8-933e-4544-8f2b-ffdb3d34e94b","ios":"levelo://app?vid=b4fc2ad8-933e-4544-8f2b-ffdb3d34e94b"},"vehicle_type_id":"4","last_reported":1701446937,"current_range_meters":15600,"station_id":"ce4bhg12rcd13ifvqf60","pricing_plan_id":"free"},{"bike_id":"e7aad632-367b-4496-9cef-bcfeaf0ec9a0","system_id":"levelo_inurba_marseille","lat":43.246461,"lon":5.389014,"is_reserved":false,"is_disabled":false,"rental_uris":{"android":"levelo://app?vid=e7aad632-367b-4496-9cef-bcfeaf0ec9a0","ios":"levelo://app?vid=e7aad632-367b-4496-9cef-bcfeaf0ec9a0"},"vehicle_type_id":"4","last_reported":1701446937,"current_range_meters":30800,"station_id":"ce4bhg12rcd13ifvqf60","pricing_plan_id":"free"},{"bike_id":"48120d6f-a5ad-4b77-aa78-a715e967e174","system_id":"levelo_inurba_marseille","lat":43.246467,"lon":5.388984,"is_reserved":false,"is_disabled":false,"rental_uris":{"android":"levelo://app?vid=48120d6f-a5ad-4b77-aa78-a715e967e174","ios":"levelo://app?vid=48120d6f-a5ad-4b77-aa78-a715e967e174"},"vehicle_type_id":"4","last_reported":1701446937,"current_range_meters":26000,"station_id":"ce4bhg12rcd13ifvqf60","pricing_plan_id":"free"},{"bike_id":"18ee70b8-94a5-4b7d-a128-b37cfeab20b1","system_id":"levelo_inurba_marseille","lat":43.243884,"lon":5.370737,"is_reserved":false,"is_disabled":false,"rental_uris":{"android":"levelo://app?vid=18ee70b8-94a5-4b7d-a128-b37cfeab20b1","ios":"levelo://app?vid=18ee70b8-94a5-4b7d-a128-b37cfeab20b1"},"vehicle_type_id":"4","last_reported":1701446937,"current_range_meters":2400,"station_id":"ce4bhhh2rcd13ifvqfk0","pricing_plan_id":"free"},{"bike_id":"0e2ceacb-2793-4e91-81c7-63858b0ca60e","system_id":"levelo_inurba_marseille","lat":43.243883,"lon":5.370578,"is_reserved":false,"is_disabled":false,"rental_uris":{"android":"levelo://app?vid=0e2ceacb-2793-4e91-81c7-63858b0ca60e","ios":"levelo://app?vid=0e2ceacb-2793-4e91-81c7-63858b0ca60e"},"vehicle_type_id":"4","last_reported":1701446937,"current_range_meters":26000,"station_id":"ce4bhnp2rcd13ifvqgvg","pricing_plan_id":"free"},{"bike_id":"28cc30b1-3b2e-4169-99ee-09ebd7cab057","system_id":"levelo_inurba_marseille","lat":43.245581,"lon":5.395069,"is_reserved":false,"is_disabled":false,"rental_uris":{"android":"levelo://app?vid=28cc30b1-3b2e-4169-99ee-09ebd7cab057","ios":"levelo://app?vid=28cc30b1-3b2e-4169-99ee-09ebd7cab057"},"vehicle_type_id":"4","last_reported":1701446937,"current_range_meters":1600,"station_id":"ce4bhlp2rcd13ifvqgjg","pricing_plan_id":"free"},{"bike_id":"8a6d21ee-8178-4f32-b8d1-754b3c0d95f1","system_id":"levelo_inurba_marseille","lat":43.245581,"lon":5.395069,"is_reserved":false,"is_disabled":false,"rental_uris":{"android":"levelo://app?vid=8a6d21ee-8178-4f32-b8d1-754b3c0d95f1","ios":"levelo://app?vid=8a6d21ee-8178-4f32-b8d1-754b3c0d95f1"},"vehicle_type_id":"4","last_reported":1701446937,"current_range_meters":31200,"station_id":"ce4bhlp2rcd13ifvqgjg","pricing_plan_id":"free"},{"bike_id":"d2d07057-2a87-4481-ac54-151e293d1674","system_id":"levelo_inurba_marseille","lat":43.245581,"lon":5.395069,"is_reserved":false,"is_disabled":false,"rental_uris":{"android":"levelo://app?vid=d2d07057-2a87-4481-ac54-151e293d1674","ios":"levelo://app?vid=d2d07057-2a87-4481-ac54-151e293d1674"},"vehicle_type_id":"4","last_reported":1701446937,"current_range_meters":17600,"station_id":"ce4bhlp2rcd13ifvqgjg","pricing_plan_id":"free"},{"bike_id":"e6f81405-3b59-4fe6-9f29-1b6ccbb69da7","system_id":"levelo_inurba_marseille","lat":43.245581,"lon":5.395069,"is_reserved":false,"is_disabled":false,"rental_uris":{"android":"levelo://app?vid=e6f81405-3b59-4fe6-9f29-1b6ccbb69da7","ios":"levelo://app?vid=e6f81405-3b59-4fe6-9f29-1b6ccbb69da7"},"vehicle_type_id":"4","last_reported":1701446937,"current_range_meters":19600,"station_id":"ce4bhlp2rcd13ifvqgjg","pricing_plan_id":"free"},{"bike_id":"8f8a08c5-5ca8-4694-93c6-b968749a30c2","system_id":"levelo_inurba_marseille","lat":43.245581,"lon":5.395069,"is_reserved":false,"is_disabled":false,"rental_uris":{"android":"levelo://app?vid=8f8a08c5-5ca8-4694-93c6-b968749a30c2","ios":"levelo://app?vid=8f8a08c5-5ca8-4694-93c6-b968749a30c2"},"vehicle_type_id":"4","last_reported":1701446937,"current_range_meters":28800,"station_id":"ce4bhlp2rcd13ifvqgjg","pricing_plan_id":"free"},{"bike_id":"f44122c3-b152-40c3-bace-5f58768a5b54","system_id":"levelo_inurba_marseille","lat":43.245581,"lon":5.395069,"is_reserved":false,"is_disabled":false,"rental_uris":{"android":"levelo://app?vid=f44122c3-b152-40c3-bace-5f58768a5b54","ios":"levelo://app?vid=f44122c3-b152-40c3-bace-5f58768a5b54"},"vehicle_type_id":"4","last_reported":1701446937,"current_range_meters":30400,"station_id":"ce4bhlp2rcd13ifvqgjg","pricing_plan_id":"free"},{"bike_id":"411b4a86-9e62-4504-b823-0eb9db112faa","system_id":"levelo_inurba_marseille","lat":43.241782,"lon":5.397261,"is_reserved":false,"is_disabled":false,"rental_uris":{"android":"levelo://app?vid=411b4a86-9e62-4504-b823-0eb9db112faa","ios":"levelo://app?vid=411b4a86-9e62-4504-b823-0eb9db112faa"},"vehicle_type_id":"4","last_reported":1701446937,"current_range_meters":4000,"station_id":"ce4bhn12rcd13ifvqgpg","pricing_plan_id":"free"},{"bike_id":"460ff11d-43d6-4fa0-9381-c598ad26d49a","system_id":"levelo_inurba_marseille","lat":43.241782,"lon":5.397261,"is_reserved":false,"is_disabled":false,"rental_uris":{"android":"levelo://app?vid=460ff11d-43d6-4fa0-9381-c598ad26d49a","ios":"levelo://app?vid=460ff11d-43d6-4fa0-9381-c598ad26d49a"},"vehicle_type_id":"4","last_reported":1701446937,"current_range_meters":31200,"station_id":"ce4bhn12rcd13ifvqgpg","pricing_plan_id":"free"},{"bike_id":"6462fbc5-ceb8-47e3-b56d-fc1e69bef19f","system_id":"levelo_inurba_marseille","lat":43.231919,"lon":5.355532,"is_reserved":false,"is_disabled":false,"rental_uris":{"android":"levelo://app?vid=6462fbc5-ceb8-47e3-b56d-fc1e69bef19f","ios":"levelo://app?vid=6462fbc5-ceb8-47e3-b56d-fc1e69bef19f"},"vehicle_type_id":"4","last_reported":1701446937,"current_range_meters":0,"station_id":"ce4bhu92rcd13ifvqi70","pricing_plan_id":"free"},{"bike_id":"6382809b-45d0-4ad2-8be7-697249f82077","system_id":"levelo_inurba_marseille","lat":43.231919,"lon":5.355532,"is_reserved":false,"is_disabled":false,"rental_uris":{"android":"levelo://app?vid=6382809b-45d0-4ad2-8be7-697249f82077","ios":"levelo://app?vid=6382809b-45d0-4ad2-8be7-697249f82077"},"vehicle_type_id":"4","last_reported":1701446937,"current_range_meters":31200,"station_id":"ce4bhu92rcd13ifvqi70","pricing_plan_id":"free"},{"bike_id":"4934365a-924b-41f4-aee5-4a432a9353e6","system_id":"levelo_inurba_marseille","lat":43.231919,"lon":5.355532,"is_reserved":false,"is_disabled":false,"rental_uris":{"android":"levelo://app?vid=4934365a-924b-41f4-aee5-4a432a9353e6","ios":"levelo://app?vid=4934365a-924b-41f4-aee5-4a432a9353e6"},"vehicle_type_id":"4","last_reported":1701446937,"current_range_meters":19600,"station_id":"ce4bhu92rcd13ifvqi70","pricing_plan_id":"free"},{"bike_id":"cf3102c4-88e0-4a41-86b7-69a76932d3e6","system_id":"levelo_inurba_marseille","lat":43.231935,"lon":5.355566,"is_reserved":false,"is_disabled":false,"rental_uris":{"android":"levelo://app?vid=cf3102c4-88e0-4a41-86b7-69a76932d3e6","ios":"levelo://app?vid=cf3102c4-88e0-4a41-86b7-69a76932d3e6"},"vehicle_type_id":"4","last_reported":1701446937,"current_range_meters":31200,"station_id":"ce4bhu92rcd13ifvqi70","pricing_plan_id":"free"},{"bike_id":"d919cd84-7675-4a37-b94c-3ba2519b645c","system_id":"levelo_inurba_marseille","lat":43.231919,"lon":5.355532,"is_reserved":false,"is_disabled":false,"rental_uris":{"android":"levelo://app?vid=d919cd84-7675-4a37-b94c-3ba2519b645c","ios":"levelo://app?vid=d919cd84-7675-4a37-b94c-3ba2519b645c"},"vehicle_type_id":"4","last_reported":1701446937,"current_range_meters":28400,"station_id":"ce4bhu92rcd13ifvqi70","pricing_plan_id":"free"},{"bike_id":"d1703505-b125-4a98-a807-11024241bc04","system_id":"levelo_inurba_marseille","lat":43.23192,"lon":5.35555,"is_reserved":false,"is_disabled":false,"rental_uris":{"android":"levelo://app?vid=d1703505-b125-4a98-a807-11024241bc04","ios":"levelo://app?vid=d1703505-b125-4a98-a807-11024241bc04"},"vehicle_type_id":"4","last_reported":1701446937,"current_range_meters":31200,"station_id":"ce4bhu92rcd13ifvqi70","pricing_plan_id":"free"},{"bike_id":"5aaa36a6-4257-480d-95b7-86aa5f368a64","system_id":"levelo_inurba_marseille","lat":43.231919,"lon":5.355532,"is_reserved":false,"is_disabled":false,"rental_uris":{"android":"levelo://app?vid=5aaa36a6-4257-480d-95b7-86aa5f368a64","ios":"levelo://app?vid=5aaa36a6-4257-480d-95b7-86aa5f368a64"},"vehicle_type_id":"4","last_reported":1701446937,"current_range_meters":22000,"station_id":"ce4bhu92rcd13ifvqi70","pricing_plan_id":"free"},{"bike_id":"9ff17cff-0c1b-43a5-bc58-4db3553aeb7c","system_id":"levelo_inurba_marseille","lat":43.231794,"lon":5.400052,"is_reserved":false,"is_disabled":false,"rental_uris":{"android":"levelo://app?vid=9ff17cff-0c1b-43a5-bc58-4db3553aeb7c","ios":"levelo://app?vid=9ff17cff-0c1b-43a5-bc58-4db3553aeb7c"},"vehicle_type_id":"4","last_reported":1701446937,"current_range_meters":12400,"station_id":"ce4bhn12rcd13ifvqgqg","pricing_plan_id":"free"},{"bike_id":"bfb1ccb5-dfa1-425d-901e-02799fedd445","system_id":"levelo_inurba_marseille","lat":43.23188,"lon":5.39998,"is_reserved":false,"is_disabled":false,"rental_uris":{"android":"levelo://app?vid=bfb1ccb5-dfa1-425d-901e-02799fedd445","ios":"levelo://app?vid=bfb1ccb5-dfa1-425d-901e-02799fedd445"},"vehicle_type_id":"4","last_reported":1701446937,"current_range_meters":13600,"station_id":"ce4bhn12rcd13ifvqgqg","pricing_plan_id":"free"},{"bike_id":"e12f8e11-b84e-42bf-bdb7-555721935514","system_id":"levelo_inurba_marseille","lat":43.231794,"lon":5.400052,"is_reserved":false,"is_disabled":false,"rental_uris":{"android":"levelo://app?vid=e12f8e11-b84e-42bf-bdb7-555721935514","ios":"levelo://app?vid=e12f8e11-b84e-42bf-bdb7-555721935514"},"vehicle_type_id":"4","last_reported":1701446937,"current_range_meters":21600,"station_id":"ce4bhn12rcd13ifvqgqg","pricing_plan_id":"free"},{"bike_id":"22bd98e3-c33f-4c44-ae2b-f96729d36f4f","system_id":"levelo_inurba_marseille","lat":43.23187,"lon":5.39995,"is_reserved":false,"is_disabled":false,"rental_uris":{"android":"levelo://app?vid=22bd98e3-c33f-4c44-ae2b-f96729d36f4f","ios":"levelo://app?vid=22bd98e3-c33f-4c44-ae2b-f96729d36f4f"},"vehicle_type_id":"4","last_reported":1701446937,"current_range_meters":31200,"station_id":"ce4bhn12rcd13ifvqgqg","pricing_plan_id":"free"},{"bike_id":"d0b35396-6769-42d4-8160-8b44cb829902","system_id":"levelo_inurba_marseille","lat":43.231793,"lon":5.400044,"is_reserved":false,"is_disabled":false,"rental_uris":{"android":"levelo://app?vid=d0b35396-6769-42d4-8160-8b44cb829902","ios":"levelo://app?vid=d0b35396-6769-42d4-8160-8b44cb829902"},"vehicle_type_id":"4","last_reported":1701446937,"current_range_meters":30800,"station_id":"ce4bhn12rcd13ifvqgqg","pricing_plan_id":"free"},{"bike_id":"179bc0fb-370c-4234-b30f-9121ae3c4192","system_id":"levelo_inurba_marseille","lat":43.231794,"lon":5.400052,"is_reserved":false,"is_disabled":false,"rental_uris":{"android":"levelo://app?vid=179bc0fb-370c-4234-b30f-9121ae3c4192","ios":"levelo://app?vid=179bc0fb-370c-4234-b30f-9121ae3c4192"},"vehicle_type_id":"4","last_reported":1701446937,"current_range_meters":19600,"station_id":"ce4bhn12rcd13ifvqgqg","pricing_plan_id":"free"},{"bike_id":"1eeab9a5-d341-4bc8-8d21-ee151ff9d9b2","system_id":"levelo_inurba_marseille","lat":43.231802,"lon":5.399951,"is_reserved":false,"is_disabled":false,"rental_uris":{"android":"levelo://app?vid=1eeab9a5-d341-4bc8-8d21-ee151ff9d9b2","ios":"levelo://app?vid=1eeab9a5-d341-4bc8-8d21-ee151ff9d9b2"},"vehicle_type_id":"4","last_reported":1701446937,"current_range_meters":22400,"station_id":"ce4bhn12rcd13ifvqgqg","pricing_plan_id":"free"}]}}