{"last_updated":1742310616,"ttl":60,"version":"2.2","data":{"bikes":[{"bike_id":"ed9715ee-bfab-477d-b674-355416faed39","system_id":"levelo_inurba_marseille","lat":43.30135,"lon":5.39856,"is_reserved":false,"is_disabled":false,"rental_uris":{"android":"levelo://app?vid=ed9715ee-bfab-477d-b674-355416faed39","ios":"levelo://app?vid=ed9715ee-bfab-477d-b674-355416faed39"},"vehicle_type_id":"4","last_reported":1742310617,"current_range_meters":2000,"station_id":"ce4bh0h2rcd13ifvqd40","pricing_plan_id":"cebpf4jnsgd1na2vs0mg"},{"bike_id":"2620d77c-9822-456c-b6a1-d24fdd674fd0","system_id":"levelo_inurba_marseille","lat":43.33026,"lon":5.39041,"is_reserved":false,"is_disabled":false,"rental_uris":{"android":"levelo://app?vid=2620d77c-9822-456c-b6a1-d24fdd674fd0","ios":"levelo://app?vid=2620d77c-9822-456c-b6a1-d24fdd674fd0"},"vehicle_type_id":"4","last_reported":1742310617,"current_range_meters":2800,"station_id":"ce4bhr92rcd13ifvqhrg","pricing_plan_id":"cebpf4jnsgd1na2vs0mg"},{"bike_id":"91109253-40b6-4071-bd40-c96317203c57","system_id":"levelo_inurba_marseille","lat":43.2798,"lon":5.41662,"is_reserved":false,"is_disabled":false,"rental_uris":{"android":"levelo://app?vid=91109253-40b6-4071-bd40-c96317203c57","ios":"levelo://app?vid=91109253-40b6-4071-bd40-c96317203c57"},"vehicle_type_id":"4","last_reported":1742310617,"current_range_meters":2800,"station_id":"ce4bho12rcd13ifvqh1g","pricing_plan_id":"cebpf4jnsgd1na2vs0mg"},{"bike_id":"d7386500-9e24-4533-8ec6-6ec74a864c96","system_id":"levelo_inurba_marseille","lat":43.31227,"lon":5.36855,"is_reserved":false,"is_disabled":false,"rental_uris":{"android":"levelo://app?vid=d7386500-9e24-4533-8ec6-6ec74a864c96","ios":"levelo://app?vid=d7386500-9e24-4533-8ec6-6ec74a864c96"},"vehicle_type_id":"4","last_reported":1742310617,"current_range_meters":3200,"station_id":"ce4bgl92rcd13ifvqbq0","pricing_plan_id":"cebpf4jnsgd1na2vs0mg"},{"bike_id":"bd7972da-aaba-40cc-9ebd-ba2fa41c6ded","system_id":"levelo_inurba_marseille","lat":43.27068,"lon":5.42283,"is_reserved":false,"is_disabled":false,"rental_uris":{"android":"levelo://app?vid=bd7972da-aaba-40cc-9ebd-ba2fa41c6ded","ios":"levelo://app?vid=bd7972da-aaba-40cc-9ebd-ba2fa41c6ded"},"vehicle_type_id":"4","last_reported":1742310617,"current_range_meters":3600,"station_id":"ce4bhk92rcd13ifvqgb0","pricing_plan_id":"cebpf4jnsgd1na2vs0mg"},{"bike_id":"f7e663e5-8b99-43c8-ae60-466e12940c3f","system_id":"levelo_inurba_marseille","lat":43.28615,"lon":5.35106,"is_reserved":false,"is_disabled":false,"rental_uris":{"android":"levelo://app?vid=f7e663e5-8b99-43c8-ae60-466e12940c3f","ios":"levelo://app?vid=f7e663e5-8b99-43c8-ae60-466e12940c3f"},"vehicle_type_id":"4","last_reported":1742310617,"current_range_meters":3600,"station_id":"ce4bhch2rcd13ifvqeug","pricing_plan_id":"cebpf4jnsgd1na2vs0mg"},{"bike_id":"dea8a728-2327-4c09-971d-40fc8e4576f4","system_id":"levelo_inurba_marseille","lat":43.2991,"lon":5.38153,"is_reserved":false,"is_disabled":false,"rental_uris":{"android":"levelo://app?vid=dea8a728-2327-4c09-971d-40fc8e4576f4","ios":"levelo://app?vid=dea8a728-2327-4c09-971d-40fc8e4576f4"},"vehicle_type_id":"4","last_reported":1742310617,"current_range_meters":3600,"station_id":"ce4bgj12rcd13ifvqbc0","pricing_plan_id":"cebpf4jnsgd1na2vs0mg"},{"bike_id":"7de0a85f-ca60-4ca2-9efe-729166223a2a","system_id":"levelo_inurba_marseille","lat":43.2898,"lon":5.37837,"is_reserved":false,"is_disabled":false,"rental_uris":{"android":"levelo://app?vid=7de0a85f-ca60-4ca2-9efe-729166223a2a","ios":"levelo://app?vid=7de0a85f-ca60-4ca2-9efe-729166223a2a"},"vehicle_type_id":"4","last_reported":1742310617,"current_range_meters":3600,"station_id":"ce4bh9p2rcd13ifvqed0","pricing_plan_id":"cebpf4jnsgd1na2vs0mg"},{"bike_id":"307c3dc1-37c5-452d-8d5a-e117b1248bbb","system_id":"levelo_inurba_marseille","lat":43.2811,"lon":5.37832,"is_reserved":false,"is_disabled":false,"rental_uris":{"android":"levelo://app?vid=307c3dc1-37c5-452d-8d5a-e117b1248bbb","ios":"levelo://app?vid=307c3dc1-37c5-452d-8d5a-e117b1248bbb"},"vehicle_type_id":"4","last_reported":1742310617,"current_range_meters":3600,"station_id":"ce4bha12rcd13ifvqee0","pricing_plan_id":"cebpf4jnsgd1na2vs0mg"},{"bike_id":"4f04222a-07ae-4b57-8bc2-a90113f7ed74","system_id":"levelo_inurba_marseille","lat":43.29268,"lon":5.38452,"is_reserved":false,"is_disabled":false,"rental_uris":{"android":"levelo://app?vid=4f04222a-07ae-4b57-8bc2-a90113f7ed74","ios":"levelo://app?vid=4f04222a-07ae-4b57-8bc2-a90113f7ed74"},"vehicle_type_id":"4","last_reported":1742310617,"current_range_meters":3600,"station_id":"ce4bh692rcd13ifvqea0","pricing_plan_id":"cebpf4jnsgd1na2vs0mg"},{"bike_id":"672498a7-c4db-4945-9364-93ab74f594d1","system_id":"levelo_inurba_marseille","lat":43.29587,"lon":5.38113,"is_reserved":false,"is_disabled":false,"rental_uris":{"android":"levelo://app?vid=672498a7-c4db-4945-9364-93ab74f594d1","ios":"levelo://app?vid=672498a7-c4db-4945-9364-93ab74f594d1"},"vehicle_type_id":"4","last_reported":1742310617,"current_range_meters":4000,"station_id":"ce4bgl12rcd13ifvqbo0","pricing_plan_id":"cebpf4jnsgd1na2vs0mg"},{"bike_id":"e687940f-3c9c-4a24-82d3-cc513234d0f2","system_id":"levelo_inurba_marseille","lat":43.26224,"lon":5.40465,"is_reserved":false,"is_disabled":true,"rental_uris":{"android":"levelo://app?vid=e687940f-3c9c-4a24-82d3-cc513234d0f2","ios":"levelo://app?vid=e687940f-3c9c-4a24-82d3-cc513234d0f2"},"vehicle_type_id":"4","last_reported":1742310617,"current_range_meters":4000,"station_id":"ce4bhmh2rcd13ifvqgmg","pricing_plan_id":"cebpf4jnsgd1na2vs0mg"},{"bike_id":"05aa812c-c339-4fa9-8361-290b2aea8fef","system_id":"levelo_inurba_marseille","lat":43.31688,"lon":5.40474,"is_reserved":false,"is_disabled":false,"rental_uris":{"android":"levelo://app?vid=05aa812c-c339-4fa9-8361-290b2aea8fef","ios":"levelo://app?vid=05aa812c-c339-4fa9-8361-290b2aea8fef"},"vehicle_type_id":"4","last_reported":1742310617,"current_range_meters":4000,"station_id":"ce4bh012rcd13ifvqd00","pricing_plan_id":"cebpf4jnsgd1na2vs0mg"},{"bike_id":"ce422e80-47ff-4f79-b078-6d98aef6f916","system_id":"levelo_inurba_marseille","lat":43.30524,"lon":5.36711,"is_reserved":false,"is_disabled":false,"rental_uris":{"android":"levelo://app?vid=ce422e80-47ff-4f79-b078-6d98aef6f916","ios":"levelo://app?vid=ce422e80-47ff-4f79-b078-6d98aef6f916"},"vehicle_type_id":"4","last_reported":1742310617,"current_range_meters":4000,"station_id":"ce4bgrp2rcd13ifvqc9g","pricing_plan_id":"cebpf4jnsgd1na2vs0mg"},{"bike_id":"78fb26e4-a5d5-443b-9d77-0c5aa342490c","system_id":"levelo_inurba_marseille","lat":43.33024,"lon":5.39045,"is_reserved":false,"is_disabled":false,"rental_uris":{"android":"levelo://app?vid=78fb26e4-a5d5-443b-9d77-0c5aa342490c","ios":"levelo://app?vid=78fb26e4-a5d5-443b-9d77-0c5aa342490c"},"vehicle_type_id":"4","last_reported":1742310617,"current_range_meters":4400,"station_id":"ce4bhr92rcd13ifvqhrg","pricing_plan_id":"cebpf4jnsgd1na2vs0mg"},{"bike_id":"7e52f82d-2954-4eb4-93cb-863204af762e","system_id":"levelo_inurba_marseille","lat":43.28437,"lon":5.39197,"is_reserved":false,"is_disabled":false,"rental_uris":{"android":"levelo://app?vid=7e52f82d-2954-4eb4-93cb-863204af762e","ios":"levelo://app?vid=7e52f82d-2954-4eb4-93cb-863204af762e"},"vehicle_type_id":"4","last_reported":1742310617,"current_range_meters":4400,"station_id":"ce4bhoh2rcd13ifvqh5g","pricing_plan_id":"cebpf4jnsgd1na2vs0mg"},{"bike_id":"0da6bf62-c923-4400-ad44-10ba95bafd16","system_id":"levelo_inurba_marseille","lat":43.2603,"lon":5.3755,"is_reserved":false,"is_disabled":false,"rental_uris":{"android":"levelo://app?vid=0da6bf62-c923-4400-ad44-10ba95bafd16","ios":"levelo://app?vid=0da6bf62-c923-4400-ad44-10ba95bafd16"},"vehicle_type_id":"4","last_reported":1742310617,"current_range_meters":4400,"station_id":"ce4bhgh2rcd13ifvqfa0","pricing_plan_id":"cebpf4jnsgd1na2vs0mg"},{"bike_id":"8cb31a56-cce8-4346-912e-9afe2a030c38","system_id":"levelo_inurba_marseille","lat":43.29418,"lon":5.38635,"is_reserved":false,"is_disabled":false,"rental_uris":{"android":"levelo://app?vid=8cb31a56-cce8-4346-912e-9afe2a030c38","ios":"levelo://app?vid=8cb31a56-cce8-4346-912e-9afe2a030c38"},"vehicle_type_id":"4","last_reported":1742310617,"current_range_meters":4800,"station_id":"ce4bh2h2rcd13ifvqdh0","pricing_plan_id":"cebpf4jnsgd1na2vs0mg"},{"bike_id":"19b149cd-62e5-41e9-9adb-122b59d9feb7","system_id":"levelo_inurba_marseille","lat":43.3088,"lon":5.39655,"is_reserved":false,"is_disabled":false,"rental_uris":{"android":"levelo://app?vid=19b149cd-62e5-41e9-9adb-122b59d9feb7","ios":"levelo://app?vid=19b149cd-62e5-41e9-9adb-122b59d9feb7"},"vehicle_type_id":"4","last_reported":1742310617,"current_range_meters":4800,"station_id":"ce4bh012rcd13ifvqcv0","pricing_plan_id":"cebpf4jnsgd1na2vs0mg"},{"bike_id":"fb8e6ddf-9b6c-48aa-a906-fe594323480c","system_id":"levelo_inurba_marseille","lat":43.28711,"lon":5.37929,"is_reserved":false,"is_disabled":false,"rental_uris":{"android":"levelo://app?vid=fb8e6ddf-9b6c-48aa-a906-fe594323480c","ios":"levelo://app?vid=fb8e6ddf-9b6c-48aa-a906-fe594323480c"},"vehicle_type_id":"4","last_reported":1742310617,"current_range_meters":4800,"station_id":"ce4bh9p2rcd13ifvqec0","pricing_plan_id":"cebpf4jnsgd1na2vs0mg"},{"bike_id":"92d84c83-e931-4bad-a160-6a67d869bd3f","system_id":"levelo_inurba_marseille","lat":43.30588,"lon":5.3935,"is_reserved":false,"is_disabled":false,"rental_uris":{"android":"levelo://app?vid=92d84c83-e931-4bad-a160-6a67d869bd3f","ios":"levelo://app?vid=92d84c83-e931-4bad-a160-6a67d869bd3f"},"vehicle_type_id":"4","last_reported":1742310617,"current_range_meters":5600,"station_id":"ce4bh0p2rcd13ifvqd80","pricing_plan_id":"cebpf4jnsgd1na2vs0mg"},{"bike_id":"057c4299-c24d-4a02-8ede-b4bf9523726b","system_id":"levelo_inurba_marseille","lat":43.23139,"lon":5.43733,"is_reserved":false,"is_disabled":true,"rental_uris":{"android":"levelo://app?vid=057c4299-c24d-4a02-8ede-b4bf9523726b","ios":"levelo://app?vid=057c4299-c24d-4a02-8ede-b4bf9523726b"},"vehicle_type_id":"4","last_reported":1742310617,"current_range_meters":5600,"station_id":"ce4bhmp2rcd13ifvqgog","pricing_plan_id":"cebpf4jnsgd1na2vs0mg"},{"bike_id":"269ab67e-59b3-4e77-9e32-ad8f65bff8aa","system_id":"levelo_inurba_marseille","lat":43.2898,"lon":5.37835,"is_reserved":false,"is_disabled":false,"rental_uris":{"android":"levelo://app?vid=269ab67e-59b3-4e77-9e32-ad8f65bff8aa","ios":"levelo://app?vid=269ab67e-59b3-4e77-9e32-ad8f65bff8aa"},"vehicle_type_id":"4","last_reported":1742310617,"current_range_meters":5600,"station_id":"ce4bh9p2rcd13ifvqed0","pricing_plan_id":"cebpf4jnsgd1na2vs0mg"},{"bike_id":"e95151cd-abc4-4dae-8ab5-1de4cba734f5","system_id":"levelo_inurba_marseille","lat":43.24177,"lon":5.39722,"is_reserved":false,"is_disabled":false,"rental_uris":{"android":"levelo://app?vid=e95151cd-abc4-4dae-8ab5-1de4cba734f5","ios":"levelo://app?vid=e95151cd-abc4-4dae-8ab5-1de4cba734f5"},"vehicle_type_id":"4","last_reported":1742310617,"current_range_meters":5600,"station_id":"ce4bhn12rcd13ifvqgpg","pricing_plan_id":"cebpf4jnsgd1na2vs0mg"},{"bike_id":"c5a3a776-82c1-4712-807a-5fc2d949bea6","system_id":"levelo_inurba_marseille","lat":43.28457,"lon":5.35886,"is_reserved":false,"is_disabled":false,"rental_uris":{"android":"levelo://app?vid=c5a3a776-82c1-4712-807a-5fc2d949bea6","ios":"levelo://app?vid=c5a3a776-82c1-4712-807a-5fc2d949bea6"},"vehicle_type_id":"4","last_reported":1742310617,"current_range_meters":5600,"station_id":"ce4bhah2rcd13ifvqei0","pricing_plan_id":"cebpf4jnsgd1na2vs0mg"},{"bike_id":"dd117a7c-a536-40a1-91af-43693b0b8fe5","system_id":"levelo_inurba_marseille","lat":43.25912,"lon":5.40853,"is_reserved":false,"is_disabled":false,"rental_uris":{"android":"levelo://app?vid=dd117a7c-a536-40a1-91af-43693b0b8fe5","ios":"levelo://app?vid=dd117a7c-a536-40a1-91af-43693b0b8fe5"},"vehicle_type_id":"4","last_reported":1742310617,"current_range_meters":5600,"station_id":"ce4bhm92rcd13ifvqglg","pricing_plan_id":"cebpf4jnsgd1na2vs0mg"},{"bike_id":"fdf97480-fa57-4dc5-9e4d-833b76ee30bd","system_id":"levelo_inurba_marseille","lat":43.29593,"lon":5.38097,"is_reserved":false,"is_disabled":false,"rental_uris":{"android":"levelo://app?vid=fdf97480-fa57-4dc5-9e4d-833b76ee30bd","ios":"levelo://app?vid=fdf97480-fa57-4dc5-9e4d-833b76ee30bd"},"vehicle_type_id":"4","last_reported":1742310617,"current_range_meters":5600,"station_id":"ce4bgl12rcd13ifvqbo0","pricing_plan_id":"cebpf4jnsgd1na2vs0mg"},{"bike_id":"d1676c12-45d0-460a-ab7d-e6bd42a8628c","system_id":"levelo_inurba_marseille","lat":43.25926,"lon":5.4088,"is_reserved":false,"is_disabled":false,"rental_uris":{"android":"levelo://app?vid=d1676c12-45d0-460a-ab7d-e6bd42a8628c","ios":"levelo://app?vid=d1676c12-45d0-460a-ab7d-e6bd42a8628c"},"vehicle_type_id":"4","last_reported":1742310617,"current_range_meters":6000,"station_id":"ce4bhm92rcd13ifvqglg","pricing_plan_id":"cebpf4jnsgd1na2vs0mg"},{"bike_id":"fa5f15ab-8994-45e1-84de-31aa4c8b3ced","system_id":"levelo_inurba_marseille","lat":43.23192,"lon":5.35559,"is_reserved":false,"is_disabled":false,"rental_uris":{"android":"levelo://app?vid=fa5f15ab-8994-45e1-84de-31aa4c8b3ced","ios":"levelo://app?vid=fa5f15ab-8994-45e1-84de-31aa4c8b3ced"},"vehicle_type_id":"4","last_reported":1742310617,"current_range_meters":6000,"station_id":"ce4bhu92rcd13ifvqi70","pricing_plan_id":"cebpf4jnsgd1na2vs0mg"},{"bike_id":"6e98e9e8-4612-49ca-abb5-21c5a1cf7526","system_id":"levelo_inurba_marseille","lat":43.248,"lon":5.37456,"is_reserved":false,"is_disabled":false,"rental_uris":{"android":"levelo://app?vid=6e98e9e8-4612-49ca-abb5-21c5a1cf7526","ios":"levelo://app?vid=6e98e9e8-4612-49ca-abb5-21c5a1cf7526"},"vehicle_type_id":"4","last_reported":1742310617,"current_range_meters":6000,"station_id":"ce4bhgh2rcd13ifvqfb0","pricing_plan_id":"cebpf4jnsgd1na2vs0mg"},{"bike_id":"11f5b5e7-a29d-4a01-9caf-a099971075ad","system_id":"levelo_inurba_marseille","lat":43.25581,"lon":5.38224,"is_reserved":false,"is_disabled":false,"rental_uris":{"android":"levelo://app?vid=11f5b5e7-a29d-4a01-9caf-a099971075ad","ios":"levelo://app?vid=11f5b5e7-a29d-4a01-9caf-a099971075ad"},"vehicle_type_id":"4","last_reported":1742310617,"current_range_meters":6000,"station_id":"ce4bhih2rcd13ifvqfs0","pricing_plan_id":"cebpf4jnsgd1na2vs0mg"},{"bike_id":"b54a649d-2707-4569-87ee-d2c230e19409","system_id":"levelo_inurba_marseille","lat":43.27473,"lon":5.40898,"is_reserved":false,"is_disabled":false,"rental_uris":{"android":"levelo://app?vid=b54a649d-2707-4569-87ee-d2c230e19409","ios":"levelo://app?vid=b54a649d-2707-4569-87ee-d2c230e19409"},"vehicle_type_id":"4","last_reported":1742310617,"current_range_meters":6000,"station_id":"","pricing_plan_id":"cebpf4jnsgd1na2vs0mg"},{"bike_id":"7b176a54-d415-4849-b7f2-7c10e70da80c","system_id":"levelo_inurba_marseille","lat":43.23153,"lon":5.43722,"is_reserved":false,"is_disabled":false,"rental_uris":{"android":"levelo://app?vid=7b176a54-d415-4849-b7f2-7c10e70da80c","ios":"levelo://app?vid=7b176a54-d415-4849-b7f2-7c10e70da80c"},"vehicle_type_id":"4","last_reported":1742310617,"current_range_meters":6000,"station_id":"ce4bhmp2rcd13ifvqgog","pricing_plan_id":"cebpf4jnsgd1na2vs0mg"},{"bike_id":"ee2fc638-61a6-450e-926a-85b50463f26d","system_id":"levelo_inurba_marseille","lat":43.3031,"lon":5.36889,"is_reserved":false,"is_disabled":false,"rental_uris":{"android":"levelo://app?vid=ee2fc638-61a6-450e-926a-85b50463f26d","ios":"levelo://app?vid=ee2fc638-61a6-450e-926a-85b50463f26d"},"vehicle_type_id":"4","last_reported":1742310617,"current_range_meters":6400,"station_id":"ce4bgqh2rcd13ifvqc5g","pricing_plan_id":"cebpf4jnsgd1na2vs0mg"},{"bike_id":"632c2221-e019-48de-aac3-9d806f0056f4","system_id":"levelo_inurba_marseille","lat":43.24174,"lon":5.3973,"is_reserved":false,"is_disabled":false,"rental_uris":{"android":"levelo://app?vid=632c2221-e019-48de-aac3-9d806f0056f4","ios":"levelo://app?vid=632c2221-e019-48de-aac3-9d806f0056f4"},"vehicle_type_id":"4","last_reported":1742310617,"current_range_meters":6400,"station_id":"ce4bhn12rcd13ifvqgpg","pricing_plan_id":"cebpf4jnsgd1na2vs0mg"},{"bike_id":"6d8e8090-a4c7-4966-a3f4-a833922b9e5a","system_id":"levelo_inurba_marseille","lat":43.23207,"lon":5.35553,"is_reserved":false,"is_disabled":false,"rental_uris":{"android":"levelo://app?vid=6d8e8090-a4c7-4966-a3f4-a833922b9e5a","ios":"levelo://app?vid=6d8e8090-a4c7-4966-a3f4-a833922b9e5a"},"vehicle_type_id":"4","last_reported":1742310617,"current_range_meters":6800,"station_id":"ce4bhu92rcd13ifvqi70","pricing_plan_id":"cebpf4jnsgd1na2vs0mg"},{"bike_id":"1c75c6b1-aadc-4645-8695-2aa87290e132","system_id":"levelo_inurba_marseille","lat":43.25,"lon":5.38944,"is_reserved":false,"is_disabled":false,"rental_uris":{"android":"levelo://app?vid=1c75c6b1-aadc-4645-8695-2aa87290e132","ios":"levelo://app?vid=1c75c6b1-aadc-4645-8695-2aa87290e132"},"vehicle_type_id":"4","last_reported":1742310617,"current_range_meters":6800,"station_id":"ce4bhgp2rcd13ifvqfd0","pricing_plan_id":"cebpf4jnsgd1na2vs0mg"},{"bike_id":"2665cc4b-07ed-4ae6-a66f-2b09983c709d","system_id":"levelo_inurba_marseille","lat":43.33761,"lon":5.37489,"is_reserved":false,"is_disabled":false,"rental_uris":{"android":"levelo://app?vid=2665cc4b-07ed-4ae6-a66f-2b09983c709d","ios":"levelo://app?vid=2665cc4b-07ed-4ae6-a66f-2b09983c709d"},"vehicle_type_id":"4","last_reported":1742310617,"current_range_meters":6800,"station_id":"","pricing_plan_id":"cebpf4jnsgd1na2vs0mg"},{"bike_id":"0c2fece3-0f85-434b-88ad-b6d5feb345a8","system_id":"levelo_inurba_marseille","lat":43.31331,"lon":5.39695,"is_reserved":false,"is_disabled":false,"rental_uris":{"android":"levelo://app?vid=0c2fece3-0f85-434b-88ad-b6d5feb345a8","ios":"levelo://app?vid=0c2fece3-0f85-434b-88ad-b6d5feb345a8"},"vehicle_type_id":"4","last_reported":1742310617,"current_range_meters":6400,"station_id":"ce4bgvp2rcd13ifvqcu0","pricing_plan_id":"cebpf4jnsgd1na2vs0mg"},{"bike_id":"c0b994da-9f3a-46d0-8438-0eb36158600e","system_id":"levelo_inurba_marseille","lat":43.28423,"lon":5.34985,"is_reserved":false,"is_disabled":false,"rental_uris":{"android":"levelo://app?vid=c0b994da-9f3a-46d0-8438-0eb36158600e","ios":"levelo://app?vid=c0b994da-9f3a-46d0-8438-0eb36158600e"},"vehicle_type_id":"4","last_reported":1742310617,"current_range_meters":6800,"station_id":"ce4bhbh2rcd13ifvqepg","pricing_plan_id":"cebpf4jnsgd1na2vs0mg"},{"bike_id":"b1b41327-66f3-4983-ac80-93a6af2a034d","system_id":"levelo_inurba_marseille","lat":43.2307,"lon":5.35492,"is_reserved":false,"is_disabled":false,"rental_uris":{"android":"levelo://app?vid=b1b41327-66f3-4983-ac80-93a6af2a034d","ios":"levelo://app?vid=b1b41327-66f3-4983-ac80-93a6af2a034d"},"vehicle_type_id":"4","last_reported":1742310617,"current_range_meters":7200,"station_id":"cpo3342slgdg3j2ifvpg","pricing_plan_id":"cebpf4jnsgd1na2vs0mg"},{"bike_id":"3e5ceca8-30e7-435c-8db9-9990e4662ff1","system_id":"levelo_inurba_marseille","lat":43.24658,"lon":5.38162,"is_reserved":false,"is_disabled":false,"rental_uris":{"android":"levelo://app?vid=3e5ceca8-30e7-435c-8db9-9990e4662ff1","ios":"levelo://app?vid=3e5ceca8-30e7-435c-8db9-9990e4662ff1"},"vehicle_type_id":"4","last_reported":1742310617,"current_range_meters":7200,"station_id":"ce4bhih2rcd13ifvqfr0","pricing_plan_id":"cebpf4jnsgd1na2vs0mg"},{"bike_id":"8e03aa58-ae0d-451f-9195-96a8b55d6bb6","system_id":"levelo_inurba_marseille","lat":43.29921,"lon":5.37481,"is_reserved":false,"is_disabled":false,"rental_uris":{"android":"levelo://app?vid=8e03aa58-ae0d-451f-9195-96a8b55d6bb6","ios":"levelo://app?vid=8e03aa58-ae0d-451f-9195-96a8b55d6bb6"},"vehicle_type_id":"4","last_reported":1742310617,"current_range_meters":7200,"station_id":"ce4bgjh2rcd13ifvqbg0","pricing_plan_id":"cebpf4jnsgd1na2vs0mg"},{"bike_id":"0414c92c-7144-48ed-abc0-69cdccd9ea5d","system_id":"levelo_inurba_marseille","lat":43.2418,"lon":5.39726,"is_reserved":false,"is_disabled":false,"rental_uris":{"android":"levelo://app?vid=0414c92c-7144-48ed-abc0-69cdccd9ea5d","ios":"levelo://app?vid=0414c92c-7144-48ed-abc0-69cdccd9ea5d"},"vehicle_type_id":"4","last_reported":1742310617,"current_range_meters":7200,"station_id":"ce4bhn12rcd13ifvqgpg","pricing_plan_id":"cebpf4jnsgd1na2vs0mg"},{"bike_id":"09f8050c-ce4d-4548-9c05-e837f6d69040","system_id":"levelo_inurba_marseille","lat":43.30204,"lon":5.39464,"is_reserved":false,"is_disabled":false,"rental_uris":{"android":"levelo://app?vid=09f8050c-ce4d-4548-9c05-e837f6d69040","ios":"levelo://app?vid=09f8050c-ce4d-4548-9c05-e837f6d69040"},"vehicle_type_id":"4","last_reported":1742310617,"current_range_meters":7200,"station_id":"ce4bh0p2rcd13ifvqd70","pricing_plan_id":"cebpf4jnsgd1na2vs0mg"},{"bike_id":"0d3accb9-853e-4df0-b9d8-4607b8048f46","system_id":"levelo_inurba_marseille","lat":43.24172,"lon":5.36399,"is_reserved":false,"is_disabled":false,"rental_uris":{"android":"levelo://app?vid=0d3accb9-853e-4df0-b9d8-4607b8048f46","ios":"levelo://app?vid=0d3accb9-853e-4df0-b9d8-4607b8048f46"},"vehicle_type_id":"4","last_reported":1742310617,"current_range_meters":7200,"station_id":"cpo36qri1sfpv3e86is0","pricing_plan_id":"cebpf4jnsgd1na2vs0mg"},{"bike_id":"c47a8496-d65a-42c4-b785-ef9a0a600e7e","system_id":"levelo_inurba_marseille","lat":43.241817,"lon":5.396082,"is_reserved":false,"is_disabled":false,"rental_uris":{"android":"levelo://app?vid=c47a8496-d65a-42c4-b785-ef9a0a600e7e","ios":"levelo://app?vid=c47a8496-d65a-42c4-b785-ef9a0a600e7e"},"vehicle_type_id":"4","last_reported":1742310617,"current_range_meters":7200,"station_id":"ce4bhn12rcd13ifvqgqg","pricing_plan_id":"cebpf4jnsgd1na2vs0mg"},{"bike_id":"551cc65b-fe42-4531-8213-651475bbd808","system_id":"levelo_inurba_marseille","lat":43.25007,"lon":5.38933,"is_reserved":false,"is_disabled":false,"rental_uris":{"android":"levelo://app?vid=551cc65b-fe42-4531-8213-651475bbd808","ios":"levelo://app?vid=551cc65b-fe42-4531-8213-651475bbd808"},"vehicle_type_id":"4","last_reported":1742310617,"current_range_meters":7200,"station_id":"ce4bhgp2rcd13ifvqfd0","pricing_plan_id":"cebpf4jnsgd1na2vs0mg"},{"bike_id":"8b47e242-36c2-4968-ba43-3579a3760cf7","system_id":"levelo_inurba_marseille","lat":43.26222,"lon":5.40486,"is_reserved":false,"is_disabled":false,"rental_uris":{"android":"levelo://app?vid=8b47e242-36c2-4968-ba43-3579a3760cf7","ios":"levelo://app?vid=8b47e242-36c2-4968-ba43-3579a3760cf7"},"vehicle_type_id":"4","last_reported":1742310617,"current_range_meters":7200,"station_id":"ce4bhmh2rcd13ifvqgmg","pricing_plan_id":"cebpf4jnsgd1na2vs0mg"},{"bike_id":"bf53558a-323c-40e3-9c37-ac64ba388e1c","system_id":"levelo_inurba_marseille","lat":43.23963,"lon":5.36625,"is_reserved":false,"is_disabled":false,"rental_uris":{"android":"levelo://app?vid=bf53558a-323c-40e3-9c37-ac64ba388e1c","ios":"levelo://app?vid=bf53558a-323c-40e3-9c37-ac64ba388e1c"},"vehicle_type_id":"4","last_reported":1742310617,"current_range_meters":7200,"station_id":"ce4bhi12rcd13ifvqfp0","pricing_plan_id":"cebpf4jnsgd1na2vs0mg"},{"bike_id":"b4f9f565-9340-41b7-a7a4-d8951c9c7174","system_id":"levelo_inurba_marseille","lat":43.3088,"lon":5.39661,"is_reserved":false,"is_disabled":false,"rental_uris":{"android":"levelo://app?vid=b4f9f565-9340-41b7-a7a4-d8951c9c7174","ios":"levelo://app?vid=b4f9f565-9340-41b7-a7a4-d8951c9c7174"},"vehicle_type_id":"4","last_reported":1742310617,"current_range_meters":7200,"station_id":"ce4bh012rcd13ifvqcv0","pricing_plan_id":"cebpf4jnsgd1na2vs0mg"},{"bike_id":"280c0ada-e318-4629-8239-0a0e1bacc756","system_id":"levelo_inurba_marseille","lat":43.26232,"lon":5.40451,"is_reserved":false,"is_disabled":false,"rental_uris":{"android":"levelo://app?vid=280c0ada-e318-4629-8239-0a0e1bacc756","ios":"levelo://app?vid=280c0ada-e318-4629-8239-0a0e1bacc756"},"vehicle_type_id":"4","last_reported":1742310617,"current_range_meters":7200,"station_id":"ce4bhmh2rcd13ifvqgmg","pricing_plan_id":"cebpf4jnsgd1na2vs0mg"},{"bike_id":"e113ab42-ac6c-409f-a210-0c652769b4aa","system_id":"levelo_inurba_marseille","lat":43.25008,"lon":5.38935,"is_reserved":false,"is_disabled":false,"rental_uris":{"android":"levelo://app?vid=e113ab42-ac6c-409f-a210-0c652769b4aa","ios":"levelo://app?vid=e113ab42-ac6c-409f-a210-0c652769b4aa"},"vehicle_type_id":"4","last_reported":1742310617,"current_range_meters":7200,"station_id":"ce4bhgp2rcd13ifvqfd0","pricing_plan_id":"cebpf4jnsgd1na2vs0mg"},{"bike_id":"c8c83c2c-02d9-4ccf-befe-a918fdafed2c","system_id":"levelo_inurba_marseille","lat":43.27207,"lon":5.39185,"is_reserved":false,"is_disabled":false,"rental_uris":{"android":"levelo://app?vid=c8c83c2c-02d9-4ccf-befe-a918fdafed2c","ios":"levelo://app?vid=c8c83c2c-02d9-4ccf-befe-a918fdafed2c"},"vehicle_type_id":"4","last_reported":1742310617,"current_range_meters":6800,"station_id":"ce4bhhp2rcd13ifvqfm0","pricing_plan_id":"cebpf4jnsgd1na2vs0mg"},{"bike_id":"d3bd6347-02b6-43c8-9cf3-f67da7283d64","system_id":"levelo_inurba_marseille","lat":43.27497,"lon":5.42455,"is_reserved":false,"is_disabled":false,"rental_uris":{"android":"levelo://app?vid=d3bd6347-02b6-43c8-9cf3-f67da7283d64","ios":"levelo://app?vid=d3bd6347-02b6-43c8-9cf3-f67da7283d64"},"vehicle_type_id":"4","last_reported":1742310617,"current_range_meters":8000,"station_id":"ce4bhn92rcd13ifvqgrg","pricing_plan_id":"cebpf4jnsgd1na2vs0mg"},{"bike_id":"33d9406f-513b-45f3-a181-7ac4f13c484b","system_id":"levelo_inurba_marseille","lat":43.28927,"lon":5.38391,"is_reserved":false,"is_disabled":false,"rental_uris":{"android":"levelo://app?vid=33d9406f-513b-45f3-a181-7ac4f13c484b","ios":"levelo://app?vid=33d9406f-513b-45f3-a181-7ac4f13c484b"},"vehicle_type_id":"4","last_reported":1742310617,"current_range_meters":7200,"station_id":"ce4bh612rcd13ifvqe6g","pricing_plan_id":"cebpf4jnsgd1na2vs0mg"},{"bike_id":"97a1e633-c2b3-487e-8569-9036bf18d175","system_id":"levelo_inurba_marseille","lat":43.24173,"lon":5.36405,"is_reserved":false,"is_disabled":false,"rental_uris":{"android":"levelo://app?vid=97a1e633-c2b3-487e-8569-9036bf18d175","ios":"levelo://app?vid=97a1e633-c2b3-487e-8569-9036bf18d175"},"vehicle_type_id":"4","last_reported":1742310617,"current_range_meters":8000,"station_id":"cpo36qri1sfpv3e86is0","pricing_plan_id":"cebpf4jnsgd1na2vs0mg"},{"bike_id":"cad06bf4-186b-4f59-9ac4-6a868b7b53dc","system_id":"levelo_inurba_marseille","lat":43.30874,"lon":5.39631,"is_reserved":false,"is_disabled":false,"rental_uris":{"android":"levelo://app?vid=cad06bf4-186b-4f59-9ac4-6a868b7b53dc","ios":"levelo://app?vid=cad06bf4-186b-4f59-9ac4-6a868b7b53dc"},"vehicle_type_id":"4","last_reported":1742310617,"current_range_meters":8000,"station_id":"ce4bh012rcd13ifvqcv0","pricing_plan_id":"cebpf4jnsgd1na2vs0mg"},{"bike_id":"e1f1746c-6fce-4a66-b2c9-30852c2be2bb","system_id":"levelo_inurba_marseille","lat":43.28362,"lon":5.38638,"is_reserved":false,"is_disabled":false,"rental_uris":{"android":"levelo://app?vid=e1f1746c-6fce-4a66-b2c9-30852c2be2bb","ios":"levelo://app?vid=e1f1746c-6fce-4a66-b2c9-30852c2be2bb"},"vehicle_type_id":"4","last_reported":1742310617,"current_range_meters":8000,"station_id":"ce4bh492rcd13ifvqdvg","pricing_plan_id":"cebpf4jnsgd1na2vs0mg"},{"bike_id":"35695dd4-791c-4486-b261-10bd7a9e52e9","system_id":"levelo_inurba_marseille","lat":43.26226,"lon":5.4045,"is_reserved":false,"is_disabled":true,"rental_uris":{"android":"levelo://app?vid=35695dd4-791c-4486-b261-10bd7a9e52e9","ios":"levelo://app?vid=35695dd4-791c-4486-b261-10bd7a9e52e9"},"vehicle_type_id":"4","last_reported":1742310617,"current_range_meters":8000,"station_id":"ce4bhmh2rcd13ifvqgmg","pricing_plan_id":"cebpf4jnsgd1na2vs0mg"},{"bike_id":"95f29958-eda4-47ea-a4da-592330e7de3f","system_id":"levelo_inurba_marseille","lat":43.28,"lon":5.41667,"is_reserved":false,"is_disabled":false,"rental_uris":{"android":"levelo://app?vid=95f29958-eda4-47ea-a4da-592330e7de3f","ios":"levelo://app?vid=95f29958-eda4-47ea-a4da-592330e7de3f"},"vehicle_type_id":"4","last_reported":1742310617,"current_range_meters":8000,"station_id":"ce4bho12rcd13ifvqh1g","pricing_plan_id":"cebpf4jnsgd1na2vs0mg"},{"bike_id":"b6ed82ed-6cc5-42ba-803e-53ce8f49405d","system_id":"levelo_inurba_marseille","lat":43.25014,"lon":5.38928,"is_reserved":false,"is_disabled":false,"rental_uris":{"android":"levelo://app?vid=b6ed82ed-6cc5-42ba-803e-53ce8f49405d","ios":"levelo://app?vid=b6ed82ed-6cc5-42ba-803e-53ce8f49405d"},"vehicle_type_id":"4","last_reported":1742310617,"current_range_meters":8000,"station_id":"ce4bhgp2rcd13ifvqfd0","pricing_plan_id":"cebpf4jnsgd1na2vs0mg"},{"bike_id":"8fe7e33b-57fc-439c-ba02-015988635c80","system_id":"levelo_inurba_marseille","lat":43.27071,"lon":5.42282,"is_reserved":false,"is_disabled":true,"rental_uris":{"android":"levelo://app?vid=8fe7e33b-57fc-439c-ba02-015988635c80","ios":"levelo://app?vid=8fe7e33b-57fc-439c-ba02-015988635c80"},"vehicle_type_id":"4","last_reported":1742310617,"current_range_meters":8000,"station_id":"ce4bhk92rcd13ifvqgb0","pricing_plan_id":"cebpf4jnsgd1na2vs0mg"},{"bike_id":"3f64db46-28c5-4e26-a87c-f920eb056f94","system_id":"levelo_inurba_marseille","lat":43.24154,"lon":5.36417,"is_reserved":false,"is_disabled":false,"rental_uris":{"android":"levelo://app?vid=3f64db46-28c5-4e26-a87c-f920eb056f94","ios":"levelo://app?vid=3f64db46-28c5-4e26-a87c-f920eb056f94"},"vehicle_type_id":"4","last_reported":1742310617,"current_range_meters":8000,"station_id":"cpo36qri1sfpv3e86is0","pricing_plan_id":"cebpf4jnsgd1na2vs0mg"},{"bike_id":"5acfff0d-6883-40b9-90d2-621af333cea4","system_id":"levelo_inurba_marseille","lat":43.25924,"lon":5.4091,"is_reserved":false,"is_disabled":false,"rental_uris":{"android":"levelo://app?vid=5acfff0d-6883-40b9-90d2-621af333cea4","ios":"levelo://app?vid=5acfff0d-6883-40b9-90d2-621af333cea4"},"vehicle_type_id":"4","last_reported":1742310617,"current_range_meters":8400,"station_id":"ce4bhm92rcd13ifvqglg","pricing_plan_id":"cebpf4jnsgd1na2vs0mg"},{"bike_id":"4a0444b0-2801-4bcd-986d-a5319c19c27d","system_id":"levelo_inurba_marseille","lat":43.2903,"lon":5.35911,"is_reserved":false,"is_disabled":false,"rental_uris":{"android":"levelo://app?vid=4a0444b0-2801-4bcd-986d-a5319c19c27d","ios":"levelo://app?vid=4a0444b0-2801-4bcd-986d-a5319c19c27d"},"vehicle_type_id":"4","last_reported":1742310617,"current_range_meters":8400,"station_id":"ce4bha92rcd13ifvqeg0","pricing_plan_id":"cebpf4jnsgd1na2vs0mg"},{"bike_id":"c7210302-a7fc-4dd4-8df3-138bbb26d5f3","system_id":"levelo_inurba_marseille","lat":43.24996,"lon":5.38942,"is_reserved":false,"is_disabled":false,"rental_uris":{"android":"levelo://app?vid=c7210302-a7fc-4dd4-8df3-138bbb26d5f3","ios":"levelo://app?vid=c7210302-a7fc-4dd4-8df3-138bbb26d5f3"},"vehicle_type_id":"4","last_reported":1742310617,"current_range_meters":8400,"station_id":"ce4bhgp2rcd13ifvqfd0","pricing_plan_id":"cebpf4jnsgd1na2vs0mg"},{"bike_id":"f4ec4873-32b9-41d1-8f10-13c67d308725","system_id":"levelo_inurba_marseille","lat":43.29561,"lon":5.37516,"is_reserved":false,"is_disabled":false,"rental_uris":{"android":"levelo://app?vid=f4ec4873-32b9-41d1-8f10-13c67d308725","ios":"levelo://app?vid=f4ec4873-32b9-41d1-8f10-13c67d308725"},"vehicle_type_id":"4","last_reported":1742310617,"current_range_meters":8400,"station_id":"ce4bgh92rcd13ifvqb50","pricing_plan_id":"cebpf4jnsgd1na2vs0mg"},{"bike_id":"08427715-0a7e-4a22-a87e-29aaa69ad633","system_id":"levelo_inurba_marseille","lat":43.30144,"lon":5.37423,"is_reserved":false,"is_disabled":false,"rental_uris":{"android":"levelo://app?vid=08427715-0a7e-4a22-a87e-29aaa69ad633","ios":"levelo://app?vid=08427715-0a7e-4a22-a87e-29aaa69ad633"},"vehicle_type_id":"4","last_reported":1742310617,"current_range_meters":8400,"station_id":"ce4bgs92rcd13ifvqcc0","pricing_plan_id":"cebpf4jnsgd1na2vs0mg"},{"bike_id":"82d3dad7-63f3-4a7e-8219-54f8cb3f7636","system_id":"levelo_inurba_marseille","lat":43.23141,"lon":5.43721,"is_reserved":false,"is_disabled":false,"rental_uris":{"android":"levelo://app?vid=82d3dad7-63f3-4a7e-8219-54f8cb3f7636","ios":"levelo://app?vid=82d3dad7-63f3-4a7e-8219-54f8cb3f7636"},"vehicle_type_id":"4","last_reported":1742310617,"current_range_meters":8800,"station_id":"ce4bhmp2rcd13ifvqgog","pricing_plan_id":"cebpf4jnsgd1na2vs0mg"},{"bike_id":"64ec1f7b-80b6-4b55-802d-ff36e8c801b9","system_id":"levelo_inurba_marseille","lat":43.28836,"lon":5.35865,"is_reserved":false,"is_disabled":false,"rental_uris":{"android":"levelo://app?vid=64ec1f7b-80b6-4b55-802d-ff36e8c801b9","ios":"levelo://app?vid=64ec1f7b-80b6-4b55-802d-ff36e8c801b9"},"vehicle_type_id":"4","last_reported":1742310617,"current_range_meters":8800,"station_id":"ce4bhb12rcd13ifvqem0","pricing_plan_id":"cebpf4jnsgd1na2vs0mg"},{"bike_id":"6aed93c0-bb32-4569-b0ba-5debbba8cd5e","system_id":"levelo_inurba_marseille","lat":43.30291,"lon":5.3772,"is_reserved":false,"is_disabled":false,"rental_uris":{"android":"levelo://app?vid=6aed93c0-bb32-4569-b0ba-5debbba8cd5e","ios":"levelo://app?vid=6aed93c0-bb32-4569-b0ba-5debbba8cd5e"},"vehicle_type_id":"4","last_reported":1742310617,"current_range_meters":8800,"station_id":"ce4bguh2rcd13ifvqcj0","pricing_plan_id":"cebpf4jnsgd1na2vs0mg"},{"bike_id":"eb11b094-bf47-43ab-bffd-d6c6fa0bddc2","system_id":"levelo_inurba_marseille","lat":43.25005,"lon":5.38938,"is_reserved":false,"is_disabled":false,"rental_uris":{"android":"levelo://app?vid=eb11b094-bf47-43ab-bffd-d6c6fa0bddc2","ios":"levelo://app?vid=eb11b094-bf47-43ab-bffd-d6c6fa0bddc2"},"vehicle_type_id":"4","last_reported":1742310617,"current_range_meters":8800,"station_id":"ce4bhgp2rcd13ifvqfd0","pricing_plan_id":"cebpf4jnsgd1na2vs0mg"},{"bike_id":"9f95887f-a30d-467b-9924-68b6d20f0e49","system_id":"levelo_inurba_marseille","lat":43.23186,"lon":5.39995,"is_reserved":false,"is_disabled":false,"rental_uris":{"android":"levelo://app?vid=9f95887f-a30d-467b-9924-68b6d20f0e49","ios":"levelo://app?vid=9f95887f-a30d-467b-9924-68b6d20f0e49"},"vehicle_type_id":"4","last_reported":1742310617,"current_range_meters":8800,"station_id":"ce4bhn12rcd13ifvqgqg","pricing_plan_id":"cebpf4jnsgd1na2vs0mg"},{"bike_id":"09be20b3-ccfa-43d5-8616-036d82fe33a0","system_id":"levelo_inurba_marseille","lat":43.24994,"lon":5.38938,"is_reserved":false,"is_disabled":false,"rental_uris":{"android":"levelo://app?vid=09be20b3-ccfa-43d5-8616-036d82fe33a0","ios":"levelo://app?vid=09be20b3-ccfa-43d5-8616-036d82fe33a0"},"vehicle_type_id":"4","last_reported":1742310617,"current_range_meters":8800,"station_id":"ce4bhgp2rcd13ifvqfd0","pricing_plan_id":"cebpf4jnsgd1na2vs0mg"},{"bike_id":"a1ddd760-e04f-4cb9-85e1-86f179e2f865","system_id":"levelo_inurba_marseille","lat":43.28683,"lon":5.38667,"is_reserved":false,"is_disabled":false,"rental_uris":{"android":"levelo://app?vid=a1ddd760-e04f-4cb9-85e1-86f179e2f865","ios":"levelo://app?vid=a1ddd760-e04f-4cb9-85e1-86f179e2f865"},"vehicle_type_id":"4","last_reported":1742310617,"current_range_meters":8800,"station_id":"ce4bh492rcd13ifvqdug","pricing_plan_id":"cebpf4jnsgd1na2vs0mg"},{"bike_id":"0f06876d-a6f6-4e3c-bbb0-83f0d512b1df","system_id":"levelo_inurba_marseille","lat":43.25497,"lon":5.37661,"is_reserved":false,"is_disabled":false,"rental_uris":{"android":"levelo://app?vid=0f06876d-a6f6-4e3c-bbb0-83f0d512b1df","ios":"levelo://app?vid=0f06876d-a6f6-4e3c-bbb0-83f0d512b1df"},"vehicle_type_id":"4","last_reported":1742310617,"current_range_meters":8800,"station_id":"ce4bhh12rcd13ifvqff0","pricing_plan_id":"cebpf4jnsgd1na2vs0mg"},{"bike_id":"30034f00-1097-4138-ae42-fbb4f0608eea","system_id":"levelo_inurba_marseille","lat":43.23154,"lon":5.43717,"is_reserved":false,"is_disabled":false,"rental_uris":{"android":"levelo://app?vid=30034f00-1097-4138-ae42-fbb4f0608eea","ios":"levelo://app?vid=30034f00-1097-4138-ae42-fbb4f0608eea"},"vehicle_type_id":"4","last_reported":1742310617,"current_range_meters":8800,"station_id":"ce4bhmp2rcd13ifvqgog","pricing_plan_id":"cebpf4jnsgd1na2vs0mg"},{"bike_id":"506380c0-d924-4e3b-9b6f-99cdf568c29a","system_id":"levelo_inurba_marseille","lat":43.2835,"lon":5.38113,"is_reserved":false,"is_disabled":false,"rental_uris":{"android":"levelo://app?vid=506380c0-d924-4e3b-9b6f-99cdf568c29a","ios":"levelo://app?vid=506380c0-d924-4e3b-9b6f-99cdf568c29a"},"vehicle_type_id":"4","last_reported":1742310617,"current_range_meters":8800,"station_id":"ce4bh412rcd13ifvqdr0","pricing_plan_id":"cebpf4jnsgd1na2vs0mg"},{"bike_id":"741d391f-90d7-4181-bd12-a5dd4665e554","system_id":"levelo_inurba_marseille","lat":43.25931,"lon":5.40874,"is_reserved":false,"is_disabled":false,"rental_uris":{"android":"levelo://app?vid=741d391f-90d7-4181-bd12-a5dd4665e554","ios":"levelo://app?vid=741d391f-90d7-4181-bd12-a5dd4665e554"},"vehicle_type_id":"4","last_reported":1742310617,"current_range_meters":8800,"station_id":"ce4bhm92rcd13ifvqglg","pricing_plan_id":"cebpf4jnsgd1na2vs0mg"},{"bike_id":"d0ecd06f-b344-485c-8550-9fa5bf448f53","system_id":"levelo_inurba_marseille","lat":43.25824,"lon":5.39449,"is_reserved":false,"is_disabled":false,"rental_uris":{"android":"levelo://app?vid=d0ecd06f-b344-485c-8550-9fa5bf448f53","ios":"levelo://app?vid=d0ecd06f-b344-485c-8550-9fa5bf448f53"},"vehicle_type_id":"4","last_reported":1742310617,"current_range_meters":9200,"station_id":"ce4bhip2rcd13ifvqft0","pricing_plan_id":"cebpf4jnsgd1na2vs0mg"},{"bike_id":"4e796c2b-0a84-488c-9312-fc7babc7012d","system_id":"levelo_inurba_marseille","lat":43.27815,"lon":5.40719,"is_reserved":false,"is_disabled":false,"rental_uris":{"android":"levelo://app?vid=4e796c2b-0a84-488c-9312-fc7babc7012d","ios":"levelo://app?vid=4e796c2b-0a84-488c-9312-fc7babc7012d"},"vehicle_type_id":"4","last_reported":1742310617,"current_range_meters":9200,"station_id":"ce4bhnh2rcd13ifvqgtg","pricing_plan_id":"cebpf4jnsgd1na2vs0mg"},{"bike_id":"580a5bb0-70fc-4109-9102-1af7428b7a2e","system_id":"levelo_inurba_marseille","lat":43.28447,"lon":5.35886,"is_reserved":false,"is_disabled":false,"rental_uris":{"android":"levelo://app?vid=580a5bb0-70fc-4109-9102-1af7428b7a2e","ios":"levelo://app?vid=580a5bb0-70fc-4109-9102-1af7428b7a2e"},"vehicle_type_id":"4","last_reported":1742310617,"current_range_meters":9200,"station_id":"ce4bhah2rcd13ifvqei0","pricing_plan_id":"cebpf4jnsgd1na2vs0mg"},{"bike_id":"28ae9a01-03b9-45af-a825-70ce56ab0b3a","system_id":"levelo_inurba_marseille","lat":43.27953,"lon":5.38709,"is_reserved":false,"is_disabled":false,"rental_uris":{"android":"levelo://app?vid=28ae9a01-03b9-45af-a825-70ce56ab0b3a","ios":"levelo://app?vid=28ae9a01-03b9-45af-a825-70ce56ab0b3a"},"vehicle_type_id":"4","last_reported":1742310617,"current_range_meters":9200,"station_id":"ce4bhg12rcd13ifvqf80","pricing_plan_id":"cebpf4jnsgd1na2vs0mg"},{"bike_id":"f46b0fc1-c17a-41b9-abc6-129dbff9d6f8","system_id":"levelo_inurba_marseille","lat":43.262112,"lon":5.374383,"is_reserved":false,"is_disabled":false,"rental_uris":{"android":"levelo://app?vid=f46b0fc1-c17a-41b9-abc6-129dbff9d6f8","ios":"levelo://app?vid=f46b0fc1-c17a-41b9-abc6-129dbff9d6f8"},"vehicle_type_id":"4","last_reported":1742310617,"current_range_meters":8800,"station_id":"ce4bhkp2rcd13ifvqgd0","pricing_plan_id":"cebpf4jnsgd1na2vs0mg"},{"bike_id":"4e950670-b096-4049-8c8c-3012830ea5a4","system_id":"levelo_inurba_marseille","lat":43.24409,"lon":5.37068,"is_reserved":false,"is_disabled":false,"rental_uris":{"android":"levelo://app?vid=4e950670-b096-4049-8c8c-3012830ea5a4","ios":"levelo://app?vid=4e950670-b096-4049-8c8c-3012830ea5a4"},"vehicle_type_id":"4","last_reported":1742310617,"current_range_meters":9200,"station_id":"ce4bhhh2rcd13ifvqfk0","pricing_plan_id":"cebpf4jnsgd1na2vs0mg"},{"bike_id":"0b60e72b-d8b1-4266-9b63-b94b87c1ad4b","system_id":"levelo_inurba_marseille","lat":43.23187,"lon":5.39997,"is_reserved":false,"is_disabled":false,"rental_uris":{"android":"levelo://app?vid=0b60e72b-d8b1-4266-9b63-b94b87c1ad4b","ios":"levelo://app?vid=0b60e72b-d8b1-4266-9b63-b94b87c1ad4b"},"vehicle_type_id":"4","last_reported":1742310617,"current_range_meters":9600,"station_id":"ce4bhn12rcd13ifvqgqg","pricing_plan_id":"cebpf4jnsgd1na2vs0mg"},{"bike_id":"7fe9f16c-c075-4ff2-ae35-21088eff4b11","system_id":"levelo_inurba_marseille","lat":43.29897,"lon":5.43659,"is_reserved":false,"is_disabled":false,"rental_uris":{"android":"levelo://app?vid=7fe9f16c-c075-4ff2-ae35-21088eff4b11","ios":"levelo://app?vid=7fe9f16c-c075-4ff2-ae35-21088eff4b11"},"vehicle_type_id":"4","last_reported":1742310617,"current_range_meters":9600,"station_id":"ce4bhpp2rcd13ifvqhfg","pricing_plan_id":"cebpf4jnsgd1na2vs0mg"},{"bike_id":"35b45c19-b252-4709-92c1-3a51e9179c23","system_id":"levelo_inurba_marseille","lat":43.283508,"lon":5.35026,"is_reserved":false,"is_disabled":false,"rental_uris":{"android":"levelo://app?vid=35b45c19-b252-4709-92c1-3a51e9179c23","ios":"levelo://app?vid=35b45c19-b252-4709-92c1-3a51e9179c23"},"vehicle_type_id":"4","last_reported":1742310617,"current_range_meters":9600,"station_id":"ce4bh192rcd13ifvqdd0","pricing_plan_id":"cebpf4jnsgd1na2vs0mg"},{"bike_id":"519efbbc-7577-4063-8eac-658ef30e98a3","system_id":"levelo_inurba_marseille","lat":43.25,"lon":5.38929,"is_reserved":false,"is_disabled":false,"rental_uris":{"android":"levelo://app?vid=519efbbc-7577-4063-8eac-658ef30e98a3","ios":"levelo://app?vid=519efbbc-7577-4063-8eac-658ef30e98a3"},"vehicle_type_id":"4","last_reported":1742310617,"current_range_meters":9600,"station_id":"ce4bhgp2rcd13ifvqfd0","pricing_plan_id":"cebpf4jnsgd1na2vs0mg"},{"bike_id":"e22545c2-84cf-42ea-81eb-6b2d2c7957d0","system_id":"levelo_inurba_marseille","lat":43.30325,"lon":5.40448,"is_reserved":false,"is_disabled":false,"rental_uris":{"android":"levelo://app?vid=e22545c2-84cf-42ea-81eb-6b2d2c7957d0","ios":"levelo://app?vid=e22545c2-84cf-42ea-81eb-6b2d2c7957d0"},"vehicle_type_id":"4","last_reported":1742310617,"current_range_meters":9600,"station_id":"ce4bh012rcd13ifvqd10","pricing_plan_id":"cebpf4jnsgd1na2vs0mg"},{"bike_id":"adffc0b0-8550-43a2-a64b-d727ff4ea905","system_id":"levelo_inurba_marseille","lat":43.23196,"lon":5.35558,"is_reserved":false,"is_disabled":false,"rental_uris":{"android":"levelo://app?vid=adffc0b0-8550-43a2-a64b-d727ff4ea905","ios":"levelo://app?vid=adffc0b0-8550-43a2-a64b-d727ff4ea905"},"vehicle_type_id":"4","last_reported":1742310617,"current_range_meters":9600,"station_id":"ce4bhu92rcd13ifvqi70","pricing_plan_id":"cebpf4jnsgd1na2vs0mg"},{"bike_id":"00311188-fa1f-4bf2-8286-bd42ab406e85","system_id":"levelo_inurba_marseille","lat":43.28483,"lon":5.38574,"is_reserved":false,"is_disabled":false,"rental_uris":{"android":"levelo://app?vid=00311188-fa1f-4bf2-8286-bd42ab406e85","ios":"levelo://app?vid=00311188-fa1f-4bf2-8286-bd42ab406e85"},"vehicle_type_id":"4","last_reported":1742310617,"current_range_meters":9600,"station_id":"ce4bh8p2rcd13ifvqeb0","pricing_plan_id":"cebpf4jnsgd1na2vs0mg"},{"bike_id":"794247f9-0198-41ae-9af5-991ded60b492","system_id":"levelo_inurba_marseille","lat":43.24647,"lon":5.38183,"is_reserved":false,"is_disabled":false,"rental_uris":{"android":"levelo://app?vid=794247f9-0198-41ae-9af5-991ded60b492","ios":"levelo://app?vid=794247f9-0198-41ae-9af5-991ded60b492"},"vehicle_type_id":"4","last_reported":1742310617,"current_range_meters":9600,"station_id":"ce4bhih2rcd13ifvqfr0","pricing_plan_id":"cebpf4jnsgd1na2vs0mg"},{"bike_id":"5b4883a5-cc0d-4a8f-a3b0-f0bd3027717b","system_id":"levelo_inurba_marseille","lat":43.30124,"lon":5.37417,"is_reserved":false,"is_disabled":false,"rental_uris":{"android":"levelo://app?vid=5b4883a5-cc0d-4a8f-a3b0-f0bd3027717b","ios":"levelo://app?vid=5b4883a5-cc0d-4a8f-a3b0-f0bd3027717b"},"vehicle_type_id":"4","last_reported":1742310617,"current_range_meters":9600,"station_id":"ce4bgs92rcd13ifvqcc0","pricing_plan_id":"cebpf4jnsgd1na2vs0mg"},{"bike_id":"9331b619-4b30-4212-b267-c04dc023b135","system_id":"levelo_inurba_marseille","lat":43.33018,"lon":5.39071,"is_reserved":false,"is_disabled":false,"rental_uris":{"android":"levelo://app?vid=9331b619-4b30-4212-b267-c04dc023b135","ios":"levelo://app?vid=9331b619-4b30-4212-b267-c04dc023b135"},"vehicle_type_id":"4","last_reported":1742310617,"current_range_meters":9600,"station_id":"ce4bhr92rcd13ifvqhrg","pricing_plan_id":"cebpf4jnsgd1na2vs0mg"},{"bike_id":"2fc9495d-c829-4229-a4db-5c8674880d7a","system_id":"levelo_inurba_marseille","lat":43.23053,"lon":5.35492,"is_reserved":false,"is_disabled":false,"rental_uris":{"android":"levelo://app?vid=2fc9495d-c829-4229-a4db-5c8674880d7a","ios":"levelo://app?vid=2fc9495d-c829-4229-a4db-5c8674880d7a"},"vehicle_type_id":"4","last_reported":1742310617,"current_range_meters":9600,"station_id":"cpo3342slgdg3j2ifvpg","pricing_plan_id":"cebpf4jnsgd1na2vs0mg"},{"bike_id":"28a1a70c-affd-4aac-b984-93aaf1b95ce1","system_id":"levelo_inurba_marseille","lat":43.28712,"lon":5.3794,"is_reserved":false,"is_disabled":false,"rental_uris":{"android":"levelo://app?vid=28a1a70c-affd-4aac-b984-93aaf1b95ce1","ios":"levelo://app?vid=28a1a70c-affd-4aac-b984-93aaf1b95ce1"},"vehicle_type_id":"4","last_reported":1742310617,"current_range_meters":9600,"station_id":"ce4bh9p2rcd13ifvqec0","pricing_plan_id":"cebpf4jnsgd1na2vs0mg"},{"bike_id":"244972ac-6b8e-496c-8ff7-a07dcecb25e0","system_id":"levelo_inurba_marseille","lat":43.28073,"lon":5.39654,"is_reserved":false,"is_disabled":false,"rental_uris":{"android":"levelo://app?vid=244972ac-6b8e-496c-8ff7-a07dcecb25e0","ios":"levelo://app?vid=244972ac-6b8e-496c-8ff7-a07dcecb25e0"},"vehicle_type_id":"4","last_reported":1742310617,"current_range_meters":9600,"station_id":"ce4bho12rcd13ifvqh2g","pricing_plan_id":"cebpf4jnsgd1na2vs0mg"},{"bike_id":"6ae6f76c-6a01-4d75-9d3f-dfa610803a78","system_id":"levelo_inurba_marseille","lat":43.23076,"lon":5.35485,"is_reserved":false,"is_disabled":false,"rental_uris":{"android":"levelo://app?vid=6ae6f76c-6a01-4d75-9d3f-dfa610803a78","ios":"levelo://app?vid=6ae6f76c-6a01-4d75-9d3f-dfa610803a78"},"vehicle_type_id":"4","last_reported":1742310617,"current_range_meters":10000,"station_id":"cpo3342slgdg3j2ifvpg","pricing_plan_id":"cebpf4jnsgd1na2vs0mg"},{"bike_id":"f7fec43a-54d3-4fbc-a8ee-724f833518bd","system_id":"levelo_inurba_marseille","lat":43.3028,"lon":5.392,"is_reserved":false,"is_disabled":false,"rental_uris":{"android":"levelo://app?vid=f7fec43a-54d3-4fbc-a8ee-724f833518bd","ios":"levelo://app?vid=f7fec43a-54d3-4fbc-a8ee-724f833518bd"},"vehicle_type_id":"4","last_reported":1742310617,"current_range_meters":10000,"station_id":"ce4bgkh2rcd13ifvqbk0","pricing_plan_id":"cebpf4jnsgd1na2vs0mg"},{"bike_id":"778bd51e-f236-41a5-aaa4-1b1f177ec4e6","system_id":"levelo_inurba_marseille","lat":43.287039,"lon":5.399827,"is_reserved":false,"is_disabled":false,"rental_uris":{"android":"levelo://app?vid=778bd51e-f236-41a5-aaa4-1b1f177ec4e6","ios":"levelo://app?vid=778bd51e-f236-41a5-aaa4-1b1f177ec4e6"},"vehicle_type_id":"4","last_reported":1742310617,"current_range_meters":10000,"station_id":"ce4bho92rcd13ifvqh3g","pricing_plan_id":"cebpf4jnsgd1na2vs0mg"},{"bike_id":"b611c071-f0bb-41a2-aa25-420b921bc079","system_id":"levelo_inurba_marseille","lat":43.23071,"lon":5.35508,"is_reserved":false,"is_disabled":false,"rental_uris":{"android":"levelo://app?vid=b611c071-f0bb-41a2-aa25-420b921bc079","ios":"levelo://app?vid=b611c071-f0bb-41a2-aa25-420b921bc079"},"vehicle_type_id":"4","last_reported":1742310617,"current_range_meters":10000,"station_id":"cpo3342slgdg3j2ifvpg","pricing_plan_id":"cebpf4jnsgd1na2vs0mg"},{"bike_id":"b3fcc0aa-7dd7-4081-baae-ad21354831bc","system_id":"levelo_inurba_marseille","lat":43.28963,"lon":5.37839,"is_reserved":false,"is_disabled":false,"rental_uris":{"android":"levelo://app?vid=b3fcc0aa-7dd7-4081-baae-ad21354831bc","ios":"levelo://app?vid=b3fcc0aa-7dd7-4081-baae-ad21354831bc"},"vehicle_type_id":"4","last_reported":1742310617,"current_range_meters":10000,"station_id":"ce4bh9p2rcd13ifvqed0","pricing_plan_id":"cebpf4jnsgd1na2vs0mg"},{"bike_id":"f54a7367-832f-4e20-9dc6-974e4a2a0f06","system_id":"levelo_inurba_marseille","lat":43.29418,"lon":5.38621,"is_reserved":false,"is_disabled":false,"rental_uris":{"android":"levelo://app?vid=f54a7367-832f-4e20-9dc6-974e4a2a0f06","ios":"levelo://app?vid=f54a7367-832f-4e20-9dc6-974e4a2a0f06"},"vehicle_type_id":"4","last_reported":1742310617,"current_range_meters":10800,"station_id":"ce4bh2h2rcd13ifvqdh0","pricing_plan_id":"cebpf4jnsgd1na2vs0mg"},{"bike_id":"f158cb0f-0380-45cd-a82f-e7d941bda018","system_id":"levelo_inurba_marseille","lat":43.31709,"lon":5.43712,"is_reserved":false,"is_disabled":false,"rental_uris":{"android":"levelo://app?vid=f158cb0f-0380-45cd-a82f-e7d941bda018","ios":"levelo://app?vid=f158cb0f-0380-45cd-a82f-e7d941bda018"},"vehicle_type_id":"4","last_reported":1742310617,"current_range_meters":10800,"station_id":"ce4bhp92rcd13ifvqhcg","pricing_plan_id":"cebpf4jnsgd1na2vs0mg"},{"bike_id":"ba4e597d-1a0c-417f-b2f1-c2c475c0bef7","system_id":"levelo_inurba_marseille","lat":43.30302,"lon":5.39225,"is_reserved":false,"is_disabled":false,"rental_uris":{"android":"levelo://app?vid=ba4e597d-1a0c-417f-b2f1-c2c475c0bef7","ios":"levelo://app?vid=ba4e597d-1a0c-417f-b2f1-c2c475c0bef7"},"vehicle_type_id":"4","last_reported":1742310617,"current_range_meters":10800,"station_id":"ce4bgkh2rcd13ifvqbk0","pricing_plan_id":"cebpf4jnsgd1na2vs0mg"},{"bike_id":"77beaae9-108d-46cb-a688-963e8bf31048","system_id":"levelo_inurba_marseille","lat":43.28615,"lon":5.35108,"is_reserved":false,"is_disabled":false,"rental_uris":{"android":"levelo://app?vid=77beaae9-108d-46cb-a688-963e8bf31048","ios":"levelo://app?vid=77beaae9-108d-46cb-a688-963e8bf31048"},"vehicle_type_id":"4","last_reported":1742310617,"current_range_meters":10800,"station_id":"ce4bhch2rcd13ifvqeug","pricing_plan_id":"cebpf4jnsgd1na2vs0mg"},{"bike_id":"17774e7d-ce9c-4f22-9ef0-119c86b782c8","system_id":"levelo_inurba_marseille","lat":43.25866,"lon":5.39904,"is_reserved":false,"is_disabled":false,"rental_uris":{"android":"levelo://app?vid=17774e7d-ce9c-4f22-9ef0-119c86b782c8","ios":"levelo://app?vid=17774e7d-ce9c-4f22-9ef0-119c86b782c8"},"vehicle_type_id":"4","last_reported":1742310617,"current_range_meters":10800,"station_id":"ce4bhl92rcd13ifvqghg","pricing_plan_id":"cebpf4jnsgd1na2vs0mg"},{"bike_id":"cdf9be53-3f9e-4181-a300-4a5fa9f5acd6","system_id":"levelo_inurba_marseille","lat":43.29884,"lon":5.38904,"is_reserved":false,"is_disabled":false,"rental_uris":{"android":"levelo://app?vid=cdf9be53-3f9e-4181-a300-4a5fa9f5acd6","ios":"levelo://app?vid=cdf9be53-3f9e-4181-a300-4a5fa9f5acd6"},"vehicle_type_id":"4","last_reported":1742310617,"current_range_meters":10800,"station_id":"ce4bh392rcd13ifvqdl0","pricing_plan_id":"cebpf4jnsgd1na2vs0mg"},{"bike_id":"b9a7089f-702f-47e5-964f-a278ba46957e","system_id":"levelo_inurba_marseille","lat":43.24669,"lon":5.38159,"is_reserved":false,"is_disabled":false,"rental_uris":{"android":"levelo://app?vid=b9a7089f-702f-47e5-964f-a278ba46957e","ios":"levelo://app?vid=b9a7089f-702f-47e5-964f-a278ba46957e"},"vehicle_type_id":"4","last_reported":1742310617,"current_range_meters":10800,"station_id":"ce4bhih2rcd13ifvqfr0","pricing_plan_id":"cebpf4jnsgd1na2vs0mg"},{"bike_id":"7f2d3a10-fb38-49e6-9c91-ea2286af82e2","system_id":"levelo_inurba_marseille","lat":43.25928,"lon":5.4091,"is_reserved":false,"is_disabled":false,"rental_uris":{"android":"levelo://app?vid=7f2d3a10-fb38-49e6-9c91-ea2286af82e2","ios":"levelo://app?vid=7f2d3a10-fb38-49e6-9c91-ea2286af82e2"},"vehicle_type_id":"4","last_reported":1742310617,"current_range_meters":10800,"station_id":"ce4bhm92rcd13ifvqglg","pricing_plan_id":"cebpf4jnsgd1na2vs0mg"},{"bike_id":"62bc6c18-042d-4867-9295-784a2b23b8e3","system_id":"levelo_inurba_marseille","lat":43.32039,"lon":5.415526,"is_reserved":false,"is_disabled":false,"rental_uris":{"android":"levelo://app?vid=62bc6c18-042d-4867-9295-784a2b23b8e3","ios":"levelo://app?vid=62bc6c18-042d-4867-9295-784a2b23b8e3"},"vehicle_type_id":"4","last_reported":1742310617,"current_range_meters":10800,"station_id":"ce4bhq92rcd13ifvqhkg","pricing_plan_id":"cebpf4jnsgd1na2vs0mg"},{"bike_id":"d00028dc-9b0d-47df-ad9d-778d21fb21b2","system_id":"levelo_inurba_marseille","lat":43.23198,"lon":5.35546,"is_reserved":false,"is_disabled":false,"rental_uris":{"android":"levelo://app?vid=d00028dc-9b0d-47df-ad9d-778d21fb21b2","ios":"levelo://app?vid=d00028dc-9b0d-47df-ad9d-778d21fb21b2"},"vehicle_type_id":"4","last_reported":1742310617,"current_range_meters":11200,"station_id":"ce4bhu92rcd13ifvqi70","pricing_plan_id":"cebpf4jnsgd1na2vs0mg"},{"bike_id":"ca1c0a28-8faf-435f-9d8b-370c3a07ff34","system_id":"levelo_inurba_marseille","lat":43.24172,"lon":5.36376,"is_reserved":false,"is_disabled":false,"rental_uris":{"android":"levelo://app?vid=ca1c0a28-8faf-435f-9d8b-370c3a07ff34","ios":"levelo://app?vid=ca1c0a28-8faf-435f-9d8b-370c3a07ff34"},"vehicle_type_id":"4","last_reported":1742310617,"current_range_meters":11200,"station_id":"cpo36qri1sfpv3e86is0","pricing_plan_id":"cebpf4jnsgd1na2vs0mg"},{"bike_id":"539fc8c4-24e6-4af1-852f-0f9aae2257a1","system_id":"levelo_inurba_marseille","lat":43.23201,"lon":5.35554,"is_reserved":false,"is_disabled":false,"rental_uris":{"android":"levelo://app?vid=539fc8c4-24e6-4af1-852f-0f9aae2257a1","ios":"levelo://app?vid=539fc8c4-24e6-4af1-852f-0f9aae2257a1"},"vehicle_type_id":"4","last_reported":1742310617,"current_range_meters":11200,"station_id":"ce4bhu92rcd13ifvqi70","pricing_plan_id":"cebpf4jnsgd1na2vs0mg"},{"bike_id":"469d85b5-7879-48f2-9dd3-1020080581a4","system_id":"levelo_inurba_marseille","lat":43.29545,"lon":5.42274,"is_reserved":false,"is_disabled":false,"rental_uris":{"android":"levelo://app?vid=469d85b5-7879-48f2-9dd3-1020080581a4","ios":"levelo://app?vid=469d85b5-7879-48f2-9dd3-1020080581a4"},"vehicle_type_id":"4","last_reported":1742310617,"current_range_meters":11200,"station_id":"ce4bhph2rcd13ifvqhdg","pricing_plan_id":"cebpf4jnsgd1na2vs0mg"},{"bike_id":"5457bffc-09e4-4fb6-9ccb-4637f6549971","system_id":"levelo_inurba_marseille","lat":43.30141,"lon":5.37423,"is_reserved":false,"is_disabled":false,"rental_uris":{"android":"levelo://app?vid=5457bffc-09e4-4fb6-9ccb-4637f6549971","ios":"levelo://app?vid=5457bffc-09e4-4fb6-9ccb-4637f6549971"},"vehicle_type_id":"4","last_reported":1742310617,"current_range_meters":11200,"station_id":"ce4bgs92rcd13ifvqcc0","pricing_plan_id":"cebpf4jnsgd1na2vs0mg"},{"bike_id":"ad21d957-c0ea-4c86-82f5-b3682e2201c9","system_id":"levelo_inurba_marseille","lat":43.24173,"lon":5.39721,"is_reserved":false,"is_disabled":false,"rental_uris":{"android":"levelo://app?vid=ad21d957-c0ea-4c86-82f5-b3682e2201c9","ios":"levelo://app?vid=ad21d957-c0ea-4c86-82f5-b3682e2201c9"},"vehicle_type_id":"4","last_reported":1742310617,"current_range_meters":11200,"station_id":"ce4bhn12rcd13ifvqgpg","pricing_plan_id":"cebpf4jnsgd1na2vs0mg"},{"bike_id":"97671fc5-abde-41f7-ac3e-e67f808497b9","system_id":"levelo_inurba_marseille","lat":43.30415,"lon":5.41283,"is_reserved":false,"is_disabled":false,"rental_uris":{"android":"levelo://app?vid=97671fc5-abde-41f7-ac3e-e67f808497b9","ios":"levelo://app?vid=97671fc5-abde-41f7-ac3e-e67f808497b9"},"vehicle_type_id":"4","last_reported":1742310617,"current_range_meters":11200,"station_id":"ce4bhop2rcd13ifvqh8g","pricing_plan_id":"cebpf4jnsgd1na2vs0mg"},{"bike_id":"2fa5754c-ba4c-4be7-abf6-9b7abdbb3735","system_id":"levelo_inurba_marseille","lat":43.24072,"lon":5.37745,"is_reserved":false,"is_disabled":false,"rental_uris":{"android":"levelo://app?vid=2fa5754c-ba4c-4be7-abf6-9b7abdbb3735","ios":"levelo://app?vid=2fa5754c-ba4c-4be7-abf6-9b7abdbb3735"},"vehicle_type_id":"4","last_reported":1742310617,"current_range_meters":11600,"station_id":"ce4bhnp2rcd13ifvqgvg","pricing_plan_id":"cebpf4jnsgd1na2vs0mg"},{"bike_id":"1d8f363e-9947-422e-a9f0-3daed177260b","system_id":"levelo_inurba_marseille","lat":43.309479,"lon":5.390589,"is_reserved":false,"is_disabled":false,"rental_uris":{"android":"levelo://app?vid=1d8f363e-9947-422e-a9f0-3daed177260b","ios":"levelo://app?vid=1d8f363e-9947-422e-a9f0-3daed177260b"},"vehicle_type_id":"4","last_reported":1742310617,"current_range_meters":11200,"station_id":"ce4bgj92rcd13ifvqbd0","pricing_plan_id":"cebpf4jnsgd1na2vs0mg"},{"bike_id":"ab11fa9b-759f-447f-a4f1-b143e2360775","system_id":"levelo_inurba_marseille","lat":43.31347,"lon":5.39164,"is_reserved":false,"is_disabled":false,"rental_uris":{"android":"levelo://app?vid=ab11fa9b-759f-447f-a4f1-b143e2360775","ios":"levelo://app?vid=ab11fa9b-759f-447f-a4f1-b143e2360775"},"vehicle_type_id":"4","last_reported":1742310617,"current_range_meters":11600,"station_id":"","pricing_plan_id":"cebpf4jnsgd1na2vs0mg"},{"bike_id":"136c8ffe-c09b-4ff6-bedb-9d711e621878","system_id":"levelo_inurba_marseille","lat":43.30239,"lon":5.40061,"is_reserved":false,"is_disabled":false,"rental_uris":{"android":"levelo://app?vid=136c8ffe-c09b-4ff6-bedb-9d711e621878","ios":"levelo://app?vid=136c8ffe-c09b-4ff6-bedb-9d711e621878"},"vehicle_type_id":"4","last_reported":1742310617,"current_range_meters":11600,"station_id":"ce4bgvh2rcd13ifvqcs0","pricing_plan_id":"cebpf4jnsgd1na2vs0mg"},{"bike_id":"62681ae5-888d-423b-b912-54a124155c75","system_id":"levelo_inurba_marseille","lat":43.30786,"lon":5.37658,"is_reserved":false,"is_disabled":false,"rental_uris":{"android":"levelo://app?vid=62681ae5-888d-423b-b912-54a124155c75","ios":"levelo://app?vid=62681ae5-888d-423b-b912-54a124155c75"},"vehicle_type_id":"4","last_reported":1742310617,"current_range_meters":11600,"station_id":"ce4bgt12rcd13ifvqce0","pricing_plan_id":"cebpf4jnsgd1na2vs0mg"},{"bike_id":"db8607b2-c834-4dae-95f5-c6688340d7af","system_id":"levelo_inurba_marseille","lat":43.30139,"lon":5.37412,"is_reserved":false,"is_disabled":false,"rental_uris":{"android":"levelo://app?vid=db8607b2-c834-4dae-95f5-c6688340d7af","ios":"levelo://app?vid=db8607b2-c834-4dae-95f5-c6688340d7af"},"vehicle_type_id":"4","last_reported":1742310617,"current_range_meters":11600,"station_id":"ce4bgs92rcd13ifvqcc0","pricing_plan_id":"cebpf4jnsgd1na2vs0mg"},{"bike_id":"8581e34a-e545-4ecd-94c3-9ab5366e4794","system_id":"levelo_inurba_marseille","lat":43.27495,"lon":5.42453,"is_reserved":false,"is_disabled":false,"rental_uris":{"android":"levelo://app?vid=8581e34a-e545-4ecd-94c3-9ab5366e4794","ios":"levelo://app?vid=8581e34a-e545-4ecd-94c3-9ab5366e4794"},"vehicle_type_id":"4","last_reported":1742310617,"current_range_meters":11600,"station_id":"ce4bhn92rcd13ifvqgrg","pricing_plan_id":"cebpf4jnsgd1na2vs0mg"},{"bike_id":"595e7573-812d-4cdb-aa2e-aa8e98d45bbf","system_id":"levelo_inurba_marseille","lat":43.31757,"lon":5.39018,"is_reserved":false,"is_disabled":false,"rental_uris":{"android":"levelo://app?vid=595e7573-812d-4cdb-aa2e-aa8e98d45bbf","ios":"levelo://app?vid=595e7573-812d-4cdb-aa2e-aa8e98d45bbf"},"vehicle_type_id":"4","last_reported":1742310617,"current_range_meters":11200,"station_id":"ce4bhqp2rcd13ifvqhng","pricing_plan_id":"cebpf4jnsgd1na2vs0mg"},{"bike_id":"aafb1953-d9f1-4c33-90a1-c24551e1144a","system_id":"levelo_inurba_marseille","lat":43.28664,"lon":5.38673,"is_reserved":false,"is_disabled":false,"rental_uris":{"android":"levelo://app?vid=aafb1953-d9f1-4c33-90a1-c24551e1144a","ios":"levelo://app?vid=aafb1953-d9f1-4c33-90a1-c24551e1144a"},"vehicle_type_id":"4","last_reported":1742310617,"current_range_meters":14400,"station_id":"ce4bh492rcd13ifvqdug","pricing_plan_id":"cebpf4jnsgd1na2vs0mg"},{"bike_id":"e5cb52c8-d833-41bc-b3a6-06d8699ae9ae","system_id":"levelo_inurba_marseille","lat":43.23154,"lon":5.43702,"is_reserved":false,"is_disabled":false,"rental_uris":{"android":"levelo://app?vid=e5cb52c8-d833-41bc-b3a6-06d8699ae9ae","ios":"levelo://app?vid=e5cb52c8-d833-41bc-b3a6-06d8699ae9ae"},"vehicle_type_id":"4","last_reported":1742310617,"current_range_meters":11600,"station_id":"ce4bhmp2rcd13ifvqgog","pricing_plan_id":"cebpf4jnsgd1na2vs0mg"},{"bike_id":"0cb439ba-c73c-4e00-a10d-d81c8bff11ec","system_id":"levelo_inurba_marseille","lat":43.32499,"lon":5.36577,"is_reserved":false,"is_disabled":false,"rental_uris":{"android":"levelo://app?vid=0cb439ba-c73c-4e00-a10d-d81c8bff11ec","ios":"levelo://app?vid=0cb439ba-c73c-4e00-a10d-d81c8bff11ec"},"vehicle_type_id":"4","last_reported":1742310617,"current_range_meters":12000,"station_id":"ce4bhs12rcd13ifvqhvg","pricing_plan_id":"cebpf4jnsgd1na2vs0mg"},{"bike_id":"7f61d7be-d227-44df-9b33-b8f4965e514f","system_id":"levelo_inurba_marseille","lat":43.23192,"lon":5.35569,"is_reserved":false,"is_disabled":false,"rental_uris":{"android":"levelo://app?vid=7f61d7be-d227-44df-9b33-b8f4965e514f","ios":"levelo://app?vid=7f61d7be-d227-44df-9b33-b8f4965e514f"},"vehicle_type_id":"4","last_reported":1742310617,"current_range_meters":12000,"station_id":"ce4bhu92rcd13ifvqi70","pricing_plan_id":"cebpf4jnsgd1na2vs0mg"},{"bike_id":"882d5b04-baa2-4dc9-9e53-64f01cb7663b","system_id":"levelo_inurba_marseille","lat":43.30147,"lon":5.37414,"is_reserved":false,"is_disabled":false,"rental_uris":{"android":"levelo://app?vid=882d5b04-baa2-4dc9-9e53-64f01cb7663b","ios":"levelo://app?vid=882d5b04-baa2-4dc9-9e53-64f01cb7663b"},"vehicle_type_id":"4","last_reported":1742310617,"current_range_meters":12000,"station_id":"ce4bgs92rcd13ifvqcc0","pricing_plan_id":"cebpf4jnsgd1na2vs0mg"},{"bike_id":"60b8c598-ce3a-4068-9c0a-6259ee5fc09a","system_id":"levelo_inurba_marseille","lat":43.32292,"lon":5.38265,"is_reserved":false,"is_disabled":false,"rental_uris":{"android":"levelo://app?vid=60b8c598-ce3a-4068-9c0a-6259ee5fc09a","ios":"levelo://app?vid=60b8c598-ce3a-4068-9c0a-6259ee5fc09a"},"vehicle_type_id":"4","last_reported":1742310617,"current_range_meters":11600,"station_id":"ce4bhr12rcd13ifvqhqg","pricing_plan_id":"cebpf4jnsgd1na2vs0mg"},{"bike_id":"b59dcec8-37cb-424d-a257-1df19beff6cb","system_id":"levelo_inurba_marseille","lat":43.3093,"lon":5.36853,"is_reserved":false,"is_disabled":false,"rental_uris":{"android":"levelo://app?vid=b59dcec8-37cb-424d-a257-1df19beff6cb","ios":"levelo://app?vid=b59dcec8-37cb-424d-a257-1df19beff6cb"},"vehicle_type_id":"4","last_reported":1742310617,"current_range_meters":12000,"station_id":"ce4bgn92rcd13ifvqbvg","pricing_plan_id":"cebpf4jnsgd1na2vs0mg"},{"bike_id":"d36c89e8-07d2-4942-be59-0b2e43ed175d","system_id":"levelo_inurba_marseille","lat":43.25911,"lon":5.40923,"is_reserved":false,"is_disabled":false,"rental_uris":{"android":"levelo://app?vid=d36c89e8-07d2-4942-be59-0b2e43ed175d","ios":"levelo://app?vid=d36c89e8-07d2-4942-be59-0b2e43ed175d"},"vehicle_type_id":"4","last_reported":1742310617,"current_range_meters":12000,"station_id":"ce4bhm92rcd13ifvqglg","pricing_plan_id":"cebpf4jnsgd1na2vs0mg"},{"bike_id":"5c9e64e9-7941-4260-bfe7-e2855bebea22","system_id":"levelo_inurba_marseille","lat":43.27177,"lon":5.41003,"is_reserved":false,"is_disabled":false,"rental_uris":{"android":"levelo://app?vid=5c9e64e9-7941-4260-bfe7-e2855bebea22","ios":"levelo://app?vid=5c9e64e9-7941-4260-bfe7-e2855bebea22"},"vehicle_type_id":"4","last_reported":1742310617,"current_range_meters":13600,"station_id":"ce4bhl12rcd13ifvqgf0","pricing_plan_id":"cebpf4jnsgd1na2vs0mg"},{"bike_id":"1b4057e1-e9c3-4121-a20e-f418b09ebb17","system_id":"levelo_inurba_marseille","lat":43.30219,"lon":5.39475,"is_reserved":false,"is_disabled":false,"rental_uris":{"android":"levelo://app?vid=1b4057e1-e9c3-4121-a20e-f418b09ebb17","ios":"levelo://app?vid=1b4057e1-e9c3-4121-a20e-f418b09ebb17"},"vehicle_type_id":"4","last_reported":1742310617,"current_range_meters":12400,"station_id":"ce4bh0p2rcd13ifvqd70","pricing_plan_id":"cebpf4jnsgd1na2vs0mg"},{"bike_id":"dee4565e-54f3-4ea5-a7b0-d31b61e541bf","system_id":"levelo_inurba_marseille","lat":43.30354,"lon":5.41879,"is_reserved":false,"is_disabled":false,"rental_uris":{"android":"levelo://app?vid=dee4565e-54f3-4ea5-a7b0-d31b61e541bf","ios":"levelo://app?vid=dee4565e-54f3-4ea5-a7b0-d31b61e541bf"},"vehicle_type_id":"4","last_reported":1742310617,"current_range_meters":12400,"station_id":"ce4bhop2rcd13ifvqh7g","pricing_plan_id":"cebpf4jnsgd1na2vs0mg"},{"bike_id":"8025ad0f-f828-4c65-9c86-15848f8250aa","system_id":"levelo_inurba_marseille","lat":43.2732,"lon":5.39079,"is_reserved":false,"is_disabled":false,"rental_uris":{"android":"levelo://app?vid=8025ad0f-f828-4c65-9c86-15848f8250aa","ios":"levelo://app?vid=8025ad0f-f828-4c65-9c86-15848f8250aa"},"vehicle_type_id":"4","last_reported":1742310617,"current_range_meters":12400,"station_id":"ce4bhgp2rcd13ifvqfe0","pricing_plan_id":"cebpf4jnsgd1na2vs0mg"},{"bike_id":"a5f51705-f813-4368-9986-c3c231ab5481","system_id":"levelo_inurba_marseille","lat":43.25128,"lon":5.40314,"is_reserved":false,"is_disabled":false,"rental_uris":{"android":"levelo://app?vid=a5f51705-f813-4368-9986-c3c231ab5481","ios":"levelo://app?vid=a5f51705-f813-4368-9986-c3c231ab5481"},"vehicle_type_id":"4","last_reported":1742310617,"current_range_meters":12000,"station_id":"ce4bhlh2rcd13ifvqgig","pricing_plan_id":"cebpf4jnsgd1na2vs0mg"},{"bike_id":"bc2d8957-097e-4969-a693-6681d6a8a608","system_id":"levelo_inurba_marseille","lat":43.25496,"lon":5.37649,"is_reserved":false,"is_disabled":false,"rental_uris":{"android":"levelo://app?vid=bc2d8957-097e-4969-a693-6681d6a8a608","ios":"levelo://app?vid=bc2d8957-097e-4969-a693-6681d6a8a608"},"vehicle_type_id":"4","last_reported":1742310617,"current_range_meters":12000,"station_id":"ce4bhh12rcd13ifvqff0","pricing_plan_id":"cebpf4jnsgd1na2vs0mg"},{"bike_id":"89cb3140-d211-4c4d-97ca-7e01c3c4da90","system_id":"levelo_inurba_marseille","lat":43.23199,"lon":5.35553,"is_reserved":false,"is_disabled":false,"rental_uris":{"android":"levelo://app?vid=89cb3140-d211-4c4d-97ca-7e01c3c4da90","ios":"levelo://app?vid=89cb3140-d211-4c4d-97ca-7e01c3c4da90"},"vehicle_type_id":"4","last_reported":1742310617,"current_range_meters":12400,"station_id":"ce4bhu92rcd13ifvqi70","pricing_plan_id":"cebpf4jnsgd1na2vs0mg"},{"bike_id":"6ae282b9-d978-41d7-9848-3239671b5019","system_id":"levelo_inurba_marseille","lat":43.23061,"lon":5.35492,"is_reserved":false,"is_disabled":false,"rental_uris":{"android":"levelo://app?vid=6ae282b9-d978-41d7-9848-3239671b5019","ios":"levelo://app?vid=6ae282b9-d978-41d7-9848-3239671b5019"},"vehicle_type_id":"4","last_reported":1742310617,"current_range_meters":12800,"station_id":"cpo3342slgdg3j2ifvpg","pricing_plan_id":"cebpf4jnsgd1na2vs0mg"},{"bike_id":"78c7f344-224f-4ee1-abbd-94f4d94ef023","system_id":"levelo_inurba_marseille","lat":43.23964,"lon":5.36622,"is_reserved":false,"is_disabled":true,"rental_uris":{"android":"levelo://app?vid=78c7f344-224f-4ee1-abbd-94f4d94ef023","ios":"levelo://app?vid=78c7f344-224f-4ee1-abbd-94f4d94ef023"},"vehicle_type_id":"4","last_reported":1742310617,"current_range_meters":12800,"station_id":"ce4bhi12rcd13ifvqfp0","pricing_plan_id":"cebpf4jnsgd1na2vs0mg"},{"bike_id":"2e5ecf31-30b5-467e-9117-e49fe2c181fc","system_id":"levelo_inurba_marseille","lat":43.24665,"lon":5.38148,"is_reserved":false,"is_disabled":false,"rental_uris":{"android":"levelo://app?vid=2e5ecf31-30b5-467e-9117-e49fe2c181fc","ios":"levelo://app?vid=2e5ecf31-30b5-467e-9117-e49fe2c181fc"},"vehicle_type_id":"4","last_reported":1742310617,"current_range_meters":12800,"station_id":"ce4bhih2rcd13ifvqfr0","pricing_plan_id":"cebpf4jnsgd1na2vs0mg"},{"bike_id":"f5ae8176-bf9e-467d-8eda-8bcf2db2f73b","system_id":"levelo_inurba_marseille","lat":43.29611,"lon":5.37701,"is_reserved":false,"is_disabled":false,"rental_uris":{"android":"levelo://app?vid=f5ae8176-bf9e-467d-8eda-8bcf2db2f73b","ios":"levelo://app?vid=f5ae8176-bf9e-467d-8eda-8bcf2db2f73b"},"vehicle_type_id":"4","last_reported":1742310617,"current_range_meters":12800,"station_id":"ce4bgi92rcd13ifvqb90","pricing_plan_id":"cebpf4jnsgd1na2vs0mg"},{"bike_id":"0594c3d4-9437-482d-9b5b-80aa5826fd2e","system_id":"levelo_inurba_marseille","lat":43.30881,"lon":5.39635,"is_reserved":false,"is_disabled":false,"rental_uris":{"android":"levelo://app?vid=0594c3d4-9437-482d-9b5b-80aa5826fd2e","ios":"levelo://app?vid=0594c3d4-9437-482d-9b5b-80aa5826fd2e"},"vehicle_type_id":"4","last_reported":1742310617,"current_range_meters":12800,"station_id":"ce4bh012rcd13ifvqcv0","pricing_plan_id":"cebpf4jnsgd1na2vs0mg"},{"bike_id":"ef1c1528-aa7a-46e8-a577-9de7cbd990cb","system_id":"levelo_inurba_marseille","lat":43.24173,"lon":5.36402,"is_reserved":false,"is_disabled":false,"rental_uris":{"android":"levelo://app?vid=ef1c1528-aa7a-46e8-a577-9de7cbd990cb","ios":"levelo://app?vid=ef1c1528-aa7a-46e8-a577-9de7cbd990cb"},"vehicle_type_id":"4","last_reported":1742310617,"current_range_meters":13600,"station_id":"cpo36qri1sfpv3e86is0","pricing_plan_id":"cebpf4jnsgd1na2vs0mg"},{"bike_id":"ad100131-b13c-477d-8840-6388a8ed3aab","system_id":"levelo_inurba_marseille","lat":43.25502,"lon":5.37653,"is_reserved":false,"is_disabled":false,"rental_uris":{"android":"levelo://app?vid=ad100131-b13c-477d-8840-6388a8ed3aab","ios":"levelo://app?vid=ad100131-b13c-477d-8840-6388a8ed3aab"},"vehicle_type_id":"4","last_reported":1742310617,"current_range_meters":13600,"station_id":"ce4bhh12rcd13ifvqff0","pricing_plan_id":"cebpf4jnsgd1na2vs0mg"},{"bike_id":"18126f6d-bc81-4835-8118-ecc2758395d7","system_id":"levelo_inurba_marseille","lat":43.26967,"lon":5.3977,"is_reserved":false,"is_disabled":false,"rental_uris":{"android":"levelo://app?vid=18126f6d-bc81-4835-8118-ecc2758395d7","ios":"levelo://app?vid=18126f6d-bc81-4835-8118-ecc2758395d7"},"vehicle_type_id":"4","last_reported":1742310617,"current_range_meters":13600,"station_id":"","pricing_plan_id":"cebpf4jnsgd1na2vs0mg"},{"bike_id":"1b816da1-b5df-49f9-9180-41dff3e2b872","system_id":"levelo_inurba_marseille","lat":43.24197,"lon":5.39701,"is_reserved":false,"is_disabled":false,"rental_uris":{"android":"levelo://app?vid=1b816da1-b5df-49f9-9180-41dff3e2b872","ios":"levelo://app?vid=1b816da1-b5df-49f9-9180-41dff3e2b872"},"vehicle_type_id":"4","last_reported":1742310617,"current_range_meters":13600,"station_id":"ce4bhn12rcd13ifvqgpg","pricing_plan_id":"cebpf4jnsgd1na2vs0mg"},{"bike_id":"8c409383-51f8-4f59-a97a-022da78267b2","system_id":"levelo_inurba_marseille","lat":43.28427,"lon":5.3752,"is_reserved":false,"is_disabled":false,"rental_uris":{"android":"levelo://app?vid=8c409383-51f8-4f59-a97a-022da78267b2","ios":"levelo://app?vid=8c409383-51f8-4f59-a97a-022da78267b2"},"vehicle_type_id":"4","last_reported":1742310617,"current_range_meters":13600,"station_id":"ce4bh412rcd13ifvqds0","pricing_plan_id":"cebpf4jnsgd1na2vs0mg"},{"bike_id":"078e0aaf-3199-435b-a83a-e8cc8367a500","system_id":"levelo_inurba_marseille","lat":43.24177,"lon":5.39727,"is_reserved":false,"is_disabled":false,"rental_uris":{"android":"levelo://app?vid=078e0aaf-3199-435b-a83a-e8cc8367a500","ios":"levelo://app?vid=078e0aaf-3199-435b-a83a-e8cc8367a500"},"vehicle_type_id":"4","last_reported":1742310617,"current_range_meters":13600,"station_id":"ce4bhn12rcd13ifvqgpg","pricing_plan_id":"cebpf4jnsgd1na2vs0mg"},{"bike_id":"d8c1ae52-2a9e-4470-a363-aadad54f73dd","system_id":"levelo_inurba_marseille","lat":43.26232,"lon":5.40438,"is_reserved":false,"is_disabled":false,"rental_uris":{"android":"levelo://app?vid=d8c1ae52-2a9e-4470-a363-aadad54f73dd","ios":"levelo://app?vid=d8c1ae52-2a9e-4470-a363-aadad54f73dd"},"vehicle_type_id":"4","last_reported":1742310617,"current_range_meters":13600,"station_id":"ce4bhmh2rcd13ifvqgmg","pricing_plan_id":"cebpf4jnsgd1na2vs0mg"},{"bike_id":"f142dc05-f5d3-4cbc-afe5-c54cd3d760d6","system_id":"levelo_inurba_marseille","lat":43.28071,"lon":5.39671,"is_reserved":false,"is_disabled":false,"rental_uris":{"android":"levelo://app?vid=f142dc05-f5d3-4cbc-afe5-c54cd3d760d6","ios":"levelo://app?vid=f142dc05-f5d3-4cbc-afe5-c54cd3d760d6"},"vehicle_type_id":"4","last_reported":1742310617,"current_range_meters":13600,"station_id":"ce4bho12rcd13ifvqh2g","pricing_plan_id":"cebpf4jnsgd1na2vs0mg"},{"bike_id":"62f7539b-b047-479e-84e9-11e5c010431d","system_id":"levelo_inurba_marseille","lat":43.3003,"lon":5.40028,"is_reserved":false,"is_disabled":false,"rental_uris":{"android":"levelo://app?vid=62f7539b-b047-479e-84e9-11e5c010431d","ios":"levelo://app?vid=62f7539b-b047-479e-84e9-11e5c010431d"},"vehicle_type_id":"4","last_reported":1742310617,"current_range_meters":13600,"station_id":"","pricing_plan_id":"cebpf4jnsgd1na2vs0mg"},{"bike_id":"33fe3b78-a5dc-438d-befd-ac5b01db2e11","system_id":"levelo_inurba_marseille","lat":43.29601,"lon":5.38096,"is_reserved":false,"is_disabled":false,"rental_uris":{"android":"levelo://app?vid=33fe3b78-a5dc-438d-befd-ac5b01db2e11","ios":"levelo://app?vid=33fe3b78-a5dc-438d-befd-ac5b01db2e11"},"vehicle_type_id":"4","last_reported":1742310617,"current_range_meters":14000,"station_id":"ce4bgl12rcd13ifvqbo0","pricing_plan_id":"cebpf4jnsgd1na2vs0mg"},{"bike_id":"9e75fe6b-6ce9-4e3d-a490-6479434c734a","system_id":"levelo_inurba_marseille","lat":43.2927,"lon":5.36856,"is_reserved":false,"is_disabled":false,"rental_uris":{"android":"levelo://app?vid=9e75fe6b-6ce9-4e3d-a490-6479434c734a","ios":"levelo://app?vid=9e75fe6b-6ce9-4e3d-a490-6479434c734a"},"vehicle_type_id":"4","last_reported":1742310617,"current_range_meters":14000,"station_id":"ce4bhbp2rcd13ifvqesg","pricing_plan_id":"cebpf4jnsgd1na2vs0mg"},{"bike_id":"f5b5b897-b776-4f00-9f85-b4d42ed7205c","system_id":"levelo_inurba_marseille","lat":43.26012,"lon":5.40841,"is_reserved":false,"is_disabled":false,"rental_uris":{"android":"levelo://app?vid=f5b5b897-b776-4f00-9f85-b4d42ed7205c","ios":"levelo://app?vid=f5b5b897-b776-4f00-9f85-b4d42ed7205c"},"vehicle_type_id":"4","last_reported":1742310617,"current_range_meters":14000,"station_id":"","pricing_plan_id":"cebpf4jnsgd1na2vs0mg"},{"bike_id":"623b1d48-fe8c-4a6a-b45e-f5a8ef1ac996","system_id":"levelo_inurba_marseille","lat":43.30543,"lon":5.36537,"is_reserved":false,"is_disabled":false,"rental_uris":{"android":"levelo://app?vid=623b1d48-fe8c-4a6a-b45e-f5a8ef1ac996","ios":"levelo://app?vid=623b1d48-fe8c-4a6a-b45e-f5a8ef1ac996"},"vehicle_type_id":"4","last_reported":1742310617,"current_range_meters":14000,"station_id":"ce4bgs12rcd13ifvqcag","pricing_plan_id":"cebpf4jnsgd1na2vs0mg"},{"bike_id":"7341297d-d43a-4895-907f-c3efe66c169b","system_id":"levelo_inurba_marseille","lat":43.30285,"lon":5.37708,"is_reserved":false,"is_disabled":false,"rental_uris":{"android":"levelo://app?vid=7341297d-d43a-4895-907f-c3efe66c169b","ios":"levelo://app?vid=7341297d-d43a-4895-907f-c3efe66c169b"},"vehicle_type_id":"4","last_reported":1742310617,"current_range_meters":14000,"station_id":"ce4bguh2rcd13ifvqcj0","pricing_plan_id":"cebpf4jnsgd1na2vs0mg"},{"bike_id":"b885f75f-3c96-46ec-8caf-25e821eabbb9","system_id":"levelo_inurba_marseille","lat":43.23155,"lon":5.43708,"is_reserved":false,"is_disabled":false,"rental_uris":{"android":"levelo://app?vid=b885f75f-3c96-46ec-8caf-25e821eabbb9","ios":"levelo://app?vid=b885f75f-3c96-46ec-8caf-25e821eabbb9"},"vehicle_type_id":"4","last_reported":1742310617,"current_range_meters":14000,"station_id":"ce4bhmp2rcd13ifvqgog","pricing_plan_id":"cebpf4jnsgd1na2vs0mg"},{"bike_id":"bf250c16-96a7-4130-92dd-a1ede6773293","system_id":"levelo_inurba_marseille","lat":43.30144,"lon":5.37407,"is_reserved":false,"is_disabled":false,"rental_uris":{"android":"levelo://app?vid=bf250c16-96a7-4130-92dd-a1ede6773293","ios":"levelo://app?vid=bf250c16-96a7-4130-92dd-a1ede6773293"},"vehicle_type_id":"4","last_reported":1742310617,"current_range_meters":14000,"station_id":"ce4bgs92rcd13ifvqcc0","pricing_plan_id":"cebpf4jnsgd1na2vs0mg"},{"bike_id":"e60c1153-ceb4-4f72-92cd-2dc1051b5e4c","system_id":"levelo_inurba_marseille","lat":43.26066,"lon":5.39392,"is_reserved":false,"is_disabled":true,"rental_uris":{"android":"levelo://app?vid=e60c1153-ceb4-4f72-92cd-2dc1051b5e4c","ios":"levelo://app?vid=e60c1153-ceb4-4f72-92cd-2dc1051b5e4c"},"vehicle_type_id":"4","last_reported":1742310617,"current_range_meters":14400,"station_id":"ce4bhh92rcd13ifvqfj0","pricing_plan_id":"cebpf4jnsgd1na2vs0mg"},{"bike_id":"daf49d6d-d37d-4465-a01f-e92e9deb21de","system_id":"levelo_inurba_marseille","lat":43.24672,"lon":5.38156,"is_reserved":false,"is_disabled":false,"rental_uris":{"android":"levelo://app?vid=daf49d6d-d37d-4465-a01f-e92e9deb21de","ios":"levelo://app?vid=daf49d6d-d37d-4465-a01f-e92e9deb21de"},"vehicle_type_id":"4","last_reported":1742310617,"current_range_meters":14400,"station_id":"ce4bhih2rcd13ifvqfr0","pricing_plan_id":"cebpf4jnsgd1na2vs0mg"},{"bike_id":"ff037ac5-a7ea-45e6-93cf-7d394f2f7759","system_id":"levelo_inurba_marseille","lat":43.30525,"lon":5.36528,"is_reserved":false,"is_disabled":false,"rental_uris":{"android":"levelo://app?vid=ff037ac5-a7ea-45e6-93cf-7d394f2f7759","ios":"levelo://app?vid=ff037ac5-a7ea-45e6-93cf-7d394f2f7759"},"vehicle_type_id":"4","last_reported":1742310617,"current_range_meters":14400,"station_id":"ce4bgs12rcd13ifvqcag","pricing_plan_id":"cebpf4jnsgd1na2vs0mg"},{"bike_id":"76566c4d-ebfa-478c-bee9-4c4e1d9d8bbc","system_id":"levelo_inurba_marseille","lat":43.24666,"lon":5.38177,"is_reserved":false,"is_disabled":false,"rental_uris":{"android":"levelo://app?vid=76566c4d-ebfa-478c-bee9-4c4e1d9d8bbc","ios":"levelo://app?vid=76566c4d-ebfa-478c-bee9-4c4e1d9d8bbc"},"vehicle_type_id":"4","last_reported":1742310617,"current_range_meters":14400,"station_id":"ce4bhih2rcd13ifvqfr0","pricing_plan_id":"cebpf4jnsgd1na2vs0mg"},{"bike_id":"ad8514e5-fe28-42cf-a353-0736ccb097bc","system_id":"levelo_inurba_marseille","lat":43.30136,"lon":5.3878,"is_reserved":false,"is_disabled":false,"rental_uris":{"android":"levelo://app?vid=ad8514e5-fe28-42cf-a353-0736ccb097bc","ios":"levelo://app?vid=ad8514e5-fe28-42cf-a353-0736ccb097bc"},"vehicle_type_id":"4","last_reported":1742310617,"current_range_meters":14000,"station_id":"ce4bghh2rcd13ifvqb60","pricing_plan_id":"cebpf4jnsgd1na2vs0mg"},{"bike_id":"b011ff2f-0629-45e0-9457-b9967371dcac","system_id":"levelo_inurba_marseille","lat":43.26229,"lon":5.40456,"is_reserved":false,"is_disabled":false,"rental_uris":{"android":"levelo://app?vid=b011ff2f-0629-45e0-9457-b9967371dcac","ios":"levelo://app?vid=b011ff2f-0629-45e0-9457-b9967371dcac"},"vehicle_type_id":"4","last_reported":1742310617,"current_range_meters":14400,"station_id":"ce4bhmh2rcd13ifvqgmg","pricing_plan_id":"cebpf4jnsgd1na2vs0mg"},{"bike_id":"4c23e3b0-9b1f-4b33-81b1-241cb64f4a3c","system_id":"levelo_inurba_marseille","lat":43.25589,"lon":5.38232,"is_reserved":false,"is_disabled":false,"rental_uris":{"android":"levelo://app?vid=4c23e3b0-9b1f-4b33-81b1-241cb64f4a3c","ios":"levelo://app?vid=4c23e3b0-9b1f-4b33-81b1-241cb64f4a3c"},"vehicle_type_id":"4","last_reported":1742310617,"current_range_meters":16000,"station_id":"ce4bhih2rcd13ifvqfs0","pricing_plan_id":"cebpf4jnsgd1na2vs0mg"},{"bike_id":"3455258b-4135-46b9-9a26-10bf95160e40","system_id":"levelo_inurba_marseille","lat":43.23188,"lon":5.35561,"is_reserved":false,"is_disabled":false,"rental_uris":{"android":"levelo://app?vid=3455258b-4135-46b9-9a26-10bf95160e40","ios":"levelo://app?vid=3455258b-4135-46b9-9a26-10bf95160e40"},"vehicle_type_id":"4","last_reported":1742310617,"current_range_meters":14800,"station_id":"ce4bhu92rcd13ifvqi70","pricing_plan_id":"cebpf4jnsgd1na2vs0mg"},{"bike_id":"b73b3612-f28f-42f9-8f28-9568bcd3623a","system_id":"levelo_inurba_marseille","lat":43.30126,"lon":5.374,"is_reserved":false,"is_disabled":false,"rental_uris":{"android":"levelo://app?vid=b73b3612-f28f-42f9-8f28-9568bcd3623a","ios":"levelo://app?vid=b73b3612-f28f-42f9-8f28-9568bcd3623a"},"vehicle_type_id":"4","last_reported":1742310617,"current_range_meters":14800,"station_id":"ce4bgs92rcd13ifvqcc0","pricing_plan_id":"cebpf4jnsgd1na2vs0mg"},{"bike_id":"041122f0-4503-4a82-beb8-500a19ab505a","system_id":"levelo_inurba_marseille","lat":43.29643,"lon":5.37751,"is_reserved":false,"is_disabled":false,"rental_uris":{"android":"levelo://app?vid=041122f0-4503-4a82-beb8-500a19ab505a","ios":"levelo://app?vid=041122f0-4503-4a82-beb8-500a19ab505a"},"vehicle_type_id":"4","last_reported":1742310617,"current_range_meters":14800,"station_id":"ce4bgi92rcd13ifvqb90","pricing_plan_id":"cebpf4jnsgd1na2vs0mg"},{"bike_id":"2ebdd665-45bc-41e4-ba36-29ebf27d9e85","system_id":"levelo_inurba_marseille","lat":43.25933,"lon":5.40892,"is_reserved":false,"is_disabled":false,"rental_uris":{"android":"levelo://app?vid=2ebdd665-45bc-41e4-ba36-29ebf27d9e85","ios":"levelo://app?vid=2ebdd665-45bc-41e4-ba36-29ebf27d9e85"},"vehicle_type_id":"4","last_reported":1742310617,"current_range_meters":14800,"station_id":"ce4bhm92rcd13ifvqglg","pricing_plan_id":"cebpf4jnsgd1na2vs0mg"},{"bike_id":"5aa3a25d-7db1-4716-b5ae-e9059fe47793","system_id":"levelo_inurba_marseille","lat":43.29789,"lon":5.38095,"is_reserved":false,"is_disabled":false,"rental_uris":{"android":"levelo://app?vid=5aa3a25d-7db1-4716-b5ae-e9059fe47793","ios":"levelo://app?vid=5aa3a25d-7db1-4716-b5ae-e9059fe47793"},"vehicle_type_id":"4","last_reported":1742310617,"current_range_meters":14800,"station_id":"ce4bgip2rcd13ifvqbb0","pricing_plan_id":"cebpf4jnsgd1na2vs0mg"},{"bike_id":"058bfaa9-401b-4230-96fc-2cb2f2a99e02","system_id":"levelo_inurba_marseille","lat":43.29879,"lon":5.38911,"is_reserved":false,"is_disabled":false,"rental_uris":{"android":"levelo://app?vid=058bfaa9-401b-4230-96fc-2cb2f2a99e02","ios":"levelo://app?vid=058bfaa9-401b-4230-96fc-2cb2f2a99e02"},"vehicle_type_id":"4","last_reported":1742310617,"current_range_meters":14800,"station_id":"ce4bh392rcd13ifvqdl0","pricing_plan_id":"cebpf4jnsgd1na2vs0mg"},{"bike_id":"2273a99d-9ec8-40fd-b2df-0ca03bee13dd","system_id":"levelo_inurba_marseille","lat":43.27948,"lon":5.41048,"is_reserved":false,"is_disabled":false,"rental_uris":{"android":"levelo://app?vid=2273a99d-9ec8-40fd-b2df-0ca03bee13dd","ios":"levelo://app?vid=2273a99d-9ec8-40fd-b2df-0ca03bee13dd"},"vehicle_type_id":"4","last_reported":1742310617,"current_range_meters":14800,"station_id":"ce4bhnp2rcd13ifvqh0g","pricing_plan_id":"cebpf4jnsgd1na2vs0mg"},{"bike_id":"6c2b3d14-7ff6-42b7-8c47-aa6706f79ee7","system_id":"levelo_inurba_marseille","lat":43.26231,"lon":5.40454,"is_reserved":false,"is_disabled":false,"rental_uris":{"android":"levelo://app?vid=6c2b3d14-7ff6-42b7-8c47-aa6706f79ee7","ios":"levelo://app?vid=6c2b3d14-7ff6-42b7-8c47-aa6706f79ee7"},"vehicle_type_id":"4","last_reported":1742310617,"current_range_meters":15200,"station_id":"ce4bhmh2rcd13ifvqgmg","pricing_plan_id":"cebpf4jnsgd1na2vs0mg"},{"bike_id":"7da589eb-a0d1-4d3d-9b57-80ee9fe3e625","system_id":"levelo_inurba_marseille","lat":43.30884,"lon":5.39644,"is_reserved":false,"is_disabled":false,"rental_uris":{"android":"levelo://app?vid=7da589eb-a0d1-4d3d-9b57-80ee9fe3e625","ios":"levelo://app?vid=7da589eb-a0d1-4d3d-9b57-80ee9fe3e625"},"vehicle_type_id":"4","last_reported":1742310617,"current_range_meters":15200,"station_id":"ce4bh012rcd13ifvqcv0","pricing_plan_id":"cebpf4jnsgd1na2vs0mg"},{"bike_id":"72f518e7-fcc9-4541-9804-e32cabf5e918","system_id":"levelo_inurba_marseille","lat":43.29592,"lon":5.38102,"is_reserved":false,"is_disabled":false,"rental_uris":{"android":"levelo://app?vid=72f518e7-fcc9-4541-9804-e32cabf5e918","ios":"levelo://app?vid=72f518e7-fcc9-4541-9804-e32cabf5e918"},"vehicle_type_id":"4","last_reported":1742310617,"current_range_meters":15200,"station_id":"ce4bgl12rcd13ifvqbo0","pricing_plan_id":"cebpf4jnsgd1na2vs0mg"},{"bike_id":"f13594e5-449c-486a-8a48-5024e1aa4b23","system_id":"levelo_inurba_marseille","lat":43.23201,"lon":5.35554,"is_reserved":false,"is_disabled":false,"rental_uris":{"android":"levelo://app?vid=f13594e5-449c-486a-8a48-5024e1aa4b23","ios":"levelo://app?vid=f13594e5-449c-486a-8a48-5024e1aa4b23"},"vehicle_type_id":"4","last_reported":1742310617,"current_range_meters":15200,"station_id":"ce4bhu92rcd13ifvqi70","pricing_plan_id":"cebpf4jnsgd1na2vs0mg"},{"bike_id":"753ed126-c4bf-411f-88e3-dc86e83703ff","system_id":"levelo_inurba_marseille","lat":43.31483,"lon":5.37305,"is_reserved":false,"is_disabled":false,"rental_uris":{"android":"levelo://app?vid=753ed126-c4bf-411f-88e3-dc86e83703ff","ios":"levelo://app?vid=753ed126-c4bf-411f-88e3-dc86e83703ff"},"vehicle_type_id":"4","last_reported":1742310617,"current_range_meters":16000,"station_id":"ce4bgt12rcd13ifvqcd0","pricing_plan_id":"cebpf4jnsgd1na2vs0mg"},{"bike_id":"7c0cc906-ceee-4b7d-9343-6be96e5d012e","system_id":"levelo_inurba_marseille","lat":43.30638,"lon":5.40098,"is_reserved":false,"is_disabled":false,"rental_uris":{"android":"levelo://app?vid=7c0cc906-ceee-4b7d-9343-6be96e5d012e","ios":"levelo://app?vid=7c0cc906-ceee-4b7d-9343-6be96e5d012e"},"vehicle_type_id":"4","last_reported":1742310617,"current_range_meters":15200,"station_id":"ce4bh112rcd13ifvqda0","pricing_plan_id":"cebpf4jnsgd1na2vs0mg"},{"bike_id":"6193b074-5ac2-48ec-901d-c6a58dee7e36","system_id":"levelo_inurba_marseille","lat":43.30136,"lon":5.3742,"is_reserved":false,"is_disabled":false,"rental_uris":{"android":"levelo://app?vid=6193b074-5ac2-48ec-901d-c6a58dee7e36","ios":"levelo://app?vid=6193b074-5ac2-48ec-901d-c6a58dee7e36"},"vehicle_type_id":"4","last_reported":1742310617,"current_range_meters":16000,"station_id":"ce4bgs92rcd13ifvqcc0","pricing_plan_id":"cebpf4jnsgd1na2vs0mg"},{"bike_id":"0d8be51d-5d60-4768-b79c-08d207c22ec7","system_id":"levelo_inurba_marseille","lat":43.25939,"lon":5.40907,"is_reserved":false,"is_disabled":false,"rental_uris":{"android":"levelo://app?vid=0d8be51d-5d60-4768-b79c-08d207c22ec7","ios":"levelo://app?vid=0d8be51d-5d60-4768-b79c-08d207c22ec7"},"vehicle_type_id":"4","last_reported":1742310617,"current_range_meters":16000,"station_id":"ce4bhm92rcd13ifvqglg","pricing_plan_id":"cebpf4jnsgd1na2vs0mg"},{"bike_id":"7fee9ce7-b29f-416c-beef-e6c98149f589","system_id":"levelo_inurba_marseille","lat":43.30295,"lon":5.36845,"is_reserved":false,"is_disabled":false,"rental_uris":{"android":"levelo://app?vid=7fee9ce7-b29f-416c-beef-e6c98149f589","ios":"levelo://app?vid=7fee9ce7-b29f-416c-beef-e6c98149f589"},"vehicle_type_id":"4","last_reported":1742310617,"current_range_meters":16000,"station_id":"ce4bgqh2rcd13ifvqc5g","pricing_plan_id":"cebpf4jnsgd1na2vs0mg"},{"bike_id":"a2e55a99-87c6-4fc7-a9da-cd2189293e68","system_id":"levelo_inurba_marseille","lat":43.30231,"lon":5.39398,"is_reserved":false,"is_disabled":false,"rental_uris":{"android":"levelo://app?vid=a2e55a99-87c6-4fc7-a9da-cd2189293e68","ios":"levelo://app?vid=a2e55a99-87c6-4fc7-a9da-cd2189293e68"},"vehicle_type_id":"4","last_reported":1742310617,"current_range_meters":16000,"station_id":"ce4bh0p2rcd13ifvqd70","pricing_plan_id":"cebpf4jnsgd1na2vs0mg"},{"bike_id":"f67770b7-30c8-4030-a273-2ba6ac00a27f","system_id":"levelo_inurba_marseille","lat":43.289922,"lon":5.366811,"is_reserved":false,"is_disabled":false,"rental_uris":{"android":"levelo://app?vid=f67770b7-30c8-4030-a273-2ba6ac00a27f","ios":"levelo://app?vid=f67770b7-30c8-4030-a273-2ba6ac00a27f"},"vehicle_type_id":"4","last_reported":1742310617,"current_range_meters":16400,"station_id":"ce4bh5p2rcd13ifvqe4g","pricing_plan_id":"cebpf4jnsgd1na2vs0mg"},{"bike_id":"28520dac-e5d3-451c-9011-5dde5002fd19","system_id":"levelo_inurba_marseille","lat":43.26212,"lon":5.37459,"is_reserved":false,"is_disabled":false,"rental_uris":{"android":"levelo://app?vid=28520dac-e5d3-451c-9011-5dde5002fd19","ios":"levelo://app?vid=28520dac-e5d3-451c-9011-5dde5002fd19"},"vehicle_type_id":"4","last_reported":1742310617,"current_range_meters":16000,"station_id":"ce4bhgp2rcd13ifvqfc0","pricing_plan_id":"cebpf4jnsgd1na2vs0mg"},{"bike_id":"40519983-510e-4b9a-9562-e0995123f6e0","system_id":"levelo_inurba_marseille","lat":43.23205,"lon":5.35545,"is_reserved":false,"is_disabled":false,"rental_uris":{"android":"levelo://app?vid=40519983-510e-4b9a-9562-e0995123f6e0","ios":"levelo://app?vid=40519983-510e-4b9a-9562-e0995123f6e0"},"vehicle_type_id":"4","last_reported":1742310617,"current_range_meters":16000,"station_id":"ce4bhu92rcd13ifvqi70","pricing_plan_id":"cebpf4jnsgd1na2vs0mg"},{"bike_id":"549f6096-0068-4065-b41f-e000d4dd5929","system_id":"levelo_inurba_marseille","lat":43.2992,"lon":5.37482,"is_reserved":false,"is_disabled":false,"rental_uris":{"android":"levelo://app?vid=549f6096-0068-4065-b41f-e000d4dd5929","ios":"levelo://app?vid=549f6096-0068-4065-b41f-e000d4dd5929"},"vehicle_type_id":"4","last_reported":1742310617,"current_range_meters":16000,"station_id":"ce4bgjh2rcd13ifvqbg0","pricing_plan_id":"cebpf4jnsgd1na2vs0mg"},{"bike_id":"c4ab908c-6ae9-4ef1-9805-1daecd563f02","system_id":"levelo_inurba_marseille","lat":43.30289,"lon":5.37702,"is_reserved":false,"is_disabled":false,"rental_uris":{"android":"levelo://app?vid=c4ab908c-6ae9-4ef1-9805-1daecd563f02","ios":"levelo://app?vid=c4ab908c-6ae9-4ef1-9805-1daecd563f02"},"vehicle_type_id":"4","last_reported":1742310617,"current_range_meters":16000,"station_id":"ce4bguh2rcd13ifvqcj0","pricing_plan_id":"cebpf4jnsgd1na2vs0mg"},{"bike_id":"58ca1a06-c64a-499a-b48f-d8b7fa8b47e7","system_id":"levelo_inurba_marseille","lat":43.290604,"lon":5.379881,"is_reserved":false,"is_disabled":false,"rental_uris":{"android":"levelo://app?vid=58ca1a06-c64a-499a-b48f-d8b7fa8b47e7","ios":"levelo://app?vid=58ca1a06-c64a-499a-b48f-d8b7fa8b47e7"},"vehicle_type_id":"4","last_reported":1742310617,"current_range_meters":16400,"station_id":"ce4bgh92rcd13ifvqb50","pricing_plan_id":"cebpf4jnsgd1na2vs0mg"},{"bike_id":"77c30e38-1d5c-48c7-9075-fe2537c6bc7c","system_id":"levelo_inurba_marseille","lat":43.26223,"lon":5.40451,"is_reserved":false,"is_disabled":false,"rental_uris":{"android":"levelo://app?vid=77c30e38-1d5c-48c7-9075-fe2537c6bc7c","ios":"levelo://app?vid=77c30e38-1d5c-48c7-9075-fe2537c6bc7c"},"vehicle_type_id":"4","last_reported":1742310617,"current_range_meters":16400,"station_id":"ce4bhmh2rcd13ifvqgmg","pricing_plan_id":"cebpf4jnsgd1na2vs0mg"},{"bike_id":"a9e37662-e2a0-4e06-a7a5-09d3f55e57ea","system_id":"levelo_inurba_marseille","lat":43.26224,"lon":5.40456,"is_reserved":false,"is_disabled":false,"rental_uris":{"android":"levelo://app?vid=a9e37662-e2a0-4e06-a7a5-09d3f55e57ea","ios":"levelo://app?vid=a9e37662-e2a0-4e06-a7a5-09d3f55e57ea"},"vehicle_type_id":"4","last_reported":1742310617,"current_range_meters":16400,"station_id":"ce4bhmh2rcd13ifvqgmg","pricing_plan_id":"cebpf4jnsgd1na2vs0mg"},{"bike_id":"32c5a6c7-7b34-41c5-a126-d40dd88c8e5a","system_id":"levelo_inurba_marseille","lat":43.30326,"lon":5.40448,"is_reserved":false,"is_disabled":false,"rental_uris":{"android":"levelo://app?vid=32c5a6c7-7b34-41c5-a126-d40dd88c8e5a","ios":"levelo://app?vid=32c5a6c7-7b34-41c5-a126-d40dd88c8e5a"},"vehicle_type_id":"4","last_reported":1742310617,"current_range_meters":16800,"station_id":"ce4bh012rcd13ifvqd10","pricing_plan_id":"cebpf4jnsgd1na2vs0mg"},{"bike_id":"4b0e6985-ae51-4bbd-98f6-7facaba9af74","system_id":"levelo_inurba_marseille","lat":43.25931,"lon":5.40915,"is_reserved":false,"is_disabled":false,"rental_uris":{"android":"levelo://app?vid=4b0e6985-ae51-4bbd-98f6-7facaba9af74","ios":"levelo://app?vid=4b0e6985-ae51-4bbd-98f6-7facaba9af74"},"vehicle_type_id":"4","last_reported":1742310617,"current_range_meters":16800,"station_id":"ce4bhm92rcd13ifvqglg","pricing_plan_id":"cebpf4jnsgd1na2vs0mg"},{"bike_id":"e1e4f1f0-543c-442c-9fe8-d88b005d49ca","system_id":"levelo_inurba_marseille","lat":43.29264,"lon":5.38438,"is_reserved":false,"is_disabled":false,"rental_uris":{"android":"levelo://app?vid=e1e4f1f0-543c-442c-9fe8-d88b005d49ca","ios":"levelo://app?vid=e1e4f1f0-543c-442c-9fe8-d88b005d49ca"},"vehicle_type_id":"4","last_reported":1742310617,"current_range_meters":16800,"station_id":"ce4bh692rcd13ifvqea0","pricing_plan_id":"cebpf4jnsgd1na2vs0mg"},{"bike_id":"4d9ae2f3-a796-49dc-a321-2b64b628a9e2","system_id":"levelo_inurba_marseille","lat":43.24072,"lon":5.37752,"is_reserved":false,"is_disabled":false,"rental_uris":{"android":"levelo://app?vid=4d9ae2f3-a796-49dc-a321-2b64b628a9e2","ios":"levelo://app?vid=4d9ae2f3-a796-49dc-a321-2b64b628a9e2"},"vehicle_type_id":"4","last_reported":1742310617,"current_range_meters":16400,"station_id":"ce4bhnp2rcd13ifvqgvg","pricing_plan_id":"cebpf4jnsgd1na2vs0mg"},{"bike_id":"948d306b-42e0-4ba6-93a8-a10bb3eef8e3","system_id":"levelo_inurba_marseille","lat":43.26237,"lon":5.40461,"is_reserved":false,"is_disabled":false,"rental_uris":{"android":"levelo://app?vid=948d306b-42e0-4ba6-93a8-a10bb3eef8e3","ios":"levelo://app?vid=948d306b-42e0-4ba6-93a8-a10bb3eef8e3"},"vehicle_type_id":"4","last_reported":1742310617,"current_range_meters":16800,"station_id":"ce4bhmh2rcd13ifvqgmg","pricing_plan_id":"cebpf4jnsgd1na2vs0mg"},{"bike_id":"5d2132b6-134f-42d5-b560-3e0c3716193a","system_id":"levelo_inurba_marseille","lat":43.29716,"lon":5.36607,"is_reserved":false,"is_disabled":false,"rental_uris":{"android":"levelo://app?vid=5d2132b6-134f-42d5-b560-3e0c3716193a","ios":"levelo://app?vid=5d2132b6-134f-42d5-b560-3e0c3716193a"},"vehicle_type_id":"4","last_reported":1742310617,"current_range_meters":16800,"station_id":"ce4bgn12rcd13ifvqbt0","pricing_plan_id":"cebpf4jnsgd1na2vs0mg"},{"bike_id":"487146fa-d92b-4a14-98d2-6dd84fecf53e","system_id":"levelo_inurba_marseille","lat":43.25504,"lon":5.37649,"is_reserved":false,"is_disabled":false,"rental_uris":{"android":"levelo://app?vid=487146fa-d92b-4a14-98d2-6dd84fecf53e","ios":"levelo://app?vid=487146fa-d92b-4a14-98d2-6dd84fecf53e"},"vehicle_type_id":"4","last_reported":1742310617,"current_range_meters":16800,"station_id":"ce4bhh12rcd13ifvqff0","pricing_plan_id":"cebpf4jnsgd1na2vs0mg"},{"bike_id":"0facce62-ec8a-411a-a1e6-5d69c47fc333","system_id":"levelo_inurba_marseille","lat":43.30455,"lon":5.36741,"is_reserved":false,"is_disabled":false,"rental_uris":{"android":"levelo://app?vid=0facce62-ec8a-411a-a1e6-5d69c47fc333","ios":"levelo://app?vid=0facce62-ec8a-411a-a1e6-5d69c47fc333"},"vehicle_type_id":"4","last_reported":1742310617,"current_range_meters":16800,"station_id":"","pricing_plan_id":"cebpf4jnsgd1na2vs0mg"},{"bike_id":"c2d5a123-d09a-4b21-a2ef-a198ad54bfc2","system_id":"levelo_inurba_marseille","lat":43.23064,"lon":5.354993,"is_reserved":false,"is_disabled":false,"rental_uris":{"android":"levelo://app?vid=c2d5a123-d09a-4b21-a2ef-a198ad54bfc2","ios":"levelo://app?vid=c2d5a123-d09a-4b21-a2ef-a198ad54bfc2"},"vehicle_type_id":"4","last_reported":1742310617,"current_range_meters":17200,"station_id":"cpo3342slgdg3j2ifvpg","pricing_plan_id":"cebpf4jnsgd1na2vs0mg"},{"bike_id":"711cb65c-aa9a-4fe7-8fb0-49fd421eb607","system_id":"levelo_inurba_marseille","lat":43.30282,"lon":5.37693,"is_reserved":false,"is_disabled":false,"rental_uris":{"android":"levelo://app?vid=711cb65c-aa9a-4fe7-8fb0-49fd421eb607","ios":"levelo://app?vid=711cb65c-aa9a-4fe7-8fb0-49fd421eb607"},"vehicle_type_id":"4","last_reported":1742310617,"current_range_meters":17200,"station_id":"ce4bguh2rcd13ifvqcj0","pricing_plan_id":"cebpf4jnsgd1na2vs0mg"},{"bike_id":"dc430db3-ab2b-4d11-aa65-5aca0bd054e8","system_id":"levelo_inurba_marseille","lat":43.25499,"lon":5.37651,"is_reserved":false,"is_disabled":false,"rental_uris":{"android":"levelo://app?vid=dc430db3-ab2b-4d11-aa65-5aca0bd054e8","ios":"levelo://app?vid=dc430db3-ab2b-4d11-aa65-5aca0bd054e8"},"vehicle_type_id":"4","last_reported":1742310617,"current_range_meters":17200,"station_id":"ce4bhh12rcd13ifvqff0","pricing_plan_id":"cebpf4jnsgd1na2vs0mg"},{"bike_id":"2f5b5506-0d8e-4e2e-a077-5c558dd54b86","system_id":"levelo_inurba_marseille","lat":43.29598,"lon":5.36737,"is_reserved":false,"is_disabled":false,"rental_uris":{"android":"levelo://app?vid=2f5b5506-0d8e-4e2e-a077-5c558dd54b86","ios":"levelo://app?vid=2f5b5506-0d8e-4e2e-a077-5c558dd54b86"},"vehicle_type_id":"4","last_reported":1742310617,"current_range_meters":17200,"station_id":"ce4bgph2rcd13ifvqc2g","pricing_plan_id":"cebpf4jnsgd1na2vs0mg"},{"bike_id":"b0d2fd39-c5b7-4eb0-bbb9-af7d841ce0e3","system_id":"levelo_inurba_marseille","lat":43.24164,"lon":5.36402,"is_reserved":false,"is_disabled":true,"rental_uris":{"android":"levelo://app?vid=b0d2fd39-c5b7-4eb0-bbb9-af7d841ce0e3","ios":"levelo://app?vid=b0d2fd39-c5b7-4eb0-bbb9-af7d841ce0e3"},"vehicle_type_id":"4","last_reported":1742310617,"current_range_meters":17200,"station_id":"cpo36qri1sfpv3e86is0","pricing_plan_id":"cebpf4jnsgd1na2vs0mg"},{"bike_id":"c41f854d-537a-42f8-b93c-f3b4685cae77","system_id":"levelo_inurba_marseille","lat":43.31491,"lon":5.37311,"is_reserved":false,"is_disabled":false,"rental_uris":{"android":"levelo://app?vid=c41f854d-537a-42f8-b93c-f3b4685cae77","ios":"levelo://app?vid=c41f854d-537a-42f8-b93c-f3b4685cae77"},"vehicle_type_id":"4","last_reported":1742310617,"current_range_meters":16800,"station_id":"ce4bgt12rcd13ifvqcd0","pricing_plan_id":"cebpf4jnsgd1na2vs0mg"},{"bike_id":"3bd82f89-4b99-45fb-a28f-fa00d8335599","system_id":"levelo_inurba_marseille","lat":43.28266,"lon":5.35064,"is_reserved":false,"is_disabled":false,"rental_uris":{"android":"levelo://app?vid=3bd82f89-4b99-45fb-a28f-fa00d8335599","ios":"levelo://app?vid=3bd82f89-4b99-45fb-a28f-fa00d8335599"},"vehicle_type_id":"4","last_reported":1742310617,"current_range_meters":17200,"station_id":"ce4bhbp2rcd13ifvqerg","pricing_plan_id":"cebpf4jnsgd1na2vs0mg"},{"bike_id":"9a6dcada-a71a-447d-9189-c873b5972467","system_id":"levelo_inurba_marseille","lat":43.29972,"lon":5.38496,"is_reserved":false,"is_disabled":false,"rental_uris":{"android":"levelo://app?vid=9a6dcada-a71a-447d-9189-c873b5972467","ios":"levelo://app?vid=9a6dcada-a71a-447d-9189-c873b5972467"},"vehicle_type_id":"4","last_reported":1742310617,"current_range_meters":17200,"station_id":"ce4bgj92rcd13ifvqbd0","pricing_plan_id":"cebpf4jnsgd1na2vs0mg"},{"bike_id":"7a078d06-8648-4776-bbc5-6a8e99b5d7d2","system_id":"levelo_inurba_marseille","lat":43.30803,"lon":5.38143,"is_reserved":false,"is_disabled":false,"rental_uris":{"android":"levelo://app?vid=7a078d06-8648-4776-bbc5-6a8e99b5d7d2","ios":"levelo://app?vid=7a078d06-8648-4776-bbc5-6a8e99b5d7d2"},"vehicle_type_id":"4","last_reported":1742310617,"current_range_meters":17600,"station_id":"ce4bgt12rcd13ifvqce0","pricing_plan_id":"cebpf4jnsgd1na2vs0mg"},{"bike_id":"934a38f2-8427-4e81-acd6-bf27b71dbb3e","system_id":"levelo_inurba_marseille","lat":43.29259,"lon":5.40914,"is_reserved":false,"is_disabled":false,"rental_uris":{"android":"levelo://app?vid=934a38f2-8427-4e81-acd6-bf27b71dbb3e","ios":"levelo://app?vid=934a38f2-8427-4e81-acd6-bf27b71dbb3e"},"vehicle_type_id":"4","last_reported":1742310617,"current_range_meters":17600,"station_id":"ce4bh192rcd13ifvqdc0","pricing_plan_id":"cebpf4jnsgd1na2vs0mg"},{"bike_id":"b6804529-6a3a-4932-a0e5-1f8bf8fdadda","system_id":"levelo_inurba_marseille","lat":43.29531,"lon":5.39398,"is_reserved":false,"is_disabled":false,"rental_uris":{"android":"levelo://app?vid=b6804529-6a3a-4932-a0e5-1f8bf8fdadda","ios":"levelo://app?vid=b6804529-6a3a-4932-a0e5-1f8bf8fdadda"},"vehicle_type_id":"4","last_reported":1742310617,"current_range_meters":17600,"station_id":"ce4bh292rcd13ifvqdf0","pricing_plan_id":"cebpf4jnsgd1na2vs0mg"},{"bike_id":"c0b8ad42-6052-4534-8288-a748e1a46b0f","system_id":"levelo_inurba_marseille","lat":43.29791,"lon":5.39345,"is_reserved":false,"is_disabled":false,"rental_uris":{"android":"levelo://app?vid=c0b8ad42-6052-4534-8288-a748e1a46b0f","ios":"levelo://app?vid=c0b8ad42-6052-4534-8288-a748e1a46b0f"},"vehicle_type_id":"4","last_reported":1742310617,"current_range_meters":17600,"station_id":"chh1huq6cuj3fo74tm60","pricing_plan_id":"cebpf4jnsgd1na2vs0mg"},{"bike_id":"df4ddc97-b7c6-4c3b-a34f-7d652f0ae747","system_id":"levelo_inurba_marseille","lat":43.30538,"lon":5.36547,"is_reserved":false,"is_disabled":false,"rental_uris":{"android":"levelo://app?vid=df4ddc97-b7c6-4c3b-a34f-7d652f0ae747","ios":"levelo://app?vid=df4ddc97-b7c6-4c3b-a34f-7d652f0ae747"},"vehicle_type_id":"4","last_reported":1742310617,"current_range_meters":17600,"station_id":"ce4bgs12rcd13ifvqcag","pricing_plan_id":"cebpf4jnsgd1na2vs0mg"},{"bike_id":"a4dfe2a5-fdb6-4de9-b024-8bed9f464ec5","system_id":"levelo_inurba_marseille","lat":43.241767,"lon":5.397302,"is_reserved":false,"is_disabled":false,"rental_uris":{"android":"levelo://app?vid=a4dfe2a5-fdb6-4de9-b024-8bed9f464ec5","ios":"levelo://app?vid=a4dfe2a5-fdb6-4de9-b024-8bed9f464ec5"},"vehicle_type_id":"4","last_reported":1742310617,"current_range_meters":17600,"station_id":"ce4bhn12rcd13ifvqgpg","pricing_plan_id":"cebpf4jnsgd1na2vs0mg"},{"bike_id":"3cb8cc27-95c5-4545-870d-d3863081341b","system_id":"levelo_inurba_marseille","lat":43.28707,"lon":5.37391,"is_reserved":false,"is_disabled":true,"rental_uris":{"android":"levelo://app?vid=3cb8cc27-95c5-4545-870d-d3863081341b","ios":"levelo://app?vid=3cb8cc27-95c5-4545-870d-d3863081341b"},"vehicle_type_id":"4","last_reported":1742310617,"current_range_meters":17600,"station_id":"ce4bh3p2rcd13ifvqdq0","pricing_plan_id":"cebpf4jnsgd1na2vs0mg"},