{"last_updated":1687889381,"ttl":30,"version":"2.2","data":{"bikes":[{"bike_id":"953bc70b-cf31-4f4a-a32f-fb5c4f6d82fe","system_id":"levelo_inurba_marseille","lat":43.31533,"lon":5.37167,"is_reserved":false,"is_disabled":false,"rental_uris":{"android":"levelo://app?vid=953bc70b-cf31-4f4a-a32f-fb5c4f6d82fe","ios":"levelo://app?vid=953bc70b-cf31-4f4a-a32f-fb5c4f6d82fe"},"vehicle_type_id":"4","last_reported":1687889382,"current_range_meters":20000,"station_id":"","pricing_plan_id":"free"},{"bike_id":"947fcf84-c636-4007-8607-690fa191dc37","system_id":"levelo_inurba_marseille","lat":43.31423,"lon":5.37342,"is_reserved":false,"is_disabled":false,"rental_uris":{"android":"levelo://app?vid=947fcf84-c636-4007-8607-690fa191dc37","ios":"levelo://app?vid=947fcf84-c636-4007-8607-690fa191dc37"},"vehicle_type_id":"4","last_reported":1687889382,"current_range_meters":26400,"station_id":"","pricing_plan_id":"free"},{"bike_id":"03946992-41f3-409a-a81c-ab6de7e61e27","system_id":"levelo_inurba_marseille","lat":43.308606,"lon":5.372099,"is_reserved":false,"is_disabled":false,"rental_uris":{"android":"levelo://app?vid=03946992-41f3-409a-a81c-ab6de7e61e27","ios":"levelo://app?vid=03946992-41f3-409a-a81c-ab6de7e61e27"},"vehicle_type_id":"4","last_reported":1687889382,"current_range_meters":1600,"station_id":"ce4bguh2rcd13ifvqckg","pricing_plan_id":"free"},{"bike_id":"f65ec447-4fb6-4cf2-a08c-a894426c1c37","system_id":"levelo_inurba_marseille","lat":43.311125,"lon":5.377624,"is_reserved":false,"is_disabled":false,"rental_uris":{"android":"levelo://app?vid=f65ec447-4fb6-4cf2-a08c-a894426c1c37","ios":"levelo://app?vid=f65ec447-4fb6-4cf2-a08c-a894426c1c37"},"vehicle_type_id":"4","last_reported":1687889382,"current_range_meters":6400,"station_id":"ce4bgt92rcd13ifvqcg0","pricing_plan_id":"free"},{"bike_id":"0a5a1e3d-7804-41b6-906b-efcebb6a3e23","system_id":"levelo_inurba_marseille","lat":43.317,"lon":5.37726,"is_reserved":false,"is_disabled":false,"rental_uris":{"android":"levelo://app?vid=0a5a1e3d-7804-41b6-906b-efcebb6a3e23","ios":"levelo://app?vid=0a5a1e3d-7804-41b6-906b-efcebb6a3e23"},"vehicle_type_id":"4","last_reported":1687889382,"current_range_meters":6400,"station_id":"ce4bgth2rcd13ifvqch0","pricing_plan_id":"free"},{"bike_id":"f95b49fc-5807-418a-85db-6ae778705275","system_id":"levelo_inurba_marseille","lat":43.317075,"lon":5.377367,"is_reserved":false,"is_disabled":false,"rental_uris":{"android":"levelo://app?vid=f95b49fc-5807-418a-85db-6ae778705275","ios":"levelo://app?vid=f95b49fc-5807-418a-85db-6ae778705275"},"vehicle_type_id":"4","last_reported":1687889382,"current_range_meters":7600,"station_id":"ce4bgth2rcd13ifvqch0","pricing_plan_id":"free"},{"bike_id":"0cb784f1-566d-4f46-b9f0-75eb596b3813","system_id":"levelo_inurba_marseille","lat":43.315293,"lon":5.380349,"is_reserved":false,"is_disabled":false,"rental_uris":{"android":"levelo://app?vid=0cb784f1-566d-4f46-b9f0-75eb596b3813","ios":"levelo://app?vid=0cb784f1-566d-4f46-b9f0-75eb596b3813"},"vehicle_type_id":"4","last_reported":1687889382,"current_range_meters":16000,"station_id":"ce4bhsp2rcd13ifvqi50","pricing_plan_id":"free"},{"bike_id":"4ee15348-15e2-4f3c-9644-cacb33387e2c","system_id":"levelo_inurba_marseille","lat":43.315293,"lon":5.380349,"is_reserved":false,"is_disabled":false,"rental_uris":{"android":"levelo://app?vid=4ee15348-15e2-4f3c-9644-cacb33387e2c","ios":"levelo://app?vid=4ee15348-15e2-4f3c-9644-cacb33387e2c"},"vehicle_type_id":"4","last_reported":1687889382,"current_range_meters":8400,"station_id":"ce4bhsp2rcd13ifvqi50","pricing_plan_id":"free"},{"bike_id":"4a23b9bb-ed35-42c5-aea3-c9a9210f68b6","system_id":"levelo_inurba_marseille","lat":43.308012,"lon":5.381511,"is_reserved":false,"is_disabled":false,"rental_uris":{"android":"levelo://app?vid=4a23b9bb-ed35-42c5-aea3-c9a9210f68b6","ios":"levelo://app?vid=4a23b9bb-ed35-42c5-aea3-c9a9210f68b6"},"vehicle_type_id":"4","last_reported":1687889382,"current_range_meters":4400,"station_id":"ce4bgt12rcd13ifvqce0","pricing_plan_id":"free"},{"bike_id":"e703adc6-c9c0-43c0-ad13-da126edd7ba7","system_id":"levelo_inurba_marseille","lat":43.304606,"lon":5.379026,"is_reserved":false,"is_disabled":false,"rental_uris":{"android":"levelo://app?vid=e703adc6-c9c0-43c0-ad13-da126edd7ba7","ios":"levelo://app?vid=e703adc6-c9c0-43c0-ad13-da126edd7ba7"},"vehicle_type_id":"4","last_reported":1687889382,"current_range_meters":10400,"station_id":"ce4bgup2rcd13ifvqcn0","pricing_plan_id":"free"},{"bike_id":"ff2674b5-8725-4878-b5d3-488c50f2698c","system_id":"levelo_inurba_marseille","lat":43.319935,"lon":5.381699,"is_reserved":false,"is_disabled":false,"rental_uris":{"android":"levelo://app?vid=ff2674b5-8725-4878-b5d3-488c50f2698c","ios":"levelo://app?vid=ff2674b5-8725-4878-b5d3-488c50f2698c"},"vehicle_type_id":"4","last_reported":1687889382,"current_range_meters":18400,"station_id":"ce4bhr12rcd13ifvqhpg","pricing_plan_id":"free"},{"bike_id":"e3ffbad8-9b94-4cdf-b094-f77e7df949c1","system_id":"levelo_inurba_marseille","lat":43.319935,"lon":5.381699,"is_reserved":false,"is_disabled":false,"rental_uris":{"android":"levelo://app?vid=e3ffbad8-9b94-4cdf-b094-f77e7df949c1","ios":"levelo://app?vid=e3ffbad8-9b94-4cdf-b094-f77e7df949c1"},"vehicle_type_id":"4","last_reported":1687889382,"current_range_meters":4800,"station_id":"ce4bhr12rcd13ifvqhpg","pricing_plan_id":"free"},{"bike_id":"09845572-824e-4265-814c-15713da8a94c","system_id":"levelo_inurba_marseille","lat":43.313571,"lon":5.384829,"is_reserved":false,"is_disabled":false,"rental_uris":{"android":"levelo://app?vid=09845572-824e-4265-814c-15713da8a94c","ios":"levelo://app?vid=09845572-824e-4265-814c-15713da8a94c"},"vehicle_type_id":"4","last_reported":1687889382,"current_range_meters":10400,"station_id":"ce4bgt92rcd13ifvqcf0","pricing_plan_id":"free"},{"bike_id":"e4204e9b-9278-46ad-bdf1-ef9feea630eb","system_id":"levelo_inurba_marseille","lat":43.313571,"lon":5.384829,"is_reserved":false,"is_disabled":false,"rental_uris":{"android":"levelo://app?vid=e4204e9b-9278-46ad-bdf1-ef9feea630eb","ios":"levelo://app?vid=e4204e9b-9278-46ad-bdf1-ef9feea630eb"},"vehicle_type_id":"4","last_reported":1687889382,"current_range_meters":2400,"station_id":"ce4bgt92rcd13ifvqcf0","pricing_plan_id":"free"},{"bike_id":"efaafc84-2da8-474c-a830-4400383e6644","system_id":"levelo_inurba_marseille","lat":43.311722,"lon":5.387247,"is_reserved":false,"is_disabled":false,"rental_uris":{"android":"levelo://app?vid=efaafc84-2da8-474c-a830-4400383e6644","ios":"levelo://app?vid=efaafc84-2da8-474c-a830-4400383e6644"},"vehicle_type_id":"4","last_reported":1687889382,"current_range_meters":20000,"station_id":"ce4bgv12rcd13ifvqcp0","pricing_plan_id":"free"},{"bike_id":"e5c74fd8-c922-4cba-9c27-c1132ef14b25","system_id":"levelo_inurba_marseille","lat":43.311722,"lon":5.387247,"is_reserved":false,"is_disabled":false,"rental_uris":{"android":"levelo://app?vid=e5c74fd8-c922-4cba-9c27-c1132ef14b25","ios":"levelo://app?vid=e5c74fd8-c922-4cba-9c27-c1132ef14b25"},"vehicle_type_id":"4","last_reported":1687889382,"current_range_meters":8800,"station_id":"ce4bgv12rcd13ifvqcp0","pricing_plan_id":"free"},{"bike_id":"98f7f6eb-cb47-4b3b-bce3-05afbb23f5d9","system_id":"levelo_inurba_marseille","lat":43.297794,"lon":5.370888,"is_reserved":false,"is_disabled":false,"rental_uris":{"android":"levelo://app?vid=98f7f6eb-cb47-4b3b-bce3-05afbb23f5d9","ios":"levelo://app?vid=98f7f6eb-cb47-4b3b-bce3-05afbb23f5d9"},"vehicle_type_id":"4","last_reported":1687889382,"current_range_meters":1200,"station_id":"ce4bgop2rcd13ifvqc1g","pricing_plan_id":"free"},{"bike_id":"c6804d50-337b-4bcf-9148-94ffa02f914b","system_id":"levelo_inurba_marseille","lat":43.297774,"lon":5.370875,"is_reserved":false,"is_disabled":false,"rental_uris":{"android":"levelo://app?vid=c6804d50-337b-4bcf-9148-94ffa02f914b","ios":"levelo://app?vid=c6804d50-337b-4bcf-9148-94ffa02f914b"},"vehicle_type_id":"4","last_reported":1687889382,"current_range_meters":13600,"station_id":"ce4bgop2rcd13ifvqc1g","pricing_plan_id":"free"},{"bike_id":"a8537d49-534e-49b1-8ad8-f46da1b5ef6b","system_id":"levelo_inurba_marseille","lat":43.328371,"lon":5.366909,"is_reserved":false,"is_disabled":false,"rental_uris":{"android":"levelo://app?vid=a8537d49-534e-49b1-8ad8-f46da1b5ef6b","ios":"levelo://app?vid=a8537d49-534e-49b1-8ad8-f46da1b5ef6b"},"vehicle_type_id":"4","last_reported":1687889382,"current_range_meters":20000,"station_id":"ce4bhs92rcd13ifvqi0g","pricing_plan_id":"free"},{"bike_id":"c0ba4054-03d2-4233-93b4-0461723bc0b5","system_id":"levelo_inurba_marseille","lat":43.328371,"lon":5.366909,"is_reserved":false,"is_disabled":false,"rental_uris":{"android":"levelo://app?vid=c0ba4054-03d2-4233-93b4-0461723bc0b5","ios":"levelo://app?vid=c0ba4054-03d2-4233-93b4-0461723bc0b5"},"vehicle_type_id":"4","last_reported":1687889382,"current_range_meters":23600,"station_id":"ce4bhs92rcd13ifvqi0g","pricing_plan_id":"free"},{"bike_id":"a282156f-73ed-421d-af56-827fbeefba6d","system_id":"levelo_inurba_marseille","lat":43.328371,"lon":5.366909,"is_reserved":false,"is_disabled":false,"rental_uris":{"android":"levelo://app?vid=a282156f-73ed-421d-af56-827fbeefba6d","ios":"levelo://app?vid=a282156f-73ed-421d-af56-827fbeefba6d"},"vehicle_type_id":"4","last_reported":1687889382,"current_range_meters":12000,"station_id":"ce4bhs92rcd13ifvqi0g","pricing_plan_id":"free"},{"bike_id":"998a9ac3-72ef-4b02-ade3-76ef5fd9e8ba","system_id":"levelo_inurba_marseille","lat":43.297163,"lon":5.365866,"is_reserved":false,"is_disabled":false,"rental_uris":{"android":"levelo://app?vid=998a9ac3-72ef-4b02-ade3-76ef5fd9e8ba","ios":"levelo://app?vid=998a9ac3-72ef-4b02-ade3-76ef5fd9e8ba"},"vehicle_type_id":"4","last_reported":1687889382,"current_range_meters":3600,"station_id":"ce4bgn12rcd13ifvqbt0","pricing_plan_id":"free"},{"bike_id":"5108659d-1431-4d89-a11a-e27336cba391","system_id":"levelo_inurba_marseille","lat":43.328371,"lon":5.366909,"is_reserved":false,"is_disabled":false,"rental_uris":{"android":"levelo://app?vid=5108659d-1431-4d89-a11a-e27336cba391","ios":"levelo://app?vid=5108659d-1431-4d89-a11a-e27336cba391"},"vehicle_type_id":"4","last_reported":1687889382,"current_range_meters":20800,"station_id":"ce4bhs92rcd13ifvqi0g","pricing_plan_id":"free"},{"bike_id":"c8406c13-ef72-4ba1-85aa-800953bc486c","system_id":"levelo_inurba_marseille","lat":43.3283,"lon":5.36684,"is_reserved":false,"is_disabled":false,"rental_uris":{"android":"levelo://app?vid=c8406c13-ef72-4ba1-85aa-800953bc486c","ios":"levelo://app?vid=c8406c13-ef72-4ba1-85aa-800953bc486c"},"vehicle_type_id":"4","last_reported":1687889382,"current_range_meters":0,"station_id":"ce4bhs92rcd13ifvqi0g","pricing_plan_id":"free"},{"bike_id":"4ad0820a-b4f0-4687-9297-85e68595ea74","system_id":"levelo_inurba_marseille","lat":43.3283,"lon":5.36673,"is_reserved":false,"is_disabled":false,"rental_uris":{"android":"levelo://app?vid=4ad0820a-b4f0-4687-9297-85e68595ea74","ios":"levelo://app?vid=4ad0820a-b4f0-4687-9297-85e68595ea74"},"vehicle_type_id":"4","last_reported":1687889382,"current_range_meters":20400,"station_id":"ce4bhs92rcd13ifvqi0g","pricing_plan_id":"free"},{"bike_id":"26e08fe2-1637-4396-bf51-faf0438a1ca8","system_id":"levelo_inurba_marseille","lat":43.297163,"lon":5.365866,"is_reserved":false,"is_disabled":false,"rental_uris":{"android":"levelo://app?vid=26e08fe2-1637-4396-bf51-faf0438a1ca8","ios":"levelo://app?vid=26e08fe2-1637-4396-bf51-faf0438a1ca8"},"vehicle_type_id":"4","last_reported":1687889382,"current_range_meters":22000,"station_id":"ce4bgn12rcd13ifvqbt0","pricing_plan_id":"free"},{"bike_id":"8d98417a-cbe4-4269-8bc9-598373a7d5de","system_id":"levelo_inurba_marseille","lat":43.32874,"lon":5.363,"is_reserved":false,"is_disabled":false,"rental_uris":{"android":"levelo://app?vid=8d98417a-cbe4-4269-8bc9-598373a7d5de","ios":"levelo://app?vid=8d98417a-cbe4-4269-8bc9-598373a7d5de"},"vehicle_type_id":"4","last_reported":1687889382,"current_range_meters":6800,"station_id":"","pricing_plan_id":"free"},{"bike_id":"bb73eb3b-c6d5-48c2-aeb8-be8eed7309da","system_id":"levelo_inurba_marseille","lat":43.29573,"lon":5.367355,"is_reserved":false,"is_disabled":false,"rental_uris":{"android":"levelo://app?vid=bb73eb3b-c6d5-48c2-aeb8-be8eed7309da","ios":"levelo://app?vid=bb73eb3b-c6d5-48c2-aeb8-be8eed7309da"},"vehicle_type_id":"4","last_reported":1687889382,"current_range_meters":1200,"station_id":"ce4bgph2rcd13ifvqc2g","pricing_plan_id":"free"},{"bike_id":"22286068-ff0f-4921-8a50-b4e0a8692c1f","system_id":"levelo_inurba_marseille","lat":43.29573,"lon":5.367355,"is_reserved":false,"is_disabled":false,"rental_uris":{"android":"levelo://app?vid=22286068-ff0f-4921-8a50-b4e0a8692c1f","ios":"levelo://app?vid=22286068-ff0f-4921-8a50-b4e0a8692c1f"},"vehicle_type_id":"4","last_reported":1687889382,"current_range_meters":14800,"station_id":"ce4bgph2rcd13ifvqc2g","pricing_plan_id":"free"},{"bike_id":"ea3d9a5a-eada-4047-b63c-8ffb918d54d3","system_id":"levelo_inurba_marseille","lat":43.296921,"lon":5.376579,"is_reserved":false,"is_disabled":false,"rental_uris":{"android":"levelo://app?vid=ea3d9a5a-eada-4047-b63c-8ffb918d54d3","ios":"levelo://app?vid=ea3d9a5a-eada-4047-b63c-8ffb918d54d3"},"vehicle_type_id":"4","last_reported":1687889382,"current_range_meters":0,"station_id":"ce4bgkh2rcd13ifvqbl0","pricing_plan_id":"free"},{"bike_id":"1a908bd6-9f37-4e05-8cec-c826d6cd3c5a","system_id":"levelo_inurba_marseille","lat":43.30946,"lon":5.39043,"is_reserved":false,"is_disabled":false,"rental_uris":{"android":"levelo://app?vid=1a908bd6-9f37-4e05-8cec-c826d6cd3c5a","ios":"levelo://app?vid=1a908bd6-9f37-4e05-8cec-c826d6cd3c5a"},"vehicle_type_id":"4","last_reported":1687889382,"current_range_meters":13600,"station_id":"ce4bgup2rcd13ifvqco0","pricing_plan_id":"free"},{"bike_id":"43ddf487-4679-47ab-a640-42eb7f0c8f92","system_id":"levelo_inurba_marseille","lat":43.31756,"lon":5.39014,"is_reserved":false,"is_disabled":false,"rental_uris":{"android":"levelo://app?vid=43ddf487-4679-47ab-a640-42eb7f0c8f92","ios":"levelo://app?vid=43ddf487-4679-47ab-a640-42eb7f0c8f92"},"vehicle_type_id":"4","last_reported":1687889382,"current_range_meters":11600,"station_id":"ce4bhqp2rcd13ifvqhng","pricing_plan_id":"free"},{"bike_id":"1c150319-28cd-412a-b884-5193ede0cbc1","system_id":"levelo_inurba_marseille","lat":43.31758,"lon":5.39025,"is_reserved":false,"is_disabled":false,"rental_uris":{"android":"levelo://app?vid=1c150319-28cd-412a-b884-5193ede0cbc1","ios":"levelo://app?vid=1c150319-28cd-412a-b884-5193ede0cbc1"},"vehicle_type_id":"4","last_reported":1687889382,"current_range_meters":400,"station_id":"ce4bhqp2rcd13ifvqhng","pricing_plan_id":"free"},{"bike_id":"7813a6d8-fb21-467b-82f3-814ade40895a","system_id":"levelo_inurba_marseille","lat":43.29924,"lon":5.38342,"is_reserved":false,"is_disabled":false,"rental_uris":{"android":"levelo://app?vid=7813a6d8-fb21-467b-82f3-814ade40895a","ios":"levelo://app?vid=7813a6d8-fb21-467b-82f3-814ade40895a"},"vehicle_type_id":"4","last_reported":1687889382,"current_range_meters":18000,"station_id":"","pricing_plan_id":"free"},{"bike_id":"9292202b-ad30-4def-b120-e3831a509250","system_id":"levelo_inurba_marseille","lat":43.304278,"lon":5.388868,"is_reserved":false,"is_disabled":false,"rental_uris":{"android":"levelo://app?vid=9292202b-ad30-4def-b120-e3831a509250","ios":"levelo://app?vid=9292202b-ad30-4def-b120-e3831a509250"},"vehicle_type_id":"4","last_reported":1687889382,"current_range_meters":800,"station_id":"ce4bgk12rcd13ifvqbi0","pricing_plan_id":"free"},{"bike_id":"801a5e22-8679-4fc5-b67b-be9cd784eb86","system_id":"levelo_inurba_marseille","lat":43.30521,"lon":5.39133,"is_reserved":false,"is_disabled":false,"rental_uris":{"android":"levelo://app?vid=801a5e22-8679-4fc5-b67b-be9cd784eb86","ios":"levelo://app?vid=801a5e22-8679-4fc5-b67b-be9cd784eb86"},"vehicle_type_id":"4","last_reported":1687889382,"current_range_meters":14000,"station_id":"","pricing_plan_id":"free"},{"bike_id":"b2b46b32-5511-4a43-8e06-d9b305bf0b76","system_id":"levelo_inurba_marseille","lat":43.32365,"lon":5.38884,"is_reserved":false,"is_disabled":false,"rental_uris":{"android":"levelo://app?vid=b2b46b32-5511-4a43-8e06-d9b305bf0b76","ios":"levelo://app?vid=b2b46b32-5511-4a43-8e06-d9b305bf0b76"},"vehicle_type_id":"4","last_reported":1687889382,"current_range_meters":22000,"station_id":"ce4bhqp2rcd13ifvqhog","pricing_plan_id":"free"},{"bike_id":"744c1e21-7606-48fb-ba7c-76fd79d4ff7d","system_id":"levelo_inurba_marseille","lat":43.29307,"lon":5.37163,"is_reserved":false,"is_disabled":false,"rental_uris":{"android":"levelo://app?vid=744c1e21-7606-48fb-ba7c-76fd79d4ff7d","ios":"levelo://app?vid=744c1e21-7606-48fb-ba7c-76fd79d4ff7d"},"vehicle_type_id":"4","last_reported":1687889382,"current_range_meters":2800,"station_id":"ce4bgh92rcd13ifvqb40","pricing_plan_id":"free"},{"bike_id":"1684dc06-8b20-4e28-bfbe-080817c97579","system_id":"levelo_inurba_marseille","lat":43.29306,"lon":5.37166,"is_reserved":false,"is_disabled":false,"rental_uris":{"android":"levelo://app?vid=1684dc06-8b20-4e28-bfbe-080817c97579","ios":"levelo://app?vid=1684dc06-8b20-4e28-bfbe-080817c97579"},"vehicle_type_id":"4","last_reported":1687889382,"current_range_meters":31200,"station_id":"ce4bgh92rcd13ifvqb40","pricing_plan_id":"free"},{"bike_id":"96b78b7a-867c-4444-ab41-c844ded00e18","system_id":"levelo_inurba_marseille","lat":43.29307,"lon":5.37175,"is_reserved":false,"is_disabled":false,"rental_uris":{"android":"levelo://app?vid=96b78b7a-867c-4444-ab41-c844ded00e18","ios":"levelo://app?vid=96b78b7a-867c-4444-ab41-c844ded00e18"},"vehicle_type_id":"4","last_reported":1687889382,"current_range_meters":21200,"station_id":"ce4bgh92rcd13ifvqb40","pricing_plan_id":"free"},{"bike_id":"a54d2e7a-e805-47d2-8463-aacb2be4e4b8","system_id":"levelo_inurba_marseille","lat":43.313571,"lon":5.384829,"is_reserved":false,"is_disabled":false,"rental_uris":{"android":"levelo://app?vid=a54d2e7a-e805-47d2-8463-aacb2be4e4b8","ios":"levelo://app?vid=a54d2e7a-e805-47d2-8463-aacb2be4e4b8"},"vehicle_type_id":"4","last_reported":1687889382,"current_range_meters":19200,"station_id":"ce4bgt92rcd13ifvqcf0","pricing_plan_id":"free"},{"bike_id":"fa790039-87e8-4ef8-8be3-1fdaaf20002b","system_id":"levelo_inurba_marseille","lat":43.305994,"lon":5.393687,"is_reserved":false,"is_disabled":false,"rental_uris":{"android":"levelo://app?vid=fa790039-87e8-4ef8-8be3-1fdaaf20002b","ios":"levelo://app?vid=fa790039-87e8-4ef8-8be3-1fdaaf20002b"},"vehicle_type_id":"4","last_reported":1687889382,"current_range_meters":6000,"station_id":"ce4bh0p2rcd13ifvqd80","pricing_plan_id":"free"},{"bike_id":"15fc2cec-1e36-46af-a31d-ebb2337b4cbd","system_id":"levelo_inurba_marseille","lat":43.305994,"lon":5.393687,"is_reserved":false,"is_disabled":false,"rental_uris":{"android":"levelo://app?vid=15fc2cec-1e36-46af-a31d-ebb2337b4cbd","ios":"levelo://app?vid=15fc2cec-1e36-46af-a31d-ebb2337b4cbd"},"vehicle_type_id":"4","last_reported":1687889382,"current_range_meters":9600,"station_id":"ce4bh0p2rcd13ifvqd80","pricing_plan_id":"free"},{"bike_id":"ff16a2ca-80ad-4f48-9a89-764b2a844384","system_id":"levelo_inurba_marseille","lat":43.300852,"lon":5.390859,"is_reserved":false,"is_disabled":false,"rental_uris":{"android":"levelo://app?vid=ff16a2ca-80ad-4f48-9a89-764b2a844384","ios":"levelo://app?vid=ff16a2ca-80ad-4f48-9a89-764b2a844384"},"vehicle_type_id":"4","last_reported":1687889382,"current_range_meters":11200,"station_id":"ce4bh192rcd13ifvqdb0","pricing_plan_id":"free"},{"bike_id":"e66e334b-38f7-4a13-80fb-a0bf69b995a3","system_id":"levelo_inurba_marseille","lat":43.29882,"lon":5.38902,"is_reserved":false,"is_disabled":false,"rental_uris":{"android":"levelo://app?vid=e66e334b-38f7-4a13-80fb-a0bf69b995a3","ios":"levelo://app?vid=e66e334b-38f7-4a13-80fb-a0bf69b995a3"},"vehicle_type_id":"4","last_reported":1687889382,"current_range_meters":9200,"station_id":"ce4bh392rcd13ifvqdl0","pricing_plan_id":"free"},{"bike_id":"a7a239e8-a932-430c-8fde-504780e58b04","system_id":"levelo_inurba_marseille","lat":43.29209,"lon":5.35979,"is_reserved":false,"is_disabled":false,"rental_uris":{"android":"levelo://app?vid=a7a239e8-a932-430c-8fde-504780e58b04","ios":"levelo://app?vid=a7a239e8-a932-430c-8fde-504780e58b04"},"vehicle_type_id":"4","last_reported":1687889382,"current_range_meters":31200,"station_id":"","pricing_plan_id":"free"},{"bike_id":"899e79d9-b893-496a-9f5f-b5b7d85faac3","system_id":"levelo_inurba_marseille","lat":43.313291,"lon":5.396838,"is_reserved":false,"is_disabled":false,"rental_uris":{"android":"levelo://app?vid=899e79d9-b893-496a-9f5f-b5b7d85faac3","ios":"levelo://app?vid=899e79d9-b893-496a-9f5f-b5b7d85faac3"},"vehicle_type_id":"4","last_reported":1687889382,"current_range_meters":0,"station_id":"ce4bgvp2rcd13ifvqcu0","pricing_plan_id":"free"},{"bike_id":"0727caaf-a9f4-4152-bacf-cffea6e82176","system_id":"levelo_inurba_marseille","lat":43.29195,"lon":5.35793,"is_reserved":false,"is_disabled":false,"rental_uris":{"android":"levelo://app?vid=0727caaf-a9f4-4152-bacf-cffea6e82176","ios":"levelo://app?vid=0727caaf-a9f4-4152-bacf-cffea6e82176"},"vehicle_type_id":"4","last_reported":1687889382,"current_range_meters":31200,"station_id":"ce4bhb12rcd13ifvqel0","pricing_plan_id":"free"},{"bike_id":"990297e0-dd3c-4e4c-be14-5f431331f010","system_id":"levelo_inurba_marseille","lat":43.29196,"lon":5.35788,"is_reserved":false,"is_disabled":false,"rental_uris":{"android":"levelo://app?vid=990297e0-dd3c-4e4c-be14-5f431331f010","ios":"levelo://app?vid=990297e0-dd3c-4e4c-be14-5f431331f010"},"vehicle_type_id":"4","last_reported":1687889382,"current_range_meters":31200,"station_id":"ce4bhb12rcd13ifvqel0","pricing_plan_id":"free"},{"bike_id":"3c2af0dc-8c7d-4428-b290-ea33a51c7b6c","system_id":"levelo_inurba_marseille","lat":43.291947,"lon":5.357865,"is_reserved":false,"is_disabled":false,"rental_uris":{"android":"levelo://app?vid=3c2af0dc-8c7d-4428-b290-ea33a51c7b6c","ios":"levelo://app?vid=3c2af0dc-8c7d-4428-b290-ea33a51c7b6c"},"vehicle_type_id":"4","last_reported":1687889382,"current_range_meters":31200,"station_id":"ce4bhb12rcd13ifvqel0","pricing_plan_id":"free"},{"bike_id":"1b889afe-80ce-4106-994c-4a1ae0adb593","system_id":"levelo_inurba_marseille","lat":43.31331,"lon":5.39694,"is_reserved":false,"is_disabled":false,"rental_uris":{"android":"levelo://app?vid=1b889afe-80ce-4106-994c-4a1ae0adb593","ios":"levelo://app?vid=1b889afe-80ce-4106-994c-4a1ae0adb593"},"vehicle_type_id":"4","last_reported":1687889382,"current_range_meters":10400,"station_id":"ce4bgvp2rcd13ifvqcu0","pricing_plan_id":"free"},{"bike_id":"9e8c32f9-ea98-4fc7-ac92-19a0c6be518d","system_id":"levelo_inurba_marseille","lat":43.291994,"lon":5.357886,"is_reserved":false,"is_disabled":false,"rental_uris":{"android":"levelo://app?vid=9e8c32f9-ea98-4fc7-ac92-19a0c6be518d","ios":"levelo://app?vid=9e8c32f9-ea98-4fc7-ac92-19a0c6be518d"},"vehicle_type_id":"4","last_reported":1687889382,"current_range_meters":31200,"station_id":"ce4bhb12rcd13ifvqel0","pricing_plan_id":"free"},{"bike_id":"b1c75b9b-74d6-4302-a2f7-5141d4f4fcf2","system_id":"levelo_inurba_marseille","lat":43.30881,"lon":5.39661,"is_reserved":false,"is_disabled":false,"rental_uris":{"android":"levelo://app?vid=b1c75b9b-74d6-4302-a2f7-5141d4f4fcf2","ios":"levelo://app?vid=b1c75b9b-74d6-4302-a2f7-5141d4f4fcf2"},"vehicle_type_id":"4","last_reported":1687889382,"current_range_meters":6000,"station_id":"","pricing_plan_id":"free"},{"bike_id":"2bdafcba-6fa5-49a1-95d5-659ad96bab60","system_id":"levelo_inurba_marseille","lat":43.29529,"lon":5.385581,"is_reserved":false,"is_disabled":false,"rental_uris":{"android":"levelo://app?vid=2bdafcba-6fa5-49a1-95d5-659ad96bab60","ios":"levelo://app?vid=2bdafcba-6fa5-49a1-95d5-659ad96bab60"},"vehicle_type_id":"4","last_reported":1687889382,"current_range_meters":7600,"station_id":"ce4bgih2rcd13ifvqba0","pricing_plan_id":"free"},{"bike_id":"f38c9855-cde9-41db-9769-fd44eb17f6e8","system_id":"levelo_inurba_marseille","lat":43.29529,"lon":5.385581,"is_reserved":false,"is_disabled":false,"rental_uris":{"android":"levelo://app?vid=f38c9855-cde9-41db-9769-fd44eb17f6e8","ios":"levelo://app?vid=f38c9855-cde9-41db-9769-fd44eb17f6e8"},"vehicle_type_id":"4","last_reported":1687889382,"current_range_meters":0,"station_id":"ce4bgih2rcd13ifvqba0","pricing_plan_id":"free"},{"bike_id":"30924542-5da5-4afd-a777-efaa88cc0284","system_id":"levelo_inurba_marseille","lat":43.302008,"lon":5.394694,"is_reserved":false,"is_disabled":false,"rental_uris":{"android":"levelo://app?vid=30924542-5da5-4afd-a777-efaa88cc0284","ios":"levelo://app?vid=30924542-5da5-4afd-a777-efaa88cc0284"},"vehicle_type_id":"4","last_reported":1687889382,"current_range_meters":6000,"station_id":"ce4bh0p2rcd13ifvqd70","pricing_plan_id":"free"},{"bike_id":"6a34a6f6-02c4-480b-901a-174397efe306","system_id":"levelo_inurba_marseille","lat":43.302008,"lon":5.394694,"is_reserved":false,"is_disabled":false,"rental_uris":{"android":"levelo://app?vid=6a34a6f6-02c4-480b-901a-174397efe306","ios":"levelo://app?vid=6a34a6f6-02c4-480b-901a-174397efe306"},"vehicle_type_id":"4","last_reported":1687889382,"current_range_meters":14400,"station_id":"ce4bh0p2rcd13ifvqd70","pricing_plan_id":"free"},{"bike_id":"fc2c204a-bdc0-472a-a90e-0811b0b6037a","system_id":"levelo_inurba_marseille","lat":43.290327,"lon":5.375711,"is_reserved":false,"is_disabled":false,"rental_uris":{"android":"levelo://app?vid=fc2c204a-bdc0-472a-a90e-0811b0b6037a","ios":"levelo://app?vid=fc2c204a-bdc0-472a-a90e-0811b0b6037a"},"vehicle_type_id":"4","last_reported":1687889382,"current_range_meters":12000,"station_id":"ce4bh692rcd13ifvqe90","pricing_plan_id":"free"},{"bike_id":"6867df42-30dd-4825-b7fe-404564247748","system_id":"levelo_inurba_marseille","lat":43.294174,"lon":5.386231,"is_reserved":false,"is_disabled":false,"rental_uris":{"android":"levelo://app?vid=6867df42-30dd-4825-b7fe-404564247748","ios":"levelo://app?vid=6867df42-30dd-4825-b7fe-404564247748"},"vehicle_type_id":"4","last_reported":1687889382,"current_range_meters":14000,"station_id":"","pricing_plan_id":"free"},{"bike_id":"32ad46c2-783b-4185-bb0d-b502be5d3baf","system_id":"levelo_inurba_marseille","lat":43.294153,"lon":5.386305,"is_reserved":false,"is_disabled":false,"rental_uris":{"android":"levelo://app?vid=32ad46c2-783b-4185-bb0d-b502be5d3baf","ios":"levelo://app?vid=32ad46c2-783b-4185-bb0d-b502be5d3baf"},"vehicle_type_id":"4","last_reported":1687889382,"current_range_meters":4800,"station_id":"ce4bh2h2rcd13ifvqdh0","pricing_plan_id":"free"},{"bike_id":"399ef6b6-bd49-40a3-a085-0dfa050cfb9f","system_id":"levelo_inurba_marseille","lat":43.29411,"lon":5.38614,"is_reserved":false,"is_disabled":false,"rental_uris":{"android":"levelo://app?vid=399ef6b6-bd49-40a3-a085-0dfa050cfb9f","ios":"levelo://app?vid=399ef6b6-bd49-40a3-a085-0dfa050cfb9f"},"vehicle_type_id":"4","last_reported":1687889382,"current_range_meters":6800,"station_id":"","pricing_plan_id":"free"},{"bike_id":"e0ff7446-8b7c-4483-b5d5-aba2b5648f09","system_id":"levelo_inurba_marseille","lat":43.289437,"lon":5.36644,"is_reserved":false,"is_disabled":false,"rental_uris":{"android":"levelo://app?vid=e0ff7446-8b7c-4483-b5d5-aba2b5648f09","ios":"levelo://app?vid=e0ff7446-8b7c-4483-b5d5-aba2b5648f09"},"vehicle_type_id":"4","last_reported":1687889382,"current_range_meters":31200,"station_id":"","pricing_plan_id":"free"},{"bike_id":"05db5958-a205-4396-9cd9-e1074be30298","system_id":"levelo_inurba_marseille","lat":43.289468,"lon":5.363719,"is_reserved":false,"is_disabled":false,"rental_uris":{"android":"levelo://app?vid=05db5958-a205-4396-9cd9-e1074be30298","ios":"levelo://app?vid=05db5958-a205-4396-9cd9-e1074be30298"},"vehicle_type_id":"4","last_reported":1687889382,"current_range_meters":16000,"station_id":"ce4bhc92rcd13ifvqetg","pricing_plan_id":"free"},{"bike_id":"732f3c8a-70ab-4456-acfb-44b4f6a8e035","system_id":"levelo_inurba_marseille","lat":43.289184,"lon":5.366408,"is_reserved":false,"is_disabled":false,"rental_uris":{"android":"levelo://app?vid=732f3c8a-70ab-4456-acfb-44b4f6a8e035","ios":"levelo://app?vid=732f3c8a-70ab-4456-acfb-44b4f6a8e035"},"vehicle_type_id":"4","last_reported":1687889382,"current_range_meters":5600,"station_id":"ce4bhap2rcd13ifvqek0","pricing_plan_id":"free"},{"bike_id":"7bc879a5-5ee0-4b96-a9fe-90443bc90b68","system_id":"levelo_inurba_marseille","lat":43.289468,"lon":5.363719,"is_reserved":false,"is_disabled":false,"rental_uris":{"android":"levelo://app?vid=7bc879a5-5ee0-4b96-a9fe-90443bc90b68","ios":"levelo://app?vid=7bc879a5-5ee0-4b96-a9fe-90443bc90b68"},"vehicle_type_id":"4","last_reported":1687889382,"current_range_meters":18800,"station_id":"ce4bhc92rcd13ifvqetg","pricing_plan_id":"free"},{"bike_id":"1af889f9-ae36-4633-aaf7-39455fd11f39","system_id":"levelo_inurba_marseille","lat":43.289184,"lon":5.366408,"is_reserved":false,"is_disabled":false,"rental_uris":{"android":"levelo://app?vid=1af889f9-ae36-4633-aaf7-39455fd11f39","ios":"levelo://app?vid=1af889f9-ae36-4633-aaf7-39455fd11f39"},"vehicle_type_id":"4","last_reported":1687889382,"current_range_meters":1200,"station_id":"ce4bhap2rcd13ifvqek0","pricing_plan_id":"free"},{"bike_id":"7b1ced94-a04d-449f-ac3f-66436f6be2c0","system_id":"levelo_inurba_marseille","lat":43.289184,"lon":5.366408,"is_reserved":false,"is_disabled":false,"rental_uris":{"android":"levelo://app?vid=7b1ced94-a04d-449f-ac3f-66436f6be2c0","ios":"levelo://app?vid=7b1ced94-a04d-449f-ac3f-66436f6be2c0"},"vehicle_type_id":"4","last_reported":1687889382,"current_range_meters":1200,"station_id":"ce4bhap2rcd13ifvqek0","pricing_plan_id":"free"},{"bike_id":"c71e7bdd-1b32-4f7d-a21e-e3ca28a191fe","system_id":"levelo_inurba_marseille","lat":43.28921,"lon":5.36672,"is_reserved":false,"is_disabled":false,"rental_uris":{"android":"levelo://app?vid=c71e7bdd-1b32-4f7d-a21e-e3ca28a191fe","ios":"levelo://app?vid=c71e7bdd-1b32-4f7d-a21e-e3ca28a191fe"},"vehicle_type_id":"4","last_reported":1687889382,"current_range_meters":9600,"station_id":"ce4bhap2rcd13ifvqek0","pricing_plan_id":"free"},{"bike_id":"7267124f-7a52-4dd9-a368-ca5a5d72f6e5","system_id":"levelo_inurba_marseille","lat":43.292642,"lon":5.384254,"is_reserved":false,"is_disabled":false,"rental_uris":{"android":"levelo://app?vid=7267124f-7a52-4dd9-a368-ca5a5d72f6e5","ios":"levelo://app?vid=7267124f-7a52-4dd9-a368-ca5a5d72f6e5"},"vehicle_type_id":"4","last_reported":1687889382,"current_range_meters":0,"station_id":"ce4bh692rcd13ifvqea0","pricing_plan_id":"free"},{"bike_id":"b76765db-9d40-45a8-b111-6d25a7832510","system_id":"levelo_inurba_marseille","lat":43.292642,"lon":5.384254,"is_reserved":false,"is_disabled":false,"rental_uris":{"android":"levelo://app?vid=b76765db-9d40-45a8-b111-6d25a7832510","ios":"levelo://app?vid=b76765db-9d40-45a8-b111-6d25a7832510"},"vehicle_type_id":"4","last_reported":1687889382,"current_range_meters":400,"station_id":"ce4bh692rcd13ifvqea0","pricing_plan_id":"free"},{"bike_id":"aa9bc04b-4deb-4422-9510-58a72e909f6d","system_id":"levelo_inurba_marseille","lat":43.304274,"lon":5.397513,"is_reserved":false,"is_disabled":false,"rental_uris":{"android":"levelo://app?vid=aa9bc04b-4deb-4422-9510-58a72e909f6d","ios":"levelo://app?vid=aa9bc04b-4deb-4422-9510-58a72e909f6d"},"vehicle_type_id":"4","last_reported":1687889382,"current_range_meters":17200,"station_id":"ce4bh092rcd13ifvqd20","pricing_plan_id":"free"},{"bike_id":"ca665771-d112-4d9a-b33f-bc62db9542d2","system_id":"levelo_inurba_marseille","lat":43.30276,"lon":5.3968,"is_reserved":false,"is_disabled":false,"rental_uris":{"android":"levelo://app?vid=ca665771-d112-4d9a-b33f-bc62db9542d2","ios":"levelo://app?vid=ca665771-d112-4d9a-b33f-bc62db9542d2"},"vehicle_type_id":"4","last_reported":1687889382,"current_range_meters":14000,"station_id":"ce4bhnp2rcd13ifvqgvg","pricing_plan_id":"free"},{"bike_id":"4214d56d-9d6c-4b0b-aced-bf51aaa23489","system_id":"levelo_inurba_marseille","lat":43.33047,"lon":5.38908,"is_reserved":false,"is_disabled":false,"rental_uris":{"android":"levelo://app?vid=4214d56d-9d6c-4b0b-aced-bf51aaa23489","ios":"levelo://app?vid=4214d56d-9d6c-4b0b-aced-bf51aaa23489"},"vehicle_type_id":"4","last_reported":1687889382,"current_range_meters":25200,"station_id":"ce4bhr92rcd13ifvqhrg","pricing_plan_id":"free"},{"bike_id":"72cc0aa6-c732-43c9-97dd-67c04d164383","system_id":"levelo_inurba_marseille","lat":43.290103,"lon":5.356114,"is_reserved":false,"is_disabled":false,"rental_uris":{"android":"levelo://app?vid=72cc0aa6-c732-43c9-97dd-67c04d164383","ios":"levelo://app?vid=72cc0aa6-c732-43c9-97dd-67c04d164383"},"vehicle_type_id":"4","last_reported":1687889382,"current_range_meters":31200,"station_id":"ce4bhb92rcd13ifvqen0","pricing_plan_id":"free"},{"bike_id":"95855af1-f183-430c-b54e-45acce7b6de7","system_id":"levelo_inurba_marseille","lat":43.290104,"lon":5.356111,"is_reserved":false,"is_disabled":false,"rental_uris":{"android":"levelo://app?vid=95855af1-f183-430c-b54e-45acce7b6de7","ios":"levelo://app?vid=95855af1-f183-430c-b54e-45acce7b6de7"},"vehicle_type_id":"4","last_reported":1687889382,"current_range_meters":10000,"station_id":"ce4bhb92rcd13ifvqen0","pricing_plan_id":"free"},{"bike_id":"ad1c74ee-d8fc-44dd-ab0b-8af71c8d2baf","system_id":"levelo_inurba_marseille","lat":43.33048,"lon":5.38912,"is_reserved":false,"is_disabled":false,"rental_uris":{"android":"levelo://app?vid=ad1c74ee-d8fc-44dd-ab0b-8af71c8d2baf","ios":"levelo://app?vid=ad1c74ee-d8fc-44dd-ab0b-8af71c8d2baf"},"vehicle_type_id":"4","last_reported":1687889382,"current_range_meters":9600,"station_id":"ce4bhr92rcd13ifvqhrg","pricing_plan_id":"free"},{"bike_id":"1a2931cc-2400-4c11-bca8-c22187ec9431","system_id":"levelo_inurba_marseille","lat":43.33048,"lon":5.38914,"is_reserved":false,"is_disabled":false,"rental_uris":{"android":"levelo://app?vid=1a2931cc-2400-4c11-bca8-c22187ec9431","ios":"levelo://app?vid=1a2931cc-2400-4c11-bca8-c22187ec9431"},"vehicle_type_id":"4","last_reported":1687889382,"current_range_meters":0,"station_id":"ce4bhr92rcd13ifvqhrg","pricing_plan_id":"free"},{"bike_id":"c86360f8-2f0a-4e99-bd71-8e495f26018d","system_id":"levelo_inurba_marseille","lat":43.290104,"lon":5.356111,"is_reserved":false,"is_disabled":false,"rental_uris":{"android":"levelo://app?vid=c86360f8-2f0a-4e99-bd71-8e495f26018d","ios":"levelo://app?vid=c86360f8-2f0a-4e99-bd71-8e495f26018d"},"vehicle_type_id":"4","last_reported":1687889382,"current_range_meters":22000,"station_id":"ce4bhb92rcd13ifvqen0","pricing_plan_id":"free"},{"bike_id":"ef107ddc-307e-4d49-8125-5db3c090be51","system_id":"levelo_inurba_marseille","lat":43.290103,"lon":5.356114,"is_reserved":false,"is_disabled":false,"rental_uris":{"android":"levelo://app?vid=ef107ddc-307e-4d49-8125-5db3c090be51","ios":"levelo://app?vid=ef107ddc-307e-4d49-8125-5db3c090be51"},"vehicle_type_id":"4","last_reported":1687889382,"current_range_meters":19200,"station_id":"ce4bhb92rcd13ifvqen0","pricing_plan_id":"free"},{"bike_id":"cb9056e9-43af-40b1-a90b-50622820d56c","system_id":"levelo_inurba_marseille","lat":43.290103,"lon":5.356114,"is_reserved":false,"is_disabled":false,"rental_uris":{"android":"levelo://app?vid=cb9056e9-43af-40b1-a90b-50622820d56c","ios":"levelo://app?vid=cb9056e9-43af-40b1-a90b-50622820d56c"},"vehicle_type_id":"4","last_reported":1687889382,"current_range_meters":4800,"station_id":"ce4bhb92rcd13ifvqen0","pricing_plan_id":"free"},{"bike_id":"450d4455-19a5-4b81-b294-d038454b8eb0","system_id":"levelo_inurba_marseille","lat":43.29098,"lon":5.38126,"is_reserved":false,"is_disabled":false,"rental_uris":{"android":"levelo://app?vid=450d4455-19a5-4b81-b294-d038454b8eb0","ios":"levelo://app?vid=450d4455-19a5-4b81-b294-d038454b8eb0"},"vehicle_type_id":"4","last_reported":1687889382,"current_range_meters":22400,"station_id":"ce4bh512rcd13ifvqe2g","pricing_plan_id":"free"},{"bike_id":"97cd58bc-bae2-464a-b740-3d7813211586","system_id":"levelo_inurba_marseille","lat":43.29097,"lon":5.38127,"is_reserved":false,"is_disabled":false,"rental_uris":{"android":"levelo://app?vid=97cd58bc-bae2-464a-b740-3d7813211586","ios":"levelo://app?vid=97cd58bc-bae2-464a-b740-3d7813211586"},"vehicle_type_id":"4","last_reported":1687889382,"current_range_meters":1200,"station_id":"ce4bh512rcd13ifvqe2g","pricing_plan_id":"free"},{"bike_id":"96fc4829-bf11-4417-91be-6dff80e37952","system_id":"levelo_inurba_marseille","lat":43.309371,"lon":5.401449,"is_reserved":false,"is_disabled":false,"rental_uris":{"android":"levelo://app?vid=96fc4829-bf11-4417-91be-6dff80e37952","ios":"levelo://app?vid=96fc4829-bf11-4417-91be-6dff80e37952"},"vehicle_type_id":"4","last_reported":1687889382,"current_range_meters":13200,"station_id":"ce4bgvp2rcd13ifvqct0","pricing_plan_id":"free"},{"bike_id":"35806f6b-32e0-43c1-91d5-8318e271ac35","system_id":"levelo_inurba_marseille","lat":43.309371,"lon":5.401449,"is_reserved":false,"is_disabled":false,"rental_uris":{"android":"levelo://app?vid=35806f6b-32e0-43c1-91d5-8318e271ac35","ios":"levelo://app?vid=35806f6b-32e0-43c1-91d5-8318e271ac35"},"vehicle_type_id":"4","last_reported":1687889382,"current_range_meters":4800,"station_id":"ce4bgvp2rcd13ifvqct0","pricing_plan_id":"free"},{"bike_id":"b152602a-aaa7-4eed-93ba-89050d9c58ba","system_id":"levelo_inurba_marseille","lat":43.3067,"lon":5.40078,"is_reserved":false,"is_disabled":false,"rental_uris":{"android":"levelo://app?vid=b152602a-aaa7-4eed-93ba-89050d9c58ba","ios":"levelo://app?vid=b152602a-aaa7-4eed-93ba-89050d9c58ba"},"vehicle_type_id":"4","last_reported":1687889382,"current_range_meters":26400,"station_id":"","pricing_plan_id":"free"},{"bike_id":"3b0c4edb-5fa3-484f-a7e2-517cb45a9688","system_id":"levelo_inurba_marseille","lat":43.30642,"lon":5.401031,"is_reserved":false,"is_disabled":false,"rental_uris":{"android":"levelo://app?vid=3b0c4edb-5fa3-484f-a7e2-517cb45a9688","ios":"levelo://app?vid=3b0c4edb-5fa3-484f-a7e2-517cb45a9688"},"vehicle_type_id":"4","last_reported":1687889382,"current_range_meters":20400,"station_id":"ce4bh112rcd13ifvqda0","pricing_plan_id":"free"},{"bike_id":"54e3731c-4100-4976-919d-7dc215467dfe","system_id":"levelo_inurba_marseille","lat":43.286591,"lon":5.363346,"is_reserved":false,"is_disabled":false,"rental_uris":{"android":"levelo://app?vid=54e3731c-4100-4976-919d-7dc215467dfe","ios":"levelo://app?vid=54e3731c-4100-4976-919d-7dc215467dfe"},"vehicle_type_id":"4","last_reported":1687889382,"current_range_meters":22400,"station_id":"ce4bhah2rcd13ifvqej0","pricing_plan_id":"free"},{"bike_id":"8f65cd56-ca53-4896-ac7c-fc75b9a11302","system_id":"levelo_inurba_marseille","lat":43.286593,"lon":5.363346,"is_reserved":false,"is_disabled":false,"rental_uris":{"android":"levelo://app?vid=8f65cd56-ca53-4896-ac7c-fc75b9a11302","ios":"levelo://app?vid=8f65cd56-ca53-4896-ac7c-fc75b9a11302"},"vehicle_type_id":"4","last_reported":1687889382,"current_range_meters":8400,"station_id":"ce4bhah2rcd13ifvqej0","pricing_plan_id":"free"},{"bike_id":"7c0a59a6-bda9-454d-9c55-a0fbcd43386c","system_id":"levelo_inurba_marseille","lat":43.286593,"lon":5.363346,"is_reserved":false,"is_disabled":false,"rental_uris":{"android":"levelo://app?vid=7c0a59a6-bda9-454d-9c55-a0fbcd43386c","ios":"levelo://app?vid=7c0a59a6-bda9-454d-9c55-a0fbcd43386c"},"vehicle_type_id":"4","last_reported":1687889382,"current_range_meters":10400,"station_id":"ce4bhah2rcd13ifvqej0","pricing_plan_id":"free"},{"bike_id":"b12d3ba2-4b18-4570-9d3b-4f36d64301d4","system_id":"levelo_inurba_marseille","lat":43.286593,"lon":5.363346,"is_reserved":false,"is_disabled":false,"rental_uris":{"android":"levelo://app?vid=b12d3ba2-4b18-4570-9d3b-4f36d64301d4","ios":"levelo://app?vid=b12d3ba2-4b18-4570-9d3b-4f36d64301d4"},"vehicle_type_id":"4","last_reported":1687889382,"current_range_meters":15600,"station_id":"ce4bhah2rcd13ifvqej0","pricing_plan_id":"free"},{"bike_id":"282dd4fb-3da4-427e-be1f-252bb29c238c","system_id":"levelo_inurba_marseille","lat":43.290336,"lon":5.386425,"is_reserved":false,"is_disabled":false,"rental_uris":{"android":"levelo://app?vid=282dd4fb-3da4-427e-be1f-252bb29c238c","ios":"levelo://app?vid=282dd4fb-3da4-427e-be1f-252bb29c238c"},"vehicle_type_id":"4","last_reported":1687889382,"current_range_meters":16000,"station_id":"ce4bh4p2rcd13ifvqe0g","pricing_plan_id":"free"},{"bike_id":"efa8d892-c15e-4fda-8426-489254cabd9e","system_id":"levelo_inurba_marseille","lat":43.28616,"lon":5.37045,"is_reserved":false,"is_disabled":false,"rental_uris":{"android":"levelo://app?vid=efa8d892-c15e-4fda-8426-489254cabd9e","ios":"levelo://app?vid=efa8d892-c15e-4fda-8426-489254cabd9e"},"vehicle_type_id":"4","last_reported":1687889382,"current_range_meters":27600,"station_id":"ce4bht12rcd13ifvqi60","pricing_plan_id":"free"},{"bike_id":"a923f3c7-29d2-46e7-b33a-af42f3910463","system_id":"levelo_inurba_marseille","lat":43.28612,"lon":5.3707,"is_reserved":false,"is_disabled":false,"rental_uris":{"android":"levelo://app?vid=a923f3c7-29d2-46e7-b33a-af42f3910463","ios":"levelo://app?vid=a923f3c7-29d2-46e7-b33a-af42f3910463"},"vehicle_type_id":"4","last_reported":1687889382,"current_range_meters":31200,"station_id":"ce4bht12rcd13ifvqi60","pricing_plan_id":"free"},{"bike_id":"f40a6c82-a37d-4a74-8009-8a15c47a52f0","system_id":"levelo_inurba_marseille","lat":43.28611,"lon":5.3706,"is_reserved":false,"is_disabled":false,"rental_uris":{"android":"levelo://app?vid=f40a6c82-a37d-4a74-8009-8a15c47a52f0","ios":"levelo://app?vid=f40a6c82-a37d-4a74-8009-8a15c47a52f0"},"vehicle_type_id":"4","last_reported":1687889382,"current_range_meters":31200,"station_id":"ce4bht12rcd13ifvqi60","pricing_plan_id":"free"},{"bike_id":"f9367b96-5d9e-4f26-9f47-abf0eab012dd","system_id":"levelo_inurba_marseille","lat":43.286039,"lon":5.370681,"is_reserved":false,"is_disabled":false,"rental_uris":{"android":"levelo://app?vid=f9367b96-5d9e-4f26-9f47-abf0eab012dd","ios":"levelo://app?vid=f9367b96-5d9e-4f26-9f47-abf0eab012dd"},"vehicle_type_id":"4","last_reported":1687889382,"current_range_meters":24000,"station_id":"ce4bht12rcd13ifvqi60","pricing_plan_id":"free"},{"bike_id":"58bf6b23-2505-4b35-bd86-8324a86a09fe","system_id":"levelo_inurba_marseille","lat":43.286039,"lon":5.370681,"is_reserved":false,"is_disabled":false,"rental_uris":{"android":"levelo://app?vid=58bf6b23-2505-4b35-bd86-8324a86a09fe","ios":"levelo://app?vid=58bf6b23-2505-4b35-bd86-8324a86a09fe"},"vehicle_type_id":"4","last_reported":1687889382,"current_range_meters":30000,"station_id":"ce4bht12rcd13ifvqi60","pricing_plan_id":"free"},{"bike_id":"549274c0-5204-4c8a-be38-86cfbd64c699","system_id":"levelo_inurba_marseille","lat":43.283498,"lon":5.380948,"is_reserved":false,"is_disabled":false,"rental_uris":{"android":"levelo://app?vid=549274c0-5204-4c8a-be38-86cfbd64c699","ios":"levelo://app?vid=549274c0-5204-4c8a-be38-86cfbd64c699"},"vehicle_type_id":"4","last_reported":1687889382,"current_range_meters":13600,"station_id":"ce4bh412rcd13ifvqdr0","pricing_plan_id":"free"},{"bike_id":"c43f25f8-8065-47e9-8f14-c1ff5746389b","system_id":"levelo_inurba_marseille","lat":43.316517,"lon":5.404375,"is_reserved":false,"is_disabled":false,"rental_uris":{"android":"levelo://app?vid=c43f25f8-8065-47e9-8f14-c1ff5746389b","ios":"levelo://app?vid=c43f25f8-8065-47e9-8f14-c1ff5746389b"},"vehicle_type_id":"4","last_reported":1687889382,"current_range_meters":30000,"station_id":"ce4bh012rcd13ifvqd00","pricing_plan_id":"free"},{"bike_id":"53eb7dac-732b-4b80-ac6f-b9911f06b0bf","system_id":"levelo_inurba_marseille","lat":43.316517,"lon":5.404375,"is_reserved":false,"is_disabled":false,"rental_uris":{"android":"levelo://app?vid=53eb7dac-732b-4b80-ac6f-b9911f06b0bf","ios":"levelo://app?vid=53eb7dac-732b-4b80-ac6f-b9911f06b0bf"},"vehicle_type_id":"4","last_reported":1687889382,"current_range_meters":1200,"station_id":"ce4bh012rcd13ifvqd00","pricing_plan_id":"free"},{"bike_id":"dfb54c08-ea06-4fa6-b72a-98f8e5ec4489","system_id":"levelo_inurba_marseille","lat":43.316517,"lon":5.404375,"is_reserved":false,"is_disabled":false,"rental_uris":{"android":"levelo://app?vid=dfb54c08-ea06-4fa6-b72a-98f8e5ec4489","ios":"levelo://app?vid=dfb54c08-ea06-4fa6-b72a-98f8e5ec4489"},"vehicle_type_id":"4","last_reported":1687889382,"current_range_meters":6000,"station_id":"ce4bh012rcd13ifvqd00","pricing_plan_id":"free"},{"bike_id":"d69fed3a-efe9-46fb-b1dc-1240b8978d3e","system_id":"levelo_inurba_marseille","lat":43.316517,"lon":5.404375,"is_reserved":false,"is_disabled":false,"rental_uris":{"android":"levelo://app?vid=d69fed3a-efe9-46fb-b1dc-1240b8978d3e","ios":"levelo://app?vid=d69fed3a-efe9-46fb-b1dc-1240b8978d3e"},"vehicle_type_id":"4","last_reported":1687889382,"current_range_meters":29600,"station_id":"ce4bh012rcd13ifvqd00","pricing_plan_id":"free"},{"bike_id":"bc67b87c-37af-4530-8870-a4acdce5f80f","system_id":"levelo_inurba_marseille","lat":43.316517,"lon":5.404375,"is_reserved":false,"is_disabled":false,"rental_uris":{"android":"levelo://app?vid=bc67b87c-37af-4530-8870-a4acdce5f80f","ios":"levelo://app?vid=bc67b87c-37af-4530-8870-a4acdce5f80f"},"vehicle_type_id":"4","last_reported":1687889382,"current_range_meters":3600,"station_id":"ce4bh012rcd13ifvqd00","pricing_plan_id":"free"},{"bike_id":"6a6bc049-a2de-4c15-8dda-2396feccaa66","system_id":"levelo_inurba_marseille","lat":43.291994,"lon":5.392907,"is_reserved":false,"is_disabled":false,"rental_uris":{"android":"levelo://app?vid=6a6bc049-a2de-4c15-8dda-2396feccaa66","ios":"levelo://app?vid=6a6bc049-a2de-4c15-8dda-2396feccaa66"},"vehicle_type_id":"4","last_reported":1687889382,"current_range_meters":4000,"station_id":"ce4bh192rcd13ifvqdd0","pricing_plan_id":"free"},{"bike_id":"fb661348-afa9-4a7f-b7e2-a3e390f09d62","system_id":"levelo_inurba_marseille","lat":43.291994,"lon":5.392907,"is_reserved":false,"is_disabled":false,"rental_uris":{"android":"levelo://app?vid=fb661348-afa9-4a7f-b7e2-a3e390f09d62","ios":"levelo://app?vid=fb661348-afa9-4a7f-b7e2-a3e390f09d62"},"vehicle_type_id":"4","last_reported":1687889382,"current_range_meters":24800,"station_id":"ce4bh192rcd13ifvqdd0","pricing_plan_id":"free"},{"bike_id":"927b3834-4d38-4efa-b782-49e8a79312ae","system_id":"levelo_inurba_marseille","lat":43.291994,"lon":5.392907,"is_reserved":false,"is_disabled":false,"rental_uris":{"android":"levelo://app?vid=927b3834-4d38-4efa-b782-49e8a79312ae","ios":"levelo://app?vid=927b3834-4d38-4efa-b782-49e8a79312ae"},"vehicle_type_id":"4","last_reported":1687889382,"current_range_meters":3200,"station_id":"ce4bh192rcd13ifvqdd0","pricing_plan_id":"free"},{"bike_id":"60b735fc-13aa-45a8-b159-91b8fdc33100","system_id":"levelo_inurba_marseille","lat":43.291994,"lon":5.392907,"is_reserved":false,"is_disabled":false,"rental_uris":{"android":"levelo://app?vid=60b735fc-13aa-45a8-b159-91b8fdc33100","ios":"levelo://app?vid=60b735fc-13aa-45a8-b159-91b8fdc33100"},"vehicle_type_id":"4","last_reported":1687889382,"current_range_meters":18400,"station_id":"ce4bh192rcd13ifvqdd0","pricing_plan_id":"free"},{"bike_id":"eab4727c-8816-4130-9948-eac32852709b","system_id":"levelo_inurba_marseille","lat":43.291994,"lon":5.392907,"is_reserved":false,"is_disabled":false,"rental_uris":{"android":"levelo://app?vid=eab4727c-8816-4130-9948-eac32852709b","ios":"levelo://app?vid=eab4727c-8816-4130-9948-eac32852709b"},"vehicle_type_id":"4","last_reported":1687889382,"current_range_meters":30000,"station_id":"ce4bh192rcd13ifvqdd0","pricing_plan_id":"free"},{"bike_id":"cf24190e-9ad4-4a75-9392-39f101c1cd9b","system_id":"levelo_inurba_marseille","lat":43.291994,"lon":5.392907,"is_reserved":false,"is_disabled":false,"rental_uris":{"android":"levelo://app?vid=cf24190e-9ad4-4a75-9392-39f101c1cd9b","ios":"levelo://app?vid=cf24190e-9ad4-4a75-9392-39f101c1cd9b"},"vehicle_type_id":"4","last_reported":1687889382,"current_range_meters":31200,"station_id":"ce4bh192rcd13ifvqdd0","pricing_plan_id":"free"},{"bike_id":"d4686717-c8d5-4c98-a1e4-fb511b5d6a9e","system_id":"levelo_inurba_marseille","lat":43.284534,"lon":5.358662,"is_reserved":false,"is_disabled":false,"rental_uris":{"android":"levelo://app?vid=d4686717-c8d5-4c98-a1e4-fb511b5d6a9e","ios":"levelo://app?vid=d4686717-c8d5-4c98-a1e4-fb511b5d6a9e"},"vehicle_type_id":"4","last_reported":1687889382,"current_range_meters":22800,"station_id":"ce4bhah2rcd13ifvqei0","pricing_plan_id":"free"},{"bike_id":"0fe953e0-f387-4640-889c-68f777635367","system_id":"levelo_inurba_marseille","lat":43.285856,"lon":5.350771,"is_reserved":false,"is_disabled":false,"rental_uris":{"android":"levelo://app?vid=0fe953e0-f387-4640-889c-68f777635367","ios":"levelo://app?vid=0fe953e0-f387-4640-889c-68f777635367"},"vehicle_type_id":"4","last_reported":1687889382,"current_range_meters":19200,"station_id":"ce4bhch2rcd13ifvqeug","pricing_plan_id":"free"},{"bike_id":"8bf5f3d6-72b0-4177-86c5-0e2b9c408aae","system_id":"levelo_inurba_marseille","lat":43.285856,"lon":5.350771,"is_reserved":false,"is_disabled":false,"rental_uris":{"android":"levelo://app?vid=8bf5f3d6-72b0-4177-86c5-0e2b9c408aae","ios":"levelo://app?vid=8bf5f3d6-72b0-4177-86c5-0e2b9c408aae"},"vehicle_type_id":"4","last_reported":1687889382,"current_range_meters":31200,"station_id":"ce4bhch2rcd13ifvqeug","pricing_plan_id":"free"},{"bike_id":"fc234c35-6de0-4f87-9d14-2c6e40f9eab4","system_id":"levelo_inurba_marseille","lat":43.28616,"lon":5.35104,"is_reserved":false,"is_disabled":false,"rental_uris":{"android":"levelo://app?vid=fc234c35-6de0-4f87-9d14-2c6e40f9eab4","ios":"levelo://app?vid=fc234c35-6de0-4f87-9d14-2c6e40f9eab4"},"vehicle_type_id":"4","last_reported":1687889382,"current_range_meters":800,"station_id":"ce4bhch2rcd13ifvqeug","pricing_plan_id":"free"},{"bike_id":"fadc65c4-9def-437a-acf5-49b1330b2833","system_id":"levelo_inurba_marseille","lat":43.286111,"lon":5.351139,"is_reserved":false,"is_disabled":false,"rental_uris":{"android":"levelo://app?vid=fadc65c4-9def-437a-acf5-49b1330b2833","ios":"levelo://app?vid=fadc65c4-9def-437a-acf5-49b1330b2833"},"vehicle_type_id":"4","last_reported":1687889382,"current_range_meters":14800,"station_id":"ce4bhch2rcd13ifvqeug","pricing_plan_id":"free"},{"bike_id":"0b04e023-96a9-44f3-990e-8cab85b79e9d","system_id":"levelo_inurba_marseille","lat":43.28614,"lon":5.35098,"is_reserved":false,"is_disabled":false,"rental_uris":{"android":"levelo://app?vid=0b04e023-96a9-44f3-990e-8cab85b79e9d","ios":"levelo://app?vid=0b04e023-96a9-44f3-990e-8cab85b79e9d"},"vehicle_type_id":"4","last_reported":1687889382,"current_range_meters":6000,"station_id":"ce4bhch2rcd13ifvqeug","pricing_plan_id":"free"},{"bike_id":"bd82db9e-754e-422a-b897-bbd434a889e2","system_id":"levelo_inurba_marseille","lat":43.286099,"lon":5.351093,"is_reserved":false,"is_disabled":false,"rental_uris":{"android":"levelo://app?vid=bd82db9e-754e-422a-b897-bbd434a889e2","ios":"levelo://app?vid=bd82db9e-754e-422a-b897-bbd434a889e2"},"vehicle_type_id":"4","last_reported":1687889382,"current_range_meters":22800,"station_id":"ce4bhch2rcd13ifvqeug","pricing_plan_id":"free"},{"bike_id":"66ed03c5-4073-4414-8c61-d949672b0881","system_id":"levelo_inurba_marseille","lat":43.28611,"lon":5.351,"is_reserved":false,"is_disabled":false,"rental_uris":{"android":"levelo://app?vid=66ed03c5-4073-4414-8c61-d949672b0881","ios":"levelo://app?vid=66ed03c5-4073-4414-8c61-d949672b0881"},"vehicle_type_id":"4","last_reported":1687889382,"current_range_meters":29600,"station_id":"ce4bhch2rcd13ifvqeug","pricing_plan_id":"free"},{"bike_id":"c5f71e8b-3b6c-4901-bfcb-1fba3c7be3cc","system_id":"levelo_inurba_marseille","lat":43.286075,"lon":5.351077,"is_reserved":false,"is_disabled":false,"rental_uris":{"android":"levelo://app?vid=c5f71e8b-3b6c-4901-bfcb-1fba3c7be3cc","ios":"levelo://app?vid=c5f71e8b-3b6c-4901-bfcb-1fba3c7be3cc"},"vehicle_type_id":"4","last_reported":1687889382,"current_range_meters":19200,"station_id":"ce4bhch2rcd13ifvqeug","pricing_plan_id":"free"},{"bike_id":"405d6836-547f-46c6-a3ea-be3968b9a2f4","system_id":"levelo_inurba_marseille","lat":43.286078,"lon":5.35105,"is_reserved":false,"is_disabled":false,"rental_uris":{"android":"levelo://app?vid=405d6836-547f-46c6-a3ea-be3968b9a2f4","ios":"levelo://app?vid=405d6836-547f-46c6-a3ea-be3968b9a2f4"},"vehicle_type_id":"4","last_reported":1687889382,"current_range_meters":8400,"station_id":"ce4bhch2rcd13ifvqeug","pricing_plan_id":"free"},{"bike_id":"95f5b6c7-bcd6-4f0d-a6c2-f2c8f566b713","system_id":"levelo_inurba_marseille","lat":43.283998,"lon":5.375062,"is_reserved":false,"is_disabled":false,"rental_uris":{"android":"levelo://app?vid=95f5b6c7-bcd6-4f0d-a6c2-f2c8f566b713","ios":"levelo://app?vid=95f5b6c7-bcd6-4f0d-a6c2-f2c8f566b713"},"vehicle_type_id":"4","last_reported":1687889382,"current_range_meters":400,"station_id":"ce4bh412rcd13ifvqds0","pricing_plan_id":"free"},{"bike_id":"57e74378-879b-462d-9d2c-8c427230fc3f","system_id":"levelo_inurba_marseille","lat":43.295713,"lon":5.399639,"is_reserved":false,"is_disabled":false,"rental_uris":{"android":"levelo://app?vid=57e74378-879b-462d-9d2c-8c427230fc3f","ios":"levelo://app?vid=57e74378-879b-462d-9d2c-8c427230fc3f"},"vehicle_type_id":"4","last_reported":1687889382,"current_range_meters":0,"station_id":"ce4bh312rcd13ifvqdj0","pricing_plan_id":"free"},{"bike_id":"5dc9296d-2309-460e-a404-05591d4ce59a","system_id":"levelo_inurba_marseille","lat":43.283998,"lon":5.375062,"is_reserved":false,"is_disabled":false,"rental_uris":{"android":"levelo://app?vid=5dc9296d-2309-460e-a404-05591d4ce59a","ios":"levelo://app?vid=5dc9296d-2309-460e-a404-05591d4ce59a"},"vehicle_type_id":"4","last_reported":1687889382,"current_range_meters":17200,"station_id":"ce4bh412rcd13ifvqds0","pricing_plan_id":"free"},{"bike_id":"f4d37e8b-abdc-40d2-ae00-227215c2ddc6","system_id":"levelo_inurba_marseille","lat":43.295713,"lon":5.399639,"is_reserved":false,"is_disabled":false,"rental_uris":{"android":"levelo://app?vid=f4d37e8b-abdc-40d2-ae00-227215c2ddc6","ios":"levelo://app?vid=f4d37e8b-abdc-40d2-ae00-227215c2ddc6"},"vehicle_type_id":"4","last_reported":1687889382,"current_range_meters":12400,"station_id":"ce4bh312rcd13ifvqdj0","pricing_plan_id":"free"},{"bike_id":"c047396b-13d1-4d87-9059-04b38edad4d8","system_id":"levelo_inurba_marseille","lat":43.283998,"lon":5.375062,"is_reserved":false,"is_disabled":false,"rental_uris":{"android":"levelo://app?vid=c047396b-13d1-4d87-9059-04b38edad4d8","ios":"levelo://app?vid=c047396b-13d1-4d87-9059-04b38edad4d8"},"vehicle_type_id":"4","last_reported":1687889382,"current_range_meters":2400,"station_id":"ce4bh412rcd13ifvqds0","pricing_plan_id":"free"},{"bike_id":"ae613aa9-2a84-4bf4-8f22-89dd99b1041e","system_id":"levelo_inurba_marseille","lat":43.323464,"lon":5.406297,"is_reserved":false,"is_disabled":false,"rental_uris":{"android":"levelo://app?vid=ae613aa9-2a84-4bf4-8f22-89dd99b1041e","ios":"levelo://app?vid=ae613aa9-2a84-4bf4-8f22-89dd99b1041e"},"vehicle_type_id":"4","last_reported":1687889382,"current_range_meters":27200,"station_id":"ce4bhq92rcd13ifvqhjg","pricing_plan_id":"free"},{"bike_id":"a7e3f9a8-db1e-4faf-978c-a92d5e1744a6","system_id":"levelo_inurba_marseille","lat":43.3234,"lon":5.40623,"is_reserved":false,"is_disabled":false,"rental_uris":{"android":"levelo://app?vid=a7e3f9a8-db1e-4faf-978c-a92d5e1744a6","ios":"levelo://app?vid=a7e3f9a8-db1e-4faf-978c-a92d5e1744a6"},"vehicle_type_id":"4","last_reported":1687889382,"current_range_meters":17600,"station_id":"ce4bhq92rcd13ifvqhjg","pricing_plan_id":"free"},{"bike_id":"f2988b82-daec-4b0e-9d7c-376293e5d54f","system_id":"levelo_inurba_marseille","lat":43.33728,"lon":5.39193,"is_reserved":false,"is_disabled":false,"rental_uris":{"android":"levelo://app?vid=f2988b82-daec-4b0e-9d7c-376293e5d54f","ios":"levelo://app?vid=f2988b82-daec-4b0e-9d7c-376293e5d54f"},"vehicle_type_id":"4","last_reported":1687889382,"current_range_meters":21600,"station_id":"","pricing_plan_id":"free"},{"bike_id":"a478ce53-e457-401e-94b7-35a6500ccf67","system_id":"levelo_inurba_marseille","lat":43.32346,"lon":5.40628,"is_reserved":false,"is_disabled":false,"rental_uris":{"android":"levelo://app?vid=a478ce53-e457-401e-94b7-35a6500ccf67","ios":"levelo://app?vid=a478ce53-e457-401e-94b7-35a6500ccf67"},"vehicle_type_id":"4","last_reported":1687889382,"current_range_meters":14800,"station_id":"ce4bhq92rcd13ifvqhjg","pricing_plan_id":"free"},{"bike_id":"54d7ad01-3452-448e-9d15-5f89a8c6dc5d","system_id":"levelo_inurba_marseille","lat":43.282744,"lon":5.350533,"is_reserved":false,"is_disabled":false,"rental_uris":{"android":"levelo://app?vid=54d7ad01-3452-448e-9d15-5f89a8c6dc5d","ios":"levelo://app?vid=54d7ad01-3452-448e-9d15-5f89a8c6dc5d"},"vehicle_type_id":"4","last_reported":1687889382,"current_range_meters":2000,"station_id":"ce4bhbp2rcd13ifvqerg","pricing_plan_id":"free"},{"bike_id":"e34e8ad8-ef90-4159-b69b-a649115f1683","system_id":"levelo_inurba_marseille","lat":43.288501,"lon":5.393087,"is_reserved":false,"is_disabled":false,"rental_uris":{"android":"levelo://app?vid=e34e8ad8-ef90-4159-b69b-a649115f1683","ios":"levelo://app?vid=e34e8ad8-ef90-4159-b69b-a649115f1683"},"vehicle_type_id":"4","last_reported":1687889382,"current_range_meters":7200,"station_id":"ce4bh2p2rcd13ifvqdi0","pricing_plan_id":"free"},{"bike_id":"b4c950db-352f-4a1a-8e3c-c05101a6dad0","system_id":"levelo_inurba_marseille","lat":43.288501,"lon":5.393087,"is_reserved":false,"is_disabled":false,"rental_uris":{"android":"levelo://app?vid=b4c950db-352f-4a1a-8e3c-c05101a6dad0","ios":"levelo://app?vid=b4c950db-352f-4a1a-8e3c-c05101a6dad0"},"vehicle_type_id":"4","last_reported":1687889382,"current_range_meters":31200,"station_id":"ce4bh2p2rcd13ifvqdi0","pricing_plan_id":"free"},{"bike_id":"4622fb8c-1c2d-43ff-aa74-9cc7f55df401","system_id":"levelo_inurba_marseille","lat":43.284217,"lon":5.349697,"is_reserved":false,"is_disabled":false,"rental_uris":{"android":"levelo://app?vid=4622fb8c-1c2d-43ff-aa74-9cc7f55df401","ios":"levelo://app?vid=4622fb8c-1c2d-43ff-aa74-9cc7f55df401"},"vehicle_type_id":"4","last_reported":1687889382,"current_range_meters":6000,"station_id":"ce4bhbh2rcd13ifvqepg","pricing_plan_id":"free"},{"bike_id":"d143811e-9988-4ccf-95f1-4b3f6ee23880","system_id":"levelo_inurba_marseille","lat":43.284217,"lon":5.349697,"is_reserved":false,"is_disabled":false,"rental_uris":{"android":"levelo://app?vid=d143811e-9988-4ccf-95f1-4b3f6ee23880","ios":"levelo://app?vid=d143811e-9988-4ccf-95f1-4b3f6ee23880"},"vehicle_type_id":"4","last_reported":1687889382,"current_range_meters":31200,"station_id":"ce4bhbh2rcd13ifvqepg","pricing_plan_id":"free"},{"bike_id":"ada5f0ac-c7e2-467a-a5e3-ec2a1806444a","system_id":"levelo_inurba_marseille","lat":43.28421,"lon":5.3498,"is_reserved":false,"is_disabled":false,"rental_uris":{"android":"levelo://app?vid=ada5f0ac-c7e2-467a-a5e3-ec2a1806444a","ios":"levelo://app?vid=ada5f0ac-c7e2-467a-a5e3-ec2a1806444a"},"vehicle_type_id":"4","last_reported":1687889382,"current_range_meters":25600,"station_id":"ce4bhbh2rcd13ifvqepg","pricing_plan_id":"free"},{"bike_id":"265e1688-7369-4482-b6f6-933606572ea0","system_id":"levelo_inurba_marseille","lat":43.284217,"lon":5.349697,"is_reserved":false,"is_disabled":false,"rental_uris":{"android":"levelo://app?vid=265e1688-7369-4482-b6f6-933606572ea0","ios":"levelo://app?vid=265e1688-7369-4482-b6f6-933606572ea0"},"vehicle_type_id":"4","last_reported":1687889382,"current_range_meters":6400,"station_id":"ce4bhbh2rcd13ifvqepg","pricing_plan_id":"free"},{"bike_id":"c8319718-9889-421c-b6af-2242394ffd35","system_id":"levelo_inurba_marseille","lat":43.28416,"lon":5.34985,"is_reserved":false,"is_disabled":false,"rental_uris":{"android":"levelo://app?vid=c8319718-9889-421c-b6af-2242394ffd35","ios":"levelo://app?vid=c8319718-9889-421c-b6af-2242394ffd35"},"vehicle_type_id":"4","last_reported":1687889382,"current_range_meters":0,"station_id":"ce4bhbh2rcd13ifvqepg","pricing_plan_id":"free"},{"bike_id":"295fb124-0cc1-495f-93c8-142764f3b38e","system_id":"levelo_inurba_marseille","lat":43.284217,"lon":5.349697,"is_reserved":false,"is_disabled":false,"rental_uris":{"android":"levelo://app?vid=295fb124-0cc1-495f-93c8-142764f3b38e","ios":"levelo://app?vid=295fb124-0cc1-495f-93c8-142764f3b38e"},"vehicle_type_id":"4","last_reported":1687889382,"current_range_meters":31200,"station_id":"ce4bhbh2rcd13ifvqepg","pricing_plan_id":"free"},{"bike_id":"1baf2d35-ec9b-4457-a78a-7358a55c2c7b","system_id":"levelo_inurba_marseille","lat":43.284217,"lon":5.349697,"is_reserved":false,"is_disabled":false,"rental_uris":{"android":"levelo://app?vid=1baf2d35-ec9b-4457-a78a-7358a55c2c7b","ios":"levelo://app?vid=1baf2d35-ec9b-4457-a78a-7358a55c2c7b"},"vehicle_type_id":"4","last_reported":1687889382,"current_range_meters":3200,"station_id":"ce4bhbh2rcd13ifvqepg","pricing_plan_id":"free"},{"bike_id":"04f66c51-9811-4100-9d5c-38affe76250e","system_id":"levelo_inurba_marseille","lat":43.32089,"lon":5.40873,"is_reserved":false,"is_disabled":false,"rental_uris":{"android":"levelo://app?vid=04f66c51-9811-4100-9d5c-38affe76250e","ios":"levelo://app?vid=04f66c51-9811-4100-9d5c-38affe76250e"},"vehicle_type_id":"4","last_reported":1687889382,"current_range_meters":29600,"station_id":"","pricing_plan_id":"free"},{"bike_id":"6ca31463-b411-4c29-a414-e30cb9780218","system_id":"levelo_inurba_marseille","lat":43.292724,"lon":5.401131,"is_reserved":false,"is_disabled":false,"rental_uris":{"android":"levelo://app?vid=6ca31463-b411-4c29-a414-e30cb9780218","ios":"levelo://app?vid=6ca31463-b411-4c29-a414-e30cb9780218"},"vehicle_type_id":"4","last_reported":1687889382,"current_range_meters":1200,"station_id":"ce4bh312rcd13ifvqdk0","pricing_plan_id":"free"},{"bike_id":"01740a81-7234-4abe-a580-a6d287775424","system_id":"levelo_inurba_marseille","lat":43.28273,"lon":5.35063,"is_reserved":false,"is_disabled":false,"rental_uris":{"android":"levelo://app?vid=01740a81-7234-4abe-a580-a6d287775424","ios":"levelo://app?vid=01740a81-7234-4abe-a580-a6d287775424"},"vehicle_type_id":"4","last_reported":1687889382,"current_range_meters":5200,"station_id":"ce4bhbp2rcd13ifvqerg","pricing_plan_id":"free"},{"bike_id":"43df24d4-5318-4818-9b9d-db5cb0d0914c","system_id":"levelo_inurba_marseille","lat":43.282754,"lon":5.350519,"is_reserved":false,"is_disabled":false,"rental_uris":{"android":"levelo://app?vid=43df24d4-5318-4818-9b9d-db5cb0d0914c","ios":"levelo://app?vid=43df24d4-5318-4818-9b9d-db5cb0d0914c"},"vehicle_type_id":"4","last_reported":1687889382,"current_range_meters":19200,"station_id":"ce4bhbp2rcd13ifvqerg","pricing_plan_id":"free"},{"bike_id":"a4fca051-68c5-4d8f-9816-77d1d0fffd74","system_id":"levelo_inurba_marseille","lat":43.28265,"lon":5.3506,"is_reserved":false,"is_disabled":false,"rental_uris":{"android":"levelo://app?vid=a4fca051-68c5-4d8f-9816-77d1d0fffd74","ios":"levelo://app?vid=a4fca051-68c5-4d8f-9816-77d1d0fffd74"},"vehicle_type_id":"4","last_reported":1687889382,"current_range_meters":3600,"station_id":"ce4bhbp2rcd13ifvqerg","pricing_plan_id":"free"},{"bike_id":"d35e2156-b542-468a-9e10-6e212297f805","system_id":"levelo_inurba_marseille","lat":43.282744,"lon":5.350533,"is_reserved":false,"is_disabled":false,"rental_uris":{"android":"levelo://app?vid=d35e2156-b542-468a-9e10-6e212297f805","ios":"levelo://app?vid=d35e2156-b542-468a-9e10-6e212297f805"},"vehicle_type_id":"4","last_reported":1687889382,"current_range_meters":14400,"station_id":"ce4bhbp2rcd13ifvqerg","pricing_plan_id":"free"},{"bike_id":"39d7f66b-eca5-4d8f-a5ee-f5a0904161ab","system_id":"levelo_inurba_marseille","lat":43.282744,"lon":5.350533,"is_reserved":false,"is_disabled":false,"rental_uris":{"android":"levelo://app?vid=39d7f66b-eca5-4d8f-a5ee-f5a0904161ab","ios":"levelo://app?vid=39d7f66b-eca5-4d8f-a5ee-f5a0904161ab"},"vehicle_type_id":"4","last_reported":1687889382,"current_range_meters":24400,"station_id":"ce4bhbp2rcd13ifvqerg","pricing_plan_id":"free"},{"bike_id":"e8bbfb26-56a9-4e58-826c-dc11e46c820e","system_id":"levelo_inurba_marseille","lat":43.282744,"lon":5.350533,"is_reserved":false,"is_disabled":false,"rental_uris":{"android":"levelo://app?vid=e8bbfb26-56a9-4e58-826c-dc11e46c820e","ios":"levelo://app?vid=e8bbfb26-56a9-4e58-826c-dc11e46c820e"},"vehicle_type_id":"4","last_reported":1687889382,"current_range_meters":18000,"station_id":"ce4bhbp2rcd13ifvqerg","pricing_plan_id":"free"},{"bike_id":"bbc388ff-cdc0-46f2-9fb8-d131869cb17e","system_id":"levelo_inurba_marseille","lat":43.282744,"lon":5.350533,"is_reserved":false,"is_disabled":false,"rental_uris":{"android":"levelo://app?vid=bbc388ff-cdc0-46f2-9fb8-d131869cb17e","ios":"levelo://app?vid=bbc388ff-cdc0-46f2-9fb8-d131869cb17e"},"vehicle_type_id":"4","last_reported":1687889382,"current_range_meters":20400,"station_id":"ce4bhbp2rcd13ifvqerg","pricing_plan_id":"free"},{"bike_id":"83ee026b-1c42-445b-8b95-87ef586ed8e5","system_id":"levelo_inurba_marseille","lat":43.28039,"lon":5.369297,"is_reserved":false,"is_disabled":false,"rental_uris":{"android":"levelo://app?vid=83ee026b-1c42-445b-8b95-87ef586ed8e5","ios":"levelo://app?vid=83ee026b-1c42-445b-8b95-87ef586ed8e5"},"vehicle_type_id":"4","last_reported":1687889382,"current_range_meters":22400,"station_id":"ce4bha12rcd13ifvqef0","pricing_plan_id":"free"},{"bike_id":"61681041-071c-4813-bd65-a951bd016d12","system_id":"levelo_inurba_marseille","lat":43.28039,"lon":5.369297,"is_reserved":false,"is_disabled":false,"rental_uris":{"android":"levelo://app?vid=61681041-071c-4813-bd65-a951bd016d12","ios":"levelo://app?vid=61681041-071c-4813-bd65-a951bd016d12"},"vehicle_type_id":"4","last_reported":1687889382,"current_range_meters":31600,"station_id":"ce4bha12rcd13ifvqef0","pricing_plan_id":"free"},{"bike_id":"c3b3d8c1-fc98-4fd0-a573-c51c8ffa3d84","system_id":"levelo_inurba_marseille","lat":43.28039,"lon":5.369297,"is_reserved":false,"is_disabled":false,"rental_uris":{"android":"levelo://app?vid=c3b3d8c1-fc98-4fd0-a573-c51c8ffa3d84","ios":"levelo://app?vid=c3b3d8c1-fc98-4fd0-a573-c51c8ffa3d84"},"vehicle_type_id":"4","last_reported":1687889382,"current_range_meters":31200,"station_id":"ce4bha12rcd13ifvqef0","pricing_plan_id":"free"},{"bike_id":"295b3071-9794-4e0c-89d6-109897fd38a8","system_id":"levelo_inurba_marseille","lat":43.28039,"lon":5.369297,"is_reserved":false,"is_disabled":false,"rental_uris":{"android":"levelo://app?vid=295b3071-9794-4e0c-89d6-109897fd38a8","ios":"levelo://app?vid=295b3071-9794-4e0c-89d6-109897fd38a8"},"vehicle_type_id":"4","last_reported":1687889382,"current_range_meters":31600,"station_id":"ce4bha12rcd13ifvqef0","pricing_plan_id":"free"},{"bike_id":"afc9f29d-a4a0-4e70-a425-f530a7806e7c","system_id":"levelo_inurba_marseille","lat":43.28039,"lon":5.369297,"is_reserved":false,"is_disabled":false,"rental_uris":{"android":"levelo://app?vid=afc9f29d-a4a0-4e70-a425-f530a7806e7c","ios":"levelo://app?vid=afc9f29d-a4a0-4e70-a425-f530a7806e7c"},"vehicle_type_id":"4","last_reported":1687889382,"current_range_meters":31600,"station_id":"ce4bha12rcd13ifvqef0","pricing_plan_id":"free"},{"bike_id":"ce2fb21d-278e-4a03-9ce1-91a9aad562d8","system_id":"levelo_inurba_marseille","lat":43.29634,"lon":5.40591,"is_reserved":false,"is_disabled":false,"rental_uris":{"android":"levelo://app?vid=ce2fb21d-278e-4a03-9ce1-91a9aad562d8","ios":"levelo://app?vid=ce2fb21d-278e-4a03-9ce1-91a9aad562d8"},"vehicle_type_id":"4","last_reported":1687889382,"current_range_meters":400,"station_id":"ce4bh0h2rcd13ifvqd60","pricing_plan_id":"free"},{"bike_id":"6ccd33dd-0eac-48c2-a80a-75efd9dfd353","system_id":"levelo_inurba_marseille","lat":43.296263,"lon":5.40601,"is_reserved":false,"is_disabled":false,"rental_uris":{"android":"levelo://app?vid=6ccd33dd-0eac-48c2-a80a-75efd9dfd353","ios":"levelo://app?vid=6ccd33dd-0eac-48c2-a80a-75efd9dfd353"},"vehicle_type_id":"4","last_reported":1687889382,"current_range_meters":22000,"station_id":"ce4bh0h2rcd13ifvqd60","pricing_plan_id":"free"},{"bike_id":"877985e5-8d72-4223-9bdd-53e95a6c43d6","system_id":"levelo_inurba_marseille","lat":43.28097,"lon":5.37855,"is_reserved":false,"is_disabled":false,"rental_uris":{"android":"levelo://app?vid=877985e5-8d72-4223-9bdd-53e95a6c43d6","ios":"levelo://app?vid=877985e5-8d72-4223-9bdd-53e95a6c43d6"},"vehicle_type_id":"4","last_reported":1687889382,"current_range_meters":31200,"station_id":"ce4bha12rcd13ifvqee0","pricing_plan_id":"free"},{"bike_id":"61b79366-981a-417e-aad1-59b9bdb8c9a6","system_id":"levelo_inurba_marseille","lat":43.33053,"lon":5.40591,"is_reserved":false,"is_disabled":false,"rental_uris":{"android":"levelo://app?vid=61b79366-981a-417e-aad1-59b9bdb8c9a6","ios":"levelo://app?vid=61b79366-981a-417e-aad1-59b9bdb8c9a6"},"vehicle_type_id":"4","last_reported":1687889382,"current_range_meters":28800,"station_id":"","pricing_plan_id":"free"},{"bike_id":"c8e6ce45-f2b5-4772-a564-3c2039eea91a","system_id":"levelo_inurba_marseille","lat":43.3305,"lon":5.406,"is_reserved":false,"is_disabled":false,"rental_uris":{"android":"levelo://app?vid=c8e6ce45-f2b5-4772-a564-3c2039eea91a","ios":"levelo://app?vid=c8e6ce45-f2b5-4772-a564-3c2039eea91a"},"vehicle_type_id":"4","last_reported":1687889382,"current_range_meters":3200,"station_id":"","pricing_plan_id":"free"},{"bike_id":"58eab92c-1e7c-44d5-912f-cd453ca19ab0","system_id":"levelo_inurba_marseille","lat":43.284462,"lon":5.392121,"is_reserved":false,"is_disabled":false,"rental_uris":{"android":"levelo://app?vid=58eab92c-1e7c-44d5-912f-cd453ca19ab0","ios":"levelo://app?vid=58eab92c-1e7c-44d5-912f-cd453ca19ab0"},"vehicle_type_id":"4","last_reported":1687889382,"current_range_meters":4800,"station_id":"ce4bhoh2rcd13ifvqh5g","pricing_plan_id":"free"},{"bike_id":"57a8a150-a061-4c8b-ae07-ca22dafb499e","system_id":"levelo_inurba_marseille","lat":43.326605,"lon":5.409903,"is_reserved":false,"is_disabled":false,"rental_uris":{"android":"levelo://app?vid=57a8a150-a061-4c8b-ae07-ca22dafb499e","ios":"levelo://app?vid=57a8a150-a061-4c8b-ae07-ca22dafb499e"},"vehicle_type_id":"4","last_reported":1687889382,"current_range_meters":17600,"station_id":"ce4bhpp2rcd13ifvqhgg","pricing_plan_id":"free"},{"bike_id":"0c9eee73-532e-4f1f-8b23-5a0693e22298","system_id":"levelo_inurba_marseille","lat":43.326605,"lon":5.409903,"is_reserved":false,"is_disabled":false,"rental_uris":{"android":"levelo://app?vid=0c9eee73-532e-4f1f-8b23-5a0693e22298","ios":"levelo://app?vid=0c9eee73-532e-4f1f-8b23-5a0693e22298"},"vehicle_type_id":"4","last_reported":1687889382,"current_range_meters":31600,"station_id":"ce4bhpp2rcd13ifvqhgg","pricing_plan_id":"free"},{"bike_id":"06105a99-1d21-47eb-8660-4f643f9a8808","system_id":"levelo_inurba_marseille","lat":43.326605,"lon":5.409903,"is_reserved":false,"is_disabled":false,"rental_uris":{"android":"levelo://app?vid=06105a99-1d21-47eb-8660-4f643f9a8808","ios":"levelo://app?vid=06105a99-1d21-47eb-8660-4f643f9a8808"},"vehicle_type_id":"4","last_reported":1687889382,"current_range_meters":30000,"station_id":"ce4bhpp2rcd13ifvqhgg","pricing_plan_id":"free"},{"bike_id":"104e4be4-777a-4d59-9e16-90f98aef09f7","system_id":"levelo_inurba_marseille","lat":43.326605,"lon":5.409903,"is_reserved":false,"is_disabled":false,"rental_uris":{"android":"levelo://app?vid=104e4be4-777a-4d59-9e16-90f98aef09f7","ios":"levelo://app?vid=104e4be4-777a-4d59-9e16-90f98aef09f7"},"vehicle_type_id":"4","last_reported":1687889382,"current_range_meters":3200,"station_id":"ce4bhpp2rcd13ifvqhgg","pricing_plan_id":"free"},{"bike_id":"d121dca8-2596-4f85-a2a1-3d6410e5eda4","system_id":"levelo_inurba_marseille","lat":43.33105,"lon":5.40802,"is_reserved":false,"is_disabled":false,"rental_uris":{"android":"levelo://app?vid=d121dca8-2596-4f85-a2a1-3d6410e5eda4","ios":"levelo://app?vid=d121dca8-2596-4f85-a2a1-3d6410e5eda4"},"vehicle_type_id":"4","last_reported":1687889382,"current_range_meters":29600,"station_id":"","pricing_plan_id":"free"},{"bike_id":"a1b96231-d11d-4ac0-a265-bbc3d6be5795","system_id":"levelo_inurba_marseille","lat":43.279087,"lon":5.380114,"is_reserved":false,"is_disabled":false,"rental_uris":{"android":"levelo://app?vid=a1b96231-d11d-4ac0-a265-bbc3d6be5795","ios":"levelo://app?vid=a1b96231-d11d-4ac0-a265-bbc3d6be5795"},"vehicle_type_id":"4","last_reported":1687889382,"current_range_meters":12400,"station_id":"ce4bhf92rcd13ifvqf50","pricing_plan_id":"free"},{"bike_id":"f23c50a6-1104-479b-b435-089cdfd9dfab","system_id":"levelo_inurba_marseille","lat":43.279087,"lon":5.380114,"is_reserved":false,"is_disabled":false,"rental_uris":{"android":"levelo://app?vid=f23c50a6-1104-479b-b435-089cdfd9dfab","ios":"levelo://app?vid=f23c50a6-1104-479b-b435-089cdfd9dfab"},"vehicle_type_id":"4","last_reported":1687889382,"current_range_meters":15200,"station_id":"ce4bhf92rcd13ifvqf50","pricing_plan_id":"free"},{"bike_id":"50fd953c-9754-45f4-aec7-ae52bb9eb6fe","system_id":"levelo_inurba_marseille","lat":43.287154,"lon":5.399979,"is_reserved":false,"is_disabled":false,"rental_uris":{"android":"levelo://app?vid=50fd953c-9754-45f4-aec7-ae52bb9eb6fe","ios":"levelo://app?vid=50fd953c-9754-45f4-aec7-ae52bb9eb6fe"},"vehicle_type_id":"4","last_reported":1687889382,"current_range_meters":31200,"station_id":"ce4bho92rcd13ifvqh3g","pricing_plan_id":"free"},{"bike_id":"705ddf8b-7589-4186-a052-fe7f24e9e4dc","system_id":"levelo_inurba_marseille","lat":43.299579,"lon":5.413255,"is_reserved":false,"is_disabled":false,"rental_uris":{"android":"levelo://app?vid=705ddf8b-7589-4186-a052-fe7f24e9e4dc","ios":"levelo://app?vid=705ddf8b-7589-4186-a052-fe7f24e9e4dc"},"vehicle_type_id":"4","last_reported":1687889382,"current_range_meters":26000,"station_id":"ce4bhp12rcd13ifvqh9g","pricing_plan_id":"free"},{"bike_id":"010303de-9f53-47c9-8014-4eeafc88e3fa","system_id":"levelo_inurba_marseille","lat":43.320045,"lon":5.415048,"is_reserved":false,"is_disabled":false,"rental_uris":{"android":"levelo://app?vid=010303de-9f53-47c9-8014-4eeafc88e3fa","ios":"levelo://app?vid=010303de-9f53-47c9-8014-4eeafc88e3fa"},"vehicle_type_id":"4","last_reported":1687889382,"current_range_meters":27200,"station_id":"ce4bhq92rcd13ifvqhkg","pricing_plan_id":"free"},{"bike_id":"3f90f507-a2aa-4929-88fe-acc520197b48","system_id":"levelo_inurba_marseille","lat":43.27965,"lon":5.38723,"is_reserved":false,"is_disabled":false,"rental_uris":{"android":"levelo://app?vid=3f90f507-a2aa-4929-88fe-acc520197b48","ios":"levelo://app?vid=3f90f507-a2aa-4929-88fe-acc520197b48"},"vehicle_type_id":"4","last_reported":1687889382,"current_range_meters":6400,"station_id":"ce4bhg12rcd13ifvqf80","pricing_plan_id":"free"},{"bike_id":"cc9a8aa8-c36c-4aaa-9725-f404b658c8df","system_id":"levelo_inurba_marseille","lat":43.29256,"lon":5.409,"is_reserved":false,"is_disabled":false,"rental_uris":{"android":"levelo://app?vid=cc9a8aa8-c36c-4aaa-9725-f404b658c8df","ios":"levelo://app?vid=cc9a8aa8-c36c-4aaa-9725-f404b658c8df"},"vehicle_type_id":"4","last_reported":1687889382,"current_range_meters":0,"station_id":"ce4bh192rcd13ifvqdc0","pricing_plan_id":"free"},{"bike_id":"77c05030-ac6b-40af-b95e-4a6296c28206","system_id":"levelo_inurba_marseille","lat":43.27618,"lon":5.361009,"is_reserved":false,"is_disabled":false,"rental_uris":{"android":"levelo://app?vid=77c05030-ac6b-40af-b95e-4a6296c28206","ios":"levelo://app?vid=77c05030-ac6b-40af-b95e-4a6296c28206"},"vehicle_type_id":"4","last_reported":1687889382,"current_range_meters":16400,"station_id":"ce4bgj92rcd13ifvqbe0","pricing_plan_id":"free"},{"bike_id":"2b4ce10a-1950-48b4-8b66-245825b6d033","system_id":"levelo_inurba_marseille","lat":43.27618,"lon":5.361009,"is_reserved":false,"is_disabled":false,"rental_uris":{"android":"levelo://app?vid=2b4ce10a-1950-48b4-8b66-245825b6d033","ios":"levelo://app?vid=2b4ce10a-1950-48b4-8b66-245825b6d033"},"vehicle_type_id":"4","last_reported":1687889382,"current_range_meters":13200,"station_id":"ce4bgj92rcd13ifvqbe0","pricing_plan_id":"free"},{"bike_id":"9acf99e3-5bc2-495a-b05e-8250295b3873","system_id":"levelo_inurba_marseille","lat":43.27618,"lon":5.361009,"is_reserved":false,"is_disabled":false,"rental_uris":{"android":"levelo://app?vid=9acf99e3-5bc2-495a-b05e-8250295b3873","ios":"levelo://app?vid=9acf99e3-5bc2-495a-b05e-8250295b3873"},"vehicle_type_id":"4","last_reported":1687889382,"current_range_meters":29200,"station_id":"ce4bgj92rcd13ifvqbe0","pricing_plan_id":"free"},{"bike_id":"417de035-203a-4801-bcc0-9026ac366acc","system_id":"levelo_inurba_marseille","lat":43.27617,"lon":5.36101,"is_reserved":false,"is_disabled":false,"rental_uris":{"android":"levelo://app?vid=417de035-203a-4801-bcc0-9026ac366acc","ios":"levelo://app?vid=417de035-203a-4801-bcc0-9026ac366acc"},"vehicle_type_id":"4","last_reported":1687889382,"current_range_meters":2400,"station_id":"ce4bgj92rcd13ifvqbe0","pricing_plan_id":"free"},{"bike_id":"69f070d6-739b-44cb-a27f-23f636fdfb93","system_id":"levelo_inurba_marseille","lat":43.27618,"lon":5.361009,"is_reserved":false,"is_disabled":false,"rental_uris":{"android":"levelo://app?vid=69f070d6-739b-44cb-a27f-23f636fdfb93","ios":"levelo://app?vid=69f070d6-739b-44cb-a27f-23f636fdfb93"},"vehicle_type_id":"4","last_reported":1687889382,"current_range_meters":0,"station_id":"ce4bgj92rcd13ifvqbe0","pricing_plan_id":"free"},{"bike_id":"5c0181c7-3bca-435b-92e2-1f8b83953c32","system_id":"levelo_inurba_marseille","lat":43.27612,"lon":5.36102,"is_reserved":false,"is_disabled":false,"rental_uris":{"android":"levelo://app?vid=5c0181c7-3bca-435b-92e2-1f8b83953c32","ios":"levelo://app?vid=5c0181c7-3bca-435b-92e2-1f8b83953c32"},"vehicle_type_id":"4","last_reported":1687889382,"current_range_meters":17600,"station_id":"ce4bgj92rcd13ifvqbe0","pricing_plan_id":"free"},{"bike_id":"6b4fea4e-f238-4b5a-a2d3-c2d6b767f627","system_id":"levelo_inurba_marseille","lat":43.276179,"lon":5.361009,"is_reserved":false,"is_disabled":false,"rental_uris":{"android":"levelo://app?vid=6b4fea4e-f238-4b5a-a2d3-c2d6b767f627","ios":"levelo://app?vid=6b4fea4e-f238-4b5a-a2d3-c2d6b767f627"},"vehicle_type_id":"4","last_reported":1687889382,"current_range_meters":31200,"station_id":"ce4bgj92rcd13ifvqbe0","pricing_plan_id":"free"},{"bike_id":"1a47334b-3e1d-4383-b162-c9ee169a17dc","system_id":"levelo_inurba_marseille","lat":43.280784,"lon":5.396622,"is_reserved":false,"is_disabled":false,"rental_uris":{"android":"levelo://app?vid=1a47334b-3e1d-4383-b162-c9ee169a17dc","ios":"levelo://app?vid=1a47334b-3e1d-4383-b162-c9ee169a17dc"},"vehicle_type_id":"4","last_reported":1687889382,"current_range_meters":9600,"station_id":"ce4bho12rcd13ifvqh2g","pricing_plan_id":"free"},{"bike_id":"5adec923-0380-4932-a40a-a0893286148e","system_id":"levelo_inurba_marseille","lat":43.303837,"lon":5.418724,"is_reserved":false,"is_disabled":false,"rental_uris":{"android":"levelo://app?vid=5adec923-0380-4932-a40a-a0893286148e","ios":"levelo://app?vid=5adec923-0380-4932-a40a-a0893286148e"},"vehicle_type_id":"4","last_reported":1687889382,"current_range_meters":30000,"station_id":"ce4bhop2rcd13ifvqh7g","pricing_plan_id":"free"},{"bike_id":"48d3c149-4a5a-4986-b714-0432a254b5b2","system_id":"levelo_inurba_marseille","lat":43.27382,"lon":5.36255,"is_reserved":false,"is_disabled":false,"rental_uris":{"android":"levelo://app?vid=48d3c149-4a5a-4986-b714-0432a254b5b2","ios":"levelo://app?vid=48d3c149-4a5a-4986-b714-0432a254b5b2"},"vehicle_type_id":"4","last_reported":1687889382,"current_range_meters":14000,"station_id":"","pricing_plan_id":"free"},{"bike_id":"139b95d8-3171-4eb5-93e0-56f56ce18435","system_id":"levelo_inurba_marseille","lat":43.273613,"lon":5.362705,"is_reserved":false,"is_disabled":false,"rental_uris":{"android":"levelo://app?vid=139b95d8-3171-4eb5-93e0-56f56ce18435","ios":"levelo://app?vid=139b95d8-3171-4eb5-93e0-56f56ce18435"},"vehicle_type_id":"4","last_reported":1687889382,"current_range_meters":7200,"station_id":"ce4bhbh2rcd13ifvqeo0","pricing_plan_id":"free"},{"bike_id":"96a054ff-8d53-43b6-8663-9ae038535cba","system_id":"levelo_inurba_marseille","lat":43.2738,"lon":5.36251,"is_reserved":false,"is_disabled":false,"rental_uris":{"android":"levelo://app?vid=96a054ff-8d53-43b6-8663-9ae038535cba","ios":"levelo://app?vid=96a054ff-8d53-43b6-8663-9ae038535cba"},"vehicle_type_id":"4","last_reported":1687889382,"current_range_meters":800,"station_id":"ce4bhbh2rcd13ifvqeo0","pricing_plan_id":"free"},{"bike_id":"c20c03f3-7742-473e-86e9-1bbdb5aa3c95","system_id":"levelo_inurba_marseille","lat":43.273613,"lon":5.362705,"is_reserved":false,"is_disabled":false,"rental_uris":{"android":"levelo://app?vid=c20c03f3-7742-473e-86e9-1bbdb5aa3c95","ios":"levelo://app?vid=c20c03f3-7742-473e-86e9-1bbdb5aa3c95"},"vehicle_type_id":"4","last_reported":1687889382,"current_range_meters":0,"station_id":"ce4bhbh2rcd13ifvqeo0","pricing_plan_id":"free"},{"bike_id":"4d011f2f-df00-4e13-80b8-235e0d6e33cf","system_id":"levelo_inurba_marseille","lat":43.27379,"lon":5.36255,"is_reserved":false,"is_disabled":false,"rental_uris":{"android":"levelo://app?vid=4d011f2f-df00-4e13-80b8-235e0d6e33cf","ios":"levelo://app?vid=4d011f2f-df00-4e13-80b8-235e0d6e33cf"},"vehicle_type_id":"4","last_reported":1687889382,"current_range_meters":0,"station_id":"ce4bhbh2rcd13ifvqeo0","pricing_plan_id":"free"},{"bike_id":"51a057e1-2ddf-4e33-9a6b-83c848fb5904","system_id":"levelo_inurba_marseille","lat":43.273613,"lon":5.362705,"is_reserved":false,"is_disabled":false,"rental_uris":{"android":"levelo://app?vid=51a057e1-2ddf-4e33-9a6b-83c848fb5904","ios":"levelo://app?vid=51a057e1-2ddf-4e33-9a6b-83c848fb5904"},"vehicle_type_id":"4","last_reported":1687889382,"current_range_meters":5200,"station_id":"ce4bhbh2rcd13ifvqeo0","pricing_plan_id":"free"},{"bike_id":"e8c0c626-bb17-456b-aee4-d64889d25884","system_id":"levelo_inurba_marseille","lat":43.27378,"lon":5.36256,"is_reserved":false,"is_disabled":false,"rental_uris":{"android":"levelo://app?vid=e8c0c626-bb17-456b-aee4-d64889d25884","ios":"levelo://app?vid=e8c0c626-bb17-456b-aee4-d64889d25884"},"vehicle_type_id":"4","last_reported":1687889382,"current_range_meters":15600,"station_id":"ce4bhbh2rcd13ifvqeo0","pricing_plan_id":"free"},{"bike_id":"5c3f2bb4-eb8b-4619-80d7-a3619fe55d8e","system_id":"levelo_inurba_marseille","lat":43.27376,"lon":5.3625,"is_reserved":false,"is_disabled":false,"rental_uris":{"android":"levelo://app?vid=5c3f2bb4-eb8b-4619-80d7-a3619fe55d8e","ios":"levelo://app?vid=5c3f2bb4-eb8b-4619-80d7-a3619fe55d8e"},"vehicle_type_id":"4","last_reported":1687889382,"current_range_meters":29600,"station_id":"ce4bhbh2rcd13ifvqeo0","pricing_plan_id":"free"},{"bike_id":"85728f53-a7bc-40cf-a834-ecc59e82e8d0","system_id":"levelo_inurba_marseille","lat":43.273609,"lon":5.362708,"is_reserved":false,"is_disabled":false,"rental_uris":{"android":"levelo://app?vid=85728f53-a7bc-40cf-a834-ecc59e82e8d0","ios":"levelo://app?vid=85728f53-a7bc-40cf-a834-ecc59e82e8d0"},"vehicle_type_id":"4","last_reported":1687889382,"current_range_meters":21600,"station_id":"ce4bhbh2rcd13ifvqeo0","pricing_plan_id":"free"},{"bike_id":"04f85235-72b5-416f-b932-d652d7fc4d08","system_id":"levelo_inurba_marseille","lat":43.273613,"lon":5.362705,"is_reserved":false,"is_disabled":false,"rental_uris":{"android":"levelo://app?vid=04f85235-72b5-416f-b932-d652d7fc4d08","ios":"levelo://app?vid=04f85235-72b5-416f-b932-d652d7fc4d08"},"vehicle_type_id":"4","last_reported":1687889382,"current_range_meters":8400,"station_id":"ce4bhbh2rcd13ifvqeo0","pricing_plan_id":"free"},{"bike_id":"964165ec-650a-49b2-84cd-7f80c256b568","system_id":"levelo_inurba_marseille","lat":43.273613,"lon":5.362705,"is_reserved":false,"is_disabled":false,"rental_uris":{"android":"levelo://app?vid=964165ec-650a-49b2-84cd-7f80c256b568","ios":"levelo://app?vid=964165ec-650a-49b2-84cd-7f80c256b568"},"vehicle_type_id":"4","last_reported":1687889382,"current_range_meters":1200,"station_id":"ce4bhbh2rcd13ifvqeo0","pricing_plan_id":"free"},{"bike_id":"94b9e653-aef8-43ae-a020-4034c00815e2","system_id":"levelo_inurba_marseille","lat":43.273613,"lon":5.362705,"is_reserved":false,"is_disabled":false,"rental_uris":{"android":"levelo://app?vid=94b9e653-aef8-43ae-a020-4034c00815e2","ios":"levelo://app?vid=94b9e653-aef8-43ae-a020-4034c00815e2"},"vehicle_type_id":"4","last_reported":1687889382,"current_range_meters":0,"station_id":"ce4bhbh2rcd13ifvqeo0","pricing_plan_id":"free"},{"bike_id":"9865d19d-96ca-48db-bbaa-dcc53937afd5","system_id":"levelo_inurba_marseille","lat":43.27373,"lon":5.36246,"is_reserved":false,"is_disabled":false,"rental_uris":{"android":"levelo://app?vid=9865d19d-96ca-48db-bbaa-dcc53937afd5","ios":"levelo://app?vid=9865d19d-96ca-48db-bbaa-dcc53937afd5"},"vehicle_type_id":"4","last_reported":1687889382,"current_range_meters":31200,"station_id":"ce4bhbh2rcd13ifvqeo0","pricing_plan_id":"free"},{"bike_id":"6d99425a-e584-4ef5-affc-1c204e99dc59","system_id":"levelo_inurba_marseille","lat":43.27373,"lon":5.36245,"is_reserved":false,"is_disabled":false,"rental_uris":{"android":"levelo://app?vid=6d99425a-e584-4ef5-affc-1c204e99dc59","ios":"levelo://app?vid=6d99425a-e584-4ef5-affc-1c204e99dc59"},"vehicle_type_id":"4","last_reported":1687889382,"current_range_meters":31200,"station_id":"ce4bhbh2rcd13ifvqeo0","pricing_plan_id":"free"},{"bike_id":"7b1e69c3-543f-4800-8af3-dc191aeab92d","system_id":"levelo_inurba_marseille","lat":43.27372,"lon":5.36259,"is_reserved":false,"is_disabled":false,"rental_uris":{"android":"levelo://app?vid=7b1e69c3-543f-4800-8af3-dc191aeab92d","ios":"levelo://app?vid=7b1e69c3-543f-4800-8af3-dc191aeab92d"},"vehicle_type_id":"4","last_reported":1687889382,"current_range_meters":4800,"station_id":"ce4bhbh2rcd13ifvqeo0","pricing_plan_id":"free"},{"bike_id":"69bb6a62-ba84-47a7-a1ca-380ac2e2d137","system_id":"levelo_inurba_marseille","lat":43.27371,"lon":5.36255,"is_reserved":false,"is_disabled":false,"rental_uris":{"android":"levelo://app?vid=69bb6a62-ba84-47a7-a1ca-380ac2e2d137","ios":"levelo://app?vid=69bb6a62-ba84-47a7-a1ca-380ac2e2d137"},"vehicle_type_id":"4","last_reported":1687889382,"current_range_meters":26000,"station_id":"ce4bhbh2rcd13ifvqeo0","pricing_plan_id":"free"},{"bike_id":"e9f27dd2-0b2d-46ab-952b-ea4af94ead5e","system_id":"levelo_inurba_marseille","lat":43.27371,"lon":5.36236,"is_reserved":false,"is_disabled":false,"rental_uris":{"android":"levelo://app?vid=e9f27dd2-0b2d-46ab-952b-ea4af94ead5e","ios":"levelo://app?vid=e9f27dd2-0b2d-46ab-952b-ea4af94ead5e"},"vehicle_type_id":"4","last_reported":1687889382,"current_range_meters":29600,"station_id":"ce4bhbh2rcd13ifvqeo0","pricing_plan_id":"free"},{"bike_id":"c8d6d7c6-b87a-4593-99a2-281c099f69c2","system_id":"levelo_inurba_marseille","lat":43.2737,"lon":5.36249,"is_reserved":false,"is_disabled":false,"rental_uris":{"android":"levelo://app?vid=c8d6d7c6-b87a-4593-99a2-281c099f69c2","ios":"levelo://app?vid=c8d6d7c6-b87a-4593-99a2-281c099f69c2"},"vehicle_type_id":"4","last_reported":1687889382,"current_range_meters":31200,"station_id":"ce4bhbh2rcd13ifvqeo0","pricing_plan_id":"free"},{"bike_id":"a648aabc-6ae8-4fab-a4a4-609e880b13fe","system_id":"levelo_inurba_marseille","lat":43.27369,"lon":5.36244,"is_reserved":false,"is_disabled":false,"rental_uris":{"android":"levelo://app?vid=a648aabc-6ae8-4fab-a4a4-609e880b13fe","ios":"levelo://app?vid=a648aabc-6ae8-4fab-a4a4-609e880b13fe"},"vehicle_type_id":"4","last_reported":1687889382,"current_range_meters":10800,"station_id":"ce4bhbh2rcd13ifvqeo0","pricing_plan_id":"free"},{"bike_id":"9b10a5d8-dd5a-4a19-83ca-0e1deafa7bf6","system_id":"levelo_inurba_marseille","lat":43.27368,"lon":5.36246,"is_reserved":false,"is_disabled":false,"rental_uris":{"android":"levelo://app?vid=9b10a5d8-dd5a-4a19-83ca-0e1deafa7bf6","ios":"levelo://app?vid=9b10a5d8-dd5a-4a19-83ca-0e1deafa7bf6"},"vehicle_type_id":"4","last_reported":1687889382,"current_range_meters":31200,"station_id":"ce4bhbh2rcd13ifvqeo0","pricing_plan_id":"free"},{"bike_id":"9797c84f-a3a7-44b5-9309-38993bca0252","system_id":"levelo_inurba_marseille","lat":43.27677,"lon":5.38874,"is_reserved":false,"is_disabled":false,"rental_uris":{"android":"levelo://app?vid=9797c84f-a3a7-44b5-9309-38993bca0252","ios":"levelo://app?vid=9797c84f-a3a7-44b5-9309-38993bca0252"},"vehicle_type_id":"4","last_reported":1687889382,"current_range_meters":13600,"station_id":"ce4bhi12rcd13ifvqfo0","pricing_plan_id":"free"},{"bike_id":"c16b93f9-7853-48e2-971c-e56b6b0cffee","system_id":"levelo_inurba_marseille","lat":43.31079,"lon":5.42425,"is_reserved":false,"is_disabled":false,"rental_uris":{"android":"levelo://app?vid=c16b93f9-7853-48e2-971c-e56b6b0cffee","ios":"levelo://app?vid=c16b93f9-7853-48e2-971c-e56b6b0cffee"},"vehicle_type_id":"4","last_reported":1687889382,"current_range_meters":30800,"station_id":"ce4bhp92rcd13ifvqhag","pricing_plan_id":"free"},{"bike_id":"a769fc32-66bb-4cca-96e3-a886bb792d19","system_id":"levelo_inurba_marseille","lat":43.31086,"lon":5.42432,"is_reserved":false,"is_disabled":false,"rental_uris":{"android":"levelo://app?vid=a769fc32-66bb-4cca-96e3-a886bb792d19","ios":"levelo://app?vid=a769fc32-66bb-4cca-96e3-a886bb792d19"},"vehicle_type_id":"4","last_reported":1687889382,"current_range_meters":27600,"station_id":"ce4bhp92rcd13ifvqhag","pricing_plan_id":"free"},{"bike_id":"4a3ccd30-4cd8-42c6-afd8-2b78c1f931a5","system_id":"levelo_inurba_marseille","lat":43.31079,"lon":5.42432,"is_reserved":false,"is_disabled":false,"rental_uris":{"android":"levelo://app?vid=4a3ccd30-4cd8-42c6-afd8-2b78c1f931a5","ios":"levelo://app?vid=4a3ccd30-4cd8-42c6-afd8-2b78c1f931a5"},"vehicle_type_id":"4","last_reported":1687889382,"current_range_meters":22400,"station_id":"ce4bhp92rcd13ifvqhag","pricing_plan_id":"free"},{"bike_id":"7ad9cb80-6dc7-41d1-939d-e2216b7c7e13","system_id":"levelo_inurba_marseille","lat":43.295523,"lon":5.422926,"is_reserved":false,"is_disabled":false,"rental_uris":{"android":"levelo://app?vid=7ad9cb80-6dc7-41d1-939d-e2216b7c7e13","ios":"levelo://app?vid=7ad9cb80-6dc7-41d1-939d-e2216b7c7e13"},"vehicle_type_id":"4","last_reported":1687889382,"current_range_meters":400,"station_id":"ce4bhph2rcd13ifvqhdg","pricing_plan_id":"free"},{"bike_id":"4fa21102-9c5c-4785-8da0-3d7f957b0c31","system_id":"levelo_inurba_marseille","lat":43.272118,"lon":5.391758,"is_reserved":false,"is_disabled":false,"rental_uris":{"android":"levelo://app?vid=4fa21102-9c5c-4785-8da0-3d7f957b0c31","ios":"levelo://app?vid=4fa21102-9c5c-4785-8da0-3d7f957b0c31"},"vehicle_type_id":"4","last_reported":1687889382,"current_range_meters":31200,"station_id":"ce4bhhp2rcd13ifvqfm0","pricing_plan_id":"free"},{"bike_id":"adf260b5-414e-4f53-bb23-e3026f5196ae","system_id":"levelo_inurba_marseille","lat":43.278128,"lon":5.407195,"is_reserved":false,"is_disabled":false,"rental_uris":{"android":"levelo://app?vid=adf260b5-414e-4f53-bb23-e3026f5196ae","ios":"levelo://app?vid=adf260b5-414e-4f53-bb23-e3026f5196ae"},"vehicle_type_id":"4","last_reported":1687889382,"current_range_meters":21600,"station_id":"ce4bhnh2rcd13ifvqgtg","pricing_plan_id":"free"},{"bike_id":"e446ec8d-7baa-41e6-a038-9933331856ba","system_id":"levelo_inurba_marseille","lat":43.269467,"lon":5.386439,"is_reserved":false,"is_disabled":false,"rental_uris":{"android":"levelo://app?vid=e446ec8d-7baa-41e6-a038-9933331856ba","ios":"levelo://app?vid=e446ec8d-7baa-41e6-a038-9933331856ba"},"vehicle_type_id":"4","last_reported":1687889382,"current_range_meters":2800,"station_id":"ce4bhh92rcd13ifvqfh0","pricing_plan_id":"free"},{"bike_id":"11655fbc-19f2-4dbe-810f-d82b2f0eda9e","system_id":"levelo_inurba_marseille","lat":43.26681,"lon":5.382694,"is_reserved":false,"is_disabled":false,"rental_uris":{"android":"levelo://app?vid=11655fbc-19f2-4dbe-810f-d82b2f0eda9e","ios":"levelo://app?vid=11655fbc-19f2-4dbe-810f-d82b2f0eda9e"},"vehicle_type_id":"4","last_reported":1687889382,"current_range_meters":0,"station_id":"ce4bhg92rcd13ifvqf90","pricing_plan_id":"free"},{"bike_id":"a631852c-c8a0-4312-b5ff-5d816eca7ced","system_id":"levelo_inurba_marseille","lat":43.27996,"lon":5.416624,"is_reserved":false,"is_disabled":false,"rental_uris":{"android":"levelo://app?vid=a631852c-c8a0-4312-b5ff-5d816eca7ced","ios":"levelo://app?vid=a631852c-c8a0-4312-b5ff-5d816eca7ced"},"vehicle_type_id":"4","last_reported":1687889382,"current_range_meters":4000,"station_id":"ce4bho12rcd13ifvqh1g","pricing_plan_id":"free"},{"bike_id":"579e03ec-81f3-4ab2-926b-d050a60241e9","system_id":"levelo_inurba_marseille","lat":43.27996,"lon":5.416624,"is_reserved":false,"is_disabled":false,"rental_uris":{"android":"levelo://app?vid=579e03ec-81f3-4ab2-926b-d050a60241e9","ios":"levelo://app?vid=579e03ec-81f3-4ab2-926b-d050a60241e9"},"vehicle_type_id":"4","last_reported":1687889382,"current_range_meters":8400,"station_id":"ce4bho12rcd13ifvqh1g","pricing_plan_id":"free"},{"bike_id":"706e8019-cf92-4087-aa0e-cc874d039849","system_id":"levelo_inurba_marseille","lat":43.27996,"lon":5.416624,"is_reserved":false,"is_disabled":false,"rental_uris":{"android":"levelo://app?vid=706e8019-cf92-4087-aa0e-cc874d039849","ios":"levelo://app?vid=706e8019-cf92-4087-aa0e-cc874d039849"},"vehicle_type_id":"4","last_reported":1687889382,"current_range_meters":6400,"station_id":"ce4bho12rcd13ifvqh1g","pricing_plan_id":"free"},{"bike_id":"92a1f827-7fd6-47c0-9b23-75eb8203b205","system_id":"levelo_inurba_marseille","lat":43.27991,"lon":5.41668,"is_reserved":false,"is_disabled":false,"rental_uris":{"android":"levelo://app?vid=92a1f827-7fd6-47c0-9b23-75eb8203b205","ios":"levelo://app?vid=92a1f827-7fd6-47c0-9b23-75eb8203b205"},"vehicle_type_id":"4","last_reported":1687889382,"current_range_meters":18800,"station_id":"ce4bho12rcd13ifvqh1g","pricing_plan_id":"free"},{"bike_id":"4410f569-838a-4b85-98cf-b98ac32194f1","system_id":"levelo_inurba_marseille","lat":43.27986,"lon":5.41662,"is_reserved":false,"is_disabled":false,"rental_uris":{"android":"levelo://app?vid=4410f569-838a-4b85-98cf-b98ac32194f1","ios":"levelo://app?vid=4410f569-838a-4b85-98cf-b98ac32194f1"},"vehicle_type_id":"4","last_reported":1687889382,"current_range_meters":19200,"station_id":"ce4bho12rcd13ifvqh1g","pricing_plan_id":"free"},{"bike_id":"8d87f65e-c4f5-441b-b600-63a45e7a4b9a","system_id":"levelo_inurba_marseille","lat":43.27985,"lon":5.41661,"is_reserved":false,"is_disabled":false,"rental_uris":{"android":"levelo://app?vid=8d87f65e-c4f5-441b-b600-63a45e7a4b9a","ios":"levelo://app?vid=8d87f65e-c4f5-441b-b600-63a45e7a4b9a"},"vehicle_type_id":"4","last_reported":1687889382,"current_range_meters":23600,"station_id":"ce4bho12rcd13ifvqh1g","pricing_plan_id":"free"},{"bike_id":"60e84be0-1dce-4e88-a35f-eb9d2a473aed","system_id":"levelo_inurba_marseille","lat":43.27987,"lon":5.41664,"is_reserved":false,"is_disabled":false,"rental_uris":{"android":"levelo://app?vid=60e84be0-1dce-4e88-a35f-eb9d2a473aed","ios":"levelo://app?vid=60e84be0-1dce-4e88-a35f-eb9d2a473aed"},"vehicle_type_id":"4","last_reported":1687889382,"current_range_meters":30000,"station_id":"ce4bho12rcd13ifvqh1g","pricing_plan_id":"free"},{"bike_id":"0e76d060-95d6-4c9c-b2cc-92fa8a0e8833","system_id":"levelo_inurba_marseille","lat":43.27985,"lon":5.41662,"is_reserved":false,"is_disabled":false,"rental_uris":{"android":"levelo://app?vid=0e76d060-95d6-4c9c-b2cc-92fa8a0e8833","ios":"levelo://app?vid=0e76d060-95d6-4c9c-b2cc-92fa8a0e8833"},"vehicle_type_id":"4","last_reported":1687889382,"current_range_meters":29600,"station_id":"ce4bho12rcd13ifvqh1g","pricing_plan_id":"free"},{"bike_id":"42a92609-f4c8-46df-9ec7-e1dfec0be89b","system_id":"levelo_inurba_marseille","lat":43.27981,"lon":5.41663,"is_reserved":false,"is_disabled":false,"rental_uris":{"android":"levelo://app?vid=42a92609-f4c8-46df-9ec7-e1dfec0be89b","ios":"levelo://app?vid=42a92609-f4c8-46df-9ec7-e1dfec0be89b"},"vehicle_type_id":"4","last_reported":1687889382,"current_range_meters":30400,"station_id":"ce4bho12rcd13ifvqh1g","pricing_plan_id":"free"},{"bike_id":"84ee97b0-ed68-4544-ac7d-a16cd003c18b","system_id":"levelo_inurba_marseille","lat":43.308051,"lon":5.43527,"is_reserved":false,"is_disabled":false,"rental_uris":{"android":"levelo://app?vid=84ee97b0-ed68-4544-ac7d-a16cd003c18b","ios":"levelo://app?vid=84ee97b0-ed68-4544-ac7d-a16cd003c18b"},"vehicle_type_id":"4","last_reported":1687889382,"current_range_meters":15200,"station_id":"ce4bhph2rcd13ifvqheg","pricing_plan_id":"free"},{"bike_id":"e52a3d31-9886-4ba8-9bb5-9a9919846473","system_id":"levelo_inurba_marseille","lat":43.26196,"lon":5.37442,"is_reserved":false,"is_disabled":false,"rental_uris":{"android":"levelo://app?vid=e52a3d31-9886-4ba8-9bb5-9a9919846473","ios":"levelo://app?vid=e52a3d31-9886-4ba8-9bb5-9a9919846473"},"vehicle_type_id":"4","last_reported":1687889382,"current_range_meters":12400,"station_id":"ce4bhgp2rcd13ifvqfc0","pricing_plan_id":"free"},{"bike_id":"5188387d-7d50-4f7c-83b7-5c52eaecf69e","system_id":"levelo_inurba_marseille","lat":43.26194,"lon":5.37441,"is_reserved":false,"is_disabled":false,"rental_uris":{"android":"levelo://app?vid=5188387d-7d50-4f7c-83b7-5c52eaecf69e","ios":"levelo://app?vid=5188387d-7d50-4f7c-83b7-5c52eaecf69e"},"vehicle_type_id":"4","last_reported":1687889382,"current_range_meters":2800,"station_id":"ce4bhgp2rcd13ifvqfc0","pricing_plan_id":"free"},{"bike_id":"c7b1e3a8-0d1f-433c-836f-b3be98ae07b8","system_id":"levelo_inurba_marseille","lat":43.26192,"lon":5.3744,"is_reserved":false,"is_disabled":false,"rental_uris":{"android":"levelo://app?vid=c7b1e3a8-0d1f-433c-836f-b3be98ae07b8","ios":"levelo://app?vid=c7b1e3a8-0d1f-433c-836f-b3be98ae07b8"},"vehicle_type_id":"4","last_reported":1687889382,"current_range_meters":0,"station_id":"ce4bhgp2rcd13ifvqfc0","pricing_plan_id":"free"},{"bike_id":"6914b245-33c1-4188-90bb-520acdda717d","system_id":"levelo_inurba_marseille","lat":43.26188,"lon":5.37441,"is_reserved":false,"is_disabled":false,"rental_uris":{"android":"levelo://app?vid=6914b245-33c1-4188-90bb-520acdda717d","ios":"levelo://app?vid=6914b245-33c1-4188-90bb-520acdda717d"},"vehicle_type_id":"4","last_reported":1687889382,"current_range_meters":1200,"station_id":"ce4bhgp2rcd13ifvqfc0","pricing_plan_id":"free"},{"bike_id":"16904b44-0939-440b-81e3-bed4c84a3584","system_id":"levelo_inurba_marseille","lat":43.261782,"lon":5.374515,"is_reserved":false,"is_disabled":false,"rental_uris":{"android":"levelo://app?vid=16904b44-0939-440b-81e3-bed4c84a3584","ios":"levelo://app?vid=16904b44-0939-440b-81e3-bed4c84a3584"},"vehicle_type_id":"4","last_reported":1687889382,"current_range_meters":23600,"station_id":"ce4bhgp2rcd13ifvqfc0","pricing_plan_id":"free"},{"bike_id":"3acbb148-cb7a-45ae-bcb0-87e4230d650d","system_id":"levelo_inurba_marseille","lat":43.261782,"lon":5.374515,"is_reserved":false,"is_disabled":false,"rental_uris":{"android":"levelo://app?vid=3acbb148-cb7a-45ae-bcb0-87e4230d650d","ios":"levelo://app?vid=3acbb148-cb7a-45ae-bcb0-87e4230d650d"},"vehicle_type_id":"4","last_reported":1687889382,"current_range_meters":800,"station_id":"ce4bhgp2rcd13ifvqfc0","pricing_plan_id":"free"},{"bike_id":"3706e7db-59e4-4ab4-82c2-64f591b73ebd","system_id":"levelo_inurba_marseille","lat":43.27182,"lon":5.4099,"is_reserved":false,"is_disabled":false,"rental_uris":{"android":"levelo://app?vid=3706e7db-59e4-4ab4-82c2-64f591b73ebd","ios":"levelo://app?vid=3706e7db-59e4-4ab4-82c2-64f591b73ebd"},"vehicle_type_id":"4","last_reported":1687889382,"current_range_meters":8000,"station_id":"","pricing_plan_id":"free"},{"bike_id":"5920944e-f087-4b55-8914-03c97e070dbf","system_id":"levelo_inurba_marseille","lat":43.271368,"lon":5.40928,"is_reserved":false,"is_disabled":false,"rental_uris":{"android":"levelo://app?vid=5920944e-f087-4b55-8914-03c97e070dbf","ios":"levelo://app?vid=5920944e-f087-4b55-8914-03c97e070dbf"},"vehicle_type_id":"4","last_reported":1687889382,"current_range_meters":31200,"station_id":"ce4bhl12rcd13ifvqgf0","pricing_plan_id":"free"},{"bike_id":"91f8cd42-7481-48cc-b0b7-2ab717f15fd2","system_id":"levelo_inurba_marseille","lat":43.271368,"lon":5.40928,"is_reserved":false,"is_disabled":false,"rental_uris":{"android":"levelo://app?vid=91f8cd42-7481-48cc-b0b7-2ab717f15fd2","ios":"levelo://app?vid=91f8cd42-7481-48cc-b0b7-2ab717f15fd2"},"vehicle_type_id":"4","last_reported":1687889382,"current_range_meters":5600,"station_id":"ce4bhl12rcd13ifvqgf0","pricing_plan_id":"free"},{"bike_id":"ab5f13ad-435d-473d-87e4-f76b885cc655","system_id":"levelo_inurba_marseille","lat":43.271368,"lon":5.40928,"is_reserved":false,"is_disabled":false,"rental_uris":{"android":"levelo://app?vid=ab5f13ad-435d-473d-87e4-f76b885cc655","ios":"levelo://app?vid=ab5f13ad-435d-473d-87e4-f76b885cc655"},"vehicle_type_id":"4","last_reported":1687889382,"current_range_meters":22800,"station_id":"ce4bhl12rcd13ifvqgf0","pricing_plan_id":"free"},