{"last_updated":1751497835,"ttl":60,"version":"2.2","data":{"bikes":[{"bike_id":"3da29fb8-fc97-44c6-b9ac-31dd456b2fd4","system_id":"levelo_inurba_marseille","lat":43.33771,"lon":5.37424,"is_reserved":false,"is_disabled":true,"rental_uris":{"android":"levelo://app?vid=3da29fb8-fc97-44c6-b9ac-31dd456b2fd4","ios":"levelo://app?vid=3da29fb8-fc97-44c6-b9ac-31dd456b2fd4"},"vehicle_type_id":"4","last_reported":1751497835,"current_range_meters":0,"station_id":"","pricing_plan_id":"cebpf4jnsgd1na2vs0mg"},{"bike_id":"01861ad8-a8d7-4be6-816e-651927c87584","system_id":"levelo_inurba_marseille","lat":43.33751,"lon":5.37456,"is_reserved":false,"is_disabled":true,"rental_uris":{"android":"levelo://app?vid=01861ad8-a8d7-4be6-816e-651927c87584","ios":"levelo://app?vid=01861ad8-a8d7-4be6-816e-651927c87584"},"vehicle_type_id":"4","last_reported":1751497835,"current_range_meters":0,"station_id":"","pricing_plan_id":"cebpf4jnsgd1na2vs0mg"},{"bike_id":"371877a1-9494-4af8-8e6e-405e7c47ef43","system_id":"levelo_inurba_marseille","lat":43.29326,"lon":5.40703,"is_reserved":false,"is_disabled":true,"rental_uris":{"android":"levelo://app?vid=371877a1-9494-4af8-8e6e-405e7c47ef43","ios":"levelo://app?vid=371877a1-9494-4af8-8e6e-405e7c47ef43"},"vehicle_type_id":"4","last_reported":1751497835,"current_range_meters":0,"station_id":"","pricing_plan_id":"cebpf4jnsgd1na2vs0mg"},{"bike_id":"6e5b5a4d-1ee5-4068-9613-fb44ab4d8a9a","system_id":"levelo_inurba_marseille","lat":43.34851,"lon":5.34676,"is_reserved":false,"is_disabled":true,"rental_uris":{"android":"levelo://app?vid=6e5b5a4d-1ee5-4068-9613-fb44ab4d8a9a","ios":"levelo://app?vid=6e5b5a4d-1ee5-4068-9613-fb44ab4d8a9a"},"vehicle_type_id":"4","last_reported":1751497835,"current_range_meters":0,"station_id":"","pricing_plan_id":"cebpf4jnsgd1na2vs0mg"},{"bike_id":"88ba2eb8-6abc-42f0-a2b7-fafab863863b","system_id":"levelo_inurba_marseille","lat":43.26118,"lon":5.37341,"is_reserved":false,"is_disabled":true,"rental_uris":{"android":"levelo://app?vid=88ba2eb8-6abc-42f0-a2b7-fafab863863b","ios":"levelo://app?vid=88ba2eb8-6abc-42f0-a2b7-fafab863863b"},"vehicle_type_id":"4","last_reported":1751497835,"current_range_meters":0,"station_id":"","pricing_plan_id":"cebpf4jnsgd1na2vs0mg"},{"bike_id":"7717cc54-b33e-4afe-aa1b-128f7f0e45e6","system_id":"levelo_inurba_marseille","lat":43.30297,"lon":5.39202,"is_reserved":false,"is_disabled":true,"rental_uris":{"android":"levelo://app?vid=7717cc54-b33e-4afe-aa1b-128f7f0e45e6","ios":"levelo://app?vid=7717cc54-b33e-4afe-aa1b-128f7f0e45e6"},"vehicle_type_id":"4","last_reported":1751497835,"current_range_meters":0,"station_id":"ce4bgkh2rcd13ifvqbk0","pricing_plan_id":"cebpf4jnsgd1na2vs0mg"},{"bike_id":"e3c87603-1daa-4f7f-b7db-4b2f856d6ba6","system_id":"levelo_inurba_marseille","lat":43.30293,"lon":5.39225,"is_reserved":false,"is_disabled":true,"rental_uris":{"android":"levelo://app?vid=e3c87603-1daa-4f7f-b7db-4b2f856d6ba6","ios":"levelo://app?vid=e3c87603-1daa-4f7f-b7db-4b2f856d6ba6"},"vehicle_type_id":"4","last_reported":1751497835,"current_range_meters":0,"station_id":"ce4bgkh2rcd13ifvqbk0","pricing_plan_id":"cebpf4jnsgd1na2vs0mg"},{"bike_id":"3e425acb-8395-440d-bdd3-71cff39e04bb","system_id":"levelo_inurba_marseille","lat":43.26677,"lon":5.38268,"is_reserved":false,"is_disabled":true,"rental_uris":{"android":"levelo://app?vid=3e425acb-8395-440d-bdd3-71cff39e04bb","ios":"levelo://app?vid=3e425acb-8395-440d-bdd3-71cff39e04bb"},"vehicle_type_id":"4","last_reported":1751497835,"current_range_meters":0,"station_id":"ce4bhg92rcd13ifvqf90","pricing_plan_id":"cebpf4jnsgd1na2vs0mg"},{"bike_id":"be4771a0-f822-40f0-a95c-2aaca1d3fb3c","system_id":"levelo_inurba_marseille","lat":43.21796,"lon":5.34595,"is_reserved":false,"is_disabled":true,"rental_uris":{"android":"levelo://app?vid=be4771a0-f822-40f0-a95c-2aaca1d3fb3c","ios":"levelo://app?vid=be4771a0-f822-40f0-a95c-2aaca1d3fb3c"},"vehicle_type_id":"4","last_reported":1751497835,"current_range_meters":0,"station_id":"st_cvj6r9ubvosntc0bgbag","pricing_plan_id":"cebpf4jnsgd1na2vs0mg"},{"bike_id":"0f7a32d1-f4bc-43fa-82c6-4a1fe810ee00","system_id":"levelo_inurba_marseille","lat":43.3025,"lon":5.40052,"is_reserved":false,"is_disabled":true,"rental_uris":{"android":"levelo://app?vid=0f7a32d1-f4bc-43fa-82c6-4a1fe810ee00","ios":"levelo://app?vid=0f7a32d1-f4bc-43fa-82c6-4a1fe810ee00"},"vehicle_type_id":"4","last_reported":1751497835,"current_range_meters":800,"station_id":"ce4bgvh2rcd13ifvqcs0","pricing_plan_id":"cebpf4jnsgd1na2vs0mg"},{"bike_id":"28789b38-d9d2-4f5d-b0ca-d16323f4f8d9","system_id":"levelo_inurba_marseille","lat":43.299773,"lon":5.371811,"is_reserved":false,"is_disabled":true,"rental_uris":{"android":"levelo://app?vid=28789b38-d9d2-4f5d-b0ca-d16323f4f8d9","ios":"levelo://app?vid=28789b38-d9d2-4f5d-b0ca-d16323f4f8d9"},"vehicle_type_id":"4","last_reported":1751497835,"current_range_meters":1200,"station_id":"ce4bgqh2rcd13ifvqc5g","pricing_plan_id":"cebpf4jnsgd1na2vs0mg"},{"bike_id":"10be7a19-7bb3-4be8-8e03-f074498ccbe9","system_id":"levelo_inurba_marseille","lat":43.21754,"lon":5.34629,"is_reserved":false,"is_disabled":true,"rental_uris":{"android":"levelo://app?vid=10be7a19-7bb3-4be8-8e03-f074498ccbe9","ios":"levelo://app?vid=10be7a19-7bb3-4be8-8e03-f074498ccbe9"},"vehicle_type_id":"4","last_reported":1751497835,"current_range_meters":1600,"station_id":"st_cvj6r9ubvosntc0bgbag","pricing_plan_id":"cebpf4jnsgd1na2vs0mg"},{"bike_id":"8e365e3c-559a-4ba6-a6c5-4c159e2434fc","system_id":"levelo_inurba_marseille","lat":43.2174,"lon":5.34621,"is_reserved":false,"is_disabled":false,"rental_uris":{"android":"levelo://app?vid=8e365e3c-559a-4ba6-a6c5-4c159e2434fc","ios":"levelo://app?vid=8e365e3c-559a-4ba6-a6c5-4c159e2434fc"},"vehicle_type_id":"4","last_reported":1751497835,"current_range_meters":2800,"station_id":"","pricing_plan_id":"cebpf4jnsgd1na2vs0mg"},{"bike_id":"12785e6f-a0a6-45e9-a89f-49f371a1fc4d","system_id":"levelo_inurba_marseille","lat":43.29514,"lon":5.38554,"is_reserved":false,"is_disabled":false,"rental_uris":{"android":"levelo://app?vid=12785e6f-a0a6-45e9-a89f-49f371a1fc4d","ios":"levelo://app?vid=12785e6f-a0a6-45e9-a89f-49f371a1fc4d"},"vehicle_type_id":"4","last_reported":1751497835,"current_range_meters":2800,"station_id":"ce4bgih2rcd13ifvqba0","pricing_plan_id":"cebpf4jnsgd1na2vs0mg"},{"bike_id":"8252b44a-d048-4379-9209-2efa2e627825","system_id":"levelo_inurba_marseille","lat":43.29175,"lon":5.4068,"is_reserved":false,"is_disabled":false,"rental_uris":{"android":"levelo://app?vid=8252b44a-d048-4379-9209-2efa2e627825","ios":"levelo://app?vid=8252b44a-d048-4379-9209-2efa2e627825"},"vehicle_type_id":"4","last_reported":1751497835,"current_range_meters":3200,"station_id":"","pricing_plan_id":"cebpf4jnsgd1na2vs0mg"},{"bike_id":"eb6298f3-da23-4583-904d-84a7d9251bb0","system_id":"levelo_inurba_marseille","lat":43.29646,"lon":5.40596,"is_reserved":false,"is_disabled":false,"rental_uris":{"android":"levelo://app?vid=eb6298f3-da23-4583-904d-84a7d9251bb0","ios":"levelo://app?vid=eb6298f3-da23-4583-904d-84a7d9251bb0"},"vehicle_type_id":"4","last_reported":1751497835,"current_range_meters":3600,"station_id":"ce4bh0h2rcd13ifvqd60","pricing_plan_id":"cebpf4jnsgd1na2vs0mg"},{"bike_id":"1795b805-b66b-48e6-8ad9-70b307bcde03","system_id":"levelo_inurba_marseille","lat":43.2869,"lon":5.39984,"is_reserved":false,"is_disabled":false,"rental_uris":{"android":"levelo://app?vid=1795b805-b66b-48e6-8ad9-70b307bcde03","ios":"levelo://app?vid=1795b805-b66b-48e6-8ad9-70b307bcde03"},"vehicle_type_id":"4","last_reported":1751497835,"current_range_meters":3600,"station_id":"ce4bho92rcd13ifvqh3g","pricing_plan_id":"cebpf4jnsgd1na2vs0mg"},{"bike_id":"89d79cf8-ffd2-4049-93a8-90b0cf35fb88","system_id":"levelo_inurba_marseille","lat":43.3014,"lon":5.38074,"is_reserved":false,"is_disabled":false,"rental_uris":{"android":"levelo://app?vid=89d79cf8-ffd2-4049-93a8-90b0cf35fb88","ios":"levelo://app?vid=89d79cf8-ffd2-4049-93a8-90b0cf35fb88"},"vehicle_type_id":"4","last_reported":1751497835,"current_range_meters":4400,"station_id":"","pricing_plan_id":"cebpf4jnsgd1na2vs0mg"},{"bike_id":"68b2349c-6f12-4221-a715-e2c4004b49b1","system_id":"levelo_inurba_marseille","lat":43.303265,"lon":5.404385,"is_reserved":false,"is_disabled":false,"rental_uris":{"android":"levelo://app?vid=68b2349c-6f12-4221-a715-e2c4004b49b1","ios":"levelo://app?vid=68b2349c-6f12-4221-a715-e2c4004b49b1"},"vehicle_type_id":"4","last_reported":1751497835,"current_range_meters":4400,"station_id":"ce4bh012rcd13ifvqd10","pricing_plan_id":"cebpf4jnsgd1na2vs0mg"},{"bike_id":"5132c5d6-38bf-4bd9-a05c-f2ea98c7f409","system_id":"levelo_inurba_marseille","lat":43.2963,"lon":5.40591,"is_reserved":false,"is_disabled":false,"rental_uris":{"android":"levelo://app?vid=5132c5d6-38bf-4bd9-a05c-f2ea98c7f409","ios":"levelo://app?vid=5132c5d6-38bf-4bd9-a05c-f2ea98c7f409"},"vehicle_type_id":"4","last_reported":1751497835,"current_range_meters":4400,"station_id":"ce4bh0h2rcd13ifvqd60","pricing_plan_id":"cebpf4jnsgd1na2vs0mg"},{"bike_id":"7de7c2c8-df6b-43fa-b263-6c016dae4134","system_id":"levelo_inurba_marseille","lat":43.27795,"lon":5.41446,"is_reserved":false,"is_disabled":false,"rental_uris":{"android":"levelo://app?vid=7de7c2c8-df6b-43fa-b263-6c016dae4134","ios":"levelo://app?vid=7de7c2c8-df6b-43fa-b263-6c016dae4134"},"vehicle_type_id":"4","last_reported":1751497835,"current_range_meters":4800,"station_id":"","pricing_plan_id":"cebpf4jnsgd1na2vs0mg"},{"bike_id":"29af087b-39c4-4cd8-b63b-f71c06c593ff","system_id":"levelo_inurba_marseille","lat":43.30607,"lon":5.37223,"is_reserved":false,"is_disabled":false,"rental_uris":{"android":"levelo://app?vid=29af087b-39c4-4cd8-b63b-f71c06c593ff","ios":"levelo://app?vid=29af087b-39c4-4cd8-b63b-f71c06c593ff"},"vehicle_type_id":"4","last_reported":1751497835,"current_range_meters":4800,"station_id":"ce4bgqh2rcd13ifvqc4g","pricing_plan_id":"cebpf4jnsgd1na2vs0mg"},{"bike_id":"fb895bd1-8bbf-4a13-805b-9dd3ab93b82d","system_id":"levelo_inurba_marseille","lat":43.301347,"lon":5.398533,"is_reserved":false,"is_disabled":false,"rental_uris":{"android":"levelo://app?vid=fb895bd1-8bbf-4a13-805b-9dd3ab93b82d","ios":"levelo://app?vid=fb895bd1-8bbf-4a13-805b-9dd3ab93b82d"},"vehicle_type_id":"4","last_reported":1751497835,"current_range_meters":4800,"station_id":"ce4bh0h2rcd13ifvqd40","pricing_plan_id":"cebpf4jnsgd1na2vs0mg"},{"bike_id":"9bd28efc-20b9-4736-a7b2-bc51401b637c","system_id":"levelo_inurba_marseille","lat":43.27177,"lon":5.40993,"is_reserved":false,"is_disabled":false,"rental_uris":{"android":"levelo://app?vid=9bd28efc-20b9-4736-a7b2-bc51401b637c","ios":"levelo://app?vid=9bd28efc-20b9-4736-a7b2-bc51401b637c"},"vehicle_type_id":"4","last_reported":1751497835,"current_range_meters":6000,"station_id":"ce4bhl12rcd13ifvqgf0","pricing_plan_id":"cebpf4jnsgd1na2vs0mg"},{"bike_id":"e11d94e3-dfd9-44c6-a2a8-4a3067f15209","system_id":"levelo_inurba_marseille","lat":43.30882,"lon":5.39645,"is_reserved":false,"is_disabled":false,"rental_uris":{"android":"levelo://app?vid=e11d94e3-dfd9-44c6-a2a8-4a3067f15209","ios":"levelo://app?vid=e11d94e3-dfd9-44c6-a2a8-4a3067f15209"},"vehicle_type_id":"4","last_reported":1751497835,"current_range_meters":6400,"station_id":"ce4bh012rcd13ifvqcv0","pricing_plan_id":"cebpf4jnsgd1na2vs0mg"},{"bike_id":"f391a3e2-3bc9-45a3-a8e0-12b1d05d4699","system_id":"levelo_inurba_marseille","lat":43.29591,"lon":5.40006,"is_reserved":false,"is_disabled":false,"rental_uris":{"android":"levelo://app?vid=f391a3e2-3bc9-45a3-a8e0-12b1d05d4699","ios":"levelo://app?vid=f391a3e2-3bc9-45a3-a8e0-12b1d05d4699"},"vehicle_type_id":"4","last_reported":1751497835,"current_range_meters":6400,"station_id":"ce4bh312rcd13ifvqdj0","pricing_plan_id":"cebpf4jnsgd1na2vs0mg"},{"bike_id":"b0ccda4f-36b1-4d8b-8784-b8fd40ab4baf","system_id":"levelo_inurba_marseille","lat":43.30122,"lon":5.39865,"is_reserved":false,"is_disabled":false,"rental_uris":{"android":"levelo://app?vid=b0ccda4f-36b1-4d8b-8784-b8fd40ab4baf","ios":"levelo://app?vid=b0ccda4f-36b1-4d8b-8784-b8fd40ab4baf"},"vehicle_type_id":"4","last_reported":1751497835,"current_range_meters":6800,"station_id":"ce4bh0h2rcd13ifvqd40","pricing_plan_id":"cebpf4jnsgd1na2vs0mg"},{"bike_id":"a07f0fdd-2914-45ae-8716-263aed7fb306","system_id":"levelo_inurba_marseille","lat":43.29562,"lon":5.39992,"is_reserved":false,"is_disabled":false,"rental_uris":{"android":"levelo://app?vid=a07f0fdd-2914-45ae-8716-263aed7fb306","ios":"levelo://app?vid=a07f0fdd-2914-45ae-8716-263aed7fb306"},"vehicle_type_id":"4","last_reported":1751497835,"current_range_meters":6800,"station_id":"ce4bh312rcd13ifvqdj0","pricing_plan_id":"cebpf4jnsgd1na2vs0mg"},{"bike_id":"c5f9e6d9-b227-41a7-805d-e515202dc1e5","system_id":"levelo_inurba_marseille","lat":43.27371,"lon":5.36259,"is_reserved":false,"is_disabled":false,"rental_uris":{"android":"levelo://app?vid=c5f9e6d9-b227-41a7-805d-e515202dc1e5","ios":"levelo://app?vid=c5f9e6d9-b227-41a7-805d-e515202dc1e5"},"vehicle_type_id":"4","last_reported":1751497835,"current_range_meters":6800,"station_id":"ce4bhbh2rcd13ifvqeo0","pricing_plan_id":"cebpf4jnsgd1na2vs0mg"},{"bike_id":"b9fa90da-fa0b-40df-8998-d178e85fdb22","system_id":"levelo_inurba_marseille","lat":43.28977,"lon":5.38329,"is_reserved":false,"is_disabled":false,"rental_uris":{"android":"levelo://app?vid=b9fa90da-fa0b-40df-8998-d178e85fdb22","ios":"levelo://app?vid=b9fa90da-fa0b-40df-8998-d178e85fdb22"},"vehicle_type_id":"4","last_reported":1751497835,"current_range_meters":7200,"station_id":"","pricing_plan_id":"cebpf4jnsgd1na2vs0mg"},{"bike_id":"29c5ba0f-727f-4a5f-a809-9108e5a801e9","system_id":"levelo_inurba_marseille","lat":43.30583,"lon":5.37243,"is_reserved":false,"is_disabled":false,"rental_uris":{"android":"levelo://app?vid=29c5ba0f-727f-4a5f-a809-9108e5a801e9","ios":"levelo://app?vid=29c5ba0f-727f-4a5f-a809-9108e5a801e9"},"vehicle_type_id":"4","last_reported":1751497835,"current_range_meters":7200,"station_id":"ce4bgqh2rcd13ifvqc4g","pricing_plan_id":"cebpf4jnsgd1na2vs0mg"},{"bike_id":"a98e9b2e-2cd7-455a-b4d2-274d7e49192f","system_id":"levelo_inurba_marseille","lat":43.31312,"lon":5.39711,"is_reserved":false,"is_disabled":false,"rental_uris":{"android":"levelo://app?vid=a98e9b2e-2cd7-455a-b4d2-274d7e49192f","ios":"levelo://app?vid=a98e9b2e-2cd7-455a-b4d2-274d7e49192f"},"vehicle_type_id":"4","last_reported":1751497835,"current_range_meters":7200,"station_id":"ce4bgvp2rcd13ifvqcu0","pricing_plan_id":"cebpf4jnsgd1na2vs0mg"},{"bike_id":"20f1bbe2-e323-41bc-b5a1-4aa14664c641","system_id":"levelo_inurba_marseille","lat":43.25111,"lon":5.40324,"is_reserved":false,"is_disabled":false,"rental_uris":{"android":"levelo://app?vid=20f1bbe2-e323-41bc-b5a1-4aa14664c641","ios":"levelo://app?vid=20f1bbe2-e323-41bc-b5a1-4aa14664c641"},"vehicle_type_id":"4","last_reported":1751497835,"current_range_meters":7200,"station_id":"ce4bhlh2rcd13ifvqgig","pricing_plan_id":"cebpf4jnsgd1na2vs0mg"},{"bike_id":"8becf1b9-b72c-4763-a062-bbd587ae45bf","system_id":"levelo_inurba_marseille","lat":43.32605,"lon":5.42559,"is_reserved":false,"is_disabled":false,"rental_uris":{"android":"levelo://app?vid=8becf1b9-b72c-4763-a062-bbd587ae45bf","ios":"levelo://app?vid=8becf1b9-b72c-4763-a062-bbd587ae45bf"},"vehicle_type_id":"4","last_reported":1751497835,"current_range_meters":8000,"station_id":"","pricing_plan_id":"cebpf4jnsgd1na2vs0mg"},{"bike_id":"b43948fd-18a9-4c3e-889b-135b21034194","system_id":"levelo_inurba_marseille","lat":43.28396,"lon":5.37515,"is_reserved":false,"is_disabled":false,"rental_uris":{"android":"levelo://app?vid=b43948fd-18a9-4c3e-889b-135b21034194","ios":"levelo://app?vid=b43948fd-18a9-4c3e-889b-135b21034194"},"vehicle_type_id":"4","last_reported":1751497835,"current_range_meters":8000,"station_id":"ce4bh412rcd13ifvqds0","pricing_plan_id":"cebpf4jnsgd1na2vs0mg"},{"bike_id":"0eaf2857-a337-402c-85aa-624ad3ffe4ca","system_id":"levelo_inurba_marseille","lat":43.28469,"lon":5.35878,"is_reserved":false,"is_disabled":false,"rental_uris":{"android":"levelo://app?vid=0eaf2857-a337-402c-85aa-624ad3ffe4ca","ios":"levelo://app?vid=0eaf2857-a337-402c-85aa-624ad3ffe4ca"},"vehicle_type_id":"4","last_reported":1751497835,"current_range_meters":8000,"station_id":"ce4bhah2rcd13ifvqei0","pricing_plan_id":"cebpf4jnsgd1na2vs0mg"},{"bike_id":"5d037150-1d71-4eaa-92cd-3f59dc9b5e93","system_id":"levelo_inurba_marseille","lat":43.251,"lon":5.40334,"is_reserved":false,"is_disabled":false,"rental_uris":{"android":"levelo://app?vid=5d037150-1d71-4eaa-92cd-3f59dc9b5e93","ios":"levelo://app?vid=5d037150-1d71-4eaa-92cd-3f59dc9b5e93"},"vehicle_type_id":"4","last_reported":1751497835,"current_range_meters":8000,"station_id":"ce4bhlh2rcd13ifvqgig","pricing_plan_id":"cebpf4jnsgd1na2vs0mg"},{"bike_id":"9610e57b-e24c-4c16-838c-092b893b30dc","system_id":"levelo_inurba_marseille","lat":43.2175,"lon":5.34602,"is_reserved":false,"is_disabled":false,"rental_uris":{"android":"levelo://app?vid=9610e57b-e24c-4c16-838c-092b893b30dc","ios":"levelo://app?vid=9610e57b-e24c-4c16-838c-092b893b30dc"},"vehicle_type_id":"4","last_reported":1751497835,"current_range_meters":8000,"station_id":"st_cvj6r9ubvosntc0bgbag","pricing_plan_id":"cebpf4jnsgd1na2vs0mg"},{"bike_id":"2d38621a-8522-4965-a4d7-e1c8c760b223","system_id":"levelo_inurba_marseille","lat":43.30171,"lon":5.36615,"is_reserved":false,"is_disabled":false,"rental_uris":{"android":"levelo://app?vid=2d38621a-8522-4965-a4d7-e1c8c760b223","ios":"levelo://app?vid=2d38621a-8522-4965-a4d7-e1c8c760b223"},"vehicle_type_id":"4","last_reported":1751497835,"current_range_meters":8400,"station_id":"ce4bgrh2rcd13ifvqc8g","pricing_plan_id":"cebpf4jnsgd1na2vs0mg"},{"bike_id":"3fbceb20-d877-411e-a90d-f13a05e02fc6","system_id":"levelo_inurba_marseille","lat":43.30299,"lon":5.37912,"is_reserved":false,"is_disabled":false,"rental_uris":{"android":"levelo://app?vid=3fbceb20-d877-411e-a90d-f13a05e02fc6","ios":"levelo://app?vid=3fbceb20-d877-411e-a90d-f13a05e02fc6"},"vehicle_type_id":"4","last_reported":1751497835,"current_range_meters":8800,"station_id":"","pricing_plan_id":"cebpf4jnsgd1na2vs0mg"},{"bike_id":"c0b4e487-228e-47f2-849a-90659e27da5d","system_id":"levelo_inurba_marseille","lat":43.25118,"lon":5.40317,"is_reserved":false,"is_disabled":false,"rental_uris":{"android":"levelo://app?vid=c0b4e487-228e-47f2-849a-90659e27da5d","ios":"levelo://app?vid=c0b4e487-228e-47f2-849a-90659e27da5d"},"vehicle_type_id":"4","last_reported":1751497835,"current_range_meters":8800,"station_id":"ce4bhlh2rcd13ifvqgig","pricing_plan_id":"cebpf4jnsgd1na2vs0mg"},{"bike_id":"88f0d88a-1dec-4977-a19a-71293da7fba4","system_id":"levelo_inurba_marseille","lat":43.32354,"lon":5.36754,"is_reserved":false,"is_disabled":false,"rental_uris":{"android":"levelo://app?vid=88f0d88a-1dec-4977-a19a-71293da7fba4","ios":"levelo://app?vid=88f0d88a-1dec-4977-a19a-71293da7fba4"},"vehicle_type_id":"4","last_reported":1751497835,"current_range_meters":9200,"station_id":"ce4bhsh2rcd13ifvqi2g","pricing_plan_id":"cebpf4jnsgd1na2vs0mg"},{"bike_id":"a011bf6f-5b73-42df-b628-b2dcf5029277","system_id":"levelo_inurba_marseille","lat":43.2417,"lon":5.38497,"is_reserved":false,"is_disabled":false,"rental_uris":{"android":"levelo://app?vid=a011bf6f-5b73-42df-b628-b2dcf5029277","ios":"levelo://app?vid=a011bf6f-5b73-42df-b628-b2dcf5029277"},"vehicle_type_id":"4","last_reported":1751497835,"current_range_meters":9600,"station_id":"","pricing_plan_id":"cebpf4jnsgd1na2vs0mg"},{"bike_id":"3001cdd3-a0d0-4a79-a0b3-b2b32e0b61fb","system_id":"levelo_inurba_marseille","lat":43.30591,"lon":5.39366,"is_reserved":false,"is_disabled":false,"rental_uris":{"android":"levelo://app?vid=3001cdd3-a0d0-4a79-a0b3-b2b32e0b61fb","ios":"levelo://app?vid=3001cdd3-a0d0-4a79-a0b3-b2b32e0b61fb"},"vehicle_type_id":"4","last_reported":1751497835,"current_range_meters":9600,"station_id":"ce4bh0p2rcd13ifvqd80","pricing_plan_id":"cebpf4jnsgd1na2vs0mg"},{"bike_id":"f7ea6462-8a36-4868-af88-413e97f68713","system_id":"levelo_inurba_marseille","lat":43.32482,"lon":5.365659,"is_reserved":false,"is_disabled":false,"rental_uris":{"android":"levelo://app?vid=f7ea6462-8a36-4868-af88-413e97f68713","ios":"levelo://app?vid=f7ea6462-8a36-4868-af88-413e97f68713"},"vehicle_type_id":"4","last_reported":1751497835,"current_range_meters":9600,"station_id":"ce4bhs12rcd13ifvqhvg","pricing_plan_id":"cebpf4jnsgd1na2vs0mg"},{"bike_id":"8ad00ccc-3ccb-493b-a2b4-49cd4dd94c33","system_id":"levelo_inurba_marseille","lat":43.21768,"lon":5.34613,"is_reserved":false,"is_disabled":false,"rental_uris":{"android":"levelo://app?vid=8ad00ccc-3ccb-493b-a2b4-49cd4dd94c33","ios":"levelo://app?vid=8ad00ccc-3ccb-493b-a2b4-49cd4dd94c33"},"vehicle_type_id":"4","last_reported":1751497835,"current_range_meters":9600,"station_id":"st_cvj6r9ubvosntc0bgbag","pricing_plan_id":"cebpf4jnsgd1na2vs0mg"},{"bike_id":"763617cd-4c41-4be4-b1d2-1720537d3e67","system_id":"levelo_inurba_marseille","lat":43.2954,"lon":5.39384,"is_reserved":false,"is_disabled":false,"rental_uris":{"android":"levelo://app?vid=763617cd-4c41-4be4-b1d2-1720537d3e67","ios":"levelo://app?vid=763617cd-4c41-4be4-b1d2-1720537d3e67"},"vehicle_type_id":"4","last_reported":1751497835,"current_range_meters":10000,"station_id":"ce4bh292rcd13ifvqdf0","pricing_plan_id":"cebpf4jnsgd1na2vs0mg"},{"bike_id":"c90c9da6-c722-453e-86cd-1cf20043cd75","system_id":"levelo_inurba_marseille","lat":43.25705,"lon":5.41118,"is_reserved":false,"is_disabled":false,"rental_uris":{"android":"levelo://app?vid=c90c9da6-c722-453e-86cd-1cf20043cd75","ios":"levelo://app?vid=c90c9da6-c722-453e-86cd-1cf20043cd75"},"vehicle_type_id":"4","last_reported":1751497835,"current_range_meters":10000,"station_id":"ce4bhkp2rcd13ifvqgd0","pricing_plan_id":"cebpf4jnsgd1na2vs0mg"},{"bike_id":"9d5fa8aa-08be-434e-b963-3eef13e2040c","system_id":"levelo_inurba_marseille","lat":43.23148,"lon":5.43726,"is_reserved":false,"is_disabled":false,"rental_uris":{"android":"levelo://app?vid=9d5fa8aa-08be-434e-b963-3eef13e2040c","ios":"levelo://app?vid=9d5fa8aa-08be-434e-b963-3eef13e2040c"},"vehicle_type_id":"4","last_reported":1751497835,"current_range_meters":10000,"station_id":"ce4bhmp2rcd13ifvqgog","pricing_plan_id":"cebpf4jnsgd1na2vs0mg"},{"bike_id":"eb6f172f-68c2-4fbc-b984-276818caa76a","system_id":"levelo_inurba_marseille","lat":43.293129,"lon":5.439146,"is_reserved":false,"is_disabled":false,"rental_uris":{"android":"levelo://app?vid=eb6f172f-68c2-4fbc-b984-276818caa76a","ios":"levelo://app?vid=eb6f172f-68c2-4fbc-b984-276818caa76a"},"vehicle_type_id":"4","last_reported":1751497835,"current_range_meters":10800,"station_id":"","pricing_plan_id":"cebpf4jnsgd1na2vs0mg"},{"bike_id":"78bce277-1d8f-46d7-bbbd-8bd4a7d49fa7","system_id":"levelo_inurba_marseille","lat":43.31494,"lon":5.37293,"is_reserved":false,"is_disabled":false,"rental_uris":{"android":"levelo://app?vid=78bce277-1d8f-46d7-bbbd-8bd4a7d49fa7","ios":"levelo://app?vid=78bce277-1d8f-46d7-bbbd-8bd4a7d49fa7"},"vehicle_type_id":"4","last_reported":1751497835,"current_range_meters":10800,"station_id":"ce4bgt12rcd13ifvqcd0","pricing_plan_id":"cebpf4jnsgd1na2vs0mg"},{"bike_id":"53eab548-c9ae-4b06-bcf9-65448b096482","system_id":"levelo_inurba_marseille","lat":43.28858,"lon":5.39303,"is_reserved":false,"is_disabled":false,"rental_uris":{"android":"levelo://app?vid=53eab548-c9ae-4b06-bcf9-65448b096482","ios":"levelo://app?vid=53eab548-c9ae-4b06-bcf9-65448b096482"},"vehicle_type_id":"4","last_reported":1751497835,"current_range_meters":10800,"station_id":"ce4bh2p2rcd13ifvqdi0","pricing_plan_id":"cebpf4jnsgd1na2vs0mg"},{"bike_id":"77a8aa44-ccc3-4411-92e2-24abedbedb2c","system_id":"levelo_inurba_marseille","lat":43.28852,"lon":5.39323,"is_reserved":false,"is_disabled":false,"rental_uris":{"android":"levelo://app?vid=77a8aa44-ccc3-4411-92e2-24abedbedb2c","ios":"levelo://app?vid=77a8aa44-ccc3-4411-92e2-24abedbedb2c"},"vehicle_type_id":"4","last_reported":1751497835,"current_range_meters":10800,"station_id":"ce4bh2p2rcd13ifvqdi0","pricing_plan_id":"cebpf4jnsgd1na2vs0mg"},{"bike_id":"aa0e1ca4-5556-4238-a84b-948deac34c82","system_id":"levelo_inurba_marseille","lat":43.28343,"lon":5.38114,"is_reserved":false,"is_disabled":false,"rental_uris":{"android":"levelo://app?vid=aa0e1ca4-5556-4238-a84b-948deac34c82","ios":"levelo://app?vid=aa0e1ca4-5556-4238-a84b-948deac34c82"},"vehicle_type_id":"4","last_reported":1751497835,"current_range_meters":10800,"station_id":"ce4bh412rcd13ifvqdr0","pricing_plan_id":"cebpf4jnsgd1na2vs0mg"},{"bike_id":"132b23ac-fe68-465e-a140-d27c98616424","system_id":"levelo_inurba_marseille","lat":43.28641,"lon":5.40081,"is_reserved":false,"is_disabled":false,"rental_uris":{"android":"levelo://app?vid=132b23ac-fe68-465e-a140-d27c98616424","ios":"levelo://app?vid=132b23ac-fe68-465e-a140-d27c98616424"},"vehicle_type_id":"4","last_reported":1751497835,"current_range_meters":10800,"station_id":"ce4bho92rcd13ifvqh3g","pricing_plan_id":"cebpf4jnsgd1na2vs0mg"},{"bike_id":"c357dccb-973a-4123-a0c0-b95d3e1fcdb2","system_id":"levelo_inurba_marseille","lat":43.29558,"lon":5.422906,"is_reserved":false,"is_disabled":false,"rental_uris":{"android":"levelo://app?vid=c357dccb-973a-4123-a0c0-b95d3e1fcdb2","ios":"levelo://app?vid=c357dccb-973a-4123-a0c0-b95d3e1fcdb2"},"vehicle_type_id":"4","last_reported":1751497835,"current_range_meters":10800,"station_id":"ce4bhph2rcd13ifvqhdg","pricing_plan_id":"cebpf4jnsgd1na2vs0mg"},{"bike_id":"b28aa0a0-791c-4a08-9a16-c7bf6ea0ed5a","system_id":"levelo_inurba_marseille","lat":43.22477,"lon":5.348,"is_reserved":false,"is_disabled":false,"rental_uris":{"android":"levelo://app?vid=b28aa0a0-791c-4a08-9a16-c7bf6ea0ed5a","ios":"levelo://app?vid=b28aa0a0-791c-4a08-9a16-c7bf6ea0ed5a"},"vehicle_type_id":"4","last_reported":1751497835,"current_range_meters":10800,"station_id":"st_cvj5dfep6f1abm77gieg","pricing_plan_id":"cebpf4jnsgd1na2vs0mg"},{"bike_id":"d16b9dec-c438-4000-91c8-6cda5b0545dc","system_id":"levelo_inurba_marseille","lat":43.24892,"lon":5.37526,"is_reserved":false,"is_disabled":false,"rental_uris":{"android":"levelo://app?vid=d16b9dec-c438-4000-91c8-6cda5b0545dc","ios":"levelo://app?vid=d16b9dec-c438-4000-91c8-6cda5b0545dc"},"vehicle_type_id":"4","last_reported":1751497835,"current_range_meters":11200,"station_id":"","pricing_plan_id":"cebpf4jnsgd1na2vs0mg"},{"bike_id":"5508769a-e540-4ee2-a165-4ca58bfaffab","system_id":"levelo_inurba_marseille","lat":43.302975,"lon":5.39213,"is_reserved":false,"is_disabled":false,"rental_uris":{"android":"levelo://app?vid=5508769a-e540-4ee2-a165-4ca58bfaffab","ios":"levelo://app?vid=5508769a-e540-4ee2-a165-4ca58bfaffab"},"vehicle_type_id":"4","last_reported":1751497835,"current_range_meters":11200,"station_id":"ce4bgkh2rcd13ifvqbk0","pricing_plan_id":"cebpf4jnsgd1na2vs0mg"},{"bike_id":"d0153f08-65a6-4010-a4da-412b805362a5","system_id":"levelo_inurba_marseille","lat":43.30797,"lon":5.38164,"is_reserved":false,"is_disabled":false,"rental_uris":{"android":"levelo://app?vid=d0153f08-65a6-4010-a4da-412b805362a5","ios":"levelo://app?vid=d0153f08-65a6-4010-a4da-412b805362a5"},"vehicle_type_id":"4","last_reported":1751497835,"current_range_meters":11200,"station_id":"ce4bgt12rcd13ifvqce0","pricing_plan_id":"cebpf4jnsgd1na2vs0mg"},{"bike_id":"c2cc3873-3136-4ba7-984d-6514f2a6bcc2","system_id":"levelo_inurba_marseille","lat":43.26692,"lon":5.3827,"is_reserved":false,"is_disabled":false,"rental_uris":{"android":"levelo://app?vid=c2cc3873-3136-4ba7-984d-6514f2a6bcc2","ios":"levelo://app?vid=c2cc3873-3136-4ba7-984d-6514f2a6bcc2"},"vehicle_type_id":"4","last_reported":1751497835,"current_range_meters":11200,"station_id":"ce4bhg92rcd13ifvqf90","pricing_plan_id":"cebpf4jnsgd1na2vs0mg"},{"bike_id":"15685ff9-4ea7-4801-9755-adfa9b50a352","system_id":"levelo_inurba_marseille","lat":43.30434,"lon":5.3888,"is_reserved":false,"is_disabled":false,"rental_uris":{"android":"levelo://app?vid=15685ff9-4ea7-4801-9755-adfa9b50a352","ios":"levelo://app?vid=15685ff9-4ea7-4801-9755-adfa9b50a352"},"vehicle_type_id":"4","last_reported":1751497835,"current_range_meters":11600,"station_id":"ce4bgk12rcd13ifvqbi0","pricing_plan_id":"cebpf4jnsgd1na2vs0mg"},{"bike_id":"6f187575-31af-4e1c-b0e1-6d77c6f2f751","system_id":"levelo_inurba_marseille","lat":43.286628,"lon":5.386752,"is_reserved":false,"is_disabled":false,"rental_uris":{"android":"levelo://app?vid=6f187575-31af-4e1c-b0e1-6d77c6f2f751","ios":"levelo://app?vid=6f187575-31af-4e1c-b0e1-6d77c6f2f751"},"vehicle_type_id":"4","last_reported":1751497835,"current_range_meters":11600,"station_id":"ce4bh492rcd13ifvqdug","pricing_plan_id":"cebpf4jnsgd1na2vs0mg"},{"bike_id":"cc7a4414-2de6-47aa-8a43-b8db10d13620","system_id":"levelo_inurba_marseille","lat":43.25074,"lon":5.39506,"is_reserved":false,"is_disabled":false,"rental_uris":{"android":"levelo://app?vid=cc7a4414-2de6-47aa-8a43-b8db10d13620","ios":"levelo://app?vid=cc7a4414-2de6-47aa-8a43-b8db10d13620"},"vehicle_type_id":"4","last_reported":1751497835,"current_range_meters":11600,"station_id":"ce4bhm12rcd13ifvqgkg","pricing_plan_id":"cebpf4jnsgd1na2vs0mg"},{"bike_id":"f5469626-344e-4334-9049-486e9f34a090","system_id":"levelo_inurba_marseille","lat":43.32067,"lon":5.36793,"is_reserved":false,"is_disabled":false,"rental_uris":{"android":"levelo://app?vid=f5469626-344e-4334-9049-486e9f34a090","ios":"levelo://app?vid=f5469626-344e-4334-9049-486e9f34a090"},"vehicle_type_id":"4","last_reported":1751497835,"current_range_meters":11600,"station_id":"ce4bhrh2rcd13ifvqhug","pricing_plan_id":"cebpf4jnsgd1na2vs0mg"},{"bike_id":"7e62b058-a7ed-4634-80f1-04d3de596de7","system_id":"levelo_inurba_marseille","lat":43.29846,"lon":5.36825,"is_reserved":false,"is_disabled":false,"rental_uris":{"android":"levelo://app?vid=7e62b058-a7ed-4634-80f1-04d3de596de7","ios":"levelo://app?vid=7e62b058-a7ed-4634-80f1-04d3de596de7"},"vehicle_type_id":"4","last_reported":1751497835,"current_range_meters":12000,"station_id":"","pricing_plan_id":"cebpf4jnsgd1na2vs0mg"},{"bike_id":"bf00a211-3496-4df0-8e4e-99767047ca09","system_id":"levelo_inurba_marseille","lat":43.29972,"lon":5.37639,"is_reserved":false,"is_disabled":false,"rental_uris":{"android":"levelo://app?vid=bf00a211-3496-4df0-8e4e-99767047ca09","ios":"levelo://app?vid=bf00a211-3496-4df0-8e4e-99767047ca09"},"vehicle_type_id":"4","last_reported":1751497835,"current_range_meters":12000,"station_id":"","pricing_plan_id":"cebpf4jnsgd1na2vs0mg"},{"bike_id":"e26ba497-efc7-4420-b8c5-9fa5e27f2ce4","system_id":"levelo_inurba_marseille","lat":43.31353,"lon":5.3707,"is_reserved":false,"is_disabled":false,"rental_uris":{"android":"levelo://app?vid=e26ba497-efc7-4420-b8c5-9fa5e27f2ce4","ios":"levelo://app?vid=e26ba497-efc7-4420-b8c5-9fa5e27f2ce4"},"vehicle_type_id":"4","last_reported":1751497835,"current_range_meters":12000,"station_id":"","pricing_plan_id":"cebpf4jnsgd1na2vs0mg"},{"bike_id":"cb82481d-3fdd-44c6-a6dd-53e8df93963e","system_id":"levelo_inurba_marseille","lat":43.28403,"lon":5.37517,"is_reserved":false,"is_disabled":false,"rental_uris":{"android":"levelo://app?vid=cb82481d-3fdd-44c6-a6dd-53e8df93963e","ios":"levelo://app?vid=cb82481d-3fdd-44c6-a6dd-53e8df93963e"},"vehicle_type_id":"4","last_reported":1751497835,"current_range_meters":12000,"station_id":"ce4bh412rcd13ifvqds0","pricing_plan_id":"cebpf4jnsgd1na2vs0mg"},{"bike_id":"c754639b-9660-4f95-954a-6799cf788ce2","system_id":"levelo_inurba_marseille","lat":43.26492,"lon":5.39542,"is_reserved":false,"is_disabled":false,"rental_uris":{"android":"levelo://app?vid=c754639b-9660-4f95-954a-6799cf788ce2","ios":"levelo://app?vid=c754639b-9660-4f95-954a-6799cf788ce2"},"vehicle_type_id":"4","last_reported":1751497835,"current_range_meters":12000,"station_id":"ce4bhi12rcd13ifvqfq0","pricing_plan_id":"cebpf4jnsgd1na2vs0mg"},{"bike_id":"ae698825-2b59-4495-8ad5-6cc2b8bb90e6","system_id":"levelo_inurba_marseille","lat":43.27176,"lon":5.41002,"is_reserved":false,"is_disabled":false,"rental_uris":{"android":"levelo://app?vid=ae698825-2b59-4495-8ad5-6cc2b8bb90e6","ios":"levelo://app?vid=ae698825-2b59-4495-8ad5-6cc2b8bb90e6"},"vehicle_type_id":"4","last_reported":1751497835,"current_range_meters":12000,"station_id":"ce4bhl12rcd13ifvqgf0","pricing_plan_id":"cebpf4jnsgd1na2vs0mg"},{"bike_id":"14291010-175d-42f0-a4a5-2d79bae5a826","system_id":"levelo_inurba_marseille","lat":43.250853,"lon":5.39524,"is_reserved":false,"is_disabled":false,"rental_uris":{"android":"levelo://app?vid=14291010-175d-42f0-a4a5-2d79bae5a826","ios":"levelo://app?vid=14291010-175d-42f0-a4a5-2d79bae5a826"},"vehicle_type_id":"4","last_reported":1751497835,"current_range_meters":12000,"station_id":"ce4bhm12rcd13ifvqgkg","pricing_plan_id":"cebpf4jnsgd1na2vs0mg"},{"bike_id":"54557343-aa5d-425a-86c5-c48dce2d8949","system_id":"levelo_inurba_marseille","lat":43.29031,"lon":5.39963,"is_reserved":false,"is_disabled":false,"rental_uris":{"android":"levelo://app?vid=54557343-aa5d-425a-86c5-c48dce2d8949","ios":"levelo://app?vid=54557343-aa5d-425a-86c5-c48dce2d8949"},"vehicle_type_id":"4","last_reported":1751497835,"current_range_meters":12400,"station_id":"ce4bh392rcd13ifvqdm0","pricing_plan_id":"cebpf4jnsgd1na2vs0mg"},{"bike_id":"cfb0ee6b-1a46-4a6c-a94e-50353c17fcc1","system_id":"levelo_inurba_marseille","lat":43.3046,"lon":5.37911,"is_reserved":false,"is_disabled":false,"rental_uris":{"android":"levelo://app?vid=cfb0ee6b-1a46-4a6c-a94e-50353c17fcc1","ios":"levelo://app?vid=cfb0ee6b-1a46-4a6c-a94e-50353c17fcc1"},"vehicle_type_id":"4","last_reported":1751497835,"current_range_meters":12800,"station_id":"ce4bgup2rcd13ifvqcn0","pricing_plan_id":"cebpf4jnsgd1na2vs0mg"},{"bike_id":"81a5c92d-28eb-4459-bc2d-cbe1bad60ae7","system_id":"levelo_inurba_marseille","lat":43.29569,"lon":5.39983,"is_reserved":false,"is_disabled":false,"rental_uris":{"android":"levelo://app?vid=81a5c92d-28eb-4459-bc2d-cbe1bad60ae7","ios":"levelo://app?vid=81a5c92d-28eb-4459-bc2d-cbe1bad60ae7"},"vehicle_type_id":"4","last_reported":1751497835,"current_range_meters":12800,"station_id":"ce4bh312rcd13ifvqdj0","pricing_plan_id":"cebpf4jnsgd1na2vs0mg"},{"bike_id":"56eb3fdf-ea87-4fcf-85df-3680fa66363e","system_id":"levelo_inurba_marseille","lat":43.225163,"lon":5.347893,"is_reserved":false,"is_disabled":false,"rental_uris":{"android":"levelo://app?vid=56eb3fdf-ea87-4fcf-85df-3680fa66363e","ios":"levelo://app?vid=56eb3fdf-ea87-4fcf-85df-3680fa66363e"},"vehicle_type_id":"4","last_reported":1751497835,"current_range_meters":12800,"station_id":"st_cvj5dfep6f1abm77gieg","pricing_plan_id":"cebpf4jnsgd1na2vs0mg"},{"bike_id":"bcfd0eda-b9ab-4bec-9ca3-3f2b86617415","system_id":"levelo_inurba_marseille","lat":43.21189,"lon":5.35078,"is_reserved":false,"is_disabled":false,"rental_uris":{"android":"levelo://app?vid=bcfd0eda-b9ab-4bec-9ca3-3f2b86617415","ios":"levelo://app?vid=bcfd0eda-b9ab-4bec-9ca3-3f2b86617415"},"vehicle_type_id":"4","last_reported":1751497835,"current_range_meters":12800,"station_id":"st_cvj6sg6p6f1abm77japg","pricing_plan_id":"cebpf4jnsgd1na2vs0mg"},{"bike_id":"17ad145c-f881-4017-969d-c8638a36a818","system_id":"levelo_inurba_marseille","lat":43.26515,"lon":5.39044,"is_reserved":false,"is_disabled":false,"rental_uris":{"android":"levelo://app?vid=17ad145c-f881-4017-969d-c8638a36a818","ios":"levelo://app?vid=17ad145c-f881-4017-969d-c8638a36a818"},"vehicle_type_id":"4","last_reported":1751497835,"current_range_meters":13600,"station_id":"","pricing_plan_id":"cebpf4jnsgd1na2vs0mg"},{"bike_id":"9f4d3d14-e470-4ede-baac-761a7ff86bea","system_id":"levelo_inurba_marseille","lat":43.29865,"lon":5.39734,"is_reserved":false,"is_disabled":false,"rental_uris":{"android":"levelo://app?vid=9f4d3d14-e470-4ede-baac-761a7ff86bea","ios":"levelo://app?vid=9f4d3d14-e470-4ede-baac-761a7ff86bea"},"vehicle_type_id":"4","last_reported":1751497835,"current_range_meters":13600,"station_id":"ce4bh0h2rcd13ifvqd50","pricing_plan_id":"cebpf4jnsgd1na2vs0mg"},{"bike_id":"bbd9d48f-0f1e-446b-8873-48cd4909c43d","system_id":"levelo_inurba_marseille","lat":43.24679,"lon":5.38118,"is_reserved":false,"is_disabled":false,"rental_uris":{"android":"levelo://app?vid=bbd9d48f-0f1e-446b-8873-48cd4909c43d","ios":"levelo://app?vid=bbd9d48f-0f1e-446b-8873-48cd4909c43d"},"vehicle_type_id":"4","last_reported":1751497835,"current_range_meters":13600,"station_id":"ce4bhih2rcd13ifvqfr0","pricing_plan_id":"cebpf4jnsgd1na2vs0mg"},{"bike_id":"b50da02d-1fb5-4383-a93d-332785610080","system_id":"levelo_inurba_marseille","lat":43.21759,"lon":5.34621,"is_reserved":false,"is_disabled":false,"rental_uris":{"android":"levelo://app?vid=b50da02d-1fb5-4383-a93d-332785610080","ios":"levelo://app?vid=b50da02d-1fb5-4383-a93d-332785610080"},"vehicle_type_id":"4","last_reported":1751497835,"current_range_meters":13600,"station_id":"st_cvj6r9ubvosntc0bgbag","pricing_plan_id":"cebpf4jnsgd1na2vs0mg"},{"bike_id":"38bac79f-e35b-4649-a124-62df32b2dd19","system_id":"levelo_inurba_marseille","lat":43.31175,"lon":5.38712,"is_reserved":false,"is_disabled":false,"rental_uris":{"android":"levelo://app?vid=38bac79f-e35b-4649-a124-62df32b2dd19","ios":"levelo://app?vid=38bac79f-e35b-4649-a124-62df32b2dd19"},"vehicle_type_id":"4","last_reported":1751497835,"current_range_meters":14000,"station_id":"ce4bgv12rcd13ifvqcp0","pricing_plan_id":"cebpf4jnsgd1na2vs0mg"},{"bike_id":"60cd62dc-581f-4cd5-9719-c6ca43172d75","system_id":"levelo_inurba_marseille","lat":43.29193,"lon":5.39323,"is_reserved":false,"is_disabled":false,"rental_uris":{"android":"levelo://app?vid=60cd62dc-581f-4cd5-9719-c6ca43172d75","ios":"levelo://app?vid=60cd62dc-581f-4cd5-9719-c6ca43172d75"},"vehicle_type_id":"4","last_reported":1751497835,"current_range_meters":14000,"station_id":"ce4bh192rcd13ifvqdd0","pricing_plan_id":"cebpf4jnsgd1na2vs0mg"},{"bike_id":"d86436f8-f523-4db0-8e2c-cda1e0e0211e","system_id":"levelo_inurba_marseille","lat":43.28028,"lon":5.3694,"is_reserved":false,"is_disabled":false,"rental_uris":{"android":"levelo://app?vid=d86436f8-f523-4db0-8e2c-cda1e0e0211e","ios":"levelo://app?vid=d86436f8-f523-4db0-8e2c-cda1e0e0211e"},"vehicle_type_id":"4","last_reported":1751497835,"current_range_meters":14000,"station_id":"ce4bha12rcd13ifvqef0","pricing_plan_id":"cebpf4jnsgd1na2vs0mg"},{"bike_id":"1b95998f-c622-402b-b8e8-4d1779a15cc7","system_id":"levelo_inurba_marseille","lat":43.30727,"lon":5.42443,"is_reserved":false,"is_disabled":false,"rental_uris":{"android":"levelo://app?vid=1b95998f-c622-402b-b8e8-4d1779a15cc7","ios":"levelo://app?vid=1b95998f-c622-402b-b8e8-4d1779a15cc7"},"vehicle_type_id":"4","last_reported":1751497835,"current_range_meters":14000,"station_id":"st_cvj6ca6bvosntc0bfgr0","pricing_plan_id":"cebpf4jnsgd1na2vs0mg"},{"bike_id":"110be0f7-19b6-4419-935c-8afdb1f29359","system_id":"levelo_inurba_marseille","lat":43.21183,"lon":5.35101,"is_reserved":false,"is_disabled":false,"rental_uris":{"android":"levelo://app?vid=110be0f7-19b6-4419-935c-8afdb1f29359","ios":"levelo://app?vid=110be0f7-19b6-4419-935c-8afdb1f29359"},"vehicle_type_id":"4","last_reported":1751497835,"current_range_meters":14000,"station_id":"st_cvj6sg6p6f1abm77japg","pricing_plan_id":"cebpf4jnsgd1na2vs0mg"},{"bike_id":"16a8afe6-e43e-4d1b-a7bd-ed83d113735a","system_id":"levelo_inurba_marseille","lat":43.32436,"lon":5.41185,"is_reserved":false,"is_disabled":false,"rental_uris":{"android":"levelo://app?vid=16a8afe6-e43e-4d1b-a7bd-ed83d113735a","ios":"levelo://app?vid=16a8afe6-e43e-4d1b-a7bd-ed83d113735a"},"vehicle_type_id":"4","last_reported":1751497835,"current_range_meters":14400,"station_id":"","pricing_plan_id":"cebpf4jnsgd1na2vs0mg"},{"bike_id":"fe16e5d6-c086-4644-bea1-4f57a2866519","system_id":"levelo_inurba_marseille","lat":43.28564,"lon":5.35064,"is_reserved":false,"is_disabled":false,"rental_uris":{"android":"levelo://app?vid=fe16e5d6-c086-4644-bea1-4f57a2866519","ios":"levelo://app?vid=fe16e5d6-c086-4644-bea1-4f57a2866519"},"vehicle_type_id":"4","last_reported":1751497835,"current_range_meters":14400,"station_id":"","pricing_plan_id":"cebpf4jnsgd1na2vs0mg"},{"bike_id":"2444b2da-a65b-4099-bc80-c6a50913941a","system_id":"levelo_inurba_marseille","lat":43.2953,"lon":5.385467,"is_reserved":false,"is_disabled":false,"rental_uris":{"android":"levelo://app?vid=2444b2da-a65b-4099-bc80-c6a50913941a","ios":"levelo://app?vid=2444b2da-a65b-4099-bc80-c6a50913941a"},"vehicle_type_id":"4","last_reported":1751497835,"current_range_meters":14400,"station_id":"ce4bgih2rcd13ifvqba0","pricing_plan_id":"cebpf4jnsgd1na2vs0mg"},{"bike_id":"7e0f75b3-8986-4c62-836b-8e50bf158139","system_id":"levelo_inurba_marseille","lat":43.31164,"lon":5.38712,"is_reserved":false,"is_disabled":false,"rental_uris":{"android":"levelo://app?vid=7e0f75b3-8986-4c62-836b-8e50bf158139","ios":"levelo://app?vid=7e0f75b3-8986-4c62-836b-8e50bf158139"},"vehicle_type_id":"4","last_reported":1751497835,"current_range_meters":14400,"station_id":"ce4bgv12rcd13ifvqcp0","pricing_plan_id":"cebpf4jnsgd1na2vs0mg"},{"bike_id":"fd5453c4-b513-4e66-a5c8-fb9bec973655","system_id":"levelo_inurba_marseille","lat":43.29256,"lon":5.40904,"is_reserved":false,"is_disabled":false,"rental_uris":{"android":"levelo://app?vid=fd5453c4-b513-4e66-a5c8-fb9bec973655","ios":"levelo://app?vid=fd5453c4-b513-4e66-a5c8-fb9bec973655"},"vehicle_type_id":"4","last_reported":1751497835,"current_range_meters":14400,"station_id":"ce4bh192rcd13ifvqdc0","pricing_plan_id":"cebpf4jnsgd1na2vs0mg"},{"bike_id":"92ac12aa-e52f-427a-bfcf-9ecb8d9c9b78","system_id":"levelo_inurba_marseille","lat":43.28563,"lon":5.39507,"is_reserved":false,"is_disabled":false,"rental_uris":{"android":"levelo://app?vid=92ac12aa-e52f-427a-bfcf-9ecb8d9c9b78","ios":"levelo://app?vid=92ac12aa-e52f-427a-bfcf-9ecb8d9c9b78"},"vehicle_type_id":"4","last_reported":1751497835,"current_range_meters":14400,"station_id":"ce4bh292rcd13ifvqdg0","pricing_plan_id":"cebpf4jnsgd1na2vs0mg"},{"bike_id":"bc73dab8-e684-40d1-b177-99b96779b225","system_id":"levelo_inurba_marseille","lat":43.28446,"lon":5.35891,"is_reserved":false,"is_disabled":false,"rental_uris":{"android":"levelo://app?vid=bc73dab8-e684-40d1-b177-99b96779b225","ios":"levelo://app?vid=bc73dab8-e684-40d1-b177-99b96779b225"},"vehicle_type_id":"4","last_reported":1751497835,"current_range_meters":14400,"station_id":"ce4bhah2rcd13ifvqei0","pricing_plan_id":"cebpf4jnsgd1na2vs0mg"},{"bike_id":"6d624d74-719c-4732-97ba-6cd67590db20","system_id":"levelo_inurba_marseille","lat":43.25864,"lon":5.39898,"is_reserved":false,"is_disabled":false,"rental_uris":{"android":"levelo://app?vid=6d624d74-719c-4732-97ba-6cd67590db20","ios":"levelo://app?vid=6d624d74-719c-4732-97ba-6cd67590db20"},"vehicle_type_id":"4","last_reported":1751497835,"current_range_meters":14400,"station_id":"ce4bhl92rcd13ifvqghg","pricing_plan_id":"cebpf4jnsgd1na2vs0mg"},{"bike_id":"e36eeb04-35cc-4a52-97d7-6ba58bfe555b","system_id":"levelo_inurba_marseille","lat":43.29547,"lon":5.42279,"is_reserved":false,"is_disabled":false,"rental_uris":{"android":"levelo://app?vid=e36eeb04-35cc-4a52-97d7-6ba58bfe555b","ios":"levelo://app?vid=e36eeb04-35cc-4a52-97d7-6ba58bfe555b"},"vehicle_type_id":"4","last_reported":1751497835,"current_range_meters":14400,"station_id":"ce4bhph2rcd13ifvqhdg","pricing_plan_id":"cebpf4jnsgd1na2vs0mg"},{"bike_id":"a845bc47-93f7-4e07-bad6-282a1d836dad","system_id":"levelo_inurba_marseille","lat":43.32649,"lon":5.40999,"is_reserved":false,"is_disabled":false,"rental_uris":{"android":"levelo://app?vid=a845bc47-93f7-4e07-bad6-282a1d836dad","ios":"levelo://app?vid=a845bc47-93f7-4e07-bad6-282a1d836dad"},"vehicle_type_id":"4","last_reported":1751497835,"current_range_meters":14400,"station_id":"ce4bhpp2rcd13ifvqhgg","pricing_plan_id":"cebpf4jnsgd1na2vs0mg"},{"bike_id":"1086215e-741e-4d3d-8152-035efeab1aff","system_id":"levelo_inurba_marseille","lat":43.32045,"lon":5.41547,"is_reserved":false,"is_disabled":false,"rental_uris":{"android":"levelo://app?vid=1086215e-741e-4d3d-8152-035efeab1aff","ios":"levelo://app?vid=1086215e-741e-4d3d-8152-035efeab1aff"},"vehicle_type_id":"4","last_reported":1751497835,"current_range_meters":14400,"station_id":"ce4bhq92rcd13ifvqhkg","pricing_plan_id":"cebpf4jnsgd1na2vs0mg"},{"bike_id":"959e6f20-8ed0-4d36-bc1d-3efb82d6190b","system_id":"levelo_inurba_marseille","lat":43.21187,"lon":5.35077,"is_reserved":false,"is_disabled":false,"rental_uris":{"android":"levelo://app?vid=959e6f20-8ed0-4d36-bc1d-3efb82d6190b","ios":"levelo://app?vid=959e6f20-8ed0-4d36-bc1d-3efb82d6190b"},"vehicle_type_id":"4","last_reported":1751497835,"current_range_meters":14400,"station_id":"st_cvj6sg6p6f1abm77japg","pricing_plan_id":"cebpf4jnsgd1na2vs0mg"},{"bike_id":"d96460ac-12ab-43a2-a3a5-1fc4ad6f0b36","system_id":"levelo_inurba_marseille","lat":43.303842,"lon":5.378272,"is_reserved":false,"is_disabled":false,"rental_uris":{"android":"levelo://app?vid=d96460ac-12ab-43a2-a3a5-1fc4ad6f0b36","ios":"levelo://app?vid=d96460ac-12ab-43a2-a3a5-1fc4ad6f0b36"},"vehicle_type_id":"4","last_reported":1751497835,"current_range_meters":14800,"station_id":"ce4bgup2rcd13ifvqcn0","pricing_plan_id":"cebpf4jnsgd1na2vs0mg"},{"bike_id":"6a785a02-909e-4d8a-8794-668155cdebef","system_id":"levelo_inurba_marseille","lat":43.306476,"lon":5.400894,"is_reserved":false,"is_disabled":false,"rental_uris":{"android":"levelo://app?vid=6a785a02-909e-4d8a-8794-668155cdebef","ios":"levelo://app?vid=6a785a02-909e-4d8a-8794-668155cdebef"},"vehicle_type_id":"4","last_reported":1751497835,"current_range_meters":14800,"station_id":"ce4bh112rcd13ifvqda0","pricing_plan_id":"cebpf4jnsgd1na2vs0mg"},{"bike_id":"c4368a78-1796-4a05-bdf8-6d3f1745cfe1","system_id":"levelo_inurba_marseille","lat":43.274941,"lon":5.424474,"is_reserved":false,"is_disabled":false,"rental_uris":{"android":"levelo://app?vid=c4368a78-1796-4a05-bdf8-6d3f1745cfe1","ios":"levelo://app?vid=c4368a78-1796-4a05-bdf8-6d3f1745cfe1"},"vehicle_type_id":"4","last_reported":1751497835,"current_range_meters":14800,"station_id":"ce4bhn92rcd13ifvqgrg","pricing_plan_id":"cebpf4jnsgd1na2vs0mg"},{"bike_id":"116a65fd-ba85-4855-b765-b1c858ee38ca","system_id":"levelo_inurba_marseille","lat":43.29789,"lon":5.39336,"is_reserved":false,"is_disabled":false,"rental_uris":{"android":"levelo://app?vid=116a65fd-ba85-4855-b765-b1c858ee38ca","ios":"levelo://app?vid=116a65fd-ba85-4855-b765-b1c858ee38ca"},"vehicle_type_id":"4","last_reported":1751497835,"current_range_meters":14800,"station_id":"chh1huq6cuj3fo74tm60","pricing_plan_id":"cebpf4jnsgd1na2vs0mg"},{"bike_id":"39a6c3ff-cb97-4bf6-8420-2a87cf9d7bd4","system_id":"levelo_inurba_marseille","lat":43.30294,"lon":5.39225,"is_reserved":false,"is_disabled":false,"rental_uris":{"android":"levelo://app?vid=39a6c3ff-cb97-4bf6-8420-2a87cf9d7bd4","ios":"levelo://app?vid=39a6c3ff-cb97-4bf6-8420-2a87cf9d7bd4"},"vehicle_type_id":"4","last_reported":1751497835,"current_range_meters":15200,"station_id":"ce4bgkh2rcd13ifvqbk0","pricing_plan_id":"cebpf4jnsgd1na2vs0mg"},{"bike_id":"0e030323-4386-4e72-9a0d-0f6a2ff539de","system_id":"levelo_inurba_marseille","lat":43.296104,"lon":5.405613,"is_reserved":false,"is_disabled":false,"rental_uris":{"android":"levelo://app?vid=0e030323-4386-4e72-9a0d-0f6a2ff539de","ios":"levelo://app?vid=0e030323-4386-4e72-9a0d-0f6a2ff539de"},"vehicle_type_id":"4","last_reported":1751497835,"current_range_meters":15200,"station_id":"ce4bh0h2rcd13ifvqd60","pricing_plan_id":"cebpf4jnsgd1na2vs0mg"},{"bike_id":"6e35dc9a-816b-452f-8a34-8607774709d0","system_id":"levelo_inurba_marseille","lat":43.27361,"lon":5.36264,"is_reserved":false,"is_disabled":false,"rental_uris":{"android":"levelo://app?vid=6e35dc9a-816b-452f-8a34-8607774709d0","ios":"levelo://app?vid=6e35dc9a-816b-452f-8a34-8607774709d0"},"vehicle_type_id":"4","last_reported":1751497835,"current_range_meters":15200,"station_id":"ce4bhbh2rcd13ifvqeo0","pricing_plan_id":"cebpf4jnsgd1na2vs0mg"},{"bike_id":"12c0fd30-4ad0-48a4-84c6-af35001500db","system_id":"levelo_inurba_marseille","lat":43.279508,"lon":5.387312,"is_reserved":false,"is_disabled":false,"rental_uris":{"android":"levelo://app?vid=12c0fd30-4ad0-48a4-84c6-af35001500db","ios":"levelo://app?vid=12c0fd30-4ad0-48a4-84c6-af35001500db"},"vehicle_type_id":"4","last_reported":1751497835,"current_range_meters":15200,"station_id":"ce4bhg12rcd13ifvqf80","pricing_plan_id":"cebpf4jnsgd1na2vs0mg"},{"bike_id":"64bb485e-0856-48ce-befe-bde5a394f93d","system_id":"levelo_inurba_marseille","lat":43.276339,"lon":5.388741,"is_reserved":false,"is_disabled":false,"rental_uris":{"android":"levelo://app?vid=64bb485e-0856-48ce-befe-bde5a394f93d","ios":"levelo://app?vid=64bb485e-0856-48ce-befe-bde5a394f93d"},"vehicle_type_id":"4","last_reported":1751497835,"current_range_meters":15200,"station_id":"ce4bhi12rcd13ifvqfo0","pricing_plan_id":"cebpf4jnsgd1na2vs0mg"},{"bike_id":"d5f8729b-0a18-44a6-bb76-461cfe9a522d","system_id":"levelo_inurba_marseille","lat":43.25109,"lon":5.40321,"is_reserved":false,"is_disabled":false,"rental_uris":{"android":"levelo://app?vid=d5f8729b-0a18-44a6-bb76-461cfe9a522d","ios":"levelo://app?vid=d5f8729b-0a18-44a6-bb76-461cfe9a522d"},"vehicle_type_id":"4","last_reported":1751497835,"current_range_meters":15200,"station_id":"ce4bhlh2rcd13ifvqgig","pricing_plan_id":"cebpf4jnsgd1na2vs0mg"},{"bike_id":"09a94feb-8911-4d3d-9f22-a7f611710ea1","system_id":"levelo_inurba_marseille","lat":43.21179,"lon":5.35092,"is_reserved":false,"is_disabled":false,"rental_uris":{"android":"levelo://app?vid=09a94feb-8911-4d3d-9f22-a7f611710ea1","ios":"levelo://app?vid=09a94feb-8911-4d3d-9f22-a7f611710ea1"},"vehicle_type_id":"4","last_reported":1751497835,"current_range_meters":15200,"station_id":"st_cvj6sg6p6f1abm77japg","pricing_plan_id":"cebpf4jnsgd1na2vs0mg"},{"bike_id":"63072e0c-9f69-4913-be48-96789ec98037","system_id":"levelo_inurba_marseille","lat":43.334184,"lon":5.400477,"is_reserved":false,"is_disabled":false,"rental_uris":{"android":"levelo://app?vid=63072e0c-9f69-4913-be48-96789ec98037","ios":"levelo://app?vid=63072e0c-9f69-4913-be48-96789ec98037"},"vehicle_type_id":"4","last_reported":1751497835,"current_range_meters":16000,"station_id":"","pricing_plan_id":"cebpf4jnsgd1na2vs0mg"},{"bike_id":"5d756fc8-7eff-429b-99d6-f03252413f12","system_id":"levelo_inurba_marseille","lat":43.30606,"lon":5.37181,"is_reserved":false,"is_disabled":false,"rental_uris":{"android":"levelo://app?vid=5d756fc8-7eff-429b-99d6-f03252413f12","ios":"levelo://app?vid=5d756fc8-7eff-429b-99d6-f03252413f12"},"vehicle_type_id":"4","last_reported":1751497835,"current_range_meters":16000,"station_id":"ce4bgqh2rcd13ifvqc4g","pricing_plan_id":"cebpf4jnsgd1na2vs0mg"},{"bike_id":"29cb0c3c-dacf-4851-8a83-db66a6a15b87","system_id":"levelo_inurba_marseille","lat":43.31349,"lon":5.385,"is_reserved":false,"is_disabled":false,"rental_uris":{"android":"levelo://app?vid=29cb0c3c-dacf-4851-8a83-db66a6a15b87","ios":"levelo://app?vid=29cb0c3c-dacf-4851-8a83-db66a6a15b87"},"vehicle_type_id":"4","last_reported":1751497835,"current_range_meters":16000,"station_id":"ce4bgt92rcd13ifvqcf0","pricing_plan_id":"cebpf4jnsgd1na2vs0mg"},{"bike_id":"9dbea238-2ef6-46e4-acce-4271b0047517","system_id":"levelo_inurba_marseille","lat":43.310718,"lon":5.383496,"is_reserved":false,"is_disabled":false,"rental_uris":{"android":"levelo://app?vid=9dbea238-2ef6-46e4-acce-4271b0047517","ios":"levelo://app?vid=9dbea238-2ef6-46e4-acce-4271b0047517"},"vehicle_type_id":"4","last_reported":1751497835,"current_range_meters":16000,"station_id":"ce4bgv92rcd13ifvqcr0","pricing_plan_id":"cebpf4jnsgd1na2vs0mg"},{"bike_id":"bfb5db2d-ccad-4bfa-91db-998edbed86aa","system_id":"levelo_inurba_marseille","lat":43.28405,"lon":5.37522,"is_reserved":false,"is_disabled":false,"rental_uris":{"android":"levelo://app?vid=bfb5db2d-ccad-4bfa-91db-998edbed86aa","ios":"levelo://app?vid=bfb5db2d-ccad-4bfa-91db-998edbed86aa"},"vehicle_type_id":"4","last_reported":1751497835,"current_range_meters":16000,"station_id":"ce4bh412rcd13ifvqds0","pricing_plan_id":"cebpf4jnsgd1na2vs0mg"},{"bike_id":"8027ba18-6b68-46ed-810a-bacee77786fd","system_id":"levelo_inurba_marseille","lat":43.28395,"lon":5.37536,"is_reserved":false,"is_disabled":false,"rental_uris":{"android":"levelo://app?vid=8027ba18-6b68-46ed-810a-bacee77786fd","ios":"levelo://app?vid=8027ba18-6b68-46ed-810a-bacee77786fd"},"vehicle_type_id":"4","last_reported":1751497835,"current_range_meters":16000,"station_id":"ce4bh412rcd13ifvqds0","pricing_plan_id":"cebpf4jnsgd1na2vs0mg"},{"bike_id":"6c0d24f1-3c10-4351-9923-09e6da1bd482","system_id":"levelo_inurba_marseille","lat":43.251056,"lon":5.403264,"is_reserved":false,"is_disabled":false,"rental_uris":{"android":"levelo://app?vid=6c0d24f1-3c10-4351-9923-09e6da1bd482","ios":"levelo://app?vid=6c0d24f1-3c10-4351-9923-09e6da1bd482"},"vehicle_type_id":"4","last_reported":1751497835,"current_range_meters":16000,"station_id":"ce4bhlh2rcd13ifvqgig","pricing_plan_id":"cebpf4jnsgd1na2vs0mg"},{"bike_id":"9f8ca976-1d33-4202-baf8-9442771dfdb2","system_id":"levelo_inurba_marseille","lat":43.28151,"lon":5.42642,"is_reserved":false,"is_disabled":false,"rental_uris":{"android":"levelo://app?vid=9f8ca976-1d33-4202-baf8-9442771dfdb2","ios":"levelo://app?vid=9f8ca976-1d33-4202-baf8-9442771dfdb2"},"vehicle_type_id":"4","last_reported":1751497835,"current_range_meters":16000,"station_id":"ce4bhnh2rcd13ifvqgug","pricing_plan_id":"cebpf4jnsgd1na2vs0mg"},{"bike_id":"18974184-022a-4948-a40d-04085271b61f","system_id":"levelo_inurba_marseille","lat":43.319983,"lon":5.381533,"is_reserved":false,"is_disabled":false,"rental_uris":{"android":"levelo://app?vid=18974184-022a-4948-a40d-04085271b61f","ios":"levelo://app?vid=18974184-022a-4948-a40d-04085271b61f"},"vehicle_type_id":"4","last_reported":1751497835,"current_range_meters":16000,"station_id":"ce4bhr12rcd13ifvqhpg","pricing_plan_id":"cebpf4jnsgd1na2vs0mg"},{"bike_id":"f5640490-ad4c-4ffb-8f77-c8d3e60d176c","system_id":"levelo_inurba_marseille","lat":43.33715,"lon":5.391915,"is_reserved":false,"is_disabled":false,"rental_uris":{"android":"levelo://app?vid=f5640490-ad4c-4ffb-8f77-c8d3e60d176c","ios":"levelo://app?vid=f5640490-ad4c-4ffb-8f77-c8d3e60d176c"},"vehicle_type_id":"4","last_reported":1751497835,"current_range_meters":16000,"station_id":"ce4bhr92rcd13ifvqhsg","pricing_plan_id":"cebpf4jnsgd1na2vs0mg"},{"bike_id":"8bf0d992-d2a0-428e-940a-091ee9b7c2a4","system_id":"levelo_inurba_marseille","lat":43.21189,"lon":5.35061,"is_reserved":false,"is_disabled":false,"rental_uris":{"android":"levelo://app?vid=8bf0d992-d2a0-428e-940a-091ee9b7c2a4","ios":"levelo://app?vid=8bf0d992-d2a0-428e-940a-091ee9b7c2a4"},"vehicle_type_id":"4","last_reported":1751497835,"current_range_meters":16000,"station_id":"st_cvj6sg6p6f1abm77japg","pricing_plan_id":"cebpf4jnsgd1na2vs0mg"},{"bike_id":"8a74f5cd-9efa-4362-bea7-a32db4dcc85c","system_id":"levelo_inurba_marseille","lat":43.21185,"lon":5.35072,"is_reserved":false,"is_disabled":false,"rental_uris":{"android":"levelo://app?vid=8a74f5cd-9efa-4362-bea7-a32db4dcc85c","ios":"levelo://app?vid=8a74f5cd-9efa-4362-bea7-a32db4dcc85c"},"vehicle_type_id":"4","last_reported":1751497835,"current_range_meters":16000,"station_id":"st_cvj6sg6p6f1abm77japg","pricing_plan_id":"cebpf4jnsgd1na2vs0mg"},{"bike_id":"a588469b-12ca-41c6-8c6f-3f3bda5b7f15","system_id":"levelo_inurba_marseille","lat":43.31568,"lon":5.38372,"is_reserved":false,"is_disabled":false,"rental_uris":{"android":"levelo://app?vid=a588469b-12ca-41c6-8c6f-3f3bda5b7f15","ios":"levelo://app?vid=a588469b-12ca-41c6-8c6f-3f3bda5b7f15"},"vehicle_type_id":"4","last_reported":1751497835,"current_range_meters":16400,"station_id":"","pricing_plan_id":"cebpf4jnsgd1na2vs0mg"},{"bike_id":"fbc29ac7-0ac2-4487-8d73-d24af15ed266","system_id":"levelo_inurba_marseille","lat":43.30299,"lon":5.39208,"is_reserved":false,"is_disabled":false,"rental_uris":{"android":"levelo://app?vid=fbc29ac7-0ac2-4487-8d73-d24af15ed266","ios":"levelo://app?vid=fbc29ac7-0ac2-4487-8d73-d24af15ed266"},"vehicle_type_id":"4","last_reported":1751497835,"current_range_meters":16400,"station_id":"ce4bgkh2rcd13ifvqbk0","pricing_plan_id":"cebpf4jnsgd1na2vs0mg"},{"bike_id":"ff42c446-544b-4974-b21b-72ce5c234e88","system_id":"levelo_inurba_marseille","lat":43.2928,"lon":5.40125,"is_reserved":false,"is_disabled":false,"rental_uris":{"android":"levelo://app?vid=ff42c446-544b-4974-b21b-72ce5c234e88","ios":"levelo://app?vid=ff42c446-544b-4974-b21b-72ce5c234e88"},"vehicle_type_id":"4","last_reported":1751497835,"current_range_meters":16400,"station_id":"ce4bh312rcd13ifvqdk0","pricing_plan_id":"cebpf4jnsgd1na2vs0mg"},{"bike_id":"9671bc7e-cfc8-43b8-910b-34586791d9e1","system_id":"levelo_inurba_marseille","lat":43.28435,"lon":5.39188,"is_reserved":false,"is_disabled":false,"rental_uris":{"android":"levelo://app?vid=9671bc7e-cfc8-43b8-910b-34586791d9e1","ios":"levelo://app?vid=9671bc7e-cfc8-43b8-910b-34586791d9e1"},"vehicle_type_id":"4","last_reported":1751497835,"current_range_meters":16400,"station_id":"ce4bhoh2rcd13ifvqh5g","pricing_plan_id":"cebpf4jnsgd1na2vs0mg"},{"bike_id":"c10a4283-320d-4e64-8d75-ff83e94026ba","system_id":"levelo_inurba_marseille","lat":43.21205,"lon":5.35077,"is_reserved":false,"is_disabled":false,"rental_uris":{"android":"levelo://app?vid=c10a4283-320d-4e64-8d75-ff83e94026ba","ios":"levelo://app?vid=c10a4283-320d-4e64-8d75-ff83e94026ba"},"vehicle_type_id":"4","last_reported":1751497835,"current_range_meters":16400,"station_id":"st_cvj6sg6p6f1abm77japg","pricing_plan_id":"cebpf4jnsgd1na2vs0mg"},{"bike_id":"912d67f3-78e7-48fd-8929-37f0572cfee4","system_id":"levelo_inurba_marseille","lat":43.26364,"lon":5.37398,"is_reserved":false,"is_disabled":false,"rental_uris":{"android":"levelo://app?vid=912d67f3-78e7-48fd-8929-37f0572cfee4","ios":"levelo://app?vid=912d67f3-78e7-48fd-8929-37f0572cfee4"},"vehicle_type_id":"4","last_reported":1751497835,"current_range_meters":16800,"station_id":"","pricing_plan_id":"cebpf4jnsgd1na2vs0mg"},{"bike_id":"09fae636-3f69-4553-b897-e1c9a05f7a07","system_id":"levelo_inurba_marseille","lat":43.31172,"lon":5.38755,"is_reserved":false,"is_disabled":false,"rental_uris":{"android":"levelo://app?vid=09fae636-3f69-4553-b897-e1c9a05f7a07","ios":"levelo://app?vid=09fae636-3f69-4553-b897-e1c9a05f7a07"},"vehicle_type_id":"4","last_reported":1751497835,"current_range_meters":16800,"station_id":"ce4bgv12rcd13ifvqcp0","pricing_plan_id":"cebpf4jnsgd1na2vs0mg"},{"bike_id":"f1acddb2-bdb2-48cc-a3c3-58e7e9f8eb26","system_id":"levelo_inurba_marseille","lat":43.309341,"lon":5.401429,"is_reserved":false,"is_disabled":false,"rental_uris":{"android":"levelo://app?vid=f1acddb2-bdb2-48cc-a3c3-58e7e9f8eb26","ios":"levelo://app?vid=f1acddb2-bdb2-48cc-a3c3-58e7e9f8eb26"},"vehicle_type_id":"4","last_reported":1751497835,"current_range_meters":16800,"station_id":"ce4bgvp2rcd13ifvqct0","pricing_plan_id":"cebpf4jnsgd1na2vs0mg"},{"bike_id":"16288150-6fea-48e5-95db-4eee960ebb4a","system_id":"levelo_inurba_marseille","lat":43.29541,"lon":5.39389,"is_reserved":false,"is_disabled":false,"rental_uris":{"android":"levelo://app?vid=16288150-6fea-48e5-95db-4eee960ebb4a","ios":"levelo://app?vid=16288150-6fea-48e5-95db-4eee960ebb4a"},"vehicle_type_id":"4","last_reported":1751497835,"current_range_meters":16800,"station_id":"ce4bh292rcd13ifvqdf0","pricing_plan_id":"cebpf4jnsgd1na2vs0mg"},{"bike_id":"14d13d4c-9fd3-4ffb-ae38-a780947e3d0b","system_id":"levelo_inurba_marseille","lat":43.28585,"lon":5.39488,"is_reserved":false,"is_disabled":false,"rental_uris":{"android":"levelo://app?vid=14d13d4c-9fd3-4ffb-ae38-a780947e3d0b","ios":"levelo://app?vid=14d13d4c-9fd3-4ffb-ae38-a780947e3d0b"},"vehicle_type_id":"4","last_reported":1751497835,"current_range_meters":16800,"station_id":"ce4bh292rcd13ifvqdg0","pricing_plan_id":"cebpf4jnsgd1na2vs0mg"},{"bike_id":"afa89442-abe0-42b4-a7eb-75a3e27dd984","system_id":"levelo_inurba_marseille","lat":43.24176,"lon":5.39734,"is_reserved":false,"is_disabled":false,"rental_uris":{"android":"levelo://app?vid=afa89442-abe0-42b4-a7eb-75a3e27dd984","ios":"levelo://app?vid=afa89442-abe0-42b4-a7eb-75a3e27dd984"},"vehicle_type_id":"4","last_reported":1751497835,"current_range_meters":16800,"station_id":"ce4bhn12rcd13ifvqgpg","pricing_plan_id":"cebpf4jnsgd1na2vs0mg"},{"bike_id":"ad4becc0-0281-4fb5-833b-dab4ce81a333","system_id":"levelo_inurba_marseille","lat":43.31696,"lon":5.40466,"is_reserved":false,"is_disabled":false,"rental_uris":{"android":"levelo://app?vid=ad4becc0-0281-4fb5-833b-dab4ce81a333","ios":"levelo://app?vid=ad4becc0-0281-4fb5-833b-dab4ce81a333"},"vehicle_type_id":"4","last_reported":1751497835,"current_range_meters":17200,"station_id":"ce4bh012rcd13ifvqd00","pricing_plan_id":"cebpf4jnsgd1na2vs0mg"},{"bike_id":"b96fe831-8595-457e-8f45-c0358db694b1","system_id":"levelo_inurba_marseille","lat":43.24637,"lon":5.3891,"is_reserved":false,"is_disabled":false,"rental_uris":{"android":"levelo://app?vid=b96fe831-8595-457e-8f45-c0358db694b1","ios":"levelo://app?vid=b96fe831-8595-457e-8f45-c0358db694b1"},"vehicle_type_id":"4","last_reported":1751497835,"current_range_meters":17200,"station_id":"ce4bhg12rcd13ifvqf60","pricing_plan_id":"cebpf4jnsgd1na2vs0mg"},{"bike_id":"460f39c4-75ad-4525-a2ea-c965626a9a40","system_id":"levelo_inurba_marseille","lat":43.26232,"lon":5.40453,"is_reserved":false,"is_disabled":false,"rental_uris":{"android":"levelo://app?vid=460f39c4-75ad-4525-a2ea-c965626a9a40","ios":"levelo://app?vid=460f39c4-75ad-4525-a2ea-c965626a9a40"},"vehicle_type_id":"4","last_reported":1751497835,"current_range_meters":17200,"station_id":"ce4bhmh2rcd13ifvqgmg","pricing_plan_id":"cebpf4jnsgd1na2vs0mg"},{"bike_id":"68e309f4-b1e4-4f3a-b754-9a7df441dc33","system_id":"levelo_inurba_marseille","lat":43.28172,"lon":5.4261,"is_reserved":false,"is_disabled":false,"rental_uris":{"android":"levelo://app?vid=68e309f4-b1e4-4f3a-b754-9a7df441dc33","ios":"levelo://app?vid=68e309f4-b1e4-4f3a-b754-9a7df441dc33"},"vehicle_type_id":"4","last_reported":1751497835,"current_range_meters":17200,"station_id":"ce4bhnh2rcd13ifvqgug","pricing_plan_id":"cebpf4jnsgd1na2vs0mg"},{"bike_id":"e06fa348-a70a-4143-9077-11c5f73e3e7d","system_id":"levelo_inurba_marseille","lat":43.28684,"lon":5.40024,"is_reserved":false,"is_disabled":false,"rental_uris":{"android":"levelo://app?vid=e06fa348-a70a-4143-9077-11c5f73e3e7d","ios":"levelo://app?vid=e06fa348-a70a-4143-9077-11c5f73e3e7d"},"vehicle_type_id":"4","last_reported":1751497835,"current_range_meters":17200,"station_id":"ce4bho92rcd13ifvqh3g","pricing_plan_id":"cebpf4jnsgd1na2vs0mg"},{"bike_id":"6099dc1f-1fc4-4849-808a-fb39f0d60da5","system_id":"levelo_inurba_marseille","lat":43.323333,"lon":5.406186,"is_reserved":false,"is_disabled":false,"rental_uris":{"android":"levelo://app?vid=6099dc1f-1fc4-4849-808a-fb39f0d60da5","ios":"levelo://app?vid=6099dc1f-1fc4-4849-808a-fb39f0d60da5"},"vehicle_type_id":"4","last_reported":1751497835,"current_range_meters":17200,"station_id":"ce4bhq92rcd13ifvqhjg","pricing_plan_id":"cebpf4jnsgd1na2vs0mg"},{"bike_id":"0f590c2a-c81e-469d-a7d1-2741de3642a2","system_id":"levelo_inurba_marseille","lat":43.21179,"lon":5.35094,"is_reserved":false,"is_disabled":false,"rental_uris":{"android":"levelo://app?vid=0f590c2a-c81e-469d-a7d1-2741de3642a2","ios":"levelo://app?vid=0f590c2a-c81e-469d-a7d1-2741de3642a2"},"vehicle_type_id":"4","last_reported":1751497835,"current_range_meters":17200,"station_id":"st_cvj6sg6p6f1abm77japg","pricing_plan_id":"cebpf4jnsgd1na2vs0mg"},{"bike_id":"ba154a12-11bd-42a5-958a-5992f5d043d1","system_id":"levelo_inurba_marseille","lat":43.30474,"lon":5.37092,"is_reserved":false,"is_disabled":false,"rental_uris":{"android":"levelo://app?vid=ba154a12-11bd-42a5-958a-5992f5d043d1","ios":"levelo://app?vid=ba154a12-11bd-42a5-958a-5992f5d043d1"},"vehicle_type_id":"4","last_reported":1751497835,"current_range_meters":17600,"station_id":"","pricing_plan_id":"cebpf4jnsgd1na2vs0mg"},{"bike_id":"d42071e9-0ab5-427b-ac7f-879d11e1151f","system_id":"levelo_inurba_marseille","lat":43.29041,"lon":5.39955,"is_reserved":false,"is_disabled":false,"rental_uris":{"android":"levelo://app?vid=d42071e9-0ab5-427b-ac7f-879d11e1151f","ios":"levelo://app?vid=d42071e9-0ab5-427b-ac7f-879d11e1151f"},"vehicle_type_id":"4","last_reported":1751497835,"current_range_meters":17600,"station_id":"ce4bh392rcd13ifvqdm0","pricing_plan_id":"cebpf4jnsgd1na2vs0mg"},{"bike_id":"3e1dd007-ebdd-4e7c-a38a-b43f9965d207","system_id":"levelo_inurba_marseille","lat":43.32654,"lon":5.40996,"is_reserved":false,"is_disabled":false,"rental_uris":{"android":"levelo://app?vid=3e1dd007-ebdd-4e7c-a38a-b43f9965d207","ios":"levelo://app?vid=3e1dd007-ebdd-4e7c-a38a-b43f9965d207"},"vehicle_type_id":"4","last_reported":1751497835,"current_range_meters":17600,"station_id":"ce4bhpp2rcd13ifvqhgg","pricing_plan_id":"cebpf4jnsgd1na2vs0mg"},{"bike_id":"b7bfc45a-54fe-4bda-9820-e6374b43b68e","system_id":"levelo_inurba_marseille","lat":43.30297,"lon":5.39209,"is_reserved":false,"is_disabled":false,"rental_uris":{"android":"levelo://app?vid=b7bfc45a-54fe-4bda-9820-e6374b43b68e","ios":"levelo://app?vid=b7bfc45a-54fe-4bda-9820-e6374b43b68e"},"vehicle_type_id":"4","last_reported":1751497835,"current_range_meters":18000,"station_id":"ce4bgkh2rcd13ifvqbk0","pricing_plan_id":"cebpf4jnsgd1na2vs0mg"},{"bike_id":"6381fed5-8a74-48cb-bdfc-e16a9a5ba26a","system_id":"levelo_inurba_marseille","lat":43.307793,"lon":5.376633,"is_reserved":false,"is_disabled":false,"rental_uris":{"android":"levelo://app?vid=6381fed5-8a74-48cb-bdfc-e16a9a5ba26a","ios":"levelo://app?vid=6381fed5-8a74-48cb-bdfc-e16a9a5ba26a"},"vehicle_type_id":"4","last_reported":1751497835,"current_range_meters":18000,"station_id":"ce4bgv92rcd13ifvqcq0","pricing_plan_id":"cebpf4jnsgd1na2vs0mg"},{"bike_id":"2f5dcdfb-9a33-47dc-a5d7-d61b78a2d713","system_id":"levelo_inurba_marseille","lat":43.29567,"lon":5.39983,"is_reserved":false,"is_disabled":false,"rental_uris":{"android":"levelo://app?vid=2f5dcdfb-9a33-47dc-a5d7-d61b78a2d713","ios":"levelo://app?vid=2f5dcdfb-9a33-47dc-a5d7-d61b78a2d713"},"vehicle_type_id":"4","last_reported":1751497835,"current_range_meters":18000,"station_id":"ce4bh312rcd13ifvqdj0","pricing_plan_id":"cebpf4jnsgd1na2vs0mg"},{"bike_id":"772debc4-7a23-48ac-9b74-f20080f28919","system_id":"levelo_inurba_marseille","lat":43.25869,"lon":5.39898,"is_reserved":false,"is_disabled":false,"rental_uris":{"android":"levelo://app?vid=772debc4-7a23-48ac-9b74-f20080f28919","ios":"levelo://app?vid=772debc4-7a23-48ac-9b74-f20080f28919"},"vehicle_type_id":"4","last_reported":1751497835,"current_range_meters":18000,"station_id":"ce4bhl92rcd13ifvqghg","pricing_plan_id":"cebpf4jnsgd1na2vs0mg"},{"bike_id":"37b84a38-055a-4a6e-a56a-8ff3d0c1b2ec","system_id":"levelo_inurba_marseille","lat":43.21179,"lon":5.35057,"is_reserved":false,"is_disabled":false,"rental_uris":{"android":"levelo://app?vid=37b84a38-055a-4a6e-a56a-8ff3d0c1b2ec","ios":"levelo://app?vid=37b84a38-055a-4a6e-a56a-8ff3d0c1b2ec"},"vehicle_type_id":"4","last_reported":1751497835,"current_range_meters":18000,"station_id":"st_cvj6sg6p6f1abm77japg","pricing_plan_id":"cebpf4jnsgd1na2vs0mg"},{"bike_id":"0c5e46df-9adb-4aa5-842c-17a1961c0106","system_id":"levelo_inurba_marseille","lat":43.279884,"lon":5.407087,"is_reserved":false,"is_disabled":false,"rental_uris":{"android":"levelo://app?vid=0c5e46df-9adb-4aa5-842c-17a1961c0106","ios":"levelo://app?vid=0c5e46df-9adb-4aa5-842c-17a1961c0106"},"vehicle_type_id":"4","last_reported":1751497835,"current_range_meters":18800,"station_id":"","pricing_plan_id":"cebpf4jnsgd1na2vs0mg"},{"bike_id":"0c9664b8-ad92-4e52-996b-b5a37d9410bf","system_id":"levelo_inurba_marseille","lat":43.301,"lon":5.39093,"is_reserved":false,"is_disabled":false,"rental_uris":{"android":"levelo://app?vid=0c9664b8-ad92-4e52-996b-b5a37d9410bf","ios":"levelo://app?vid=0c9664b8-ad92-4e52-996b-b5a37d9410bf"},"vehicle_type_id":"4","last_reported":1751497835,"current_range_meters":18800,"station_id":"ce4bh192rcd13ifvqdb0","pricing_plan_id":"cebpf4jnsgd1na2vs0mg"},{"bike_id":"4d4995e7-0bba-4ac2-a238-afd84a5e99b5","system_id":"levelo_inurba_marseille","lat":43.304848,"lon":5.398345,"is_reserved":false,"is_disabled":false,"rental_uris":{"android":"levelo://app?vid=4d4995e7-0bba-4ac2-a238-afd84a5e99b5","ios":"levelo://app?vid=4d4995e7-0bba-4ac2-a238-afd84a5e99b5"},"vehicle_type_id":"4","last_reported":1751497835,"current_range_meters":19200,"station_id":"","pricing_plan_id":"cebpf4jnsgd1na2vs0mg"},{"bike_id":"50bb0fdb-2cc1-4d8d-af26-b7febba54985","system_id":"levelo_inurba_marseille","lat":43.274139,"lon":5.39007,"is_reserved":false,"is_disabled":false,"rental_uris":{"android":"levelo://app?vid=50bb0fdb-2cc1-4d8d-af26-b7febba54985","ios":"levelo://app?vid=50bb0fdb-2cc1-4d8d-af26-b7febba54985"},"vehicle_type_id":"4","last_reported":1751497835,"current_range_meters":19200,"station_id":"","pricing_plan_id":"cebpf4jnsgd1na2vs0mg"},{"bike_id":"33b9e453-2b80-49f6-b34b-e32ec38b9d97","system_id":"levelo_inurba_marseille","lat":43.30302,"lon":5.39205,"is_reserved":false,"is_disabled":false,"rental_uris":{"android":"levelo://app?vid=33b9e453-2b80-49f6-b34b-e32ec38b9d97","ios":"levelo://app?vid=33b9e453-2b80-49f6-b34b-e32ec38b9d97"},"vehicle_type_id":"4","last_reported":1751497835,"current_range_meters":19200,"station_id":"ce4bgkh2rcd13ifvqbk0","pricing_plan_id":"cebpf4jnsgd1na2vs0mg"},{"bike_id":"1f378b1f-54e0-42c0-986b-0ae91e2ba79c","system_id":"levelo_inurba_marseille","lat":43.31113,"lon":5.37773,"is_reserved":false,"is_disabled":false,"rental_uris":{"android":"levelo://app?vid=1f378b1f-54e0-42c0-986b-0ae91e2ba79c","ios":"levelo://app?vid=1f378b1f-54e0-42c0-986b-0ae91e2ba79c"},"vehicle_type_id":"4","last_reported":1751497835,"current_range_meters":19200,"station_id":"ce4bgt92rcd13ifvqcg0","pricing_plan_id":"cebpf4jnsgd1na2vs0mg"},{"bike_id":"afc674af-1cfb-4db9-b4f3-736204ee0c0c","system_id":"levelo_inurba_marseille","lat":43.3117,"lon":5.3872,"is_reserved":false,"is_disabled":false,"rental_uris":{"android":"levelo://app?vid=afc674af-1cfb-4db9-b4f3-736204ee0c0c","ios":"levelo://app?vid=afc674af-1cfb-4db9-b4f3-736204ee0c0c"},"vehicle_type_id":"4","last_reported":1751497835,"current_range_meters":19200,"station_id":"ce4bgv12rcd13ifvqcp0","pricing_plan_id":"cebpf4jnsgd1na2vs0mg"},{"bike_id":"83df4f7b-fca4-4067-8a38-a56a81a232b9","system_id":"levelo_inurba_marseille","lat":43.30758,"lon":5.37655,"is_reserved":false,"is_disabled":false,"rental_uris":{"android":"levelo://app?vid=83df4f7b-fca4-4067-8a38-a56a81a232b9","ios":"levelo://app?vid=83df4f7b-fca4-4067-8a38-a56a81a232b9"},"vehicle_type_id":"4","last_reported":1751497835,"current_range_meters":19200,"station_id":"ce4bgv92rcd13ifvqcq0","pricing_plan_id":"cebpf4jnsgd1na2vs0mg"},{"bike_id":"b9bfa747-2fd4-4e3f-a053-b8466f6a1cdc","system_id":"levelo_inurba_marseille","lat":43.30418,"lon":5.39749,"is_reserved":false,"is_disabled":false,"rental_uris":{"android":"levelo://app?vid=b9bfa747-2fd4-4e3f-a053-b8466f6a1cdc","ios":"levelo://app?vid=b9bfa747-2fd4-4e3f-a053-b8466f6a1cdc"},"vehicle_type_id":"4","last_reported":1751497835,"current_range_meters":19200,"station_id":"ce4bh092rcd13ifvqd20","pricing_plan_id":"cebpf4jnsgd1na2vs0mg"},{"bike_id":"e6d5bc12-e513-434b-ad40-ec7ecd2d2673","system_id":"levelo_inurba_marseille","lat":43.296347,"lon":5.405965,"is_reserved":false,"is_disabled":false,"rental_uris":{"android":"levelo://app?vid=e6d5bc12-e513-434b-ad40-ec7ecd2d2673","ios":"levelo://app?vid=e6d5bc12-e513-434b-ad40-ec7ecd2d2673"},"vehicle_type_id":"4","last_reported":1751497835,"current_range_meters":19200,"station_id":"ce4bh0h2rcd13ifvqd60","pricing_plan_id":"cebpf4jnsgd1na2vs0mg"},{"bike_id":"723ce655-3305-4456-bcf3-317a44e39960","system_id":"levelo_inurba_marseille","lat":43.306414,"lon":5.400917,"is_reserved":false,"is_disabled":false,"rental_uris":{"android":"levelo://app?vid=723ce655-3305-4456-bcf3-317a44e39960","ios":"levelo://app?vid=723ce655-3305-4456-bcf3-317a44e39960"},"vehicle_type_id":"4","last_reported":1751497835,"current_range_meters":19200,"station_id":"ce4bh112rcd13ifvqda0","pricing_plan_id":"cebpf4jnsgd1na2vs0mg"},{"bike_id":"f2750764-8c01-445c-84a6-a41e37f605a8","system_id":"levelo_inurba_marseille","lat":43.292779,"lon":5.401199,"is_reserved":false,"is_disabled":false,"rental_uris":{"android":"levelo://app?vid=f2750764-8c01-445c-84a6-a41e37f605a8","ios":"levelo://app?vid=f2750764-8c01-445c-84a6-a41e37f605a8"},"vehicle_type_id":"4","last_reported":1751497835,"current_range_meters":19200,"station_id":"ce4bh312rcd13ifvqdk0","pricing_plan_id":"cebpf4jnsgd1na2vs0mg"},{"bike_id":"a6715104-7492-4ec6-a996-23050baf8551","system_id":"levelo_inurba_marseille","lat":43.22488,"lon":5.34794,"is_reserved":false,"is_disabled":false,"rental_uris":{"android":"levelo://app?vid=a6715104-7492-4ec6-a996-23050baf8551","ios":"levelo://app?vid=a6715104-7492-4ec6-a996-23050baf8551"},"vehicle_type_id":"4","last_reported":1751497835,"current_range_meters":19200,"station_id":"st_cvj5dfep6f1abm77gieg","pricing_plan_id":"cebpf4jnsgd1na2vs0mg"},{"bike_id":"0a638a6c-7976-4cac-aa15-32d07db1b29a","system_id":"levelo_inurba_marseille","lat":43.30736,"lon":5.4244,"is_reserved":false,"is_disabled":false,"rental_uris":{"android":"levelo://app?vid=0a638a6c-7976-4cac-aa15-32d07db1b29a","ios":"levelo://app?vid=0a638a6c-7976-4cac-aa15-32d07db1b29a"},"vehicle_type_id":"4","last_reported":1751497835,"current_range_meters":19200,"station_id":"st_cvj6ca6bvosntc0bfgr0","pricing_plan_id":"cebpf4jnsgd1na2vs0mg"},{"bike_id":"7e21e8f2-09c8-4cc5-8113-278ebd23888d","system_id":"levelo_inurba_marseille","lat":43.21201,"lon":5.35093,"is_reserved":false,"is_disabled":false,"rental_uris":{"android":"levelo://app?vid=7e21e8f2-09c8-4cc5-8113-278ebd23888d","ios":"levelo://app?vid=7e21e8f2-09c8-4cc5-8113-278ebd23888d"},"vehicle_type_id":"4","last_reported":1751497835,"current_range_meters":19200,"station_id":"st_cvj6sg6p6f1abm77japg","pricing_plan_id":"cebpf4jnsgd1na2vs0mg"},{"bike_id":"875f8eb6-0efa-4b75-bcdf-09af6d80b846","system_id":"levelo_inurba_marseille","lat":43.29529,"lon":5.38559,"is_reserved":false,"is_disabled":false,"rental_uris":{"android":"levelo://app?vid=875f8eb6-0efa-4b75-bcdf-09af6d80b846","ios":"levelo://app?vid=875f8eb6-0efa-4b75-bcdf-09af6d80b846"},"vehicle_type_id":"4","last_reported":1751497835,"current_range_meters":19600,"station_id":"ce4bgih2rcd13ifvqba0","pricing_plan_id":"cebpf4jnsgd1na2vs0mg"},{"bike_id":"8e9660c7-1dfa-4d27-a121-57b2808f9a5c","system_id":"levelo_inurba_marseille","lat":43.30586,"lon":5.37259,"is_reserved":false,"is_disabled":false,"rental_uris":{"android":"levelo://app?vid=8e9660c7-1dfa-4d27-a121-57b2808f9a5c","ios":"levelo://app?vid=8e9660c7-1dfa-4d27-a121-57b2808f9a5c"},"vehicle_type_id":"4","last_reported":1751497835,"current_range_meters":19600,"station_id":"ce4bgqh2rcd13ifvqc4g","pricing_plan_id":"cebpf4jnsgd1na2vs0mg"},{"bike_id":"b06883e0-0dcb-4a71-9d16-964cfea4b361","system_id":"levelo_inurba_marseille","lat":43.31467,"lon":5.37343,"is_reserved":false,"is_disabled":false,"rental_uris":{"android":"levelo://app?vid=b06883e0-0dcb-4a71-9d16-964cfea4b361","ios":"levelo://app?vid=b06883e0-0dcb-4a71-9d16-964cfea4b361"},"vehicle_type_id":"4","last_reported":1751497835,"current_range_meters":19600,"station_id":"ce4bgt12rcd13ifvqcd0","pricing_plan_id":"cebpf4jnsgd1na2vs0mg"},{"bike_id":"eb6f8159-f647-45bd-86f4-6ee435b7a872","system_id":"levelo_inurba_marseille","lat":43.31117,"lon":5.3778,"is_reserved":false,"is_disabled":false,"rental_uris":{"android":"levelo://app?vid=eb6f8159-f647-45bd-86f4-6ee435b7a872","ios":"levelo://app?vid=eb6f8159-f647-45bd-86f4-6ee435b7a872"},"vehicle_type_id":"4","last_reported":1751497835,"current_range_meters":19600,"station_id":"ce4bgt92rcd13ifvqcg0","pricing_plan_id":"cebpf4jnsgd1na2vs0mg"},{"bike_id":"05655a7e-2c7e-46a8-ab33-e4b9a82e4d88","system_id":"levelo_inurba_marseille","lat":43.31309,"lon":5.39727,"is_reserved":false,"is_disabled":false,"rental_uris":{"android":"levelo://app?vid=05655a7e-2c7e-46a8-ab33-e4b9a82e4d88","ios":"levelo://app?vid=05655a7e-2c7e-46a8-ab33-e4b9a82e4d88"},"vehicle_type_id":"4","last_reported":1751497835,"current_range_meters":19600,"station_id":"ce4bgvp2rcd13ifvqcu0","pricing_plan_id":"cebpf4jnsgd1na2vs0mg"},{"bike_id":"ea1c7fe1-43cf-4953-9c42-38e00e282eb1","system_id":"levelo_inurba_marseille","lat":43.30583,"lon":5.39362,"is_reserved":false,"is_disabled":false,"rental_uris":{"android":"levelo://app?vid=ea1c7fe1-43cf-4953-9c42-38e00e282eb1","ios":"levelo://app?vid=ea1c7fe1-43cf-4953-9c42-38e00e282eb1"},"vehicle_type_id":"4","last_reported":1751497835,"current_range_meters":19600,"station_id":"ce4bh0p2rcd13ifvqd80","pricing_plan_id":"cebpf4jnsgd1na2vs0mg"},{"bike_id":"ff0897d0-cd0f-4fbe-8e8d-1c5e77cc2308","system_id":"levelo_inurba_marseille","lat":43.28655,"lon":5.36353,"is_reserved":false,"is_disabled":false,"rental_uris":{"android":"levelo://app?vid=ff0897d0-cd0f-4fbe-8e8d-1c5e77cc2308","ios":"levelo://app?vid=ff0897d0-cd0f-4fbe-8e8d-1c5e77cc2308"},"vehicle_type_id":"4","last_reported":1751497835,"current_range_meters":19600,"station_id":"ce4bhah2rcd13ifvqej0","pricing_plan_id":"cebpf4jnsgd1na2vs0mg"},{"bike_id":"b2ce53ca-166b-417e-9d70-9bee393f75bb","system_id":"levelo_inurba_marseille","lat":43.21189,"lon":5.35074,"is_reserved":false,"is_disabled":false,"rental_uris":{"android":"levelo://app?vid=b2ce53ca-166b-417e-9d70-9bee393f75bb","ios":"levelo://app?vid=b2ce53ca-166b-417e-9d70-9bee393f75bb"},"vehicle_type_id":"4","last_reported":1751497835,"current_range_meters":19600,"station_id":"st_cvj6sg6p6f1abm77japg","pricing_plan_id":"cebpf4jnsgd1na2vs0mg"},{"bike_id":"fe1efa48-03b3-4558-a972-1b4342c909d3","system_id":"levelo_inurba_marseille","lat":43.28684,"lon":5.39999,"is_reserved":false,"is_disabled":false,"rental_uris":{"android":"levelo://app?vid=fe1efa48-03b3-4558-a972-1b4342c909d3","ios":"levelo://app?vid=fe1efa48-03b3-4558-a972-1b4342c909d3"},"vehicle_type_id":"4","last_reported":1751497835,"current_range_meters":20000,"station_id":"ce4bho92rcd13ifvqh3g","pricing_plan_id":"cebpf4jnsgd1na2vs0mg"},{"bike_id":"53cf7c99-498e-46c6-bdb3-46f6cbf28c8e","system_id":"levelo_inurba_marseille","lat":43.28687,"lon":5.40001,"is_reserved":false,"is_disabled":false,"rental_uris":{"android":"levelo://app?vid=53cf7c99-498e-46c6-bdb3-46f6cbf28c8e","ios":"levelo://app?vid=53cf7c99-498e-46c6-bdb3-46f6cbf28c8e"},"vehicle_type_id":"4","last_reported":1751497835,"current_range_meters":20000,"station_id":"ce4bho92rcd13ifvqh3g","pricing_plan_id":"cebpf4jnsgd1na2vs0mg"},{"bike_id":"cc04118e-9312-4bf8-9106-d64e829afbaa","system_id":"levelo_inurba_marseille","lat":43.2119,"lon":5.35071,"is_reserved":false,"is_disabled":false,"rental_uris":{"android":"levelo://app?vid=cc04118e-9312-4bf8-9106-d64e829afbaa","ios":"levelo://app?vid=cc04118e-9312-4bf8-9106-d64e829afbaa"},"vehicle_type_id":"4","last_reported":1751497835,"current_range_meters":20000,"station_id":"st_cvj6sg6p6f1abm77japg","pricing_plan_id":"cebpf4jnsgd1na2vs0mg"},{"bike_id":"1c8ab180-05fd-405f-9922-b2b2c2d5142f","system_id":"levelo_inurba_marseille","lat":43.33765,"lon":5.38126,"is_reserved":false,"is_disabled":false,"rental_uris":{"android":"levelo://app?vid=1c8ab180-05fd-405f-9922-b2b2c2d5142f","ios":"levelo://app?vid=1c8ab180-05fd-405f-9922-b2b2c2d5142f"},"vehicle_type_id":"4","last_reported":1751497835,"current_range_meters":20400,"station_id":"","pricing_plan_id":"cebpf4jnsgd1na2vs0mg"},{"bike_id":"a37f58cf-3b95-48ef-b6de-fecb08336145","system_id":"levelo_inurba_marseille","lat":43.30938,"lon":5.40152,"is_reserved":false,"is_disabled":false,"rental_uris":{"android":"levelo://app?vid=a37f58cf-3b95-48ef-b6de-fecb08336145","ios":"levelo://app?vid=a37f58cf-3b95-48ef-b6de-fecb08336145"},"vehicle_type_id":"4","last_reported":1751497835,"current_range_meters":20400,"station_id":"ce4bgvp2rcd13ifvqct0","pricing_plan_id":"cebpf4jnsgd1na2vs0mg"},{"bike_id":"f10d6634-8e0e-404b-a2d1-83daa4ce0042","system_id":"levelo_inurba_marseille","lat":43.28856,"lon":5.39323,"is_reserved":false,"is_disabled":false,"rental_uris":{"android":"levelo://app?vid=f10d6634-8e0e-404b-a2d1-83daa4ce0042","ios":"levelo://app?vid=f10d6634-8e0e-404b-a2d1-83daa4ce0042"},"vehicle_type_id":"4","last_reported":1751497835,"current_range_meters":20400,"station_id":"ce4bh2p2rcd13ifvqdi0","pricing_plan_id":"cebpf4jnsgd1na2vs0mg"},{"bike_id":"0c401de6-85b7-4c47-9aae-7ff75e6987fd","system_id":"levelo_inurba_marseille","lat":43.250854,"lon":5.395238,"is_reserved":false,"is_disabled":false,"rental_uris":{"android":"levelo://app?vid=0c401de6-85b7-4c47-9aae-7ff75e6987fd","ios":"levelo://app?vid=0c401de6-85b7-4c47-9aae-7ff75e6987fd"},"vehicle_type_id":"4","last_reported":1751497835,"current_range_meters":20400,"station_id":"ce4bhm12rcd13ifvqgkg","pricing_plan_id":"cebpf4jnsgd1na2vs0mg"},{"bike_id":"adf5d5eb-b552-4b8a-a217-c13d7a6adc15","system_id":"levelo_inurba_marseille","lat":43.28856,"lon":5.39315,"is_reserved":false,"is_disabled":false,"rental_uris":{"android":"levelo://app?vid=adf5d5eb-b552-4b8a-a217-c13d7a6adc15","ios":"levelo://app?vid=adf5d5eb-b552-4b8a-a217-c13d7a6adc15"},"vehicle_type_id":"4","last_reported":1751497835,"current_range_meters":20800,"station_id":"ce4bh2p2rcd13ifvqdi0","pricing_plan_id":"cebpf4jnsgd1na2vs0mg"},{"bike_id":"b104ab62-283f-4496-8f7f-d1c732f16c33","system_id":"levelo_inurba_marseille","lat":43.28858,"lon":5.39334,"is_reserved":false,"is_disabled":false,"rental_uris":{"android":"levelo://app?vid=b104ab62-283f-4496-8f7f-d1c732f16c33","ios":"levelo://app?vid=b104ab62-283f-4496-8f7f-d1c732f16c33"},"vehicle_type_id":"4","last_reported":1751497835,"current_range_meters":20800,"station_id":"ce4bh2p2rcd13ifvqdi0","pricing_plan_id":"cebpf4jnsgd1na2vs0mg"},{"bike_id":"f901623c-43b8-4e24-89f4-b08216e72052","system_id":"levelo_inurba_marseille","lat":43.24384,"lon":5.37062,"is_reserved":false,"is_disabled":false,"rental_uris":{"android":"levelo://app?vid=f901623c-43b8-4e24-89f4-b08216e72052","ios":"levelo://app?vid=f901623c-43b8-4e24-89f4-b08216e72052"},"vehicle_type_id":"4","last_reported":1751497835,"current_range_meters":20800,"station_id":"ce4bhhh2rcd13ifvqfk0","pricing_plan_id":"cebpf4jnsgd1na2vs0mg"},{"bike_id":"e3c62d49-b63e-4add-8ac2-e659c328186f","system_id":"levelo_inurba_marseille","lat":43.27808,"lon":5.40723,"is_reserved":false,"is_disabled":false,"rental_uris":{"android":"levelo://app?vid=e3c62d49-b63e-4add-8ac2-e659c328186f","ios":"levelo://app?vid=e3c62d49-b63e-4add-8ac2-e659c328186f"},"vehicle_type_id":"4","last_reported":1751497835,"current_range_meters":20800,"station_id":"ce4bhnh2rcd13ifvqgtg","pricing_plan_id":"cebpf4jnsgd1na2vs0mg"},{"bike_id":"b4e8da63-abf8-4782-9532-25d8419430a5","system_id":"levelo_inurba_marseille","lat":43.30447,"lon":5.38887,"is_reserved":false,"is_disabled":false,"rental_uris":{"android":"levelo://app?vid=b4e8da63-abf8-4782-9532-25d8419430a5","ios":"levelo://app?vid=b4e8da63-abf8-4782-9532-25d8419430a5"},"vehicle_type_id":"4","last_reported":1751497835,"current_range_meters":21600,"station_id":"ce4bgk12rcd13ifvqbi0","pricing_plan_id":"cebpf4jnsgd1na2vs0mg"},{"bike_id":"6e011d2f-c526-41b2-a696-964892dd3416","system_id":"levelo_inurba_marseille","lat":43.31694,"lon":5.3781,"is_reserved":false,"is_disabled":false,"rental_uris":{"android":"levelo://app?vid=6e011d2f-c526-41b2-a696-964892dd3416","ios":"levelo://app?vid=6e011d2f-c526-41b2-a696-964892dd3416"},"vehicle_type_id":"4","last_reported":1751497835,"current_range_meters":21600,"station_id":"ce4bgth2rcd13ifvqch0","pricing_plan_id":"cebpf4jnsgd1na2vs0mg"},{"bike_id":"7076608e-fac3-4854-985d-7d5849b88389","system_id":"levelo_inurba_marseille","lat":43.30926,"lon":5.40149,"is_reserved":false,"is_disabled":false,"rental_uris":{"android":"levelo://app?vid=7076608e-fac3-4854-985d-7d5849b88389","ios":"levelo://app?vid=7076608e-fac3-4854-985d-7d5849b88389"},"vehicle_type_id":"4","last_reported":1751497835,"current_range_meters":21600,"station_id":"ce4bgvp2rcd13ifvqct0","pricing_plan_id":"cebpf4jnsgd1na2vs0mg"},{"bike_id":"561b8992-adc5-4c07-9ead-8ee0161750c1","system_id":"levelo_inurba_marseille","lat":43.29187,"lon":5.39347,"is_reserved":false,"is_disabled":false,"rental_uris":{"android":"levelo://app?vid=561b8992-adc5-4c07-9ead-8ee0161750c1","ios":"levelo://app?vid=561b8992-adc5-4c07-9ead-8ee0161750c1"},"vehicle_type_id":"4","last_reported":1751497835,"current_range_meters":21600,"station_id":"ce4bh192rcd13ifvqdd0","pricing_plan_id":"cebpf4jnsgd1na2vs0mg"},{"bike_id":"93e902d2-f27a-47f4-88b6-a0ce487dfdc7","system_id":"levelo_inurba_marseille","lat":43.28852,"lon":5.39314,"is_reserved":false,"is_disabled":false,"rental_uris":{"android":"levelo://app?vid=93e902d2-f27a-47f4-88b6-a0ce487dfdc7","ios":"levelo://app?vid=93e902d2-f27a-47f4-88b6-a0ce487dfdc7"},"vehicle_type_id":"4","last_reported":1751497835,"current_range_meters":21600,"station_id":"ce4bh2p2rcd13ifvqdi0","pricing_plan_id":"cebpf4jnsgd1na2vs0mg"},{"bike_id":"8efd6d75-c4ae-499b-9331-5ea7c2d46d89","system_id":"levelo_inurba_marseille","lat":43.288514,"lon":5.393201,"is_reserved":false,"is_disabled":false,"rental_uris":{"android":"levelo://app?vid=8efd6d75-c4ae-499b-9331-5ea7c2d46d89","ios":"levelo://app?vid=8efd6d75-c4ae-499b-9331-5ea7c2d46d89"},"vehicle_type_id":"4","last_reported":1751497835,"current_range_meters":21600,"station_id":"ce4bh2p2rcd13ifvqdi0","pricing_plan_id":"cebpf4jnsgd1na2vs0mg"},{"bike_id":"1fec5f32-8b87-4aea-b22d-0f614d28af36","system_id":"levelo_inurba_marseille","lat":43.28026,"lon":5.36961,"is_reserved":false,"is_disabled":false,"rental_uris":{"android":"levelo://app?vid=1fec5f32-8b87-4aea-b22d-0f614d28af36","ios":"levelo://app?vid=1fec5f32-8b87-4aea-b22d-0f614d28af36"},"vehicle_type_id":"4","last_reported":1751497835,"current_range_meters":21600,"station_id":"ce4bha12rcd13ifvqef0","pricing_plan_id":"cebpf4jnsgd1na2vs0mg"},{"bike_id":"da516ca5-8429-4f1e-9e8a-2c1405208d8e","system_id":"levelo_inurba_marseille","lat":43.27913,"lon":5.39579,"is_reserved":false,"is_disabled":false,"rental_uris":{"android":"levelo://app?vid=da516ca5-8429-4f1e-9e8a-2c1405208d8e","ios":"levelo://app?vid=da516ca5-8429-4f1e-9e8a-2c1405208d8e"},"vehicle_type_id":"4","last_reported":1751497835,"current_range_meters":21600,"station_id":"ce4bhf92rcd13ifvqf40","pricing_plan_id":"cebpf4jnsgd1na2vs0mg"},{"bike_id":"b13059c9-497b-4f19-aee5-05a57bd87521","system_id":"levelo_inurba_marseille","lat":43.24989,"lon":5.38934,"is_reserved":false,"is_disabled":false,"rental_uris":{"android":"levelo://app?vid=b13059c9-497b-4f19-aee5-05a57bd87521","ios":"levelo://app?vid=b13059c9-497b-4f19-aee5-05a57bd87521"},"vehicle_type_id":"4","last_reported":1751497835,"current_range_meters":21600,"station_id":"ce4bhgp2rcd13ifvqfd0","pricing_plan_id":"cebpf4jnsgd1na2vs0mg"},{"bike_id":"39a426f5-115a-45e5-bede-c3bdb1e3c555","system_id":"levelo_inurba_marseille","lat":43.25067,"lon":5.39533,"is_reserved":false,"is_disabled":false,"rental_uris":{"android":"levelo://app?vid=39a426f5-115a-45e5-bede-c3bdb1e3c555","ios":"levelo://app?vid=39a426f5-115a-45e5-bede-c3bdb1e3c555"},"vehicle_type_id":"4","last_reported":1751497835,"current_range_meters":21600,"station_id":"ce4bhm12rcd13ifvqgkg","pricing_plan_id":"cebpf4jnsgd1na2vs0mg"},{"bike_id":"b8050a88-46ca-4f61-8961-31660b3bcb42","system_id":"levelo_inurba_marseille","lat":43.28003,"lon":5.41662,"is_reserved":false,"is_disabled":false,"rental_uris":{"android":"levelo://app?vid=b8050a88-46ca-4f61-8961-31660b3bcb42","ios":"levelo://app?vid=b8050a88-46ca-4f61-8961-31660b3bcb42"},"vehicle_type_id":"4","last_reported":1751497835,"current_range_meters":21600,"station_id":"ce4bho12rcd13ifvqh1g","pricing_plan_id":"cebpf4jnsgd1na2vs0mg"},{"bike_id":"0dbbfd7c-5e93-4301-aea8-6d89ce7ed33b","system_id":"levelo_inurba_marseille","lat":43.21757,"lon":5.34625,"is_reserved":false,"is_disabled":false,"rental_uris":{"android":"levelo://app?vid=0dbbfd7c-5e93-4301-aea8-6d89ce7ed33b","ios":"levelo://app?vid=0dbbfd7c-5e93-4301-aea8-6d89ce7ed33b"},"vehicle_type_id":"4","last_reported":1751497835,"current_range_meters":21600,"station_id":"st_cvj6r9ubvosntc0bgbag","pricing_plan_id":"cebpf4jnsgd1na2vs0mg"},{"bike_id":"5f1e5526-9ff8-4075-8194-48a897f058b4","system_id":"levelo_inurba_marseille","lat":43.211937,"lon":5.350676,"is_reserved":false,"is_disabled":false,"rental_uris":{"android":"levelo://app?vid=5f1e5526-9ff8-4075-8194-48a897f058b4","ios":"levelo://app?vid=5f1e5526-9ff8-4075-8194-48a897f058b4"},"vehicle_type_id":"4","last_reported":1751497835,"current_range_meters":21600,"station_id":"st_cvj6sg6p6f1abm77japg","pricing_plan_id":"cebpf4jnsgd1na2vs0mg"},{"bike_id":"d5d751e2-1112-4345-bdeb-facfcc29c9d3","system_id":"levelo_inurba_marseille","lat":43.30432,"lon":5.38899,"is_reserved":false,"is_disabled":false,"rental_uris":{"android":"levelo://app?vid=d5d751e2-1112-4345-bdeb-facfcc29c9d3","ios":"levelo://app?vid=d5d751e2-1112-4345-bdeb-facfcc29c9d3"},"vehicle_type_id":"4","last_reported":1751497835,"current_range_meters":22000,"station_id":"ce4bgk12rcd13ifvqbi0","pricing_plan_id":"cebpf4jnsgd1na2vs0mg"},{"bike_id":"d86e72b7-c13d-43b4-8f47-cdde3cbeff94","system_id":"levelo_inurba_marseille","lat":43.3093,"lon":5.40147,"is_reserved":false,"is_disabled":false,"rental_uris":{"android":"levelo://app?vid=d86e72b7-c13d-43b4-8f47-cdde3cbeff94","ios":"levelo://app?vid=d86e72b7-c13d-43b4-8f47-cdde3cbeff94"},"vehicle_type_id":"4","last_reported":1751497835,"current_range_meters":22000,"station_id":"ce4bgvp2rcd13ifvqct0","pricing_plan_id":"cebpf4jnsgd1na2vs0mg"},{"bike_id":"d3cefdd2-b81e-4a2a-b412-7fb159d89b44","system_id":"levelo_inurba_marseille","lat":43.28718,"lon":5.37957,"is_reserved":false,"is_disabled":false,"rental_uris":{"android":"levelo://app?vid=d3cefdd2-b81e-4a2a-b412-7fb159d89b44","ios":"levelo://app?vid=d3cefdd2-b81e-4a2a-b412-7fb159d89b44"},"vehicle_type_id":"4","last_reported":1751497835,"current_range_meters":22000,"station_id":"ce4bh9p2rcd13ifvqec0","pricing_plan_id":"cebpf4jnsgd1na2vs0mg"},{"bike_id":"6f3623bd-129a-4d07-b516-53e9294419a2","system_id":"levelo_inurba_marseille","lat":43.24686,"lon":5.38156,"is_reserved":false,"is_disabled":false,"rental_uris":{"android":"levelo://app?vid=6f3623bd-129a-4d07-b516-53e9294419a2","ios":"levelo://app?vid=6f3623bd-129a-4d07-b516-53e9294419a2"},"vehicle_type_id":"4","last_reported":1751497835,"current_range_meters":22000,"station_id":"ce4bhih2rcd13ifvqfr0","pricing_plan_id":"cebpf4jnsgd1na2vs0mg"},{"bike_id":"32c0fc37-6823-41d0-9497-8d1eea24742c","system_id":"levelo_inurba_marseille","lat":43.24167,"lon":5.364,"is_reserved":false,"is_disabled":false,"rental_uris":{"android":"levelo://app?vid=32c0fc37-6823-41d0-9497-8d1eea24742c","ios":"levelo://app?vid=32c0fc37-6823-41d0-9497-8d1eea24742c"},"vehicle_type_id":"4","last_reported":1751497835,"current_range_meters":22000,"station_id":"cpo36qri1sfpv3e86is0","pricing_plan_id":"cebpf4jnsgd1na2vs0mg"},{"bike_id":"3eabe1e2-f9f5-41cb-a4ed-73ca7f909c5c","system_id":"levelo_inurba_marseille","lat":43.21194,"lon":5.35062,"is_reserved":false,"is_disabled":false,"rental_uris":{"android":"levelo://app?vid=3eabe1e2-f9f5-41cb-a4ed-73ca7f909c5c","ios":"levelo://app?vid=3eabe1e2-f9f5-41cb-a4ed-73ca7f909c5c"},"vehicle_type_id":"4","last_reported":1751497835,"current_range_meters":22000,"station_id":"st_cvj6sg6p6f1abm77japg","pricing_plan_id":"cebpf4jnsgd1na2vs0mg"},{"bike_id":"dc7df308-0f4b-449b-8355-a2642542e9ed","system_id":"levelo_inurba_marseille","lat":43.26384,"lon":5.3925,"is_reserved":false,"is_disabled":false,"rental_uris":{"android":"levelo://app?vid=dc7df308-0f4b-449b-8355-a2642542e9ed","ios":"levelo://app?vid=dc7df308-0f4b-449b-8355-a2642542e9ed"},"vehicle_type_id":"4","last_reported":1751497835,"current_range_meters":22400,"station_id":"","pricing_plan_id":"cebpf4jnsgd1na2vs0mg"},{"bike_id":"4106fbf3-3df9-489e-8e19-04a311e6d095","system_id":"levelo_inurba_marseille","lat":43.303,"lon":5.39218,"is_reserved":false,"is_disabled":false,"rental_uris":{"android":"levelo://app?vid=4106fbf3-3df9-489e-8e19-04a311e6d095","ios":"levelo://app?vid=4106fbf3-3df9-489e-8e19-04a311e6d095"},"vehicle_type_id":"4","last_reported":1751497835,"current_range_meters":22400,"station_id":"ce4bgkh2rcd13ifvqbk0","pricing_plan_id":"cebpf4jnsgd1na2vs0mg"},{"bike_id":"24519aac-15e0-45a8-975d-e4fbd48e0369","system_id":"levelo_inurba_marseille","lat":43.30297,"lon":5.39213,"is_reserved":false,"is_disabled":false,"rental_uris":{"android":"levelo://app?vid=24519aac-15e0-45a8-975d-e4fbd48e0369","ios":"levelo://app?vid=24519aac-15e0-45a8-975d-e4fbd48e0369"},"vehicle_type_id":"4","last_reported":1751497835,"current_range_meters":22400,"station_id":"ce4bgkh2rcd13ifvqbk0","pricing_plan_id":"cebpf4jnsgd1na2vs0mg"},{"bike_id":"30506cc7-1bbc-4905-940b-438aa571e2f9","system_id":"levelo_inurba_marseille","lat":43.27337,"lon":5.36275,"is_reserved":false,"is_disabled":false,"rental_uris":{"android":"levelo://app?vid=30506cc7-1bbc-4905-940b-438aa571e2f9","ios":"levelo://app?vid=30506cc7-1bbc-4905-940b-438aa571e2f9"},"vehicle_type_id":"4","last_reported":1751497835,"current_range_meters":22400,"station_id":"ce4bhbh2rcd13ifvqeo0","pricing_plan_id":"cebpf4jnsgd1na2vs0mg"},{"bike_id":"89da5e73-11ab-48f2-8281-2178bbf7fe7b","system_id":"levelo_inurba_marseille","lat":43.25727,"lon":5.41094,"is_reserved":false,"is_disabled":false,"rental_uris":{"android":"levelo://app?vid=89da5e73-11ab-48f2-8281-2178bbf7fe7b","ios":"levelo://app?vid=89da5e73-11ab-48f2-8281-2178bbf7fe7b"},"vehicle_type_id":"4","last_reported":1751497835,"current_range_meters":22400,"station_id":"ce4bhkp2rcd13ifvqgd0","pricing_plan_id":"cebpf4jnsgd1na2vs0mg"},{"bike_id":"7712491c-e18b-4b09-bb79-30880b357c07","system_id":"levelo_inurba_marseille","lat":43.2119,"lon":5.35078,"is_reserved":false,"is_disabled":false,"rental_uris":{"android":"levelo://app?vid=7712491c-e18b-4b09-bb79-30880b357c07","ios":"levelo://app?vid=7712491c-e18b-4b09-bb79-30880b357c07"},"vehicle_type_id":"4","last_reported":1751497835,"current_range_meters":22400,"station_id":"st_cvj6sg6p6f1abm77japg","pricing_plan_id":"cebpf4jnsgd1na2vs0mg"},{"bike_id":"39fa5f31-4afa-4271-a36e-400e3970d6f0","system_id":"levelo_inurba_marseille","lat":43.30387,"lon":5.37594,"is_reserved":false,"is_disabled":false,"rental_uris":{"android":"levelo://app?vid=39fa5f31-4afa-4271-a36e-400e3970d6f0","ios":"levelo://app?vid=39fa5f31-4afa-4271-a36e-400e3970d6f0"},"vehicle_type_id":"4","last_reported":1751497835,"current_range_meters":22800,"station_id":"","pricing_plan_id":"cebpf4jnsgd1na2vs0mg"},{"bike_id":"79b1a6ca-cc6a-4b32-90c1-8cbe2f9079d7","system_id":"levelo_inurba_marseille","lat":43.317097,"lon":5.377566,"is_reserved":false,"is_disabled":false,"rental_uris":{"android":"levelo://app?vid=79b1a6ca-cc6a-4b32-90c1-8cbe2f9079d7","ios":"levelo://app?vid=79b1a6ca-cc6a-4b32-90c1-8cbe2f9079d7"},"vehicle_type_id":"4","last_reported":1751497835,"current_range_meters":22800,"station_id":"","pricing_plan_id":"cebpf4jnsgd1na2vs0mg"},{"bike_id":"6ec0cea8-39ad-4bae-bba6-beee2c53a1b8","system_id":"levelo_inurba_marseille","lat":43.30401,"lon":5.38937,"is_reserved":false,"is_disabled":false,"rental_uris":{"android":"levelo://app?vid=6ec0cea8-39ad-4bae-bba6-beee2c53a1b8","ios":"levelo://app?vid=6ec0cea8-39ad-4bae-bba6-beee2c53a1b8"},"vehicle_type_id":"4","last_reported":1751497835,"current_range_meters":22800,"station_id":"ce4bgk12rcd13ifvqbi0","pricing_plan_id":"cebpf4jnsgd1na2vs0mg"},{"bike_id":"ddd32879-ca96-47e1-93dc-975ca4c0ce6f","system_id":"levelo_inurba_marseille","lat":43.30882,"lon":5.39647,"is_reserved":false,"is_disabled":false,"rental_uris":{"android":"levelo://app?vid=ddd32879-ca96-47e1-93dc-975ca4c0ce6f","ios":"levelo://app?vid=ddd32879-ca96-47e1-93dc-975ca4c0ce6f"},"vehicle_type_id":"4","last_reported":1751497835,"current_range_meters":22800,"station_id":"ce4bh012rcd13ifvqcv0","pricing_plan_id":"cebpf4jnsgd1na2vs0mg"},{"bike_id":"309b3e43-a282-4bb2-a8b9-b46986319682","system_id":"levelo_inurba_marseille","lat":43.29794,"lon":5.40414,"is_reserved":false,"is_disabled":false,"rental_uris":{"android":"levelo://app?vid=309b3e43-a282-4bb2-a8b9-b46986319682","ios":"levelo://app?vid=309b3e43-a282-4bb2-a8b9-b46986319682"},"vehicle_type_id":"4","last_reported":1751497835,"current_range_meters":22800,"station_id":"ce4bh112rcd13ifvqd90","pricing_plan_id":"cebpf4jnsgd1na2vs0mg"},{"bike_id":"5349d64e-a83b-44e8-ae44-ba8fe81757ca","system_id":"levelo_inurba_marseille","lat":43.29258,"lon":5.40907,"is_reserved":false,"is_disabled":false,"rental_uris":{"android":"levelo://app?vid=5349d64e-a83b-44e8-ae44-ba8fe81757ca","ios":"levelo://app?vid=5349d64e-a83b-44e8-ae44-ba8fe81757ca"},"vehicle_type_id":"4","last_reported":1751497835,"current_range_meters":22800,"station_id":"ce4bh192rcd13ifvqdc0","pricing_plan_id":"cebpf4jnsgd1na2vs0mg"},{"bike_id":"1184fcc2-d848-4874-a4be-78fe0985a881","system_id":"levelo_inurba_marseille","lat":43.29194,"lon":5.3932,"is_reserved":false,"is_disabled":false,"rental_uris":{"android":"levelo://app?vid=1184fcc2-d848-4874-a4be-78fe0985a881","ios":"levelo://app?vid=1184fcc2-d848-4874-a4be-78fe0985a881"},"vehicle_type_id":"4","last_reported":1751497835,"current_range_meters":22800,"station_id":"ce4bh192rcd13ifvqdd0","pricing_plan_id":"cebpf4jnsgd1na2vs0mg"},{"bike_id":"62faf2ff-17d9-48ef-b764-d2eb9b80a3b6","system_id":"levelo_inurba_marseille","lat":43.28851,"lon":5.39311,"is_reserved":false,"is_disabled":false,"rental_uris":{"android":"levelo://app?vid=62faf2ff-17d9-48ef-b764-d2eb9b80a3b6","ios":"levelo://app?vid=62faf2ff-17d9-48ef-b764-d2eb9b80a3b6"},"vehicle_type_id":"4","last_reported":1751497835,"current_range_meters":22800,"station_id":"ce4bh2p2rcd13ifvqdi0","pricing_plan_id":"cebpf4jnsgd1na2vs0mg"},{"bike_id":"0fa84bde-6f79-497d-82a1-9d48e5be9f72","system_id":"levelo_inurba_marseille","lat":43.28111,"lon":5.37822,"is_reserved":false,"is_disabled":false,"rental_uris":{"android":"levelo://app?vid=0fa84bde-6f79-497d-82a1-9d48e5be9f72","ios":"levelo://app?vid=0fa84bde-6f79-497d-82a1-9d48e5be9f72"},"vehicle_type_id":"4","last_reported":1751497835,"current_range_meters":22800,"station_id":"ce4bha12rcd13ifvqee0","pricing_plan_id":"cebpf4jnsgd1na2vs0mg"},{"bike_id":"8d60398f-157b-403e-afe4-5a0864dff191","system_id":"levelo_inurba_marseille","lat":43.270473,"lon":5.402593,"is_reserved":false,"is_disabled":false,"rental_uris":{"android":"levelo://app?vid=8d60398f-157b-403e-afe4-5a0864dff191","ios":"levelo://app?vid=8d60398f-157b-403e-afe4-5a0864dff191"},"vehicle_type_id":"4","last_reported":1751497835,"current_range_meters":22800,"station_id":"ce4bhk92rcd13ifvqgc0","pricing_plan_id":"cebpf4jnsgd1na2vs0mg"},{"bike_id":"32b69e2f-44e7-4fcf-a4f3-4a2e482f3a38","system_id":"levelo_inurba_marseille","lat":43.2512,"lon":5.40328,"is_reserved":false,"is_disabled":false,"rental_uris":{"android":"levelo://app?vid=32b69e2f-44e7-4fcf-a4f3-4a2e482f3a38","ios":"levelo://app?vid=32b69e2f-44e7-4fcf-a4f3-4a2e482f3a38"},"vehicle_type_id":"4","last_reported":1751497835,"current_range_meters":22800,"station_id":"ce4bhlh2rcd13ifvqgig","pricing_plan_id":"cebpf4jnsgd1na2vs0mg"},{"bike_id":"0c39aa6f-2486-4f82-b13b-fbf99b07af01","system_id":"levelo_inurba_marseille","lat":43.251,"lon":5.40373,"is_reserved":false,"is_disabled":false,"rental_uris":{"android":"levelo://app?vid=0c39aa6f-2486-4f82-b13b-fbf99b07af01","ios":"levelo://app?vid=0c39aa6f-2486-4f82-b13b-fbf99b07af01"},"vehicle_type_id":"4","last_reported":1751497835,"current_range_meters":22800,"station_id":"ce4bhlh2rcd13ifvqgig","pricing_plan_id":"cebpf4jnsgd1na2vs0mg"},{"bike_id":"8686dbc0-0f14-47f5-97f3-b04265e38120","system_id":"levelo_inurba_marseille","lat":43.28656,"lon":5.40033,"is_reserved":false,"is_disabled":false,"rental_uris":{"android":"levelo://app?vid=8686dbc0-0f14-47f5-97f3-b04265e38120","ios":"levelo://app?vid=8686dbc0-0f14-47f5-97f3-b04265e38120"},"vehicle_type_id":"4","last_reported":1751497835,"current_range_meters":22800,"station_id":"ce4bho92rcd13ifvqh3g","pricing_plan_id":"cebpf4jnsgd1na2vs0mg"},{"bike_id":"ba926bfc-9632-4680-b0ed-32a040d6fb83","system_id":"levelo_inurba_marseille","lat":43.211923,"lon":5.350777,"is_reserved":false,"is_disabled":false,"rental_uris":{"android":"levelo://app?vid=ba926bfc-9632-4680-b0ed-32a040d6fb83","ios":"levelo://app?vid=ba926bfc-9632-4680-b0ed-32a040d6fb83"},"vehicle_type_id":"4","last_reported":1751497835,"current_range_meters":22800,"station_id":"st_cvj6sg6p6f1abm77japg","pricing_plan_id":"cebpf4jnsgd1na2vs0mg"},