{"last_updated":1742818807,"ttl":60,"version":"2.2","data":{"bikes":[{"bike_id":"cfe4e2af-d91c-48e0-934d-a1ef66c6ddbe","system_id":"levelo_inurba_marseille","lat":43.299184,"lon":5.38136,"is_reserved":false,"is_disabled":true,"rental_uris":{"android":"levelo://app?vid=cfe4e2af-d91c-48e0-934d-a1ef66c6ddbe","ios":"levelo://app?vid=cfe4e2af-d91c-48e0-934d-a1ef66c6ddbe"},"vehicle_type_id":"4","last_reported":1742818807,"current_range_meters":2800,"station_id":"","pricing_plan_id":"cebpf4jnsgd1na2vs0mg"},{"bike_id":"b1b0b857-8d11-4750-beaa-5411f0711b61","system_id":"levelo_inurba_marseille","lat":43.2997,"lon":5.38508,"is_reserved":false,"is_disabled":true,"rental_uris":{"android":"levelo://app?vid=b1b0b857-8d11-4750-beaa-5411f0711b61","ios":"levelo://app?vid=b1b0b857-8d11-4750-beaa-5411f0711b61"},"vehicle_type_id":"4","last_reported":1742818807,"current_range_meters":2800,"station_id":"ce4bgj92rcd13ifvqbd0","pricing_plan_id":"cebpf4jnsgd1na2vs0mg"},{"bike_id":"86b97a12-18fe-4ff1-9f74-fd538a28856b","system_id":"levelo_inurba_marseille","lat":43.28611,"lon":5.35109,"is_reserved":false,"is_disabled":false,"rental_uris":{"android":"levelo://app?vid=86b97a12-18fe-4ff1-9f74-fd538a28856b","ios":"levelo://app?vid=86b97a12-18fe-4ff1-9f74-fd538a28856b"},"vehicle_type_id":"4","last_reported":1742818807,"current_range_meters":2800,"station_id":"ce4bhch2rcd13ifvqeug","pricing_plan_id":"cebpf4jnsgd1na2vs0mg"},{"bike_id":"785b8546-85d8-481b-875c-0a9a59c2f868","system_id":"levelo_inurba_marseille","lat":43.30281,"lon":5.37711,"is_reserved":false,"is_disabled":false,"rental_uris":{"android":"levelo://app?vid=785b8546-85d8-481b-875c-0a9a59c2f868","ios":"levelo://app?vid=785b8546-85d8-481b-875c-0a9a59c2f868"},"vehicle_type_id":"4","last_reported":1742818807,"current_range_meters":2800,"station_id":"ce4bguh2rcd13ifvqcj0","pricing_plan_id":"cebpf4jnsgd1na2vs0mg"},{"bike_id":"8e57f4b8-be77-4888-a91d-b14462c44ac7","system_id":"levelo_inurba_marseille","lat":43.30468,"lon":5.37917,"is_reserved":false,"is_disabled":false,"rental_uris":{"android":"levelo://app?vid=8e57f4b8-be77-4888-a91d-b14462c44ac7","ios":"levelo://app?vid=8e57f4b8-be77-4888-a91d-b14462c44ac7"},"vehicle_type_id":"4","last_reported":1742818807,"current_range_meters":2800,"station_id":"ce4bgup2rcd13ifvqcn0","pricing_plan_id":"cebpf4jnsgd1na2vs0mg"},{"bike_id":"fbaba96f-fff3-42d8-8786-f6a72f5041a3","system_id":"levelo_inurba_marseille","lat":43.3096,"lon":5.39052,"is_reserved":false,"is_disabled":true,"rental_uris":{"android":"levelo://app?vid=fbaba96f-fff3-42d8-8786-f6a72f5041a3","ios":"levelo://app?vid=fbaba96f-fff3-42d8-8786-f6a72f5041a3"},"vehicle_type_id":"4","last_reported":1742818807,"current_range_meters":3200,"station_id":"ce4bgup2rcd13ifvqco0","pricing_plan_id":"cebpf4jnsgd1na2vs0mg"},{"bike_id":"645e7a53-5c0a-4650-ae71-3a3cb7508395","system_id":"levelo_inurba_marseille","lat":43.28722,"lon":5.37952,"is_reserved":false,"is_disabled":false,"rental_uris":{"android":"levelo://app?vid=645e7a53-5c0a-4650-ae71-3a3cb7508395","ios":"levelo://app?vid=645e7a53-5c0a-4650-ae71-3a3cb7508395"},"vehicle_type_id":"4","last_reported":1742818807,"current_range_meters":3200,"station_id":"ce4bh9p2rcd13ifvqec0","pricing_plan_id":"cebpf4jnsgd1na2vs0mg"},{"bike_id":"9295d75b-addf-47bf-a384-c5a21ac97a85","system_id":"levelo_inurba_marseille","lat":43.32541,"lon":5.41425,"is_reserved":false,"is_disabled":false,"rental_uris":{"android":"levelo://app?vid=9295d75b-addf-47bf-a384-c5a21ac97a85","ios":"levelo://app?vid=9295d75b-addf-47bf-a384-c5a21ac97a85"},"vehicle_type_id":"4","last_reported":1742818807,"current_range_meters":3200,"station_id":"ce4bhq12rcd13ifvqhhg","pricing_plan_id":"cebpf4jnsgd1na2vs0mg"},{"bike_id":"1da1d766-b310-48be-8cd1-55d7964d3d02","system_id":"levelo_inurba_marseille","lat":43.27059,"lon":5.42281,"is_reserved":false,"is_disabled":true,"rental_uris":{"android":"levelo://app?vid=1da1d766-b310-48be-8cd1-55d7964d3d02","ios":"levelo://app?vid=1da1d766-b310-48be-8cd1-55d7964d3d02"},"vehicle_type_id":"4","last_reported":1742818807,"current_range_meters":3600,"station_id":"ce4bhk92rcd13ifvqgb0","pricing_plan_id":"cebpf4jnsgd1na2vs0mg"},{"bike_id":"00eb991e-08f9-44d2-8090-927b04853ba9","system_id":"levelo_inurba_marseille","lat":43.31816,"lon":5.37254,"is_reserved":false,"is_disabled":false,"rental_uris":{"android":"levelo://app?vid=00eb991e-08f9-44d2-8090-927b04853ba9","ios":"levelo://app?vid=00eb991e-08f9-44d2-8090-927b04853ba9"},"vehicle_type_id":"4","last_reported":1742818807,"current_range_meters":3600,"station_id":"","pricing_plan_id":"cebpf4jnsgd1na2vs0mg"},{"bike_id":"ba3069c3-e294-49e7-b0f1-f8d3ae2c501e","system_id":"levelo_inurba_marseille","lat":43.26211,"lon":5.37444,"is_reserved":false,"is_disabled":false,"rental_uris":{"android":"levelo://app?vid=ba3069c3-e294-49e7-b0f1-f8d3ae2c501e","ios":"levelo://app?vid=ba3069c3-e294-49e7-b0f1-f8d3ae2c501e"},"vehicle_type_id":"4","last_reported":1742818807,"current_range_meters":4000,"station_id":"ce4bhgp2rcd13ifvqfc0","pricing_plan_id":"cebpf4jnsgd1na2vs0mg"},{"bike_id":"8ed1ac19-a2dd-4532-af16-423d1df5a6d4","system_id":"levelo_inurba_marseille","lat":43.23119,"lon":5.41401,"is_reserved":false,"is_disabled":false,"rental_uris":{"android":"levelo://app?vid=8ed1ac19-a2dd-4532-af16-423d1df5a6d4","ios":"levelo://app?vid=8ed1ac19-a2dd-4532-af16-423d1df5a6d4"},"vehicle_type_id":"4","last_reported":1742818807,"current_range_meters":4000,"station_id":"","pricing_plan_id":"cebpf4jnsgd1na2vs0mg"},{"bike_id":"4712a250-aa5b-4bdf-93d9-3a04de78f092","system_id":"levelo_inurba_marseille","lat":43.25585,"lon":5.38231,"is_reserved":false,"is_disabled":false,"rental_uris":{"android":"levelo://app?vid=4712a250-aa5b-4bdf-93d9-3a04de78f092","ios":"levelo://app?vid=4712a250-aa5b-4bdf-93d9-3a04de78f092"},"vehicle_type_id":"4","last_reported":1742818807,"current_range_meters":4400,"station_id":"ce4bhih2rcd13ifvqfs0","pricing_plan_id":"cebpf4jnsgd1na2vs0mg"},{"bike_id":"f82d61b6-a985-4cdd-af91-32f19ae82d4c","system_id":"levelo_inurba_marseille","lat":43.25517,"lon":5.37648,"is_reserved":false,"is_disabled":false,"rental_uris":{"android":"levelo://app?vid=f82d61b6-a985-4cdd-af91-32f19ae82d4c","ios":"levelo://app?vid=f82d61b6-a985-4cdd-af91-32f19ae82d4c"},"vehicle_type_id":"4","last_reported":1742818807,"current_range_meters":4800,"station_id":"ce4bhh12rcd13ifvqff0","pricing_plan_id":"cebpf4jnsgd1na2vs0mg"},{"bike_id":"a7a9d68a-b527-472d-b45c-c1363e8def55","system_id":"levelo_inurba_marseille","lat":43.26224,"lon":5.37431,"is_reserved":false,"is_disabled":false,"rental_uris":{"android":"levelo://app?vid=a7a9d68a-b527-472d-b45c-c1363e8def55","ios":"levelo://app?vid=a7a9d68a-b527-472d-b45c-c1363e8def55"},"vehicle_type_id":"4","last_reported":1742818807,"current_range_meters":4800,"station_id":"ce4bhgp2rcd13ifvqfc0","pricing_plan_id":"cebpf4jnsgd1na2vs0mg"},{"bike_id":"261d04fe-a19d-4b8a-9994-81a50226b3d6","system_id":"levelo_inurba_marseille","lat":43.26052,"lon":5.41719,"is_reserved":false,"is_disabled":false,"rental_uris":{"android":"levelo://app?vid=261d04fe-a19d-4b8a-9994-81a50226b3d6","ios":"levelo://app?vid=261d04fe-a19d-4b8a-9994-81a50226b3d6"},"vehicle_type_id":"4","last_reported":1742818807,"current_range_meters":4800,"station_id":"","pricing_plan_id":"cebpf4jnsgd1na2vs0mg"},{"bike_id":"580b12c7-3c3d-4296-93e7-9d7a5bd7eea9","system_id":"levelo_inurba_marseille","lat":43.29296,"lon":5.37442,"is_reserved":false,"is_disabled":false,"rental_uris":{"android":"levelo://app?vid=580b12c7-3c3d-4296-93e7-9d7a5bd7eea9","ios":"levelo://app?vid=580b12c7-3c3d-4296-93e7-9d7a5bd7eea9"},"vehicle_type_id":"4","last_reported":1742818807,"current_range_meters":4800,"station_id":"ce4bhnp2rcd13ifvqgvg","pricing_plan_id":"cebpf4jnsgd1na2vs0mg"},{"bike_id":"721ba561-54ac-4548-8df8-dfb5a4ff8561","system_id":"levelo_inurba_marseille","lat":43.32356,"lon":5.36766,"is_reserved":false,"is_disabled":false,"rental_uris":{"android":"levelo://app?vid=721ba561-54ac-4548-8df8-dfb5a4ff8561","ios":"levelo://app?vid=721ba561-54ac-4548-8df8-dfb5a4ff8561"},"vehicle_type_id":"4","last_reported":1742818807,"current_range_meters":4800,"station_id":"ce4bhsh2rcd13ifvqi2g","pricing_plan_id":"cebpf4jnsgd1na2vs0mg"},{"bike_id":"58ea6ce5-716a-41b2-8c8e-13f1faa711ff","system_id":"levelo_inurba_marseille","lat":43.26558,"lon":5.37285,"is_reserved":false,"is_disabled":false,"rental_uris":{"android":"levelo://app?vid=58ea6ce5-716a-41b2-8c8e-13f1faa711ff","ios":"levelo://app?vid=58ea6ce5-716a-41b2-8c8e-13f1faa711ff"},"vehicle_type_id":"4","last_reported":1742818807,"current_range_meters":5600,"station_id":"ce4bhg12rcd13ifvqf70","pricing_plan_id":"cebpf4jnsgd1na2vs0mg"},{"bike_id":"d258145d-4465-4b1f-90f8-c30e5b854715","system_id":"levelo_inurba_marseille","lat":43.24071,"lon":5.37762,"is_reserved":false,"is_disabled":false,"rental_uris":{"android":"levelo://app?vid=d258145d-4465-4b1f-90f8-c30e5b854715","ios":"levelo://app?vid=d258145d-4465-4b1f-90f8-c30e5b854715"},"vehicle_type_id":"4","last_reported":1742818807,"current_range_meters":5600,"station_id":"ce4bhnp2rcd13ifvqgvg","pricing_plan_id":"cebpf4jnsgd1na2vs0mg"},{"bike_id":"3dc255a4-229f-4e25-a8b4-e1c4459d7c84","system_id":"levelo_inurba_marseille","lat":43.25937,"lon":5.40906,"is_reserved":false,"is_disabled":false,"rental_uris":{"android":"levelo://app?vid=3dc255a4-229f-4e25-a8b4-e1c4459d7c84","ios":"levelo://app?vid=3dc255a4-229f-4e25-a8b4-e1c4459d7c84"},"vehicle_type_id":"4","last_reported":1742818807,"current_range_meters":6000,"station_id":"ce4bhm92rcd13ifvqglg","pricing_plan_id":"cebpf4jnsgd1na2vs0mg"},{"bike_id":"a0514e1d-555c-40ed-b843-6b56e40772bc","system_id":"levelo_inurba_marseille","lat":43.31234,"lon":5.36871,"is_reserved":false,"is_disabled":false,"rental_uris":{"android":"levelo://app?vid=a0514e1d-555c-40ed-b843-6b56e40772bc","ios":"levelo://app?vid=a0514e1d-555c-40ed-b843-6b56e40772bc"},"vehicle_type_id":"4","last_reported":1742818807,"current_range_meters":6000,"station_id":"ce4bgl92rcd13ifvqbq0","pricing_plan_id":"cebpf4jnsgd1na2vs0mg"},{"bike_id":"3c4613d7-e6d3-483c-b535-86ecd575b38e","system_id":"levelo_inurba_marseille","lat":43.26807,"lon":5.4028,"is_reserved":false,"is_disabled":false,"rental_uris":{"android":"levelo://app?vid=3c4613d7-e6d3-483c-b535-86ecd575b38e","ios":"levelo://app?vid=3c4613d7-e6d3-483c-b535-86ecd575b38e"},"vehicle_type_id":"4","last_reported":1742818807,"current_range_meters":6400,"station_id":"ce501612rcd8frsf0b60","pricing_plan_id":"cebpf4jnsgd1na2vs0mg"},{"bike_id":"870f505c-4634-4f93-9b8b-17c0c8ea54b8","system_id":"levelo_inurba_marseille","lat":43.26777,"lon":5.39426,"is_reserved":false,"is_disabled":true,"rental_uris":{"android":"levelo://app?vid=870f505c-4634-4f93-9b8b-17c0c8ea54b8","ios":"levelo://app?vid=870f505c-4634-4f93-9b8b-17c0c8ea54b8"},"vehicle_type_id":"4","last_reported":1742818807,"current_range_meters":6400,"station_id":"ce4bhh12rcd13ifvqfg0","pricing_plan_id":"cebpf4jnsgd1na2vs0mg"},{"bike_id":"6affd26d-3c2f-4482-bc96-2275240556ec","system_id":"levelo_inurba_marseille","lat":43.26222,"lon":5.40461,"is_reserved":false,"is_disabled":false,"rental_uris":{"android":"levelo://app?vid=6affd26d-3c2f-4482-bc96-2275240556ec","ios":"levelo://app?vid=6affd26d-3c2f-4482-bc96-2275240556ec"},"vehicle_type_id":"4","last_reported":1742818807,"current_range_meters":6400,"station_id":"ce4bhmh2rcd13ifvqgmg","pricing_plan_id":"cebpf4jnsgd1na2vs0mg"},{"bike_id":"612a0c17-962e-4e78-b8bf-84b6c93d4dc8","system_id":"levelo_inurba_marseille","lat":43.32482,"lon":5.3656,"is_reserved":false,"is_disabled":false,"rental_uris":{"android":"levelo://app?vid=612a0c17-962e-4e78-b8bf-84b6c93d4dc8","ios":"levelo://app?vid=612a0c17-962e-4e78-b8bf-84b6c93d4dc8"},"vehicle_type_id":"4","last_reported":1742818807,"current_range_meters":6400,"station_id":"ce4bhs12rcd13ifvqhvg","pricing_plan_id":"cebpf4jnsgd1na2vs0mg"},{"bike_id":"ca7ca978-1fef-4a0e-9aa2-95e430214d5b","system_id":"levelo_inurba_marseille","lat":43.24171,"lon":5.3639,"is_reserved":false,"is_disabled":false,"rental_uris":{"android":"levelo://app?vid=ca7ca978-1fef-4a0e-9aa2-95e430214d5b","ios":"levelo://app?vid=ca7ca978-1fef-4a0e-9aa2-95e430214d5b"},"vehicle_type_id":"4","last_reported":1742818807,"current_range_meters":6400,"station_id":"cpo36qri1sfpv3e86is0","pricing_plan_id":"cebpf4jnsgd1na2vs0mg"},{"bike_id":"4563b25f-6130-4a75-8c77-06046107ffc1","system_id":"levelo_inurba_marseille","lat":43.30595,"lon":5.39349,"is_reserved":false,"is_disabled":false,"rental_uris":{"android":"levelo://app?vid=4563b25f-6130-4a75-8c77-06046107ffc1","ios":"levelo://app?vid=4563b25f-6130-4a75-8c77-06046107ffc1"},"vehicle_type_id":"4","last_reported":1742818807,"current_range_meters":6400,"station_id":"ce4bh0p2rcd13ifvqd80","pricing_plan_id":"cebpf4jnsgd1na2vs0mg"},{"bike_id":"217589cc-6d6b-4c93-be2c-3a260f0ed08c","system_id":"levelo_inurba_marseille","lat":43.2595,"lon":5.40895,"is_reserved":false,"is_disabled":false,"rental_uris":{"android":"levelo://app?vid=217589cc-6d6b-4c93-be2c-3a260f0ed08c","ios":"levelo://app?vid=217589cc-6d6b-4c93-be2c-3a260f0ed08c"},"vehicle_type_id":"4","last_reported":1742818807,"current_range_meters":6400,"station_id":"ce4bhm92rcd13ifvqglg","pricing_plan_id":"cebpf4jnsgd1na2vs0mg"},{"bike_id":"64a1b830-5cca-4a65-aa03-fd1145f5f4f4","system_id":"levelo_inurba_marseille","lat":43.26208,"lon":5.37466,"is_reserved":false,"is_disabled":false,"rental_uris":{"android":"levelo://app?vid=64a1b830-5cca-4a65-aa03-fd1145f5f4f4","ios":"levelo://app?vid=64a1b830-5cca-4a65-aa03-fd1145f5f4f4"},"vehicle_type_id":"4","last_reported":1742818807,"current_range_meters":6400,"station_id":"ce4bhgp2rcd13ifvqfc0","pricing_plan_id":"cebpf4jnsgd1na2vs0mg"},{"bike_id":"25337e68-5cb7-4669-a1bc-9494a6abb635","system_id":"levelo_inurba_marseille","lat":43.23205,"lon":5.3554,"is_reserved":false,"is_disabled":false,"rental_uris":{"android":"levelo://app?vid=25337e68-5cb7-4669-a1bc-9494a6abb635","ios":"levelo://app?vid=25337e68-5cb7-4669-a1bc-9494a6abb635"},"vehicle_type_id":"4","last_reported":1742818807,"current_range_meters":6800,"station_id":"ce4bhu92rcd13ifvqi70","pricing_plan_id":"cebpf4jnsgd1na2vs0mg"},{"bike_id":"a8054457-ef9c-4293-879f-1eab83000740","system_id":"levelo_inurba_marseille","lat":43.24181,"lon":5.36395,"is_reserved":false,"is_disabled":false,"rental_uris":{"android":"levelo://app?vid=a8054457-ef9c-4293-879f-1eab83000740","ios":"levelo://app?vid=a8054457-ef9c-4293-879f-1eab83000740"},"vehicle_type_id":"4","last_reported":1742818807,"current_range_meters":6800,"station_id":"cpo36qri1sfpv3e86is0","pricing_plan_id":"cebpf4jnsgd1na2vs0mg"},{"bike_id":"2fd4d927-0f70-4f4e-9269-8cd3b232bcd8","system_id":"levelo_inurba_marseille","lat":43.25932,"lon":5.409043,"is_reserved":false,"is_disabled":false,"rental_uris":{"android":"levelo://app?vid=2fd4d927-0f70-4f4e-9269-8cd3b232bcd8","ios":"levelo://app?vid=2fd4d927-0f70-4f4e-9269-8cd3b232bcd8"},"vehicle_type_id":"4","last_reported":1742818807,"current_range_meters":6800,"station_id":"ce4bhm92rcd13ifvqglg","pricing_plan_id":"cebpf4jnsgd1na2vs0mg"},{"bike_id":"32a995bc-c214-4d9f-a62e-7ebc9bf7dc30","system_id":"levelo_inurba_marseille","lat":43.24085,"lon":5.37755,"is_reserved":false,"is_disabled":true,"rental_uris":{"android":"levelo://app?vid=32a995bc-c214-4d9f-a62e-7ebc9bf7dc30","ios":"levelo://app?vid=32a995bc-c214-4d9f-a62e-7ebc9bf7dc30"},"vehicle_type_id":"4","last_reported":1742818807,"current_range_meters":6800,"station_id":"ce4bhnp2rcd13ifvqgvg","pricing_plan_id":"cebpf4jnsgd1na2vs0mg"},{"bike_id":"2ba46124-a093-4345-928b-13702ad74f31","system_id":"levelo_inurba_marseille","lat":43.23049,"lon":5.35502,"is_reserved":false,"is_disabled":false,"rental_uris":{"android":"levelo://app?vid=2ba46124-a093-4345-928b-13702ad74f31","ios":"levelo://app?vid=2ba46124-a093-4345-928b-13702ad74f31"},"vehicle_type_id":"4","last_reported":1742818807,"current_range_meters":7200,"station_id":"cpo3342slgdg3j2ifvpg","pricing_plan_id":"cebpf4jnsgd1na2vs0mg"},{"bike_id":"3139b39d-c4b4-4380-a511-1b4e3bcf0669","system_id":"levelo_inurba_marseille","lat":43.2419,"lon":5.397,"is_reserved":false,"is_disabled":false,"rental_uris":{"android":"levelo://app?vid=3139b39d-c4b4-4380-a511-1b4e3bcf0669","ios":"levelo://app?vid=3139b39d-c4b4-4380-a511-1b4e3bcf0669"},"vehicle_type_id":"4","last_reported":1742818807,"current_range_meters":7200,"station_id":"ce4bhn12rcd13ifvqgpg","pricing_plan_id":"cebpf4jnsgd1na2vs0mg"},{"bike_id":"d954b141-3cee-4de0-9c29-d5babd11cd82","system_id":"levelo_inurba_marseille","lat":43.25115,"lon":5.39523,"is_reserved":false,"is_disabled":false,"rental_uris":{"android":"levelo://app?vid=d954b141-3cee-4de0-9c29-d5babd11cd82","ios":"levelo://app?vid=d954b141-3cee-4de0-9c29-d5babd11cd82"},"vehicle_type_id":"4","last_reported":1742818807,"current_range_meters":7200,"station_id":"ce4bhm12rcd13ifvqgkg","pricing_plan_id":"cebpf4jnsgd1na2vs0mg"},{"bike_id":"3bb33489-a82f-4739-bc09-2fe3082e2e8c","system_id":"levelo_inurba_marseille","lat":43.30801,"lon":5.37357,"is_reserved":false,"is_disabled":false,"rental_uris":{"android":"levelo://app?vid=3bb33489-a82f-4739-bc09-2fe3082e2e8c","ios":"levelo://app?vid=3bb33489-a82f-4739-bc09-2fe3082e2e8c"},"vehicle_type_id":"4","last_reported":1742818807,"current_range_meters":7200,"station_id":"","pricing_plan_id":"cebpf4jnsgd1na2vs0mg"},{"bike_id":"0bdcf116-4ba9-495a-860f-b8bd175bed9c","system_id":"levelo_inurba_marseille","lat":43.25946,"lon":5.4091,"is_reserved":false,"is_disabled":false,"rental_uris":{"android":"levelo://app?vid=0bdcf116-4ba9-495a-860f-b8bd175bed9c","ios":"levelo://app?vid=0bdcf116-4ba9-495a-860f-b8bd175bed9c"},"vehicle_type_id":"4","last_reported":1742818807,"current_range_meters":8000,"station_id":"ce4bhm92rcd13ifvqglg","pricing_plan_id":"cebpf4jnsgd1na2vs0mg"},{"bike_id":"091b9c8f-c6d0-46ea-9cb5-18f775b96ef9","system_id":"levelo_inurba_marseille","lat":43.28364,"lon":5.38638,"is_reserved":false,"is_disabled":false,"rental_uris":{"android":"levelo://app?vid=091b9c8f-c6d0-46ea-9cb5-18f775b96ef9","ios":"levelo://app?vid=091b9c8f-c6d0-46ea-9cb5-18f775b96ef9"},"vehicle_type_id":"4","last_reported":1742818807,"current_range_meters":8000,"station_id":"ce4bh492rcd13ifvqdvg","pricing_plan_id":"cebpf4jnsgd1na2vs0mg"},{"bike_id":"8a09d984-62ea-469b-aa65-5ab471a51363","system_id":"levelo_inurba_marseille","lat":43.29785,"lon":5.37116,"is_reserved":false,"is_disabled":false,"rental_uris":{"android":"levelo://app?vid=8a09d984-62ea-469b-aa65-5ab471a51363","ios":"levelo://app?vid=8a09d984-62ea-469b-aa65-5ab471a51363"},"vehicle_type_id":"4","last_reported":1742818807,"current_range_meters":8000,"station_id":"ce4bgop2rcd13ifvqc1g","pricing_plan_id":"cebpf4jnsgd1na2vs0mg"},{"bike_id":"009e6f9a-fcff-48c9-b999-b00f9b9b1c10","system_id":"levelo_inurba_marseille","lat":43.24674,"lon":5.38166,"is_reserved":false,"is_disabled":false,"rental_uris":{"android":"levelo://app?vid=009e6f9a-fcff-48c9-b999-b00f9b9b1c10","ios":"levelo://app?vid=009e6f9a-fcff-48c9-b999-b00f9b9b1c10"},"vehicle_type_id":"4","last_reported":1742818807,"current_range_meters":8000,"station_id":"ce4bhih2rcd13ifvqfr0","pricing_plan_id":"cebpf4jnsgd1na2vs0mg"},{"bike_id":"7a6d3d06-56ef-4d69-838a-5a42b6e45169","system_id":"levelo_inurba_marseille","lat":43.2872,"lon":5.37949,"is_reserved":false,"is_disabled":false,"rental_uris":{"android":"levelo://app?vid=7a6d3d06-56ef-4d69-838a-5a42b6e45169","ios":"levelo://app?vid=7a6d3d06-56ef-4d69-838a-5a42b6e45169"},"vehicle_type_id":"4","last_reported":1742818807,"current_range_meters":8000,"station_id":"ce4bh9p2rcd13ifvqec0","pricing_plan_id":"cebpf4jnsgd1na2vs0mg"},{"bike_id":"5932f5b5-0803-41be-ad57-2c62bb691349","system_id":"levelo_inurba_marseille","lat":43.24709,"lon":5.38113,"is_reserved":false,"is_disabled":false,"rental_uris":{"android":"levelo://app?vid=5932f5b5-0803-41be-ad57-2c62bb691349","ios":"levelo://app?vid=5932f5b5-0803-41be-ad57-2c62bb691349"},"vehicle_type_id":"4","last_reported":1742818807,"current_range_meters":8000,"station_id":"","pricing_plan_id":"cebpf4jnsgd1na2vs0mg"},{"bike_id":"07541760-82c4-4d38-b58c-85ffff07e965","system_id":"levelo_inurba_marseille","lat":43.23947,"lon":5.36644,"is_reserved":false,"is_disabled":false,"rental_uris":{"android":"levelo://app?vid=07541760-82c4-4d38-b58c-85ffff07e965","ios":"levelo://app?vid=07541760-82c4-4d38-b58c-85ffff07e965"},"vehicle_type_id":"4","last_reported":1742818807,"current_range_meters":8000,"station_id":"ce4bhi12rcd13ifvqfp0","pricing_plan_id":"cebpf4jnsgd1na2vs0mg"},{"bike_id":"39a193f3-4122-44f2-9625-810cfb1e057c","system_id":"levelo_inurba_marseille","lat":43.30535,"lon":5.3653,"is_reserved":false,"is_disabled":true,"rental_uris":{"android":"levelo://app?vid=39a193f3-4122-44f2-9625-810cfb1e057c","ios":"levelo://app?vid=39a193f3-4122-44f2-9625-810cfb1e057c"},"vehicle_type_id":"4","last_reported":1742818807,"current_range_meters":8000,"station_id":"ce4bgs12rcd13ifvqcag","pricing_plan_id":"cebpf4jnsgd1na2vs0mg"},{"bike_id":"f92b0d9b-5470-4ec4-b54b-55bb0196f8e5","system_id":"levelo_inurba_marseille","lat":43.336,"lon":5.41039,"is_reserved":false,"is_disabled":false,"rental_uris":{"android":"levelo://app?vid=f92b0d9b-5470-4ec4-b54b-55bb0196f8e5","ios":"levelo://app?vid=f92b0d9b-5470-4ec4-b54b-55bb0196f8e5"},"vehicle_type_id":"4","last_reported":1742818807,"current_range_meters":8000,"station_id":"ce4bhqh2rcd13ifvqhmg","pricing_plan_id":"cebpf4jnsgd1na2vs0mg"},{"bike_id":"5c7d8be6-843a-4627-887a-2dff7e8e838c","system_id":"levelo_inurba_marseille","lat":43.27051,"lon":5.40266,"is_reserved":false,"is_disabled":false,"rental_uris":{"android":"levelo://app?vid=5c7d8be6-843a-4627-887a-2dff7e8e838c","ios":"levelo://app?vid=5c7d8be6-843a-4627-887a-2dff7e8e838c"},"vehicle_type_id":"4","last_reported":1742818807,"current_range_meters":8400,"station_id":"ce4bhk92rcd13ifvqgc0","pricing_plan_id":"cebpf4jnsgd1na2vs0mg"},{"bike_id":"5cdc8471-04c3-43c8-b0c2-0b51cf5f5a85","system_id":"levelo_inurba_marseille","lat":43.27373,"lon":5.36258,"is_reserved":false,"is_disabled":false,"rental_uris":{"android":"levelo://app?vid=5cdc8471-04c3-43c8-b0c2-0b51cf5f5a85","ios":"levelo://app?vid=5cdc8471-04c3-43c8-b0c2-0b51cf5f5a85"},"vehicle_type_id":"4","last_reported":1742818807,"current_range_meters":8400,"station_id":"ce4bhbh2rcd13ifvqeo0","pricing_plan_id":"cebpf4jnsgd1na2vs0mg"},{"bike_id":"8ac76298-3375-4b96-8a90-9315b1510fa4","system_id":"levelo_inurba_marseille","lat":43.2786,"lon":5.4066,"is_reserved":false,"is_disabled":false,"rental_uris":{"android":"levelo://app?vid=8ac76298-3375-4b96-8a90-9315b1510fa4","ios":"levelo://app?vid=8ac76298-3375-4b96-8a90-9315b1510fa4"},"vehicle_type_id":"4","last_reported":1742818807,"current_range_meters":8400,"station_id":"ce4bhnh2rcd13ifvqgtg","pricing_plan_id":"cebpf4jnsgd1na2vs0mg"},{"bike_id":"101b6fd1-1f31-4309-b7bd-7132c7a0e064","system_id":"levelo_inurba_marseille","lat":43.27937,"lon":5.41062,"is_reserved":false,"is_disabled":false,"rental_uris":{"android":"levelo://app?vid=101b6fd1-1f31-4309-b7bd-7132c7a0e064","ios":"levelo://app?vid=101b6fd1-1f31-4309-b7bd-7132c7a0e064"},"vehicle_type_id":"4","last_reported":1742818807,"current_range_meters":8400,"station_id":"ce4bhnp2rcd13ifvqh0g","pricing_plan_id":"cebpf4jnsgd1na2vs0mg"},{"bike_id":"daf705b5-817b-4bbc-bd5a-5101c6aa000f","system_id":"levelo_inurba_marseille","lat":43.27808,"lon":5.40732,"is_reserved":false,"is_disabled":true,"rental_uris":{"android":"levelo://app?vid=daf705b5-817b-4bbc-bd5a-5101c6aa000f","ios":"levelo://app?vid=daf705b5-817b-4bbc-bd5a-5101c6aa000f"},"vehicle_type_id":"4","last_reported":1742818807,"current_range_meters":8400,"station_id":"ce4bhnh2rcd13ifvqgtg","pricing_plan_id":"cebpf4jnsgd1na2vs0mg"},{"bike_id":"713ab737-c234-4d46-8112-2057b4371ffd","system_id":"levelo_inurba_marseille","lat":43.295715,"lon":5.399604,"is_reserved":false,"is_disabled":true,"rental_uris":{"android":"levelo://app?vid=713ab737-c234-4d46-8112-2057b4371ffd","ios":"levelo://app?vid=713ab737-c234-4d46-8112-2057b4371ffd"},"vehicle_type_id":"4","last_reported":1742818807,"current_range_meters":8400,"station_id":"ce4bh312rcd13ifvqdj0","pricing_plan_id":"cebpf4jnsgd1na2vs0mg"},{"bike_id":"9337482f-cf88-4aca-907a-e323eea8632d","system_id":"levelo_inurba_marseille","lat":43.25828,"lon":5.39434,"is_reserved":false,"is_disabled":false,"rental_uris":{"android":"levelo://app?vid=9337482f-cf88-4aca-907a-e323eea8632d","ios":"levelo://app?vid=9337482f-cf88-4aca-907a-e323eea8632d"},"vehicle_type_id":"4","last_reported":1742818807,"current_range_meters":8800,"station_id":"ce4bhip2rcd13ifvqft0","pricing_plan_id":"cebpf4jnsgd1na2vs0mg"},{"bike_id":"d56adfe4-71b8-4296-a347-e43ee3f50c5b","system_id":"levelo_inurba_marseille","lat":43.29194,"lon":5.393154,"is_reserved":false,"is_disabled":true,"rental_uris":{"android":"levelo://app?vid=d56adfe4-71b8-4296-a347-e43ee3f50c5b","ios":"levelo://app?vid=d56adfe4-71b8-4296-a347-e43ee3f50c5b"},"vehicle_type_id":"4","last_reported":1742818807,"current_range_meters":8800,"station_id":"ce4bh192rcd13ifvqdd0","pricing_plan_id":"cebpf4jnsgd1na2vs0mg"},{"bike_id":"612bda36-494a-4475-95a4-cab59b8109a6","system_id":"levelo_inurba_marseille","lat":43.23205,"lon":5.35551,"is_reserved":false,"is_disabled":false,"rental_uris":{"android":"levelo://app?vid=612bda36-494a-4475-95a4-cab59b8109a6","ios":"levelo://app?vid=612bda36-494a-4475-95a4-cab59b8109a6"},"vehicle_type_id":"4","last_reported":1742818807,"current_range_meters":8800,"station_id":"ce4bhu92rcd13ifvqi70","pricing_plan_id":"cebpf4jnsgd1na2vs0mg"},{"bike_id":"0f695239-c866-4a2b-88c6-8844266ee6b8","system_id":"levelo_inurba_marseille","lat":43.3373,"lon":5.39196,"is_reserved":false,"is_disabled":false,"rental_uris":{"android":"levelo://app?vid=0f695239-c866-4a2b-88c6-8844266ee6b8","ios":"levelo://app?vid=0f695239-c866-4a2b-88c6-8844266ee6b8"},"vehicle_type_id":"4","last_reported":1742818807,"current_range_meters":8800,"station_id":"ce4bhr92rcd13ifvqhsg","pricing_plan_id":"cebpf4jnsgd1na2vs0mg"},{"bike_id":"184fbd4c-5a2e-4865-b1ab-0f65577b7822","system_id":"levelo_inurba_marseille","lat":43.26512,"lon":5.39559,"is_reserved":false,"is_disabled":false,"rental_uris":{"android":"levelo://app?vid=184fbd4c-5a2e-4865-b1ab-0f65577b7822","ios":"levelo://app?vid=184fbd4c-5a2e-4865-b1ab-0f65577b7822"},"vehicle_type_id":"4","last_reported":1742818807,"current_range_meters":8800,"station_id":"ce4bhi12rcd13ifvqfq0","pricing_plan_id":"cebpf4jnsgd1na2vs0mg"},{"bike_id":"950e4e00-14f4-4500-97ab-eb465c8150bf","system_id":"levelo_inurba_marseille","lat":43.23197,"lon":5.35552,"is_reserved":false,"is_disabled":false,"rental_uris":{"android":"levelo://app?vid=950e4e00-14f4-4500-97ab-eb465c8150bf","ios":"levelo://app?vid=950e4e00-14f4-4500-97ab-eb465c8150bf"},"vehicle_type_id":"4","last_reported":1742818807,"current_range_meters":8800,"station_id":"ce4bhu92rcd13ifvqi70","pricing_plan_id":"cebpf4jnsgd1na2vs0mg"},{"bike_id":"4baf8c5d-e0fe-4a6c-97de-a71e960c5338","system_id":"levelo_inurba_marseille","lat":43.241643,"lon":5.364025,"is_reserved":false,"is_disabled":false,"rental_uris":{"android":"levelo://app?vid=4baf8c5d-e0fe-4a6c-97de-a71e960c5338","ios":"levelo://app?vid=4baf8c5d-e0fe-4a6c-97de-a71e960c5338"},"vehicle_type_id":"4","last_reported":1742818807,"current_range_meters":8800,"station_id":"cpo36qri1sfpv3e86is0","pricing_plan_id":"cebpf4jnsgd1na2vs0mg"},{"bike_id":"90cda2f0-22fd-43de-9112-912f036781a7","system_id":"levelo_inurba_marseille","lat":43.26218,"lon":5.37924,"is_reserved":false,"is_disabled":false,"rental_uris":{"android":"levelo://app?vid=90cda2f0-22fd-43de-9112-912f036781a7","ios":"levelo://app?vid=90cda2f0-22fd-43de-9112-912f036781a7"},"vehicle_type_id":"4","last_reported":1742818807,"current_range_meters":8800,"station_id":"ce4bhjp2rcd13ifvqg90","pricing_plan_id":"cebpf4jnsgd1na2vs0mg"},{"bike_id":"901ad870-67db-4efd-a3cc-2d5ce9510114","system_id":"levelo_inurba_marseille","lat":43.26817,"lon":5.39422,"is_reserved":false,"is_disabled":false,"rental_uris":{"android":"levelo://app?vid=901ad870-67db-4efd-a3cc-2d5ce9510114","ios":"levelo://app?vid=901ad870-67db-4efd-a3cc-2d5ce9510114"},"vehicle_type_id":"4","last_reported":1742818807,"current_range_meters":8800,"station_id":"ce4bhh12rcd13ifvqfg0","pricing_plan_id":"cebpf4jnsgd1na2vs0mg"},{"bike_id":"e03a81f7-5753-483d-b791-095abd0d4770","system_id":"levelo_inurba_marseille","lat":43.2501,"lon":5.38937,"is_reserved":false,"is_disabled":false,"rental_uris":{"android":"levelo://app?vid=e03a81f7-5753-483d-b791-095abd0d4770","ios":"levelo://app?vid=e03a81f7-5753-483d-b791-095abd0d4770"},"vehicle_type_id":"4","last_reported":1742818807,"current_range_meters":8800,"station_id":"ce4bhgp2rcd13ifvqfd0","pricing_plan_id":"cebpf4jnsgd1na2vs0mg"},{"bike_id":"598195f6-491a-403e-865b-529e114a6746","system_id":"levelo_inurba_marseille","lat":43.30439,"lon":5.39726,"is_reserved":false,"is_disabled":false,"rental_uris":{"android":"levelo://app?vid=598195f6-491a-403e-865b-529e114a6746","ios":"levelo://app?vid=598195f6-491a-403e-865b-529e114a6746"},"vehicle_type_id":"4","last_reported":1742818807,"current_range_meters":8800,"station_id":"ce4bh092rcd13ifvqd20","pricing_plan_id":"cebpf4jnsgd1na2vs0mg"},{"bike_id":"e286c3ad-5aad-4e60-be2d-b5f6cad4b6bc","system_id":"levelo_inurba_marseille","lat":43.29301,"lon":5.37475,"is_reserved":false,"is_disabled":false,"rental_uris":{"android":"levelo://app?vid=e286c3ad-5aad-4e60-be2d-b5f6cad4b6bc","ios":"levelo://app?vid=e286c3ad-5aad-4e60-be2d-b5f6cad4b6bc"},"vehicle_type_id":"4","last_reported":1742818807,"current_range_meters":9200,"station_id":"ce4bgi12rcd13ifvqb70","pricing_plan_id":"cebpf4jnsgd1na2vs0mg"},{"bike_id":"bb0a4a5f-6373-4b21-8807-70f0bc0a65c7","system_id":"levelo_inurba_marseille","lat":43.32483,"lon":5.36582,"is_reserved":false,"is_disabled":false,"rental_uris":{"android":"levelo://app?vid=bb0a4a5f-6373-4b21-8807-70f0bc0a65c7","ios":"levelo://app?vid=bb0a4a5f-6373-4b21-8807-70f0bc0a65c7"},"vehicle_type_id":"4","last_reported":1742818807,"current_range_meters":9200,"station_id":"ce4bhs12rcd13ifvqhvg","pricing_plan_id":"cebpf4jnsgd1na2vs0mg"},{"bike_id":"034718de-67f9-4b03-9b14-13a8fc4858ac","system_id":"levelo_inurba_marseille","lat":43.23159,"lon":5.35596,"is_reserved":false,"is_disabled":false,"rental_uris":{"android":"levelo://app?vid=034718de-67f9-4b03-9b14-13a8fc4858ac","ios":"levelo://app?vid=034718de-67f9-4b03-9b14-13a8fc4858ac"},"vehicle_type_id":"4","last_reported":1742818807,"current_range_meters":9200,"station_id":"","pricing_plan_id":"cebpf4jnsgd1na2vs0mg"},{"bike_id":"83749387-4504-4259-a6ca-3b74b7ae7717","system_id":"levelo_inurba_marseille","lat":43.23154,"lon":5.43712,"is_reserved":false,"is_disabled":false,"rental_uris":{"android":"levelo://app?vid=83749387-4504-4259-a6ca-3b74b7ae7717","ios":"levelo://app?vid=83749387-4504-4259-a6ca-3b74b7ae7717"},"vehicle_type_id":"4","last_reported":1742818807,"current_range_meters":9200,"station_id":"ce4bhmp2rcd13ifvqgog","pricing_plan_id":"cebpf4jnsgd1na2vs0mg"},{"bike_id":"b4033be0-5b35-45ca-9979-c7890f6c888e","system_id":"levelo_inurba_marseille","lat":43.311677,"lon":5.387185,"is_reserved":false,"is_disabled":false,"rental_uris":{"android":"levelo://app?vid=b4033be0-5b35-45ca-9979-c7890f6c888e","ios":"levelo://app?vid=b4033be0-5b35-45ca-9979-c7890f6c888e"},"vehicle_type_id":"4","last_reported":1742818807,"current_range_meters":9200,"station_id":"ce4bgv12rcd13ifvqcp0","pricing_plan_id":"cebpf4jnsgd1na2vs0mg"},{"bike_id":"7c54c6ac-2132-4ca8-9661-ae162e775719","system_id":"levelo_inurba_marseille","lat":43.28609,"lon":5.37068,"is_reserved":false,"is_disabled":false,"rental_uris":{"android":"levelo://app?vid=7c54c6ac-2132-4ca8-9661-ae162e775719","ios":"levelo://app?vid=7c54c6ac-2132-4ca8-9661-ae162e775719"},"vehicle_type_id":"4","last_reported":1742818807,"current_range_meters":9200,"station_id":"ce4bht12rcd13ifvqi60","pricing_plan_id":"cebpf4jnsgd1na2vs0mg"},{"bike_id":"c29943e4-d05b-4bb3-9ff0-70ddef36f620","system_id":"levelo_inurba_marseille","lat":43.27996,"lon":5.40007,"is_reserved":false,"is_disabled":false,"rental_uris":{"android":"levelo://app?vid=c29943e4-d05b-4bb3-9ff0-70ddef36f620","ios":"levelo://app?vid=c29943e4-d05b-4bb3-9ff0-70ddef36f620"},"vehicle_type_id":"4","last_reported":1742818807,"current_range_meters":9200,"station_id":"ce4bho92rcd13ifvqh4g","pricing_plan_id":"cebpf4jnsgd1na2vs0mg"},{"bike_id":"52f18f55-41e0-4bef-b2f4-b3b518035ca5","system_id":"levelo_inurba_marseille","lat":43.27494,"lon":5.42453,"is_reserved":false,"is_disabled":false,"rental_uris":{"android":"levelo://app?vid=52f18f55-41e0-4bef-b2f4-b3b518035ca5","ios":"levelo://app?vid=52f18f55-41e0-4bef-b2f4-b3b518035ca5"},"vehicle_type_id":"4","last_reported":1742818807,"current_range_meters":9200,"station_id":"ce4bhn92rcd13ifvqgrg","pricing_plan_id":"cebpf4jnsgd1na2vs0mg"},{"bike_id":"a0d35c22-9747-4009-b077-f71b7595a0a7","system_id":"levelo_inurba_marseille","lat":43.30933,"lon":5.36816,"is_reserved":false,"is_disabled":false,"rental_uris":{"android":"levelo://app?vid=a0d35c22-9747-4009-b077-f71b7595a0a7","ios":"levelo://app?vid=a0d35c22-9747-4009-b077-f71b7595a0a7"},"vehicle_type_id":"4","last_reported":1742818807,"current_range_meters":9200,"station_id":"ce4bgn92rcd13ifvqbvg","pricing_plan_id":"cebpf4jnsgd1na2vs0mg"},{"bike_id":"50e641d5-b9cd-474b-8e0f-b187e5f46175","system_id":"levelo_inurba_marseille","lat":43.29709,"lon":5.376883,"is_reserved":false,"is_disabled":false,"rental_uris":{"android":"levelo://app?vid=50e641d5-b9cd-474b-8e0f-b187e5f46175","ios":"levelo://app?vid=50e641d5-b9cd-474b-8e0f-b187e5f46175"},"vehicle_type_id":"4","last_reported":1742818807,"current_range_meters":9600,"station_id":"ce4bgkh2rcd13ifvqbl0","pricing_plan_id":"cebpf4jnsgd1na2vs0mg"},{"bike_id":"b9379432-0e96-4d9f-a7ed-12d7d124db3e","system_id":"levelo_inurba_marseille","lat":43.25947,"lon":5.40911,"is_reserved":false,"is_disabled":false,"rental_uris":{"android":"levelo://app?vid=b9379432-0e96-4d9f-a7ed-12d7d124db3e","ios":"levelo://app?vid=b9379432-0e96-4d9f-a7ed-12d7d124db3e"},"vehicle_type_id":"4","last_reported":1742818807,"current_range_meters":9600,"station_id":"ce4bhm92rcd13ifvqglg","pricing_plan_id":"cebpf4jnsgd1na2vs0mg"},{"bike_id":"73f24004-486a-42ce-8b4c-437345158989","system_id":"levelo_inurba_marseille","lat":43.25936,"lon":5.40906,"is_reserved":false,"is_disabled":false,"rental_uris":{"android":"levelo://app?vid=73f24004-486a-42ce-8b4c-437345158989","ios":"levelo://app?vid=73f24004-486a-42ce-8b4c-437345158989"},"vehicle_type_id":"4","last_reported":1742818807,"current_range_meters":9600,"station_id":"ce4bhm92rcd13ifvqglg","pricing_plan_id":"cebpf4jnsgd1na2vs0mg"},{"bike_id":"6a8fb34b-1c2c-4e30-9fa4-a23fcf3c6317","system_id":"levelo_inurba_marseille","lat":43.25939,"lon":5.40911,"is_reserved":false,"is_disabled":false,"rental_uris":{"android":"levelo://app?vid=6a8fb34b-1c2c-4e30-9fa4-a23fcf3c6317","ios":"levelo://app?vid=6a8fb34b-1c2c-4e30-9fa4-a23fcf3c6317"},"vehicle_type_id":"4","last_reported":1742818807,"current_range_meters":9600,"station_id":"ce4bhm92rcd13ifvqglg","pricing_plan_id":"cebpf4jnsgd1na2vs0mg"},{"bike_id":"ade816b3-8525-465e-9b65-111b9f8b4443","system_id":"levelo_inurba_marseille","lat":43.27341,"lon":5.39127,"is_reserved":false,"is_disabled":false,"rental_uris":{"android":"levelo://app?vid=ade816b3-8525-465e-9b65-111b9f8b4443","ios":"levelo://app?vid=ade816b3-8525-465e-9b65-111b9f8b4443"},"vehicle_type_id":"4","last_reported":1742818807,"current_range_meters":9600,"station_id":"ce4bhgp2rcd13ifvqfe0","pricing_plan_id":"cebpf4jnsgd1na2vs0mg"},{"bike_id":"e4b0a732-75d2-477a-aeb0-496098e57ee6","system_id":"levelo_inurba_marseille","lat":43.29921,"lon":5.37463,"is_reserved":false,"is_disabled":false,"rental_uris":{"android":"levelo://app?vid=e4b0a732-75d2-477a-aeb0-496098e57ee6","ios":"levelo://app?vid=e4b0a732-75d2-477a-aeb0-496098e57ee6"},"vehicle_type_id":"4","last_reported":1742818807,"current_range_meters":9600,"station_id":"ce4bgjh2rcd13ifvqbg0","pricing_plan_id":"cebpf4jnsgd1na2vs0mg"},{"bike_id":"6b388bab-d485-44f0-9b55-57c9fcd1ba07","system_id":"levelo_inurba_marseille","lat":43.24169,"lon":5.36394,"is_reserved":false,"is_disabled":false,"rental_uris":{"android":"levelo://app?vid=6b388bab-d485-44f0-9b55-57c9fcd1ba07","ios":"levelo://app?vid=6b388bab-d485-44f0-9b55-57c9fcd1ba07"},"vehicle_type_id":"4","last_reported":1742818807,"current_range_meters":9600,"station_id":"cpo36qri1sfpv3e86is0","pricing_plan_id":"cebpf4jnsgd1na2vs0mg"},{"bike_id":"587c4b09-c6c3-4755-8011-d820e3904490","system_id":"levelo_inurba_marseille","lat":43.23946,"lon":5.36646,"is_reserved":false,"is_disabled":false,"rental_uris":{"android":"levelo://app?vid=587c4b09-c6c3-4755-8011-d820e3904490","ios":"levelo://app?vid=587c4b09-c6c3-4755-8011-d820e3904490"},"vehicle_type_id":"4","last_reported":1742818807,"current_range_meters":9600,"station_id":"ce4bhi12rcd13ifvqfp0","pricing_plan_id":"cebpf4jnsgd1na2vs0mg"},{"bike_id":"24b77e8f-4e9e-4342-9950-404af23a4ef7","system_id":"levelo_inurba_marseille","lat":43.23963,"lon":5.36626,"is_reserved":false,"is_disabled":false,"rental_uris":{"android":"levelo://app?vid=24b77e8f-4e9e-4342-9950-404af23a4ef7","ios":"levelo://app?vid=24b77e8f-4e9e-4342-9950-404af23a4ef7"},"vehicle_type_id":"4","last_reported":1742818807,"current_range_meters":10000,"station_id":"ce4bhi12rcd13ifvqfp0","pricing_plan_id":"cebpf4jnsgd1na2vs0mg"},{"bike_id":"f52d578c-2e92-468c-8d0d-6b48faf8734d","system_id":"levelo_inurba_marseille","lat":43.29873,"lon":5.38922,"is_reserved":false,"is_disabled":true,"rental_uris":{"android":"levelo://app?vid=f52d578c-2e92-468c-8d0d-6b48faf8734d","ios":"levelo://app?vid=f52d578c-2e92-468c-8d0d-6b48faf8734d"},"vehicle_type_id":"4","last_reported":1742818807,"current_range_meters":10000,"station_id":"ce4bh392rcd13ifvqdl0","pricing_plan_id":"cebpf4jnsgd1na2vs0mg"},{"bike_id":"df71e60d-9738-4a38-9a53-57e77ee84d52","system_id":"levelo_inurba_marseille","lat":43.25579,"lon":5.38225,"is_reserved":false,"is_disabled":false,"rental_uris":{"android":"levelo://app?vid=df71e60d-9738-4a38-9a53-57e77ee84d52","ios":"levelo://app?vid=df71e60d-9738-4a38-9a53-57e77ee84d52"},"vehicle_type_id":"4","last_reported":1742818807,"current_range_meters":10000,"station_id":"ce4bhih2rcd13ifvqfs0","pricing_plan_id":"cebpf4jnsgd1na2vs0mg"},{"bike_id":"7273206e-33c7-427f-8bc4-129346bd94ce","system_id":"levelo_inurba_marseille","lat":43.24081,"lon":5.37755,"is_reserved":false,"is_disabled":false,"rental_uris":{"android":"levelo://app?vid=7273206e-33c7-427f-8bc4-129346bd94ce","ios":"levelo://app?vid=7273206e-33c7-427f-8bc4-129346bd94ce"},"vehicle_type_id":"4","last_reported":1742818807,"current_range_meters":10000,"station_id":"ce4bhnp2rcd13ifvqgvg","pricing_plan_id":"cebpf4jnsgd1na2vs0mg"},{"bike_id":"6ea15400-66ec-4906-a30a-a49eb95cbd96","system_id":"levelo_inurba_marseille","lat":43.2736,"lon":5.36249,"is_reserved":false,"is_disabled":false,"rental_uris":{"android":"levelo://app?vid=6ea15400-66ec-4906-a30a-a49eb95cbd96","ios":"levelo://app?vid=6ea15400-66ec-4906-a30a-a49eb95cbd96"},"vehicle_type_id":"4","last_reported":1742818807,"current_range_meters":10000,"station_id":"ce4bgjp2rcd13ifvqbh0","pricing_plan_id":"cebpf4jnsgd1na2vs0mg"},{"bike_id":"d1f7ca60-4bb4-4dd9-9c90-e8069ceefa40","system_id":"levelo_inurba_marseille","lat":43.24175,"lon":5.36401,"is_reserved":false,"is_disabled":false,"rental_uris":{"android":"levelo://app?vid=d1f7ca60-4bb4-4dd9-9c90-e8069ceefa40","ios":"levelo://app?vid=d1f7ca60-4bb4-4dd9-9c90-e8069ceefa40"},"vehicle_type_id":"4","last_reported":1742818807,"current_range_meters":10800,"station_id":"cpo36qri1sfpv3e86is0","pricing_plan_id":"cebpf4jnsgd1na2vs0mg"},{"bike_id":"76757220-d8a3-400d-93c0-947089c24c8c","system_id":"levelo_inurba_marseille","lat":43.299036,"lon":5.436654,"is_reserved":false,"is_disabled":false,"rental_uris":{"android":"levelo://app?vid=76757220-d8a3-400d-93c0-947089c24c8c","ios":"levelo://app?vid=76757220-d8a3-400d-93c0-947089c24c8c"},"vehicle_type_id":"4","last_reported":1742818807,"current_range_meters":10800,"station_id":"ce4bhpp2rcd13ifvqhfg","pricing_plan_id":"cebpf4jnsgd1na2vs0mg"},{"bike_id":"37d6be0a-b3a5-45d4-9191-60cff1e5bc9e","system_id":"levelo_inurba_marseille","lat":43.26782,"lon":5.3942,"is_reserved":false,"is_disabled":false,"rental_uris":{"android":"levelo://app?vid=37d6be0a-b3a5-45d4-9191-60cff1e5bc9e","ios":"levelo://app?vid=37d6be0a-b3a5-45d4-9191-60cff1e5bc9e"},"vehicle_type_id":"4","last_reported":1742818807,"current_range_meters":10800,"station_id":"ce4bhh12rcd13ifvqfg0","pricing_plan_id":"cebpf4jnsgd1na2vs0mg"},{"bike_id":"5b325468-7d7e-43bf-ad8c-857e76615080","system_id":"levelo_inurba_marseille","lat":43.26679,"lon":5.38269,"is_reserved":false,"is_disabled":false,"rental_uris":{"android":"levelo://app?vid=5b325468-7d7e-43bf-ad8c-857e76615080","ios":"levelo://app?vid=5b325468-7d7e-43bf-ad8c-857e76615080"},"vehicle_type_id":"4","last_reported":1742818807,"current_range_meters":10800,"station_id":"ce4bhg92rcd13ifvqf90","pricing_plan_id":"cebpf4jnsgd1na2vs0mg"},{"bike_id":"f30771e1-73d8-4d02-b97c-d48620cc6958","system_id":"levelo_inurba_marseille","lat":43.30562,"lon":5.36523,"is_reserved":false,"is_disabled":false,"rental_uris":{"android":"levelo://app?vid=f30771e1-73d8-4d02-b97c-d48620cc6958","ios":"levelo://app?vid=f30771e1-73d8-4d02-b97c-d48620cc6958"},"vehicle_type_id":"4","last_reported":1742818807,"current_range_meters":10800,"station_id":"ce4bgs12rcd13ifvqcag","pricing_plan_id":"cebpf4jnsgd1na2vs0mg"},{"bike_id":"d7849f20-3c53-4e3b-b31b-12baf6c3bbda","system_id":"levelo_inurba_marseille","lat":43.30173,"lon":5.3739,"is_reserved":false,"is_disabled":true,"rental_uris":{"android":"levelo://app?vid=d7849f20-3c53-4e3b-b31b-12baf6c3bbda","ios":"levelo://app?vid=d7849f20-3c53-4e3b-b31b-12baf6c3bbda"},"vehicle_type_id":"4","last_reported":1742818807,"current_range_meters":10800,"station_id":"ce4bgs92rcd13ifvqcc0","pricing_plan_id":"cebpf4jnsgd1na2vs0mg"},{"bike_id":"4742c007-6116-4b09-ae3f-c8a01b1665a8","system_id":"levelo_inurba_marseille","lat":43.27201,"lon":5.39182,"is_reserved":false,"is_disabled":false,"rental_uris":{"android":"levelo://app?vid=4742c007-6116-4b09-ae3f-c8a01b1665a8","ios":"levelo://app?vid=4742c007-6116-4b09-ae3f-c8a01b1665a8"},"vehicle_type_id":"4","last_reported":1742818807,"current_range_meters":10000,"station_id":"ce4bhhp2rcd13ifvqfm0","pricing_plan_id":"cebpf4jnsgd1na2vs0mg"},{"bike_id":"80f1c1d9-9a7b-4100-b3e0-90bd58333ebf","system_id":"levelo_inurba_marseille","lat":43.30591,"lon":5.39362,"is_reserved":false,"is_disabled":false,"rental_uris":{"android":"levelo://app?vid=80f1c1d9-9a7b-4100-b3e0-90bd58333ebf","ios":"levelo://app?vid=80f1c1d9-9a7b-4100-b3e0-90bd58333ebf"},"vehicle_type_id":"4","last_reported":1742818807,"current_range_meters":10800,"station_id":"ce4bh0p2rcd13ifvqd80","pricing_plan_id":"cebpf4jnsgd1na2vs0mg"},{"bike_id":"d4f91f45-0624-46e0-a253-ac67857b1545","system_id":"levelo_inurba_marseille","lat":43.29598,"lon":5.37712,"is_reserved":false,"is_disabled":false,"rental_uris":{"android":"levelo://app?vid=d4f91f45-0624-46e0-a253-ac67857b1545","ios":"levelo://app?vid=d4f91f45-0624-46e0-a253-ac67857b1545"},"vehicle_type_id":"4","last_reported":1742818807,"current_range_meters":11200,"station_id":"ce4bgi92rcd13ifvqb90","pricing_plan_id":"cebpf4jnsgd1na2vs0mg"},{"bike_id":"560ab0d8-3b35-4c64-9245-e610608dd5c6","system_id":"levelo_inurba_marseille","lat":43.31707,"lon":5.43723,"is_reserved":false,"is_disabled":false,"rental_uris":{"android":"levelo://app?vid=560ab0d8-3b35-4c64-9245-e610608dd5c6","ios":"levelo://app?vid=560ab0d8-3b35-4c64-9245-e610608dd5c6"},"vehicle_type_id":"4","last_reported":1742818807,"current_range_meters":11200,"station_id":"ce4bhp92rcd13ifvqhcg","pricing_plan_id":"cebpf4jnsgd1na2vs0mg"},{"bike_id":"2ce2029b-4cb6-4887-9b95-9dbf07c99a19","system_id":"levelo_inurba_marseille","lat":43.30306,"lon":5.36896,"is_reserved":false,"is_disabled":false,"rental_uris":{"android":"levelo://app?vid=2ce2029b-4cb6-4887-9b95-9dbf07c99a19","ios":"levelo://app?vid=2ce2029b-4cb6-4887-9b95-9dbf07c99a19"},"vehicle_type_id":"4","last_reported":1742818807,"current_range_meters":11200,"station_id":"ce4bgqh2rcd13ifvqc5g","pricing_plan_id":"cebpf4jnsgd1na2vs0mg"},{"bike_id":"4d055dc3-827b-4bf5-869d-3ccecbf211cb","system_id":"levelo_inurba_marseille","lat":43.239653,"lon":5.366323,"is_reserved":false,"is_disabled":false,"rental_uris":{"android":"levelo://app?vid=4d055dc3-827b-4bf5-869d-3ccecbf211cb","ios":"levelo://app?vid=4d055dc3-827b-4bf5-869d-3ccecbf211cb"},"vehicle_type_id":"4","last_reported":1742818807,"current_range_meters":11200,"station_id":"ce4bhi12rcd13ifvqfp0","pricing_plan_id":"cebpf4jnsgd1na2vs0mg"},{"bike_id":"e68f39a4-b1c9-4500-a984-f338c20cee46","system_id":"levelo_inurba_marseille","lat":43.24164,"lon":5.39737,"is_reserved":false,"is_disabled":false,"rental_uris":{"android":"levelo://app?vid=e68f39a4-b1c9-4500-a984-f338c20cee46","ios":"levelo://app?vid=e68f39a4-b1c9-4500-a984-f338c20cee46"},"vehicle_type_id":"4","last_reported":1742818807,"current_range_meters":11200,"station_id":"ce4bhn12rcd13ifvqgpg","pricing_plan_id":"cebpf4jnsgd1na2vs0mg"},{"bike_id":"1ddc70ec-e444-4841-84e9-456f7aeb224f","system_id":"levelo_inurba_marseille","lat":43.32124,"lon":5.41858,"is_reserved":false,"is_disabled":false,"rental_uris":{"android":"levelo://app?vid=1ddc70ec-e444-4841-84e9-456f7aeb224f","ios":"levelo://app?vid=1ddc70ec-e444-4841-84e9-456f7aeb224f"},"vehicle_type_id":"4","last_reported":1742818807,"current_range_meters":11600,"station_id":"","pricing_plan_id":"cebpf4jnsgd1na2vs0mg"},{"bike_id":"3f40203a-3e26-4115-b454-b7f68e4e9da6","system_id":"levelo_inurba_marseille","lat":43.30287,"lon":5.367793,"is_reserved":false,"is_disabled":false,"rental_uris":{"android":"levelo://app?vid=3f40203a-3e26-4115-b454-b7f68e4e9da6","ios":"levelo://app?vid=3f40203a-3e26-4115-b454-b7f68e4e9da6"},"vehicle_type_id":"4","last_reported":1742818807,"current_range_meters":11600,"station_id":"ce4bgvp2rcd13ifvqcu0","pricing_plan_id":"cebpf4jnsgd1na2vs0mg"},{"bike_id":"55b86800-4bfb-4509-b486-5706fe5277fd","system_id":"levelo_inurba_marseille","lat":43.28733,"lon":5.40003,"is_reserved":false,"is_disabled":true,"rental_uris":{"android":"levelo://app?vid=55b86800-4bfb-4509-b486-5706fe5277fd","ios":"levelo://app?vid=55b86800-4bfb-4509-b486-5706fe5277fd"},"vehicle_type_id":"4","last_reported":1742818807,"current_range_meters":11600,"station_id":"ce4bho92rcd13ifvqh3g","pricing_plan_id":"cebpf4jnsgd1na2vs0mg"},{"bike_id":"c460cb60-3591-4b3b-a81d-8509f802e1c6","system_id":"levelo_inurba_marseille","lat":43.25933,"lon":5.4091,"is_reserved":false,"is_disabled":false,"rental_uris":{"android":"levelo://app?vid=c460cb60-3591-4b3b-a81d-8509f802e1c6","ios":"levelo://app?vid=c460cb60-3591-4b3b-a81d-8509f802e1c6"},"vehicle_type_id":"4","last_reported":1742818807,"current_range_meters":11600,"station_id":"ce4bhm92rcd13ifvqglg","pricing_plan_id":"cebpf4jnsgd1na2vs0mg"},{"bike_id":"7d6193e3-915e-44a9-ae35-c9faba27c9f0","system_id":"levelo_inurba_marseille","lat":43.24547,"lon":5.3953,"is_reserved":false,"is_disabled":false,"rental_uris":{"android":"levelo://app?vid=7d6193e3-915e-44a9-ae35-c9faba27c9f0","ios":"levelo://app?vid=7d6193e3-915e-44a9-ae35-c9faba27c9f0"},"vehicle_type_id":"4","last_reported":1742818807,"current_range_meters":12000,"station_id":"ce4bhlp2rcd13ifvqgjg","pricing_plan_id":"cebpf4jnsgd1na2vs0mg"},{"bike_id":"61c7529f-f893-467b-9619-272f805fb7a6","system_id":"levelo_inurba_marseille","lat":43.2953,"lon":5.38553,"is_reserved":false,"is_disabled":false,"rental_uris":{"android":"levelo://app?vid=61c7529f-f893-467b-9619-272f805fb7a6","ios":"levelo://app?vid=61c7529f-f893-467b-9619-272f805fb7a6"},"vehicle_type_id":"4","last_reported":1742818807,"current_range_meters":11600,"station_id":"ce4bgih2rcd13ifvqba0","pricing_plan_id":"cebpf4jnsgd1na2vs0mg"},{"bike_id":"ba298775-8350-4b57-9be0-99308773b5b4","system_id":"levelo_inurba_marseille","lat":43.28167,"lon":5.42748,"is_reserved":false,"is_disabled":false,"rental_uris":{"android":"levelo://app?vid=ba298775-8350-4b57-9be0-99308773b5b4","ios":"levelo://app?vid=ba298775-8350-4b57-9be0-99308773b5b4"},"vehicle_type_id":"4","last_reported":1742818807,"current_range_meters":12000,"station_id":"","pricing_plan_id":"cebpf4jnsgd1na2vs0mg"},{"bike_id":"27a8051f-4f2a-4949-b6c0-f633b5e2d2f9","system_id":"levelo_inurba_marseille","lat":43.29769,"lon":5.37099,"is_reserved":false,"is_disabled":false,"rental_uris":{"android":"levelo://app?vid=27a8051f-4f2a-4949-b6c0-f633b5e2d2f9","ios":"levelo://app?vid=27a8051f-4f2a-4949-b6c0-f633b5e2d2f9"},"vehicle_type_id":"4","last_reported":1742818807,"current_range_meters":11600,"station_id":"ce4bgop2rcd13ifvqc1g","pricing_plan_id":"cebpf4jnsgd1na2vs0mg"},{"bike_id":"736c91b9-55e3-4321-94ab-405f5857da07","system_id":"levelo_inurba_marseille","lat":43.3059,"lon":5.39342,"is_reserved":false,"is_disabled":false,"rental_uris":{"android":"levelo://app?vid=736c91b9-55e3-4321-94ab-405f5857da07","ios":"levelo://app?vid=736c91b9-55e3-4321-94ab-405f5857da07"},"vehicle_type_id":"4","last_reported":1742818807,"current_range_meters":12000,"station_id":"ce4bh0p2rcd13ifvqd80","pricing_plan_id":"cebpf4jnsgd1na2vs0mg"},{"bike_id":"86b2a983-5048-46db-b0a8-452d1f77633d","system_id":"levelo_inurba_marseille","lat":43.2894,"lon":5.36643,"is_reserved":false,"is_disabled":false,"rental_uris":{"android":"levelo://app?vid=86b2a983-5048-46db-b0a8-452d1f77633d","ios":"levelo://app?vid=86b2a983-5048-46db-b0a8-452d1f77633d"},"vehicle_type_id":"4","last_reported":1742818807,"current_range_meters":12000,"station_id":"ce4bhap2rcd13ifvqek0","pricing_plan_id":"cebpf4jnsgd1na2vs0mg"},{"bike_id":"41c8b74c-362a-4ace-a8be-a871abb3ef89","system_id":"levelo_inurba_marseille","lat":43.26154,"lon":5.40544,"is_reserved":false,"is_disabled":false,"rental_uris":{"android":"levelo://app?vid=41c8b74c-362a-4ace-a8be-a871abb3ef89","ios":"levelo://app?vid=41c8b74c-362a-4ace-a8be-a871abb3ef89"},"vehicle_type_id":"4","last_reported":1742818807,"current_range_meters":12000,"station_id":"","pricing_plan_id":"cebpf4jnsgd1na2vs0mg"},{"bike_id":"64da6105-406b-402f-b4c9-ed2c19fbf402","system_id":"levelo_inurba_marseille","lat":43.292725,"lon":5.384452,"is_reserved":false,"is_disabled":true,"rental_uris":{"android":"levelo://app?vid=64da6105-406b-402f-b4c9-ed2c19fbf402","ios":"levelo://app?vid=64da6105-406b-402f-b4c9-ed2c19fbf402"},"vehicle_type_id":"4","last_reported":1742818807,"current_range_meters":12400,"station_id":"","pricing_plan_id":"cebpf4jnsgd1na2vs0mg"},{"bike_id":"fc88defb-c5ea-48ea-aa23-da6f0532c57b","system_id":"levelo_inurba_marseille","lat":43.3088,"lon":5.36872,"is_reserved":false,"is_disabled":false,"rental_uris":{"android":"levelo://app?vid=fc88defb-c5ea-48ea-aa23-da6f0532c57b","ios":"levelo://app?vid=fc88defb-c5ea-48ea-aa23-da6f0532c57b"},"vehicle_type_id":"4","last_reported":1742818807,"current_range_meters":12400,"station_id":"ce4bgn92rcd13ifvqbvg","pricing_plan_id":"cebpf4jnsgd1na2vs0mg"},{"bike_id":"11f4a5ee-676e-429f-8679-1776cbfb5777","system_id":"levelo_inurba_marseille","lat":43.23966,"lon":5.36623,"is_reserved":false,"is_disabled":false,"rental_uris":{"android":"levelo://app?vid=11f4a5ee-676e-429f-8679-1776cbfb5777","ios":"levelo://app?vid=11f4a5ee-676e-429f-8679-1776cbfb5777"},"vehicle_type_id":"4","last_reported":1742818807,"current_range_meters":12400,"station_id":"ce4bhi12rcd13ifvqfp0","pricing_plan_id":"cebpf4jnsgd1na2vs0mg"},{"bike_id":"aa6137eb-4271-4142-8cad-bc7491f59908","system_id":"levelo_inurba_marseille","lat":43.25118,"lon":5.40325,"is_reserved":false,"is_disabled":false,"rental_uris":{"android":"levelo://app?vid=aa6137eb-4271-4142-8cad-bc7491f59908","ios":"levelo://app?vid=aa6137eb-4271-4142-8cad-bc7491f59908"},"vehicle_type_id":"4","last_reported":1742818807,"current_range_meters":12400,"station_id":"ce4bhlh2rcd13ifvqgig","pricing_plan_id":"cebpf4jnsgd1na2vs0mg"},{"bike_id":"b164babd-f309-4de7-9177-902967ffd41c","system_id":"levelo_inurba_marseille","lat":43.28934,"lon":5.36374,"is_reserved":false,"is_disabled":false,"rental_uris":{"android":"levelo://app?vid=b164babd-f309-4de7-9177-902967ffd41c","ios":"levelo://app?vid=b164babd-f309-4de7-9177-902967ffd41c"},"vehicle_type_id":"4","last_reported":1742818807,"current_range_meters":12400,"station_id":"ce4bhc92rcd13ifvqetg","pricing_plan_id":"cebpf4jnsgd1na2vs0mg"},{"bike_id":"80b79683-3f45-48ab-8c2a-c59ed0fbe5fb","system_id":"levelo_inurba_marseille","lat":43.27503,"lon":5.42461,"is_reserved":false,"is_disabled":false,"rental_uris":{"android":"levelo://app?vid=80b79683-3f45-48ab-8c2a-c59ed0fbe5fb","ios":"levelo://app?vid=80b79683-3f45-48ab-8c2a-c59ed0fbe5fb"},"vehicle_type_id":"4","last_reported":1742818807,"current_range_meters":12400,"station_id":"ce4bhn92rcd13ifvqgrg","pricing_plan_id":"cebpf4jnsgd1na2vs0mg"},{"bike_id":"32cde700-c6ee-4575-bd98-46125e040cf2","system_id":"levelo_inurba_marseille","lat":43.27498,"lon":5.42452,"is_reserved":false,"is_disabled":false,"rental_uris":{"android":"levelo://app?vid=32cde700-c6ee-4575-bd98-46125e040cf2","ios":"levelo://app?vid=32cde700-c6ee-4575-bd98-46125e040cf2"},"vehicle_type_id":"4","last_reported":1742818807,"current_range_meters":12400,"station_id":"ce4bhn92rcd13ifvqgrg","pricing_plan_id":"cebpf4jnsgd1na2vs0mg"},{"bike_id":"b8c55d8a-dbd2-455d-921a-196c9c89183e","system_id":"levelo_inurba_marseille","lat":43.30962,"lon":5.39046,"is_reserved":false,"is_disabled":true,"rental_uris":{"android":"levelo://app?vid=b8c55d8a-dbd2-455d-921a-196c9c89183e","ios":"levelo://app?vid=b8c55d8a-dbd2-455d-921a-196c9c89183e"},"vehicle_type_id":"4","last_reported":1742818807,"current_range_meters":12400,"station_id":"ce4bgup2rcd13ifvqco0","pricing_plan_id":"cebpf4jnsgd1na2vs0mg"},{"bike_id":"24596766-33eb-4a2b-bec0-bd21c145e5b2","system_id":"levelo_inurba_marseille","lat":43.3043,"lon":5.389,"is_reserved":false,"is_disabled":false,"rental_uris":{"android":"levelo://app?vid=24596766-33eb-4a2b-bec0-bd21c145e5b2","ios":"levelo://app?vid=24596766-33eb-4a2b-bec0-bd21c145e5b2"},"vehicle_type_id":"4","last_reported":1742818807,"current_range_meters":12400,"station_id":"ce4bgk12rcd13ifvqbi0","pricing_plan_id":"cebpf4jnsgd1na2vs0mg"},{"bike_id":"b5539a93-6cda-469c-91a8-d0106cfa2cab","system_id":"levelo_inurba_marseille","lat":43.31902,"lon":5.40785,"is_reserved":false,"is_disabled":false,"rental_uris":{"android":"levelo://app?vid=b5539a93-6cda-469c-91a8-d0106cfa2cab","ios":"levelo://app?vid=b5539a93-6cda-469c-91a8-d0106cfa2cab"},"vehicle_type_id":"4","last_reported":1742818807,"current_range_meters":12800,"station_id":"ce4bhq12rcd13ifvqhig","pricing_plan_id":"cebpf4jnsgd1na2vs0mg"},{"bike_id":"ecce5ef5-fffb-4551-b35f-ad8ad47e8d82","system_id":"levelo_inurba_marseille","lat":43.26807,"lon":5.40266,"is_reserved":false,"is_disabled":false,"rental_uris":{"android":"levelo://app?vid=ecce5ef5-fffb-4551-b35f-ad8ad47e8d82","ios":"levelo://app?vid=ecce5ef5-fffb-4551-b35f-ad8ad47e8d82"},"vehicle_type_id":"4","last_reported":1742818807,"current_range_meters":12800,"station_id":"ce501612rcd8frsf0b60","pricing_plan_id":"cebpf4jnsgd1na2vs0mg"},{"bike_id":"5da44ac7-7d34-4350-b77b-cd7a17330f8d","system_id":"levelo_inurba_marseille","lat":43.28155,"lon":5.42647,"is_reserved":false,"is_disabled":false,"rental_uris":{"android":"levelo://app?vid=5da44ac7-7d34-4350-b77b-cd7a17330f8d","ios":"levelo://app?vid=5da44ac7-7d34-4350-b77b-cd7a17330f8d"},"vehicle_type_id":"4","last_reported":1742818807,"current_range_meters":12800,"station_id":"ce4bhnh2rcd13ifvqgug","pricing_plan_id":"cebpf4jnsgd1na2vs0mg"},{"bike_id":"5834dfcf-f290-419a-acc0-1e4a34af5222","system_id":"levelo_inurba_marseille","lat":43.23969,"lon":5.36637,"is_reserved":false,"is_disabled":false,"rental_uris":{"android":"levelo://app?vid=5834dfcf-f290-419a-acc0-1e4a34af5222","ios":"levelo://app?vid=5834dfcf-f290-419a-acc0-1e4a34af5222"},"vehicle_type_id":"4","last_reported":1742818807,"current_range_meters":12800,"station_id":"ce4bhi12rcd13ifvqfp0","pricing_plan_id":"cebpf4jnsgd1na2vs0mg"},{"bike_id":"b97b8876-d969-4576-b7ab-db9b2177d974","system_id":"levelo_inurba_marseille","lat":43.2763,"lon":5.38888,"is_reserved":false,"is_disabled":false,"rental_uris":{"android":"levelo://app?vid=b97b8876-d969-4576-b7ab-db9b2177d974","ios":"levelo://app?vid=b97b8876-d969-4576-b7ab-db9b2177d974"},"vehicle_type_id":"4","last_reported":1742818807,"current_range_meters":12800,"station_id":"","pricing_plan_id":"cebpf4jnsgd1na2vs0mg"},{"bike_id":"f20059fa-a648-4fc6-92a9-22d3814c3085","system_id":"levelo_inurba_marseille","lat":43.24391,"lon":5.37066,"is_reserved":false,"is_disabled":false,"rental_uris":{"android":"levelo://app?vid=f20059fa-a648-4fc6-92a9-22d3814c3085","ios":"levelo://app?vid=f20059fa-a648-4fc6-92a9-22d3814c3085"},"vehicle_type_id":"4","last_reported":1742818807,"current_range_meters":12800,"station_id":"ce4bhhh2rcd13ifvqfk0","pricing_plan_id":"cebpf4jnsgd1na2vs0mg"},{"bike_id":"45b24853-412b-406f-a456-c930caa99d0b","system_id":"levelo_inurba_marseille","lat":43.321,"lon":5.36791,"is_reserved":false,"is_disabled":false,"rental_uris":{"android":"levelo://app?vid=45b24853-412b-406f-a456-c930caa99d0b","ios":"levelo://app?vid=45b24853-412b-406f-a456-c930caa99d0b"},"vehicle_type_id":"4","last_reported":1742818807,"current_range_meters":12800,"station_id":"ce4bhrh2rcd13ifvqhug","pricing_plan_id":"cebpf4jnsgd1na2vs0mg"},{"bike_id":"d68dd08e-fa23-4565-a7b6-7a97edfe2ce9","system_id":"levelo_inurba_marseille","lat":43.2893,"lon":5.38393,"is_reserved":false,"is_disabled":true,"rental_uris":{"android":"levelo://app?vid=d68dd08e-fa23-4565-a7b6-7a97edfe2ce9","ios":"levelo://app?vid=d68dd08e-fa23-4565-a7b6-7a97edfe2ce9"},"vehicle_type_id":"4","last_reported":1742818807,"current_range_meters":13600,"station_id":"ce4bh612rcd13ifvqe6g","pricing_plan_id":"cebpf4jnsgd1na2vs0mg"},{"bike_id":"5ec601f7-f8cd-4f64-b783-c78aa45776ec","system_id":"levelo_inurba_marseille","lat":43.24543,"lon":5.39521,"is_reserved":false,"is_disabled":false,"rental_uris":{"android":"levelo://app?vid=5ec601f7-f8cd-4f64-b783-c78aa45776ec","ios":"levelo://app?vid=5ec601f7-f8cd-4f64-b783-c78aa45776ec"},"vehicle_type_id":"4","last_reported":1742818807,"current_range_meters":13600,"station_id":"ce4bhlp2rcd13ifvqgjg","pricing_plan_id":"cebpf4jnsgd1na2vs0mg"},{"bike_id":"074ef621-2343-421e-9821-ea27910008f6","system_id":"levelo_inurba_marseille","lat":43.236669,"lon":5.377728,"is_reserved":false,"is_disabled":false,"rental_uris":{"android":"levelo://app?vid=074ef621-2343-421e-9821-ea27910008f6","ios":"levelo://app?vid=074ef621-2343-421e-9821-ea27910008f6"},"vehicle_type_id":"4","last_reported":1742818807,"current_range_meters":13600,"station_id":"","pricing_plan_id":"cebpf4jnsgd1na2vs0mg"},{"bike_id":"dbbd636e-a5cb-462f-9394-b160e90ed820","system_id":"levelo_inurba_marseille","lat":43.25945,"lon":5.40911,"is_reserved":false,"is_disabled":false,"rental_uris":{"android":"levelo://app?vid=dbbd636e-a5cb-462f-9394-b160e90ed820","ios":"levelo://app?vid=dbbd636e-a5cb-462f-9394-b160e90ed820"},"vehicle_type_id":"4","last_reported":1742818807,"current_range_meters":13600,"station_id":"ce4bhm92rcd13ifvqglg","pricing_plan_id":"cebpf4jnsgd1na2vs0mg"},{"bike_id":"32c52765-d7d0-4271-9921-e60cde98e516","system_id":"levelo_inurba_marseille","lat":43.30918,"lon":5.40154,"is_reserved":false,"is_disabled":true,"rental_uris":{"android":"levelo://app?vid=32c52765-d7d0-4271-9921-e60cde98e516","ios":"levelo://app?vid=32c52765-d7d0-4271-9921-e60cde98e516"},"vehicle_type_id":"4","last_reported":1742818807,"current_range_meters":13600,"station_id":"ce4bgvp2rcd13ifvqct0","pricing_plan_id":"cebpf4jnsgd1na2vs0mg"},{"bike_id":"3bdebdf2-56ae-437c-b382-19775de32079","system_id":"levelo_inurba_marseille","lat":43.298534,"lon":5.362931,"is_reserved":false,"is_disabled":false,"rental_uris":{"android":"levelo://app?vid=3bdebdf2-56ae-437c-b382-19775de32079","ios":"levelo://app?vid=3bdebdf2-56ae-437c-b382-19775de32079"},"vehicle_type_id":"4","last_reported":1742818807,"current_range_meters":13600,"station_id":"ce4bgpp2rcd13ifvqc3g","pricing_plan_id":"cebpf4jnsgd1na2vs0mg"},{"bike_id":"03fa1842-6914-4ed3-96af-3c0bb5287892","system_id":"levelo_inurba_marseille","lat":43.29313,"lon":5.37186,"is_reserved":false,"is_disabled":false,"rental_uris":{"android":"levelo://app?vid=03fa1842-6914-4ed3-96af-3c0bb5287892","ios":"levelo://app?vid=03fa1842-6914-4ed3-96af-3c0bb5287892"},"vehicle_type_id":"4","last_reported":1742818807,"current_range_meters":13600,"station_id":"ce4bgh92rcd13ifvqb40","pricing_plan_id":"cebpf4jnsgd1na2vs0mg"},{"bike_id":"aa295b55-7724-4f0e-83af-72c6ad37b349","system_id":"levelo_inurba_marseille","lat":43.32541,"lon":5.41425,"is_reserved":false,"is_disabled":false,"rental_uris":{"android":"levelo://app?vid=aa295b55-7724-4f0e-83af-72c6ad37b349","ios":"levelo://app?vid=aa295b55-7724-4f0e-83af-72c6ad37b349"},"vehicle_type_id":"4","last_reported":1742818807,"current_range_meters":13600,"station_id":"ce4bhq12rcd13ifvqhhg","pricing_plan_id":"cebpf4jnsgd1na2vs0mg"},{"bike_id":"09970276-bc89-434d-91a0-c6dee7402bba","system_id":"levelo_inurba_marseille","lat":43.24164,"lon":5.39723,"is_reserved":false,"is_disabled":false,"rental_uris":{"android":"levelo://app?vid=09970276-bc89-434d-91a0-c6dee7402bba","ios":"levelo://app?vid=09970276-bc89-434d-91a0-c6dee7402bba"},"vehicle_type_id":"4","last_reported":1742818807,"current_range_meters":13600,"station_id":"ce4bhn12rcd13ifvqgpg","pricing_plan_id":"cebpf4jnsgd1na2vs0mg"},{"bike_id":"1511eef7-e079-4ec1-af6f-8ac98fa5f523","system_id":"levelo_inurba_marseille","lat":43.30594,"lon":5.39358,"is_reserved":false,"is_disabled":false,"rental_uris":{"android":"levelo://app?vid=1511eef7-e079-4ec1-af6f-8ac98fa5f523","ios":"levelo://app?vid=1511eef7-e079-4ec1-af6f-8ac98fa5f523"},"vehicle_type_id":"4","last_reported":1742818807,"current_range_meters":13600,"station_id":"ce4bh0p2rcd13ifvqd80","pricing_plan_id":"cebpf4jnsgd1na2vs0mg"},{"bike_id":"2abba992-83cb-40f9-b065-c086a49cca91","system_id":"levelo_inurba_marseille","lat":43.24071,"lon":5.37758,"is_reserved":false,"is_disabled":false,"rental_uris":{"android":"levelo://app?vid=2abba992-83cb-40f9-b065-c086a49cca91","ios":"levelo://app?vid=2abba992-83cb-40f9-b065-c086a49cca91"},"vehicle_type_id":"4","last_reported":1742818807,"current_range_meters":13600,"station_id":"ce4bhnp2rcd13ifvqgvg","pricing_plan_id":"cebpf4jnsgd1na2vs0mg"},{"bike_id":"7693ecee-8d6e-455f-b5ec-ea4ac1b115de","system_id":"levelo_inurba_marseille","lat":43.31259,"lon":5.36818,"is_reserved":false,"is_disabled":false,"rental_uris":{"android":"levelo://app?vid=7693ecee-8d6e-455f-b5ec-ea4ac1b115de","ios":"levelo://app?vid=7693ecee-8d6e-455f-b5ec-ea4ac1b115de"},"vehicle_type_id":"4","last_reported":1742818807,"current_range_meters":13600,"station_id":"ce4bgl92rcd13ifvqbq0","pricing_plan_id":"cebpf4jnsgd1na2vs0mg"},{"bike_id":"989306f0-ec00-4c5a-a143-c730bd5bb983","system_id":"levelo_inurba_marseille","lat":43.26514,"lon":5.37319,"is_reserved":false,"is_disabled":false,"rental_uris":{"android":"levelo://app?vid=989306f0-ec00-4c5a-a143-c730bd5bb983","ios":"levelo://app?vid=989306f0-ec00-4c5a-a143-c730bd5bb983"},"vehicle_type_id":"4","last_reported":1742818807,"current_range_meters":13600,"station_id":"","pricing_plan_id":"cebpf4jnsgd1na2vs0mg"},{"bike_id":"c303419a-3e1e-460f-a78e-e39e0af2206e","system_id":"levelo_inurba_marseille","lat":43.30547,"lon":5.36527,"is_reserved":false,"is_disabled":false,"rental_uris":{"android":"levelo://app?vid=c303419a-3e1e-460f-a78e-e39e0af2206e","ios":"levelo://app?vid=c303419a-3e1e-460f-a78e-e39e0af2206e"},"vehicle_type_id":"4","last_reported":1742818807,"current_range_meters":11600,"station_id":"ce4bgs12rcd13ifvqcag","pricing_plan_id":"cebpf4jnsgd1na2vs0mg"},{"bike_id":"e49a6b7e-50dc-4535-9de0-73370bd3d472","system_id":"levelo_inurba_marseille","lat":43.27802,"lon":5.42742,"is_reserved":false,"is_disabled":false,"rental_uris":{"android":"levelo://app?vid=e49a6b7e-50dc-4535-9de0-73370bd3d472","ios":"levelo://app?vid=e49a6b7e-50dc-4535-9de0-73370bd3d472"},"vehicle_type_id":"4","last_reported":1742818807,"current_range_meters":13600,"station_id":"","pricing_plan_id":"cebpf4jnsgd1na2vs0mg"},{"bike_id":"5362e564-49a1-4afb-a12b-05ced5661eaa","system_id":"levelo_inurba_marseille","lat":43.30549,"lon":5.36531,"is_reserved":false,"is_disabled":false,"rental_uris":{"android":"levelo://app?vid=5362e564-49a1-4afb-a12b-05ced5661eaa","ios":"levelo://app?vid=5362e564-49a1-4afb-a12b-05ced5661eaa"},"vehicle_type_id":"4","last_reported":1742818807,"current_range_meters":13600,"station_id":"ce4bgs12rcd13ifvqcag","pricing_plan_id":"cebpf4jnsgd1na2vs0mg"},{"bike_id":"5aa0b45f-be4e-4023-b733-8ed860543228","system_id":"levelo_inurba_marseille","lat":43.23064,"lon":5.35502,"is_reserved":false,"is_disabled":false,"rental_uris":{"android":"levelo://app?vid=5aa0b45f-be4e-4023-b733-8ed860543228","ios":"levelo://app?vid=5aa0b45f-be4e-4023-b733-8ed860543228"},"vehicle_type_id":"4","last_reported":1742818807,"current_range_meters":14000,"station_id":"cpo3342slgdg3j2ifvpg","pricing_plan_id":"cebpf4jnsgd1na2vs0mg"},{"bike_id":"337f285b-8d16-4243-b6fe-77ffd1618588","system_id":"levelo_inurba_marseille","lat":43.28715,"lon":5.39971,"is_reserved":false,"is_disabled":false,"rental_uris":{"android":"levelo://app?vid=337f285b-8d16-4243-b6fe-77ffd1618588","ios":"levelo://app?vid=337f285b-8d16-4243-b6fe-77ffd1618588"},"vehicle_type_id":"4","last_reported":1742818807,"current_range_meters":14000,"station_id":"ce4bho92rcd13ifvqh3g","pricing_plan_id":"cebpf4jnsgd1na2vs0mg"},{"bike_id":"65baa645-2b2c-4c3c-9075-555ba02a44f7","system_id":"levelo_inurba_marseille","lat":43.24067,"lon":5.37769,"is_reserved":false,"is_disabled":false,"rental_uris":{"android":"levelo://app?vid=65baa645-2b2c-4c3c-9075-555ba02a44f7","ios":"levelo://app?vid=65baa645-2b2c-4c3c-9075-555ba02a44f7"},"vehicle_type_id":"4","last_reported":1742818807,"current_range_meters":14000,"station_id":"ce4bhnp2rcd13ifvqgvg","pricing_plan_id":"cebpf4jnsgd1na2vs0mg"},{"bike_id":"de5ee395-27b0-47e4-ad82-2ba579efa4a0","system_id":"levelo_inurba_marseille","lat":43.24547,"lon":5.39531,"is_reserved":false,"is_disabled":false,"rental_uris":{"android":"levelo://app?vid=de5ee395-27b0-47e4-ad82-2ba579efa4a0","ios":"levelo://app?vid=de5ee395-27b0-47e4-ad82-2ba579efa4a0"},"vehicle_type_id":"4","last_reported":1742818807,"current_range_meters":14000,"station_id":"ce4bhlp2rcd13ifvqgjg","pricing_plan_id":"cebpf4jnsgd1na2vs0mg"},{"bike_id":"8b0044fa-37e4-42fc-bb47-64dd5d739dae","system_id":"levelo_inurba_marseille","lat":43.23056,"lon":5.35506,"is_reserved":false,"is_disabled":false,"rental_uris":{"android":"levelo://app?vid=8b0044fa-37e4-42fc-bb47-64dd5d739dae","ios":"levelo://app?vid=8b0044fa-37e4-42fc-bb47-64dd5d739dae"},"vehicle_type_id":"4","last_reported":1742818807,"current_range_meters":14000,"station_id":"cpo3342slgdg3j2ifvpg","pricing_plan_id":"cebpf4jnsgd1na2vs0mg"},{"bike_id":"ef12f1df-58a7-44f9-a515-abbc046895de","system_id":"levelo_inurba_marseille","lat":43.24178,"lon":5.39732,"is_reserved":false,"is_disabled":false,"rental_uris":{"android":"levelo://app?vid=ef12f1df-58a7-44f9-a515-abbc046895de","ios":"levelo://app?vid=ef12f1df-58a7-44f9-a515-abbc046895de"},"vehicle_type_id":"4","last_reported":1742818807,"current_range_meters":14400,"station_id":"ce4bhn12rcd13ifvqgpg","pricing_plan_id":"cebpf4jnsgd1na2vs0mg"},{"bike_id":"b5ae632d-8d5b-4604-9920-7352afff5e7c","system_id":"levelo_inurba_marseille","lat":43.28983,"lon":5.37848,"is_reserved":false,"is_disabled":false,"rental_uris":{"android":"levelo://app?vid=b5ae632d-8d5b-4604-9920-7352afff5e7c","ios":"levelo://app?vid=b5ae632d-8d5b-4604-9920-7352afff5e7c"},"vehicle_type_id":"4","last_reported":1742818807,"current_range_meters":14400,"station_id":"ce4bh9p2rcd13ifvqed0","pricing_plan_id":"cebpf4jnsgd1na2vs0mg"},{"bike_id":"ce942f3c-c8bc-45ca-9166-50ef7d5bca2c","system_id":"levelo_inurba_marseille","lat":43.23061,"lon":5.35501,"is_reserved":false,"is_disabled":false,"rental_uris":{"android":"levelo://app?vid=ce942f3c-c8bc-45ca-9166-50ef7d5bca2c","ios":"levelo://app?vid=ce942f3c-c8bc-45ca-9166-50ef7d5bca2c"},"vehicle_type_id":"4","last_reported":1742818807,"current_range_meters":14400,"station_id":"cpo3342slgdg3j2ifvpg","pricing_plan_id":"cebpf4jnsgd1na2vs0mg"},{"bike_id":"b91e64e7-d25b-41c3-a6a4-73a829fb9e24","system_id":"levelo_inurba_marseille","lat":43.24175,"lon":5.39729,"is_reserved":false,"is_disabled":false,"rental_uris":{"android":"levelo://app?vid=b91e64e7-d25b-41c3-a6a4-73a829fb9e24","ios":"levelo://app?vid=b91e64e7-d25b-41c3-a6a4-73a829fb9e24"},"vehicle_type_id":"4","last_reported":1742818807,"current_range_meters":14400,"station_id":"ce4bhn12rcd13ifvqgpg","pricing_plan_id":"cebpf4jnsgd1na2vs0mg"},{"bike_id":"60fc9dc0-aa89-46d1-a71a-98cd30570cb9","system_id":"levelo_inurba_marseille","lat":43.25681,"lon":5.41039,"is_reserved":false,"is_disabled":false,"rental_uris":{"android":"levelo://app?vid=60fc9dc0-aa89-46d1-a71a-98cd30570cb9","ios":"levelo://app?vid=60fc9dc0-aa89-46d1-a71a-98cd30570cb9"},"vehicle_type_id":"4","last_reported":1742818807,"current_range_meters":14800,"station_id":"ce4bhkp2rcd13ifvqgd0","pricing_plan_id":"cebpf4jnsgd1na2vs0mg"},{"bike_id":"1a9da04f-8e3e-4762-8e52-8473978823ca","system_id":"levelo_inurba_marseille","lat":43.2919,"lon":5.35805,"is_reserved":false,"is_disabled":false,"rental_uris":{"android":"levelo://app?vid=1a9da04f-8e3e-4762-8e52-8473978823ca","ios":"levelo://app?vid=1a9da04f-8e3e-4762-8e52-8473978823ca"},"vehicle_type_id":"4","last_reported":1742818807,"current_range_meters":14800,"station_id":"ce4bhb12rcd13ifvqel0","pricing_plan_id":"cebpf4jnsgd1na2vs0mg"},{"bike_id":"6e75398e-1c4f-45aa-964f-4246957d694a","system_id":"levelo_inurba_marseille","lat":43.29257,"lon":5.4091,"is_reserved":false,"is_disabled":false,"rental_uris":{"android":"levelo://app?vid=6e75398e-1c4f-45aa-964f-4246957d694a","ios":"levelo://app?vid=6e75398e-1c4f-45aa-964f-4246957d694a"},"vehicle_type_id":"4","last_reported":1742818807,"current_range_meters":14800,"station_id":"ce4bh192rcd13ifvqdc0","pricing_plan_id":"cebpf4jnsgd1na2vs0mg"},{"bike_id":"8b342900-a7a0-4299-a84a-dbd75d66fba5","system_id":"levelo_inurba_marseille","lat":43.30314,"lon":5.36909,"is_reserved":false,"is_disabled":false,"rental_uris":{"android":"levelo://app?vid=8b342900-a7a0-4299-a84a-dbd75d66fba5","ios":"levelo://app?vid=8b342900-a7a0-4299-a84a-dbd75d66fba5"},"vehicle_type_id":"4","last_reported":1742818807,"current_range_meters":14800,"station_id":"ce4bgqh2rcd13ifvqc5g","pricing_plan_id":"cebpf4jnsgd1na2vs0mg"},{"bike_id":"5c9147ac-c957-4842-b813-ce331890bef7","system_id":"levelo_inurba_marseille","lat":43.29024,"lon":5.38637,"is_reserved":false,"is_disabled":false,"rental_uris":{"android":"levelo://app?vid=5c9147ac-c957-4842-b813-ce331890bef7","ios":"levelo://app?vid=5c9147ac-c957-4842-b813-ce331890bef7"},"vehicle_type_id":"4","last_reported":1742818807,"current_range_meters":14800,"station_id":"ce4bh4p2rcd13ifvqe0g","pricing_plan_id":"cebpf4jnsgd1na2vs0mg"},{"bike_id":"eacd5ebb-de17-45f6-9755-15b1dd2ae8a6","system_id":"levelo_inurba_marseille","lat":43.33765,"lon":5.37481,"is_reserved":false,"is_disabled":false,"rental_uris":{"android":"levelo://app?vid=eacd5ebb-de17-45f6-9755-15b1dd2ae8a6","ios":"levelo://app?vid=eacd5ebb-de17-45f6-9755-15b1dd2ae8a6"},"vehicle_type_id":"4","last_reported":1742818807,"current_range_meters":15200,"station_id":"","pricing_plan_id":"cebpf4jnsgd1na2vs0mg"},{"bike_id":"e07ea2d7-5b46-4660-b60c-44f8cf6d528d","system_id":"levelo_inurba_marseille","lat":43.23153,"lon":5.43727,"is_reserved":false,"is_disabled":false,"rental_uris":{"android":"levelo://app?vid=e07ea2d7-5b46-4660-b60c-44f8cf6d528d","ios":"levelo://app?vid=e07ea2d7-5b46-4660-b60c-44f8cf6d528d"},"vehicle_type_id":"4","last_reported":1742818807,"current_range_meters":15200,"station_id":"ce4bhmp2rcd13ifvqgog","pricing_plan_id":"cebpf4jnsgd1na2vs0mg"},{"bike_id":"97fc6da2-3f1e-4236-8b06-17311a556026","system_id":"levelo_inurba_marseille","lat":43.26026,"lon":5.37553,"is_reserved":false,"is_disabled":false,"rental_uris":{"android":"levelo://app?vid=97fc6da2-3f1e-4236-8b06-17311a556026","ios":"levelo://app?vid=97fc6da2-3f1e-4236-8b06-17311a556026"},"vehicle_type_id":"4","last_reported":1742818807,"current_range_meters":15200,"station_id":"ce4bhgh2rcd13ifvqfa0","pricing_plan_id":"cebpf4jnsgd1na2vs0mg"},{"bike_id":"4d20ea73-6700-4a57-b0b6-7f80c2f1f990","system_id":"levelo_inurba_marseille","lat":43.23959,"lon":5.36635,"is_reserved":false,"is_disabled":false,"rental_uris":{"android":"levelo://app?vid=4d20ea73-6700-4a57-b0b6-7f80c2f1f990","ios":"levelo://app?vid=4d20ea73-6700-4a57-b0b6-7f80c2f1f990"},"vehicle_type_id":"4","last_reported":1742818807,"current_range_meters":15200,"station_id":"ce4bhi12rcd13ifvqfp0","pricing_plan_id":"cebpf4jnsgd1na2vs0mg"},{"bike_id":"aacabc2e-b5f4-4836-97cb-dd2be5b36748","system_id":"levelo_inurba_marseille","lat":43.30536,"lon":5.36693,"is_reserved":false,"is_disabled":false,"rental_uris":{"android":"levelo://app?vid=aacabc2e-b5f4-4836-97cb-dd2be5b36748","ios":"levelo://app?vid=aacabc2e-b5f4-4836-97cb-dd2be5b36748"},"vehicle_type_id":"4","last_reported":1742818807,"current_range_meters":15200,"station_id":"ce4bgrp2rcd13ifvqc9g","pricing_plan_id":"cebpf4jnsgd1na2vs0mg"},{"bike_id":"c879fc11-03ba-4076-9319-92ceffb46489","system_id":"levelo_inurba_marseille","lat":43.30787,"lon":5.37657,"is_reserved":false,"is_disabled":false,"rental_uris":{"android":"levelo://app?vid=c879fc11-03ba-4076-9319-92ceffb46489","ios":"levelo://app?vid=c879fc11-03ba-4076-9319-92ceffb46489"},"vehicle_type_id":"4","last_reported":1742818807,"current_range_meters":15200,"station_id":"ce4bgv92rcd13ifvqcq0","pricing_plan_id":"cebpf4jnsgd1na2vs0mg"},{"bike_id":"11a49c7b-5038-411f-a240-88e098d89f73","system_id":"levelo_inurba_marseille","lat":43.26603,"lon":5.39088,"is_reserved":false,"is_disabled":true,"rental_uris":{"android":"levelo://app?vid=11a49c7b-5038-411f-a240-88e098d89f73","ios":"levelo://app?vid=11a49c7b-5038-411f-a240-88e098d89f73"},"vehicle_type_id":"4","last_reported":1742818807,"current_range_meters":15200,"station_id":"ce4bhe12rcd13ifvqf30","pricing_plan_id":"cebpf4jnsgd1na2vs0mg"},{"bike_id":"6ad42eac-a3da-42db-a1ab-f8417f9ab6dc","system_id":"levelo_inurba_marseille","lat":43.30086,"lon":5.39903,"is_reserved":false,"is_disabled":false,"rental_uris":{"android":"levelo://app?vid=6ad42eac-a3da-42db-a1ab-f8417f9ab6dc","ios":"levelo://app?vid=6ad42eac-a3da-42db-a1ab-f8417f9ab6dc"},"vehicle_type_id":"4","last_reported":1742818807,"current_range_meters":16000,"station_id":"ce4bh0h2rcd13ifvqd40","pricing_plan_id":"cebpf4jnsgd1na2vs0mg"},{"bike_id":"cbc1e719-a426-446f-ba4e-9eb03658ff6d","system_id":"levelo_inurba_marseille","lat":43.31378,"lon":5.36725,"is_reserved":false,"is_disabled":false,"rental_uris":{"android":"levelo://app?vid=cbc1e719-a426-446f-ba4e-9eb03658ff6d","ios":"levelo://app?vid=cbc1e719-a426-446f-ba4e-9eb03658ff6d"},"vehicle_type_id":"4","last_reported":1742818807,"current_range_meters":16000,"station_id":"ce4bgr92rcd13ifvqc6g","pricing_plan_id":"cebpf4jnsgd1na2vs0mg"},{"bike_id":"2ba0f073-e0c1-4981-8b66-b0ecda6f1fe8","system_id":"levelo_inurba_marseille","lat":43.27825,"lon":5.40716,"is_reserved":false,"is_disabled":true,"rental_uris":{"android":"levelo://app?vid=2ba0f073-e0c1-4981-8b66-b0ecda6f1fe8","ios":"levelo://app?vid=2ba0f073-e0c1-4981-8b66-b0ecda6f1fe8"},"vehicle_type_id":"4","last_reported":1742818807,"current_range_meters":16000,"station_id":"ce4bhnh2rcd13ifvqgtg","pricing_plan_id":"cebpf4jnsgd1na2vs0mg"},{"bike_id":"d1adfc43-e43c-4f7c-aa18-df37eb15e88e","system_id":"levelo_inurba_marseille","lat":43.29946,"lon":5.41337,"is_reserved":false,"is_disabled":true,"rental_uris":{"android":"levelo://app?vid=d1adfc43-e43c-4f7c-aa18-df37eb15e88e","ios":"levelo://app?vid=d1adfc43-e43c-4f7c-aa18-df37eb15e88e"},"vehicle_type_id":"4","last_reported":1742818807,"current_range_meters":16000,"station_id":"ce4bhp12rcd13ifvqh9g","pricing_plan_id":"cebpf4jnsgd1na2vs0mg"},{"bike_id":"c09aa104-4374-4e6e-a723-3f9db14006ec","system_id":"levelo_inurba_marseille","lat":43.26497,"lon":5.39542,"is_reserved":false,"is_disabled":false,"rental_uris":{"android":"levelo://app?vid=c09aa104-4374-4e6e-a723-3f9db14006ec","ios":"levelo://app?vid=c09aa104-4374-4e6e-a723-3f9db14006ec"},"vehicle_type_id":"4","last_reported":1742818807,"current_range_meters":16000,"station_id":"ce4bhi12rcd13ifvqfq0","pricing_plan_id":"cebpf4jnsgd1na2vs0mg"},{"bike_id":"ea7cde4d-2353-4207-9f0d-08689e8d76d1","system_id":"levelo_inurba_marseille","lat":43.26814,"lon":5.40262,"is_reserved":false,"is_disabled":false,"rental_uris":{"android":"levelo://app?vid=ea7cde4d-2353-4207-9f0d-08689e8d76d1","ios":"levelo://app?vid=ea7cde4d-2353-4207-9f0d-08689e8d76d1"},"vehicle_type_id":"4","last_reported":1742818807,"current_range_meters":16000,"station_id":"ce501612rcd8frsf0b60","pricing_plan_id":"cebpf4jnsgd1na2vs0mg"},{"bike_id":"53b26c9b-4d8c-4fda-9104-0074c8e3519e","system_id":"levelo_inurba_marseille","lat":43.27839,"lon":5.39212,"is_reserved":false,"is_disabled":false,"rental_uris":{"android":"levelo://app?vid=53b26c9b-4d8c-4fda-9104-0074c8e3519e","ios":"levelo://app?vid=53b26c9b-4d8c-4fda-9104-0074c8e3519e"},"vehicle_type_id":"4","last_reported":1742818807,"current_range_meters":16000,"station_id":"ce4bhjp2rcd13ifvqga0","pricing_plan_id":"cebpf4jnsgd1na2vs0mg"},{"bike_id":"a217dba8-10cd-4508-ba4e-4ee969621ee1","system_id":"levelo_inurba_marseille","lat":43.24388,"lon":5.37061,"is_reserved":false,"is_disabled":false,"rental_uris":{"android":"levelo://app?vid=a217dba8-10cd-4508-ba4e-4ee969621ee1","ios":"levelo://app?vid=a217dba8-10cd-4508-ba4e-4ee969621ee1"},"vehicle_type_id":"4","last_reported":1742818807,"current_range_meters":15200,"station_id":"ce4bhhh2rcd13ifvqfk0","pricing_plan_id":"cebpf4jnsgd1na2vs0mg"},{"bike_id":"8a7dc508-8681-48c4-8b3e-c86f5ffcc977","system_id":"levelo_inurba_marseille","lat":43.30106,"lon":5.39061,"is_reserved":false,"is_disabled":false,"rental_uris":{"android":"levelo://app?vid=8a7dc508-8681-48c4-8b3e-c86f5ffcc977","ios":"levelo://app?vid=8a7dc508-8681-48c4-8b3e-c86f5ffcc977"},"vehicle_type_id":"4","last_reported":1742818807,"current_range_meters":16000,"station_id":"ce4bh192rcd13ifvqdb0","pricing_plan_id":"cebpf4jnsgd1na2vs0mg"},{"bike_id":"86e9e32d-1fee-4890-b6e2-0f472056c799","system_id":"levelo_inurba_marseille","lat":43.30481,"lon":5.37918,"is_reserved":false,"is_disabled":false,"rental_uris":{"android":"levelo://app?vid=86e9e32d-1fee-4890-b6e2-0f472056c799","ios":"levelo://app?vid=86e9e32d-1fee-4890-b6e2-0f472056c799"},"vehicle_type_id":"4","last_reported":1742818807,"current_range_meters":16000,"station_id":"ce4bgup2rcd13ifvqcn0","pricing_plan_id":"cebpf4jnsgd1na2vs0mg"},{"bike_id":"654da52a-f6c3-4d4d-9221-028eb655b84d","system_id":"levelo_inurba_marseille","lat":43.29608,"lon":5.37729,"is_reserved":false,"is_disabled":false,"rental_uris":{"android":"levelo://app?vid=654da52a-f6c3-4d4d-9221-028eb655b84d","ios":"levelo://app?vid=654da52a-f6c3-4d4d-9221-028eb655b84d"},"vehicle_type_id":"4","last_reported":1742818807,"current_range_meters":16000,"station_id":"ce4bgi92rcd13ifvqb90","pricing_plan_id":"cebpf4jnsgd1na2vs0mg"},{"bike_id":"68bf77d1-f7b2-4f13-a7d4-868a5c8aaa5b","system_id":"levelo_inurba_marseille","lat":43.24647,"lon":5.38898,"is_reserved":false,"is_disabled":false,"rental_uris":{"android":"levelo://app?vid=68bf77d1-f7b2-4f13-a7d4-868a5c8aaa5b","ios":"levelo://app?vid=68bf77d1-f7b2-4f13-a7d4-868a5c8aaa5b"},"vehicle_type_id":"4","last_reported":1742818807,"current_range_meters":16000,"station_id":"ce4bhg12rcd13ifvqf60","pricing_plan_id":"cebpf4jnsgd1na2vs0mg"},{"bike_id":"bfd596e6-1609-4b56-b76a-a993218d61f4","system_id":"levelo_inurba_marseille","lat":43.28161,"lon":5.42643,"is_reserved":false,"is_disabled":false,"rental_uris":{"android":"levelo://app?vid=bfd596e6-1609-4b56-b76a-a993218d61f4","ios":"levelo://app?vid=bfd596e6-1609-4b56-b76a-a993218d61f4"},"vehicle_type_id":"4","last_reported":1742818807,"current_range_meters":16000,"station_id":"ce4bhnh2rcd13ifvqgug","pricing_plan_id":"cebpf4jnsgd1na2vs0mg"},{"bike_id":"3c5f6d1c-8e84-4f98-930c-f2d0d12ae2dc","system_id":"levelo_inurba_marseille","lat":43.29714,"lon":5.37991,"is_reserved":false,"is_disabled":false,"rental_uris":{"android":"levelo://app?vid=3c5f6d1c-8e84-4f98-930c-f2d0d12ae2dc","ios":"levelo://app?vid=3c5f6d1c-8e84-4f98-930c-f2d0d12ae2dc"},"vehicle_type_id":"4","last_reported":1742818807,"current_range_meters":16400,"station_id":"","pricing_plan_id":"cebpf4jnsgd1na2vs0mg"},{"bike_id":"57b83645-2987-4346-ae33-23cd851c6c26","system_id":"levelo_inurba_marseille","lat":43.259284,"lon":5.409083,"is_reserved":false,"is_disabled":false,"rental_uris":{"android":"levelo://app?vid=57b83645-2987-4346-ae33-23cd851c6c26","ios":"levelo://app?vid=57b83645-2987-4346-ae33-23cd851c6c26"},"vehicle_type_id":"4","last_reported":1742818807,"current_range_meters":16400,"station_id":"ce4bhm92rcd13ifvqglg","pricing_plan_id":"cebpf4jnsgd1na2vs0mg"},{"bike_id":"96911444-878d-45f8-995d-0547c2f4ed09","system_id":"levelo_inurba_marseille","lat":43.30541,"lon":5.36554,"is_reserved":false,"is_disabled":false,"rental_uris":{"android":"levelo://app?vid=96911444-878d-45f8-995d-0547c2f4ed09","ios":"levelo://app?vid=96911444-878d-45f8-995d-0547c2f4ed09"},"vehicle_type_id":"4","last_reported":1742818807,"current_range_meters":16400,"station_id":"ce4bgs12rcd13ifvqcag","pricing_plan_id":"cebpf4jnsgd1na2vs0mg"},{"bike_id":"9a151466-7d2a-47bc-aa79-7186bc668827","system_id":"levelo_inurba_marseille","lat":43.2944,"lon":5.39758,"is_reserved":false,"is_disabled":false,"rental_uris":{"android":"levelo://app?vid=9a151466-7d2a-47bc-aa79-7186bc668827","ios":"levelo://app?vid=9a151466-7d2a-47bc-aa79-7186bc668827"},"vehicle_type_id":"4","last_reported":1742818807,"current_range_meters":16400,"station_id":"ce4bh3h2rcd13ifvqdo0","pricing_plan_id":"cebpf4jnsgd1na2vs0mg"},{"bike_id":"9e0aa70d-46be-49fd-ac8d-9cad19ef0031","system_id":"levelo_inurba_marseille","lat":43.3081,"lon":5.37504,"is_reserved":false,"is_disabled":false,"rental_uris":{"android":"levelo://app?vid=9e0aa70d-46be-49fd-ac8d-9cad19ef0031","ios":"levelo://app?vid=9e0aa70d-46be-49fd-ac8d-9cad19ef0031"},"vehicle_type_id":"4","last_reported":1742818807,"current_range_meters":16400,"station_id":"","pricing_plan_id":"cebpf4jnsgd1na2vs0mg"},{"bike_id":"a5446fa9-b2f7-45f6-bfb4-1335cb6018ff","system_id":"levelo_inurba_marseille","lat":43.23066,"lon":5.354945,"is_reserved":false,"is_disabled":false,"rental_uris":{"android":"levelo://app?vid=a5446fa9-b2f7-45f6-bfb4-1335cb6018ff","ios":"levelo://app?vid=a5446fa9-b2f7-45f6-bfb4-1335cb6018ff"},"vehicle_type_id":"4","last_reported":1742818807,"current_range_meters":16400,"station_id":"cpo3342slgdg3j2ifvpg","pricing_plan_id":"cebpf4jnsgd1na2vs0mg"},{"bike_id":"34fabd95-2c02-4655-9834-dce100c2094b","system_id":"levelo_inurba_marseille","lat":43.26234,"lon":5.40433,"is_reserved":false,"is_disabled":false,"rental_uris":{"android":"levelo://app?vid=34fabd95-2c02-4655-9834-dce100c2094b","ios":"levelo://app?vid=34fabd95-2c02-4655-9834-dce100c2094b"},"vehicle_type_id":"4","last_reported":1742818807,"current_range_meters":16400,"station_id":"ce4bhmh2rcd13ifvqgmg","pricing_plan_id":"cebpf4jnsgd1na2vs0mg"},{"bike_id":"47e2694e-5505-4c9e-a74f-54bc5c942706","system_id":"levelo_inurba_marseille","lat":43.30295,"lon":5.36903,"is_reserved":false,"is_disabled":false,"rental_uris":{"android":"levelo://app?vid=47e2694e-5505-4c9e-a74f-54bc5c942706","ios":"levelo://app?vid=47e2694e-5505-4c9e-a74f-54bc5c942706"},"vehicle_type_id":"4","last_reported":1742818807,"current_range_meters":16400,"station_id":"ce4bgqh2rcd13ifvqc5g","pricing_plan_id":"cebpf4jnsgd1na2vs0mg"},{"bike_id":"3b92dbdd-25f3-4387-9d5a-02c5bf280819","system_id":"levelo_inurba_marseille","lat":43.24557,"lon":5.39506,"is_reserved":false,"is_disabled":false,"rental_uris":{"android":"levelo://app?vid=3b92dbdd-25f3-4387-9d5a-02c5bf280819","ios":"levelo://app?vid=3b92dbdd-25f3-4387-9d5a-02c5bf280819"},"vehicle_type_id":"4","last_reported":1742818807,"current_range_meters":16400,"station_id":"ce4bhlp2rcd13ifvqgjg","pricing_plan_id":"cebpf4jnsgd1na2vs0mg"},{"bike_id":"0588399f-c86f-433c-b4af-e8e4e2319b08","system_id":"levelo_inurba_marseille","lat":43.32093,"lon":5.36806,"is_reserved":false,"is_disabled":false,"rental_uris":{"android":"levelo://app?vid=0588399f-c86f-433c-b4af-e8e4e2319b08","ios":"levelo://app?vid=0588399f-c86f-433c-b4af-e8e4e2319b08"},"vehicle_type_id":"4","last_reported":1742818807,"current_range_meters":16400,"station_id":"ce4bhrh2rcd13ifvqhug","pricing_plan_id":"cebpf4jnsgd1na2vs0mg"},{"bike_id":"d03366b8-a781-4d10-af08-08765a0e7afe","system_id":"levelo_inurba_marseille","lat":43.29862,"lon":5.36291,"is_reserved":false,"is_disabled":false,"rental_uris":{"android":"levelo://app?vid=d03366b8-a781-4d10-af08-08765a0e7afe","ios":"levelo://app?vid=d03366b8-a781-4d10-af08-08765a0e7afe"},"vehicle_type_id":"4","last_reported":1742818807,"current_range_meters":16400,"station_id":"ce4bgpp2rcd13ifvqc3g","pricing_plan_id":"cebpf4jnsgd1na2vs0mg"},{"bike_id":"46fc8030-f736-4758-8fff-960db363a17e","system_id":"levelo_inurba_marseille","lat":43.30145,"lon":5.37402,"is_reserved":false,"is_disabled":true,"rental_uris":{"android":"levelo://app?vid=46fc8030-f736-4758-8fff-960db363a17e","ios":"levelo://app?vid=46fc8030-f736-4758-8fff-960db363a17e"},"vehicle_type_id":"4","last_reported":1742818807,"current_range_meters":16400,"station_id":"ce4bgs92rcd13ifvqcc0","pricing_plan_id":"cebpf4jnsgd1na2vs0mg"},{"bike_id":"ded8e1f2-1ca9-4ddd-be61-1d44046c16e6","system_id":"levelo_inurba_marseille","lat":43.24079,"lon":5.3776,"is_reserved":false,"is_disabled":false,"rental_uris":{"android":"levelo://app?vid=ded8e1f2-1ca9-4ddd-be61-1d44046c16e6","ios":"levelo://app?vid=ded8e1f2-1ca9-4ddd-be61-1d44046c16e6"},"vehicle_type_id":"4","last_reported":1742818807,"current_range_meters":16800,"station_id":"ce4bhnp2rcd13ifvqgvg","pricing_plan_id":"cebpf4jnsgd1na2vs0mg"},{"bike_id":"d0378c28-2ab6-47f3-9248-f012c7b13062","system_id":"levelo_inurba_marseille","lat":43.27663,"lon":5.38893,"is_reserved":false,"is_disabled":true,"rental_uris":{"android":"levelo://app?vid=d0378c28-2ab6-47f3-9248-f012c7b13062","ios":"levelo://app?vid=d0378c28-2ab6-47f3-9248-f012c7b13062"},"vehicle_type_id":"4","last_reported":1742818807,"current_range_meters":16800,"station_id":"ce4bhi12rcd13ifvqfo0","pricing_plan_id":"cebpf4jnsgd1na2vs0mg"},{"bike_id":"7f869988-23aa-407e-80d8-3b578867d0d0","system_id":"levelo_inurba_marseille","lat":43.31123,"lon":5.36969,"is_reserved":false,"is_disabled":false,"rental_uris":{"android":"levelo://app?vid=7f869988-23aa-407e-80d8-3b578867d0d0","ios":"levelo://app?vid=7f869988-23aa-407e-80d8-3b578867d0d0"},"vehicle_type_id":"4","last_reported":1742818807,"current_range_meters":16800,"station_id":"","pricing_plan_id":"cebpf4jnsgd1na2vs0mg"},{"bike_id":"33fcddcc-43ee-449f-8136-08f4b0a5738b","system_id":"levelo_inurba_marseille","lat":43.30596,"lon":5.39353,"is_reserved":false,"is_disabled":true,"rental_uris":{"android":"levelo://app?vid=33fcddcc-43ee-449f-8136-08f4b0a5738b","ios":"levelo://app?vid=33fcddcc-43ee-449f-8136-08f4b0a5738b"},"vehicle_type_id":"4","last_reported":1742818807,"current_range_meters":16800,"station_id":"ce4bh0p2rcd13ifvqd80","pricing_plan_id":"cebpf4jnsgd1na2vs0mg"},{"bike_id":"6d2b811a-9175-4f6a-8eab-9e25f99d5847","system_id":"levelo_inurba_marseille","lat":43.3096,"lon":5.39043,"is_reserved":false,"is_disabled":false,"rental_uris":{"android":"levelo://app?vid=6d2b811a-9175-4f6a-8eab-9e25f99d5847","ios":"levelo://app?vid=6d2b811a-9175-4f6a-8eab-9e25f99d5847"},"vehicle_type_id":"4","last_reported":1742818807,"current_range_meters":16800,"station_id":"ce4bgup2rcd13ifvqco0","pricing_plan_id":"cebpf4jnsgd1na2vs0mg"},{"bike_id":"71a0dc20-d26b-4d99-a306-0fcb263b6e66","system_id":"levelo_inurba_marseille","lat":43.31195,"lon":5.36851,"is_reserved":false,"is_disabled":false,"rental_uris":{"android":"levelo://app?vid=71a0dc20-d26b-4d99-a306-0fcb263b6e66","ios":"levelo://app?vid=71a0dc20-d26b-4d99-a306-0fcb263b6e66"},"vehicle_type_id":"4","last_reported":1742818807,"current_range_meters":16800,"station_id":"ce4bgl92rcd13ifvqbq0","pricing_plan_id":"cebpf4jnsgd1na2vs0mg"},{"bike_id":"82f07b90-b4ea-45bc-9117-3b0a0b315f4e","system_id":"levelo_inurba_marseille","lat":43.25003,"lon":5.38934,"is_reserved":false,"is_disabled":false,"rental_uris":{"android":"levelo://app?vid=82f07b90-b4ea-45bc-9117-3b0a0b315f4e","ios":"levelo://app?vid=82f07b90-b4ea-45bc-9117-3b0a0b315f4e"},"vehicle_type_id":"4","last_reported":1742818807,"current_range_meters":16800,"station_id":"ce4bhgp2rcd13ifvqfd0","pricing_plan_id":"cebpf4jnsgd1na2vs0mg"},{"bike_id":"0d052b9d-ee0e-4ced-8964-60aaa9554e1c","system_id":"levelo_inurba_marseille","lat":43.26806,"lon":5.40258,"is_reserved":false,"is_disabled":false,"rental_uris":{"android":"levelo://app?vid=0d052b9d-ee0e-4ced-8964-60aaa9554e1c","ios":"levelo://app?vid=0d052b9d-ee0e-4ced-8964-60aaa9554e1c"},"vehicle_type_id":"4","last_reported":1742818807,"current_range_meters":16800,"station_id":"ce501612rcd8frsf0b60","pricing_plan_id":"cebpf4jnsgd1na2vs0mg"},{"bike_id":"067c4189-50ff-4e88-8d1d-d5468d7c6bf8","system_id":"levelo_inurba_marseille","lat":43.27217,"lon":5.4096,"is_reserved":false,"is_disabled":false,"rental_uris":{"android":"levelo://app?vid=067c4189-50ff-4e88-8d1d-d5468d7c6bf8","ios":"levelo://app?vid=067c4189-50ff-4e88-8d1d-d5468d7c6bf8"},"vehicle_type_id":"4","last_reported":1742818807,"current_range_meters":16800,"station_id":"ce4bhl12rcd13ifvqgf0","pricing_plan_id":"cebpf4jnsgd1na2vs0mg"},{"bike_id":"62ef2966-e11f-423c-abd1-24f1b092bd95","system_id":"levelo_inurba_marseille","lat":43.25836,"lon":5.39435,"is_reserved":false,"is_disabled":false,"rental_uris":{"android":"levelo://app?vid=62ef2966-e11f-423c-abd1-24f1b092bd95","ios":"levelo://app?vid=62ef2966-e11f-423c-abd1-24f1b092bd95"},"vehicle_type_id":"4","last_reported":1742818807,"current_range_meters":16800,"station_id":"ce4bhip2rcd13ifvqft0","pricing_plan_id":"cebpf4jnsgd1na2vs0mg"},{"bike_id":"1989f9c3-6156-47a7-8f6e-689a009b64a2","system_id":"levelo_inurba_marseille","lat":43.31209,"lon":5.36909,"is_reserved":false,"is_disabled":false,"rental_uris":{"android":"levelo://app?vid=1989f9c3-6156-47a7-8f6e-689a009b64a2","ios":"levelo://app?vid=1989f9c3-6156-47a7-8f6e-689a009b64a2"},"vehicle_type_id":"4","last_reported":1742818807,"current_range_meters":17200,"station_id":"ce4bgl92rcd13ifvqbq0","pricing_plan_id":"cebpf4jnsgd1na2vs0mg"},{"bike_id":"63efce5d-ac8d-4433-9526-275c7a7c737d","system_id":"levelo_inurba_marseille","lat":43.24563,"lon":5.3951,"is_reserved":false,"is_disabled":false,"rental_uris":{"android":"levelo://app?vid=63efce5d-ac8d-4433-9526-275c7a7c737d","ios":"levelo://app?vid=63efce5d-ac8d-4433-9526-275c7a7c737d"},"vehicle_type_id":"4","last_reported":1742818807,"current_range_meters":17200,"station_id":"ce4bhlp2rcd13ifvqgjg","pricing_plan_id":"cebpf4jnsgd1na2vs0mg"},{"bike_id":"383b41dd-c341-4f7d-838a-afaa41cfc49a","system_id":"levelo_inurba_marseille","lat":43.30135,"lon":5.38805,"is_reserved":false,"is_disabled":false,"rental_uris":{"android":"levelo://app?vid=383b41dd-c341-4f7d-838a-afaa41cfc49a","ios":"levelo://app?vid=383b41dd-c341-4f7d-838a-afaa41cfc49a"},"vehicle_type_id":"4","last_reported":1742818807,"current_range_meters":17200,"station_id":"ce4bghh2rcd13ifvqb60","pricing_plan_id":"cebpf4jnsgd1na2vs0mg"},{"bike_id":"6783ca4e-527a-44b9-a0f2-cc87fb1f1ff5","system_id":"levelo_inurba_marseille","lat":43.28451,"lon":5.35886,"is_reserved":false,"is_disabled":false,"rental_uris":{"android":"levelo://app?vid=6783ca4e-527a-44b9-a0f2-cc87fb1f1ff5","ios":"levelo://app?vid=6783ca4e-527a-44b9-a0f2-cc87fb1f1ff5"},"vehicle_type_id":"4","last_reported":1742818807,"current_range_meters":17200,"station_id":"ce4bhah2rcd13ifvqei0","pricing_plan_id":"cebpf4jnsgd1na2vs0mg"},{"bike_id":"d986c5df-ac35-44a9-9b58-ccbbbcdad740","system_id":"levelo_inurba_marseille","lat":43.23963,"lon":5.36623,"is_reserved":false,"is_disabled":false,"rental_uris":{"android":"levelo://app?vid=d986c5df-ac35-44a9-9b58-ccbbbcdad740","ios":"levelo://app?vid=d986c5df-ac35-44a9-9b58-ccbbbcdad740"},"vehicle_type_id":"4","last_reported":1742818807,"current_range_meters":17200,"station_id":"ce4bhi12rcd13ifvqfp0","pricing_plan_id":"cebpf4jnsgd1na2vs0mg"},{"bike_id":"076acb13-3645-4d5f-9581-002b1328e870","system_id":"levelo_inurba_marseille","lat":43.28613,"lon":5.35103,"is_reserved":false,"is_disabled":false,"rental_uris":{"android":"levelo://app?vid=076acb13-3645-4d5f-9581-002b1328e870","ios":"levelo://app?vid=076acb13-3645-4d5f-9581-002b1328e870"},"vehicle_type_id":"4","last_reported":1742818807,"current_range_meters":17200,"station_id":"ce4bhch2rcd13ifvqeug","pricing_plan_id":"cebpf4jnsgd1na2vs0mg"},{"bike_id":"fb7a185f-7de9-4e66-b150-f4dd3549937c","system_id":"levelo_inurba_marseille","lat":43.23986,"lon":5.36598,"is_reserved":false,"is_disabled":false,"rental_uris":{"android":"levelo://app?vid=fb7a185f-7de9-4e66-b150-f4dd3549937c","ios":"levelo://app?vid=fb7a185f-7de9-4e66-b150-f4dd3549937c"},"vehicle_type_id":"4","last_reported":1742818807,"current_range_meters":17200,"station_id":"ce4bhi12rcd13ifvqfp0","pricing_plan_id":"cebpf4jnsgd1na2vs0mg"},{"bike_id":"7c5e495e-a4fe-44d2-8a9d-3caa1e3e3f04","system_id":"levelo_inurba_marseille","lat":43.324737,"lon":5.365644,"is_reserved":false,"is_disabled":false,"rental_uris":{"android":"levelo://app?vid=7c5e495e-a4fe-44d2-8a9d-3caa1e3e3f04","ios":"levelo://app?vid=7c5e495e-a4fe-44d2-8a9d-3caa1e3e3f04"},"vehicle_type_id":"4","last_reported":1742818807,"current_range_meters":17200,"station_id":"ce4bhs12rcd13ifvqhvg","pricing_plan_id":"cebpf4jnsgd1na2vs0mg"},{"bike_id":"8ced44e0-cad5-4764-87d1-9b53d8effc96","system_id":"levelo_inurba_marseille","lat":43.29092,"lon":5.38152,"is_reserved":false,"is_disabled":false,"rental_uris":{"android":"levelo://app?vid=8ced44e0-cad5-4764-87d1-9b53d8effc96","ios":"levelo://app?vid=8ced44e0-cad5-4764-87d1-9b53d8effc96"},"vehicle_type_id":"4","last_reported":1742818807,"current_range_meters":17200,"station_id":"ce4bh512rcd13ifvqe2g","pricing_plan_id":"cebpf4jnsgd1na2vs0mg"},{"bike_id":"c3dca69f-8bb4-4045-ae56-f16097b5eb08","system_id":"levelo_inurba_marseille","lat":43.30273,"lon":5.3772,"is_reserved":false,"is_disabled":false,"rental_uris":{"android":"levelo://app?vid=c3dca69f-8bb4-4045-ae56-f16097b5eb08","ios":"levelo://app?vid=c3dca69f-8bb4-4045-ae56-f16097b5eb08"},"vehicle_type_id":"4","last_reported":1742818807,"current_range_meters":17200,"station_id":"ce4bguh2rcd13ifvqcj0","pricing_plan_id":"cebpf4jnsgd1na2vs0mg"},{"bike_id":"e246959c-006c-4734-9362-62ca6d0116b2","system_id":"levelo_inurba_marseille","lat":43.24168,"lon":5.39746,"is_reserved":false,"is_disabled":false,"rental_uris":{"android":"levelo://app?vid=e246959c-006c-4734-9362-62ca6d0116b2","ios":"levelo://app?vid=e246959c-006c-4734-9362-62ca6d0116b2"},"vehicle_type_id":"4","last_reported":1742818807,"current_range_meters":17200,"station_id":"ce4bhn12rcd13ifvqgpg","pricing_plan_id":"cebpf4jnsgd1na2vs0mg"},{"bike_id":"ea12291d-31cb-4a5e-a917-1a320bb82ab9","system_id":"levelo_inurba_marseille","lat":43.30155,"lon":5.38091,"is_reserved":false,"is_disabled":false,"rental_uris":{"android":"levelo://app?vid=ea12291d-31cb-4a5e-a917-1a320bb82ab9","ios":"levelo://app?vid=ea12291d-31cb-4a5e-a917-1a320bb82ab9"},"vehicle_type_id":"4","last_reported":1742818807,"current_range_meters":17200,"station_id":"ce4bgjp2rcd13ifvqbh0","pricing_plan_id":"cebpf4jnsgd1na2vs0mg"},{"bike_id":"fe4789cb-5d10-4e8d-9434-0c011da7503d","system_id":"levelo_inurba_marseille","lat":43.232,"lon":5.3555,"is_reserved":false,"is_disabled":false,"rental_uris":{"android":"levelo://app?vid=fe4789cb-5d10-4e8d-9434-0c011da7503d","ios":"levelo://app?vid=fe4789cb-5d10-4e8d-9434-0c011da7503d"},"vehicle_type_id":"4","last_reported":1742818807,"current_range_meters":17600,"station_id":"ce4bhu92rcd13ifvqi70","pricing_plan_id":"cebpf4jnsgd1na2vs0mg"},{"bike_id":"becb4612-2f98-4959-8df7-48a8119d178d","system_id":"levelo_inurba_marseille","lat":43.301434,"lon":5.374239,"is_reserved":false,"is_disabled":false,"rental_uris":{"android":"levelo://app?vid=becb4612-2f98-4959-8df7-48a8119d178d","ios":"levelo://app?vid=becb4612-2f98-4959-8df7-48a8119d178d"},"vehicle_type_id":"4","last_reported":1742818807,"current_range_meters":17600,"station_id":"ce4bgs92rcd13ifvqcc0","pricing_plan_id":"cebpf4jnsgd1na2vs0mg"},{"bike_id":"3dedad80-7f61-45ea-94f3-947378b69c7d","system_id":"levelo_inurba_marseille","lat":43.25821,"lon":5.39437,"is_reserved":false,"is_disabled":false,"rental_uris":{"android":"levelo://app?vid=3dedad80-7f61-45ea-94f3-947378b69c7d","ios":"levelo://app?vid=3dedad80-7f61-45ea-94f3-947378b69c7d"},"vehicle_type_id":"4","last_reported":1742818807,"current_range_meters":17600,"station_id":"ce4bhip2rcd13ifvqft0","pricing_plan_id":"cebpf4jnsgd1na2vs0mg"},{"bike_id":"24bf3895-921c-4337-95f0-7d1f0f3e28b3","system_id":"levelo_inurba_marseille","lat":43.28476,"lon":5.38536,"is_reserved":false,"is_disabled":true,"rental_uris":{"android":"levelo://app?vid=24bf3895-921c-4337-95f0-7d1f0f3e28b3","ios":"levelo://app?vid=24bf3895-921c-4337-95f0-7d1f0f3e28b3"},"vehicle_type_id":"4","last_reported":1742818807,"current_range_meters":17600,"station_id":"ce4bh8p2rcd13ifvqeb0","pricing_plan_id":"cebpf4jnsgd1na2vs0mg"},{"bike_id":"767a4e7d-df85-43ef-9c2d-d4f5f297e1a3","system_id":"levelo_inurba_marseille","lat":43.30086,"lon":5.39892,"is_reserved":false,"is_disabled":true,"rental_uris":{"android":"levelo://app?vid=767a4e7d-df85-43ef-9c2d-d4f5f297e1a3","ios":"levelo://app?vid=767a4e7d-df85-43ef-9c2d-d4f5f297e1a3"},"vehicle_type_id":"4","last_reported":1742818807,"current_range_meters":18000,"station_id":"ce4bh0h2rcd13ifvqd40","pricing_plan_id":"cebpf4jnsgd1na2vs0mg"},{"bike_id":"3ae323eb-c384-46d9-a555-984f2ddb2133","system_id":"levelo_inurba_marseille","lat":43.28814,"lon":5.35829,"is_reserved":false,"is_disabled":false,"rental_uris":{"android":"levelo://app?vid=3ae323eb-c384-46d9-a555-984f2ddb2133","ios":"levelo://app?vid=3ae323eb-c384-46d9-a555-984f2ddb2133"},"vehicle_type_id":"4","last_reported":1742818807,"current_range_meters":18000,"station_id":"ce4bhb12rcd13ifvqem0","pricing_plan_id":"cebpf4jnsgd1na2vs0mg"},{"bike_id":"a0a76abd-f1a0-42b4-b75c-cc3cea312f46","system_id":"levelo_inurba_marseille","lat":43.30531,"lon":5.36702,"is_reserved":false,"is_disabled":false,"rental_uris":{"android":"levelo://app?vid=a0a76abd-f1a0-42b4-b75c-cc3cea312f46","ios":"levelo://app?vid=a0a76abd-f1a0-42b4-b75c-cc3cea312f46"},"vehicle_type_id":"4","last_reported":1742818807,"current_range_meters":18000,"station_id":"ce4bgrp2rcd13ifvqc9g","pricing_plan_id":"cebpf4jnsgd1na2vs0mg"},{"bike_id":"b4a865ef-5407-4b97-a61f-e52939005fe4","system_id":"levelo_inurba_marseille","lat":43.30913,"lon":5.3685,"is_reserved":false,"is_disabled":false,"rental_uris":{"android":"levelo://app?vid=b4a865ef-5407-4b97-a61f-e52939005fe4","ios":"levelo://app?vid=b4a865ef-5407-4b97-a61f-e52939005fe4"},"vehicle_type_id":"4","last_reported":1742818807,"current_range_meters":18000,"station_id":"ce4bgn92rcd13ifvqbvg","pricing_plan_id":"cebpf4jnsgd1na2vs0mg"},{"bike_id":"7c5adb6f-8ed2-47e1-a57e-89759278d36f","system_id":"levelo_inurba_marseille","lat":43.28272,"lon":5.35066,"is_reserved":false,"is_disabled":false,"rental_uris":{"android":"levelo://app?vid=7c5adb6f-8ed2-47e1-a57e-89759278d36f","ios":"levelo://app?vid=7c5adb6f-8ed2-47e1-a57e-89759278d36f"},"vehicle_type_id":"4","last_reported":1742818807,"current_range_meters":18000,"station_id":"ce4bhbp2rcd13ifvqerg","pricing_plan_id":"cebpf4jnsgd1na2vs0mg"},{"bike_id":"bce62872-0329-47b9-b969-3b796aaa9ae0","system_id":"levelo_inurba_marseille","lat":43.30139,"lon":5.37681,"is_reserved":false,"is_disabled":false,"rental_uris":{"android":"levelo://app?vid=bce62872-0329-47b9-b969-3b796aaa9ae0","ios":"levelo://app?vid=bce62872-0329-47b9-b969-3b796aaa9ae0"},