{"last_updated":1753377089,"ttl":60,"version":"2.2","data":{"bikes":[{"bike_id":"5eb06f6f-cff4-4581-ad4c-30bc21b85555","system_id":"levelo_inurba_marseille","lat":43.293092,"lon":5.371724,"is_reserved":false,"is_disabled":false,"rental_uris":{"android":"levelo://app?vid=5eb06f6f-cff4-4581-ad4c-30bc21b85555","ios":"levelo://app?vid=5eb06f6f-cff4-4581-ad4c-30bc21b85555"},"vehicle_type_id":"4","last_reported":1753377089,"current_range_meters":2000,"station_id":"ce4bgh92rcd13ifvqb40","pricing_plan_id":"cebpf4jnsgd1na2vs0mg"},{"bike_id":"364361f7-602e-475d-b442-6625987360bc","system_id":"levelo_inurba_marseille","lat":43.28723,"lon":5.36085,"is_reserved":false,"is_disabled":false,"rental_uris":{"android":"levelo://app?vid=364361f7-602e-475d-b442-6625987360bc","ios":"levelo://app?vid=364361f7-602e-475d-b442-6625987360bc"},"vehicle_type_id":"4","last_reported":1753377089,"current_range_meters":4400,"station_id":"cki0cbj6b192h4jlfktg","pricing_plan_id":"cebpf4jnsgd1na2vs0mg"},{"bike_id":"5771d19e-2aeb-4581-84d2-5d92164a11b4","system_id":"levelo_inurba_marseille","lat":43.30423,"lon":5.39746,"is_reserved":false,"is_disabled":false,"rental_uris":{"android":"levelo://app?vid=5771d19e-2aeb-4581-84d2-5d92164a11b4","ios":"levelo://app?vid=5771d19e-2aeb-4581-84d2-5d92164a11b4"},"vehicle_type_id":"4","last_reported":1753377089,"current_range_meters":3200,"station_id":"ce4bh092rcd13ifvqd20","pricing_plan_id":"cebpf4jnsgd1na2vs0mg"},{"bike_id":"6f2632be-2944-4297-8d64-2a61b1b0e96f","system_id":"levelo_inurba_marseille","lat":43.25498,"lon":5.37647,"is_reserved":false,"is_disabled":false,"rental_uris":{"android":"levelo://app?vid=6f2632be-2944-4297-8d64-2a61b1b0e96f","ios":"levelo://app?vid=6f2632be-2944-4297-8d64-2a61b1b0e96f"},"vehicle_type_id":"4","last_reported":1753377089,"current_range_meters":3200,"station_id":"ce4bhh12rcd13ifvqff0","pricing_plan_id":"cebpf4jnsgd1na2vs0mg"},{"bike_id":"9ae7d50c-a3ea-4136-8080-315c191e000a","system_id":"levelo_inurba_marseille","lat":43.28758,"lon":5.38451,"is_reserved":false,"is_disabled":false,"rental_uris":{"android":"levelo://app?vid=9ae7d50c-a3ea-4136-8080-315c191e000a","ios":"levelo://app?vid=9ae7d50c-a3ea-4136-8080-315c191e000a"},"vehicle_type_id":"4","last_reported":1753377089,"current_range_meters":3200,"station_id":"","pricing_plan_id":"cebpf4jnsgd1na2vs0mg"},{"bike_id":"c8cbe188-8c80-4aac-881d-65feb870e521","system_id":"levelo_inurba_marseille","lat":43.33054,"lon":5.380277,"is_reserved":false,"is_disabled":false,"rental_uris":{"android":"levelo://app?vid=c8cbe188-8c80-4aac-881d-65feb870e521","ios":"levelo://app?vid=c8cbe188-8c80-4aac-881d-65feb870e521"},"vehicle_type_id":"4","last_reported":1753377089,"current_range_meters":3200,"station_id":"","pricing_plan_id":"cebpf4jnsgd1na2vs0mg"},{"bike_id":"a2400afc-4018-48ba-9517-b3111f2975b1","system_id":"levelo_inurba_marseille","lat":43.254933,"lon":5.376456,"is_reserved":false,"is_disabled":false,"rental_uris":{"android":"levelo://app?vid=a2400afc-4018-48ba-9517-b3111f2975b1","ios":"levelo://app?vid=a2400afc-4018-48ba-9517-b3111f2975b1"},"vehicle_type_id":"4","last_reported":1753377089,"current_range_meters":3200,"station_id":"ce4bhm12rcd13ifvqgkg","pricing_plan_id":"cebpf4jnsgd1na2vs0mg"},{"bike_id":"431a6d8e-e35f-478d-a935-227e4d8135f2","system_id":"levelo_inurba_marseille","lat":43.31333,"lon":5.39688,"is_reserved":false,"is_disabled":false,"rental_uris":{"android":"levelo://app?vid=431a6d8e-e35f-478d-a935-227e4d8135f2","ios":"levelo://app?vid=431a6d8e-e35f-478d-a935-227e4d8135f2"},"vehicle_type_id":"4","last_reported":1753377089,"current_range_meters":3600,"station_id":"ce4bgvp2rcd13ifvqcu0","pricing_plan_id":"cebpf4jnsgd1na2vs0mg"},{"bike_id":"207244df-f0f7-49a3-bccb-2e120419e121","system_id":"levelo_inurba_marseille","lat":43.30297,"lon":5.36879,"is_reserved":false,"is_disabled":false,"rental_uris":{"android":"levelo://app?vid=207244df-f0f7-49a3-bccb-2e120419e121","ios":"levelo://app?vid=207244df-f0f7-49a3-bccb-2e120419e121"},"vehicle_type_id":"4","last_reported":1753377089,"current_range_meters":3600,"station_id":"ce4bgqh2rcd13ifvqc5g","pricing_plan_id":"cebpf4jnsgd1na2vs0mg"},{"bike_id":"1a7659f5-8542-442d-98ba-c18ae38be9c1","system_id":"levelo_inurba_marseille","lat":43.2963,"lon":5.3772,"is_reserved":false,"is_disabled":false,"rental_uris":{"android":"levelo://app?vid=1a7659f5-8542-442d-98ba-c18ae38be9c1","ios":"levelo://app?vid=1a7659f5-8542-442d-98ba-c18ae38be9c1"},"vehicle_type_id":"4","last_reported":1753377089,"current_range_meters":3200,"station_id":"ce4bgi92rcd13ifvqb90","pricing_plan_id":"cebpf4jnsgd1na2vs0mg"},{"bike_id":"12aa18e6-54b4-4f17-8d75-27573f932a0c","system_id":"levelo_inurba_marseille","lat":43.296823,"lon":5.372723,"is_reserved":false,"is_disabled":true,"rental_uris":{"android":"levelo://app?vid=12aa18e6-54b4-4f17-8d75-27573f932a0c","ios":"levelo://app?vid=12aa18e6-54b4-4f17-8d75-27573f932a0c"},"vehicle_type_id":"4","last_reported":1753377089,"current_range_meters":3600,"station_id":"ce4bgk12rcd13ifvqbj0","pricing_plan_id":"cebpf4jnsgd1na2vs0mg"},{"bike_id":"8b13c72c-840d-4073-b264-9bc480e4f382","system_id":"levelo_inurba_marseille","lat":43.240781,"lon":5.377599,"is_reserved":false,"is_disabled":false,"rental_uris":{"android":"levelo://app?vid=8b13c72c-840d-4073-b264-9bc480e4f382","ios":"levelo://app?vid=8b13c72c-840d-4073-b264-9bc480e4f382"},"vehicle_type_id":"4","last_reported":1753377089,"current_range_meters":3600,"station_id":"ce4bhnp2rcd13ifvqgvg","pricing_plan_id":"cebpf4jnsgd1na2vs0mg"},{"bike_id":"4023483f-3ba3-4c42-9344-97a39fb1ff87","system_id":"levelo_inurba_marseille","lat":43.22501,"lon":5.34778,"is_reserved":false,"is_disabled":false,"rental_uris":{"android":"levelo://app?vid=4023483f-3ba3-4c42-9344-97a39fb1ff87","ios":"levelo://app?vid=4023483f-3ba3-4c42-9344-97a39fb1ff87"},"vehicle_type_id":"4","last_reported":1753377089,"current_range_meters":3600,"station_id":"st_cvj5dfep6f1abm77gieg","pricing_plan_id":"cebpf4jnsgd1na2vs0mg"},{"bike_id":"f347dbd5-96fc-4462-ac6d-ce70103ac70b","system_id":"levelo_inurba_marseille","lat":43.292763,"lon":5.368413,"is_reserved":false,"is_disabled":false,"rental_uris":{"android":"levelo://app?vid=f347dbd5-96fc-4462-ac6d-ce70103ac70b","ios":"levelo://app?vid=f347dbd5-96fc-4462-ac6d-ce70103ac70b"},"vehicle_type_id":"4","last_reported":1753377089,"current_range_meters":3600,"station_id":"","pricing_plan_id":"cebpf4jnsgd1na2vs0mg"},{"bike_id":"d8c69a11-e786-4b29-90bc-d6509ef74880","system_id":"levelo_inurba_marseille","lat":43.30338,"lon":5.40426,"is_reserved":false,"is_disabled":false,"rental_uris":{"android":"levelo://app?vid=d8c69a11-e786-4b29-90bc-d6509ef74880","ios":"levelo://app?vid=d8c69a11-e786-4b29-90bc-d6509ef74880"},"vehicle_type_id":"4","last_reported":1753377089,"current_range_meters":3600,"station_id":"ce4bh012rcd13ifvqd10","pricing_plan_id":"cebpf4jnsgd1na2vs0mg"},{"bike_id":"e3f2d3df-555b-4ce9-a206-51a7fb8a8968","system_id":"levelo_inurba_marseille","lat":43.29707,"lon":5.36612,"is_reserved":false,"is_disabled":false,"rental_uris":{"android":"levelo://app?vid=e3f2d3df-555b-4ce9-a206-51a7fb8a8968","ios":"levelo://app?vid=e3f2d3df-555b-4ce9-a206-51a7fb8a8968"},"vehicle_type_id":"4","last_reported":1753377089,"current_range_meters":4000,"station_id":"ce4bgn12rcd13ifvqbt0","pricing_plan_id":"cebpf4jnsgd1na2vs0mg"},{"bike_id":"f7c97f42-5458-42d0-a1de-41546cc6162c","system_id":"levelo_inurba_marseille","lat":43.31339,"lon":5.39672,"is_reserved":false,"is_disabled":false,"rental_uris":{"android":"levelo://app?vid=f7c97f42-5458-42d0-a1de-41546cc6162c","ios":"levelo://app?vid=f7c97f42-5458-42d0-a1de-41546cc6162c"},"vehicle_type_id":"4","last_reported":1753377089,"current_range_meters":4000,"station_id":"ce4bgvp2rcd13ifvqcu0","pricing_plan_id":"cebpf4jnsgd1na2vs0mg"},{"bike_id":"3877c0ff-9ab9-4265-ad14-2920b3174b5d","system_id":"levelo_inurba_marseille","lat":43.2843,"lon":5.39203,"is_reserved":false,"is_disabled":false,"rental_uris":{"android":"levelo://app?vid=3877c0ff-9ab9-4265-ad14-2920b3174b5d","ios":"levelo://app?vid=3877c0ff-9ab9-4265-ad14-2920b3174b5d"},"vehicle_type_id":"4","last_reported":1753377089,"current_range_meters":4400,"station_id":"ce4bhoh2rcd13ifvqh5g","pricing_plan_id":"cebpf4jnsgd1na2vs0mg"},{"bike_id":"60c79862-c824-47ca-807b-624a08e5fea4","system_id":"levelo_inurba_marseille","lat":43.30801,"lon":5.37648,"is_reserved":false,"is_disabled":false,"rental_uris":{"android":"levelo://app?vid=60c79862-c824-47ca-807b-624a08e5fea4","ios":"levelo://app?vid=60c79862-c824-47ca-807b-624a08e5fea4"},"vehicle_type_id":"4","last_reported":1753377089,"current_range_meters":4000,"station_id":"ce4bgv92rcd13ifvqcq0","pricing_plan_id":"cebpf4jnsgd1na2vs0mg"},{"bike_id":"85a9778f-2f1c-4ffb-8aad-5bf4bfe9f4d0","system_id":"levelo_inurba_marseille","lat":43.26561,"lon":5.39011,"is_reserved":false,"is_disabled":false,"rental_uris":{"android":"levelo://app?vid=85a9778f-2f1c-4ffb-8aad-5bf4bfe9f4d0","ios":"levelo://app?vid=85a9778f-2f1c-4ffb-8aad-5bf4bfe9f4d0"},"vehicle_type_id":"4","last_reported":1753377089,"current_range_meters":4000,"station_id":"ce4bhe12rcd13ifvqf30","pricing_plan_id":"cebpf4jnsgd1na2vs0mg"},{"bike_id":"45b9a89e-80e6-4660-ab7c-3419e2ea8240","system_id":"levelo_inurba_marseille","lat":43.294423,"lon":5.397523,"is_reserved":false,"is_disabled":false,"rental_uris":{"android":"levelo://app?vid=45b9a89e-80e6-4660-ab7c-3419e2ea8240","ios":"levelo://app?vid=45b9a89e-80e6-4660-ab7c-3419e2ea8240"},"vehicle_type_id":"4","last_reported":1753377089,"current_range_meters":4000,"station_id":"ce4bh3h2rcd13ifvqdo0","pricing_plan_id":"cebpf4jnsgd1na2vs0mg"},{"bike_id":"0502a415-da04-433f-bd4d-d234af97fb25","system_id":"levelo_inurba_marseille","lat":43.29581,"lon":5.3752,"is_reserved":false,"is_disabled":false,"rental_uris":{"android":"levelo://app?vid=0502a415-da04-433f-bd4d-d234af97fb25","ios":"levelo://app?vid=0502a415-da04-433f-bd4d-d234af97fb25"},"vehicle_type_id":"4","last_reported":1753377089,"current_range_meters":4000,"station_id":"ce4bgh92rcd13ifvqb50","pricing_plan_id":"cebpf4jnsgd1na2vs0mg"},{"bike_id":"cc097711-56f8-4fe9-bc33-575907f8417b","system_id":"levelo_inurba_marseille","lat":43.27917,"lon":5.39576,"is_reserved":false,"is_disabled":false,"rental_uris":{"android":"levelo://app?vid=cc097711-56f8-4fe9-bc33-575907f8417b","ios":"levelo://app?vid=cc097711-56f8-4fe9-bc33-575907f8417b"},"vehicle_type_id":"4","last_reported":1753377089,"current_range_meters":4000,"station_id":"ce4bhf92rcd13ifvqf40","pricing_plan_id":"cebpf4jnsgd1na2vs0mg"},{"bike_id":"9a129edb-b330-4752-9d55-e06811e151ad","system_id":"levelo_inurba_marseille","lat":43.3031,"lon":5.39224,"is_reserved":false,"is_disabled":false,"rental_uris":{"android":"levelo://app?vid=9a129edb-b330-4752-9d55-e06811e151ad","ios":"levelo://app?vid=9a129edb-b330-4752-9d55-e06811e151ad"},"vehicle_type_id":"4","last_reported":1753377089,"current_range_meters":4400,"station_id":"ce4bgkh2rcd13ifvqbk0","pricing_plan_id":"cebpf4jnsgd1na2vs0mg"},{"bike_id":"1f420bfd-bfb0-4612-b1c5-f8d82e0df79a","system_id":"levelo_inurba_marseille","lat":43.267788,"lon":5.39421,"is_reserved":false,"is_disabled":false,"rental_uris":{"android":"levelo://app?vid=1f420bfd-bfb0-4612-b1c5-f8d82e0df79a","ios":"levelo://app?vid=1f420bfd-bfb0-4612-b1c5-f8d82e0df79a"},"vehicle_type_id":"4","last_reported":1753377089,"current_range_meters":4400,"station_id":"ce4bhh12rcd13ifvqfg0","pricing_plan_id":"cebpf4jnsgd1na2vs0mg"},{"bike_id":"fe7cb682-c070-42ce-a4e7-f24b0098c2e5","system_id":"levelo_inurba_marseille","lat":43.290186,"lon":5.386418,"is_reserved":false,"is_disabled":false,"rental_uris":{"android":"levelo://app?vid=fe7cb682-c070-42ce-a4e7-f24b0098c2e5","ios":"levelo://app?vid=fe7cb682-c070-42ce-a4e7-f24b0098c2e5"},"vehicle_type_id":"4","last_reported":1753377089,"current_range_meters":4400,"station_id":"ce4bh4p2rcd13ifvqe0g","pricing_plan_id":"cebpf4jnsgd1na2vs0mg"},{"bike_id":"a43b4513-7843-4e33-8cd1-03059e558aa5","system_id":"levelo_inurba_marseille","lat":43.25727,"lon":5.41105,"is_reserved":false,"is_disabled":false,"rental_uris":{"android":"levelo://app?vid=a43b4513-7843-4e33-8cd1-03059e558aa5","ios":"levelo://app?vid=a43b4513-7843-4e33-8cd1-03059e558aa5"},"vehicle_type_id":"4","last_reported":1753377089,"current_range_meters":4800,"station_id":"ce4bhkp2rcd13ifvqgd0","pricing_plan_id":"cebpf4jnsgd1na2vs0mg"},{"bike_id":"fb6fbad7-0108-4d4e-beae-5d7078b63301","system_id":"levelo_inurba_marseille","lat":43.30651,"lon":5.4009,"is_reserved":false,"is_disabled":false,"rental_uris":{"android":"levelo://app?vid=fb6fbad7-0108-4d4e-beae-5d7078b63301","ios":"levelo://app?vid=fb6fbad7-0108-4d4e-beae-5d7078b63301"},"vehicle_type_id":"4","last_reported":1753377089,"current_range_meters":4800,"station_id":"ce4bh112rcd13ifvqda0","pricing_plan_id":"cebpf4jnsgd1na2vs0mg"},{"bike_id":"199729db-59d6-4cd8-966f-d132a7594afa","system_id":"levelo_inurba_marseille","lat":43.28663,"lon":5.36347,"is_reserved":false,"is_disabled":false,"rental_uris":{"android":"levelo://app?vid=199729db-59d6-4cd8-966f-d132a7594afa","ios":"levelo://app?vid=199729db-59d6-4cd8-966f-d132a7594afa"},"vehicle_type_id":"4","last_reported":1753377089,"current_range_meters":9600,"station_id":"ce4bhah2rcd13ifvqej0","pricing_plan_id":"cebpf4jnsgd1na2vs0mg"},{"bike_id":"c0a58c50-77fd-4849-8d65-d03858010f15","system_id":"levelo_inurba_marseille","lat":43.27183,"lon":5.40983,"is_reserved":false,"is_disabled":false,"rental_uris":{"android":"levelo://app?vid=c0a58c50-77fd-4849-8d65-d03858010f15","ios":"levelo://app?vid=c0a58c50-77fd-4849-8d65-d03858010f15"},"vehicle_type_id":"4","last_reported":1753377089,"current_range_meters":4800,"station_id":"ce4bhl12rcd13ifvqgf0","pricing_plan_id":"cebpf4jnsgd1na2vs0mg"},{"bike_id":"8f2e0df1-d07e-4cf7-968e-80f1eb826beb","system_id":"levelo_inurba_marseille","lat":43.26563,"lon":5.38998,"is_reserved":false,"is_disabled":false,"rental_uris":{"android":"levelo://app?vid=8f2e0df1-d07e-4cf7-968e-80f1eb826beb","ios":"levelo://app?vid=8f2e0df1-d07e-4cf7-968e-80f1eb826beb"},"vehicle_type_id":"4","last_reported":1753377089,"current_range_meters":5600,"station_id":"ce4bhe12rcd13ifvqf30","pricing_plan_id":"cebpf4jnsgd1na2vs0mg"},{"bike_id":"c9dbd36b-479c-4a5c-b200-3aa7673340d9","system_id":"levelo_inurba_marseille","lat":43.241448,"lon":5.363743,"is_reserved":false,"is_disabled":false,"rental_uris":{"android":"levelo://app?vid=c9dbd36b-479c-4a5c-b200-3aa7673340d9","ios":"levelo://app?vid=c9dbd36b-479c-4a5c-b200-3aa7673340d9"},"vehicle_type_id":"4","last_reported":1753377089,"current_range_meters":5600,"station_id":"","pricing_plan_id":"cebpf4jnsgd1na2vs0mg"},{"bike_id":"57801d36-0853-4266-9286-ddb8f43caff5","system_id":"levelo_inurba_marseille","lat":43.29267,"lon":5.38444,"is_reserved":false,"is_disabled":false,"rental_uris":{"android":"levelo://app?vid=57801d36-0853-4266-9286-ddb8f43caff5","ios":"levelo://app?vid=57801d36-0853-4266-9286-ddb8f43caff5"},"vehicle_type_id":"4","last_reported":1753377089,"current_range_meters":5600,"station_id":"ce4bh692rcd13ifvqea0","pricing_plan_id":"cebpf4jnsgd1na2vs0mg"},{"bike_id":"21a9cea7-ea2e-4d00-a15a-6ae5c5d92637","system_id":"levelo_inurba_marseille","lat":43.30137,"lon":5.38771,"is_reserved":false,"is_disabled":false,"rental_uris":{"android":"levelo://app?vid=21a9cea7-ea2e-4d00-a15a-6ae5c5d92637","ios":"levelo://app?vid=21a9cea7-ea2e-4d00-a15a-6ae5c5d92637"},"vehicle_type_id":"4","last_reported":1753377089,"current_range_meters":5600,"station_id":"ce4bghh2rcd13ifvqb60","pricing_plan_id":"cebpf4jnsgd1na2vs0mg"},{"bike_id":"87545634-b429-494d-89e8-47db08e19ff6","system_id":"levelo_inurba_marseille","lat":43.25002,"lon":5.38924,"is_reserved":false,"is_disabled":false,"rental_uris":{"android":"levelo://app?vid=87545634-b429-494d-89e8-47db08e19ff6","ios":"levelo://app?vid=87545634-b429-494d-89e8-47db08e19ff6"},"vehicle_type_id":"4","last_reported":1753377089,"current_range_meters":5600,"station_id":"ce4bhgp2rcd13ifvqfd0","pricing_plan_id":"cebpf4jnsgd1na2vs0mg"},{"bike_id":"aa5097b6-6968-4aec-b711-e7780938924b","system_id":"levelo_inurba_marseille","lat":43.32869,"lon":5.36076,"is_reserved":false,"is_disabled":false,"rental_uris":{"android":"levelo://app?vid=aa5097b6-6968-4aec-b711-e7780938924b","ios":"levelo://app?vid=aa5097b6-6968-4aec-b711-e7780938924b"},"vehicle_type_id":"4","last_reported":1753377089,"current_range_meters":6000,"station_id":"","pricing_plan_id":"cebpf4jnsgd1na2vs0mg"},{"bike_id":"a66920e5-ba5e-496e-95f1-fef5e0bc296b","system_id":"levelo_inurba_marseille","lat":43.29036,"lon":5.39961,"is_reserved":false,"is_disabled":false,"rental_uris":{"android":"levelo://app?vid=a66920e5-ba5e-496e-95f1-fef5e0bc296b","ios":"levelo://app?vid=a66920e5-ba5e-496e-95f1-fef5e0bc296b"},"vehicle_type_id":"4","last_reported":1753377089,"current_range_meters":10000,"station_id":"ce4bh392rcd13ifvqdm0","pricing_plan_id":"cebpf4jnsgd1na2vs0mg"},{"bike_id":"33010d0b-3539-43ec-89fb-c9eb381a3cd6","system_id":"levelo_inurba_marseille","lat":43.26805,"lon":5.40268,"is_reserved":false,"is_disabled":false,"rental_uris":{"android":"levelo://app?vid=33010d0b-3539-43ec-89fb-c9eb381a3cd6","ios":"levelo://app?vid=33010d0b-3539-43ec-89fb-c9eb381a3cd6"},"vehicle_type_id":"4","last_reported":1753377089,"current_range_meters":6400,"station_id":"ce501612rcd8frsf0b60","pricing_plan_id":"cebpf4jnsgd1na2vs0mg"},{"bike_id":"feacb564-f858-4aa0-8523-7cc16e25331f","system_id":"levelo_inurba_marseille","lat":43.27901,"lon":5.41225,"is_reserved":false,"is_disabled":false,"rental_uris":{"android":"levelo://app?vid=feacb564-f858-4aa0-8523-7cc16e25331f","ios":"levelo://app?vid=feacb564-f858-4aa0-8523-7cc16e25331f"},"vehicle_type_id":"4","last_reported":1753377089,"current_range_meters":6400,"station_id":"","pricing_plan_id":"cebpf4jnsgd1na2vs0mg"},{"bike_id":"20b3ac39-d220-4d0b-8848-1b7f328b0525","system_id":"levelo_inurba_marseille","lat":43.2623,"lon":5.40445,"is_reserved":false,"is_disabled":false,"rental_uris":{"android":"levelo://app?vid=20b3ac39-d220-4d0b-8848-1b7f328b0525","ios":"levelo://app?vid=20b3ac39-d220-4d0b-8848-1b7f328b0525"},"vehicle_type_id":"4","last_reported":1753377089,"current_range_meters":6400,"station_id":"ce4bhmh2rcd13ifvqgmg","pricing_plan_id":"cebpf4jnsgd1na2vs0mg"},{"bike_id":"424844a5-a65c-41d6-b104-935b84afb1b5","system_id":"levelo_inurba_marseille","lat":43.31272,"lon":5.40164,"is_reserved":false,"is_disabled":false,"rental_uris":{"android":"levelo://app?vid=424844a5-a65c-41d6-b104-935b84afb1b5","ios":"levelo://app?vid=424844a5-a65c-41d6-b104-935b84afb1b5"},"vehicle_type_id":"4","last_reported":1753377089,"current_range_meters":6000,"station_id":"ce4bh092rcd13ifvqd30","pricing_plan_id":"cebpf4jnsgd1na2vs0mg"},{"bike_id":"74866684-ef7a-4b1e-9e41-e1e006b9ae24","system_id":"levelo_inurba_marseille","lat":43.29931,"lon":5.36544,"is_reserved":false,"is_disabled":false,"rental_uris":{"android":"levelo://app?vid=74866684-ef7a-4b1e-9e41-e1e006b9ae24","ios":"levelo://app?vid=74866684-ef7a-4b1e-9e41-e1e006b9ae24"},"vehicle_type_id":"4","last_reported":1753377089,"current_range_meters":6800,"station_id":"ce4bgm92rcd13ifvqbr0","pricing_plan_id":"cebpf4jnsgd1na2vs0mg"},{"bike_id":"92a4ebac-9ab3-4a98-aa2e-2d74bb04497e","system_id":"levelo_inurba_marseille","lat":43.30591,"lon":5.39343,"is_reserved":false,"is_disabled":false,"rental_uris":{"android":"levelo://app?vid=92a4ebac-9ab3-4a98-aa2e-2d74bb04497e","ios":"levelo://app?vid=92a4ebac-9ab3-4a98-aa2e-2d74bb04497e"},"vehicle_type_id":"4","last_reported":1753377089,"current_range_meters":6800,"station_id":"ce4bh0p2rcd13ifvqd80","pricing_plan_id":"cebpf4jnsgd1na2vs0mg"},{"bike_id":"57fbe981-c6c4-4747-b2da-53e1329e3274","system_id":"levelo_inurba_marseille","lat":43.26569,"lon":5.39009,"is_reserved":false,"is_disabled":false,"rental_uris":{"android":"levelo://app?vid=57fbe981-c6c4-4747-b2da-53e1329e3274","ios":"levelo://app?vid=57fbe981-c6c4-4747-b2da-53e1329e3274"},"vehicle_type_id":"4","last_reported":1753377089,"current_range_meters":6800,"station_id":"ce4bhe12rcd13ifvqf30","pricing_plan_id":"cebpf4jnsgd1na2vs0mg"},{"bike_id":"d7ae682c-48fa-4229-91a6-a4a6a20ec453","system_id":"levelo_inurba_marseille","lat":43.31118,"lon":5.37766,"is_reserved":false,"is_disabled":false,"rental_uris":{"android":"levelo://app?vid=d7ae682c-48fa-4229-91a6-a4a6a20ec453","ios":"levelo://app?vid=d7ae682c-48fa-4229-91a6-a4a6a20ec453"},"vehicle_type_id":"4","last_reported":1753377089,"current_range_meters":6800,"station_id":"ce4bgt92rcd13ifvqcg0","pricing_plan_id":"cebpf4jnsgd1na2vs0mg"},{"bike_id":"2734047b-8a6d-4f78-af5c-2896d77ccfe4","system_id":"levelo_inurba_marseille","lat":43.279356,"lon":5.415086,"is_reserved":false,"is_disabled":false,"rental_uris":{"android":"levelo://app?vid=2734047b-8a6d-4f78-af5c-2896d77ccfe4","ios":"levelo://app?vid=2734047b-8a6d-4f78-af5c-2896d77ccfe4"},"vehicle_type_id":"4","last_reported":1753377089,"current_range_meters":6800,"station_id":"ce4bhk92rcd13ifvqgb0","pricing_plan_id":"cebpf4jnsgd1na2vs0mg"},{"bike_id":"25a95793-a28b-4c7b-b75a-15c5e65b47e5","system_id":"levelo_inurba_marseille","lat":43.26032,"lon":5.37546,"is_reserved":false,"is_disabled":false,"rental_uris":{"android":"levelo://app?vid=25a95793-a28b-4c7b-b75a-15c5e65b47e5","ios":"levelo://app?vid=25a95793-a28b-4c7b-b75a-15c5e65b47e5"},"vehicle_type_id":"4","last_reported":1753377089,"current_range_meters":6800,"station_id":"ce4bhgh2rcd13ifvqfa0","pricing_plan_id":"cebpf4jnsgd1na2vs0mg"},{"bike_id":"4f8e617c-8fb6-4c5c-9676-bd513a3bb2f5","system_id":"levelo_inurba_marseille","lat":43.28696,"lon":5.37384,"is_reserved":false,"is_disabled":false,"rental_uris":{"android":"levelo://app?vid=4f8e617c-8fb6-4c5c-9676-bd513a3bb2f5","ios":"levelo://app?vid=4f8e617c-8fb6-4c5c-9676-bd513a3bb2f5"},"vehicle_type_id":"4","last_reported":1753377089,"current_range_meters":8000,"station_id":"ce4bh3p2rcd13ifvqdq0","pricing_plan_id":"cebpf4jnsgd1na2vs0mg"},{"bike_id":"fb9750f2-c887-4965-a008-0d58a938a146","system_id":"levelo_inurba_marseille","lat":43.31727,"lon":5.42397,"is_reserved":false,"is_disabled":false,"rental_uris":{"android":"levelo://app?vid=fb9750f2-c887-4965-a008-0d58a938a146","ios":"levelo://app?vid=fb9750f2-c887-4965-a008-0d58a938a146"},"vehicle_type_id":"4","last_reported":1753377089,"current_range_meters":7200,"station_id":"ce4bhp92rcd13ifvqhbg","pricing_plan_id":"cebpf4jnsgd1na2vs0mg"},{"bike_id":"3b735cde-0b69-4ef4-b905-412db700a295","system_id":"levelo_inurba_marseille","lat":43.295804,"lon":5.375191,"is_reserved":false,"is_disabled":true,"rental_uris":{"android":"levelo://app?vid=3b735cde-0b69-4ef4-b905-412db700a295","ios":"levelo://app?vid=3b735cde-0b69-4ef4-b905-412db700a295"},"vehicle_type_id":"4","last_reported":1753377089,"current_range_meters":7200,"station_id":"ce4bgh92rcd13ifvqb50","pricing_plan_id":"cebpf4jnsgd1na2vs0mg"},{"bike_id":"68138c0e-a4cd-4250-9158-8242d7f28af1","system_id":"levelo_inurba_marseille","lat":43.29641,"lon":5.4059,"is_reserved":false,"is_disabled":false,"rental_uris":{"android":"levelo://app?vid=68138c0e-a4cd-4250-9158-8242d7f28af1","ios":"levelo://app?vid=68138c0e-a4cd-4250-9158-8242d7f28af1"},"vehicle_type_id":"4","last_reported":1753377089,"current_range_meters":8000,"station_id":"ce4bh0h2rcd13ifvqd60","pricing_plan_id":"cebpf4jnsgd1na2vs0mg"},{"bike_id":"b9ee328b-0060-4b49-82e3-8dc5cbea1e4f","system_id":"levelo_inurba_marseille","lat":43.29075,"lon":5.37172,"is_reserved":false,"is_disabled":false,"rental_uris":{"android":"levelo://app?vid=b9ee328b-0060-4b49-82e3-8dc5cbea1e4f","ios":"levelo://app?vid=b9ee328b-0060-4b49-82e3-8dc5cbea1e4f"},"vehicle_type_id":"4","last_reported":1753377089,"current_range_meters":8000,"station_id":"ce4bh5p2rcd13ifvqe4g","pricing_plan_id":"cebpf4jnsgd1na2vs0mg"},{"bike_id":"da053e6a-15f2-492e-8bc1-42b1d66cc329","system_id":"levelo_inurba_marseille","lat":43.28366,"lon":5.43271,"is_reserved":false,"is_disabled":false,"rental_uris":{"android":"levelo://app?vid=da053e6a-15f2-492e-8bc1-42b1d66cc329","ios":"levelo://app?vid=da053e6a-15f2-492e-8bc1-42b1d66cc329"},"vehicle_type_id":"4","last_reported":1753377089,"current_range_meters":8000,"station_id":"","pricing_plan_id":"cebpf4jnsgd1na2vs0mg"},{"bike_id":"ea4a7624-0a4c-49f8-b463-a34720387721","system_id":"levelo_inurba_marseille","lat":43.27917,"lon":5.3958,"is_reserved":false,"is_disabled":false,"rental_uris":{"android":"levelo://app?vid=ea4a7624-0a4c-49f8-b463-a34720387721","ios":"levelo://app?vid=ea4a7624-0a4c-49f8-b463-a34720387721"},"vehicle_type_id":"4","last_reported":1753377089,"current_range_meters":8000,"station_id":"ce4bhf92rcd13ifvqf40","pricing_plan_id":"cebpf4jnsgd1na2vs0mg"},{"bike_id":"4c433bc3-aed8-4841-80a0-c562e2efe521","system_id":"levelo_inurba_marseille","lat":43.25718,"lon":5.41112,"is_reserved":false,"is_disabled":false,"rental_uris":{"android":"levelo://app?vid=4c433bc3-aed8-4841-80a0-c562e2efe521","ios":"levelo://app?vid=4c433bc3-aed8-4841-80a0-c562e2efe521"},"vehicle_type_id":"4","last_reported":1753377089,"current_range_meters":8000,"station_id":"ce4bhkp2rcd13ifvqgd0","pricing_plan_id":"cebpf4jnsgd1na2vs0mg"},{"bike_id":"56e3dde3-352b-4ac2-8523-d8d790055647","system_id":"levelo_inurba_marseille","lat":43.27177,"lon":5.40996,"is_reserved":false,"is_disabled":false,"rental_uris":{"android":"levelo://app?vid=56e3dde3-352b-4ac2-8523-d8d790055647","ios":"levelo://app?vid=56e3dde3-352b-4ac2-8523-d8d790055647"},"vehicle_type_id":"4","last_reported":1753377089,"current_range_meters":9600,"station_id":"ce4bhl12rcd13ifvqgf0","pricing_plan_id":"cebpf4jnsgd1na2vs0mg"},{"bike_id":"68135c6b-4a7e-4906-b83b-c8a3d8e50a3f","system_id":"levelo_inurba_marseille","lat":43.28614,"lon":5.35097,"is_reserved":false,"is_disabled":false,"rental_uris":{"android":"levelo://app?vid=68135c6b-4a7e-4906-b83b-c8a3d8e50a3f","ios":"levelo://app?vid=68135c6b-4a7e-4906-b83b-c8a3d8e50a3f"},"vehicle_type_id":"4","last_reported":1753377089,"current_range_meters":8400,"station_id":"ce4bhch2rcd13ifvqeug","pricing_plan_id":"cebpf4jnsgd1na2vs0mg"},{"bike_id":"ce0ffc32-a366-4e8b-b135-ca54d0fd6cbb","system_id":"levelo_inurba_marseille","lat":43.261927,"lon":5.374475,"is_reserved":false,"is_disabled":true,"rental_uris":{"android":"levelo://app?vid=ce0ffc32-a366-4e8b-b135-ca54d0fd6cbb","ios":"levelo://app?vid=ce0ffc32-a366-4e8b-b135-ca54d0fd6cbb"},"vehicle_type_id":"4","last_reported":1753377089,"current_range_meters":8400,"station_id":"ce4bhgp2rcd13ifvqfc0","pricing_plan_id":"cebpf4jnsgd1na2vs0mg"},{"bike_id":"e0f4556b-1525-4eff-ac19-a1270436371d","system_id":"levelo_inurba_marseille","lat":43.27825,"lon":5.39775,"is_reserved":false,"is_disabled":false,"rental_uris":{"android":"levelo://app?vid=e0f4556b-1525-4eff-ac19-a1270436371d","ios":"levelo://app?vid=e0f4556b-1525-4eff-ac19-a1270436371d"},"vehicle_type_id":"4","last_reported":1753377089,"current_range_meters":8400,"station_id":"","pricing_plan_id":"cebpf4jnsgd1na2vs0mg"},{"bike_id":"5badef9b-181c-45e3-8b0c-e49f94173dd2","system_id":"levelo_inurba_marseille","lat":43.31338,"lon":5.39686,"is_reserved":false,"is_disabled":false,"rental_uris":{"android":"levelo://app?vid=5badef9b-181c-45e3-8b0c-e49f94173dd2","ios":"levelo://app?vid=5badef9b-181c-45e3-8b0c-e49f94173dd2"},"vehicle_type_id":"4","last_reported":1753377089,"current_range_meters":8400,"station_id":"ce4bgvp2rcd13ifvqcu0","pricing_plan_id":"cebpf4jnsgd1na2vs0mg"},{"bike_id":"c6a846c5-24d1-4d82-9ee1-995ccf1384ec","system_id":"levelo_inurba_marseille","lat":43.28346,"lon":5.38095,"is_reserved":false,"is_disabled":false,"rental_uris":{"android":"levelo://app?vid=c6a846c5-24d1-4d82-9ee1-995ccf1384ec","ios":"levelo://app?vid=c6a846c5-24d1-4d82-9ee1-995ccf1384ec"},"vehicle_type_id":"4","last_reported":1753377089,"current_range_meters":8400,"station_id":"ce4bh412rcd13ifvqdr0","pricing_plan_id":"cebpf4jnsgd1na2vs0mg"},{"bike_id":"15d2ec45-7776-4c8b-81c3-6589512e6ed5","system_id":"levelo_inurba_marseille","lat":43.29964,"lon":5.38489,"is_reserved":false,"is_disabled":false,"rental_uris":{"android":"levelo://app?vid=15d2ec45-7776-4c8b-81c3-6589512e6ed5","ios":"levelo://app?vid=15d2ec45-7776-4c8b-81c3-6589512e6ed5"},"vehicle_type_id":"4","last_reported":1753377089,"current_range_meters":8400,"station_id":"ce4bgj92rcd13ifvqbd0","pricing_plan_id":"cebpf4jnsgd1na2vs0mg"},{"bike_id":"dec93502-9771-4f3a-879a-cbdfb860df89","system_id":"levelo_inurba_marseille","lat":43.27659,"lon":5.38415,"is_reserved":false,"is_disabled":false,"rental_uris":{"android":"levelo://app?vid=dec93502-9771-4f3a-879a-cbdfb860df89","ios":"levelo://app?vid=dec93502-9771-4f3a-879a-cbdfb860df89"},"vehicle_type_id":"4","last_reported":1753377089,"current_range_meters":8800,"station_id":"","pricing_plan_id":"cebpf4jnsgd1na2vs0mg"},{"bike_id":"ebb0f05e-666a-47ba-932d-98f6bcaa5666","system_id":"levelo_inurba_marseille","lat":43.295264,"lon":5.385393,"is_reserved":false,"is_disabled":false,"rental_uris":{"android":"levelo://app?vid=ebb0f05e-666a-47ba-932d-98f6bcaa5666","ios":"levelo://app?vid=ebb0f05e-666a-47ba-932d-98f6bcaa5666"},"vehicle_type_id":"4","last_reported":1753377089,"current_range_meters":8400,"station_id":"ce4bgih2rcd13ifvqba0","pricing_plan_id":"cebpf4jnsgd1na2vs0mg"},{"bike_id":"9d538395-452a-4391-8a71-13aa03fcffce","system_id":"levelo_inurba_marseille","lat":43.262127,"lon":5.374391,"is_reserved":false,"is_disabled":false,"rental_uris":{"android":"levelo://app?vid=9d538395-452a-4391-8a71-13aa03fcffce","ios":"levelo://app?vid=9d538395-452a-4391-8a71-13aa03fcffce"},"vehicle_type_id":"4","last_reported":1753377089,"current_range_meters":8400,"station_id":"ce4bhgp2rcd13ifvqfc0","pricing_plan_id":"cebpf4jnsgd1na2vs0mg"},{"bike_id":"a5f86d1b-84b7-4205-967d-fd370508b025","system_id":"levelo_inurba_marseille","lat":43.30464,"lon":5.3791,"is_reserved":false,"is_disabled":false,"rental_uris":{"android":"levelo://app?vid=a5f86d1b-84b7-4205-967d-fd370508b025","ios":"levelo://app?vid=a5f86d1b-84b7-4205-967d-fd370508b025"},"vehicle_type_id":"4","last_reported":1753377089,"current_range_meters":8400,"station_id":"ce4bgup2rcd13ifvqcn0","pricing_plan_id":"cebpf4jnsgd1na2vs0mg"},{"bike_id":"7b7524ae-8ecd-499f-93b7-a6de3bab91d4","system_id":"levelo_inurba_marseille","lat":43.29914,"lon":5.43655,"is_reserved":false,"is_disabled":false,"rental_uris":{"android":"levelo://app?vid=7b7524ae-8ecd-499f-93b7-a6de3bab91d4","ios":"levelo://app?vid=7b7524ae-8ecd-499f-93b7-a6de3bab91d4"},"vehicle_type_id":"4","last_reported":1753377089,"current_range_meters":8800,"station_id":"ce4bhpp2rcd13ifvqhfg","pricing_plan_id":"cebpf4jnsgd1na2vs0mg"},{"bike_id":"7d26f21c-1cde-42e0-a805-68d2c8e2167f","system_id":"levelo_inurba_marseille","lat":43.2816,"lon":5.42635,"is_reserved":false,"is_disabled":false,"rental_uris":{"android":"levelo://app?vid=7d26f21c-1cde-42e0-a805-68d2c8e2167f","ios":"levelo://app?vid=7d26f21c-1cde-42e0-a805-68d2c8e2167f"},"vehicle_type_id":"4","last_reported":1753377089,"current_range_meters":8800,"station_id":"ce4bhnh2rcd13ifvqgug","pricing_plan_id":"cebpf4jnsgd1na2vs0mg"},{"bike_id":"bc8ddd55-d720-440c-93c7-73ad2a935f5f","system_id":"levelo_inurba_marseille","lat":43.30256,"lon":5.40067,"is_reserved":false,"is_disabled":false,"rental_uris":{"android":"levelo://app?vid=bc8ddd55-d720-440c-93c7-73ad2a935f5f","ios":"levelo://app?vid=bc8ddd55-d720-440c-93c7-73ad2a935f5f"},"vehicle_type_id":"4","last_reported":1753377089,"current_range_meters":9200,"station_id":"ce4bgvh2rcd13ifvqcs0","pricing_plan_id":"cebpf4jnsgd1na2vs0mg"},{"bike_id":"942481ee-1a01-4826-8a9f-dfcf76c0fbe3","system_id":"levelo_inurba_marseille","lat":43.301903,"lon":5.386921,"is_reserved":false,"is_disabled":false,"rental_uris":{"android":"levelo://app?vid=942481ee-1a01-4826-8a9f-dfcf76c0fbe3","ios":"levelo://app?vid=942481ee-1a01-4826-8a9f-dfcf76c0fbe3"},"vehicle_type_id":"4","last_reported":1753377089,"current_range_meters":9200,"station_id":"ce4bghh2rcd13ifvqb60","pricing_plan_id":"cebpf4jnsgd1na2vs0mg"},{"bike_id":"b982e5a3-88f5-4403-a53a-38d90073ed80","system_id":"levelo_inurba_marseille","lat":43.29442,"lon":5.43192,"is_reserved":false,"is_disabled":false,"rental_uris":{"android":"levelo://app?vid=b982e5a3-88f5-4403-a53a-38d90073ed80","ios":"levelo://app?vid=b982e5a3-88f5-4403-a53a-38d90073ed80"},"vehicle_type_id":"4","last_reported":1753377089,"current_range_meters":9200,"station_id":"","pricing_plan_id":"cebpf4jnsgd1na2vs0mg"},{"bike_id":"6ee86bd3-2c73-4d9c-9697-08e7abb1d7b9","system_id":"levelo_inurba_marseille","lat":43.286267,"lon":5.350977,"is_reserved":false,"is_disabled":false,"rental_uris":{"android":"levelo://app?vid=6ee86bd3-2c73-4d9c-9697-08e7abb1d7b9","ios":"levelo://app?vid=6ee86bd3-2c73-4d9c-9697-08e7abb1d7b9"},"vehicle_type_id":"4","last_reported":1753377089,"current_range_meters":9200,"station_id":"ce4bhch2rcd13ifvqeug","pricing_plan_id":"cebpf4jnsgd1na2vs0mg"},{"bike_id":"589cdce6-a58e-46c7-8d3e-1a5ebda902af","system_id":"levelo_inurba_marseille","lat":43.29793,"lon":5.40397,"is_reserved":false,"is_disabled":false,"rental_uris":{"android":"levelo://app?vid=589cdce6-a58e-46c7-8d3e-1a5ebda902af","ios":"levelo://app?vid=589cdce6-a58e-46c7-8d3e-1a5ebda902af"},"vehicle_type_id":"4","last_reported":1753377089,"current_range_meters":9200,"station_id":"ce4bh112rcd13ifvqd90","pricing_plan_id":"cebpf4jnsgd1na2vs0mg"},{"bike_id":"bbc2b271-396f-4875-9f1d-0fcc163d87b6","system_id":"levelo_inurba_marseille","lat":43.290768,"lon":5.398821,"is_reserved":false,"is_disabled":false,"rental_uris":{"android":"levelo://app?vid=bbc2b271-396f-4875-9f1d-0fcc163d87b6","ios":"levelo://app?vid=bbc2b271-396f-4875-9f1d-0fcc163d87b6"},"vehicle_type_id":"4","last_reported":1753377089,"current_range_meters":9600,"station_id":"","pricing_plan_id":"cebpf4jnsgd1na2vs0mg"},{"bike_id":"fb55c7b6-6dad-4b93-8c34-f3dd01589bb2","system_id":"levelo_inurba_marseille","lat":43.29529,"lon":5.394,"is_reserved":false,"is_disabled":false,"rental_uris":{"android":"levelo://app?vid=fb55c7b6-6dad-4b93-8c34-f3dd01589bb2","ios":"levelo://app?vid=fb55c7b6-6dad-4b93-8c34-f3dd01589bb2"},"vehicle_type_id":"4","last_reported":1753377089,"current_range_meters":9600,"station_id":"ce4bh292rcd13ifvqdf0","pricing_plan_id":"cebpf4jnsgd1na2vs0mg"},{"bike_id":"f3217e35-0bb5-43ab-beb0-dd5e233a7114","system_id":"levelo_inurba_marseille","lat":43.25578,"lon":5.382244,"is_reserved":false,"is_disabled":true,"rental_uris":{"android":"levelo://app?vid=f3217e35-0bb5-43ab-beb0-dd5e233a7114","ios":"levelo://app?vid=f3217e35-0bb5-43ab-beb0-dd5e233a7114"},"vehicle_type_id":"4","last_reported":1753377089,"current_range_meters":9600,"station_id":"ce4bhih2rcd13ifvqfs0","pricing_plan_id":"cebpf4jnsgd1na2vs0mg"},{"bike_id":"7250624a-63df-4e44-9e5a-1056e5f8a90f","system_id":"levelo_inurba_marseille","lat":43.292737,"lon":5.409015,"is_reserved":false,"is_disabled":false,"rental_uris":{"android":"levelo://app?vid=7250624a-63df-4e44-9e5a-1056e5f8a90f","ios":"levelo://app?vid=7250624a-63df-4e44-9e5a-1056e5f8a90f"},"vehicle_type_id":"4","last_reported":1753377089,"current_range_meters":9600,"station_id":"ce4bh192rcd13ifvqdc0","pricing_plan_id":"cebpf4jnsgd1na2vs0mg"},{"bike_id":"98d81ccc-d5a8-49fb-be26-1aa0d7cea6bd","system_id":"levelo_inurba_marseille","lat":43.28621,"lon":5.35089,"is_reserved":false,"is_disabled":false,"rental_uris":{"android":"levelo://app?vid=98d81ccc-d5a8-49fb-be26-1aa0d7cea6bd","ios":"levelo://app?vid=98d81ccc-d5a8-49fb-be26-1aa0d7cea6bd"},"vehicle_type_id":"4","last_reported":1753377089,"current_range_meters":9600,"station_id":"ce4bhch2rcd13ifvqeug","pricing_plan_id":"cebpf4jnsgd1na2vs0mg"},{"bike_id":"aaf19045-9fb6-460e-932c-1d836dea2a05","system_id":"levelo_inurba_marseille","lat":43.239712,"lon":5.366292,"is_reserved":false,"is_disabled":false,"rental_uris":{"android":"levelo://app?vid=aaf19045-9fb6-460e-932c-1d836dea2a05","ios":"levelo://app?vid=aaf19045-9fb6-460e-932c-1d836dea2a05"},"vehicle_type_id":"4","last_reported":1753377089,"current_range_meters":9600,"station_id":"ce4bhi12rcd13ifvqfp0","pricing_plan_id":"cebpf4jnsgd1na2vs0mg"},{"bike_id":"15764e5c-9dbf-4127-b7d5-4ec1473657e5","system_id":"levelo_inurba_marseille","lat":43.2895,"lon":5.36404,"is_reserved":false,"is_disabled":false,"rental_uris":{"android":"levelo://app?vid=15764e5c-9dbf-4127-b7d5-4ec1473657e5","ios":"levelo://app?vid=15764e5c-9dbf-4127-b7d5-4ec1473657e5"},"vehicle_type_id":"4","last_reported":1753377089,"current_range_meters":9600,"station_id":"ce4bhc92rcd13ifvqetg","pricing_plan_id":"cebpf4jnsgd1na2vs0mg"},{"bike_id":"216c8e23-c544-4c3e-a056-5c13ca9fa09d","system_id":"levelo_inurba_marseille","lat":43.28942,"lon":5.3663,"is_reserved":false,"is_disabled":false,"rental_uris":{"android":"levelo://app?vid=216c8e23-c544-4c3e-a056-5c13ca9fa09d","ios":"levelo://app?vid=216c8e23-c544-4c3e-a056-5c13ca9fa09d"},"vehicle_type_id":"4","last_reported":1753377089,"current_range_meters":10000,"station_id":"ce4bhap2rcd13ifvqek0","pricing_plan_id":"cebpf4jnsgd1na2vs0mg"},{"bike_id":"2ebe8ccf-25a0-4ae1-8d29-4010238968ac","system_id":"levelo_inurba_marseille","lat":43.28721,"lon":5.37936,"is_reserved":false,"is_disabled":false,"rental_uris":{"android":"levelo://app?vid=2ebe8ccf-25a0-4ae1-8d29-4010238968ac","ios":"levelo://app?vid=2ebe8ccf-25a0-4ae1-8d29-4010238968ac"},"vehicle_type_id":"4","last_reported":1753377089,"current_range_meters":10000,"station_id":"ce4bh9p2rcd13ifvqec0","pricing_plan_id":"cebpf4jnsgd1na2vs0mg"},{"bike_id":"b5ce8d93-17c0-45a5-b2b1-eefce45c2d79","system_id":"levelo_inurba_marseille","lat":43.29279,"lon":5.44574,"is_reserved":false,"is_disabled":false,"rental_uris":{"android":"levelo://app?vid=b5ce8d93-17c0-45a5-b2b1-eefce45c2d79","ios":"levelo://app?vid=b5ce8d93-17c0-45a5-b2b1-eefce45c2d79"},"vehicle_type_id":"4","last_reported":1753377089,"current_range_meters":10000,"station_id":"","pricing_plan_id":"cebpf4jnsgd1na2vs0mg"},{"bike_id":"06667231-9491-402b-a9ce-661f9818def9","system_id":"levelo_inurba_marseille","lat":43.231921,"lon":5.355498,"is_reserved":false,"is_disabled":true,"rental_uris":{"android":"levelo://app?vid=06667231-9491-402b-a9ce-661f9818def9","ios":"levelo://app?vid=06667231-9491-402b-a9ce-661f9818def9"},"vehicle_type_id":"4","last_reported":1753377089,"current_range_meters":10000,"station_id":"ce4bhu92rcd13ifvqi70","pricing_plan_id":"cebpf4jnsgd1na2vs0mg"},{"bike_id":"fbff8f0e-d0d6-4715-8692-f47546d626b9","system_id":"levelo_inurba_marseille","lat":43.288545,"lon":5.358527,"is_reserved":false,"is_disabled":false,"rental_uris":{"android":"levelo://app?vid=fbff8f0e-d0d6-4715-8692-f47546d626b9","ios":"levelo://app?vid=fbff8f0e-d0d6-4715-8692-f47546d626b9"},"vehicle_type_id":"4","last_reported":1753377089,"current_range_meters":10000,"station_id":"","pricing_plan_id":"cebpf4jnsgd1na2vs0mg"},{"bike_id":"f9392d6c-b35e-40bc-b1a7-ee8e2382d230","system_id":"levelo_inurba_marseille","lat":43.3055,"lon":5.36701,"is_reserved":false,"is_disabled":true,"rental_uris":{"android":"levelo://app?vid=f9392d6c-b35e-40bc-b1a7-ee8e2382d230","ios":"levelo://app?vid=f9392d6c-b35e-40bc-b1a7-ee8e2382d230"},"vehicle_type_id":"4","last_reported":1753377089,"current_range_meters":10000,"station_id":"ce4bgrp2rcd13ifvqc9g","pricing_plan_id":"cebpf4jnsgd1na2vs0mg"},{"bike_id":"300a4756-01bd-4e0c-90d5-87daadcf6e14","system_id":"levelo_inurba_marseille","lat":43.290972,"lon":5.359105,"is_reserved":false,"is_disabled":true,"rental_uris":{"android":"levelo://app?vid=300a4756-01bd-4e0c-90d5-87daadcf6e14","ios":"levelo://app?vid=300a4756-01bd-4e0c-90d5-87daadcf6e14"},"vehicle_type_id":"4","last_reported":1753377089,"current_range_meters":10800,"station_id":"","pricing_plan_id":"cebpf4jnsgd1na2vs0mg"},{"bike_id":"ae131367-d818-44a0-9e1d-4aa65dcdb16a","system_id":"levelo_inurba_marseille","lat":43.27547,"lon":5.39655,"is_reserved":false,"is_disabled":false,"rental_uris":{"android":"levelo://app?vid=ae131367-d818-44a0-9e1d-4aa65dcdb16a","ios":"levelo://app?vid=ae131367-d818-44a0-9e1d-4aa65dcdb16a"},"vehicle_type_id":"4","last_reported":1753377089,"current_range_meters":10800,"station_id":"","pricing_plan_id":"cebpf4jnsgd1na2vs0mg"},{"bike_id":"edb36b36-eaf7-4018-8421-c879d7d3b5fc","system_id":"levelo_inurba_marseille","lat":43.30735,"lon":5.42448,"is_reserved":false,"is_disabled":false,"rental_uris":{"android":"levelo://app?vid=edb36b36-eaf7-4018-8421-c879d7d3b5fc","ios":"levelo://app?vid=edb36b36-eaf7-4018-8421-c879d7d3b5fc"},"vehicle_type_id":"4","last_reported":1753377089,"current_range_meters":10800,"station_id":"st_cvj6ca6bvosntc0bfgr0","pricing_plan_id":"cebpf4jnsgd1na2vs0mg"},{"bike_id":"3cd09fc8-9554-4236-8496-0931a7be09d1","system_id":"levelo_inurba_marseille","lat":43.21182,"lon":5.35079,"is_reserved":false,"is_disabled":false,"rental_uris":{"android":"levelo://app?vid=3cd09fc8-9554-4236-8496-0931a7be09d1","ios":"levelo://app?vid=3cd09fc8-9554-4236-8496-0931a7be09d1"},"vehicle_type_id":"4","last_reported":1753377089,"current_range_meters":11200,"station_id":"st_cvj6sg6p6f1abm77japg","pricing_plan_id":"cebpf4jnsgd1na2vs0mg"},{"bike_id":"08b18380-89aa-4ac4-a7cc-494e1276ee04","system_id":"levelo_inurba_marseille","lat":43.31381,"lon":5.38483,"is_reserved":false,"is_disabled":false,"rental_uris":{"android":"levelo://app?vid=08b18380-89aa-4ac4-a7cc-494e1276ee04","ios":"levelo://app?vid=08b18380-89aa-4ac4-a7cc-494e1276ee04"},"vehicle_type_id":"4","last_reported":1753377089,"current_range_meters":8800,"station_id":"ce4bgt92rcd13ifvqcf0","pricing_plan_id":"cebpf4jnsgd1na2vs0mg"},{"bike_id":"80754b1b-2f92-42f4-aad9-91cbd9623958","system_id":"levelo_inurba_marseille","lat":43.29619,"lon":5.37162,"is_reserved":false,"is_disabled":false,"rental_uris":{"android":"levelo://app?vid=80754b1b-2f92-42f4-aad9-91cbd9623958","ios":"levelo://app?vid=80754b1b-2f92-42f4-aad9-91cbd9623958"},"vehicle_type_id":"4","last_reported":1753377089,"current_range_meters":14800,"station_id":"ce4bgnh2rcd13ifvqc0g","pricing_plan_id":"cebpf4jnsgd1na2vs0mg"},{"bike_id":"8e84bc89-0687-43f4-85da-f6485e49b39e","system_id":"levelo_inurba_marseille","lat":43.313316,"lon":5.396912,"is_reserved":false,"is_disabled":false,"rental_uris":{"android":"levelo://app?vid=8e84bc89-0687-43f4-85da-f6485e49b39e","ios":"levelo://app?vid=8e84bc89-0687-43f4-85da-f6485e49b39e"},"vehicle_type_id":"4","last_reported":1753377089,"current_range_meters":10800,"station_id":"ce4bgvp2rcd13ifvqcu0","pricing_plan_id":"cebpf4jnsgd1na2vs0mg"},{"bike_id":"689c897f-7cdc-485d-9254-156fda030bfd","system_id":"levelo_inurba_marseille","lat":43.23964,"lon":5.3663,"is_reserved":false,"is_disabled":false,"rental_uris":{"android":"levelo://app?vid=689c897f-7cdc-485d-9254-156fda030bfd","ios":"levelo://app?vid=689c897f-7cdc-485d-9254-156fda030bfd"},"vehicle_type_id":"4","last_reported":1753377089,"current_range_meters":10800,"station_id":"ce4bhi12rcd13ifvqfp0","pricing_plan_id":"cebpf4jnsgd1na2vs0mg"},{"bike_id":"276a2451-1daf-4f46-abea-55fc341b9e1e","system_id":"levelo_inurba_marseille","lat":43.31073,"lon":5.42405,"is_reserved":false,"is_disabled":false,"rental_uris":{"android":"levelo://app?vid=276a2451-1daf-4f46-abea-55fc341b9e1e","ios":"levelo://app?vid=276a2451-1daf-4f46-abea-55fc341b9e1e"},"vehicle_type_id":"4","last_reported":1753377089,"current_range_meters":10800,"station_id":"ce4bhp92rcd13ifvqhag","pricing_plan_id":"cebpf4jnsgd1na2vs0mg"},{"bike_id":"985a044d-b9e5-4dea-89e6-6834504b7c3c","system_id":"levelo_inurba_marseille","lat":43.280376,"lon":5.369402,"is_reserved":false,"is_disabled":false,"rental_uris":{"android":"levelo://app?vid=985a044d-b9e5-4dea-89e6-6834504b7c3c","ios":"levelo://app?vid=985a044d-b9e5-4dea-89e6-6834504b7c3c"},"vehicle_type_id":"4","last_reported":1753377089,"current_range_meters":10800,"station_id":"ce4bha12rcd13ifvqef0","pricing_plan_id":"cebpf4jnsgd1na2vs0mg"},{"bike_id":"2ae83899-90fd-4b59-b691-4169c75aef1a","system_id":"levelo_inurba_marseille","lat":43.3378,"lon":5.3745,"is_reserved":false,"is_disabled":false,"rental_uris":{"android":"levelo://app?vid=2ae83899-90fd-4b59-b691-4169c75aef1a","ios":"levelo://app?vid=2ae83899-90fd-4b59-b691-4169c75aef1a"},"vehicle_type_id":"4","last_reported":1753377089,"current_range_meters":10800,"station_id":"","pricing_plan_id":"cebpf4jnsgd1na2vs0mg"},{"bike_id":"7a7de106-4d6e-4954-83f6-c9926921f5cf","system_id":"levelo_inurba_marseille","lat":43.250882,"lon":5.395265,"is_reserved":false,"is_disabled":false,"rental_uris":{"android":"levelo://app?vid=7a7de106-4d6e-4954-83f6-c9926921f5cf","ios":"levelo://app?vid=7a7de106-4d6e-4954-83f6-c9926921f5cf"},"vehicle_type_id":"4","last_reported":1753377089,"current_range_meters":10800,"station_id":"ce4bhm12rcd13ifvqgkg","pricing_plan_id":"cebpf4jnsgd1na2vs0mg"},{"bike_id":"27a75d8d-a43d-4fea-a876-5382ce8f9584","system_id":"levelo_inurba_marseille","lat":43.29793,"lon":5.371,"is_reserved":false,"is_disabled":false,"rental_uris":{"android":"levelo://app?vid=27a75d8d-a43d-4fea-a876-5382ce8f9584","ios":"levelo://app?vid=27a75d8d-a43d-4fea-a876-5382ce8f9584"},"vehicle_type_id":"4","last_reported":1753377089,"current_range_meters":10800,"station_id":"ce4bgop2rcd13ifvqc1g","pricing_plan_id":"cebpf4jnsgd1na2vs0mg"},{"bike_id":"f084bb1f-e55f-4af9-b02b-2ef460a7db68","system_id":"levelo_inurba_marseille","lat":43.24807,"lon":5.37454,"is_reserved":false,"is_disabled":false,"rental_uris":{"android":"levelo://app?vid=f084bb1f-e55f-4af9-b02b-2ef460a7db68","ios":"levelo://app?vid=f084bb1f-e55f-4af9-b02b-2ef460a7db68"},"vehicle_type_id":"4","last_reported":1753377089,"current_range_meters":11200,"station_id":"ce4bhgh2rcd13ifvqfb0","pricing_plan_id":"cebpf4jnsgd1na2vs0mg"},{"bike_id":"ce59a62d-17ec-416f-b54d-751bd3f6f3dd","system_id":"levelo_inurba_marseille","lat":43.270746,"lon":5.422684,"is_reserved":false,"is_disabled":false,"rental_uris":{"android":"levelo://app?vid=ce59a62d-17ec-416f-b54d-751bd3f6f3dd","ios":"levelo://app?vid=ce59a62d-17ec-416f-b54d-751bd3f6f3dd"},"vehicle_type_id":"4","last_reported":1753377089,"current_range_meters":11200,"station_id":"ce4bhk92rcd13ifvqgb0","pricing_plan_id":"cebpf4jnsgd1na2vs0mg"},{"bike_id":"195fc2b9-1178-4367-93a2-97ce73638da6","system_id":"levelo_inurba_marseille","lat":43.27172,"lon":5.40986,"is_reserved":false,"is_disabled":false,"rental_uris":{"android":"levelo://app?vid=195fc2b9-1178-4367-93a2-97ce73638da6","ios":"levelo://app?vid=195fc2b9-1178-4367-93a2-97ce73638da6"},"vehicle_type_id":"4","last_reported":1753377089,"current_range_meters":11200,"station_id":"ce4bhl12rcd13ifvqgf0","pricing_plan_id":"cebpf4jnsgd1na2vs0mg"},{"bike_id":"6a79a396-2f47-4b1c-9dce-b0d5464f72e4","system_id":"levelo_inurba_marseille","lat":43.22921,"lon":5.35382,"is_reserved":false,"is_disabled":false,"rental_uris":{"android":"levelo://app?vid=6a79a396-2f47-4b1c-9dce-b0d5464f72e4","ios":"levelo://app?vid=6a79a396-2f47-4b1c-9dce-b0d5464f72e4"},"vehicle_type_id":"4","last_reported":1753377089,"current_range_meters":11200,"station_id":"cpo3532slgdg3j2ikp40","pricing_plan_id":"cebpf4jnsgd1na2vs0mg"},{"bike_id":"bb886baf-4468-4024-b9f8-6ba7c8b1e74c","system_id":"levelo_inurba_marseille","lat":43.29526,"lon":5.39031,"is_reserved":false,"is_disabled":false,"rental_uris":{"android":"levelo://app?vid=bb886baf-4468-4024-b9f8-6ba7c8b1e74c","ios":"levelo://app?vid=bb886baf-4468-4024-b9f8-6ba7c8b1e74c"},"vehicle_type_id":"4","last_reported":1753377089,"current_range_meters":11200,"station_id":"ce4bh3p2rcd13ifvqdp0","pricing_plan_id":"cebpf4jnsgd1na2vs0mg"},{"bike_id":"0836f668-bebb-41e9-a6dd-df53647bdc7f","system_id":"levelo_inurba_marseille","lat":43.25586,"lon":5.38228,"is_reserved":false,"is_disabled":false,"rental_uris":{"android":"levelo://app?vid=0836f668-bebb-41e9-a6dd-df53647bdc7f","ios":"levelo://app?vid=0836f668-bebb-41e9-a6dd-df53647bdc7f"},"vehicle_type_id":"4","last_reported":1753377089,"current_range_meters":11600,"station_id":"ce4bhih2rcd13ifvqfs0","pricing_plan_id":"cebpf4jnsgd1na2vs0mg"},{"bike_id":"3af86f1f-3af3-455f-b94b-6aba855b61c9","system_id":"levelo_inurba_marseille","lat":43.28427,"lon":5.39187,"is_reserved":false,"is_disabled":false,"rental_uris":{"android":"levelo://app?vid=3af86f1f-3af3-455f-b94b-6aba855b61c9","ios":"levelo://app?vid=3af86f1f-3af3-455f-b94b-6aba855b61c9"},"vehicle_type_id":"4","last_reported":1753377089,"current_range_meters":11600,"station_id":"ce4bhoh2rcd13ifvqh5g","pricing_plan_id":"cebpf4jnsgd1na2vs0mg"},{"bike_id":"939aed78-fbd4-40a3-bf23-4b0c73f437c9","system_id":"levelo_inurba_marseille","lat":43.289387,"lon":5.363724,"is_reserved":false,"is_disabled":false,"rental_uris":{"android":"levelo://app?vid=939aed78-fbd4-40a3-bf23-4b0c73f437c9","ios":"levelo://app?vid=939aed78-fbd4-40a3-bf23-4b0c73f437c9"},"vehicle_type_id":"4","last_reported":1753377089,"current_range_meters":11600,"station_id":"ce4bhc92rcd13ifvqetg","pricing_plan_id":"cebpf4jnsgd1na2vs0mg"},{"bike_id":"5aca2626-23cd-46a9-874b-181455c5338a","system_id":"levelo_inurba_marseille","lat":43.3087,"lon":5.37194,"is_reserved":false,"is_disabled":false,"rental_uris":{"android":"levelo://app?vid=5aca2626-23cd-46a9-874b-181455c5338a","ios":"levelo://app?vid=5aca2626-23cd-46a9-874b-181455c5338a"},"vehicle_type_id":"4","last_reported":1753377089,"current_range_meters":11600,"station_id":"ce4bguh2rcd13ifvqckg","pricing_plan_id":"cebpf4jnsgd1na2vs0mg"},{"bike_id":"b89d6267-55af-48a1-8887-3f0adc5ff195","system_id":"levelo_inurba_marseille","lat":43.301319,"lon":5.39874,"is_reserved":false,"is_disabled":false,"rental_uris":{"android":"levelo://app?vid=b89d6267-55af-48a1-8887-3f0adc5ff195","ios":"levelo://app?vid=b89d6267-55af-48a1-8887-3f0adc5ff195"},"vehicle_type_id":"4","last_reported":1753377089,"current_range_meters":11600,"station_id":"","pricing_plan_id":"cebpf4jnsgd1na2vs0mg"},{"bike_id":"2006d6ab-c619-4a15-b9f3-97c1160843f0","system_id":"levelo_inurba_marseille","lat":43.281572,"lon":5.360958,"is_reserved":false,"is_disabled":false,"rental_uris":{"android":"levelo://app?vid=2006d6ab-c619-4a15-b9f3-97c1160843f0","ios":"levelo://app?vid=2006d6ab-c619-4a15-b9f3-97c1160843f0"},"vehicle_type_id":"4","last_reported":1753377089,"current_range_meters":11600,"station_id":"","pricing_plan_id":"cebpf4jnsgd1na2vs0mg"},{"bike_id":"0ead4afc-50f4-4b6b-ae96-f939ac3dc821","system_id":"levelo_inurba_marseille","lat":43.25085,"lon":5.39511,"is_reserved":false,"is_disabled":false,"rental_uris":{"android":"levelo://app?vid=0ead4afc-50f4-4b6b-ae96-f939ac3dc821","ios":"levelo://app?vid=0ead4afc-50f4-4b6b-ae96-f939ac3dc821"},"vehicle_type_id":"4","last_reported":1753377089,"current_range_meters":11600,"station_id":"ce4bhm12rcd13ifvqgkg","pricing_plan_id":"cebpf4jnsgd1na2vs0mg"},{"bike_id":"75921511-23bf-408f-9470-1062209789d6","system_id":"levelo_inurba_marseille","lat":43.25595,"lon":5.38187,"is_reserved":false,"is_disabled":false,"rental_uris":{"android":"levelo://app?vid=75921511-23bf-408f-9470-1062209789d6","ios":"levelo://app?vid=75921511-23bf-408f-9470-1062209789d6"},"vehicle_type_id":"4","last_reported":1753377089,"current_range_meters":12000,"station_id":"ce4bhih2rcd13ifvqfs0","pricing_plan_id":"cebpf4jnsgd1na2vs0mg"},{"bike_id":"5ac85406-65d0-4336-aa89-4b04b2e6689e","system_id":"levelo_inurba_marseille","lat":43.33258,"lon":5.4198,"is_reserved":false,"is_disabled":false,"rental_uris":{"android":"levelo://app?vid=5ac85406-65d0-4336-aa89-4b04b2e6689e","ios":"levelo://app?vid=5ac85406-65d0-4336-aa89-4b04b2e6689e"},"vehicle_type_id":"4","last_reported":1753377089,"current_range_meters":12000,"station_id":"","pricing_plan_id":"cebpf4jnsgd1na2vs0mg"},{"bike_id":"c056311f-78c9-4e18-8685-91c659ddb125","system_id":"levelo_inurba_marseille","lat":43.31599,"lon":5.38966,"is_reserved":false,"is_disabled":false,"rental_uris":{"android":"levelo://app?vid=c056311f-78c9-4e18-8685-91c659ddb125","ios":"levelo://app?vid=c056311f-78c9-4e18-8685-91c659ddb125"},"vehicle_type_id":"4","last_reported":1753377089,"current_range_meters":12000,"station_id":"","pricing_plan_id":"cebpf4jnsgd1na2vs0mg"},{"bike_id":"b38596bd-a4cc-44dd-88f9-0473e1e571c1","system_id":"levelo_inurba_marseille","lat":43.27394,"lon":5.36266,"is_reserved":false,"is_disabled":false,"rental_uris":{"android":"levelo://app?vid=b38596bd-a4cc-44dd-88f9-0473e1e571c1","ios":"levelo://app?vid=b38596bd-a4cc-44dd-88f9-0473e1e571c1"},"vehicle_type_id":"4","last_reported":1753377089,"current_range_meters":12000,"station_id":"ce4bhbh2rcd13ifvqeo0","pricing_plan_id":"cebpf4jnsgd1na2vs0mg"},{"bike_id":"9a6980d8-f568-47d7-9520-c212868cd4b1","system_id":"levelo_inurba_marseille","lat":43.304336,"lon":5.397372,"is_reserved":false,"is_disabled":false,"rental_uris":{"android":"levelo://app?vid=9a6980d8-f568-47d7-9520-c212868cd4b1","ios":"levelo://app?vid=9a6980d8-f568-47d7-9520-c212868cd4b1"},"vehicle_type_id":"4","last_reported":1753377089,"current_range_meters":12000,"station_id":"ce4bh092rcd13ifvqd20","pricing_plan_id":"cebpf4jnsgd1na2vs0mg"},{"bike_id":"302fde1f-1919-4e43-ae36-2026a9e9be08","system_id":"levelo_inurba_marseille","lat":43.23196,"lon":5.35551,"is_reserved":false,"is_disabled":false,"rental_uris":{"android":"levelo://app?vid=302fde1f-1919-4e43-ae36-2026a9e9be08","ios":"levelo://app?vid=302fde1f-1919-4e43-ae36-2026a9e9be08"},"vehicle_type_id":"4","last_reported":1753377089,"current_range_meters":12000,"station_id":"ce4bhu92rcd13ifvqi70","pricing_plan_id":"cebpf4jnsgd1na2vs0mg"},{"bike_id":"6bb1f31c-9335-4f39-9585-31374a4775f9","system_id":"levelo_inurba_marseille","lat":43.325583,"lon":5.379059,"is_reserved":false,"is_disabled":false,"rental_uris":{"android":"levelo://app?vid=6bb1f31c-9335-4f39-9585-31374a4775f9","ios":"levelo://app?vid=6bb1f31c-9335-4f39-9585-31374a4775f9"},"vehicle_type_id":"4","last_reported":1753377089,"current_range_meters":12000,"station_id":"","pricing_plan_id":"cebpf4jnsgd1na2vs0mg"},{"bike_id":"6a95c831-81fc-4eff-8256-834e950cede6","system_id":"levelo_inurba_marseille","lat":43.26559,"lon":5.3729,"is_reserved":false,"is_disabled":false,"rental_uris":{"android":"levelo://app?vid=6a95c831-81fc-4eff-8256-834e950cede6","ios":"levelo://app?vid=6a95c831-81fc-4eff-8256-834e950cede6"},"vehicle_type_id":"4","last_reported":1753377089,"current_range_meters":12000,"station_id":"","pricing_plan_id":"cebpf4jnsgd1na2vs0mg"},{"bike_id":"8d875e04-1fc5-4ba8-aa6f-de9af7981a87","system_id":"levelo_inurba_marseille","lat":43.239614,"lon":5.366362,"is_reserved":false,"is_disabled":false,"rental_uris":{"android":"levelo://app?vid=8d875e04-1fc5-4ba8-aa6f-de9af7981a87","ios":"levelo://app?vid=8d875e04-1fc5-4ba8-aa6f-de9af7981a87"},"vehicle_type_id":"4","last_reported":1753377089,"current_range_meters":12000,"station_id":"ce4bhi12rcd13ifvqfp0","pricing_plan_id":"cebpf4jnsgd1na2vs0mg"},{"bike_id":"bfd5fba8-44ef-4b41-a962-02efacf25750","system_id":"levelo_inurba_marseille","lat":43.26568,"lon":5.39008,"is_reserved":false,"is_disabled":false,"rental_uris":{"android":"levelo://app?vid=bfd5fba8-44ef-4b41-a962-02efacf25750","ios":"levelo://app?vid=bfd5fba8-44ef-4b41-a962-02efacf25750"},"vehicle_type_id":"4","last_reported":1753377089,"current_range_meters":12400,"station_id":"ce4bhe12rcd13ifvqf30","pricing_plan_id":"cebpf4jnsgd1na2vs0mg"},{"bike_id":"1d7cab05-f3df-4512-93e6-096fa6cb4d14","system_id":"levelo_inurba_marseille","lat":43.29564,"lon":5.37502,"is_reserved":false,"is_disabled":false,"rental_uris":{"android":"levelo://app?vid=1d7cab05-f3df-4512-93e6-096fa6cb4d14","ios":"levelo://app?vid=1d7cab05-f3df-4512-93e6-096fa6cb4d14"},"vehicle_type_id":"4","last_reported":1753377089,"current_range_meters":12400,"station_id":"ce4bgh92rcd13ifvqb50","pricing_plan_id":"cebpf4jnsgd1na2vs0mg"},{"bike_id":"18b86593-4f21-41ed-81b3-f3a5b378dc91","system_id":"levelo_inurba_marseille","lat":43.31227,"lon":5.38118,"is_reserved":false,"is_disabled":false,"rental_uris":{"android":"levelo://app?vid=18b86593-4f21-41ed-81b3-f3a5b378dc91","ios":"levelo://app?vid=18b86593-4f21-41ed-81b3-f3a5b378dc91"},"vehicle_type_id":"4","last_reported":1753377089,"current_range_meters":12400,"station_id":"","pricing_plan_id":"cebpf4jnsgd1na2vs0mg"},{"bike_id":"959c968c-1c72-43d7-8981-f0484be1c298","system_id":"levelo_inurba_marseille","lat":43.27072,"lon":5.42278,"is_reserved":false,"is_disabled":false,"rental_uris":{"android":"levelo://app?vid=959c968c-1c72-43d7-8981-f0484be1c298","ios":"levelo://app?vid=959c968c-1c72-43d7-8981-f0484be1c298"},"vehicle_type_id":"4","last_reported":1753377089,"current_range_meters":12400,"station_id":"ce4bhk92rcd13ifvqgb0","pricing_plan_id":"cebpf4jnsgd1na2vs0mg"},{"bike_id":"d07f4742-d63f-4bfd-a6bb-0c253a6a69e2","system_id":"levelo_inurba_marseille","lat":43.29516,"lon":5.39394,"is_reserved":false,"is_disabled":false,"rental_uris":{"android":"levelo://app?vid=d07f4742-d63f-4bfd-a6bb-0c253a6a69e2","ios":"levelo://app?vid=d07f4742-d63f-4bfd-a6bb-0c253a6a69e2"},"vehicle_type_id":"4","last_reported":1753377089,"current_range_meters":12400,"station_id":"ce4bh292rcd13ifvqdf0","pricing_plan_id":"cebpf4jnsgd1na2vs0mg"},{"bike_id":"89a8529e-8879-4124-8039-b907686611bc","system_id":"levelo_inurba_marseille","lat":43.29534,"lon":5.38536,"is_reserved":false,"is_disabled":false,"rental_uris":{"android":"levelo://app?vid=89a8529e-8879-4124-8039-b907686611bc","ios":"levelo://app?vid=89a8529e-8879-4124-8039-b907686611bc"},"vehicle_type_id":"4","last_reported":1753377089,"current_range_meters":12800,"station_id":"ce4bgih2rcd13ifvqba0","pricing_plan_id":"cebpf4jnsgd1na2vs0mg"},{"bike_id":"c3bd6b0f-48f0-43b7-ab8e-836fc23dcab9","system_id":"levelo_inurba_marseille","lat":43.29003,"lon":5.35616,"is_reserved":false,"is_disabled":false,"rental_uris":{"android":"levelo://app?vid=c3bd6b0f-48f0-43b7-ab8e-836fc23dcab9","ios":"levelo://app?vid=c3bd6b0f-48f0-43b7-ab8e-836fc23dcab9"},"vehicle_type_id":"4","last_reported":1753377089,"current_range_meters":12800,"station_id":"ce4bhb92rcd13ifvqen0","pricing_plan_id":"cebpf4jnsgd1na2vs0mg"},{"bike_id":"a1ad3c9e-215a-4d27-92bf-75f450f81a17","system_id":"levelo_inurba_marseille","lat":43.27172,"lon":5.40994,"is_reserved":false,"is_disabled":false,"rental_uris":{"android":"levelo://app?vid=a1ad3c9e-215a-4d27-92bf-75f450f81a17","ios":"levelo://app?vid=a1ad3c9e-215a-4d27-92bf-75f450f81a17"},"vehicle_type_id":"4","last_reported":1753377089,"current_range_meters":12800,"station_id":"ce4bhl12rcd13ifvqgf0","pricing_plan_id":"cebpf4jnsgd1na2vs0mg"},{"bike_id":"3ac9e330-1df6-4fa0-8e3b-17f5d696b48c","system_id":"levelo_inurba_marseille","lat":43.27377,"lon":5.36253,"is_reserved":false,"is_disabled":false,"rental_uris":{"android":"levelo://app?vid=3ac9e330-1df6-4fa0-8e3b-17f5d696b48c","ios":"levelo://app?vid=3ac9e330-1df6-4fa0-8e3b-17f5d696b48c"},"vehicle_type_id":"4","last_reported":1753377089,"current_range_meters":12800,"station_id":"ce4bhbh2rcd13ifvqeo0","pricing_plan_id":"cebpf4jnsgd1na2vs0mg"},{"bike_id":"c2bd309a-e1b0-4107-9700-13b739dcbdf0","system_id":"levelo_inurba_marseille","lat":43.29852,"lon":5.36282,"is_reserved":false,"is_disabled":false,"rental_uris":{"android":"levelo://app?vid=c2bd309a-e1b0-4107-9700-13b739dcbdf0","ios":"levelo://app?vid=c2bd309a-e1b0-4107-9700-13b739dcbdf0"},"vehicle_type_id":"4","last_reported":1753377089,"current_range_meters":12800,"station_id":"ce4bgpp2rcd13ifvqc3g","pricing_plan_id":"cebpf4jnsgd1na2vs0mg"},{"bike_id":"4bf421ec-ee3c-42e9-929e-bba30852dd36","system_id":"levelo_inurba_marseille","lat":43.281549,"lon":5.426414,"is_reserved":false,"is_disabled":false,"rental_uris":{"android":"levelo://app?vid=4bf421ec-ee3c-42e9-929e-bba30852dd36","ios":"levelo://app?vid=4bf421ec-ee3c-42e9-929e-bba30852dd36"},"vehicle_type_id":"4","last_reported":1753377089,"current_range_meters":12800,"station_id":"ce4bhnh2rcd13ifvqgug","pricing_plan_id":"cebpf4jnsgd1na2vs0mg"},{"bike_id":"4e79a59f-d06f-45d0-af7e-3c1165b6879e","system_id":"levelo_inurba_marseille","lat":43.31882,"lon":5.40734,"is_reserved":false,"is_disabled":false,"rental_uris":{"android":"levelo://app?vid=4e79a59f-d06f-45d0-af7e-3c1165b6879e","ios":"levelo://app?vid=4e79a59f-d06f-45d0-af7e-3c1165b6879e"},"vehicle_type_id":"4","last_reported":1753377089,"current_range_meters":12800,"station_id":"ce4bhq12rcd13ifvqhig","pricing_plan_id":"cebpf4jnsgd1na2vs0mg"},{"bike_id":"1ad257b5-7f83-42c1-867f-92635ff1abbf","system_id":"levelo_inurba_marseille","lat":43.22939,"lon":5.35368,"is_reserved":false,"is_disabled":false,"rental_uris":{"android":"levelo://app?vid=1ad257b5-7f83-42c1-867f-92635ff1abbf","ios":"levelo://app?vid=1ad257b5-7f83-42c1-867f-92635ff1abbf"},"vehicle_type_id":"4","last_reported":1753377089,"current_range_meters":12800,"station_id":"cpo3532slgdg3j2ikp40","pricing_plan_id":"cebpf4jnsgd1na2vs0mg"},{"bike_id":"30c4d06e-f6cc-4421-9c13-bfd52ea67cfa","system_id":"levelo_inurba_marseille","lat":43.27954,"lon":5.38744,"is_reserved":false,"is_disabled":false,"rental_uris":{"android":"levelo://app?vid=30c4d06e-f6cc-4421-9c13-bfd52ea67cfa","ios":"levelo://app?vid=30c4d06e-f6cc-4421-9c13-bfd52ea67cfa"},"vehicle_type_id":"4","last_reported":1753377089,"current_range_meters":12800,"station_id":"ce4bhg12rcd13ifvqf80","pricing_plan_id":"cebpf4jnsgd1na2vs0mg"},{"bike_id":"14659ad6-9025-42ee-9adb-99a227eca79f","system_id":"levelo_inurba_marseille","lat":43.30252,"lon":5.4006,"is_reserved":false,"is_disabled":false,"rental_uris":{"android":"levelo://app?vid=14659ad6-9025-42ee-9adb-99a227eca79f","ios":"levelo://app?vid=14659ad6-9025-42ee-9adb-99a227eca79f"},"vehicle_type_id":"4","last_reported":1753377089,"current_range_meters":13600,"station_id":"ce4bgvh2rcd13ifvqcs0","pricing_plan_id":"cebpf4jnsgd1na2vs0mg"},{"bike_id":"e5afb302-ed4d-4dc9-b09f-6c932e0e01e4","system_id":"levelo_inurba_marseille","lat":43.29547,"lon":5.38523,"is_reserved":false,"is_disabled":false,"rental_uris":{"android":"levelo://app?vid=e5afb302-ed4d-4dc9-b09f-6c932e0e01e4","ios":"levelo://app?vid=e5afb302-ed4d-4dc9-b09f-6c932e0e01e4"},"vehicle_type_id":"4","last_reported":1753377089,"current_range_meters":13600,"station_id":"ce4bgih2rcd13ifvqba0","pricing_plan_id":"cebpf4jnsgd1na2vs0mg"},{"bike_id":"73cbe561-df4b-415d-8a79-3dd1ff7666dc","system_id":"levelo_inurba_marseille","lat":43.30208,"lon":5.39461,"is_reserved":false,"is_disabled":false,"rental_uris":{"android":"levelo://app?vid=73cbe561-df4b-415d-8a79-3dd1ff7666dc","ios":"levelo://app?vid=73cbe561-df4b-415d-8a79-3dd1ff7666dc"},"vehicle_type_id":"4","last_reported":1753377089,"current_range_meters":12800,"station_id":"ce4bh0p2rcd13ifvqd70","pricing_plan_id":"cebpf4jnsgd1na2vs0mg"},{"bike_id":"25a1a88b-3ff6-40eb-bd4c-bae1b0398d6c","system_id":"levelo_inurba_marseille","lat":43.28936,"lon":5.36638,"is_reserved":false,"is_disabled":false,"rental_uris":{"android":"levelo://app?vid=25a1a88b-3ff6-40eb-bd4c-bae1b0398d6c","ios":"levelo://app?vid=25a1a88b-3ff6-40eb-bd4c-bae1b0398d6c"},"vehicle_type_id":"4","last_reported":1753377089,"current_range_meters":13600,"station_id":"ce4bhap2rcd13ifvqek0","pricing_plan_id":"cebpf4jnsgd1na2vs0mg"},{"bike_id":"76c65f84-3b49-4269-890c-8259fe6ade74","system_id":"levelo_inurba_marseille","lat":43.32355,"lon":5.36727,"is_reserved":false,"is_disabled":false,"rental_uris":{"android":"levelo://app?vid=76c65f84-3b49-4269-890c-8259fe6ade74","ios":"levelo://app?vid=76c65f84-3b49-4269-890c-8259fe6ade74"},"vehicle_type_id":"4","last_reported":1753377089,"current_range_meters":13600,"station_id":"ce4bhsh2rcd13ifvqi2g","pricing_plan_id":"cebpf4jnsgd1na2vs0mg"},{"bike_id":"9437277c-d886-4a0b-9535-11724bd91051","system_id":"levelo_inurba_marseille","lat":43.270865,"lon":5.422743,"is_reserved":false,"is_disabled":false,"rental_uris":{"android":"levelo://app?vid=9437277c-d886-4a0b-9535-11724bd91051","ios":"levelo://app?vid=9437277c-d886-4a0b-9535-11724bd91051"},"vehicle_type_id":"4","last_reported":1753377089,"current_range_meters":13600,"station_id":"ce4bhk92rcd13ifvqgb0","pricing_plan_id":"cebpf4jnsgd1na2vs0mg"},{"bike_id":"55c3def5-a3e5-4c7c-82e4-4c326b9e1ebb","system_id":"levelo_inurba_marseille","lat":43.28404,"lon":5.37509,"is_reserved":false,"is_disabled":false,"rental_uris":{"android":"levelo://app?vid=55c3def5-a3e5-4c7c-82e4-4c326b9e1ebb","ios":"levelo://app?vid=55c3def5-a3e5-4c7c-82e4-4c326b9e1ebb"},"vehicle_type_id":"4","last_reported":1753377089,"current_range_meters":14000,"station_id":"ce4bh412rcd13ifvqds0","pricing_plan_id":"cebpf4jnsgd1na2vs0mg"},{"bike_id":"656cace5-86b9-4eb3-9706-5896b5f713fe","system_id":"levelo_inurba_marseille","lat":43.265623,"lon":5.390043,"is_reserved":false,"is_disabled":false,"rental_uris":{"android":"levelo://app?vid=656cace5-86b9-4eb3-9706-5896b5f713fe","ios":"levelo://app?vid=656cace5-86b9-4eb3-9706-5896b5f713fe"},"vehicle_type_id":"4","last_reported":1753377089,"current_range_meters":14000,"station_id":"ce4bhe12rcd13ifvqf30","pricing_plan_id":"cebpf4jnsgd1na2vs0mg"},{"bike_id":"2928bcbb-bb0d-4068-a000-dfd89b68902f","system_id":"levelo_inurba_marseille","lat":43.29524,"lon":5.3904,"is_reserved":false,"is_disabled":false,"rental_uris":{"android":"levelo://app?vid=2928bcbb-bb0d-4068-a000-dfd89b68902f","ios":"levelo://app?vid=2928bcbb-bb0d-4068-a000-dfd89b68902f"},"vehicle_type_id":"4","last_reported":1753377089,"current_range_meters":14000,"station_id":"ce4bh3p2rcd13ifvqdp0","pricing_plan_id":"cebpf4jnsgd1na2vs0mg"},{"bike_id":"5f824980-27aa-4ef2-856d-b766bebead8a","system_id":"levelo_inurba_marseille","lat":43.225153,"lon":5.347621,"is_reserved":false,"is_disabled":false,"rental_uris":{"android":"levelo://app?vid=5f824980-27aa-4ef2-856d-b766bebead8a","ios":"levelo://app?vid=5f824980-27aa-4ef2-856d-b766bebead8a"},"vehicle_type_id":"4","last_reported":1753377089,"current_range_meters":14000,"station_id":"","pricing_plan_id":"cebpf4jnsgd1na2vs0mg"},{"bike_id":"e93a4d32-fa2d-4210-a745-abf68734e5cb","system_id":"levelo_inurba_marseille","lat":43.29874,"lon":5.39724,"is_reserved":false,"is_disabled":false,"rental_uris":{"android":"levelo://app?vid=e93a4d32-fa2d-4210-a745-abf68734e5cb","ios":"levelo://app?vid=e93a4d32-fa2d-4210-a745-abf68734e5cb"},"vehicle_type_id":"4","last_reported":1753377089,"current_range_meters":14000,"station_id":"ce4bh0h2rcd13ifvqd50","pricing_plan_id":"cebpf4jnsgd1na2vs0mg"},{"bike_id":"f640c3f3-c77f-44da-86f2-0ad487426311","system_id":"levelo_inurba_marseille","lat":43.21192,"lon":5.35066,"is_reserved":false,"is_disabled":false,"rental_uris":{"android":"levelo://app?vid=f640c3f3-c77f-44da-86f2-0ad487426311","ios":"levelo://app?vid=f640c3f3-c77f-44da-86f2-0ad487426311"},"vehicle_type_id":"4","last_reported":1753377089,"current_range_meters":14000,"station_id":"st_cvj6sg6p6f1abm77japg","pricing_plan_id":"cebpf4jnsgd1na2vs0mg"},{"bike_id":"b5b07bd8-be7f-498b-a96e-2eb49ef7c637","system_id":"levelo_inurba_marseille","lat":43.30136,"lon":5.39859,"is_reserved":false,"is_disabled":false,"rental_uris":{"android":"levelo://app?vid=b5b07bd8-be7f-498b-a96e-2eb49ef7c637","ios":"levelo://app?vid=b5b07bd8-be7f-498b-a96e-2eb49ef7c637"},"vehicle_type_id":"4","last_reported":1753377089,"current_range_meters":14000,"station_id":"ce4bh0h2rcd13ifvqd40","pricing_plan_id":"cebpf4jnsgd1na2vs0mg"},{"bike_id":"81bed664-28f2-4c8f-9d1d-871242372bd4","system_id":"levelo_inurba_marseille","lat":43.30888,"lon":5.39646,"is_reserved":false,"is_disabled":false,"rental_uris":{"android":"levelo://app?vid=81bed664-28f2-4c8f-9d1d-871242372bd4","ios":"levelo://app?vid=81bed664-28f2-4c8f-9d1d-871242372bd4"},"vehicle_type_id":"4","last_reported":1753377089,"current_range_meters":13600,"station_id":"ce4bh012rcd13ifvqcv0","pricing_plan_id":"cebpf4jnsgd1na2vs0mg"},{"bike_id":"020d49f0-1da2-49aa-b6f7-a595d914ec75","system_id":"levelo_inurba_marseille","lat":43.28038,"lon":5.36946,"is_reserved":false,"is_disabled":false,"rental_uris":{"android":"levelo://app?vid=020d49f0-1da2-49aa-b6f7-a595d914ec75","ios":"levelo://app?vid=020d49f0-1da2-49aa-b6f7-a595d914ec75"},"vehicle_type_id":"4","last_reported":1753377089,"current_range_meters":14000,"station_id":"ce4bha12rcd13ifvqef0","pricing_plan_id":"cebpf4jnsgd1na2vs0mg"},{"bike_id":"4de9a30f-2408-4636-a906-9f9a9345ca1b","system_id":"levelo_inurba_marseille","lat":43.27365,"lon":5.36229,"is_reserved":false,"is_disabled":false,"rental_uris":{"android":"levelo://app?vid=4de9a30f-2408-4636-a906-9f9a9345ca1b","ios":"levelo://app?vid=4de9a30f-2408-4636-a906-9f9a9345ca1b"},"vehicle_type_id":"4","last_reported":1753377089,"current_range_meters":14400,"station_id":"ce4bhbh2rcd13ifvqeo0","pricing_plan_id":"cebpf4jnsgd1na2vs0mg"},{"bike_id":"a61c3ffa-f010-453d-a8ff-d64e52ad67dc","system_id":"levelo_inurba_marseille","lat":43.29999,"lon":5.37584,"is_reserved":false,"is_disabled":false,"rental_uris":{"android":"levelo://app?vid=a61c3ffa-f010-453d-a8ff-d64e52ad67dc","ios":"levelo://app?vid=a61c3ffa-f010-453d-a8ff-d64e52ad67dc"},"vehicle_type_id":"4","last_reported":1753377089,"current_range_meters":14400,"station_id":"","pricing_plan_id":"cebpf4jnsgd1na2vs0mg"},{"bike_id":"4961c3b3-ecb0-414e-a43d-2d5986b5450e","system_id":"levelo_inurba_marseille","lat":43.29268,"lon":5.38442,"is_reserved":false,"is_disabled":false,"rental_uris":{"android":"levelo://app?vid=4961c3b3-ecb0-414e-a43d-2d5986b5450e","ios":"levelo://app?vid=4961c3b3-ecb0-414e-a43d-2d5986b5450e"},"vehicle_type_id":"4","last_reported":1753377089,"current_range_meters":14400,"station_id":"ce4bh692rcd13ifvqea0","pricing_plan_id":"cebpf4jnsgd1na2vs0mg"},{"bike_id":"f7f2157f-effd-43ab-80cb-e8fe0ec86a59","system_id":"levelo_inurba_marseille","lat":43.29537,"lon":5.38539,"is_reserved":false,"is_disabled":false,"rental_uris":{"android":"levelo://app?vid=f7f2157f-effd-43ab-80cb-e8fe0ec86a59","ios":"levelo://app?vid=f7f2157f-effd-43ab-80cb-e8fe0ec86a59"},"vehicle_type_id":"4","last_reported":1753377089,"current_range_meters":14400,"station_id":"ce4bgih2rcd13ifvqba0","pricing_plan_id":"cebpf4jnsgd1na2vs0mg"},{"bike_id":"de993af1-8c6e-4fcd-aa11-3cbf2991a890","system_id":"levelo_inurba_marseille","lat":43.23176,"lon":5.35526,"is_reserved":false,"is_disabled":false,"rental_uris":{"android":"levelo://app?vid=de993af1-8c6e-4fcd-aa11-3cbf2991a890","ios":"levelo://app?vid=de993af1-8c6e-4fcd-aa11-3cbf2991a890"},"vehicle_type_id":"4","last_reported":1753377089,"current_range_meters":14400,"station_id":"ce4bhu92rcd13ifvqi70","pricing_plan_id":"cebpf4jnsgd1na2vs0mg"},{"bike_id":"47823f90-5e7b-4ac7-81e4-74bbccc8c6af","system_id":"levelo_inurba_marseille","lat":43.2509,"lon":5.39515,"is_reserved":false,"is_disabled":false,"rental_uris":{"android":"levelo://app?vid=47823f90-5e7b-4ac7-81e4-74bbccc8c6af","ios":"levelo://app?vid=47823f90-5e7b-4ac7-81e4-74bbccc8c6af"},"vehicle_type_id":"4","last_reported":1753377089,"current_range_meters":14800,"station_id":"ce4bhm12rcd13ifvqgkg","pricing_plan_id":"cebpf4jnsgd1na2vs0mg"},{"bike_id":"6da3a5dd-3c38-40f6-84be-05bdf7072d9e","system_id":"levelo_inurba_marseille","lat":43.29522,"lon":5.38562,"is_reserved":false,"is_disabled":false,"rental_uris":{"android":"levelo://app?vid=6da3a5dd-3c38-40f6-84be-05bdf7072d9e","ios":"levelo://app?vid=6da3a5dd-3c38-40f6-84be-05bdf7072d9e"},"vehicle_type_id":"4","last_reported":1753377089,"current_range_meters":14800,"station_id":"ce4bgih2rcd13ifvqba0","pricing_plan_id":"cebpf4jnsgd1na2vs0mg"},{"bike_id":"436482e9-9cba-4aa0-bddf-1f102b76c016","system_id":"levelo_inurba_marseille","lat":43.26782,"lon":5.39416,"is_reserved":false,"is_disabled":false,"rental_uris":{"android":"levelo://app?vid=436482e9-9cba-4aa0-bddf-1f102b76c016","ios":"levelo://app?vid=436482e9-9cba-4aa0-bddf-1f102b76c016"},"vehicle_type_id":"4","last_reported":1753377089,"current_range_meters":14400,"station_id":"ce4bhh12rcd13ifvqfg0","pricing_plan_id":"cebpf4jnsgd1na2vs0mg"},{"bike_id":"eaea15aa-98ae-4f78-b37a-80e2e4524837","system_id":"levelo_inurba_marseille","lat":43.297916,"lon":5.381026,"is_reserved":false,"is_disabled":false,"rental_uris":{"android":"levelo://app?vid=eaea15aa-98ae-4f78-b37a-80e2e4524837","ios":"levelo://app?vid=eaea15aa-98ae-4f78-b37a-80e2e4524837"},"vehicle_type_id":"4","last_reported":1753377089,"current_range_meters":14800,"station_id":"","pricing_plan_id":"cebpf4jnsgd1na2vs0mg"},{"bike_id":"35a86048-76dd-4de0-afb2-7da8772fad44","system_id":"levelo_inurba_marseille","lat":43.21564,"lon":5.34714,"is_reserved":false,"is_disabled":false,"rental_uris":{"android":"levelo://app?vid=35a86048-76dd-4de0-afb2-7da8772fad44","ios":"levelo://app?vid=35a86048-76dd-4de0-afb2-7da8772fad44"},"vehicle_type_id":"4","last_reported":1753377089,"current_range_meters":14800,"station_id":"","pricing_plan_id":"cebpf4jnsgd1na2vs0mg"},{"bike_id":"fb2acbb8-fb7a-484c-81cf-9766db00a764","system_id":"levelo_inurba_marseille","lat":43.29593,"lon":5.3674,"is_reserved":false,"is_disabled":false,"rental_uris":{"android":"levelo://app?vid=fb2acbb8-fb7a-484c-81cf-9766db00a764","ios":"levelo://app?vid=fb2acbb8-fb7a-484c-81cf-9766db00a764"},"vehicle_type_id":"4","last_reported":1753377089,"current_range_meters":15200,"station_id":"ce4bgph2rcd13ifvqc2g","pricing_plan_id":"cebpf4jnsgd1na2vs0mg"},{"bike_id":"f7f07796-c7c9-4a74-80e9-fb85744448b8","system_id":"levelo_inurba_marseille","lat":43.22935,"lon":5.35377,"is_reserved":false,"is_disabled":false,"rental_uris":{"android":"levelo://app?vid=f7f07796-c7c9-4a74-80e9-fb85744448b8","ios":"levelo://app?vid=f7f07796-c7c9-4a74-80e9-fb85744448b8"},"vehicle_type_id":"4","last_reported":1753377089,"current_range_meters":15200,"station_id":"cpo3532slgdg3j2ikp40","pricing_plan_id":"cebpf4jnsgd1na2vs0mg"},{"bike_id":"27b5acbc-b1fd-4385-9be5-bae49e9e4f6a","system_id":"levelo_inurba_marseille","lat":43.2482,"lon":5.3745,"is_reserved":false,"is_disabled":false,"rental_uris":{"android":"levelo://app?vid=27b5acbc-b1fd-4385-9be5-bae49e9e4f6a","ios":"levelo://app?vid=27b5acbc-b1fd-4385-9be5-bae49e9e4f6a"},"vehicle_type_id":"4","last_reported":1753377089,"current_range_meters":15200,"station_id":"ce4bhgh2rcd13ifvqfb0","pricing_plan_id":"cebpf4jnsgd1na2vs0mg"},{"bike_id":"fbda76a5-068e-4d90-b9ba-25721acd9298","system_id":"levelo_inurba_marseille","lat":43.290353,"lon":5.439557,"is_reserved":false,"is_disabled":false,"rental_uris":{"android":"levelo://app?vid=fbda76a5-068e-4d90-b9ba-25721acd9298","ios":"levelo://app?vid=fbda76a5-068e-4d90-b9ba-25721acd9298"},"vehicle_type_id":"4","last_reported":1753377089,"current_range_meters":16000,"station_id":"","pricing_plan_id":"cebpf4jnsgd1na2vs0mg"},{"bike_id":"17a985d5-d275-4396-995d-fa7cf5985a85","system_id":"levelo_inurba_marseille","lat":43.25597,"lon":5.38213,"is_reserved":false,"is_disabled":false,"rental_uris":{"android":"levelo://app?vid=17a985d5-d275-4396-995d-fa7cf5985a85","ios":"levelo://app?vid=17a985d5-d275-4396-995d-fa7cf5985a85"},"vehicle_type_id":"4","last_reported":1753377089,"current_range_meters":16000,"station_id":"ce4bhih2rcd13ifvqfs0","pricing_plan_id":"cebpf4jnsgd1na2vs0mg"},{"bike_id":"1f39eb17-34c7-4235-9069-0f68f613789c","system_id":"levelo_inurba_marseille","lat":43.26886,"lon":5.36871,"is_reserved":false,"is_disabled":false,"rental_uris":{"android":"levelo://app?vid=1f39eb17-34c7-4235-9069-0f68f613789c","ios":"levelo://app?vid=1f39eb17-34c7-4235-9069-0f68f613789c"},"vehicle_type_id":"4","last_reported":1753377089,"current_range_meters":16000,"station_id":"","pricing_plan_id":"cebpf4jnsgd1na2vs0mg"},{"bike_id":"abd4e941-78d4-495e-a2c0-8e6e663c4703","system_id":"levelo_inurba_marseille","lat":43.28957,"lon":5.36392,"is_reserved":false,"is_disabled":false,"rental_uris":{"android":"levelo://app?vid=abd4e941-78d4-495e-a2c0-8e6e663c4703","ios":"levelo://app?vid=abd4e941-78d4-495e-a2c0-8e6e663c4703"},"vehicle_type_id":"4","last_reported":1753377089,"current_range_meters":16000,"station_id":"ce4bhc92rcd13ifvqetg","pricing_plan_id":"cebpf4jnsgd1na2vs0mg"},{"bike_id":"cd46d7a3-2aff-40e0-9e50-73919cfa0e11","system_id":"levelo_inurba_marseille","lat":43.27363,"lon":5.36241,"is_reserved":false,"is_disabled":false,"rental_uris":{"android":"levelo://app?vid=cd46d7a3-2aff-40e0-9e50-73919cfa0e11","ios":"levelo://app?vid=cd46d7a3-2aff-40e0-9e50-73919cfa0e11"},"vehicle_type_id":"4","last_reported":1753377089,"current_range_meters":16000,"station_id":"ce4bhbh2rcd13ifvqeo0","pricing_plan_id":"cebpf4jnsgd1na2vs0mg"},{"bike_id":"33ce2ff8-7e21-4229-9288-7ac129269db8","system_id":"levelo_inurba_marseille","lat":43.32109,"lon":5.36751,"is_reserved":false,"is_disabled":false,"rental_uris":{"android":"levelo://app?vid=33ce2ff8-7e21-4229-9288-7ac129269db8","ios":"levelo://app?vid=33ce2ff8-7e21-4229-9288-7ac129269db8"},"vehicle_type_id":"4","last_reported":1753377089,"current_range_meters":16000,"station_id":"ce4bhrh2rcd13ifvqhug","pricing_plan_id":"cebpf4jnsgd1na2vs0mg"},{"bike_id":"adf04dd0-b050-4ac6-9f1d-0e169c595bf8","system_id":"levelo_inurba_marseille","lat":43.32369,"lon":5.38872,"is_reserved":false,"is_disabled":false,"rental_uris":{"android":"levelo://app?vid=adf04dd0-b050-4ac6-9f1d-0e169c595bf8","ios":"levelo://app?vid=adf04dd0-b050-4ac6-9f1d-0e169c595bf8"},"vehicle_type_id":"4","last_reported":1753377089,"current_range_meters":16000,"station_id":"ce4bhqp2rcd13ifvqhog","pricing_plan_id":"cebpf4jnsgd1na2vs0mg"},{"bike_id":"0aa2d153-96d1-4d69-83b8-d39119aa9dd5","system_id":"levelo_inurba_marseille","lat":43.33523,"lon":5.36229,"is_reserved":false,"is_disabled":false,"rental_uris":{"android":"levelo://app?vid=0aa2d153-96d1-4d69-83b8-d39119aa9dd5","ios":"levelo://app?vid=0aa2d153-96d1-4d69-83b8-d39119aa9dd5"},"vehicle_type_id":"4","last_reported":1753377089,"current_range_meters":16000,"station_id":"","pricing_plan_id":"cebpf4jnsgd1na2vs0mg"},{"bike_id":"3bbe661b-090d-492c-a06c-4150d5afc5d0","system_id":"levelo_inurba_marseille","lat":43.33013,"lon":5.39054,"is_reserved":false,"is_disabled":false,"rental_uris":{"android":"levelo://app?vid=3bbe661b-090d-492c-a06c-4150d5afc5d0","ios":"levelo://app?vid=3bbe661b-090d-492c-a06c-4150d5afc5d0"},"vehicle_type_id":"4","last_reported":1753377089,"current_range_meters":16000,"station_id":"ce4bhr92rcd13ifvqhrg","pricing_plan_id":"cebpf4jnsgd1na2vs0mg"},{"bike_id":"8bf2041f-a165-47bf-84f1-41526695fbf0","system_id":"levelo_inurba_marseille","lat":43.24163,"lon":5.36393,"is_reserved":false,"is_disabled":false,"rental_uris":{"android":"levelo://app?vid=8bf2041f-a165-47bf-84f1-41526695fbf0","ios":"levelo://app?vid=8bf2041f-a165-47bf-84f1-41526695fbf0"},"vehicle_type_id":"4","last_reported":1753377089,"current_range_meters":16000,"station_id":"cpo36qri1sfpv3e86is0","pricing_plan_id":"cebpf4jnsgd1na2vs0mg"},{"bike_id":"d396ea0d-eba6-458f-8bf7-9ea188544321","system_id":"levelo_inurba_marseille","lat":43.286881,"lon":5.373806,"is_reserved":false,"is_disabled":false,"rental_uris":{"android":"levelo://app?vid=d396ea0d-eba6-458f-8bf7-9ea188544321","ios":"levelo://app?vid=d396ea0d-eba6-458f-8bf7-9ea188544321"},"vehicle_type_id":"4","last_reported":1753377089,"current_range_meters":12000,"station_id":"ce4bh3p2rcd13ifvqdq0","pricing_plan_id":"cebpf4jnsgd1na2vs0mg"},{"bike_id":"122db401-befd-4e57-8c3a-263cad1ffc3b","system_id":"levelo_inurba_marseille","lat":43.28697,"lon":5.37409,"is_reserved":false,"is_disabled":false,"rental_uris":{"android":"levelo://app?vid=122db401-befd-4e57-8c3a-263cad1ffc3b","ios":"levelo://app?vid=122db401-befd-4e57-8c3a-263cad1ffc3b"},"vehicle_type_id":"4","last_reported":1753377089,"current_range_meters":16000,"station_id":"ce4bh3p2rcd13ifvqdq0","pricing_plan_id":"cebpf4jnsgd1na2vs0mg"},{"bike_id":"df52031d-f6ba-4af3-a318-cddaa787b97a","system_id":"levelo_inurba_marseille","lat":43.2708,"lon":5.40243,"is_reserved":false,"is_disabled":false,"rental_uris":{"android":"levelo://app?vid=df52031d-f6ba-4af3-a318-cddaa787b97a","ios":"levelo://app?vid=df52031d-f6ba-4af3-a318-cddaa787b97a"},"vehicle_type_id":"4","last_reported":1753377089,"current_range_meters":16000,"station_id":"ce4bhk92rcd13ifvqgc0","pricing_plan_id":"cebpf4jnsgd1na2vs0mg"},{"bike_id":"4bb0e3c1-35c9-4877-9bd3-82151473e2bd","system_id":"levelo_inurba_marseille","lat":43.27424,"lon":5.39418,"is_reserved":false,"is_disabled":false,"rental_uris":{"android":"levelo://app?vid=4bb0e3c1-35c9-4877-9bd3-82151473e2bd","ios":"levelo://app?vid=4bb0e3c1-35c9-4877-9bd3-82151473e2bd"},"vehicle_type_id":"4","last_reported":1753377089,"current_range_meters":16000,"station_id":"ce4bhdp2rcd13ifvqf20","pricing_plan_id":"cebpf4jnsgd1na2vs0mg"},{"bike_id":"cf776233-7766-4109-aadc-a0d3c334d400","system_id":"levelo_inurba_marseille","lat":43.24076,"lon":5.37741,"is_reserved":false,"is_disabled":false,"rental_uris":{"android":"levelo://app?vid=cf776233-7766-4109-aadc-a0d3c334d400","ios":"levelo://app?vid=cf776233-7766-4109-aadc-a0d3c334d400"},"vehicle_type_id":"4","last_reported":1753377089,"current_range_meters":16400,"station_id":"ce4bhnp2rcd13ifvqgvg","pricing_plan_id":"cebpf4jnsgd1na2vs0mg"},{"bike_id":"d40c33a9-f40e-45aa-b3fa-af49177afd3d","system_id":"levelo_inurba_marseille","lat":43.26211,"lon":5.37441,"is_reserved":false,"is_disabled":false,"rental_uris":{"android":"levelo://app?vid=d40c33a9-f40e-45aa-b3fa-af49177afd3d","ios":"levelo://app?vid=d40c33a9-f40e-45aa-b3fa-af49177afd3d"},"vehicle_type_id":"4","last_reported":1753377089,"current_range_meters":16400,"station_id":"ce4bhgp2rcd13ifvqfc0","pricing_plan_id":"cebpf4jnsgd1na2vs0mg"},{"bike_id":"bc03fcf8-1780-413a-8960-a429e48f97d6","system_id":"levelo_inurba_marseille","lat":43.29988,"lon":5.38489,"is_reserved":false,"is_disabled":false,"rental_uris":{"android":"levelo://app?vid=bc03fcf8-1780-413a-8960-a429e48f97d6","ios":"levelo://app?vid=bc03fcf8-1780-413a-8960-a429e48f97d6"},"vehicle_type_id":"4","last_reported":1753377089,"current_range_meters":16400,"station_id":"ce4bgj92rcd13ifvqbd0","pricing_plan_id":"cebpf4jnsgd1na2vs0mg"},{"bike_id":"be91dc7a-12be-4163-ae97-8fba70f88391","system_id":"levelo_inurba_marseille","lat":43.30449,"lon":5.379173,"is_reserved":false,"is_disabled":false,"rental_uris":{"android":"levelo://app?vid=be91dc7a-12be-4163-ae97-8fba70f88391","ios":"levelo://app?vid=be91dc7a-12be-4163-ae97-8fba70f88391"},"vehicle_type_id":"4","last_reported":1753377089,"current_range_meters":16400,"station_id":"ce4bgup2rcd13ifvqcn0","pricing_plan_id":"cebpf4jnsgd1na2vs0mg"},{"bike_id":"a071c055-747e-4099-a18d-0851162f2e43","system_id":"levelo_inurba_marseille","lat":43.3094,"lon":5.39061,"is_reserved":false,"is_disabled":false,"rental_uris":{"android":"levelo://app?vid=a071c055-747e-4099-a18d-0851162f2e43","ios":"levelo://app?vid=a071c055-747e-4099-a18d-0851162f2e43"},"vehicle_type_id":"4","last_reported":1753377089,"current_range_meters":16400,"station_id":"ce4bgup2rcd13ifvqco0","pricing_plan_id":"cebpf4jnsgd1na2vs0mg"},{"bike_id":"a2e9f613-09ac-400c-a305-e865a881746c","system_id":"levelo_inurba_marseille","lat":43.21197,"lon":5.35062,"is_reserved":false,"is_disabled":false,"rental_uris":{"android":"levelo://app?vid=a2e9f613-09ac-400c-a305-e865a881746c","ios":"levelo://app?vid=a2e9f613-09ac-400c-a305-e865a881746c"},"vehicle_type_id":"4","last_reported":1753377089,"current_range_meters":16400,"station_id":"st_cvj6sg6p6f1abm77japg","pricing_plan_id":"cebpf4jnsgd1na2vs0mg"},{"bike_id":"01f5bd0a-b070-4513-84bd-e7c68df739e2","system_id":"levelo_inurba_marseille","lat":43.29931,"lon":5.36546,"is_reserved":false,"is_disabled":false,"rental_uris":{"android":"levelo://app?vid=01f5bd0a-b070-4513-84bd-e7c68df739e2","ios":"levelo://app?vid=01f5bd0a-b070-4513-84bd-e7c68df739e2"},"vehicle_type_id":"4","last_reported":1753377089,"current_range_meters":16400,"station_id":"ce4bgm92rcd13ifvqbr0","pricing_plan_id":"cebpf4jnsgd1na2vs0mg"},{"bike_id":"784eeebd-2893-4f27-84ae-c797089b4166","system_id":"levelo_inurba_marseille","lat":43.225027,"lon":5.347804,"is_reserved":false,"is_disabled":false,"rental_uris":{"android":"levelo://app?vid=784eeebd-2893-4f27-84ae-c797089b4166","ios":"levelo://app?vid=784eeebd-2893-4f27-84ae-c797089b4166"},"vehicle_type_id":"4","last_reported":1753377089,"current_range_meters":16400,"station_id":"st_cvj5dfep6f1abm77gieg","pricing_plan_id":"cebpf4jnsgd1na2vs0mg"},{"bike_id":"ad25e224-b15c-4949-92a3-53289b1bd1fb","system_id":"levelo_inurba_marseille","lat":43.28755,"lon":5.38498,"is_reserved":false,"is_disabled":false,"rental_uris":{"android":"levelo://app?vid=ad25e224-b15c-4949-92a3-53289b1bd1fb","ios":"levelo://app?vid=ad25e224-b15c-4949-92a3-53289b1bd1fb"},"vehicle_type_id":"4","last_reported":1753377089,"current_range_meters":16400,"station_id":"","pricing_plan_id":"cebpf4jnsgd1na2vs0mg"},{"bike_id":"d2c1d56d-6a3a-4ae3-b7ab-84022ad7ad84","system_id":"levelo_inurba_marseille","lat":43.29827,"lon":5.37614,"is_reserved":false,"is_disabled":false,"rental_uris":{"android":"levelo://app?vid=d2c1d56d-6a3a-4ae3-b7ab-84022ad7ad84","ios":"levelo://app?vid=d2c1d56d-6a3a-4ae3-b7ab-84022ad7ad84"},"vehicle_type_id":"4","last_reported":1753377089,"current_range_meters":16400,"station_id":"","pricing_plan_id":"cebpf4jnsgd1na2vs0mg"},{"bike_id":"0a7e2862-d8ec-4c77-89d9-cfcdd51f8d75","system_id":"levelo_inurba_marseille","lat":43.31806,"lon":5.37277,"is_reserved":false,"is_disabled":false,"rental_uris":{"android":"levelo://app?vid=0a7e2862-d8ec-4c77-89d9-cfcdd51f8d75","ios":"levelo://app?vid=0a7e2862-d8ec-4c77-89d9-cfcdd51f8d75"},"vehicle_type_id":"4","last_reported":1753377089,"current_range_meters":16400,"station_id":"","pricing_plan_id":"cebpf4jnsgd1na2vs0mg"},{"bike_id":"9e71a50e-df43-4a48-bc37-13460235be7b","system_id":"levelo_inurba_marseille","lat":43.241685,"lon":5.364021,"is_reserved":false,"is_disabled":false,"rental_uris":{"android":"levelo://app?vid=9e71a50e-df43-4a48-bc37-13460235be7b","ios":"levelo://app?vid=9e71a50e-df43-4a48-bc37-13460235be7b"},"vehicle_type_id":"4","last_reported":1753377089,"current_range_meters":16400,"station_id":"cpo36qri1sfpv3e86is0","pricing_plan_id":"cebpf4jnsgd1na2vs0mg"},{"bike_id":"2011b847-e6f8-45c8-b190-2a9c0a9c3887","system_id":"levelo_inurba_marseille","lat":43.26576,"lon":5.39024,"is_reserved":false,"is_disabled":false,"rental_uris":{"android":"levelo://app?vid=2011b847-e6f8-45c8-b190-2a9c0a9c3887","ios":"levelo://app?vid=2011b847-e6f8-45c8-b190-2a9c0a9c3887"},"vehicle_type_id":"4","last_reported":1753377089,"current_range_meters":16800,"station_id":"ce4bhe12rcd13ifvqf30","pricing_plan_id":"cebpf4jnsgd1na2vs0mg"},{"bike_id":"0328ec12-5a05-4c30-bd25-27f5ce8bb3b4","system_id":"levelo_inurba_marseille","lat":43.30416,"lon":5.41118,"is_reserved":false,"is_disabled":false,"rental_uris":{"android":"levelo://app?vid=0328ec12-5a05-4c30-bd25-27f5ce8bb3b4","ios":"levelo://app?vid=0328ec12-5a05-4c30-bd25-27f5ce8bb3b4"},"vehicle_type_id":"4","last_reported":1753377089,"current_range_meters":17600,"station_id":"","pricing_plan_id":"cebpf4jnsgd1na2vs0mg"},{"bike_id":"864c1951-7661-46c5-8cba-93750e1d5ec2","system_id":"levelo_inurba_marseille","lat":43.306,"lon":5.39342,"is_reserved":false,"is_disabled":false,"rental_uris":{"android":"levelo://app?vid=864c1951-7661-46c5-8cba-93750e1d5ec2","ios":"levelo://app?vid=864c1951-7661-46c5-8cba-93750e1d5ec2"},"vehicle_type_id":"4","last_reported":1753377089,"current_range_meters":16400,"station_id":"ce4bh0p2rcd13ifvqd80","pricing_plan_id":"cebpf4jnsgd1na2vs0mg"},{"bike_id":"3b1f94f1-9936-4306-b48a-4378e63a03be","system_id":"levelo_inurba_marseille","lat":43.28619,"lon":5.35106,"is_reserved":false,"is_disabled":false,"rental_uris":{"android":"levelo://app?vid=3b1f94f1-9936-4306-b48a-4378e63a03be","ios":"levelo://app?vid=3b1f94f1-9936-4306-b48a-4378e63a03be"},"vehicle_type_id":"4","last_reported":1753377089,"current_range_meters":16800,"station_id":"ce4bhch2rcd13ifvqeug","pricing_plan_id":"cebpf4jnsgd1na2vs0mg"},{"bike_id":"d8ab8225-ebfc-48f1-9981-f15e3b9960ea","system_id":"levelo_inurba_marseille","lat":43.2292,"lon":5.3538,"is_reserved":false,"is_disabled":false,"rental_uris":{"android":"levelo://app?vid=d8ab8225-ebfc-48f1-9981-f15e3b9960ea","ios":"levelo://app?vid=d8ab8225-ebfc-48f1-9981-f15e3b9960ea"},"vehicle_type_id":"4","last_reported":1753377089,"current_range_meters":16800,"station_id":"cpo3532slgdg3j2ikp40","pricing_plan_id":"cebpf4jnsgd1na2vs0mg"},{"bike_id":"9d69d288-75b5-4287-9e84-fd409f5843bd","system_id":"levelo_inurba_marseille","lat":43.29621,"lon":5.37152,"is_reserved":false,"is_disabled":false,"rental_uris":{"android":"levelo://app?vid=9d69d288-75b5-4287-9e84-fd409f5843bd","ios":"levelo://app?vid=9d69d288-75b5-4287-9e84-fd409f5843bd"},"vehicle_type_id":"4","last_reported":1753377089,"current_range_meters":16800,"station_id":"ce4bgnh2rcd13ifvqc0g","pricing_plan_id":"cebpf4jnsgd1na2vs0mg"},{"bike_id":"b48a2a44-37d9-429a-99fa-dbc9974b36da","system_id":"levelo_inurba_marseille","lat":43.29047,"lon":5.35904,"is_reserved":false,"is_disabled":false,"rental_uris":{"android":"levelo://app?vid=b48a2a44-37d9-429a-99fa-dbc9974b36da","ios":"levelo://app?vid=b48a2a44-37d9-429a-99fa-dbc9974b36da"},"vehicle_type_id":"4","last_reported":1753377089,"current_range_meters":16800,"station_id":"ce4bha92rcd13ifvqeg0","pricing_plan_id":"cebpf4jnsgd1na2vs0mg"},{"bike_id":"481351de-e3d5-4a6f-aa67-c1762e7ed223","system_id":"levelo_inurba_marseille","lat":43.27069,"lon":5.42253,"is_reserved":false,"is_disabled":false,"rental_uris":{"android":"levelo://app?vid=481351de-e3d5-4a6f-aa67-c1762e7ed223","ios":"levelo://app?vid=481351de-e3d5-4a6f-aa67-c1762e7ed223"},"vehicle_type_id":"4","last_reported":1753377089,"current_range_meters":16800,"station_id":"ce4bhk92rcd13ifvqgb0","pricing_plan_id":"cebpf4jnsgd1na2vs0mg"},{"bike_id":"419d2c67-7dc2-4b09-9a99-98fdc6593d3c","system_id":"levelo_inurba_marseille","lat":43.26956,"lon":5.38632,"is_reserved":false,"is_disabled":false,"rental_uris":{"android":"levelo://app?vid=419d2c67-7dc2-4b09-9a99-98fdc6593d3c","ios":"levelo://app?vid=419d2c67-7dc2-4b09-9a99-98fdc6593d3c"},"vehicle_type_id":"4","last_reported":1753377089,"current_range_meters":16400,"station_id":"ce4bhh92rcd13ifvqfh0","pricing_plan_id":"cebpf4jnsgd1na2vs0mg"},{"bike_id":"b63b11be-5ecd-48c8-a48d-2b0558b136c7","system_id":"levelo_inurba_marseille","lat":43.2924,"lon":5.36047,"is_reserved":false,"is_disabled":false,"rental_uris":{"android":"levelo://app?vid=b63b11be-5ecd-48c8-a48d-2b0558b136c7","ios":"levelo://app?vid=b63b11be-5ecd-48c8-a48d-2b0558b136c7"},"vehicle_type_id":"4","last_reported":1753377089,"current_range_meters":16800,"station_id":"ce4bhbh2rcd13ifvqeqg","pricing_plan_id":"cebpf4jnsgd1na2vs0mg"},{"bike_id":"0a2aa375-1039-49db-9de4-cbd9a97ca2a5","system_id":"levelo_inurba_marseille","lat":43.25586,"lon":5.38221,"is_reserved":false,"is_disabled":false,"rental_uris":{"android":"levelo://app?vid=0a2aa375-1039-49db-9de4-cbd9a97ca2a5","ios":"levelo://app?vid=0a2aa375-1039-49db-9de4-cbd9a97ca2a5"},"vehicle_type_id":"4","last_reported":1753377089,"current_range_meters":17200,"station_id":"ce4bhih2rcd13ifvqfs0","pricing_plan_id":"cebpf4jnsgd1na2vs0mg"},{"bike_id":"eee05789-f787-4601-865f-9112c2e8e323","system_id":"levelo_inurba_marseille","lat":43.296463,"lon":5.371835,"is_reserved":false,"is_disabled":false,"rental_uris":{"android":"levelo://app?vid=eee05789-f787-4601-865f-9112c2e8e323","ios":"levelo://app?vid=eee05789-f787-4601-865f-9112c2e8e323"},"vehicle_type_id":"4","last_reported":1753377089,"current_range_meters":17200,"station_id":"ce4bgnh2rcd13ifvqc0g","pricing_plan_id":"cebpf4jnsgd1na2vs0mg"},{"bike_id":"f2ca3887-7e82-498b-8c49-e80cd18a3051","system_id":"levelo_inurba_marseille","lat":43.23972,"lon":5.366,"is_reserved":false,"is_disabled":false,"rental_uris":{"android":"levelo://app?vid=f2ca3887-7e82-498b-8c49-e80cd18a3051","ios":"levelo://app?vid=f2ca3887-7e82-498b-8c49-e80cd18a3051"},"vehicle_type_id":"4","last_reported":1753377089,"current_range_meters":17200,"station_id":"ce4bhi12rcd13ifvqfp0","pricing_plan_id":"cebpf4jnsgd1na2vs0mg"},{"bike_id":"e9eae9d1-6152-42ba-9061-d461383fcacc","system_id":"levelo_inurba_marseille","lat":43.28346,"lon":5.38096,"is_reserved":false,"is_disabled":false,"rental_uris":{"android":"levelo://app?vid=e9eae9d1-6152-42ba-9061-d461383fcacc","ios":"levelo://app?vid=e9eae9d1-6152-42ba-9061-d461383fcacc"},"vehicle_type_id":"4","last_reported":1753377089,"current_range_meters":17200,"station_id":"ce4bh412rcd13ifvqdr0","pricing_plan_id":"cebpf4jnsgd1na2vs0mg"},{"bike_id":"ce193c8e-90e0-4599-95e2-d02b7d163b03","system_id":"levelo_inurba_marseille","lat":43.24089,"lon":5.37734,"is_reserved":false,"is_disabled":false,"rental_uris":{"android":"levelo://app?vid=ce193c8e-90e0-4599-95e2-d02b7d163b03","ios":"levelo://app?vid=ce193c8e-90e0-4599-95e2-d02b7d163b03"},"vehicle_type_id":"4","last_reported":1753377089,"current_range_meters":17200,"station_id":"ce4bhnp2rcd13ifvqgvg","pricing_plan_id":"cebpf4jnsgd1na2vs0mg"},{"bike_id":"ecb8ed1f-611a-405e-8727-926a6b20adf4","system_id":"levelo_inurba_marseille","lat":43.27375,"lon":5.36253,"is_reserved":false,"is_disabled":false,"rental_uris":{"android":"levelo://app?vid=ecb8ed1f-611a-405e-8727-926a6b20adf4","ios":"levelo://app?vid=ecb8ed1f-611a-405e-8727-926a6b20adf4"},"vehicle_type_id":"4","last_reported":1753377089,"current_range_meters":17200,"station_id":"ce4bhbh2rcd13ifvqeo0","pricing_plan_id":"cebpf4jnsgd1na2vs0mg"},{"bike_id":"261d4bb0-7bb9-4c80-93f3-cd6f68b7285e","system_id":"levelo_inurba_marseille","lat":43.31493,"lon":5.36892,"is_reserved":false,"is_disabled":false,"rental_uris":{"android":"levelo://app?vid=261d4bb0-7bb9-4c80-93f3-cd6f68b7285e","ios":"levelo://app?vid=261d4bb0-7bb9-4c80-93f3-cd6f68b7285e"},"vehicle_type_id":"4","last_reported":1753377089,"current_range_meters":17200,"station_id":"","pricing_plan_id":"cebpf4jnsgd1na2vs0mg"},{"bike_id":"eba7e172-cfdb-4249-9f1f-b1ee4c85424f","system_id":"levelo_inurba_marseille","lat":43.295333,"lon":5.385406,"is_reserved":false,"is_disabled":false,"rental_uris":{"android":"levelo://app?vid=eba7e172-cfdb-4249-9f1f-b1ee4c85424f","ios":"levelo://app?vid=eba7e172-cfdb-4249-9f1f-b1ee4c85424f"},"vehicle_type_id":"4","last_reported":1753377089,"current_range_meters":17200,"station_id":"ce4bgih2rcd13ifvqba0","pricing_plan_id":"cebpf4jnsgd1na2vs0mg"},{"bike_id":"0a7192c6-75ac-4a8d-ade5-0b16d7a5553c","system_id":"levelo_inurba_marseille","lat":43.29556,"lon":5.4229,"is_reserved":false,"is_disabled":false,"rental_uris":{"android":"levelo://app?vid=0a7192c6-75ac-4a8d-ade5-0b16d7a5553c","ios":"levelo://app?vid=0a7192c6-75ac-4a8d-ade5-0b16d7a5553c"},"vehicle_type_id":"4","last_reported":1753377089,"current_range_meters":16800,"station_id":"ce4bhph2rcd13ifvqhdg","pricing_plan_id":"cebpf4jnsgd1na2vs0mg"},{"bike_id":"53a26903-464f-4fc4-9933-61532f3dde60","system_id":"levelo_inurba_marseille","lat":43.265563,"lon":5.372868,"is_reserved":false,"is_disabled":false,"rental_uris":{"android":"levelo://app?vid=53a26903-464f-4fc4-9933-61532f3dde60","ios":"levelo://app?vid=53a26903-464f-4fc4-9933-61532f3dde60"},"vehicle_type_id":"4","last_reported":1753377089,"current_range_meters":17200,"station_id":"ce4bhg12rcd13ifvqf70","pricing_plan_id":"cebpf4jnsgd1na2vs0mg"},{"bike_id":"e2c6973b-7ebe-4fc3-b3fb-5a97464b613f","system_id":"levelo_inurba_marseille","lat":43.29016,"lon":5.38624,"is_reserved":false,"is_disabled":false,"rental_uris":{"android":"levelo://app?vid=e2c6973b-7ebe-4fc3-b3fb-5a97464b613f","ios":"levelo://app?vid=e2c6973b-7ebe-4fc3-b3fb-5a97464b613f"},"vehicle_type_id":"4","last_reported":1753377089,"current_range_meters":17200,"station_id":"ce4bh4p2rcd13ifvqe0g","pricing_plan_id":"cebpf4jnsgd1na2vs0mg"},{"bike_id":"f44a8f44-79b3-4e3f-90da-facb96ed4234","system_id":"levelo_inurba_marseille","lat":43.29026,"lon":5.38631,"is_reserved":false,"is_disabled":false,"rental_uris":{"android":"levelo://app?vid=f44a8f44-79b3-4e3f-90da-facb96ed4234","ios":"levelo://app?vid=f44a8f44-79b3-4e3f-90da-facb96ed4234"},"vehicle_type_id":"4","last_reported":1753377089,"current_range_meters":17600,"station_id":"ce4bh4p2rcd13ifvqe0g","pricing_plan_id":"cebpf4jnsgd1na2vs0mg"},{"bike_id":"d3ecb709-eb88-45bb-8db8-532ae2d0274d","system_id":"levelo_inurba_marseille","lat":43.28704,"lon":5.37388,"is_reserved":false,"is_disabled":false,"rental_uris":{"android":"levelo://app?vid=d3ecb709-eb88-45bb-8db8-532ae2d0274d","ios":"levelo://app?vid=d3ecb709-eb88-45bb-8db8-532ae2d0274d"},"vehicle_type_id":"4","last_reported":1753377089,"current_range_meters":17600,"station_id":"ce4bh3p2rcd13ifvqdq0","pricing_plan_id":"cebpf4jnsgd1na2vs0mg"},{"bike_id":"c991da30-6161-491a-a6b5-3a5b03813dff","system_id":"levelo_inurba_marseille","lat":43.28416,"lon":5.34986,"is_reserved":false,"is_disabled":false,"rental_uris":{"android":"levelo://app?vid=c991da30-6161-491a-a6b5-3a5b03813dff","ios":"levelo://app?vid=c991da30-6161-491a-a6b5-3a5b03813dff"},"vehicle_type_id":"4","last_reported":1753377089,"current_range_meters":17600,"station_id":"ce4bhbh2rcd13ifvqepg","pricing_plan_id":"cebpf4jnsgd1na2vs0mg"},{"bike_id":"1e9cf983-3afc-4620-a4d4-2dd094704fd1","system_id":"levelo_inurba_marseille","lat":43.22501,"lon":5.34774,"is_reserved":false,"is_disabled":false,"rental_uris":{"android":"levelo://app?vid=1e9cf983-3afc-4620-a4d4-2dd094704fd1","ios":"levelo://app?vid=1e9cf983-3afc-4620-a4d4-2dd094704fd1"},"vehicle_type_id":"4","last_reported":1753377089,"current_range_meters":17600,"station_id":"st_cvj5dfep6f1abm77gieg","pricing_plan_id":"cebpf4jnsgd1na2vs0mg"},{"bike_id":"22832dd9-6f40-41f0-84f7-20d5b045fc09","system_id":"levelo_inurba_marseille","lat":43.303789,"lon":5.424816,"is_reserved":false,"is_disabled":false,"rental_uris":{"android":"levelo://app?vid=22832dd9-6f40-41f0-84f7-20d5b045fc09","ios":"levelo://app?vid=22832dd9-6f40-41f0-84f7-20d5b045fc09"},"vehicle_type_id":"4","last_reported":1753377089,"current_range_meters":17600,"station_id":"ce4bhoh2rcd13ifvqh6g","pricing_plan_id":"cebpf4jnsgd1na2vs0mg"},{"bike_id":"5d3598ef-1bad-4315-a82e-6d8d757affba","system_id":"levelo_inurba_marseille","lat":43.31081,"lon":5.38348,"is_reserved":false,"is_disabled":false,"rental_uris":{"android":"levelo://app?vid=5d3598ef-1bad-4315-a82e-6d8d757affba","ios":"levelo://app?vid=5d3598ef-1bad-4315-a82e-6d8d757affba"},"vehicle_type_id":"4","last_reported":1753377089,"current_range_meters":17600,"station_id":"ce4bgv92rcd13ifvqcr0","pricing_plan_id":"cebpf4jnsgd1na2vs0mg"},{"bike_id":"d4c4338c-1670-4a6b-b386-7b67182a03ce","system_id":"levelo_inurba_marseille","lat":43.29533,"lon":5.38523,"is_reserved":false,"is_disabled":false,"rental_uris":{"android":"levelo://app?vid=d4c4338c-1670-4a6b-b386-7b67182a03ce","ios":"levelo://app?vid=d4c4338c-1670-4a6b-b386-7b67182a03ce"},"vehicle_type_id":"4","last_reported":1753377089,"current_range_meters":17600,"station_id":"ce4bgih2rcd13ifvqba0","pricing_plan_id":"cebpf4jnsgd1na2vs0mg"},{"bike_id":"33b409f5-91ed-4362-9a3b-75c6e5e30870","system_id":"levelo_inurba_marseille","lat":43.29924,"lon":5.37483,"is_reserved":false,"is_disabled":false,"rental_uris":{"android":"levelo://app?vid=33b409f5-91ed-4362-9a3b-75c6e5e30870","ios":"levelo://app?vid=33b409f5-91ed-4362-9a3b-75c6e5e30870"},"vehicle_type_id":"4","last_reported":1753377089,"current_range_meters":17200,"station_id":"ce4bgjh2rcd13ifvqbg0","pricing_plan_id":"cebpf4jnsgd1na2vs0mg"},{"bike_id":"e3f284d9-d132-433e-8254-761c3f358265","system_id":"levelo_inurba_marseille","lat":43.28617,"lon":5.35108,"is_reserved":false,"is_disabled":false,"rental_uris":{"android":"levelo://app?vid=e3f284d9-d132-433e-8254-761c3f358265","ios":"levelo://app?vid=e3f284d9-d132-433e-8254-761c3f358265"},"vehicle_type_id":"4","last_reported":1753377089,"current_range_meters":17600,"station_id":"ce4bhch2rcd13ifvqeug","pricing_plan_id":"cebpf4jnsgd1na2vs0mg"},{"bike_id":"64a79126-6626-43e2-92fb-3f81e827af70","system_id":"levelo_inurba_marseille","lat":43.27908,"lon":5.38009,"is_reserved":false,"is_disabled":false,"rental_uris":{"android":"levelo://app?vid=64a79126-6626-43e2-92fb-3f81e827af70","ios":"levelo://app?vid=64a79126-6626-43e2-92fb-3f81e827af70"},"vehicle_type_id":"4","last_reported":1753377089,"current_range_meters":18000,"station_id":"ce4bhf92rcd13ifvqf50","pricing_plan_id":"cebpf4jnsgd1na2vs0mg"},{"bike_id":"cee10a10-187e-4ed0-bb82-a39b38395646","system_id":"levelo_inurba_marseille","lat":43.24822,"lon":5.37425,"is_reserved":false,"is_disabled":false,"rental_uris":{"android":"levelo://app?vid=cee10a10-187e-4ed0-bb82-a39b38395646","ios":"levelo://app?vid=cee10a10-187e-4ed0-bb82-a39b38395646"},"vehicle_type_id":"4","last_reported":1753377089,"current_range_meters":18000,"station_id":"ce4bhgh2rcd13ifvqfb0","pricing_plan_id":"cebpf4jnsgd1na2vs0mg"},