{"last_updated":1718737572,"ttl":30,"version":"2.2","data":{"bikes":[{"bike_id":"705c988e-691c-42a3-b15b-9764d90d6e1c","system_id":"levelo_inurba_marseille","lat":43.31215,"lon":5.36891,"is_reserved":false,"is_disabled":false,"rental_uris":{"android":"levelo://app?vid=705c988e-691c-42a3-b15b-9764d90d6e1c","ios":"levelo://app?vid=705c988e-691c-42a3-b15b-9764d90d6e1c"},"vehicle_type_id":"4","last_reported":1718737572,"current_range_meters":11600,"station_id":"","pricing_plan_id":"cebpf4jnsgd1na2vs0mg"},{"bike_id":"cafcb9dd-48f0-4e32-9401-51e9d609c380","system_id":"levelo_inurba_marseille","lat":43.309076,"lon":5.368465,"is_reserved":false,"is_disabled":false,"rental_uris":{"android":"levelo://app?vid=cafcb9dd-48f0-4e32-9401-51e9d609c380","ios":"levelo://app?vid=cafcb9dd-48f0-4e32-9401-51e9d609c380"},"vehicle_type_id":"4","last_reported":1718737572,"current_range_meters":23200,"station_id":"ce4bgn92rcd13ifvqbvg","pricing_plan_id":"cebpf4jnsgd1na2vs0mg"},{"bike_id":"3b1bf77f-94f5-4843-9c1f-f5be9db08193","system_id":"levelo_inurba_marseille","lat":43.31494,"lon":5.37125,"is_reserved":false,"is_disabled":false,"rental_uris":{"android":"levelo://app?vid=3b1bf77f-94f5-4843-9c1f-f5be9db08193","ios":"levelo://app?vid=3b1bf77f-94f5-4843-9c1f-f5be9db08193"},"vehicle_type_id":"4","last_reported":1718737572,"current_range_meters":16000,"station_id":"","pricing_plan_id":"cebpf4jnsgd1na2vs0mg"},{"bike_id":"fa3a66ea-c3f5-468f-a1f4-57db1ca68bac","system_id":"levelo_inurba_marseille","lat":43.314811,"lon":5.373103,"is_reserved":false,"is_disabled":false,"rental_uris":{"android":"levelo://app?vid=fa3a66ea-c3f5-468f-a1f4-57db1ca68bac","ios":"levelo://app?vid=fa3a66ea-c3f5-468f-a1f4-57db1ca68bac"},"vehicle_type_id":"4","last_reported":1718737572,"current_range_meters":12400,"station_id":"ce4bgt12rcd13ifvqcd0","pricing_plan_id":"cebpf4jnsgd1na2vs0mg"},{"bike_id":"9cd95b88-179c-427c-a800-a2a4a4ed512b","system_id":"levelo_inurba_marseille","lat":43.314811,"lon":5.373103,"is_reserved":false,"is_disabled":false,"rental_uris":{"android":"levelo://app?vid=9cd95b88-179c-427c-a800-a2a4a4ed512b","ios":"levelo://app?vid=9cd95b88-179c-427c-a800-a2a4a4ed512b"},"vehicle_type_id":"4","last_reported":1718737572,"current_range_meters":800,"station_id":"ce4bgt12rcd13ifvqcd0","pricing_plan_id":"cebpf4jnsgd1na2vs0mg"},{"bike_id":"bc2ddaba-ec77-4e08-9053-7d4a16c7dbd3","system_id":"levelo_inurba_marseille","lat":43.31486,"lon":5.37308,"is_reserved":false,"is_disabled":false,"rental_uris":{"android":"levelo://app?vid=bc2ddaba-ec77-4e08-9053-7d4a16c7dbd3","ios":"levelo://app?vid=bc2ddaba-ec77-4e08-9053-7d4a16c7dbd3"},"vehicle_type_id":"4","last_reported":1718737572,"current_range_meters":800,"station_id":"ce4bgt12rcd13ifvqcd0","pricing_plan_id":"cebpf4jnsgd1na2vs0mg"},{"bike_id":"98e646bd-ee83-40cd-bdbe-2035bb51cf70","system_id":"levelo_inurba_marseille","lat":43.314811,"lon":5.373103,"is_reserved":false,"is_disabled":false,"rental_uris":{"android":"levelo://app?vid=98e646bd-ee83-40cd-bdbe-2035bb51cf70","ios":"levelo://app?vid=98e646bd-ee83-40cd-bdbe-2035bb51cf70"},"vehicle_type_id":"4","last_reported":1718737572,"current_range_meters":2800,"station_id":"ce4bgt12rcd13ifvqcd0","pricing_plan_id":"cebpf4jnsgd1na2vs0mg"},{"bike_id":"3e94ffca-ea06-421e-9628-04244f4bb075","system_id":"levelo_inurba_marseille","lat":43.314811,"lon":5.373103,"is_reserved":false,"is_disabled":false,"rental_uris":{"android":"levelo://app?vid=3e94ffca-ea06-421e-9628-04244f4bb075","ios":"levelo://app?vid=3e94ffca-ea06-421e-9628-04244f4bb075"},"vehicle_type_id":"4","last_reported":1718737572,"current_range_meters":8800,"station_id":"ce4bgt12rcd13ifvqcd0","pricing_plan_id":"cebpf4jnsgd1na2vs0mg"},{"bike_id":"b0374d8d-9edd-4998-8fcf-fe8bd240c9a5","system_id":"levelo_inurba_marseille","lat":43.314811,"lon":5.373103,"is_reserved":false,"is_disabled":false,"rental_uris":{"android":"levelo://app?vid=b0374d8d-9edd-4998-8fcf-fe8bd240c9a5","ios":"levelo://app?vid=b0374d8d-9edd-4998-8fcf-fe8bd240c9a5"},"vehicle_type_id":"4","last_reported":1718737572,"current_range_meters":4000,"station_id":"ce4bgt12rcd13ifvqcd0","pricing_plan_id":"cebpf4jnsgd1na2vs0mg"},{"bike_id":"9c87ace1-26d6-498f-ac32-7b307a2157c4","system_id":"levelo_inurba_marseille","lat":43.314811,"lon":5.373103,"is_reserved":false,"is_disabled":false,"rental_uris":{"android":"levelo://app?vid=9c87ace1-26d6-498f-ac32-7b307a2157c4","ios":"levelo://app?vid=9c87ace1-26d6-498f-ac32-7b307a2157c4"},"vehicle_type_id":"4","last_reported":1718737572,"current_range_meters":12800,"station_id":"ce4bgt12rcd13ifvqcd0","pricing_plan_id":"cebpf4jnsgd1na2vs0mg"},{"bike_id":"b581c1f6-f3b4-42fd-9a53-e6404449764a","system_id":"levelo_inurba_marseille","lat":43.314811,"lon":5.373103,"is_reserved":false,"is_disabled":false,"rental_uris":{"android":"levelo://app?vid=b581c1f6-f3b4-42fd-9a53-e6404449764a","ios":"levelo://app?vid=b581c1f6-f3b4-42fd-9a53-e6404449764a"},"vehicle_type_id":"4","last_reported":1718737572,"current_range_meters":2400,"station_id":"ce4bgt12rcd13ifvqcd0","pricing_plan_id":"cebpf4jnsgd1na2vs0mg"},{"bike_id":"88bb0657-ae23-44d1-92d2-9fd715b4cf0d","system_id":"levelo_inurba_marseille","lat":43.314811,"lon":5.373103,"is_reserved":false,"is_disabled":false,"rental_uris":{"android":"levelo://app?vid=88bb0657-ae23-44d1-92d2-9fd715b4cf0d","ios":"levelo://app?vid=88bb0657-ae23-44d1-92d2-9fd715b4cf0d"},"vehicle_type_id":"4","last_reported":1718737572,"current_range_meters":21200,"station_id":"ce4bgt12rcd13ifvqcd0","pricing_plan_id":"cebpf4jnsgd1na2vs0mg"},{"bike_id":"dc0002b9-c31a-4fb2-85a3-e56b5a206ef5","system_id":"levelo_inurba_marseille","lat":43.314529,"lon":5.373732,"is_reserved":false,"is_disabled":false,"rental_uris":{"android":"levelo://app?vid=dc0002b9-c31a-4fb2-85a3-e56b5a206ef5","ios":"levelo://app?vid=dc0002b9-c31a-4fb2-85a3-e56b5a206ef5"},"vehicle_type_id":"4","last_reported":1718737572,"current_range_meters":18000,"station_id":"","pricing_plan_id":"cebpf4jnsgd1na2vs0mg"},{"bike_id":"461f3dc2-637b-4313-b004-716e20c64c0d","system_id":"levelo_inurba_marseille","lat":43.309034,"lon":5.371783,"is_reserved":false,"is_disabled":false,"rental_uris":{"android":"levelo://app?vid=461f3dc2-637b-4313-b004-716e20c64c0d","ios":"levelo://app?vid=461f3dc2-637b-4313-b004-716e20c64c0d"},"vehicle_type_id":"4","last_reported":1718737572,"current_range_meters":31200,"station_id":"ce4bguh2rcd13ifvqckg","pricing_plan_id":"cebpf4jnsgd1na2vs0mg"},{"bike_id":"6858a4da-b565-4db3-99d9-bb06100deb42","system_id":"levelo_inurba_marseille","lat":43.309034,"lon":5.371783,"is_reserved":false,"is_disabled":false,"rental_uris":{"android":"levelo://app?vid=6858a4da-b565-4db3-99d9-bb06100deb42","ios":"levelo://app?vid=6858a4da-b565-4db3-99d9-bb06100deb42"},"vehicle_type_id":"4","last_reported":1718737572,"current_range_meters":24800,"station_id":"ce4bguh2rcd13ifvqckg","pricing_plan_id":"cebpf4jnsgd1na2vs0mg"},{"bike_id":"90599dcc-4dba-4c01-9d35-0e6f2e550c5b","system_id":"levelo_inurba_marseille","lat":43.31391,"lon":5.37524,"is_reserved":false,"is_disabled":false,"rental_uris":{"android":"levelo://app?vid=90599dcc-4dba-4c01-9d35-0e6f2e550c5b","ios":"levelo://app?vid=90599dcc-4dba-4c01-9d35-0e6f2e550c5b"},"vehicle_type_id":"4","last_reported":1718737572,"current_range_meters":0,"station_id":"","pricing_plan_id":"cebpf4jnsgd1na2vs0mg"},{"bike_id":"be03083f-3bbb-4d03-b9b9-3dd66eca9951","system_id":"levelo_inurba_marseille","lat":43.30606,"lon":5.37222,"is_reserved":false,"is_disabled":false,"rental_uris":{"android":"levelo://app?vid=be03083f-3bbb-4d03-b9b9-3dd66eca9951","ios":"levelo://app?vid=be03083f-3bbb-4d03-b9b9-3dd66eca9951"},"vehicle_type_id":"4","last_reported":1718737572,"current_range_meters":6800,"station_id":"ce4bgqh2rcd13ifvqc4g","pricing_plan_id":"cebpf4jnsgd1na2vs0mg"},{"bike_id":"dd3e10d4-f3a0-4481-90d8-afde793c7d43","system_id":"levelo_inurba_marseille","lat":43.305989,"lon":5.37225,"is_reserved":false,"is_disabled":false,"rental_uris":{"android":"levelo://app?vid=dd3e10d4-f3a0-4481-90d8-afde793c7d43","ios":"levelo://app?vid=dd3e10d4-f3a0-4481-90d8-afde793c7d43"},"vehicle_type_id":"4","last_reported":1718737572,"current_range_meters":19600,"station_id":"ce4bgqh2rcd13ifvqc4g","pricing_plan_id":"cebpf4jnsgd1na2vs0mg"},{"bike_id":"ba455fa7-0855-41bf-a3e7-e9c06818ae17","system_id":"levelo_inurba_marseille","lat":43.305989,"lon":5.37225,"is_reserved":false,"is_disabled":false,"rental_uris":{"android":"levelo://app?vid=ba455fa7-0855-41bf-a3e7-e9c06818ae17","ios":"levelo://app?vid=ba455fa7-0855-41bf-a3e7-e9c06818ae17"},"vehicle_type_id":"4","last_reported":1718737572,"current_range_meters":30800,"station_id":"ce4bgqh2rcd13ifvqc4g","pricing_plan_id":"cebpf4jnsgd1na2vs0mg"},{"bike_id":"74eae792-5017-4a8e-afea-c2ad340fdb9b","system_id":"levelo_inurba_marseille","lat":43.30598,"lon":5.37215,"is_reserved":false,"is_disabled":false,"rental_uris":{"android":"levelo://app?vid=74eae792-5017-4a8e-afea-c2ad340fdb9b","ios":"levelo://app?vid=74eae792-5017-4a8e-afea-c2ad340fdb9b"},"vehicle_type_id":"4","last_reported":1718737572,"current_range_meters":800,"station_id":"ce4bgqh2rcd13ifvqc4g","pricing_plan_id":"cebpf4jnsgd1na2vs0mg"},{"bike_id":"1fb8dd69-ce3e-496d-b27c-ff833e1e6500","system_id":"levelo_inurba_marseille","lat":43.306,"lon":5.37225,"is_reserved":false,"is_disabled":false,"rental_uris":{"android":"levelo://app?vid=1fb8dd69-ce3e-496d-b27c-ff833e1e6500","ios":"levelo://app?vid=1fb8dd69-ce3e-496d-b27c-ff833e1e6500"},"vehicle_type_id":"4","last_reported":1718737572,"current_range_meters":10400,"station_id":"ce4bgqh2rcd13ifvqc4g","pricing_plan_id":"cebpf4jnsgd1na2vs0mg"},{"bike_id":"f42401fc-a717-4ef1-b2fc-fc5e03e95f79","system_id":"levelo_inurba_marseille","lat":43.31117,"lon":5.37762,"is_reserved":false,"is_disabled":false,"rental_uris":{"android":"levelo://app?vid=f42401fc-a717-4ef1-b2fc-fc5e03e95f79","ios":"levelo://app?vid=f42401fc-a717-4ef1-b2fc-fc5e03e95f79"},"vehicle_type_id":"4","last_reported":1718737572,"current_range_meters":0,"station_id":"ce4bgt92rcd13ifvqcg0","pricing_plan_id":"cebpf4jnsgd1na2vs0mg"},{"bike_id":"5815090f-bea7-44ff-8d16-d83f96330656","system_id":"levelo_inurba_marseille","lat":43.311131,"lon":5.377651,"is_reserved":false,"is_disabled":false,"rental_uris":{"android":"levelo://app?vid=5815090f-bea7-44ff-8d16-d83f96330656","ios":"levelo://app?vid=5815090f-bea7-44ff-8d16-d83f96330656"},"vehicle_type_id":"4","last_reported":1718737572,"current_range_meters":30000,"station_id":"ce4bgt92rcd13ifvqcg0","pricing_plan_id":"cebpf4jnsgd1na2vs0mg"},{"bike_id":"caca73a3-3cda-4144-af6d-7df2542d1c6a","system_id":"levelo_inurba_marseille","lat":43.311125,"lon":5.377624,"is_reserved":false,"is_disabled":false,"rental_uris":{"android":"levelo://app?vid=caca73a3-3cda-4144-af6d-7df2542d1c6a","ios":"levelo://app?vid=caca73a3-3cda-4144-af6d-7df2542d1c6a"},"vehicle_type_id":"4","last_reported":1718737572,"current_range_meters":2400,"station_id":"ce4bgt92rcd13ifvqcg0","pricing_plan_id":"cebpf4jnsgd1na2vs0mg"},{"bike_id":"76611d59-226f-4647-9dec-24863a20c8f0","system_id":"levelo_inurba_marseille","lat":43.32026,"lon":5.37163,"is_reserved":false,"is_disabled":false,"rental_uris":{"android":"levelo://app?vid=76611d59-226f-4647-9dec-24863a20c8f0","ios":"levelo://app?vid=76611d59-226f-4647-9dec-24863a20c8f0"},"vehicle_type_id":"4","last_reported":1718737572,"current_range_meters":29200,"station_id":"","pricing_plan_id":"cebpf4jnsgd1na2vs0mg"},{"bike_id":"7d1b17de-3de3-4d83-87ac-073bc9a85305","system_id":"levelo_inurba_marseille","lat":43.307945,"lon":5.376487,"is_reserved":false,"is_disabled":false,"rental_uris":{"android":"levelo://app?vid=7d1b17de-3de3-4d83-87ac-073bc9a85305","ios":"levelo://app?vid=7d1b17de-3de3-4d83-87ac-073bc9a85305"},"vehicle_type_id":"4","last_reported":1718737572,"current_range_meters":19200,"station_id":"ce4bgv92rcd13ifvqcq0","pricing_plan_id":"cebpf4jnsgd1na2vs0mg"},{"bike_id":"e92d55e9-b094-4250-ac20-0759365d521b","system_id":"levelo_inurba_marseille","lat":43.317125,"lon":5.37757,"is_reserved":false,"is_disabled":false,"rental_uris":{"android":"levelo://app?vid=e92d55e9-b094-4250-ac20-0759365d521b","ios":"levelo://app?vid=e92d55e9-b094-4250-ac20-0759365d521b"},"vehicle_type_id":"4","last_reported":1718737572,"current_range_meters":0,"station_id":"ce4bgth2rcd13ifvqch0","pricing_plan_id":"cebpf4jnsgd1na2vs0mg"},{"bike_id":"7583481b-1732-457a-9e28-6b78fe06de2a","system_id":"levelo_inurba_marseille","lat":43.30315,"lon":5.36903,"is_reserved":false,"is_disabled":false,"rental_uris":{"android":"levelo://app?vid=7583481b-1732-457a-9e28-6b78fe06de2a","ios":"levelo://app?vid=7583481b-1732-457a-9e28-6b78fe06de2a"},"vehicle_type_id":"4","last_reported":1718737572,"current_range_meters":800,"station_id":"ce4bgqh2rcd13ifvqc5g","pricing_plan_id":"cebpf4jnsgd1na2vs0mg"},{"bike_id":"0c732f60-4161-4a57-9b00-4836130260b8","system_id":"levelo_inurba_marseille","lat":43.30304,"lon":5.368987,"is_reserved":false,"is_disabled":false,"rental_uris":{"android":"levelo://app?vid=0c732f60-4161-4a57-9b00-4836130260b8","ios":"levelo://app?vid=0c732f60-4161-4a57-9b00-4836130260b8"},"vehicle_type_id":"4","last_reported":1718737572,"current_range_meters":26800,"station_id":"ce4bgqh2rcd13ifvqc5g","pricing_plan_id":"cebpf4jnsgd1na2vs0mg"},{"bike_id":"6b093e41-2bf2-41ff-88ea-aac2bf731bbc","system_id":"levelo_inurba_marseille","lat":43.308012,"lon":5.381511,"is_reserved":false,"is_disabled":false,"rental_uris":{"android":"levelo://app?vid=6b093e41-2bf2-41ff-88ea-aac2bf731bbc","ios":"levelo://app?vid=6b093e41-2bf2-41ff-88ea-aac2bf731bbc"},"vehicle_type_id":"4","last_reported":1718737572,"current_range_meters":13200,"station_id":"ce4bgt12rcd13ifvqce0","pricing_plan_id":"cebpf4jnsgd1na2vs0mg"},{"bike_id":"6b4de2da-f3b0-43cb-a1fd-16e31660ca4e","system_id":"levelo_inurba_marseille","lat":43.304606,"lon":5.379026,"is_reserved":false,"is_disabled":false,"rental_uris":{"android":"levelo://app?vid=6b4de2da-f3b0-43cb-a1fd-16e31660ca4e","ios":"levelo://app?vid=6b4de2da-f3b0-43cb-a1fd-16e31660ca4e"},"vehicle_type_id":"4","last_reported":1718737572,"current_range_meters":0,"station_id":"ce4bgup2rcd13ifvqcn0","pricing_plan_id":"cebpf4jnsgd1na2vs0mg"},{"bike_id":"b7366d87-fda1-48b9-8204-57d1d6e038a6","system_id":"levelo_inurba_marseille","lat":43.304606,"lon":5.379026,"is_reserved":false,"is_disabled":false,"rental_uris":{"android":"levelo://app?vid=b7366d87-fda1-48b9-8204-57d1d6e038a6","ios":"levelo://app?vid=b7366d87-fda1-48b9-8204-57d1d6e038a6"},"vehicle_type_id":"4","last_reported":1718737572,"current_range_meters":25600,"station_id":"ce4bgup2rcd13ifvqcn0","pricing_plan_id":"cebpf4jnsgd1na2vs0mg"},{"bike_id":"956bc69a-bbbe-43d5-96a9-d56ae7909b89","system_id":"levelo_inurba_marseille","lat":43.32478,"lon":5.36569,"is_reserved":false,"is_disabled":false,"rental_uris":{"android":"levelo://app?vid=956bc69a-bbbe-43d5-96a9-d56ae7909b89","ios":"levelo://app?vid=956bc69a-bbbe-43d5-96a9-d56ae7909b89"},"vehicle_type_id":"4","last_reported":1718737572,"current_range_meters":16800,"station_id":"ce4bhs12rcd13ifvqhvg","pricing_plan_id":"cebpf4jnsgd1na2vs0mg"},{"bike_id":"3f76c668-0422-40c4-8341-a5335d63583d","system_id":"levelo_inurba_marseille","lat":43.32479,"lon":5.36563,"is_reserved":false,"is_disabled":false,"rental_uris":{"android":"levelo://app?vid=3f76c668-0422-40c4-8341-a5335d63583d","ios":"levelo://app?vid=3f76c668-0422-40c4-8341-a5335d63583d"},"vehicle_type_id":"4","last_reported":1718737572,"current_range_meters":0,"station_id":"ce4bhs12rcd13ifvqhvg","pricing_plan_id":"cebpf4jnsgd1na2vs0mg"},{"bike_id":"c24c710b-107b-4852-b2a2-e3136579ea87","system_id":"levelo_inurba_marseille","lat":43.324771,"lon":5.36557,"is_reserved":false,"is_disabled":false,"rental_uris":{"android":"levelo://app?vid=c24c710b-107b-4852-b2a2-e3136579ea87","ios":"levelo://app?vid=c24c710b-107b-4852-b2a2-e3136579ea87"},"vehicle_type_id":"4","last_reported":1718737572,"current_range_meters":6000,"station_id":"ce4bhs12rcd13ifvqhvg","pricing_plan_id":"cebpf4jnsgd1na2vs0mg"},{"bike_id":"536cde55-0231-4ebc-bdf2-be4c6aeceab3","system_id":"levelo_inurba_marseille","lat":43.324771,"lon":5.36557,"is_reserved":false,"is_disabled":false,"rental_uris":{"android":"levelo://app?vid=536cde55-0231-4ebc-bdf2-be4c6aeceab3","ios":"levelo://app?vid=536cde55-0231-4ebc-bdf2-be4c6aeceab3"},"vehicle_type_id":"4","last_reported":1718737572,"current_range_meters":30000,"station_id":"ce4bhs12rcd13ifvqhvg","pricing_plan_id":"cebpf4jnsgd1na2vs0mg"},{"bike_id":"b492a998-a084-43cb-9f60-e97bbad8091d","system_id":"levelo_inurba_marseille","lat":43.310804,"lon":5.38359,"is_reserved":false,"is_disabled":false,"rental_uris":{"android":"levelo://app?vid=b492a998-a084-43cb-9f60-e97bbad8091d","ios":"levelo://app?vid=b492a998-a084-43cb-9f60-e97bbad8091d"},"vehicle_type_id":"4","last_reported":1718737572,"current_range_meters":0,"station_id":"ce4bgv92rcd13ifvqcr0","pricing_plan_id":"cebpf4jnsgd1na2vs0mg"},{"bike_id":"207299a1-5033-4da3-99de-aa964abd749d","system_id":"levelo_inurba_marseille","lat":43.310804,"lon":5.38359,"is_reserved":false,"is_disabled":false,"rental_uris":{"android":"levelo://app?vid=207299a1-5033-4da3-99de-aa964abd749d","ios":"levelo://app?vid=207299a1-5033-4da3-99de-aa964abd749d"},"vehicle_type_id":"4","last_reported":1718737572,"current_range_meters":12800,"station_id":"ce4bgv92rcd13ifvqcr0","pricing_plan_id":"cebpf4jnsgd1na2vs0mg"},{"bike_id":"122a2310-1b44-4a64-8068-0d220d808305","system_id":"levelo_inurba_marseille","lat":43.319935,"lon":5.381699,"is_reserved":false,"is_disabled":false,"rental_uris":{"android":"levelo://app?vid=122a2310-1b44-4a64-8068-0d220d808305","ios":"levelo://app?vid=122a2310-1b44-4a64-8068-0d220d808305"},"vehicle_type_id":"4","last_reported":1718737572,"current_range_meters":6000,"station_id":"ce4bhr12rcd13ifvqhpg","pricing_plan_id":"cebpf4jnsgd1na2vs0mg"},{"bike_id":"9d8da025-b495-4b8e-94ec-48d5c65a8213","system_id":"levelo_inurba_marseille","lat":43.313571,"lon":5.384829,"is_reserved":false,"is_disabled":false,"rental_uris":{"android":"levelo://app?vid=9d8da025-b495-4b8e-94ec-48d5c65a8213","ios":"levelo://app?vid=9d8da025-b495-4b8e-94ec-48d5c65a8213"},"vehicle_type_id":"4","last_reported":1718737572,"current_range_meters":23200,"station_id":"ce4bgt92rcd13ifvqcf0","pricing_plan_id":"cebpf4jnsgd1na2vs0mg"},{"bike_id":"d13a5f90-0b30-4891-a1e5-b004a1bbfcfc","system_id":"levelo_inurba_marseille","lat":43.313571,"lon":5.384829,"is_reserved":false,"is_disabled":false,"rental_uris":{"android":"levelo://app?vid=d13a5f90-0b30-4891-a1e5-b004a1bbfcfc","ios":"levelo://app?vid=d13a5f90-0b30-4891-a1e5-b004a1bbfcfc"},"vehicle_type_id":"4","last_reported":1718737572,"current_range_meters":31200,"station_id":"ce4bgt92rcd13ifvqcf0","pricing_plan_id":"cebpf4jnsgd1na2vs0mg"},{"bike_id":"bcd65f79-1ed2-4ab6-80b1-063166d9d858","system_id":"levelo_inurba_marseille","lat":43.313571,"lon":5.384829,"is_reserved":false,"is_disabled":false,"rental_uris":{"android":"levelo://app?vid=bcd65f79-1ed2-4ab6-80b1-063166d9d858","ios":"levelo://app?vid=bcd65f79-1ed2-4ab6-80b1-063166d9d858"},"vehicle_type_id":"4","last_reported":1718737572,"current_range_meters":15600,"station_id":"ce4bgt92rcd13ifvqcf0","pricing_plan_id":"cebpf4jnsgd1na2vs0mg"},{"bike_id":"b6d352e3-e57b-43f1-8809-def96434c4b4","system_id":"levelo_inurba_marseille","lat":43.313571,"lon":5.384829,"is_reserved":false,"is_disabled":false,"rental_uris":{"android":"levelo://app?vid=b6d352e3-e57b-43f1-8809-def96434c4b4","ios":"levelo://app?vid=b6d352e3-e57b-43f1-8809-def96434c4b4"},"vehicle_type_id":"4","last_reported":1718737572,"current_range_meters":14000,"station_id":"ce4bgt92rcd13ifvqcf0","pricing_plan_id":"cebpf4jnsgd1na2vs0mg"},{"bike_id":"b83faf25-a26f-4b45-93eb-9df6f67f0b0e","system_id":"levelo_inurba_marseille","lat":43.305364,"lon":5.384119,"is_reserved":false,"is_disabled":false,"rental_uris":{"android":"levelo://app?vid=b83faf25-a26f-4b45-93eb-9df6f67f0b0e","ios":"levelo://app?vid=b83faf25-a26f-4b45-93eb-9df6f67f0b0e"},"vehicle_type_id":"4","last_reported":1718737572,"current_range_meters":23600,"station_id":"ce4bgg92rcd13ifvqb30","pricing_plan_id":"cebpf4jnsgd1na2vs0mg"},{"bike_id":"2c4ab990-bf85-4539-81a0-6a5e6c486afc","system_id":"levelo_inurba_marseille","lat":43.299622,"lon":5.365301,"is_reserved":false,"is_disabled":false,"rental_uris":{"android":"levelo://app?vid=2c4ab990-bf85-4539-81a0-6a5e6c486afc","ios":"levelo://app?vid=2c4ab990-bf85-4539-81a0-6a5e6c486afc"},"vehicle_type_id":"4","last_reported":1718737572,"current_range_meters":1600,"station_id":"","pricing_plan_id":"cebpf4jnsgd1na2vs0mg"},{"bike_id":"775009fe-3bf5-4350-9097-348347408737","system_id":"levelo_inurba_marseille","lat":43.299222,"lon":5.365554,"is_reserved":false,"is_disabled":false,"rental_uris":{"android":"levelo://app?vid=775009fe-3bf5-4350-9097-348347408737","ios":"levelo://app?vid=775009fe-3bf5-4350-9097-348347408737"},"vehicle_type_id":"4","last_reported":1718737572,"current_range_meters":21600,"station_id":"ce4bgm92rcd13ifvqbr0","pricing_plan_id":"cebpf4jnsgd1na2vs0mg"},{"bike_id":"e01b5e8c-57d7-400b-8779-89eebb8dc674","system_id":"levelo_inurba_marseille","lat":43.299222,"lon":5.365554,"is_reserved":false,"is_disabled":false,"rental_uris":{"android":"levelo://app?vid=e01b5e8c-57d7-400b-8779-89eebb8dc674","ios":"levelo://app?vid=e01b5e8c-57d7-400b-8779-89eebb8dc674"},"vehicle_type_id":"4","last_reported":1718737572,"current_range_meters":17200,"station_id":"ce4bgm92rcd13ifvqbr0","pricing_plan_id":"cebpf4jnsgd1na2vs0mg"},{"bike_id":"651d3d05-6985-4d37-b9a3-f9e5dc32a428","system_id":"levelo_inurba_marseille","lat":43.299222,"lon":5.365554,"is_reserved":false,"is_disabled":false,"rental_uris":{"android":"levelo://app?vid=651d3d05-6985-4d37-b9a3-f9e5dc32a428","ios":"levelo://app?vid=651d3d05-6985-4d37-b9a3-f9e5dc32a428"},"vehicle_type_id":"4","last_reported":1718737572,"current_range_meters":14000,"station_id":"ce4bgm92rcd13ifvqbr0","pricing_plan_id":"cebpf4jnsgd1na2vs0mg"},{"bike_id":"ffd59c1f-d70e-4a6e-9d6f-4ca364763d15","system_id":"levelo_inurba_marseille","lat":43.299222,"lon":5.365554,"is_reserved":false,"is_disabled":false,"rental_uris":{"android":"levelo://app?vid=ffd59c1f-d70e-4a6e-9d6f-4ca364763d15","ios":"levelo://app?vid=ffd59c1f-d70e-4a6e-9d6f-4ca364763d15"},"vehicle_type_id":"4","last_reported":1718737572,"current_range_meters":400,"station_id":"ce4bgm92rcd13ifvqbr0","pricing_plan_id":"cebpf4jnsgd1na2vs0mg"},{"bike_id":"bba84faa-1a1d-4d6d-ab9b-86ab5e9691fa","system_id":"levelo_inurba_marseille","lat":43.299724,"lon":5.371829,"is_reserved":false,"is_disabled":false,"rental_uris":{"android":"levelo://app?vid=bba84faa-1a1d-4d6d-ab9b-86ab5e9691fa","ios":"levelo://app?vid=bba84faa-1a1d-4d6d-ab9b-86ab5e9691fa"},"vehicle_type_id":"4","last_reported":1718737572,"current_range_meters":26400,"station_id":"ce4bgr92rcd13ifvqc7g","pricing_plan_id":"cebpf4jnsgd1na2vs0mg"},{"bike_id":"4eefcab1-75cd-4c41-8632-0996249764c6","system_id":"levelo_inurba_marseille","lat":43.29971,"lon":5.37189,"is_reserved":false,"is_disabled":false,"rental_uris":{"android":"levelo://app?vid=4eefcab1-75cd-4c41-8632-0996249764c6","ios":"levelo://app?vid=4eefcab1-75cd-4c41-8632-0996249764c6"},"vehicle_type_id":"4","last_reported":1718737572,"current_range_meters":31200,"station_id":"ce4bgr92rcd13ifvqc7g","pricing_plan_id":"cebpf4jnsgd1na2vs0mg"},{"bike_id":"b5cc9a0e-eb72-4b57-ab4c-da7f9eeefa06","system_id":"levelo_inurba_marseille","lat":43.298433,"lon":5.362774,"is_reserved":false,"is_disabled":false,"rental_uris":{"android":"levelo://app?vid=b5cc9a0e-eb72-4b57-ab4c-da7f9eeefa06","ios":"levelo://app?vid=b5cc9a0e-eb72-4b57-ab4c-da7f9eeefa06"},"vehicle_type_id":"4","last_reported":1718737572,"current_range_meters":1600,"station_id":"ce4bgpp2rcd13ifvqc3g","pricing_plan_id":"cebpf4jnsgd1na2vs0mg"},{"bike_id":"2e56fac3-2868-4ef6-93f6-1cde309ae244","system_id":"levelo_inurba_marseille","lat":43.31165,"lon":5.38712,"is_reserved":false,"is_disabled":false,"rental_uris":{"android":"levelo://app?vid=2e56fac3-2868-4ef6-93f6-1cde309ae244","ios":"levelo://app?vid=2e56fac3-2868-4ef6-93f6-1cde309ae244"},"vehicle_type_id":"4","last_reported":1718737572,"current_range_meters":0,"station_id":"ce4bgv12rcd13ifvqcp0","pricing_plan_id":"cebpf4jnsgd1na2vs0mg"},{"bike_id":"3dd8d5a5-1eb0-4d5c-84f2-d92046c15c05","system_id":"levelo_inurba_marseille","lat":43.299243,"lon":5.37481,"is_reserved":false,"is_disabled":false,"rental_uris":{"android":"levelo://app?vid=3dd8d5a5-1eb0-4d5c-84f2-d92046c15c05","ios":"levelo://app?vid=3dd8d5a5-1eb0-4d5c-84f2-d92046c15c05"},"vehicle_type_id":"4","last_reported":1718737572,"current_range_meters":14000,"station_id":"ce4bgjh2rcd13ifvqbg0","pricing_plan_id":"cebpf4jnsgd1na2vs0mg"},{"bike_id":"7af61c13-53e1-4125-a8d6-878732aed33d","system_id":"levelo_inurba_marseille","lat":43.299707,"lon":5.384859,"is_reserved":false,"is_disabled":false,"rental_uris":{"android":"levelo://app?vid=7af61c13-53e1-4125-a8d6-878732aed33d","ios":"levelo://app?vid=7af61c13-53e1-4125-a8d6-878732aed33d"},"vehicle_type_id":"4","last_reported":1718737572,"current_range_meters":2800,"station_id":"ce4bgj92rcd13ifvqbd0","pricing_plan_id":"cebpf4jnsgd1na2vs0mg"},{"bike_id":"1380cf47-8376-48ab-9398-c806f9dee56d","system_id":"levelo_inurba_marseille","lat":43.298743,"lon":5.375985,"is_reserved":false,"is_disabled":false,"rental_uris":{"android":"levelo://app?vid=1380cf47-8376-48ab-9398-c806f9dee56d","ios":"levelo://app?vid=1380cf47-8376-48ab-9398-c806f9dee56d"},"vehicle_type_id":"4","last_reported":1718737572,"current_range_meters":28400,"station_id":"ce4bh0h2rcd13ifvqd60","pricing_plan_id":"cebpf4jnsgd1na2vs0mg"},{"bike_id":"a7189934-fc97-42ef-b09a-ed65686dd2ab","system_id":"levelo_inurba_marseille","lat":43.30085,"lon":5.390856,"is_reserved":false,"is_disabled":false,"rental_uris":{"android":"levelo://app?vid=a7189934-fc97-42ef-b09a-ed65686dd2ab","ios":"levelo://app?vid=a7189934-fc97-42ef-b09a-ed65686dd2ab"},"vehicle_type_id":"4","last_reported":1718737572,"current_range_meters":6800,"station_id":"ce4bh192rcd13ifvqdb0","pricing_plan_id":"cebpf4jnsgd1na2vs0mg"},{"bike_id":"2a42502e-4a26-4730-a36d-a07ad7c25a95","system_id":"levelo_inurba_marseille","lat":43.318439,"lon":5.387073,"is_reserved":false,"is_disabled":false,"rental_uris":{"android":"levelo://app?vid=2a42502e-4a26-4730-a36d-a07ad7c25a95","ios":"levelo://app?vid=2a42502e-4a26-4730-a36d-a07ad7c25a95"},"vehicle_type_id":"4","last_reported":1718737572,"current_range_meters":10000,"station_id":"","pricing_plan_id":"cebpf4jnsgd1na2vs0mg"},{"bike_id":"24315d8d-75fa-4f83-ae24-ea07a75eef5a","system_id":"levelo_inurba_marseille","lat":43.29621,"lon":5.37156,"is_reserved":false,"is_disabled":false,"rental_uris":{"android":"levelo://app?vid=24315d8d-75fa-4f83-ae24-ea07a75eef5a","ios":"levelo://app?vid=24315d8d-75fa-4f83-ae24-ea07a75eef5a"},"vehicle_type_id":"4","last_reported":1718737572,"current_range_meters":27200,"station_id":"ce4bgnh2rcd13ifvqc0g","pricing_plan_id":"cebpf4jnsgd1na2vs0mg"},{"bike_id":"ffaeb1dc-6147-4825-9143-b0c117d31182","system_id":"levelo_inurba_marseille","lat":43.296921,"lon":5.376579,"is_reserved":false,"is_disabled":false,"rental_uris":{"android":"levelo://app?vid=ffaeb1dc-6147-4825-9143-b0c117d31182","ios":"levelo://app?vid=ffaeb1dc-6147-4825-9143-b0c117d31182"},"vehicle_type_id":"4","last_reported":1718737572,"current_range_meters":13600,"station_id":"ce4bgkh2rcd13ifvqbl0","pricing_plan_id":"cebpf4jnsgd1na2vs0mg"},{"bike_id":"6a9f3bd3-eaae-426e-88e3-1fbe59acaee6","system_id":"levelo_inurba_marseille","lat":43.296935,"lon":5.376544,"is_reserved":false,"is_disabled":false,"rental_uris":{"android":"levelo://app?vid=6a9f3bd3-eaae-426e-88e3-1fbe59acaee6","ios":"levelo://app?vid=6a9f3bd3-eaae-426e-88e3-1fbe59acaee6"},"vehicle_type_id":"4","last_reported":1718737572,"current_range_meters":27200,"station_id":"ce4bgkh2rcd13ifvqbl0","pricing_plan_id":"cebpf4jnsgd1na2vs0mg"},{"bike_id":"320ca938-cc40-454b-8c59-45cd9d7573fe","system_id":"levelo_inurba_marseille","lat":43.299028,"lon":5.381509,"is_reserved":false,"is_disabled":false,"rental_uris":{"android":"levelo://app?vid=320ca938-cc40-454b-8c59-45cd9d7573fe","ios":"levelo://app?vid=320ca938-cc40-454b-8c59-45cd9d7573fe"},"vehicle_type_id":"4","last_reported":1718737572,"current_range_meters":30400,"station_id":"ce4bgj12rcd13ifvqbc0","pricing_plan_id":"cebpf4jnsgd1na2vs0mg"},{"bike_id":"49372e38-4532-4cfb-b67e-36c5408d12f4","system_id":"levelo_inurba_marseille","lat":43.299028,"lon":5.381509,"is_reserved":false,"is_disabled":false,"rental_uris":{"android":"levelo://app?vid=49372e38-4532-4cfb-b67e-36c5408d12f4","ios":"levelo://app?vid=49372e38-4532-4cfb-b67e-36c5408d12f4"},"vehicle_type_id":"4","last_reported":1718737572,"current_range_meters":4400,"station_id":"ce4bgj12rcd13ifvqbc0","pricing_plan_id":"cebpf4jnsgd1na2vs0mg"},{"bike_id":"4721ffab-e775-4d6d-9928-76d46ac92a79","system_id":"levelo_inurba_marseille","lat":43.296921,"lon":5.376579,"is_reserved":false,"is_disabled":false,"rental_uris":{"android":"levelo://app?vid=4721ffab-e775-4d6d-9928-76d46ac92a79","ios":"levelo://app?vid=4721ffab-e775-4d6d-9928-76d46ac92a79"},"vehicle_type_id":"4","last_reported":1718737572,"current_range_meters":31200,"station_id":"ce4bgkh2rcd13ifvqbl0","pricing_plan_id":"cebpf4jnsgd1na2vs0mg"},{"bike_id":"71c33a08-51f6-487b-9085-c0e9212091cc","system_id":"levelo_inurba_marseille","lat":43.31753,"lon":5.39016,"is_reserved":false,"is_disabled":false,"rental_uris":{"android":"levelo://app?vid=71c33a08-51f6-487b-9085-c0e9212091cc","ios":"levelo://app?vid=71c33a08-51f6-487b-9085-c0e9212091cc"},"vehicle_type_id":"4","last_reported":1718737572,"current_range_meters":12400,"station_id":"ce4bhqp2rcd13ifvqhng","pricing_plan_id":"cebpf4jnsgd1na2vs0mg"},{"bike_id":"b4a013d4-72b7-4175-b432-4c06a435ad02","system_id":"levelo_inurba_marseille","lat":43.294162,"lon":5.386292,"is_reserved":false,"is_disabled":false,"rental_uris":{"android":"levelo://app?vid=b4a013d4-72b7-4175-b432-4c06a435ad02","ios":"levelo://app?vid=b4a013d4-72b7-4175-b432-4c06a435ad02"},"vehicle_type_id":"4","last_reported":1718737572,"current_range_meters":31200,"station_id":"ce4bh2h2rcd13ifvqdh0","pricing_plan_id":"cebpf4jnsgd1na2vs0mg"},{"bike_id":"65eb5264-e9e4-4bc5-9a12-76c1a2d43cce","system_id":"levelo_inurba_marseille","lat":43.304293,"lon":5.38839,"is_reserved":false,"is_disabled":false,"rental_uris":{"android":"levelo://app?vid=65eb5264-e9e4-4bc5-9a12-76c1a2d43cce","ios":"levelo://app?vid=65eb5264-e9e4-4bc5-9a12-76c1a2d43cce"},"vehicle_type_id":"4","last_reported":1718737572,"current_range_meters":20000,"station_id":"ce4bgk12rcd13ifvqbi0","pricing_plan_id":"cebpf4jnsgd1na2vs0mg"},{"bike_id":"8fcf0d42-9f13-4c62-9fff-3a62f2d26cb4","system_id":"levelo_inurba_marseille","lat":43.29579,"lon":5.37511,"is_reserved":false,"is_disabled":false,"rental_uris":{"android":"levelo://app?vid=8fcf0d42-9f13-4c62-9fff-3a62f2d26cb4","ios":"levelo://app?vid=8fcf0d42-9f13-4c62-9fff-3a62f2d26cb4"},"vehicle_type_id":"4","last_reported":1718737572,"current_range_meters":30000,"station_id":"ce4bgh92rcd13ifvqb50","pricing_plan_id":"cebpf4jnsgd1na2vs0mg"},{"bike_id":"4b0fc09e-4fde-479a-acf0-fa5ef06964d1","system_id":"levelo_inurba_marseille","lat":43.29581,"lon":5.3752,"is_reserved":false,"is_disabled":false,"rental_uris":{"android":"levelo://app?vid=4b0fc09e-4fde-479a-acf0-fa5ef06964d1","ios":"levelo://app?vid=4b0fc09e-4fde-479a-acf0-fa5ef06964d1"},"vehicle_type_id":"4","last_reported":1718737572,"current_range_meters":0,"station_id":"ce4bgh92rcd13ifvqb50","pricing_plan_id":"cebpf4jnsgd1na2vs0mg"},{"bike_id":"a6b429cb-f032-42e1-a81e-22c313faebce","system_id":"levelo_inurba_marseille","lat":43.30431,"lon":5.38881,"is_reserved":false,"is_disabled":false,"rental_uris":{"android":"levelo://app?vid=a6b429cb-f032-42e1-a81e-22c313faebce","ios":"levelo://app?vid=a6b429cb-f032-42e1-a81e-22c313faebce"},"vehicle_type_id":"4","last_reported":1718737572,"current_range_meters":2400,"station_id":"ce4bgk12rcd13ifvqbi0","pricing_plan_id":"cebpf4jnsgd1na2vs0mg"},{"bike_id":"817a413a-45cf-47fa-97b6-668092496eb9","system_id":"levelo_inurba_marseille","lat":43.30436,"lon":5.38886,"is_reserved":false,"is_disabled":false,"rental_uris":{"android":"levelo://app?vid=817a413a-45cf-47fa-97b6-668092496eb9","ios":"levelo://app?vid=817a413a-45cf-47fa-97b6-668092496eb9"},"vehicle_type_id":"4","last_reported":1718737572,"current_range_meters":22000,"station_id":"ce4bgk12rcd13ifvqbi0","pricing_plan_id":"cebpf4jnsgd1na2vs0mg"},{"bike_id":"1ddc7331-6a6a-49f4-b2ee-cd0e8dea8400","system_id":"levelo_inurba_marseille","lat":43.30431,"lon":5.3889,"is_reserved":false,"is_disabled":false,"rental_uris":{"android":"levelo://app?vid=1ddc7331-6a6a-49f4-b2ee-cd0e8dea8400","ios":"levelo://app?vid=1ddc7331-6a6a-49f4-b2ee-cd0e8dea8400"},"vehicle_type_id":"4","last_reported":1718737572,"current_range_meters":25200,"station_id":"ce4bgk12rcd13ifvqbi0","pricing_plan_id":"cebpf4jnsgd1na2vs0mg"},{"bike_id":"ecf5885d-5801-4af1-b13a-e70867df7810","system_id":"levelo_inurba_marseille","lat":43.298037,"lon":5.381066,"is_reserved":false,"is_disabled":false,"rental_uris":{"android":"levelo://app?vid=ecf5885d-5801-4af1-b13a-e70867df7810","ios":"levelo://app?vid=ecf5885d-5801-4af1-b13a-e70867df7810"},"vehicle_type_id":"4","last_reported":1718737572,"current_range_meters":0,"station_id":"ce4bgip2rcd13ifvqbb0","pricing_plan_id":"cebpf4jnsgd1na2vs0mg"},{"bike_id":"71f8d46f-d607-48af-9317-44ac0590d9e9","system_id":"levelo_inurba_marseille","lat":43.30428,"lon":5.38892,"is_reserved":false,"is_disabled":false,"rental_uris":{"android":"levelo://app?vid=71f8d46f-d607-48af-9317-44ac0590d9e9","ios":"levelo://app?vid=71f8d46f-d607-48af-9317-44ac0590d9e9"},"vehicle_type_id":"4","last_reported":1718737572,"current_range_meters":17600,"station_id":"ce4bgk12rcd13ifvqbi0","pricing_plan_id":"cebpf4jnsgd1na2vs0mg"},{"bike_id":"36d19fe7-a1ff-4dc5-9921-d81e4072e2f0","system_id":"levelo_inurba_marseille","lat":43.254945,"lon":5.376454,"is_reserved":false,"is_disabled":false,"rental_uris":{"android":"levelo://app?vid=36d19fe7-a1ff-4dc5-9921-d81e4072e2f0","ios":"levelo://app?vid=36d19fe7-a1ff-4dc5-9921-d81e4072e2f0"},"vehicle_type_id":"4","last_reported":1718737572,"current_range_meters":18400,"station_id":"ce4bhh12rcd13ifvqff0","pricing_plan_id":"cebpf4jnsgd1na2vs0mg"},{"bike_id":"b1835b9c-b23f-4ebe-bf80-4741dbda30ec","system_id":"levelo_inurba_marseille","lat":43.29985,"lon":5.38483,"is_reserved":false,"is_disabled":false,"rental_uris":{"android":"levelo://app?vid=b1835b9c-b23f-4ebe-bf80-4741dbda30ec","ios":"levelo://app?vid=b1835b9c-b23f-4ebe-bf80-4741dbda30ec"},"vehicle_type_id":"4","last_reported":1718737572,"current_range_meters":0,"station_id":"ce4bgj92rcd13ifvqbd0","pricing_plan_id":"cebpf4jnsgd1na2vs0mg"},{"bike_id":"3b5ec79f-b7eb-4d0b-b0ec-5af52fa0f41d","system_id":"levelo_inurba_marseille","lat":43.295279,"lon":5.375048,"is_reserved":false,"is_disabled":false,"rental_uris":{"android":"levelo://app?vid=3b5ec79f-b7eb-4d0b-b0ec-5af52fa0f41d","ios":"levelo://app?vid=3b5ec79f-b7eb-4d0b-b0ec-5af52fa0f41d"},"vehicle_type_id":"4","last_reported":1718737572,"current_range_meters":18800,"station_id":"ce4bgkp2rcd13ifvqbmg","pricing_plan_id":"cebpf4jnsgd1na2vs0mg"},{"bike_id":"a334c8fc-22b7-4bed-a081-672924445563","system_id":"levelo_inurba_marseille","lat":43.299717,"lon":5.38491,"is_reserved":false,"is_disabled":false,"rental_uris":{"android":"levelo://app?vid=a334c8fc-22b7-4bed-a081-672924445563","ios":"levelo://app?vid=a334c8fc-22b7-4bed-a081-672924445563"},"vehicle_type_id":"4","last_reported":1718737572,"current_range_meters":0,"station_id":"ce4bgj92rcd13ifvqbd0","pricing_plan_id":"cebpf4jnsgd1na2vs0mg"},{"bike_id":"12d9611d-a4eb-48fa-a957-247f4ae0c8a8","system_id":"levelo_inurba_marseille","lat":43.295279,"lon":5.375048,"is_reserved":false,"is_disabled":false,"rental_uris":{"android":"levelo://app?vid=12d9611d-a4eb-48fa-a957-247f4ae0c8a8","ios":"levelo://app?vid=12d9611d-a4eb-48fa-a957-247f4ae0c8a8"},"vehicle_type_id":"4","last_reported":1718737572,"current_range_meters":17600,"station_id":"ce4bgkp2rcd13ifvqbmg","pricing_plan_id":"cebpf4jnsgd1na2vs0mg"},{"bike_id":"78430a7e-a74d-4b09-bb0a-7fbec2bebd29","system_id":"levelo_inurba_marseille","lat":43.29969,"lon":5.38495,"is_reserved":false,"is_disabled":false,"rental_uris":{"android":"levelo://app?vid=78430a7e-a74d-4b09-bb0a-7fbec2bebd29","ios":"levelo://app?vid=78430a7e-a74d-4b09-bb0a-7fbec2bebd29"},"vehicle_type_id":"4","last_reported":1718737572,"current_range_meters":0,"station_id":"ce4bgj92rcd13ifvqbd0","pricing_plan_id":"cebpf4jnsgd1na2vs0mg"},{"bike_id":"4c1b67fb-6e9e-40ae-92bf-1ba37a48ff5f","system_id":"levelo_inurba_marseille","lat":43.299724,"lon":5.384848,"is_reserved":false,"is_disabled":false,"rental_uris":{"android":"levelo://app?vid=4c1b67fb-6e9e-40ae-92bf-1ba37a48ff5f","ios":"levelo://app?vid=4c1b67fb-6e9e-40ae-92bf-1ba37a48ff5f"},"vehicle_type_id":"4","last_reported":1718737572,"current_range_meters":0,"station_id":"ce4bgj92rcd13ifvqbd0","pricing_plan_id":"cebpf4jnsgd1na2vs0mg"},{"bike_id":"79cd0af6-f514-432a-9c18-e294a6d2cd33","system_id":"levelo_inurba_marseille","lat":43.299724,"lon":5.384848,"is_reserved":false,"is_disabled":false,"rental_uris":{"android":"levelo://app?vid=79cd0af6-f514-432a-9c18-e294a6d2cd33","ios":"levelo://app?vid=79cd0af6-f514-432a-9c18-e294a6d2cd33"},"vehicle_type_id":"4","last_reported":1718737572,"current_range_meters":12000,"station_id":"ce4bgj92rcd13ifvqbd0","pricing_plan_id":"cebpf4jnsgd1na2vs0mg"},{"bike_id":"204778f2-99b7-48f8-a0fa-3e6dc1a32117","system_id":"levelo_inurba_marseille","lat":43.299717,"lon":5.384845,"is_reserved":false,"is_disabled":false,"rental_uris":{"android":"levelo://app?vid=204778f2-99b7-48f8-a0fa-3e6dc1a32117","ios":"levelo://app?vid=204778f2-99b7-48f8-a0fa-3e6dc1a32117"},"vehicle_type_id":"4","last_reported":1718737572,"current_range_meters":0,"station_id":"ce4bgj92rcd13ifvqbd0","pricing_plan_id":"cebpf4jnsgd1na2vs0mg"},{"bike_id":"dd24b706-ecb6-4d45-b271-682ca75f6e9a","system_id":"levelo_inurba_marseille","lat":43.29384,"lon":5.36287,"is_reserved":false,"is_disabled":false,"rental_uris":{"android":"levelo://app?vid=dd24b706-ecb6-4d45-b271-682ca75f6e9a","ios":"levelo://app?vid=dd24b706-ecb6-4d45-b271-682ca75f6e9a"},"vehicle_type_id":"4","last_reported":1718737572,"current_range_meters":6400,"station_id":"","pricing_plan_id":"cebpf4jnsgd1na2vs0mg"},{"bike_id":"3d62c4a8-f249-48fc-8f41-bea4855b0be6","system_id":"levelo_inurba_marseille","lat":43.32367,"lon":5.388836,"is_reserved":false,"is_disabled":false,"rental_uris":{"android":"levelo://app?vid=3d62c4a8-f249-48fc-8f41-bea4855b0be6","ios":"levelo://app?vid=3d62c4a8-f249-48fc-8f41-bea4855b0be6"},"vehicle_type_id":"4","last_reported":1718737572,"current_range_meters":0,"station_id":"ce4bhqp2rcd13ifvqhog","pricing_plan_id":"cebpf4jnsgd1na2vs0mg"},{"bike_id":"39631a18-cc8e-4ca0-80a9-954a059bd20b","system_id":"levelo_inurba_marseille","lat":43.2936,"lon":5.36303,"is_reserved":false,"is_disabled":false,"rental_uris":{"android":"levelo://app?vid=39631a18-cc8e-4ca0-80a9-954a059bd20b","ios":"levelo://app?vid=39631a18-cc8e-4ca0-80a9-954a059bd20b"},"vehicle_type_id":"4","last_reported":1718737572,"current_range_meters":2000,"station_id":"","pricing_plan_id":"cebpf4jnsgd1na2vs0mg"},{"bike_id":"45ce4615-32a5-46e7-8dfa-8687015ca759","system_id":"levelo_inurba_marseille","lat":43.29602,"lon":5.381084,"is_reserved":false,"is_disabled":false,"rental_uris":{"android":"levelo://app?vid=45ce4615-32a5-46e7-8dfa-8687015ca759","ios":"levelo://app?vid=45ce4615-32a5-46e7-8dfa-8687015ca759"},"vehicle_type_id":"4","last_reported":1718737572,"current_range_meters":2000,"station_id":"ce4bgl12rcd13ifvqbo0","pricing_plan_id":"cebpf4jnsgd1na2vs0mg"},{"bike_id":"54597140-2516-42d7-aa61-a5d3ffe06cd4","system_id":"levelo_inurba_marseille","lat":43.29284,"lon":5.36847,"is_reserved":false,"is_disabled":false,"rental_uris":{"android":"levelo://app?vid=54597140-2516-42d7-aa61-a5d3ffe06cd4","ios":"levelo://app?vid=54597140-2516-42d7-aa61-a5d3ffe06cd4"},"vehicle_type_id":"4","last_reported":1718737572,"current_range_meters":15600,"station_id":"ce4bhbp2rcd13ifvqesg","pricing_plan_id":"cebpf4jnsgd1na2vs0mg"},{"bike_id":"d9ffc776-d7ff-4678-85f5-a26fd32365c7","system_id":"levelo_inurba_marseille","lat":43.293259,"lon":5.371586,"is_reserved":false,"is_disabled":false,"rental_uris":{"android":"levelo://app?vid=d9ffc776-d7ff-4678-85f5-a26fd32365c7","ios":"levelo://app?vid=d9ffc776-d7ff-4678-85f5-a26fd32365c7"},"vehicle_type_id":"4","last_reported":1718737572,"current_range_meters":0,"station_id":"ce4bgh92rcd13ifvqb40","pricing_plan_id":"cebpf4jnsgd1na2vs0mg"},{"bike_id":"240b4292-9c2d-4b5c-8d9c-11583dd87edc","system_id":"levelo_inurba_marseille","lat":43.29308,"lon":5.37174,"is_reserved":false,"is_disabled":false,"rental_uris":{"android":"levelo://app?vid=240b4292-9c2d-4b5c-8d9c-11583dd87edc","ios":"levelo://app?vid=240b4292-9c2d-4b5c-8d9c-11583dd87edc"},"vehicle_type_id":"4","last_reported":1718737572,"current_range_meters":20400,"station_id":"ce4bgh92rcd13ifvqb40","pricing_plan_id":"cebpf4jnsgd1na2vs0mg"},{"bike_id":"b2db3048-1261-4315-9e35-1372922caada","system_id":"levelo_inurba_marseille","lat":43.29278,"lon":5.36837,"is_reserved":false,"is_disabled":false,"rental_uris":{"android":"levelo://app?vid=b2db3048-1261-4315-9e35-1372922caada","ios":"levelo://app?vid=b2db3048-1261-4315-9e35-1372922caada"},"vehicle_type_id":"4","last_reported":1718737572,"current_range_meters":30800,"station_id":"ce4bhbp2rcd13ifvqesg","pricing_plan_id":"cebpf4jnsgd1na2vs0mg"},{"bike_id":"499d001c-ed0a-4eaf-a71d-08376a0151da","system_id":"levelo_inurba_marseille","lat":43.29277,"lon":5.368371,"is_reserved":false,"is_disabled":false,"rental_uris":{"android":"levelo://app?vid=499d001c-ed0a-4eaf-a71d-08376a0151da","ios":"levelo://app?vid=499d001c-ed0a-4eaf-a71d-08376a0151da"},"vehicle_type_id":"4","last_reported":1718737572,"current_range_meters":31200,"station_id":"ce4bhbp2rcd13ifvqesg","pricing_plan_id":"cebpf4jnsgd1na2vs0mg"},{"bike_id":"5b43ccf7-21b3-4eb2-b34d-d13839876ee9","system_id":"levelo_inurba_marseille","lat":43.292749,"lon":5.368402,"is_reserved":false,"is_disabled":false,"rental_uris":{"android":"levelo://app?vid=5b43ccf7-21b3-4eb2-b34d-d13839876ee9","ios":"levelo://app?vid=5b43ccf7-21b3-4eb2-b34d-d13839876ee9"},"vehicle_type_id":"4","last_reported":1718737572,"current_range_meters":16800,"station_id":"ce4bhbp2rcd13ifvqesg","pricing_plan_id":"cebpf4jnsgd1na2vs0mg"},{"bike_id":"e0556149-cb36-4584-a7bb-bb9e5e5d41e6","system_id":"levelo_inurba_marseille","lat":43.292987,"lon":5.374602,"is_reserved":false,"is_disabled":false,"rental_uris":{"android":"levelo://app?vid=e0556149-cb36-4584-a7bb-bb9e5e5d41e6","ios":"levelo://app?vid=e0556149-cb36-4584-a7bb-bb9e5e5d41e6"},"vehicle_type_id":"4","last_reported":1718737572,"current_range_meters":0,"station_id":"ce4bgi12rcd13ifvqb70","pricing_plan_id":"cebpf4jnsgd1na2vs0mg"},{"bike_id":"4ab2f8f9-5d68-4e1e-a86f-dbfd43d45de5","system_id":"levelo_inurba_marseille","lat":43.292935,"lon":5.374679,"is_reserved":false,"is_disabled":false,"rental_uris":{"android":"levelo://app?vid=4ab2f8f9-5d68-4e1e-a86f-dbfd43d45de5","ios":"levelo://app?vid=4ab2f8f9-5d68-4e1e-a86f-dbfd43d45de5"},"vehicle_type_id":"4","last_reported":1718737572,"current_range_meters":0,"station_id":"ce4bgi12rcd13ifvqb70","pricing_plan_id":"cebpf4jnsgd1na2vs0mg"},{"bike_id":"8c24d27d-3cd7-417e-a268-b381ebdd5f81","system_id":"levelo_inurba_marseille","lat":43.2936,"lon":5.37835,"is_reserved":false,"is_disabled":false,"rental_uris":{"android":"levelo://app?vid=8c24d27d-3cd7-417e-a268-b381ebdd5f81","ios":"levelo://app?vid=8c24d27d-3cd7-417e-a268-b381ebdd5f81"},"vehicle_type_id":"4","last_reported":1718737572,"current_range_meters":31200,"station_id":"ce4bgjh2rcd13ifvqbf0","pricing_plan_id":"cebpf4jnsgd1na2vs0mg"},{"bike_id":"9f8ce10a-d0fb-4b5e-ad57-1eb65feba0b1","system_id":"levelo_inurba_marseille","lat":43.30299,"lon":5.39204,"is_reserved":false,"is_disabled":false,"rental_uris":{"android":"levelo://app?vid=9f8ce10a-d0fb-4b5e-ad57-1eb65feba0b1","ios":"levelo://app?vid=9f8ce10a-d0fb-4b5e-ad57-1eb65feba0b1"},"vehicle_type_id":"4","last_reported":1718737572,"current_range_meters":17600,"station_id":"ce4bgkh2rcd13ifvqbk0","pricing_plan_id":"cebpf4jnsgd1na2vs0mg"},{"bike_id":"ca32da9b-3701-4274-a658-eefcf47237c9","system_id":"levelo_inurba_marseille","lat":43.303002,"lon":5.392142,"is_reserved":false,"is_disabled":false,"rental_uris":{"android":"levelo://app?vid=ca32da9b-3701-4274-a658-eefcf47237c9","ios":"levelo://app?vid=ca32da9b-3701-4274-a658-eefcf47237c9"},"vehicle_type_id":"4","last_reported":1718737572,"current_range_meters":400,"station_id":"ce4bgkh2rcd13ifvqbk0","pricing_plan_id":"cebpf4jnsgd1na2vs0mg"},{"bike_id":"7ded55a0-a509-4a2f-bf79-615705087f14","system_id":"levelo_inurba_marseille","lat":43.29234,"lon":5.36122,"is_reserved":false,"is_disabled":false,"rental_uris":{"android":"levelo://app?vid=7ded55a0-a509-4a2f-bf79-615705087f14","ios":"levelo://app?vid=7ded55a0-a509-4a2f-bf79-615705087f14"},"vehicle_type_id":"4","last_reported":1718737572,"current_range_meters":3600,"station_id":"ce4bhbh2rcd13ifvqeqg","pricing_plan_id":"cebpf4jnsgd1na2vs0mg"},{"bike_id":"dc62f98c-c4e2-4997-89a1-480b709a33ca","system_id":"levelo_inurba_marseille","lat":43.300852,"lon":5.390859,"is_reserved":false,"is_disabled":false,"rental_uris":{"android":"levelo://app?vid=dc62f98c-c4e2-4997-89a1-480b709a33ca","ios":"levelo://app?vid=dc62f98c-c4e2-4997-89a1-480b709a33ca"},"vehicle_type_id":"4","last_reported":1718737572,"current_range_meters":7200,"station_id":"ce4bh192rcd13ifvqdb0","pricing_plan_id":"cebpf4jnsgd1na2vs0mg"},{"bike_id":"578c18c8-feba-40fc-bd01-22ca093638c9","system_id":"levelo_inurba_marseille","lat":43.292311,"lon":5.360731,"is_reserved":false,"is_disabled":false,"rental_uris":{"android":"levelo://app?vid=578c18c8-feba-40fc-bd01-22ca093638c9","ios":"levelo://app?vid=578c18c8-feba-40fc-bd01-22ca093638c9"},"vehicle_type_id":"4","last_reported":1718737572,"current_range_meters":10000,"station_id":"ce4bhbh2rcd13ifvqeqg","pricing_plan_id":"cebpf4jnsgd1na2vs0mg"},{"bike_id":"0349f9ef-9cee-4a5c-96b5-175762dd68bb","system_id":"levelo_inurba_marseille","lat":43.30085,"lon":5.390856,"is_reserved":false,"is_disabled":false,"rental_uris":{"android":"levelo://app?vid=0349f9ef-9cee-4a5c-96b5-175762dd68bb","ios":"levelo://app?vid=0349f9ef-9cee-4a5c-96b5-175762dd68bb"},"vehicle_type_id":"4","last_reported":1718737572,"current_range_meters":400,"station_id":"ce4bh192rcd13ifvqdb0","pricing_plan_id":"cebpf4jnsgd1na2vs0mg"},{"bike_id":"c924fce8-8145-492e-b0e2-c99341a8292e","system_id":"levelo_inurba_marseille","lat":43.300852,"lon":5.390859,"is_reserved":false,"is_disabled":false,"rental_uris":{"android":"levelo://app?vid=c924fce8-8145-492e-b0e2-c99341a8292e","ios":"levelo://app?vid=c924fce8-8145-492e-b0e2-c99341a8292e"},"vehicle_type_id":"4","last_reported":1718737572,"current_range_meters":800,"station_id":"ce4bh192rcd13ifvqdb0","pricing_plan_id":"cebpf4jnsgd1na2vs0mg"},{"bike_id":"b9cb67d3-2bca-4c82-a865-5321feb81eaa","system_id":"levelo_inurba_marseille","lat":43.30085,"lon":5.390856,"is_reserved":false,"is_disabled":false,"rental_uris":{"android":"levelo://app?vid=b9cb67d3-2bca-4c82-a865-5321feb81eaa","ios":"levelo://app?vid=b9cb67d3-2bca-4c82-a865-5321feb81eaa"},"vehicle_type_id":"4","last_reported":1718737572,"current_range_meters":9600,"station_id":"ce4bh192rcd13ifvqdb0","pricing_plan_id":"cebpf4jnsgd1na2vs0mg"},{"bike_id":"6f4affdd-47a6-45d9-86f5-4aa93f0330b0","system_id":"levelo_inurba_marseille","lat":43.30085,"lon":5.390856,"is_reserved":false,"is_disabled":false,"rental_uris":{"android":"levelo://app?vid=6f4affdd-47a6-45d9-86f5-4aa93f0330b0","ios":"levelo://app?vid=6f4affdd-47a6-45d9-86f5-4aa93f0330b0"},"vehicle_type_id":"4","last_reported":1718737572,"current_range_meters":24000,"station_id":"ce4bh192rcd13ifvqdb0","pricing_plan_id":"cebpf4jnsgd1na2vs0mg"},{"bike_id":"ccd30067-7fd1-464f-9ba9-35d250546402","system_id":"levelo_inurba_marseille","lat":43.298764,"lon":5.388973,"is_reserved":false,"is_disabled":false,"rental_uris":{"android":"levelo://app?vid=ccd30067-7fd1-464f-9ba9-35d250546402","ios":"levelo://app?vid=ccd30067-7fd1-464f-9ba9-35d250546402"},"vehicle_type_id":"4","last_reported":1718737572,"current_range_meters":15600,"station_id":"ce4bh392rcd13ifvqdl0","pricing_plan_id":"cebpf4jnsgd1na2vs0mg"},{"bike_id":"e9918c08-6f2a-44f0-92a9-1d7a1c1077b8","system_id":"levelo_inurba_marseille","lat":43.298764,"lon":5.388973,"is_reserved":false,"is_disabled":false,"rental_uris":{"android":"levelo://app?vid=e9918c08-6f2a-44f0-92a9-1d7a1c1077b8","ios":"levelo://app?vid=e9918c08-6f2a-44f0-92a9-1d7a1c1077b8"},"vehicle_type_id":"4","last_reported":1718737572,"current_range_meters":28400,"station_id":"ce4bh392rcd13ifvqdl0","pricing_plan_id":"cebpf4jnsgd1na2vs0mg"},{"bike_id":"5e9245da-d714-49c1-9dda-284db8642ee7","system_id":"levelo_inurba_marseille","lat":43.29197,"lon":5.35808,"is_reserved":false,"is_disabled":false,"rental_uris":{"android":"levelo://app?vid=5e9245da-d714-49c1-9dda-284db8642ee7","ios":"levelo://app?vid=5e9245da-d714-49c1-9dda-284db8642ee7"},"vehicle_type_id":"4","last_reported":1718737572,"current_range_meters":0,"station_id":"ce4bhb12rcd13ifvqel0","pricing_plan_id":"cebpf4jnsgd1na2vs0mg"},{"bike_id":"8a8de19c-b527-4566-b273-456157c6dd11","system_id":"levelo_inurba_marseille","lat":43.313291,"lon":5.396838,"is_reserved":false,"is_disabled":false,"rental_uris":{"android":"levelo://app?vid=8a8de19c-b527-4566-b273-456157c6dd11","ios":"levelo://app?vid=8a8de19c-b527-4566-b273-456157c6dd11"},"vehicle_type_id":"4","last_reported":1718737572,"current_range_meters":25600,"station_id":"ce4bgvp2rcd13ifvqcu0","pricing_plan_id":"cebpf4jnsgd1na2vs0mg"},{"bike_id":"feb7905a-338d-4d0f-92dc-27024731d5ac","system_id":"levelo_inurba_marseille","lat":43.309038,"lon":5.396546,"is_reserved":false,"is_disabled":false,"rental_uris":{"android":"levelo://app?vid=feb7905a-338d-4d0f-92dc-27024731d5ac","ios":"levelo://app?vid=feb7905a-338d-4d0f-92dc-27024731d5ac"},"vehicle_type_id":"4","last_reported":1718737572,"current_range_meters":10000,"station_id":"ce4bh012rcd13ifvqcv0","pricing_plan_id":"cebpf4jnsgd1na2vs0mg"},{"bike_id":"d1c67e0b-1e84-4b5d-9230-9f068dd711af","system_id":"levelo_inurba_marseille","lat":43.29196,"lon":5.35801,"is_reserved":false,"is_disabled":false,"rental_uris":{"android":"levelo://app?vid=d1c67e0b-1e84-4b5d-9230-9f068dd711af","ios":"levelo://app?vid=d1c67e0b-1e84-4b5d-9230-9f068dd711af"},"vehicle_type_id":"4","last_reported":1718737572,"current_range_meters":26000,"station_id":"ce4bhb12rcd13ifvqel0","pricing_plan_id":"cebpf4jnsgd1na2vs0mg"},{"bike_id":"c4dbb9a2-bd59-4833-a569-93b7a86b9d7c","system_id":"levelo_inurba_marseille","lat":43.313291,"lon":5.396838,"is_reserved":false,"is_disabled":false,"rental_uris":{"android":"levelo://app?vid=c4dbb9a2-bd59-4833-a569-93b7a86b9d7c","ios":"levelo://app?vid=c4dbb9a2-bd59-4833-a569-93b7a86b9d7c"},"vehicle_type_id":"4","last_reported":1718737572,"current_range_meters":31600,"station_id":"ce4bgvp2rcd13ifvqcu0","pricing_plan_id":"cebpf4jnsgd1na2vs0mg"},{"bike_id":"c5a3453a-295f-4555-89f1-041aacafc297","system_id":"levelo_inurba_marseille","lat":43.308888,"lon":5.396392,"is_reserved":false,"is_disabled":false,"rental_uris":{"android":"levelo://app?vid=c5a3453a-295f-4555-89f1-041aacafc297","ios":"levelo://app?vid=c5a3453a-295f-4555-89f1-041aacafc297"},"vehicle_type_id":"4","last_reported":1718737572,"current_range_meters":0,"station_id":"ce4bh012rcd13ifvqcv0","pricing_plan_id":"cebpf4jnsgd1na2vs0mg"},{"bike_id":"5c401bc8-bd63-479c-ac69-0197c96f0220","system_id":"levelo_inurba_marseille","lat":43.313291,"lon":5.396838,"is_reserved":false,"is_disabled":false,"rental_uris":{"android":"levelo://app?vid=5c401bc8-bd63-479c-ac69-0197c96f0220","ios":"levelo://app?vid=5c401bc8-bd63-479c-ac69-0197c96f0220"},"vehicle_type_id":"4","last_reported":1718737572,"current_range_meters":9600,"station_id":"ce4bgvp2rcd13ifvqcu0","pricing_plan_id":"cebpf4jnsgd1na2vs0mg"},{"bike_id":"9541fc02-8f4c-4552-b8af-cfcb771b1030","system_id":"levelo_inurba_marseille","lat":43.309038,"lon":5.396546,"is_reserved":false,"is_disabled":false,"rental_uris":{"android":"levelo://app?vid=9541fc02-8f4c-4552-b8af-cfcb771b1030","ios":"levelo://app?vid=9541fc02-8f4c-4552-b8af-cfcb771b1030"},"vehicle_type_id":"4","last_reported":1718737572,"current_range_meters":6400,"station_id":"ce4bh012rcd13ifvqcv0","pricing_plan_id":"cebpf4jnsgd1na2vs0mg"},{"bike_id":"a32fc996-bcfb-4c36-af5a-30ae0f897696","system_id":"levelo_inurba_marseille","lat":43.309047,"lon":5.396551,"is_reserved":false,"is_disabled":false,"rental_uris":{"android":"levelo://app?vid=a32fc996-bcfb-4c36-af5a-30ae0f897696","ios":"levelo://app?vid=a32fc996-bcfb-4c36-af5a-30ae0f897696"},"vehicle_type_id":"4","last_reported":1718737572,"current_range_meters":2400,"station_id":"ce4bh012rcd13ifvqcv0","pricing_plan_id":"cebpf4jnsgd1na2vs0mg"},{"bike_id":"eb1c65af-b897-45c6-994f-3669d5b98edb","system_id":"levelo_inurba_marseille","lat":43.31334,"lon":5.3969,"is_reserved":false,"is_disabled":false,"rental_uris":{"android":"levelo://app?vid=eb1c65af-b897-45c6-994f-3669d5b98edb","ios":"levelo://app?vid=eb1c65af-b897-45c6-994f-3669d5b98edb"},"vehicle_type_id":"4","last_reported":1718737572,"current_range_meters":23600,"station_id":"ce4bgvp2rcd13ifvqcu0","pricing_plan_id":"cebpf4jnsgd1na2vs0mg"},{"bike_id":"b9b20cde-1071-47b7-b643-8c95ee849477","system_id":"levelo_inurba_marseille","lat":43.313291,"lon":5.396838,"is_reserved":false,"is_disabled":false,"rental_uris":{"android":"levelo://app?vid=b9b20cde-1071-47b7-b643-8c95ee849477","ios":"levelo://app?vid=b9b20cde-1071-47b7-b643-8c95ee849477"},"vehicle_type_id":"4","last_reported":1718737572,"current_range_meters":4800,"station_id":"ce4bgvp2rcd13ifvqcu0","pricing_plan_id":"cebpf4jnsgd1na2vs0mg"},{"bike_id":"74e21f19-87cc-4ae8-ab27-c32c0f2c65f0","system_id":"levelo_inurba_marseille","lat":43.30891,"lon":5.39645,"is_reserved":false,"is_disabled":false,"rental_uris":{"android":"levelo://app?vid=74e21f19-87cc-4ae8-ab27-c32c0f2c65f0","ios":"levelo://app?vid=74e21f19-87cc-4ae8-ab27-c32c0f2c65f0"},"vehicle_type_id":"4","last_reported":1718737572,"current_range_meters":0,"station_id":"ce4bh012rcd13ifvqcv0","pricing_plan_id":"cebpf4jnsgd1na2vs0mg"},{"bike_id":"f1a88ec0-3add-4fc4-855e-756e45af3b59","system_id":"levelo_inurba_marseille","lat":43.313291,"lon":5.396838,"is_reserved":false,"is_disabled":false,"rental_uris":{"android":"levelo://app?vid=f1a88ec0-3add-4fc4-855e-756e45af3b59","ios":"levelo://app?vid=f1a88ec0-3add-4fc4-855e-756e45af3b59"},"vehicle_type_id":"4","last_reported":1718737572,"current_range_meters":0,"station_id":"ce4bgvp2rcd13ifvqcu0","pricing_plan_id":"cebpf4jnsgd1na2vs0mg"},{"bike_id":"77c6fc75-e944-4091-97eb-6fb3897c6964","system_id":"levelo_inurba_marseille","lat":43.309047,"lon":5.396551,"is_reserved":false,"is_disabled":false,"rental_uris":{"android":"levelo://app?vid=77c6fc75-e944-4091-97eb-6fb3897c6964","ios":"levelo://app?vid=77c6fc75-e944-4091-97eb-6fb3897c6964"},"vehicle_type_id":"4","last_reported":1718737572,"current_range_meters":3200,"station_id":"ce4bh012rcd13ifvqcv0","pricing_plan_id":"cebpf4jnsgd1na2vs0mg"},{"bike_id":"3292f728-67c3-4c79-8236-981fde98355e","system_id":"levelo_inurba_marseille","lat":43.29529,"lon":5.385581,"is_reserved":false,"is_disabled":false,"rental_uris":{"android":"levelo://app?vid=3292f728-67c3-4c79-8236-981fde98355e","ios":"levelo://app?vid=3292f728-67c3-4c79-8236-981fde98355e"},"vehicle_type_id":"4","last_reported":1718737572,"current_range_meters":800,"station_id":"ce4bgih2rcd13ifvqba0","pricing_plan_id":"cebpf4jnsgd1na2vs0mg"},{"bike_id":"16feb937-be90-4fd9-aecc-f0e617630e0f","system_id":"levelo_inurba_marseille","lat":43.29529,"lon":5.385581,"is_reserved":false,"is_disabled":false,"rental_uris":{"android":"levelo://app?vid=16feb937-be90-4fd9-aecc-f0e617630e0f","ios":"levelo://app?vid=16feb937-be90-4fd9-aecc-f0e617630e0f"},"vehicle_type_id":"4","last_reported":1718737572,"current_range_meters":6000,"station_id":"ce4bgih2rcd13ifvqba0","pricing_plan_id":"cebpf4jnsgd1na2vs0mg"},{"bike_id":"d3dc2ec8-244f-4dfc-a3f3-dde503e6c6e0","system_id":"levelo_inurba_marseille","lat":43.29529,"lon":5.385581,"is_reserved":false,"is_disabled":false,"rental_uris":{"android":"levelo://app?vid=d3dc2ec8-244f-4dfc-a3f3-dde503e6c6e0","ios":"levelo://app?vid=d3dc2ec8-244f-4dfc-a3f3-dde503e6c6e0"},"vehicle_type_id":"4","last_reported":1718737572,"current_range_meters":3600,"station_id":"ce4bgih2rcd13ifvqba0","pricing_plan_id":"cebpf4jnsgd1na2vs0mg"},{"bike_id":"2a0e224d-73ed-4d94-a548-7bda19c90e2b","system_id":"levelo_inurba_marseille","lat":43.29529,"lon":5.385581,"is_reserved":false,"is_disabled":false,"rental_uris":{"android":"levelo://app?vid=2a0e224d-73ed-4d94-a548-7bda19c90e2b","ios":"levelo://app?vid=2a0e224d-73ed-4d94-a548-7bda19c90e2b"},"vehicle_type_id":"4","last_reported":1718737572,"current_range_meters":16800,"station_id":"ce4bgih2rcd13ifvqba0","pricing_plan_id":"cebpf4jnsgd1na2vs0mg"},{"bike_id":"1cb2f1b9-5f75-4317-91cd-249efb7f0934","system_id":"levelo_inurba_marseille","lat":43.29527,"lon":5.385462,"is_reserved":false,"is_disabled":false,"rental_uris":{"android":"levelo://app?vid=1cb2f1b9-5f75-4317-91cd-249efb7f0934","ios":"levelo://app?vid=1cb2f1b9-5f75-4317-91cd-249efb7f0934"},"vehicle_type_id":"4","last_reported":1718737572,"current_range_meters":1600,"station_id":"ce4bgih2rcd13ifvqba0","pricing_plan_id":"cebpf4jnsgd1na2vs0mg"},{"bike_id":"1da5964d-6d5a-4458-b140-f832c7c8968f","system_id":"levelo_inurba_marseille","lat":43.29529,"lon":5.385581,"is_reserved":false,"is_disabled":false,"rental_uris":{"android":"levelo://app?vid=1da5964d-6d5a-4458-b140-f832c7c8968f","ios":"levelo://app?vid=1da5964d-6d5a-4458-b140-f832c7c8968f"},"vehicle_type_id":"4","last_reported":1718737572,"current_range_meters":16800,"station_id":"ce4bgih2rcd13ifvqba0","pricing_plan_id":"cebpf4jnsgd1na2vs0mg"},{"bike_id":"d8406543-7b10-4451-b5f8-92e9ff8a0037","system_id":"levelo_inurba_marseille","lat":43.290779,"lon":5.371482,"is_reserved":false,"is_disabled":false,"rental_uris":{"android":"levelo://app?vid=d8406543-7b10-4451-b5f8-92e9ff8a0037","ios":"levelo://app?vid=d8406543-7b10-4451-b5f8-92e9ff8a0037"},"vehicle_type_id":"4","last_reported":1718737572,"current_range_meters":12400,"station_id":"ce4bh5p2rcd13ifvqe4g","pricing_plan_id":"cebpf4jnsgd1na2vs0mg"},{"bike_id":"93990794-3232-4ed8-b0d0-ea571236a7f3","system_id":"levelo_inurba_marseille","lat":43.290779,"lon":5.371482,"is_reserved":false,"is_disabled":false,"rental_uris":{"android":"levelo://app?vid=93990794-3232-4ed8-b0d0-ea571236a7f3","ios":"levelo://app?vid=93990794-3232-4ed8-b0d0-ea571236a7f3"},"vehicle_type_id":"4","last_reported":1718737572,"current_range_meters":3200,"station_id":"ce4bh5p2rcd13ifvqe4g","pricing_plan_id":"cebpf4jnsgd1na2vs0mg"},{"bike_id":"8c7dabb8-93e8-49d3-9367-a6f71807e8fb","system_id":"levelo_inurba_marseille","lat":43.290779,"lon":5.371482,"is_reserved":false,"is_disabled":false,"rental_uris":{"android":"levelo://app?vid=8c7dabb8-93e8-49d3-9367-a6f71807e8fb","ios":"levelo://app?vid=8c7dabb8-93e8-49d3-9367-a6f71807e8fb"},"vehicle_type_id":"4","last_reported":1718737572,"current_range_meters":18800,"station_id":"ce4bh5p2rcd13ifvqe4g","pricing_plan_id":"cebpf4jnsgd1na2vs0mg"},{"bike_id":"0cab975a-66bb-4520-a5fe-1f367a2c6de4","system_id":"levelo_inurba_marseille","lat":43.290779,"lon":5.371482,"is_reserved":false,"is_disabled":false,"rental_uris":{"android":"levelo://app?vid=0cab975a-66bb-4520-a5fe-1f367a2c6de4","ios":"levelo://app?vid=0cab975a-66bb-4520-a5fe-1f367a2c6de4"},"vehicle_type_id":"4","last_reported":1718737572,"current_range_meters":2800,"station_id":"ce4bh5p2rcd13ifvqe4g","pricing_plan_id":"cebpf4jnsgd1na2vs0mg"},{"bike_id":"9823b709-3bcb-4f70-a676-92cf9051962b","system_id":"levelo_inurba_marseille","lat":43.302008,"lon":5.394694,"is_reserved":false,"is_disabled":false,"rental_uris":{"android":"levelo://app?vid=9823b709-3bcb-4f70-a676-92cf9051962b","ios":"levelo://app?vid=9823b709-3bcb-4f70-a676-92cf9051962b"},"vehicle_type_id":"4","last_reported":1718737572,"current_range_meters":14400,"station_id":"ce4bh0p2rcd13ifvqd70","pricing_plan_id":"cebpf4jnsgd1na2vs0mg"},{"bike_id":"fde3bac3-0aa2-4113-a7f6-e2cc37b7d5ba","system_id":"levelo_inurba_marseille","lat":43.302008,"lon":5.394694,"is_reserved":false,"is_disabled":false,"rental_uris":{"android":"levelo://app?vid=fde3bac3-0aa2-4113-a7f6-e2cc37b7d5ba","ios":"levelo://app?vid=fde3bac3-0aa2-4113-a7f6-e2cc37b7d5ba"},"vehicle_type_id":"4","last_reported":1718737572,"current_range_meters":22800,"station_id":"ce4bh0p2rcd13ifvqd70","pricing_plan_id":"cebpf4jnsgd1na2vs0mg"},{"bike_id":"42a73056-9720-4283-b61a-21aabe94eeff","system_id":"levelo_inurba_marseille","lat":43.290631,"lon":5.359244,"is_reserved":false,"is_disabled":false,"rental_uris":{"android":"levelo://app?vid=42a73056-9720-4283-b61a-21aabe94eeff","ios":"levelo://app?vid=42a73056-9720-4283-b61a-21aabe94eeff"},"vehicle_type_id":"4","last_reported":1718737572,"current_range_meters":800,"station_id":"ce4bha92rcd13ifvqeg0","pricing_plan_id":"cebpf4jnsgd1na2vs0mg"},{"bike_id":"c306258e-b210-491d-822f-2d503c33f567","system_id":"levelo_inurba_marseille","lat":43.302008,"lon":5.394694,"is_reserved":false,"is_disabled":false,"rental_uris":{"android":"levelo://app?vid=c306258e-b210-491d-822f-2d503c33f567","ios":"levelo://app?vid=c306258e-b210-491d-822f-2d503c33f567"},"vehicle_type_id":"4","last_reported":1718737572,"current_range_meters":24800,"station_id":"ce4bh0p2rcd13ifvqd70","pricing_plan_id":"cebpf4jnsgd1na2vs0mg"},{"bike_id":"e776f215-741c-4080-93cf-6064d5f6a1ec","system_id":"levelo_inurba_marseille","lat":43.290624,"lon":5.359245,"is_reserved":false,"is_disabled":false,"rental_uris":{"android":"levelo://app?vid=e776f215-741c-4080-93cf-6064d5f6a1ec","ios":"levelo://app?vid=e776f215-741c-4080-93cf-6064d5f6a1ec"},"vehicle_type_id":"4","last_reported":1718737572,"current_range_meters":20400,"station_id":"ce4bha92rcd13ifvqeg0","pricing_plan_id":"cebpf4jnsgd1na2vs0mg"},{"bike_id":"05c1c740-0332-4cf8-8fa4-b08ab16cba4c","system_id":"levelo_inurba_marseille","lat":43.292627,"lon":5.382525,"is_reserved":false,"is_disabled":false,"rental_uris":{"android":"levelo://app?vid=05c1c740-0332-4cf8-8fa4-b08ab16cba4c","ios":"levelo://app?vid=05c1c740-0332-4cf8-8fa4-b08ab16cba4c"},"vehicle_type_id":"4","last_reported":1718737572,"current_range_meters":21200,"station_id":"","pricing_plan_id":"cebpf4jnsgd1na2vs0mg"},{"bike_id":"5c38603d-5d3c-4ff2-b9d5-3629f861910d","system_id":"levelo_inurba_marseille","lat":43.294153,"lon":5.386305,"is_reserved":false,"is_disabled":false,"rental_uris":{"android":"levelo://app?vid=5c38603d-5d3c-4ff2-b9d5-3629f861910d","ios":"levelo://app?vid=5c38603d-5d3c-4ff2-b9d5-3629f861910d"},"vehicle_type_id":"4","last_reported":1718737572,"current_range_meters":5200,"station_id":"ce4bh2h2rcd13ifvqdh0","pricing_plan_id":"cebpf4jnsgd1na2vs0mg"},{"bike_id":"86e44687-a5d9-4cef-afc2-d5d677f07a00","system_id":"levelo_inurba_marseille","lat":43.294162,"lon":5.386292,"is_reserved":false,"is_disabled":false,"rental_uris":{"android":"levelo://app?vid=86e44687-a5d9-4cef-afc2-d5d677f07a00","ios":"levelo://app?vid=86e44687-a5d9-4cef-afc2-d5d677f07a00"},"vehicle_type_id":"4","last_reported":1718737572,"current_range_meters":31200,"station_id":"ce4bh2h2rcd13ifvqdh0","pricing_plan_id":"cebpf4jnsgd1na2vs0mg"},{"bike_id":"6ff5fd0c-5a7c-4e4b-a20e-44f7cec24dbd","system_id":"levelo_inurba_marseille","lat":43.294153,"lon":5.386305,"is_reserved":false,"is_disabled":false,"rental_uris":{"android":"levelo://app?vid=6ff5fd0c-5a7c-4e4b-a20e-44f7cec24dbd","ios":"levelo://app?vid=6ff5fd0c-5a7c-4e4b-a20e-44f7cec24dbd"},"vehicle_type_id":"4","last_reported":1718737572,"current_range_meters":14800,"station_id":"ce4bh2h2rcd13ifvqdh0","pricing_plan_id":"cebpf4jnsgd1na2vs0mg"},{"bike_id":"983b3198-fc0b-42af-8546-bd4d80d420cf","system_id":"levelo_inurba_marseille","lat":43.290319,"lon":5.375732,"is_reserved":false,"is_disabled":false,"rental_uris":{"android":"levelo://app?vid=983b3198-fc0b-42af-8546-bd4d80d420cf","ios":"levelo://app?vid=983b3198-fc0b-42af-8546-bd4d80d420cf"},"vehicle_type_id":"4","last_reported":1718737572,"current_range_meters":12000,"station_id":"ce4bh692rcd13ifvqe90","pricing_plan_id":"cebpf4jnsgd1na2vs0mg"},{"bike_id":"2e15ceed-5814-4e51-a21c-da567738c114","system_id":"levelo_inurba_marseille","lat":43.294153,"lon":5.386305,"is_reserved":false,"is_disabled":false,"rental_uris":{"android":"levelo://app?vid=2e15ceed-5814-4e51-a21c-da567738c114","ios":"levelo://app?vid=2e15ceed-5814-4e51-a21c-da567738c114"},"vehicle_type_id":"4","last_reported":1718737572,"current_range_meters":31200,"station_id":"ce4bh2h2rcd13ifvqdh0","pricing_plan_id":"cebpf4jnsgd1na2vs0mg"},{"bike_id":"e46cb632-de66-442a-a382-8adc126c0f62","system_id":"levelo_inurba_marseille","lat":43.294162,"lon":5.386292,"is_reserved":false,"is_disabled":false,"rental_uris":{"android":"levelo://app?vid=e46cb632-de66-442a-a382-8adc126c0f62","ios":"levelo://app?vid=e46cb632-de66-442a-a382-8adc126c0f62"},"vehicle_type_id":"4","last_reported":1718737572,"current_range_meters":13200,"station_id":"ce4bh2h2rcd13ifvqdh0","pricing_plan_id":"cebpf4jnsgd1na2vs0mg"},{"bike_id":"4f097406-bef0-425e-b937-41d490600f04","system_id":"levelo_inurba_marseille","lat":43.294162,"lon":5.386292,"is_reserved":false,"is_disabled":false,"rental_uris":{"android":"levelo://app?vid=4f097406-bef0-425e-b937-41d490600f04","ios":"levelo://app?vid=4f097406-bef0-425e-b937-41d490600f04"},"vehicle_type_id":"4","last_reported":1718737572,"current_range_meters":31200,"station_id":"ce4bh2h2rcd13ifvqdh0","pricing_plan_id":"cebpf4jnsgd1na2vs0mg"},{"bike_id":"2e54cea6-3018-4182-8d1a-e6dce0c3ce5f","system_id":"levelo_inurba_marseille","lat":43.294153,"lon":5.386305,"is_reserved":false,"is_disabled":false,"rental_uris":{"android":"levelo://app?vid=2e54cea6-3018-4182-8d1a-e6dce0c3ce5f","ios":"levelo://app?vid=2e54cea6-3018-4182-8d1a-e6dce0c3ce5f"},"vehicle_type_id":"4","last_reported":1718737572,"current_range_meters":5600,"station_id":"ce4bh2h2rcd13ifvqdh0","pricing_plan_id":"cebpf4jnsgd1na2vs0mg"},{"bike_id":"69de05eb-440c-4aee-8123-76afdce7daf2","system_id":"levelo_inurba_marseille","lat":43.294153,"lon":5.386305,"is_reserved":false,"is_disabled":false,"rental_uris":{"android":"levelo://app?vid=69de05eb-440c-4aee-8123-76afdce7daf2","ios":"levelo://app?vid=69de05eb-440c-4aee-8123-76afdce7daf2"},"vehicle_type_id":"4","last_reported":1718737572,"current_range_meters":0,"station_id":"ce4bh2h2rcd13ifvqdh0","pricing_plan_id":"cebpf4jnsgd1na2vs0mg"},{"bike_id":"286bee6b-6ce6-4ea3-8684-3b564159e23a","system_id":"levelo_inurba_marseille","lat":43.294162,"lon":5.386292,"is_reserved":false,"is_disabled":false,"rental_uris":{"android":"levelo://app?vid=286bee6b-6ce6-4ea3-8684-3b564159e23a","ios":"levelo://app?vid=286bee6b-6ce6-4ea3-8684-3b564159e23a"},"vehicle_type_id":"4","last_reported":1718737572,"current_range_meters":22800,"station_id":"ce4bh2h2rcd13ifvqdh0","pricing_plan_id":"cebpf4jnsgd1na2vs0mg"},{"bike_id":"636fb184-f9c0-42a9-8b9f-5f6763bd20ab","system_id":"levelo_inurba_marseille","lat":43.289184,"lon":5.366408,"is_reserved":false,"is_disabled":false,"rental_uris":{"android":"levelo://app?vid=636fb184-f9c0-42a9-8b9f-5f6763bd20ab","ios":"levelo://app?vid=636fb184-f9c0-42a9-8b9f-5f6763bd20ab"},"vehicle_type_id":"4","last_reported":1718737572,"current_range_meters":31200,"station_id":"ce4bhap2rcd13ifvqek0","pricing_plan_id":"cebpf4jnsgd1na2vs0mg"},{"bike_id":"b0212aa0-ed7d-4d2a-aff1-030d5cf2f026","system_id":"levelo_inurba_marseille","lat":43.289184,"lon":5.366408,"is_reserved":false,"is_disabled":false,"rental_uris":{"android":"levelo://app?vid=b0212aa0-ed7d-4d2a-aff1-030d5cf2f026","ios":"levelo://app?vid=b0212aa0-ed7d-4d2a-aff1-030d5cf2f026"},"vehicle_type_id":"4","last_reported":1718737572,"current_range_meters":4000,"station_id":"ce4bhap2rcd13ifvqek0","pricing_plan_id":"cebpf4jnsgd1na2vs0mg"},{"bike_id":"dea2eb6c-a0c5-4772-b9e6-874f31a559b9","system_id":"levelo_inurba_marseille","lat":43.289184,"lon":5.366408,"is_reserved":false,"is_disabled":false,"rental_uris":{"android":"levelo://app?vid=dea2eb6c-a0c5-4772-b9e6-874f31a559b9","ios":"levelo://app?vid=dea2eb6c-a0c5-4772-b9e6-874f31a559b9"},"vehicle_type_id":"4","last_reported":1718737572,"current_range_meters":23600,"station_id":"ce4bhap2rcd13ifvqek0","pricing_plan_id":"cebpf4jnsgd1na2vs0mg"},{"bike_id":"a2f16442-aa74-4ff1-b6ad-094cbbc2a5fd","system_id":"levelo_inurba_marseille","lat":43.28941,"lon":5.36632,"is_reserved":false,"is_disabled":false,"rental_uris":{"android":"levelo://app?vid=a2f16442-aa74-4ff1-b6ad-094cbbc2a5fd","ios":"levelo://app?vid=a2f16442-aa74-4ff1-b6ad-094cbbc2a5fd"},"vehicle_type_id":"4","last_reported":1718737572,"current_range_meters":16800,"station_id":"ce4bhap2rcd13ifvqek0","pricing_plan_id":"cebpf4jnsgd1na2vs0mg"},{"bike_id":"dda6e53b-6cd3-44ef-bff5-70d788cf42fa","system_id":"levelo_inurba_marseille","lat":43.289184,"lon":5.366408,"is_reserved":false,"is_disabled":false,"rental_uris":{"android":"levelo://app?vid=dda6e53b-6cd3-44ef-bff5-70d788cf42fa","ios":"levelo://app?vid=dda6e53b-6cd3-44ef-bff5-70d788cf42fa"},"vehicle_type_id":"4","last_reported":1718737572,"current_range_meters":11600,"station_id":"ce4bhap2rcd13ifvqek0","pricing_plan_id":"cebpf4jnsgd1na2vs0mg"},{"bike_id":"c186de15-c67b-4ff2-a761-ede4c171df90","system_id":"levelo_inurba_marseille","lat":43.289184,"lon":5.366408,"is_reserved":false,"is_disabled":false,"rental_uris":{"android":"levelo://app?vid=c186de15-c67b-4ff2-a761-ede4c171df90","ios":"levelo://app?vid=c186de15-c67b-4ff2-a761-ede4c171df90"},"vehicle_type_id":"4","last_reported":1718737572,"current_range_meters":6800,"station_id":"ce4bhap2rcd13ifvqek0","pricing_plan_id":"cebpf4jnsgd1na2vs0mg"},{"bike_id":"2366e376-b666-4e86-a951-ab7f4e780d54","system_id":"levelo_inurba_marseille","lat":43.289184,"lon":5.366408,"is_reserved":false,"is_disabled":false,"rental_uris":{"android":"levelo://app?vid=2366e376-b666-4e86-a951-ab7f4e780d54","ios":"levelo://app?vid=2366e376-b666-4e86-a951-ab7f4e780d54"},"vehicle_type_id":"4","last_reported":1718737572,"current_range_meters":0,"station_id":"ce4bhap2rcd13ifvqek0","pricing_plan_id":"cebpf4jnsgd1na2vs0mg"},{"bike_id":"7ec3a71a-027f-46cb-bd6f-2a3786435682","system_id":"levelo_inurba_marseille","lat":43.289468,"lon":5.363719,"is_reserved":false,"is_disabled":false,"rental_uris":{"android":"levelo://app?vid=7ec3a71a-027f-46cb-bd6f-2a3786435682","ios":"levelo://app?vid=7ec3a71a-027f-46cb-bd6f-2a3786435682"},"vehicle_type_id":"4","last_reported":1718737572,"current_range_meters":0,"station_id":"ce4bhc92rcd13ifvqetg","pricing_plan_id":"cebpf4jnsgd1na2vs0mg"},{"bike_id":"a51702e5-67e2-4674-9510-16ba3ad6f132","system_id":"levelo_inurba_marseille","lat":43.28928,"lon":5.36632,"is_reserved":false,"is_disabled":false,"rental_uris":{"android":"levelo://app?vid=a51702e5-67e2-4674-9510-16ba3ad6f132","ios":"levelo://app?vid=a51702e5-67e2-4674-9510-16ba3ad6f132"},"vehicle_type_id":"4","last_reported":1718737572,"current_range_meters":0,"station_id":"ce4bhap2rcd13ifvqek0","pricing_plan_id":"cebpf4jnsgd1na2vs0mg"},{"bike_id":"32aee426-3197-430f-aebd-af773631f0f7","system_id":"levelo_inurba_marseille","lat":43.292642,"lon":5.384254,"is_reserved":false,"is_disabled":false,"rental_uris":{"android":"levelo://app?vid=32aee426-3197-430f-aebd-af773631f0f7","ios":"levelo://app?vid=32aee426-3197-430f-aebd-af773631f0f7"},"vehicle_type_id":"4","last_reported":1718737572,"current_range_meters":8400,"station_id":"ce4bh692rcd13ifvqea0","pricing_plan_id":"cebpf4jnsgd1na2vs0mg"},{"bike_id":"d2473832-58cc-4cea-a3ba-c57ec665243d","system_id":"levelo_inurba_marseille","lat":43.29263,"lon":5.38443,"is_reserved":false,"is_disabled":false,"rental_uris":{"android":"levelo://app?vid=d2473832-58cc-4cea-a3ba-c57ec665243d","ios":"levelo://app?vid=d2473832-58cc-4cea-a3ba-c57ec665243d"},"vehicle_type_id":"4","last_reported":1718737572,"current_range_meters":0,"station_id":"ce4bh692rcd13ifvqea0","pricing_plan_id":"cebpf4jnsgd1na2vs0mg"},{"bike_id":"65f3a870-4a31-48bb-a30f-61e34d2688d9","system_id":"levelo_inurba_marseille","lat":43.2926,"lon":5.38439,"is_reserved":false,"is_disabled":false,"rental_uris":{"android":"levelo://app?vid=65f3a870-4a31-48bb-a30f-61e34d2688d9","ios":"levelo://app?vid=65f3a870-4a31-48bb-a30f-61e34d2688d9"},"vehicle_type_id":"4","last_reported":1718737572,"current_range_meters":0,"station_id":"ce4bh692rcd13ifvqea0","pricing_plan_id":"cebpf4jnsgd1na2vs0mg"},{"bike_id":"ed8a2769-e95a-4ee6-a472-2cef407a7cba","system_id":"levelo_inurba_marseille","lat":43.29264,"lon":5.3845,"is_reserved":false,"is_disabled":false,"rental_uris":{"android":"levelo://app?vid=ed8a2769-e95a-4ee6-a472-2cef407a7cba","ios":"levelo://app?vid=ed8a2769-e95a-4ee6-a472-2cef407a7cba"},"vehicle_type_id":"4","last_reported":1718737572,"current_range_meters":0,"station_id":"ce4bh692rcd13ifvqea0","pricing_plan_id":"cebpf4jnsgd1na2vs0mg"},{"bike_id":"8eb14213-f31c-4c78-92fd-96e7476da16c","system_id":"levelo_inurba_marseille","lat":43.2926,"lon":5.38449,"is_reserved":false,"is_disabled":false,"rental_uris":{"android":"levelo://app?vid=8eb14213-f31c-4c78-92fd-96e7476da16c","ios":"levelo://app?vid=8eb14213-f31c-4c78-92fd-96e7476da16c"},"vehicle_type_id":"4","last_reported":1718737572,"current_range_meters":0,"station_id":"ce4bh692rcd13ifvqea0","pricing_plan_id":"cebpf4jnsgd1na2vs0mg"},{"bike_id":"eb34429e-154d-4dff-ae4a-f707630db03e","system_id":"levelo_inurba_marseille","lat":43.292644,"lon":5.384257,"is_reserved":false,"is_disabled":false,"rental_uris":{"android":"levelo://app?vid=eb34429e-154d-4dff-ae4a-f707630db03e","ios":"levelo://app?vid=eb34429e-154d-4dff-ae4a-f707630db03e"},"vehicle_type_id":"4","last_reported":1718737572,"current_range_meters":16000,"station_id":"ce4bh692rcd13ifvqea0","pricing_plan_id":"cebpf4jnsgd1na2vs0mg"},{"bike_id":"9bf9fc02-3ae4-4e98-9948-6fc1b77eab40","system_id":"levelo_inurba_marseille","lat":43.290104,"lon":5.356111,"is_reserved":false,"is_disabled":false,"rental_uris":{"android":"levelo://app?vid=9bf9fc02-3ae4-4e98-9948-6fc1b77eab40","ios":"levelo://app?vid=9bf9fc02-3ae4-4e98-9948-6fc1b77eab40"},"vehicle_type_id":"4","last_reported":1718737572,"current_range_meters":22800,"station_id":"ce4bhb92rcd13ifvqen0","pricing_plan_id":"cebpf4jnsgd1na2vs0mg"},{"bike_id":"ceeb19d3-2a97-4549-9e95-768d62cc0c85","system_id":"levelo_inurba_marseille","lat":43.290104,"lon":5.356111,"is_reserved":false,"is_disabled":false,"rental_uris":{"android":"levelo://app?vid=ceeb19d3-2a97-4549-9e95-768d62cc0c85","ios":"levelo://app?vid=ceeb19d3-2a97-4549-9e95-768d62cc0c85"},"vehicle_type_id":"4","last_reported":1718737572,"current_range_meters":11600,"station_id":"ce4bhb92rcd13ifvqen0","pricing_plan_id":"cebpf4jnsgd1na2vs0mg"},{"bike_id":"5a390558-3c8f-4a00-86ff-11d397e0d0a7","system_id":"levelo_inurba_marseille","lat":43.290995,"lon":5.381361,"is_reserved":false,"is_disabled":false,"rental_uris":{"android":"levelo://app?vid=5a390558-3c8f-4a00-86ff-11d397e0d0a7","ios":"levelo://app?vid=5a390558-3c8f-4a00-86ff-11d397e0d0a7"},"vehicle_type_id":"4","last_reported":1718737572,"current_range_meters":26000,"station_id":"ce4bh512rcd13ifvqe2g","pricing_plan_id":"cebpf4jnsgd1na2vs0mg"},{"bike_id":"f237927d-efed-4841-9958-b725cedb96b1","system_id":"levelo_inurba_marseille","lat":43.290995,"lon":5.381361,"is_reserved":false,"is_disabled":false,"rental_uris":{"android":"levelo://app?vid=f237927d-efed-4841-9958-b725cedb96b1","ios":"levelo://app?vid=f237927d-efed-4841-9958-b725cedb96b1"},"vehicle_type_id":"4","last_reported":1718737572,"current_range_meters":22000,"station_id":"ce4bh512rcd13ifvqe2g","pricing_plan_id":"cebpf4jnsgd1na2vs0mg"},{"bike_id":"3d65970f-5bfc-4c5c-88d0-f3f0c8f8a828","system_id":"levelo_inurba_marseille","lat":43.290995,"lon":5.381361,"is_reserved":false,"is_disabled":false,"rental_uris":{"android":"levelo://app?vid=3d65970f-5bfc-4c5c-88d0-f3f0c8f8a828","ios":"levelo://app?vid=3d65970f-5bfc-4c5c-88d0-f3f0c8f8a828"},"vehicle_type_id":"4","last_reported":1718737572,"current_range_meters":0,"station_id":"ce4bh512rcd13ifvqe2g","pricing_plan_id":"cebpf4jnsgd1na2vs0mg"},{"bike_id":"9c3cfb8e-f74e-400e-a584-20ad59949351","system_id":"levelo_inurba_marseille","lat":43.289743,"lon":5.378304,"is_reserved":false,"is_disabled":false,"rental_uris":{"android":"levelo://app?vid=9c3cfb8e-f74e-400e-a584-20ad59949351","ios":"levelo://app?vid=9c3cfb8e-f74e-400e-a584-20ad59949351"},"vehicle_type_id":"4","last_reported":1718737572,"current_range_meters":400,"station_id":"ce4bh9p2rcd13ifvqed0","pricing_plan_id":"cebpf4jnsgd1na2vs0mg"},{"bike_id":"a06a4a42-00d2-4a48-bffd-5c78109c5e6c","system_id":"levelo_inurba_marseille","lat":43.295169,"lon":5.390426,"is_reserved":false,"is_disabled":false,"rental_uris":{"android":"levelo://app?vid=a06a4a42-00d2-4a48-bffd-5c78109c5e6c","ios":"levelo://app?vid=a06a4a42-00d2-4a48-bffd-5c78109c5e6c"},"vehicle_type_id":"4","last_reported":1718737572,"current_range_meters":28000,"station_id":"ce4bh3p2rcd13ifvqdp0","pricing_plan_id":"cebpf4jnsgd1na2vs0mg"},{"bike_id":"3c8af63d-57fd-48ec-927e-25a365ad9760","system_id":"levelo_inurba_marseille","lat":43.289741,"lon":5.378306,"is_reserved":false,"is_disabled":false,"rental_uris":{"android":"levelo://app?vid=3c8af63d-57fd-48ec-927e-25a365ad9760","ios":"levelo://app?vid=3c8af63d-57fd-48ec-927e-25a365ad9760"},"vehicle_type_id":"4","last_reported":1718737572,"current_range_meters":14400,"station_id":"ce4bh9p2rcd13ifvqed0","pricing_plan_id":"cebpf4jnsgd1na2vs0mg"},{"bike_id":"7b469e73-1fcc-4caa-af2b-893b60e666f0","system_id":"levelo_inurba_marseille","lat":43.289741,"lon":5.378306,"is_reserved":false,"is_disabled":false,"rental_uris":{"android":"levelo://app?vid=7b469e73-1fcc-4caa-af2b-893b60e666f0","ios":"levelo://app?vid=7b469e73-1fcc-4caa-af2b-893b60e666f0"},"vehicle_type_id":"4","last_reported":1718737572,"current_range_meters":2400,"station_id":"ce4bh9p2rcd13ifvqed0","pricing_plan_id":"cebpf4jnsgd1na2vs0mg"},{"bike_id":"f83616fe-ec89-450f-badb-cf15e433f5c3","system_id":"levelo_inurba_marseille","lat":43.330442,"lon":5.389148,"is_reserved":false,"is_disabled":false,"rental_uris":{"android":"levelo://app?vid=f83616fe-ec89-450f-badb-cf15e433f5c3","ios":"levelo://app?vid=f83616fe-ec89-450f-badb-cf15e433f5c3"},"vehicle_type_id":"4","last_reported":1718737572,"current_range_meters":0,"station_id":"ce4bhr92rcd13ifvqhrg","pricing_plan_id":"cebpf4jnsgd1na2vs0mg"},{"bike_id":"2c7f3b34-698a-4b84-8d0a-6dfa0059fabe","system_id":"levelo_inurba_marseille","lat":43.289743,"lon":5.378304,"is_reserved":false,"is_disabled":false,"rental_uris":{"android":"levelo://app?vid=2c7f3b34-698a-4b84-8d0a-6dfa0059fabe","ios":"levelo://app?vid=2c7f3b34-698a-4b84-8d0a-6dfa0059fabe"},"vehicle_type_id":"4","last_reported":1718737572,"current_range_meters":14800,"station_id":"ce4bh9p2rcd13ifvqed0","pricing_plan_id":"cebpf4jnsgd1na2vs0mg"},{"bike_id":"a9b251dc-23d9-4c0f-b812-25f535b0364c","system_id":"levelo_inurba_marseille","lat":43.330442,"lon":5.389148,"is_reserved":false,"is_disabled":false,"rental_uris":{"android":"levelo://app?vid=a9b251dc-23d9-4c0f-b812-25f535b0364c","ios":"levelo://app?vid=a9b251dc-23d9-4c0f-b812-25f535b0364c"},"vehicle_type_id":"4","last_reported":1718737572,"current_range_meters":21600,"station_id":"ce4bhr92rcd13ifvqhrg","pricing_plan_id":"cebpf4jnsgd1na2vs0mg"},{"bike_id":"a4b8e9cc-6989-4432-a08d-e6de6d2dd6b6","system_id":"levelo_inurba_marseille","lat":43.295169,"lon":5.390426,"is_reserved":false,"is_disabled":false,"rental_uris":{"android":"levelo://app?vid=a4b8e9cc-6989-4432-a08d-e6de6d2dd6b6","ios":"levelo://app?vid=a4b8e9cc-6989-4432-a08d-e6de6d2dd6b6"},"vehicle_type_id":"4","last_reported":1718737572,"current_range_meters":3600,"station_id":"ce4bh3p2rcd13ifvqdp0","pricing_plan_id":"cebpf4jnsgd1na2vs0mg"},{"bike_id":"d0091c2c-9aee-4eb3-aef9-55ae9bcb92f1","system_id":"levelo_inurba_marseille","lat":43.289743,"lon":5.378304,"is_reserved":false,"is_disabled":false,"rental_uris":{"android":"levelo://app?vid=d0091c2c-9aee-4eb3-aef9-55ae9bcb92f1","ios":"levelo://app?vid=d0091c2c-9aee-4eb3-aef9-55ae9bcb92f1"},"vehicle_type_id":"4","last_reported":1718737572,"current_range_meters":25200,"station_id":"ce4bh9p2rcd13ifvqed0","pricing_plan_id":"cebpf4jnsgd1na2vs0mg"},{"bike_id":"2ab139e5-2b1b-4ce3-a2af-a2cfb818d9f2","system_id":"levelo_inurba_marseille","lat":43.2901,"lon":5.381269,"is_reserved":false,"is_disabled":false,"rental_uris":{"android":"levelo://app?vid=2ab139e5-2b1b-4ce3-a2af-a2cfb818d9f2","ios":"levelo://app?vid=2ab139e5-2b1b-4ce3-a2af-a2cfb818d9f2"},"vehicle_type_id":"4","last_reported":1718737572,"current_range_meters":7200,"station_id":"ce4bh4p2rcd13ifvqe1g","pricing_plan_id":"cebpf4jnsgd1na2vs0mg"},{"bike_id":"b202e776-7ee1-4514-bf02-1987460effbf","system_id":"levelo_inurba_marseille","lat":43.2901,"lon":5.381269,"is_reserved":false,"is_disabled":false,"rental_uris":{"android":"levelo://app?vid=b202e776-7ee1-4514-bf02-1987460effbf","ios":"levelo://app?vid=b202e776-7ee1-4514-bf02-1987460effbf"},"vehicle_type_id":"4","last_reported":1718737572,"current_range_meters":13200,"station_id":"ce4bh4p2rcd13ifvqe1g","pricing_plan_id":"cebpf4jnsgd1na2vs0mg"},{"bike_id":"c0871b9a-60b6-425b-8cd4-400ee4f01173","system_id":"levelo_inurba_marseille","lat":43.2901,"lon":5.381269,"is_reserved":false,"is_disabled":false,"rental_uris":{"android":"levelo://app?vid=c0871b9a-60b6-425b-8cd4-400ee4f01173","ios":"levelo://app?vid=c0871b9a-60b6-425b-8cd4-400ee4f01173"},"vehicle_type_id":"4","last_reported":1718737572,"current_range_meters":0,"station_id":"ce4bh4p2rcd13ifvqe1g","pricing_plan_id":"cebpf4jnsgd1na2vs0mg"},{"bike_id":"2f1bddc2-b6cb-4983-9d57-d59e3d584d8f","system_id":"levelo_inurba_marseille","lat":43.2901,"lon":5.381269,"is_reserved":false,"is_disabled":false,"rental_uris":{"android":"levelo://app?vid=2f1bddc2-b6cb-4983-9d57-d59e3d584d8f","ios":"levelo://app?vid=2f1bddc2-b6cb-4983-9d57-d59e3d584d8f"},"vehicle_type_id":"4","last_reported":1718737572,"current_range_meters":0,"station_id":"ce4bh4p2rcd13ifvqe1g","pricing_plan_id":"cebpf4jnsgd1na2vs0mg"},{"bike_id":"91d942f0-8f0e-47af-b467-5fda5a3ba290","system_id":"levelo_inurba_marseille","lat":43.310763,"lon":5.400923,"is_reserved":false,"is_disabled":false,"rental_uris":{"android":"levelo://app?vid=91d942f0-8f0e-47af-b467-5fda5a3ba290","ios":"levelo://app?vid=91d942f0-8f0e-47af-b467-5fda5a3ba290"},"vehicle_type_id":"4","last_reported":1718737572,"current_range_meters":24800,"station_id":"","pricing_plan_id":"cebpf4jnsgd1na2vs0mg"},{"bike_id":"c1b7e31a-a77b-4868-8a19-d57066fde561","system_id":"levelo_inurba_marseille","lat":43.2901,"lon":5.381269,"is_reserved":false,"is_disabled":false,"rental_uris":{"android":"levelo://app?vid=c1b7e31a-a77b-4868-8a19-d57066fde561","ios":"levelo://app?vid=c1b7e31a-a77b-4868-8a19-d57066fde561"},"vehicle_type_id":"4","last_reported":1718737572,"current_range_meters":28800,"station_id":"ce4bh4p2rcd13ifvqe1g","pricing_plan_id":"cebpf4jnsgd1na2vs0mg"},{"bike_id":"84ee592a-f7ff-403b-8c17-fa0999ce0687","system_id":"levelo_inurba_marseille","lat":43.29019,"lon":5.38136,"is_reserved":false,"is_disabled":false,"rental_uris":{"android":"levelo://app?vid=84ee592a-f7ff-403b-8c17-fa0999ce0687","ios":"levelo://app?vid=84ee592a-f7ff-403b-8c17-fa0999ce0687"},"vehicle_type_id":"4","last_reported":1718737572,"current_range_meters":0,"station_id":"ce4bh4p2rcd13ifvqe1g","pricing_plan_id":"cebpf4jnsgd1na2vs0mg"},{"bike_id":"a644a467-f363-425b-8cb9-5765fa8a36a0","system_id":"levelo_inurba_marseille","lat":43.28841,"lon":5.35853,"is_reserved":false,"is_disabled":false,"rental_uris":{"android":"levelo://app?vid=a644a467-f363-425b-8cb9-5765fa8a36a0","ios":"levelo://app?vid=a644a467-f363-425b-8cb9-5765fa8a36a0"},"vehicle_type_id":"4","last_reported":1718737572,"current_range_meters":0,"station_id":"ce4bhb12rcd13ifvqem0","pricing_plan_id":"cebpf4jnsgd1na2vs0mg"},{"bike_id":"f365957d-76f8-42ca-a8c6-7a01d26ee0ec","system_id":"levelo_inurba_marseille","lat":43.291785,"lon":5.386057,"is_reserved":false,"is_disabled":false,"rental_uris":{"android":"levelo://app?vid=f365957d-76f8-42ca-a8c6-7a01d26ee0ec","ios":"levelo://app?vid=f365957d-76f8-42ca-a8c6-7a01d26ee0ec"},"vehicle_type_id":"4","last_reported":1718737572,"current_range_meters":6800,"station_id":"","pricing_plan_id":"cebpf4jnsgd1na2vs0mg"},{"bike_id":"dc760503-cc41-4df1-ab80-387f24cd37a0","system_id":"levelo_inurba_marseille","lat":43.312609,"lon":5.401662,"is_reserved":false,"is_disabled":false,"rental_uris":{"android":"levelo://app?vid=dc760503-cc41-4df1-ab80-387f24cd37a0","ios":"levelo://app?vid=dc760503-cc41-4df1-ab80-387f24cd37a0"},"vehicle_type_id":"4","last_reported":1718737572,"current_range_meters":6000,"station_id":"ce4bh092rcd13ifvqd30","pricing_plan_id":"cebpf4jnsgd1na2vs0mg"},{"bike_id":"19603d73-bb2a-44ab-bfe8-c704b9b7fac0","system_id":"levelo_inurba_marseille","lat":43.309371,"lon":5.401449,"is_reserved":false,"is_disabled":false,"rental_uris":{"android":"levelo://app?vid=19603d73-bb2a-44ab-bfe8-c704b9b7fac0","ios":"levelo://app?vid=19603d73-bb2a-44ab-bfe8-c704b9b7fac0"},"vehicle_type_id":"4","last_reported":1718737572,"current_range_meters":18800,"station_id":"ce4bgvp2rcd13ifvqct0","pricing_plan_id":"cebpf4jnsgd1na2vs0mg"},{"bike_id":"cb2ac556-fa38-4128-896b-94cdaed89180","system_id":"levelo_inurba_marseille","lat":43.309371,"lon":5.401449,"is_reserved":false,"is_disabled":false,"rental_uris":{"android":"levelo://app?vid=cb2ac556-fa38-4128-896b-94cdaed89180","ios":"levelo://app?vid=cb2ac556-fa38-4128-896b-94cdaed89180"},"vehicle_type_id":"4","last_reported":1718737572,"current_range_meters":23200,"station_id":"ce4bgvp2rcd13ifvqct0","pricing_plan_id":"cebpf4jnsgd1na2vs0mg"},{"bike_id":"3533980f-6c16-4727-9633-d723573b54d7","system_id":"levelo_inurba_marseille","lat":43.309371,"lon":5.401449,"is_reserved":false,"is_disabled":false,"rental_uris":{"android":"levelo://app?vid=3533980f-6c16-4727-9633-d723573b54d7","ios":"levelo://app?vid=3533980f-6c16-4727-9633-d723573b54d7"},"vehicle_type_id":"4","last_reported":1718737572,"current_range_meters":0,"station_id":"ce4bgvp2rcd13ifvqct0","pricing_plan_id":"cebpf4jnsgd1na2vs0mg"},{"bike_id":"bfdd0964-25bc-44f9-a7b3-0d7806502149","system_id":"levelo_inurba_marseille","lat":43.301117,"lon":5.398795,"is_reserved":false,"is_disabled":false,"rental_uris":{"android":"levelo://app?vid=bfdd0964-25bc-44f9-a7b3-0d7806502149","ios":"levelo://app?vid=bfdd0964-25bc-44f9-a7b3-0d7806502149"},"vehicle_type_id":"4","last_reported":1718737572,"current_range_meters":23200,"station_id":"ce4bh0h2rcd13ifvqd40","pricing_plan_id":"cebpf4jnsgd1na2vs0mg"},{"bike_id":"d75527eb-053d-49dd-aee6-8ca16eab1825","system_id":"levelo_inurba_marseille","lat":43.28727,"lon":5.36078,"is_reserved":false,"is_disabled":false,"rental_uris":{"android":"levelo://app?vid=d75527eb-053d-49dd-aee6-8ca16eab1825","ios":"levelo://app?vid=d75527eb-053d-49dd-aee6-8ca16eab1825"},"vehicle_type_id":"4","last_reported":1718737572,"current_range_meters":17200,"station_id":"cki0cbj6b192h4jlfktg","pricing_plan_id":"cebpf4jnsgd1na2vs0mg"},{"bike_id":"2e3277ad-ecd1-4383-b25e-3b7100f81a83","system_id":"levelo_inurba_marseille","lat":43.28727,"lon":5.36078,"is_reserved":false,"is_disabled":false,"rental_uris":{"android":"levelo://app?vid=2e3277ad-ecd1-4383-b25e-3b7100f81a83","ios":"levelo://app?vid=2e3277ad-ecd1-4383-b25e-3b7100f81a83"},"vehicle_type_id":"4","last_reported":1718737572,"current_range_meters":400,"station_id":"cki0cbj6b192h4jlfktg","pricing_plan_id":"cebpf4jnsgd1na2vs0mg"},{"bike_id":"52eafbfa-fbfb-4cb4-a7e4-0f62eb44f3f0","system_id":"levelo_inurba_marseille","lat":43.28727,"lon":5.36078,"is_reserved":false,"is_disabled":false,"rental_uris":{"android":"levelo://app?vid=52eafbfa-fbfb-4cb4-a7e4-0f62eb44f3f0","ios":"levelo://app?vid=52eafbfa-fbfb-4cb4-a7e4-0f62eb44f3f0"},"vehicle_type_id":"4","last_reported":1718737572,"current_range_meters":400,"station_id":"cki0cbj6b192h4jlfktg","pricing_plan_id":"cebpf4jnsgd1na2vs0mg"},{"bike_id":"d143c60b-e275-49f5-bd44-d3918471dc50","system_id":"levelo_inurba_marseille","lat":43.28727,"lon":5.36078,"is_reserved":false,"is_disabled":false,"rental_uris":{"android":"levelo://app?vid=d143c60b-e275-49f5-bd44-d3918471dc50","ios":"levelo://app?vid=d143c60b-e275-49f5-bd44-d3918471dc50"},"vehicle_type_id":"4","last_reported":1718737572,"current_range_meters":800,"station_id":"cki0cbj6b192h4jlfktg","pricing_plan_id":"cebpf4jnsgd1na2vs0mg"},{"bike_id":"d56a9493-68b2-4991-8fc7-5d63ee470f88","system_id":"levelo_inurba_marseille","lat":43.298681,"lon":5.397225,"is_reserved":false,"is_disabled":false,"rental_uris":{"android":"levelo://app?vid=d56a9493-68b2-4991-8fc7-5d63ee470f88","ios":"levelo://app?vid=d56a9493-68b2-4991-8fc7-5d63ee470f88"},"vehicle_type_id":"4","last_reported":1718737572,"current_range_meters":31200,"station_id":"ce4bh0h2rcd13ifvqd50","pricing_plan_id":"cebpf4jnsgd1na2vs0mg"},{"bike_id":"5a74a5cc-7027-474f-89fc-2fa97d7bfa70","system_id":"levelo_inurba_marseille","lat":43.298681,"lon":5.397225,"is_reserved":false,"is_disabled":false,"rental_uris":{"android":"levelo://app?vid=5a74a5cc-7027-474f-89fc-2fa97d7bfa70","ios":"levelo://app?vid=5a74a5cc-7027-474f-89fc-2fa97d7bfa70"},"vehicle_type_id":"4","last_reported":1718737572,"current_range_meters":31200,"station_id":"ce4bh0h2rcd13ifvqd50","pricing_plan_id":"cebpf4jnsgd1na2vs0mg"},{"bike_id":"d9139920-1391-4e41-bd88-081f8ddeccde","system_id":"levelo_inurba_marseille","lat":43.286961,"lon":5.373785,"is_reserved":false,"is_disabled":false,"rental_uris":{"android":"levelo://app?vid=d9139920-1391-4e41-bd88-081f8ddeccde","ios":"levelo://app?vid=d9139920-1391-4e41-bd88-081f8ddeccde"},"vehicle_type_id":"4","last_reported":1718737572,"current_range_meters":0,"station_id":"ce4bh3p2rcd13ifvqdq0","pricing_plan_id":"cebpf4jnsgd1na2vs0mg"},{"bike_id":"f79f1281-61c5-463b-a5d2-f32a782e7691","system_id":"levelo_inurba_marseille","lat":43.286961,"lon":5.373785,"is_reserved":false,"is_disabled":false,"rental_uris":{"android":"levelo://app?vid=f79f1281-61c5-463b-a5d2-f32a782e7691","ios":"levelo://app?vid=f79f1281-61c5-463b-a5d2-f32a782e7691"},"vehicle_type_id":"4","last_reported":1718737572,"current_range_meters":0,"station_id":"ce4bh3p2rcd13ifvqdq0","pricing_plan_id":"cebpf4jnsgd1na2vs0mg"},{"bike_id":"50395bc3-b58e-42a5-96e2-8a1768a1ea58","system_id":"levelo_inurba_marseille","lat":43.298681,"lon":5.397225,"is_reserved":false,"is_disabled":false,"rental_uris":{"android":"levelo://app?vid=50395bc3-b58e-42a5-96e2-8a1768a1ea58","ios":"levelo://app?vid=50395bc3-b58e-42a5-96e2-8a1768a1ea58"},"vehicle_type_id":"4","last_reported":1718737572,"current_range_meters":10800,"station_id":"ce4bh0h2rcd13ifvqd50","pricing_plan_id":"cebpf4jnsgd1na2vs0mg"},{"bike_id":"41dff314-e9a0-4ebf-a1c3-3dbbf3b6d876","system_id":"levelo_inurba_marseille","lat":43.295194,"lon":5.39397,"is_reserved":false,"is_disabled":false,"rental_uris":{"android":"levelo://app?vid=41dff314-e9a0-4ebf-a1c3-3dbbf3b6d876","ios":"levelo://app?vid=41dff314-e9a0-4ebf-a1c3-3dbbf3b6d876"},"vehicle_type_id":"4","last_reported":1718737572,"current_range_meters":20400,"station_id":"ce4bh292rcd13ifvqdf0","pricing_plan_id":"cebpf4jnsgd1na2vs0mg"},{"bike_id":"4f0df1e4-14ee-4f78-9f7e-9225b9915d57","system_id":"levelo_inurba_marseille","lat":43.286961,"lon":5.373785,"is_reserved":false,"is_disabled":false,"rental_uris":{"android":"levelo://app?vid=4f0df1e4-14ee-4f78-9f7e-9225b9915d57","ios":"levelo://app?vid=4f0df1e4-14ee-4f78-9f7e-9225b9915d57"},"vehicle_type_id":"4","last_reported":1718737572,"current_range_meters":0,"station_id":"ce4bh3p2rcd13ifvqdq0","pricing_plan_id":"cebpf4jnsgd1na2vs0mg"},{"bike_id":"1ab4191b-6291-4472-acdb-9403ee31417d","system_id":"levelo_inurba_marseille","lat":43.298681,"lon":5.397225,"is_reserved":false,"is_disabled":false,"rental_uris":{"android":"levelo://app?vid=1ab4191b-6291-4472-acdb-9403ee31417d","ios":"levelo://app?vid=1ab4191b-6291-4472-acdb-9403ee31417d"},"vehicle_type_id":"4","last_reported":1718737572,"current_range_meters":8000,"station_id":"ce4bh0h2rcd13ifvqd50","pricing_plan_id":"cebpf4jnsgd1na2vs0mg"},{"bike_id":"6f6adedb-16d9-4da0-bcc2-9d0204eead66","system_id":"levelo_inurba_marseille","lat":43.286591,"lon":5.363346,"is_reserved":false,"is_disabled":false,"rental_uris":{"android":"levelo://app?vid=6f6adedb-16d9-4da0-bcc2-9d0204eead66","ios":"levelo://app?vid=6f6adedb-16d9-4da0-bcc2-9d0204eead66"},"vehicle_type_id":"4","last_reported":1718737572,"current_range_meters":9200,"station_id":"ce4bhah2rcd13ifvqej0","pricing_plan_id":"cebpf4jnsgd1na2vs0mg"},{"bike_id":"73832fb0-3a71-4845-9d16-11a66c2e0203","system_id":"levelo_inurba_marseille","lat":43.298681,"lon":5.397225,"is_reserved":false,"is_disabled":false,"rental_uris":{"android":"levelo://app?vid=73832fb0-3a71-4845-9d16-11a66c2e0203","ios":"levelo://app?vid=73832fb0-3a71-4845-9d16-11a66c2e0203"},"vehicle_type_id":"4","last_reported":1718737572,"current_range_meters":20400,"station_id":"ce4bh0h2rcd13ifvqd50","pricing_plan_id":"cebpf4jnsgd1na2vs0mg"},{"bike_id":"98b9b0c4-3569-435e-8da8-537289080f6c","system_id":"levelo_inurba_marseille","lat":43.286593,"lon":5.363346,"is_reserved":false,"is_disabled":false,"rental_uris":{"android":"levelo://app?vid=98b9b0c4-3569-435e-8da8-537289080f6c","ios":"levelo://app?vid=98b9b0c4-3569-435e-8da8-537289080f6c"},"vehicle_type_id":"4","last_reported":1718737572,"current_range_meters":21600,"station_id":"ce4bhah2rcd13ifvqej0","pricing_plan_id":"cebpf4jnsgd1na2vs0mg"},{"bike_id":"573c1f8e-0ac6-4e1b-8463-b6ed228b2f2c","system_id":"levelo_inurba_marseille","lat":43.295196,"lon":5.39397,"is_reserved":false,"is_disabled":false,"rental_uris":{"android":"levelo://app?vid=573c1f8e-0ac6-4e1b-8463-b6ed228b2f2c","ios":"levelo://app?vid=573c1f8e-0ac6-4e1b-8463-b6ed228b2f2c"},"vehicle_type_id":"4","last_reported":1718737572,"current_range_meters":0,"station_id":"ce4bh292rcd13ifvqdf0","pricing_plan_id":"cebpf4jnsgd1na2vs0mg"},{"bike_id":"3ef3e6c8-c591-443d-9f15-29cb11c81931","system_id":"levelo_inurba_marseille","lat":43.286961,"lon":5.373785,"is_reserved":false,"is_disabled":false,"rental_uris":{"android":"levelo://app?vid=3ef3e6c8-c591-443d-9f15-29cb11c81931","ios":"levelo://app?vid=3ef3e6c8-c591-443d-9f15-29cb11c81931"},"vehicle_type_id":"4","last_reported":1718737572,"current_range_meters":2400,"station_id":"ce4bh3p2rcd13ifvqdq0","pricing_plan_id":"cebpf4jnsgd1na2vs0mg"},{"bike_id":"e3e1fb56-91da-46dc-ab06-5d38e04e946a","system_id":"levelo_inurba_marseille","lat":43.295196,"lon":5.39397,"is_reserved":false,"is_disabled":false,"rental_uris":{"android":"levelo://app?vid=e3e1fb56-91da-46dc-ab06-5d38e04e946a","ios":"levelo://app?vid=e3e1fb56-91da-46dc-ab06-5d38e04e946a"},"vehicle_type_id":"4","last_reported":1718737572,"current_range_meters":20000,"station_id":"ce4bh292rcd13ifvqdf0","pricing_plan_id":"cebpf4jnsgd1na2vs0mg"},{"bike_id":"b2eb484a-d1e4-4b18-94ee-3e3816b7ff5d","system_id":"levelo_inurba_marseille","lat":43.295194,"lon":5.39397,"is_reserved":false,"is_disabled":false,"rental_uris":{"android":"levelo://app?vid=b2eb484a-d1e4-4b18-94ee-3e3816b7ff5d","ios":"levelo://app?vid=b2eb484a-d1e4-4b18-94ee-3e3816b7ff5d"},"vehicle_type_id":"4","last_reported":1718737572,"current_range_meters":2000,"station_id":"ce4bh292rcd13ifvqdf0","pricing_plan_id":"cebpf4jnsgd1na2vs0mg"},{"bike_id":"bf02ffa1-1bfd-497e-88eb-80fea1d47108","system_id":"levelo_inurba_marseille","lat":43.295196,"lon":5.39397,"is_reserved":false,"is_disabled":false,"rental_uris":{"android":"levelo://app?vid=bf02ffa1-1bfd-497e-88eb-80fea1d47108","ios":"levelo://app?vid=bf02ffa1-1bfd-497e-88eb-80fea1d47108"},"vehicle_type_id":"4","last_reported":1718737572,"current_range_meters":6400,"station_id":"ce4bh292rcd13ifvqdf0","pricing_plan_id":"cebpf4jnsgd1na2vs0mg"},{"bike_id":"b26019c0-7260-4b92-956e-67b6adb24011","system_id":"levelo_inurba_marseille","lat":43.295194,"lon":5.39397,"is_reserved":false,"is_disabled":false,"rental_uris":{"android":"levelo://app?vid=b26019c0-7260-4b92-956e-67b6adb24011","ios":"levelo://app?vid=b26019c0-7260-4b92-956e-67b6adb24011"},"vehicle_type_id":"4","last_reported":1718737572,"current_range_meters":2000,"station_id":"ce4bh292rcd13ifvqdf0","pricing_plan_id":"cebpf4jnsgd1na2vs0mg"},{"bike_id":"7d08d9eb-85ce-492a-92fc-45f0af295176","system_id":"levelo_inurba_marseille","lat":43.295194,"lon":5.39397,"is_reserved":false,"is_disabled":false,"rental_uris":{"android":"levelo://app?vid=7d08d9eb-85ce-492a-92fc-45f0af295176","ios":"levelo://app?vid=7d08d9eb-85ce-492a-92fc-45f0af295176"},"vehicle_type_id":"4","last_reported":1718737572,"current_range_meters":16800,"station_id":"ce4bh292rcd13ifvqdf0","pricing_plan_id":"cebpf4jnsgd1na2vs0mg"},{"bike_id":"15fa4b21-2424-400f-8ff4-e4821a9912c3","system_id":"levelo_inurba_marseille","lat":43.290345,"lon":5.38646,"is_reserved":false,"is_disabled":false,"rental_uris":{"android":"levelo://app?vid=15fa4b21-2424-400f-8ff4-e4821a9912c3","ios":"levelo://app?vid=15fa4b21-2424-400f-8ff4-e4821a9912c3"},"vehicle_type_id":"4","last_reported":1718737572,"current_range_meters":2000,"station_id":"ce4bh4p2rcd13ifvqe0g","pricing_plan_id":"cebpf4jnsgd1na2vs0mg"},{"bike_id":"0968d721-c1a0-4bcc-a81d-0384bb16ac31","system_id":"levelo_inurba_marseille","lat":43.286961,"lon":5.373785,"is_reserved":false,"is_disabled":false,"rental_uris":{"android":"levelo://app?vid=0968d721-c1a0-4bcc-a81d-0384bb16ac31","ios":"levelo://app?vid=0968d721-c1a0-4bcc-a81d-0384bb16ac31"},"vehicle_type_id":"4","last_reported":1718737572,"current_range_meters":5600,"station_id":"ce4bh3p2rcd13ifvqdq0","pricing_plan_id":"cebpf4jnsgd1na2vs0mg"},{"bike_id":"6ebdee1c-c6f7-404b-a257-ba1acd898066","system_id":"levelo_inurba_marseille","lat":43.289307,"lon":5.38406,"is_reserved":false,"is_disabled":false,"rental_uris":{"android":"levelo://app?vid=6ebdee1c-c6f7-404b-a257-ba1acd898066","ios":"levelo://app?vid=6ebdee1c-c6f7-404b-a257-ba1acd898066"},"vehicle_type_id":"4","last_reported":1718737572,"current_range_meters":0,"station_id":"ce4bh612rcd13ifvqe6g","pricing_plan_id":"cebpf4jnsgd1na2vs0mg"},{"bike_id":"6b7b429b-739c-4747-ba9c-0c801a2db065","system_id":"levelo_inurba_marseille","lat":43.30259,"lon":5.4006,"is_reserved":false,"is_disabled":false,"rental_uris":{"android":"levelo://app?vid=6b7b429b-739c-4747-ba9c-0c801a2db065","ios":"levelo://app?vid=6b7b429b-739c-4747-ba9c-0c801a2db065"},"vehicle_type_id":"4","last_reported":1718737572,"current_range_meters":30400,"station_id":"ce4bgvh2rcd13ifvqcs0","pricing_plan_id":"cebpf4jnsgd1na2vs0mg"},{"bike_id":"41208319-7deb-4068-af07-2b0348d5831b","system_id":"levelo_inurba_marseille","lat":43.289307,"lon":5.38406,"is_reserved":false,"is_disabled":false,"rental_uris":{"android":"levelo://app?vid=41208319-7deb-4068-af07-2b0348d5831b","ios":"levelo://app?vid=41208319-7deb-4068-af07-2b0348d5831b"},"vehicle_type_id":"4","last_reported":1718737572,"current_range_meters":0,"station_id":"ce4bh612rcd13ifvqe6g","pricing_plan_id":"cebpf4jnsgd1na2vs0mg"},{"bike_id":"7552ec19-fbb5-4eb2-b5ee-2c290a41c287","system_id":"levelo_inurba_marseille","lat":43.290336,"lon":5.386425,"is_reserved":false,"is_disabled":false,"rental_uris":{"android":"levelo://app?vid=7552ec19-fbb5-4eb2-b5ee-2c290a41c287","ios":"levelo://app?vid=7552ec19-fbb5-4eb2-b5ee-2c290a41c287"},"vehicle_type_id":"4","last_reported":1718737572,"current_range_meters":16000,"station_id":"ce4bh4p2rcd13ifvqe0g","pricing_plan_id":"cebpf4jnsgd1na2vs0mg"},{"bike_id":"a78a25e8-5a1f-4050-8fb2-dfa32149300a","system_id":"levelo_inurba_marseille","lat":43.290336,"lon":5.386425,"is_reserved":false,"is_disabled":false,"rental_uris":{"android":"levelo://app?vid=a78a25e8-5a1f-4050-8fb2-dfa32149300a","ios":"levelo://app?vid=a78a25e8-5a1f-4050-8fb2-dfa32149300a"},"vehicle_type_id":"4","last_reported":1718737572,"current_range_meters":17200,"station_id":"ce4bh4p2rcd13ifvqe0g","pricing_plan_id":"cebpf4jnsgd1na2vs0mg"},