{"last_updated":1686600418,"ttl":30,"version":"2.2","data":{"bikes":[{"bike_id":"4792b473-85e2-4fdd-83a4-302c95f6ac67","system_id":"levelo_inurba_marseille","lat":43.31101,"lon":5.36746,"is_reserved":false,"is_disabled":false,"rental_uris":{"android":"levelo://app?vid=4792b473-85e2-4fdd-83a4-302c95f6ac67","ios":"levelo://app?vid=4792b473-85e2-4fdd-83a4-302c95f6ac67"},"vehicle_type_id":"4","last_reported":1686600419,"current_range_meters":29600,"station_id":"","pricing_plan_id":"free"},{"bike_id":"dff1b0e2-7c5c-414a-846b-2ef60e70ea3e","system_id":"levelo_inurba_marseille","lat":43.31361,"lon":5.37121,"is_reserved":false,"is_disabled":false,"rental_uris":{"android":"levelo://app?vid=dff1b0e2-7c5c-414a-846b-2ef60e70ea3e","ios":"levelo://app?vid=dff1b0e2-7c5c-414a-846b-2ef60e70ea3e"},"vehicle_type_id":"4","last_reported":1686600419,"current_range_meters":23600,"station_id":"","pricing_plan_id":"free"},{"bike_id":"2236174f-9b48-4e77-bc47-17f9275c2cb6","system_id":"levelo_inurba_marseille","lat":43.309076,"lon":5.368465,"is_reserved":false,"is_disabled":false,"rental_uris":{"android":"levelo://app?vid=2236174f-9b48-4e77-bc47-17f9275c2cb6","ios":"levelo://app?vid=2236174f-9b48-4e77-bc47-17f9275c2cb6"},"vehicle_type_id":"4","last_reported":1686600419,"current_range_meters":4800,"station_id":"ce4bgn92rcd13ifvqbvg","pricing_plan_id":"free"},{"bike_id":"3569622a-753a-48bd-8a46-599c5b9b113c","system_id":"levelo_inurba_marseille","lat":43.308606,"lon":5.372099,"is_reserved":false,"is_disabled":false,"rental_uris":{"android":"levelo://app?vid=3569622a-753a-48bd-8a46-599c5b9b113c","ios":"levelo://app?vid=3569622a-753a-48bd-8a46-599c5b9b113c"},"vehicle_type_id":"4","last_reported":1686600419,"current_range_meters":12400,"station_id":"ce4bguh2rcd13ifvqckg","pricing_plan_id":"free"},{"bike_id":"c1fb032f-fb08-4a02-aedc-39d3c7c6c011","system_id":"levelo_inurba_marseille","lat":43.306,"lon":5.36574,"is_reserved":false,"is_disabled":false,"rental_uris":{"android":"levelo://app?vid=c1fb032f-fb08-4a02-aedc-39d3c7c6c011","ios":"levelo://app?vid=c1fb032f-fb08-4a02-aedc-39d3c7c6c011"},"vehicle_type_id":"4","last_reported":1686600419,"current_range_meters":0,"station_id":"","pricing_plan_id":"free"},{"bike_id":"931e1ed1-e24d-434e-930b-6565a25c3880","system_id":"levelo_inurba_marseille","lat":43.30606,"lon":5.3722,"is_reserved":false,"is_disabled":false,"rental_uris":{"android":"levelo://app?vid=931e1ed1-e24d-434e-930b-6565a25c3880","ios":"levelo://app?vid=931e1ed1-e24d-434e-930b-6565a25c3880"},"vehicle_type_id":"4","last_reported":1686600419,"current_range_meters":4800,"station_id":"ce4bgqh2rcd13ifvqc4g","pricing_plan_id":"free"},{"bike_id":"8aefcc2e-f099-4017-a49d-e9d5977150f5","system_id":"levelo_inurba_marseille","lat":43.305989,"lon":5.37225,"is_reserved":false,"is_disabled":false,"rental_uris":{"android":"levelo://app?vid=8aefcc2e-f099-4017-a49d-e9d5977150f5","ios":"levelo://app?vid=8aefcc2e-f099-4017-a49d-e9d5977150f5"},"vehicle_type_id":"4","last_reported":1686600419,"current_range_meters":8000,"station_id":"ce4bgqh2rcd13ifvqc4g","pricing_plan_id":"free"},{"bike_id":"57113aab-7f6f-410b-bf2e-593f821ad67e","system_id":"levelo_inurba_marseille","lat":43.305989,"lon":5.37225,"is_reserved":false,"is_disabled":false,"rental_uris":{"android":"levelo://app?vid=57113aab-7f6f-410b-bf2e-593f821ad67e","ios":"levelo://app?vid=57113aab-7f6f-410b-bf2e-593f821ad67e"},"vehicle_type_id":"4","last_reported":1686600419,"current_range_meters":1600,"station_id":"ce4bgqh2rcd13ifvqc4g","pricing_plan_id":"free"},{"bike_id":"613de860-f576-4d6b-9071-6aa2931da440","system_id":"levelo_inurba_marseille","lat":43.305989,"lon":5.37225,"is_reserved":false,"is_disabled":false,"rental_uris":{"android":"levelo://app?vid=613de860-f576-4d6b-9071-6aa2931da440","ios":"levelo://app?vid=613de860-f576-4d6b-9071-6aa2931da440"},"vehicle_type_id":"4","last_reported":1686600419,"current_range_meters":28000,"station_id":"ce4bgqh2rcd13ifvqc4g","pricing_plan_id":"free"},{"bike_id":"74ac5a11-5701-4ebf-905d-28fa7c3600e2","system_id":"levelo_inurba_marseille","lat":43.305989,"lon":5.37225,"is_reserved":false,"is_disabled":false,"rental_uris":{"android":"levelo://app?vid=74ac5a11-5701-4ebf-905d-28fa7c3600e2","ios":"levelo://app?vid=74ac5a11-5701-4ebf-905d-28fa7c3600e2"},"vehicle_type_id":"4","last_reported":1686600419,"current_range_meters":6000,"station_id":"ce4bgqh2rcd13ifvqc4g","pricing_plan_id":"free"},{"bike_id":"ee4d363d-830d-46fb-a149-e25daa8a07c7","system_id":"levelo_inurba_marseille","lat":43.305989,"lon":5.37225,"is_reserved":false,"is_disabled":false,"rental_uris":{"android":"levelo://app?vid=ee4d363d-830d-46fb-a149-e25daa8a07c7","ios":"levelo://app?vid=ee4d363d-830d-46fb-a149-e25daa8a07c7"},"vehicle_type_id":"4","last_reported":1686600419,"current_range_meters":15200,"station_id":"ce4bgqh2rcd13ifvqc4g","pricing_plan_id":"free"},{"bike_id":"e11dd4c3-f3d4-432a-9157-47878a2fa8d1","system_id":"levelo_inurba_marseille","lat":43.292724,"lon":5.401131,"is_reserved":false,"is_disabled":false,"rental_uris":{"android":"levelo://app?vid=e11dd4c3-f3d4-432a-9157-47878a2fa8d1","ios":"levelo://app?vid=e11dd4c3-f3d4-432a-9157-47878a2fa8d1"},"vehicle_type_id":"4","last_reported":1686600419,"current_range_meters":30800,"station_id":"ce4bh312rcd13ifvqdk0","pricing_plan_id":"free"},{"bike_id":"a905a992-ad3f-4a7f-a7f5-f77a27153810","system_id":"levelo_inurba_marseille","lat":43.311131,"lon":5.377651,"is_reserved":false,"is_disabled":false,"rental_uris":{"android":"levelo://app?vid=a905a992-ad3f-4a7f-a7f5-f77a27153810","ios":"levelo://app?vid=a905a992-ad3f-4a7f-a7f5-f77a27153810"},"vehicle_type_id":"4","last_reported":1686600419,"current_range_meters":31200,"station_id":"ce4bgt92rcd13ifvqcg0","pricing_plan_id":"free"},{"bike_id":"b2307c51-0646-4ae1-ba6b-e144a937beb5","system_id":"levelo_inurba_marseille","lat":43.311125,"lon":5.377624,"is_reserved":false,"is_disabled":false,"rental_uris":{"android":"levelo://app?vid=b2307c51-0646-4ae1-ba6b-e144a937beb5","ios":"levelo://app?vid=b2307c51-0646-4ae1-ba6b-e144a937beb5"},"vehicle_type_id":"4","last_reported":1686600419,"current_range_meters":6000,"station_id":"ce4bgt92rcd13ifvqcg0","pricing_plan_id":"free"},{"bike_id":"e371172f-8e29-4e86-abe5-eb892838ef49","system_id":"levelo_inurba_marseille","lat":43.317075,"lon":5.377367,"is_reserved":false,"is_disabled":false,"rental_uris":{"android":"levelo://app?vid=e371172f-8e29-4e86-abe5-eb892838ef49","ios":"levelo://app?vid=e371172f-8e29-4e86-abe5-eb892838ef49"},"vehicle_type_id":"4","last_reported":1686600419,"current_range_meters":28800,"station_id":"ce4bgth2rcd13ifvqch0","pricing_plan_id":"free"},{"bike_id":"67f53162-9837-407d-81cf-fc3c4b765ca1","system_id":"levelo_inurba_marseille","lat":43.31526,"lon":5.38026,"is_reserved":false,"is_disabled":false,"rental_uris":{"android":"levelo://app?vid=67f53162-9837-407d-81cf-fc3c4b765ca1","ios":"levelo://app?vid=67f53162-9837-407d-81cf-fc3c4b765ca1"},"vehicle_type_id":"4","last_reported":1686600419,"current_range_meters":5200,"station_id":"ce4bhsp2rcd13ifvqi50","pricing_plan_id":"free"},{"bike_id":"ce27853c-3346-473e-99fb-e121615e6d3f","system_id":"levelo_inurba_marseille","lat":43.31533,"lon":5.38031,"is_reserved":false,"is_disabled":false,"rental_uris":{"android":"levelo://app?vid=ce27853c-3346-473e-99fb-e121615e6d3f","ios":"levelo://app?vid=ce27853c-3346-473e-99fb-e121615e6d3f"},"vehicle_type_id":"4","last_reported":1686600419,"current_range_meters":5600,"station_id":"ce4bhsp2rcd13ifvqi50","pricing_plan_id":"free"},{"bike_id":"12d71afa-8a20-4eaf-be5b-0500d7dc0dd7","system_id":"levelo_inurba_marseille","lat":43.31528,"lon":5.38033,"is_reserved":false,"is_disabled":false,"rental_uris":{"android":"levelo://app?vid=12d71afa-8a20-4eaf-be5b-0500d7dc0dd7","ios":"levelo://app?vid=12d71afa-8a20-4eaf-be5b-0500d7dc0dd7"},"vehicle_type_id":"4","last_reported":1686600419,"current_range_meters":1600,"station_id":"ce4bhsp2rcd13ifvqi50","pricing_plan_id":"free"},{"bike_id":"8a4f7f53-2799-4e70-92dc-54a70ac617d4","system_id":"levelo_inurba_marseille","lat":43.315293,"lon":5.380349,"is_reserved":false,"is_disabled":false,"rental_uris":{"android":"levelo://app?vid=8a4f7f53-2799-4e70-92dc-54a70ac617d4","ios":"levelo://app?vid=8a4f7f53-2799-4e70-92dc-54a70ac617d4"},"vehicle_type_id":"4","last_reported":1686600419,"current_range_meters":14000,"station_id":"ce4bhsp2rcd13ifvqi50","pricing_plan_id":"free"},{"bike_id":"65dbd165-89d5-4f4c-9a15-09b12af5e093","system_id":"levelo_inurba_marseille","lat":43.301939,"lon":5.366286,"is_reserved":false,"is_disabled":false,"rental_uris":{"android":"levelo://app?vid=65dbd165-89d5-4f4c-9a15-09b12af5e093","ios":"levelo://app?vid=65dbd165-89d5-4f4c-9a15-09b12af5e093"},"vehicle_type_id":"4","last_reported":1686600419,"current_range_meters":19600,"station_id":"ce4bgrh2rcd13ifvqc8g","pricing_plan_id":"free"},{"bike_id":"e4eb563a-2d01-4fac-972d-7f62e590ead0","system_id":"levelo_inurba_marseille","lat":43.30801,"lon":5.38141,"is_reserved":false,"is_disabled":false,"rental_uris":{"android":"levelo://app?vid=e4eb563a-2d01-4fac-972d-7f62e590ead0","ios":"levelo://app?vid=e4eb563a-2d01-4fac-972d-7f62e590ead0"},"vehicle_type_id":"4","last_reported":1686600419,"current_range_meters":31200,"station_id":"ce4bgt12rcd13ifvqce0","pricing_plan_id":"free"},{"bike_id":"1bac387a-baa0-4faf-b9c8-002be9ad92b7","system_id":"levelo_inurba_marseille","lat":43.30803,"lon":5.38147,"is_reserved":false,"is_disabled":false,"rental_uris":{"android":"levelo://app?vid=1bac387a-baa0-4faf-b9c8-002be9ad92b7","ios":"levelo://app?vid=1bac387a-baa0-4faf-b9c8-002be9ad92b7"},"vehicle_type_id":"4","last_reported":1686600419,"current_range_meters":0,"station_id":"ce4bgt12rcd13ifvqce0","pricing_plan_id":"free"},{"bike_id":"f07de445-9260-4b0e-ad41-3caeda06d319","system_id":"levelo_inurba_marseille","lat":43.30796,"lon":5.38148,"is_reserved":false,"is_disabled":false,"rental_uris":{"android":"levelo://app?vid=f07de445-9260-4b0e-ad41-3caeda06d319","ios":"levelo://app?vid=f07de445-9260-4b0e-ad41-3caeda06d319"},"vehicle_type_id":"4","last_reported":1686600419,"current_range_meters":0,"station_id":"ce4bgt12rcd13ifvqce0","pricing_plan_id":"free"},{"bike_id":"e9556d91-6189-4203-8f01-ccae0efe1551","system_id":"levelo_inurba_marseille","lat":43.308012,"lon":5.381511,"is_reserved":false,"is_disabled":false,"rental_uris":{"android":"levelo://app?vid=e9556d91-6189-4203-8f01-ccae0efe1551","ios":"levelo://app?vid=e9556d91-6189-4203-8f01-ccae0efe1551"},"vehicle_type_id":"4","last_reported":1686600419,"current_range_meters":6800,"station_id":"ce4bgt12rcd13ifvqce0","pricing_plan_id":"free"},{"bike_id":"de6b15ce-d1c4-4c3a-94b7-7fafe42dee14","system_id":"levelo_inurba_marseille","lat":43.308001,"lon":5.381562,"is_reserved":false,"is_disabled":false,"rental_uris":{"android":"levelo://app?vid=de6b15ce-d1c4-4c3a-94b7-7fafe42dee14","ios":"levelo://app?vid=de6b15ce-d1c4-4c3a-94b7-7fafe42dee14"},"vehicle_type_id":"4","last_reported":1686600419,"current_range_meters":13200,"station_id":"ce4bgt12rcd13ifvqce0","pricing_plan_id":"free"},{"bike_id":"180adcf1-5ca4-4465-8525-2d0f746755f3","system_id":"levelo_inurba_marseille","lat":43.30807,"lon":5.38165,"is_reserved":false,"is_disabled":false,"rental_uris":{"android":"levelo://app?vid=180adcf1-5ca4-4465-8525-2d0f746755f3","ios":"levelo://app?vid=180adcf1-5ca4-4465-8525-2d0f746755f3"},"vehicle_type_id":"4","last_reported":1686600419,"current_range_meters":30000,"station_id":"ce4bgt12rcd13ifvqce0","pricing_plan_id":"free"},{"bike_id":"5b440b84-f7fb-491f-a2c2-03269406fce6","system_id":"levelo_inurba_marseille","lat":43.304606,"lon":5.379026,"is_reserved":false,"is_disabled":false,"rental_uris":{"android":"levelo://app?vid=5b440b84-f7fb-491f-a2c2-03269406fce6","ios":"levelo://app?vid=5b440b84-f7fb-491f-a2c2-03269406fce6"},"vehicle_type_id":"4","last_reported":1686600419,"current_range_meters":4400,"station_id":"ce4bgup2rcd13ifvqcn0","pricing_plan_id":"free"},{"bike_id":"3a56d3e0-d686-45c6-afac-7592cb0c75c5","system_id":"levelo_inurba_marseille","lat":43.30143,"lon":5.37404,"is_reserved":false,"is_disabled":false,"rental_uris":{"android":"levelo://app?vid=3a56d3e0-d686-45c6-afac-7592cb0c75c5","ios":"levelo://app?vid=3a56d3e0-d686-45c6-afac-7592cb0c75c5"},"vehicle_type_id":"4","last_reported":1686600419,"current_range_meters":400,"station_id":"ce4bgs92rcd13ifvqcc0","pricing_plan_id":"free"},{"bike_id":"10373a1f-7395-484b-9bf4-f643d1dc0ec7","system_id":"levelo_inurba_marseille","lat":43.30143,"lon":5.37413,"is_reserved":false,"is_disabled":false,"rental_uris":{"android":"levelo://app?vid=10373a1f-7395-484b-9bf4-f643d1dc0ec7","ios":"levelo://app?vid=10373a1f-7395-484b-9bf4-f643d1dc0ec7"},"vehicle_type_id":"4","last_reported":1686600419,"current_range_meters":4800,"station_id":"ce4bgs92rcd13ifvqcc0","pricing_plan_id":"free"},{"bike_id":"148976ba-5642-4c28-9d40-d4126c007abe","system_id":"levelo_inurba_marseille","lat":43.31761,"lon":5.38324,"is_reserved":false,"is_disabled":false,"rental_uris":{"android":"levelo://app?vid=148976ba-5642-4c28-9d40-d4126c007abe","ios":"levelo://app?vid=148976ba-5642-4c28-9d40-d4126c007abe"},"vehicle_type_id":"4","last_reported":1686600419,"current_range_meters":24000,"station_id":"","pricing_plan_id":"free"},{"bike_id":"53be99d0-4300-4f33-aa2a-8622745e539e","system_id":"levelo_inurba_marseille","lat":43.319935,"lon":5.381699,"is_reserved":false,"is_disabled":false,"rental_uris":{"android":"levelo://app?vid=53be99d0-4300-4f33-aa2a-8622745e539e","ios":"levelo://app?vid=53be99d0-4300-4f33-aa2a-8622745e539e"},"vehicle_type_id":"4","last_reported":1686600419,"current_range_meters":26000,"station_id":"ce4bhr12rcd13ifvqhpg","pricing_plan_id":"free"},{"bike_id":"31a3da9b-f536-496b-af9a-79b9d3d919c9","system_id":"levelo_inurba_marseille","lat":43.319935,"lon":5.381699,"is_reserved":false,"is_disabled":false,"rental_uris":{"android":"levelo://app?vid=31a3da9b-f536-496b-af9a-79b9d3d919c9","ios":"levelo://app?vid=31a3da9b-f536-496b-af9a-79b9d3d919c9"},"vehicle_type_id":"4","last_reported":1686600419,"current_range_meters":3200,"station_id":"ce4bhr12rcd13ifvqhpg","pricing_plan_id":"free"},{"bike_id":"241479bc-85d3-4b05-8f6f-1c276f5686ac","system_id":"levelo_inurba_marseille","lat":43.32001,"lon":5.38152,"is_reserved":false,"is_disabled":false,"rental_uris":{"android":"levelo://app?vid=241479bc-85d3-4b05-8f6f-1c276f5686ac","ios":"levelo://app?vid=241479bc-85d3-4b05-8f6f-1c276f5686ac"},"vehicle_type_id":"4","last_reported":1686600419,"current_range_meters":1600,"station_id":"ce4bhr12rcd13ifvqhpg","pricing_plan_id":"free"},{"bike_id":"95007eb2-ebf6-455f-8881-2cc0d3b6045d","system_id":"levelo_inurba_marseille","lat":43.31358,"lon":5.38489,"is_reserved":false,"is_disabled":false,"rental_uris":{"android":"levelo://app?vid=95007eb2-ebf6-455f-8881-2cc0d3b6045d","ios":"levelo://app?vid=95007eb2-ebf6-455f-8881-2cc0d3b6045d"},"vehicle_type_id":"4","last_reported":1686600419,"current_range_meters":20000,"station_id":"ce4bgt92rcd13ifvqcf0","pricing_plan_id":"free"},{"bike_id":"a4d105a5-3c82-4659-b281-f56532fcafe7","system_id":"levelo_inurba_marseille","lat":43.31368,"lon":5.38489,"is_reserved":false,"is_disabled":false,"rental_uris":{"android":"levelo://app?vid=a4d105a5-3c82-4659-b281-f56532fcafe7","ios":"levelo://app?vid=a4d105a5-3c82-4659-b281-f56532fcafe7"},"vehicle_type_id":"4","last_reported":1686600419,"current_range_meters":6000,"station_id":"ce4bgt92rcd13ifvqcf0","pricing_plan_id":"free"},{"bike_id":"a7f58504-2004-43a6-89e4-841b8c933f9c","system_id":"levelo_inurba_marseille","lat":43.299222,"lon":5.365554,"is_reserved":false,"is_disabled":false,"rental_uris":{"android":"levelo://app?vid=a7f58504-2004-43a6-89e4-841b8c933f9c","ios":"levelo://app?vid=a7f58504-2004-43a6-89e4-841b8c933f9c"},"vehicle_type_id":"4","last_reported":1686600419,"current_range_meters":10400,"station_id":"ce4bgm92rcd13ifvqbr0","pricing_plan_id":"free"},{"bike_id":"bc02f6ad-8898-4750-9aa5-77aaaf4d7501","system_id":"levelo_inurba_marseille","lat":43.30544,"lon":5.38437,"is_reserved":false,"is_disabled":false,"rental_uris":{"android":"levelo://app?vid=bc02f6ad-8898-4750-9aa5-77aaaf4d7501","ios":"levelo://app?vid=bc02f6ad-8898-4750-9aa5-77aaaf4d7501"},"vehicle_type_id":"4","last_reported":1686600419,"current_range_meters":13600,"station_id":"ce4bgg92rcd13ifvqb30","pricing_plan_id":"free"},{"bike_id":"932ad952-ba63-42d4-80c6-6a8586360a5b","system_id":"levelo_inurba_marseille","lat":43.298433,"lon":5.362774,"is_reserved":false,"is_disabled":false,"rental_uris":{"android":"levelo://app?vid=932ad952-ba63-42d4-80c6-6a8586360a5b","ios":"levelo://app?vid=932ad952-ba63-42d4-80c6-6a8586360a5b"},"vehicle_type_id":"4","last_reported":1686600419,"current_range_meters":24400,"station_id":"ce4bgpp2rcd13ifvqc3g","pricing_plan_id":"free"},{"bike_id":"bd6aaabc-d1f3-40d2-af03-328a7dda89e3","system_id":"levelo_inurba_marseille","lat":43.30536,"lon":5.38434,"is_reserved":false,"is_disabled":false,"rental_uris":{"android":"levelo://app?vid=bd6aaabc-d1f3-40d2-af03-328a7dda89e3","ios":"levelo://app?vid=bd6aaabc-d1f3-40d2-af03-328a7dda89e3"},"vehicle_type_id":"4","last_reported":1686600419,"current_range_meters":16400,"station_id":"ce4bgg92rcd13ifvqb30","pricing_plan_id":"free"},{"bike_id":"487f7a82-4fc4-481c-b0ea-f122c0254040","system_id":"levelo_inurba_marseille","lat":43.311722,"lon":5.387247,"is_reserved":false,"is_disabled":false,"rental_uris":{"android":"levelo://app?vid=487f7a82-4fc4-481c-b0ea-f122c0254040","ios":"levelo://app?vid=487f7a82-4fc4-481c-b0ea-f122c0254040"},"vehicle_type_id":"4","last_reported":1686600419,"current_range_meters":30800,"station_id":"ce4bgv12rcd13ifvqcp0","pricing_plan_id":"free"},{"bike_id":"968f567c-59f8-4de7-8a72-6cfc0f510bdc","system_id":"levelo_inurba_marseille","lat":43.297794,"lon":5.370888,"is_reserved":false,"is_disabled":false,"rental_uris":{"android":"levelo://app?vid=968f567c-59f8-4de7-8a72-6cfc0f510bdc","ios":"levelo://app?vid=968f567c-59f8-4de7-8a72-6cfc0f510bdc"},"vehicle_type_id":"4","last_reported":1686600419,"current_range_meters":21600,"station_id":"ce4bgop2rcd13ifvqc1g","pricing_plan_id":"free"},{"bike_id":"f19fd841-c4a3-4b27-b0f1-49d12a1f2c2a","system_id":"levelo_inurba_marseille","lat":43.297794,"lon":5.370888,"is_reserved":false,"is_disabled":false,"rental_uris":{"android":"levelo://app?vid=f19fd841-c4a3-4b27-b0f1-49d12a1f2c2a","ios":"levelo://app?vid=f19fd841-c4a3-4b27-b0f1-49d12a1f2c2a"},"vehicle_type_id":"4","last_reported":1686600419,"current_range_meters":4400,"station_id":"ce4bgop2rcd13ifvqc1g","pricing_plan_id":"free"},{"bike_id":"e63ab30a-c3da-4dff-9adc-d899ea37f38d","system_id":"levelo_inurba_marseille","lat":43.29716,"lon":5.36602,"is_reserved":false,"is_disabled":false,"rental_uris":{"android":"levelo://app?vid=e63ab30a-c3da-4dff-9adc-d899ea37f38d","ios":"levelo://app?vid=e63ab30a-c3da-4dff-9adc-d899ea37f38d"},"vehicle_type_id":"4","last_reported":1686600419,"current_range_meters":12400,"station_id":"","pricing_plan_id":"free"},{"bike_id":"a76e99ff-3740-403b-a47b-cfeb226c1486","system_id":"levelo_inurba_marseille","lat":43.29714,"lon":5.36612,"is_reserved":false,"is_disabled":false,"rental_uris":{"android":"levelo://app?vid=a76e99ff-3740-403b-a47b-cfeb226c1486","ios":"levelo://app?vid=a76e99ff-3740-403b-a47b-cfeb226c1486"},"vehicle_type_id":"4","last_reported":1686600419,"current_range_meters":16400,"station_id":"","pricing_plan_id":"free"},{"bike_id":"78bf69f9-bc80-4579-b422-a498c4fb9c83","system_id":"levelo_inurba_marseille","lat":43.297024,"lon":5.365857,"is_reserved":false,"is_disabled":false,"rental_uris":{"android":"levelo://app?vid=78bf69f9-bc80-4579-b422-a498c4fb9c83","ios":"levelo://app?vid=78bf69f9-bc80-4579-b422-a498c4fb9c83"},"vehicle_type_id":"4","last_reported":1686600419,"current_range_meters":1600,"station_id":"","pricing_plan_id":"free"},{"bike_id":"88d0330c-5bb0-4a19-9b65-d4683b42e015","system_id":"levelo_inurba_marseille","lat":43.29683,"lon":5.36046,"is_reserved":false,"is_disabled":false,"rental_uris":{"android":"levelo://app?vid=88d0330c-5bb0-4a19-9b65-d4683b42e015","ios":"levelo://app?vid=88d0330c-5bb0-4a19-9b65-d4683b42e015"},"vehicle_type_id":"4","last_reported":1686600419,"current_range_meters":24400,"station_id":"ce4bgpp2rcd13ifvqc3g","pricing_plan_id":"free"},{"bike_id":"dcd50e81-4967-4524-ae3d-1c54fa7cb612","system_id":"levelo_inurba_marseille","lat":43.296131,"lon":5.370791,"is_reserved":false,"is_disabled":false,"rental_uris":{"android":"levelo://app?vid=dcd50e81-4967-4524-ae3d-1c54fa7cb612","ios":"levelo://app?vid=dcd50e81-4967-4524-ae3d-1c54fa7cb612"},"vehicle_type_id":"4","last_reported":1686600419,"current_range_meters":31200,"station_id":"ce4bgnh2rcd13ifvqc0g","pricing_plan_id":"free"},{"bike_id":"d66f0f55-151b-4635-a93e-27354a000df6","system_id":"levelo_inurba_marseille","lat":43.296131,"lon":5.370791,"is_reserved":false,"is_disabled":false,"rental_uris":{"android":"levelo://app?vid=d66f0f55-151b-4635-a93e-27354a000df6","ios":"levelo://app?vid=d66f0f55-151b-4635-a93e-27354a000df6"},"vehicle_type_id":"4","last_reported":1686600419,"current_range_meters":28000,"station_id":"ce4bgnh2rcd13ifvqc0g","pricing_plan_id":"free"},{"bike_id":"b310fc1c-a9b7-469c-9a2d-a0ab4e8acb9c","system_id":"levelo_inurba_marseille","lat":43.296129,"lon":5.370777,"is_reserved":false,"is_disabled":false,"rental_uris":{"android":"levelo://app?vid=b310fc1c-a9b7-469c-9a2d-a0ab4e8acb9c","ios":"levelo://app?vid=b310fc1c-a9b7-469c-9a2d-a0ab4e8acb9c"},"vehicle_type_id":"4","last_reported":1686600419,"current_range_meters":30800,"station_id":"ce4bgnh2rcd13ifvqc0g","pricing_plan_id":"free"},{"bike_id":"cfbf8aa2-2d59-43bc-92bc-4d3a17aee8c3","system_id":"levelo_inurba_marseille","lat":43.29573,"lon":5.367355,"is_reserved":false,"is_disabled":false,"rental_uris":{"android":"levelo://app?vid=cfbf8aa2-2d59-43bc-92bc-4d3a17aee8c3","ios":"levelo://app?vid=cfbf8aa2-2d59-43bc-92bc-4d3a17aee8c3"},"vehicle_type_id":"4","last_reported":1686600419,"current_range_meters":2800,"station_id":"ce4bgph2rcd13ifvqc2g","pricing_plan_id":"free"},{"bike_id":"5c2e65e1-a169-43a8-92be-363c7c72c719","system_id":"levelo_inurba_marseille","lat":43.29581,"lon":5.36746,"is_reserved":false,"is_disabled":false,"rental_uris":{"android":"levelo://app?vid=5c2e65e1-a169-43a8-92be-363c7c72c719","ios":"levelo://app?vid=5c2e65e1-a169-43a8-92be-363c7c72c719"},"vehicle_type_id":"4","last_reported":1686600419,"current_range_meters":6000,"station_id":"ce4bgph2rcd13ifvqc2g","pricing_plan_id":"free"},{"bike_id":"3d32bbb8-29ca-479e-887d-955b26e12909","system_id":"levelo_inurba_marseille","lat":43.29714,"lon":5.37686,"is_reserved":false,"is_disabled":false,"rental_uris":{"android":"levelo://app?vid=3d32bbb8-29ca-479e-887d-955b26e12909","ios":"levelo://app?vid=3d32bbb8-29ca-479e-887d-955b26e12909"},"vehicle_type_id":"4","last_reported":1686600419,"current_range_meters":0,"station_id":"ce4bgkh2rcd13ifvqbl0","pricing_plan_id":"free"},{"bike_id":"26b281b6-f730-49c6-8aec-27ad8a1e855e","system_id":"levelo_inurba_marseille","lat":43.299028,"lon":5.381509,"is_reserved":false,"is_disabled":false,"rental_uris":{"android":"levelo://app?vid=26b281b6-f730-49c6-8aec-27ad8a1e855e","ios":"levelo://app?vid=26b281b6-f730-49c6-8aec-27ad8a1e855e"},"vehicle_type_id":"4","last_reported":1686600419,"current_range_meters":8800,"station_id":"ce4bgj12rcd13ifvqbc0","pricing_plan_id":"free"},{"bike_id":"225c7872-eaa4-4089-b361-77c4400a5087","system_id":"levelo_inurba_marseille","lat":43.317557,"lon":5.390173,"is_reserved":false,"is_disabled":false,"rental_uris":{"android":"levelo://app?vid=225c7872-eaa4-4089-b361-77c4400a5087","ios":"levelo://app?vid=225c7872-eaa4-4089-b361-77c4400a5087"},"vehicle_type_id":"4","last_reported":1686600419,"current_range_meters":0,"station_id":"ce4bhqp2rcd13ifvqhng","pricing_plan_id":"free"},{"bike_id":"a14f2b33-da3d-47cd-8554-f9f4dd9a5489","system_id":"levelo_inurba_marseille","lat":43.317557,"lon":5.390173,"is_reserved":false,"is_disabled":false,"rental_uris":{"android":"levelo://app?vid=a14f2b33-da3d-47cd-8554-f9f4dd9a5489","ios":"levelo://app?vid=a14f2b33-da3d-47cd-8554-f9f4dd9a5489"},"vehicle_type_id":"4","last_reported":1686600419,"current_range_meters":0,"station_id":"ce4bhqp2rcd13ifvqhng","pricing_plan_id":"free"},{"bike_id":"b909ed30-4755-4370-9370-327f2b4559b8","system_id":"levelo_inurba_marseille","lat":43.317557,"lon":5.390173,"is_reserved":false,"is_disabled":false,"rental_uris":{"android":"levelo://app?vid=b909ed30-4755-4370-9370-327f2b4559b8","ios":"levelo://app?vid=b909ed30-4755-4370-9370-327f2b4559b8"},"vehicle_type_id":"4","last_reported":1686600419,"current_range_meters":8000,"station_id":"ce4bhqp2rcd13ifvqhng","pricing_plan_id":"free"},{"bike_id":"acfd58c1-0057-4a8a-9181-5f3420d2fbf8","system_id":"levelo_inurba_marseille","lat":43.29659,"lon":5.37658,"is_reserved":false,"is_disabled":false,"rental_uris":{"android":"levelo://app?vid=acfd58c1-0057-4a8a-9181-5f3420d2fbf8","ios":"levelo://app?vid=acfd58c1-0057-4a8a-9181-5f3420d2fbf8"},"vehicle_type_id":"4","last_reported":1686600419,"current_range_meters":12800,"station_id":"","pricing_plan_id":"free"},{"bike_id":"ccc7a7c3-f2c1-4793-805f-6082d94822d7","system_id":"levelo_inurba_marseille","lat":43.296277,"lon":5.377108,"is_reserved":false,"is_disabled":false,"rental_uris":{"android":"levelo://app?vid=ccc7a7c3-f2c1-4793-805f-6082d94822d7","ios":"levelo://app?vid=ccc7a7c3-f2c1-4793-805f-6082d94822d7"},"vehicle_type_id":"4","last_reported":1686600419,"current_range_meters":1600,"station_id":"ce4bgi92rcd13ifvqb90","pricing_plan_id":"free"},{"bike_id":"1ff36bfb-aac9-488e-9209-08ce8faefc28","system_id":"levelo_inurba_marseille","lat":43.299707,"lon":5.384859,"is_reserved":false,"is_disabled":false,"rental_uris":{"android":"levelo://app?vid=1ff36bfb-aac9-488e-9209-08ce8faefc28","ios":"levelo://app?vid=1ff36bfb-aac9-488e-9209-08ce8faefc28"},"vehicle_type_id":"4","last_reported":1686600419,"current_range_meters":800,"station_id":"ce4bgj92rcd13ifvqbd0","pricing_plan_id":"free"},{"bike_id":"34bcd553-d245-4eaf-b85f-b905c5e7ff18","system_id":"levelo_inurba_marseille","lat":43.299717,"lon":5.384845,"is_reserved":false,"is_disabled":false,"rental_uris":{"android":"levelo://app?vid=34bcd553-d245-4eaf-b85f-b905c5e7ff18","ios":"levelo://app?vid=34bcd553-d245-4eaf-b85f-b905c5e7ff18"},"vehicle_type_id":"4","last_reported":1686600419,"current_range_meters":29600,"station_id":"ce4bgj92rcd13ifvqbd0","pricing_plan_id":"free"},{"bike_id":"d837c3a4-64b3-476a-8ea8-9fc7f0eb4f25","system_id":"levelo_inurba_marseille","lat":43.299707,"lon":5.384859,"is_reserved":false,"is_disabled":false,"rental_uris":{"android":"levelo://app?vid=d837c3a4-64b3-476a-8ea8-9fc7f0eb4f25","ios":"levelo://app?vid=d837c3a4-64b3-476a-8ea8-9fc7f0eb4f25"},"vehicle_type_id":"4","last_reported":1686600419,"current_range_meters":28000,"station_id":"ce4bgj92rcd13ifvqbd0","pricing_plan_id":"free"},{"bike_id":"8679c512-3cdd-4c23-b026-c3c6b0647a51","system_id":"levelo_inurba_marseille","lat":43.299724,"lon":5.384848,"is_reserved":false,"is_disabled":false,"rental_uris":{"android":"levelo://app?vid=8679c512-3cdd-4c23-b026-c3c6b0647a51","ios":"levelo://app?vid=8679c512-3cdd-4c23-b026-c3c6b0647a51"},"vehicle_type_id":"4","last_reported":1686600419,"current_range_meters":9200,"station_id":"ce4bgj92rcd13ifvqbd0","pricing_plan_id":"free"},{"bike_id":"a5478e27-93f2-401a-b9ce-66733e70b4e7","system_id":"levelo_inurba_marseille","lat":43.29966,"lon":5.38498,"is_reserved":false,"is_disabled":false,"rental_uris":{"android":"levelo://app?vid=a5478e27-93f2-401a-b9ce-66733e70b4e7","ios":"levelo://app?vid=a5478e27-93f2-401a-b9ce-66733e70b4e7"},"vehicle_type_id":"4","last_reported":1686600419,"current_range_meters":10000,"station_id":"ce4bgj92rcd13ifvqbd0","pricing_plan_id":"free"},{"bike_id":"c6f068ef-b185-4ffe-bdc9-9eb613565bbd","system_id":"levelo_inurba_marseille","lat":43.299717,"lon":5.384845,"is_reserved":false,"is_disabled":false,"rental_uris":{"android":"levelo://app?vid=c6f068ef-b185-4ffe-bdc9-9eb613565bbd","ios":"levelo://app?vid=c6f068ef-b185-4ffe-bdc9-9eb613565bbd"},"vehicle_type_id":"4","last_reported":1686600419,"current_range_meters":6800,"station_id":"ce4bgj92rcd13ifvqbd0","pricing_plan_id":"free"},{"bike_id":"d56800b1-31a0-4bc2-8a46-43650294de38","system_id":"levelo_inurba_marseille","lat":43.299717,"lon":5.384845,"is_reserved":false,"is_disabled":false,"rental_uris":{"android":"levelo://app?vid=d56800b1-31a0-4bc2-8a46-43650294de38","ios":"levelo://app?vid=d56800b1-31a0-4bc2-8a46-43650294de38"},"vehicle_type_id":"4","last_reported":1686600419,"current_range_meters":12400,"station_id":"ce4bgj92rcd13ifvqbd0","pricing_plan_id":"free"},{"bike_id":"c62c0d47-6751-4e7c-ae1a-3cc02553bea7","system_id":"levelo_inurba_marseille","lat":43.299724,"lon":5.384848,"is_reserved":false,"is_disabled":false,"rental_uris":{"android":"levelo://app?vid=c62c0d47-6751-4e7c-ae1a-3cc02553bea7","ios":"levelo://app?vid=c62c0d47-6751-4e7c-ae1a-3cc02553bea7"},"vehicle_type_id":"4","last_reported":1686600419,"current_range_meters":28800,"station_id":"ce4bgj92rcd13ifvqbd0","pricing_plan_id":"free"},{"bike_id":"9e6cb235-fe65-45fb-85e0-c410fab4b87f","system_id":"levelo_inurba_marseille","lat":43.32367,"lon":5.388836,"is_reserved":false,"is_disabled":false,"rental_uris":{"android":"levelo://app?vid=9e6cb235-fe65-45fb-85e0-c410fab4b87f","ios":"levelo://app?vid=9e6cb235-fe65-45fb-85e0-c410fab4b87f"},"vehicle_type_id":"4","last_reported":1686600419,"current_range_meters":1600,"station_id":"ce4bhqp2rcd13ifvqhog","pricing_plan_id":"free"},{"bike_id":"46855f82-9c64-4051-920e-312c6a202b8d","system_id":"levelo_inurba_marseille","lat":43.32367,"lon":5.388836,"is_reserved":false,"is_disabled":false,"rental_uris":{"android":"levelo://app?vid=46855f82-9c64-4051-920e-312c6a202b8d","ios":"levelo://app?vid=46855f82-9c64-4051-920e-312c6a202b8d"},"vehicle_type_id":"4","last_reported":1686600419,"current_range_meters":400,"station_id":"ce4bhqp2rcd13ifvqhog","pricing_plan_id":"free"},{"bike_id":"ea6cfea9-3ee5-4e73-9098-b16615a56cd9","system_id":"levelo_inurba_marseille","lat":43.32367,"lon":5.388836,"is_reserved":false,"is_disabled":false,"rental_uris":{"android":"levelo://app?vid=ea6cfea9-3ee5-4e73-9098-b16615a56cd9","ios":"levelo://app?vid=ea6cfea9-3ee5-4e73-9098-b16615a56cd9"},"vehicle_type_id":"4","last_reported":1686600419,"current_range_meters":23600,"station_id":"ce4bhqp2rcd13ifvqhog","pricing_plan_id":"free"},{"bike_id":"e6a3dac9-7f09-471f-865b-75685d05e4ff","system_id":"levelo_inurba_marseille","lat":43.32367,"lon":5.388836,"is_reserved":false,"is_disabled":false,"rental_uris":{"android":"levelo://app?vid=e6a3dac9-7f09-471f-865b-75685d05e4ff","ios":"levelo://app?vid=e6a3dac9-7f09-471f-865b-75685d05e4ff"},"vehicle_type_id":"4","last_reported":1686600419,"current_range_meters":0,"station_id":"ce4bhqp2rcd13ifvqhog","pricing_plan_id":"free"},{"bike_id":"91e70a52-1e7d-4517-a1af-205b2fb62940","system_id":"levelo_inurba_marseille","lat":43.32367,"lon":5.388836,"is_reserved":false,"is_disabled":false,"rental_uris":{"android":"levelo://app?vid=91e70a52-1e7d-4517-a1af-205b2fb62940","ios":"levelo://app?vid=91e70a52-1e7d-4517-a1af-205b2fb62940"},"vehicle_type_id":"4","last_reported":1686600419,"current_range_meters":23200,"station_id":"ce4bhqp2rcd13ifvqhog","pricing_plan_id":"free"},{"bike_id":"7fc5313e-9f00-42aa-9d43-3db55033e950","system_id":"levelo_inurba_marseille","lat":43.29601,"lon":5.381084,"is_reserved":false,"is_disabled":false,"rental_uris":{"android":"levelo://app?vid=7fc5313e-9f00-42aa-9d43-3db55033e950","ios":"levelo://app?vid=7fc5313e-9f00-42aa-9d43-3db55033e950"},"vehicle_type_id":"4","last_reported":1686600419,"current_range_meters":17600,"station_id":"ce4bgl12rcd13ifvqbo0","pricing_plan_id":"free"},{"bike_id":"984c429c-82b3-4d2d-8500-8ccfaf729857","system_id":"levelo_inurba_marseille","lat":43.293249,"lon":5.371578,"is_reserved":false,"is_disabled":false,"rental_uris":{"android":"levelo://app?vid=984c429c-82b3-4d2d-8500-8ccfaf729857","ios":"levelo://app?vid=984c429c-82b3-4d2d-8500-8ccfaf729857"},"vehicle_type_id":"4","last_reported":1686600419,"current_range_meters":24000,"station_id":"ce4bgh92rcd13ifvqb40","pricing_plan_id":"free"},{"bike_id":"4ee773fb-5c5e-4afd-ba3a-4395f33d3536","system_id":"levelo_inurba_marseille","lat":43.302992,"lon":5.392136,"is_reserved":false,"is_disabled":false,"rental_uris":{"android":"levelo://app?vid=4ee773fb-5c5e-4afd-ba3a-4395f33d3536","ios":"levelo://app?vid=4ee773fb-5c5e-4afd-ba3a-4395f33d3536"},"vehicle_type_id":"4","last_reported":1686600419,"current_range_meters":2400,"station_id":"ce4bgkh2rcd13ifvqbk0","pricing_plan_id":"free"},{"bike_id":"1a1ceb49-57c7-4a35-9750-34f1feb5acee","system_id":"levelo_inurba_marseille","lat":43.2936,"lon":5.37835,"is_reserved":false,"is_disabled":false,"rental_uris":{"android":"levelo://app?vid=1a1ceb49-57c7-4a35-9750-34f1feb5acee","ios":"levelo://app?vid=1a1ceb49-57c7-4a35-9750-34f1feb5acee"},"vehicle_type_id":"4","last_reported":1686600419,"current_range_meters":29200,"station_id":"ce4bgjh2rcd13ifvqbf0","pricing_plan_id":"free"},{"bike_id":"13de7327-00ec-4c14-8e7b-91480df5a490","system_id":"levelo_inurba_marseille","lat":43.300852,"lon":5.390859,"is_reserved":false,"is_disabled":false,"rental_uris":{"android":"levelo://app?vid=13de7327-00ec-4c14-8e7b-91480df5a490","ios":"levelo://app?vid=13de7327-00ec-4c14-8e7b-91480df5a490"},"vehicle_type_id":"4","last_reported":1686600419,"current_range_meters":24000,"station_id":"ce4bh192rcd13ifvqdb0","pricing_plan_id":"free"},{"bike_id":"69f71c69-ee07-4af6-ae20-b7e1c3ee7098","system_id":"levelo_inurba_marseille","lat":43.29219,"lon":5.360473,"is_reserved":false,"is_disabled":false,"rental_uris":{"android":"levelo://app?vid=69f71c69-ee07-4af6-ae20-b7e1c3ee7098","ios":"levelo://app?vid=69f71c69-ee07-4af6-ae20-b7e1c3ee7098"},"vehicle_type_id":"4","last_reported":1686600419,"current_range_meters":31200,"station_id":"ce4bhbh2rcd13ifvqeqg","pricing_plan_id":"free"},{"bike_id":"f6edbc83-f193-4cf6-9d46-f4e284a197f2","system_id":"levelo_inurba_marseille","lat":43.298764,"lon":5.388973,"is_reserved":false,"is_disabled":false,"rental_uris":{"android":"levelo://app?vid=f6edbc83-f193-4cf6-9d46-f4e284a197f2","ios":"levelo://app?vid=f6edbc83-f193-4cf6-9d46-f4e284a197f2"},"vehicle_type_id":"4","last_reported":1686600419,"current_range_meters":400,"station_id":"ce4bh392rcd13ifvqdl0","pricing_plan_id":"free"},{"bike_id":"2d490b68-816c-4e07-9d49-01e52dd68b13","system_id":"levelo_inurba_marseille","lat":43.32996,"lon":5.3845,"is_reserved":false,"is_disabled":false,"rental_uris":{"android":"levelo://app?vid=2d490b68-816c-4e07-9d49-01e52dd68b13","ios":"levelo://app?vid=2d490b68-816c-4e07-9d49-01e52dd68b13"},"vehicle_type_id":"4","last_reported":1686600419,"current_range_meters":31600,"station_id":"","pricing_plan_id":"free"},{"bike_id":"df36824a-dcd9-445a-83a9-b8cc6eb3d6bd","system_id":"levelo_inurba_marseille","lat":43.309038,"lon":5.396546,"is_reserved":false,"is_disabled":false,"rental_uris":{"android":"levelo://app?vid=df36824a-dcd9-445a-83a9-b8cc6eb3d6bd","ios":"levelo://app?vid=df36824a-dcd9-445a-83a9-b8cc6eb3d6bd"},"vehicle_type_id":"4","last_reported":1686600419,"current_range_meters":3200,"station_id":"ce4bh012rcd13ifvqcv0","pricing_plan_id":"free"},{"bike_id":"b4b5630c-6e62-4bea-b0b6-5ccca238dd85","system_id":"levelo_inurba_marseille","lat":43.291994,"lon":5.357886,"is_reserved":false,"is_disabled":false,"rental_uris":{"android":"levelo://app?vid=b4b5630c-6e62-4bea-b0b6-5ccca238dd85","ios":"levelo://app?vid=b4b5630c-6e62-4bea-b0b6-5ccca238dd85"},"vehicle_type_id":"4","last_reported":1686600419,"current_range_meters":31200,"station_id":"ce4bhb12rcd13ifvqel0","pricing_plan_id":"free"},{"bike_id":"7f3131e1-f81e-4225-9a0c-130153a2a8a1","system_id":"levelo_inurba_marseille","lat":43.313291,"lon":5.396838,"is_reserved":false,"is_disabled":false,"rental_uris":{"android":"levelo://app?vid=7f3131e1-f81e-4225-9a0c-130153a2a8a1","ios":"levelo://app?vid=7f3131e1-f81e-4225-9a0c-130153a2a8a1"},"vehicle_type_id":"4","last_reported":1686600419,"current_range_meters":8000,"station_id":"ce4bgvp2rcd13ifvqcu0","pricing_plan_id":"free"},{"bike_id":"6bd6c7ee-6b2c-4abe-b061-424feee7a647","system_id":"levelo_inurba_marseille","lat":43.309038,"lon":5.396546,"is_reserved":false,"is_disabled":false,"rental_uris":{"android":"levelo://app?vid=6bd6c7ee-6b2c-4abe-b061-424feee7a647","ios":"levelo://app?vid=6bd6c7ee-6b2c-4abe-b061-424feee7a647"},"vehicle_type_id":"4","last_reported":1686600419,"current_range_meters":20800,"station_id":"ce4bh012rcd13ifvqcv0","pricing_plan_id":"free"},{"bike_id":"0bef4b14-1fee-4703-82ce-5c570120e986","system_id":"levelo_inurba_marseille","lat":43.309038,"lon":5.396546,"is_reserved":false,"is_disabled":false,"rental_uris":{"android":"levelo://app?vid=0bef4b14-1fee-4703-82ce-5c570120e986","ios":"levelo://app?vid=0bef4b14-1fee-4703-82ce-5c570120e986"},"vehicle_type_id":"4","last_reported":1686600419,"current_range_meters":6000,"station_id":"ce4bh012rcd13ifvqcv0","pricing_plan_id":"free"},{"bike_id":"dad6d30e-66cc-4762-9d6c-98a79a4cfa97","system_id":"levelo_inurba_marseille","lat":43.309038,"lon":5.396546,"is_reserved":false,"is_disabled":false,"rental_uris":{"android":"levelo://app?vid=dad6d30e-66cc-4762-9d6c-98a79a4cfa97","ios":"levelo://app?vid=dad6d30e-66cc-4762-9d6c-98a79a4cfa97"},"vehicle_type_id":"4","last_reported":1686600419,"current_range_meters":15200,"station_id":"ce4bh012rcd13ifvqcv0","pricing_plan_id":"free"},{"bike_id":"2f1be7c7-b312-4957-946c-605052015bc2","system_id":"levelo_inurba_marseille","lat":43.313291,"lon":5.396838,"is_reserved":false,"is_disabled":false,"rental_uris":{"android":"levelo://app?vid=2f1be7c7-b312-4957-946c-605052015bc2","ios":"levelo://app?vid=2f1be7c7-b312-4957-946c-605052015bc2"},"vehicle_type_id":"4","last_reported":1686600419,"current_range_meters":4000,"station_id":"ce4bgvp2rcd13ifvqcu0","pricing_plan_id":"free"},{"bike_id":"5fb96060-9ab4-4a4a-86d6-8a2df976c11a","system_id":"levelo_inurba_marseille","lat":43.309038,"lon":5.396546,"is_reserved":false,"is_disabled":false,"rental_uris":{"android":"levelo://app?vid=5fb96060-9ab4-4a4a-86d6-8a2df976c11a","ios":"levelo://app?vid=5fb96060-9ab4-4a4a-86d6-8a2df976c11a"},"vehicle_type_id":"4","last_reported":1686600419,"current_range_meters":5600,"station_id":"ce4bh012rcd13ifvqcv0","pricing_plan_id":"free"},{"bike_id":"3cb5d608-4ca6-41a4-b687-86aad8b89ec8","system_id":"levelo_inurba_marseille","lat":43.309038,"lon":5.396546,"is_reserved":false,"is_disabled":false,"rental_uris":{"android":"levelo://app?vid=3cb5d608-4ca6-41a4-b687-86aad8b89ec8","ios":"levelo://app?vid=3cb5d608-4ca6-41a4-b687-86aad8b89ec8"},"vehicle_type_id":"4","last_reported":1686600419,"current_range_meters":20000,"station_id":"ce4bh012rcd13ifvqcv0","pricing_plan_id":"free"},{"bike_id":"2135837d-4fda-45b0-a0c3-27be307cb340","system_id":"levelo_inurba_marseille","lat":43.309038,"lon":5.396546,"is_reserved":false,"is_disabled":false,"rental_uris":{"android":"levelo://app?vid=2135837d-4fda-45b0-a0c3-27be307cb340","ios":"levelo://app?vid=2135837d-4fda-45b0-a0c3-27be307cb340"},"vehicle_type_id":"4","last_reported":1686600419,"current_range_meters":24000,"station_id":"ce4bh012rcd13ifvqcv0","pricing_plan_id":"free"},{"bike_id":"302b4c6f-20a2-488f-9606-77baf8366192","system_id":"levelo_inurba_marseille","lat":43.309038,"lon":5.396546,"is_reserved":false,"is_disabled":false,"rental_uris":{"android":"levelo://app?vid=302b4c6f-20a2-488f-9606-77baf8366192","ios":"levelo://app?vid=302b4c6f-20a2-488f-9606-77baf8366192"},"vehicle_type_id":"4","last_reported":1686600419,"current_range_meters":0,"station_id":"ce4bh012rcd13ifvqcv0","pricing_plan_id":"free"},{"bike_id":"e144487d-9f2b-4d86-a4f4-2f1ce58cf597","system_id":"levelo_inurba_marseille","lat":43.29532,"lon":5.38541,"is_reserved":false,"is_disabled":false,"rental_uris":{"android":"levelo://app?vid=e144487d-9f2b-4d86-a4f4-2f1ce58cf597","ios":"levelo://app?vid=e144487d-9f2b-4d86-a4f4-2f1ce58cf597"},"vehicle_type_id":"4","last_reported":1686600419,"current_range_meters":5600,"station_id":"ce4bgih2rcd13ifvqba0","pricing_plan_id":"free"},{"bike_id":"98b90638-9880-4803-9f26-3c659955aa42","system_id":"levelo_inurba_marseille","lat":43.29529,"lon":5.385581,"is_reserved":false,"is_disabled":false,"rental_uris":{"android":"levelo://app?vid=98b90638-9880-4803-9f26-3c659955aa42","ios":"levelo://app?vid=98b90638-9880-4803-9f26-3c659955aa42"},"vehicle_type_id":"4","last_reported":1686600419,"current_range_meters":10000,"station_id":"ce4bgih2rcd13ifvqba0","pricing_plan_id":"free"},{"bike_id":"282793f3-0dab-4c92-b249-90d8edf7e778","system_id":"levelo_inurba_marseille","lat":43.29529,"lon":5.385581,"is_reserved":false,"is_disabled":false,"rental_uris":{"android":"levelo://app?vid=282793f3-0dab-4c92-b249-90d8edf7e778","ios":"levelo://app?vid=282793f3-0dab-4c92-b249-90d8edf7e778"},"vehicle_type_id":"4","last_reported":1686600419,"current_range_meters":2400,"station_id":"ce4bgih2rcd13ifvqba0","pricing_plan_id":"free"},{"bike_id":"4ee76551-9142-4284-82bd-445747f841de","system_id":"levelo_inurba_marseille","lat":43.29529,"lon":5.385581,"is_reserved":false,"is_disabled":false,"rental_uris":{"android":"levelo://app?vid=4ee76551-9142-4284-82bd-445747f841de","ios":"levelo://app?vid=4ee76551-9142-4284-82bd-445747f841de"},"vehicle_type_id":"4","last_reported":1686600419,"current_range_meters":24000,"station_id":"ce4bgih2rcd13ifvqba0","pricing_plan_id":"free"},{"bike_id":"1323e7d4-0d49-4b8b-8d65-bf1f189e9c18","system_id":"levelo_inurba_marseille","lat":43.29529,"lon":5.385581,"is_reserved":false,"is_disabled":false,"rental_uris":{"android":"levelo://app?vid=1323e7d4-0d49-4b8b-8d65-bf1f189e9c18","ios":"levelo://app?vid=1323e7d4-0d49-4b8b-8d65-bf1f189e9c18"},"vehicle_type_id":"4","last_reported":1686600419,"current_range_meters":2000,"station_id":"ce4bgih2rcd13ifvqba0","pricing_plan_id":"free"},{"bike_id":"796ea759-be75-4aa4-9f60-637938d2677a","system_id":"levelo_inurba_marseille","lat":43.29529,"lon":5.385581,"is_reserved":false,"is_disabled":false,"rental_uris":{"android":"levelo://app?vid=796ea759-be75-4aa4-9f60-637938d2677a","ios":"levelo://app?vid=796ea759-be75-4aa4-9f60-637938d2677a"},"vehicle_type_id":"4","last_reported":1686600419,"current_range_meters":28000,"station_id":"ce4bgih2rcd13ifvqba0","pricing_plan_id":"free"},{"bike_id":"0f84ca64-92ab-4d64-8b18-8e873c248ded","system_id":"levelo_inurba_marseille","lat":43.302008,"lon":5.394694,"is_reserved":false,"is_disabled":false,"rental_uris":{"android":"levelo://app?vid=0f84ca64-92ab-4d64-8b18-8e873c248ded","ios":"levelo://app?vid=0f84ca64-92ab-4d64-8b18-8e873c248ded"},"vehicle_type_id":"4","last_reported":1686600419,"current_range_meters":0,"station_id":"ce4bh0p2rcd13ifvqd70","pricing_plan_id":"free"},{"bike_id":"bd87f459-7db9-4db7-9ab4-ac02bf5256b7","system_id":"levelo_inurba_marseille","lat":43.294162,"lon":5.386292,"is_reserved":false,"is_disabled":false,"rental_uris":{"android":"levelo://app?vid=bd87f459-7db9-4db7-9ab4-ac02bf5256b7","ios":"levelo://app?vid=bd87f459-7db9-4db7-9ab4-ac02bf5256b7"},"vehicle_type_id":"4","last_reported":1686600419,"current_range_meters":18400,"station_id":"ce4bh2h2rcd13ifvqdh0","pricing_plan_id":"free"},{"bike_id":"e9c45b7d-1926-4cc1-a436-a4c788895f71","system_id":"levelo_inurba_marseille","lat":43.294153,"lon":5.386305,"is_reserved":false,"is_disabled":false,"rental_uris":{"android":"levelo://app?vid=e9c45b7d-1926-4cc1-a436-a4c788895f71","ios":"levelo://app?vid=e9c45b7d-1926-4cc1-a436-a4c788895f71"},"vehicle_type_id":"4","last_reported":1686600419,"current_range_meters":20400,"station_id":"ce4bh2h2rcd13ifvqdh0","pricing_plan_id":"free"},{"bike_id":"a2730ebd-306e-4dd7-be3d-bed66db85dff","system_id":"levelo_inurba_marseille","lat":43.294153,"lon":5.386305,"is_reserved":false,"is_disabled":false,"rental_uris":{"android":"levelo://app?vid=a2730ebd-306e-4dd7-be3d-bed66db85dff","ios":"levelo://app?vid=a2730ebd-306e-4dd7-be3d-bed66db85dff"},"vehicle_type_id":"4","last_reported":1686600419,"current_range_meters":31200,"station_id":"ce4bh2h2rcd13ifvqdh0","pricing_plan_id":"free"},{"bike_id":"d0c155c1-e891-493c-a915-f2d3a5e2d306","system_id":"levelo_inurba_marseille","lat":43.294162,"lon":5.386292,"is_reserved":false,"is_disabled":false,"rental_uris":{"android":"levelo://app?vid=d0c155c1-e891-493c-a915-f2d3a5e2d306","ios":"levelo://app?vid=d0c155c1-e891-493c-a915-f2d3a5e2d306"},"vehicle_type_id":"4","last_reported":1686600419,"current_range_meters":10000,"station_id":"ce4bh2h2rcd13ifvqdh0","pricing_plan_id":"free"},{"bike_id":"b3bb7e7e-2dec-41fc-b8d4-18b342406a66","system_id":"levelo_inurba_marseille","lat":43.290327,"lon":5.375711,"is_reserved":false,"is_disabled":false,"rental_uris":{"android":"levelo://app?vid=b3bb7e7e-2dec-41fc-b8d4-18b342406a66","ios":"levelo://app?vid=b3bb7e7e-2dec-41fc-b8d4-18b342406a66"},"vehicle_type_id":"4","last_reported":1686600419,"current_range_meters":24400,"station_id":"ce4bh692rcd13ifvqe90","pricing_plan_id":"free"},{"bike_id":"a13c2256-37ef-4d8e-a665-7a2a85408ed8","system_id":"levelo_inurba_marseille","lat":43.294162,"lon":5.386292,"is_reserved":false,"is_disabled":false,"rental_uris":{"android":"levelo://app?vid=a13c2256-37ef-4d8e-a665-7a2a85408ed8","ios":"levelo://app?vid=a13c2256-37ef-4d8e-a665-7a2a85408ed8"},"vehicle_type_id":"4","last_reported":1686600419,"current_range_meters":31200,"station_id":"ce4bh2h2rcd13ifvqdh0","pricing_plan_id":"free"},{"bike_id":"20017ec4-3fd3-4d54-8c78-4fe4fca2397c","system_id":"levelo_inurba_marseille","lat":43.294153,"lon":5.386305,"is_reserved":false,"is_disabled":false,"rental_uris":{"android":"levelo://app?vid=20017ec4-3fd3-4d54-8c78-4fe4fca2397c","ios":"levelo://app?vid=20017ec4-3fd3-4d54-8c78-4fe4fca2397c"},"vehicle_type_id":"4","last_reported":1686600419,"current_range_meters":20000,"station_id":"ce4bh2h2rcd13ifvqdh0","pricing_plan_id":"free"},{"bike_id":"6380c885-d052-485d-b6b5-b32d175c4991","system_id":"levelo_inurba_marseille","lat":43.294162,"lon":5.386292,"is_reserved":false,"is_disabled":false,"rental_uris":{"android":"levelo://app?vid=6380c885-d052-485d-b6b5-b32d175c4991","ios":"levelo://app?vid=6380c885-d052-485d-b6b5-b32d175c4991"},"vehicle_type_id":"4","last_reported":1686600419,"current_range_meters":13200,"station_id":"ce4bh2h2rcd13ifvqdh0","pricing_plan_id":"free"},{"bike_id":"f7dae460-a648-4772-a798-0c190997627b","system_id":"levelo_inurba_marseille","lat":43.289417,"lon":5.366319,"is_reserved":false,"is_disabled":false,"rental_uris":{"android":"levelo://app?vid=f7dae460-a648-4772-a798-0c190997627b","ios":"levelo://app?vid=f7dae460-a648-4772-a798-0c190997627b"},"vehicle_type_id":"4","last_reported":1686600419,"current_range_meters":28000,"station_id":"ce4bhap2rcd13ifvqek0","pricing_plan_id":"free"},{"bike_id":"be16498e-c44e-4da1-8725-b7d1e3b27bf0","system_id":"levelo_inurba_marseille","lat":43.289468,"lon":5.363719,"is_reserved":false,"is_disabled":false,"rental_uris":{"android":"levelo://app?vid=be16498e-c44e-4da1-8725-b7d1e3b27bf0","ios":"levelo://app?vid=be16498e-c44e-4da1-8725-b7d1e3b27bf0"},"vehicle_type_id":"4","last_reported":1686600419,"current_range_meters":23600,"station_id":"ce4bhc92rcd13ifvqetg","pricing_plan_id":"free"},{"bike_id":"8a91f0d0-dcf9-47b1-b793-ebac1b51c271","system_id":"levelo_inurba_marseille","lat":43.28932,"lon":5.36625,"is_reserved":false,"is_disabled":false,"rental_uris":{"android":"levelo://app?vid=8a91f0d0-dcf9-47b1-b793-ebac1b51c271","ios":"levelo://app?vid=8a91f0d0-dcf9-47b1-b793-ebac1b51c271"},"vehicle_type_id":"4","last_reported":1686600419,"current_range_meters":18800,"station_id":"ce4bhap2rcd13ifvqek0","pricing_plan_id":"free"},{"bike_id":"4dcc05b8-b64b-4c0a-bd57-1bfcd60c4e1d","system_id":"levelo_inurba_marseille","lat":43.289184,"lon":5.366408,"is_reserved":false,"is_disabled":false,"rental_uris":{"android":"levelo://app?vid=4dcc05b8-b64b-4c0a-bd57-1bfcd60c4e1d","ios":"levelo://app?vid=4dcc05b8-b64b-4c0a-bd57-1bfcd60c4e1d"},"vehicle_type_id":"4","last_reported":1686600419,"current_range_meters":28400,"station_id":"ce4bhap2rcd13ifvqek0","pricing_plan_id":"free"},{"bike_id":"0a4beee8-1d0b-40b6-a628-dd56857f4693","system_id":"levelo_inurba_marseille","lat":43.294032,"lon":5.386342,"is_reserved":false,"is_disabled":false,"rental_uris":{"android":"levelo://app?vid=0a4beee8-1d0b-40b6-a628-dd56857f4693","ios":"levelo://app?vid=0a4beee8-1d0b-40b6-a628-dd56857f4693"},"vehicle_type_id":"4","last_reported":1686600419,"current_range_meters":14800,"station_id":"","pricing_plan_id":"free"},{"bike_id":"ae55d76d-dd65-45b3-b453-0a9b1c1bb63b","system_id":"levelo_inurba_marseille","lat":43.29268,"lon":5.3844,"is_reserved":false,"is_disabled":false,"rental_uris":{"android":"levelo://app?vid=ae55d76d-dd65-45b3-b453-0a9b1c1bb63b","ios":"levelo://app?vid=ae55d76d-dd65-45b3-b453-0a9b1c1bb63b"},"vehicle_type_id":"4","last_reported":1686600419,"current_range_meters":21600,"station_id":"ce4bh692rcd13ifvqea0","pricing_plan_id":"free"},{"bike_id":"7fb0156e-c464-492e-bfd1-44f9f5fcb857","system_id":"levelo_inurba_marseille","lat":43.304296,"lon":5.397513,"is_reserved":false,"is_disabled":false,"rental_uris":{"android":"levelo://app?vid=7fb0156e-c464-492e-bfd1-44f9f5fcb857","ios":"levelo://app?vid=7fb0156e-c464-492e-bfd1-44f9f5fcb857"},"vehicle_type_id":"4","last_reported":1686600419,"current_range_meters":18400,"station_id":"ce4bh092rcd13ifvqd20","pricing_plan_id":"free"},{"bike_id":"40aaaf20-fcf4-4a34-aa01-94d227cd1266","system_id":"levelo_inurba_marseille","lat":43.292642,"lon":5.384254,"is_reserved":false,"is_disabled":false,"rental_uris":{"android":"levelo://app?vid=40aaaf20-fcf4-4a34-aa01-94d227cd1266","ios":"levelo://app?vid=40aaaf20-fcf4-4a34-aa01-94d227cd1266"},"vehicle_type_id":"4","last_reported":1686600419,"current_range_meters":2400,"station_id":"ce4bh692rcd13ifvqea0","pricing_plan_id":"free"},{"bike_id":"d411c1be-10b4-4838-a93f-35add8fed384","system_id":"levelo_inurba_marseille","lat":43.330442,"lon":5.389148,"is_reserved":false,"is_disabled":false,"rental_uris":{"android":"levelo://app?vid=d411c1be-10b4-4838-a93f-35add8fed384","ios":"levelo://app?vid=d411c1be-10b4-4838-a93f-35add8fed384"},"vehicle_type_id":"4","last_reported":1686600419,"current_range_meters":9600,"station_id":"ce4bhr92rcd13ifvqhrg","pricing_plan_id":"free"},{"bike_id":"4377f79e-d626-4f53-a9cb-423d2d6e2eae","system_id":"levelo_inurba_marseille","lat":43.290072,"lon":5.356188,"is_reserved":false,"is_disabled":false,"rental_uris":{"android":"levelo://app?vid=4377f79e-d626-4f53-a9cb-423d2d6e2eae","ios":"levelo://app?vid=4377f79e-d626-4f53-a9cb-423d2d6e2eae"},"vehicle_type_id":"4","last_reported":1686600419,"current_range_meters":31200,"station_id":"ce4bhb92rcd13ifvqen0","pricing_plan_id":"free"},{"bike_id":"3f1bd78a-f1dd-4e51-b7e6-2d86b6a5ac61","system_id":"levelo_inurba_marseille","lat":43.33045,"lon":5.38917,"is_reserved":false,"is_disabled":false,"rental_uris":{"android":"levelo://app?vid=3f1bd78a-f1dd-4e51-b7e6-2d86b6a5ac61","ios":"levelo://app?vid=3f1bd78a-f1dd-4e51-b7e6-2d86b6a5ac61"},"vehicle_type_id":"4","last_reported":1686600419,"current_range_meters":25600,"station_id":"ce4bhr92rcd13ifvqhrg","pricing_plan_id":"free"},{"bike_id":"1c096b92-d73b-48f3-b43c-8265fd1feca0","system_id":"levelo_inurba_marseille","lat":43.330442,"lon":5.389148,"is_reserved":false,"is_disabled":false,"rental_uris":{"android":"levelo://app?vid=1c096b92-d73b-48f3-b43c-8265fd1feca0","ios":"levelo://app?vid=1c096b92-d73b-48f3-b43c-8265fd1feca0"},"vehicle_type_id":"4","last_reported":1686600419,"current_range_meters":9600,"station_id":"ce4bhr92rcd13ifvqhrg","pricing_plan_id":"free"},{"bike_id":"120db851-e9ef-4590-a985-3b99c7af3653","system_id":"levelo_inurba_marseille","lat":43.33049,"lon":5.38918,"is_reserved":false,"is_disabled":false,"rental_uris":{"android":"levelo://app?vid=120db851-e9ef-4590-a985-3b99c7af3653","ios":"levelo://app?vid=120db851-e9ef-4590-a985-3b99c7af3653"},"vehicle_type_id":"4","last_reported":1686600419,"current_range_meters":6800,"station_id":"ce4bhr92rcd13ifvqhrg","pricing_plan_id":"free"},{"bike_id":"60cf7fa7-0f3d-4cf9-ad93-97b5097dc198","system_id":"levelo_inurba_marseille","lat":43.290015,"lon":5.356186,"is_reserved":false,"is_disabled":false,"rental_uris":{"android":"levelo://app?vid=60cf7fa7-0f3d-4cf9-ad93-97b5097dc198","ios":"levelo://app?vid=60cf7fa7-0f3d-4cf9-ad93-97b5097dc198"},"vehicle_type_id":"4","last_reported":1686600419,"current_range_meters":6400,"station_id":"ce4bhb92rcd13ifvqen0","pricing_plan_id":"free"},{"bike_id":"bd48b808-2607-488e-a05a-78b9efa42f01","system_id":"levelo_inurba_marseille","lat":43.290995,"lon":5.381361,"is_reserved":false,"is_disabled":false,"rental_uris":{"android":"levelo://app?vid=bd48b808-2607-488e-a05a-78b9efa42f01","ios":"levelo://app?vid=bd48b808-2607-488e-a05a-78b9efa42f01"},"vehicle_type_id":"4","last_reported":1686600419,"current_range_meters":23600,"station_id":"ce4bh512rcd13ifvqe2g","pricing_plan_id":"free"},{"bike_id":"8515e357-8ee7-47db-a92c-227577d9d5a5","system_id":"levelo_inurba_marseille","lat":43.290995,"lon":5.381361,"is_reserved":false,"is_disabled":false,"rental_uris":{"android":"levelo://app?vid=8515e357-8ee7-47db-a92c-227577d9d5a5","ios":"levelo://app?vid=8515e357-8ee7-47db-a92c-227577d9d5a5"},"vehicle_type_id":"4","last_reported":1686600419,"current_range_meters":3200,"station_id":"ce4bh512rcd13ifvqe2g","pricing_plan_id":"free"},{"bike_id":"87f149b1-cab5-49af-81f5-5c96e5642ca8","system_id":"levelo_inurba_marseille","lat":43.297814,"lon":5.393513,"is_reserved":false,"is_disabled":false,"rental_uris":{"android":"levelo://app?vid=87f149b1-cab5-49af-81f5-5c96e5642ca8","ios":"levelo://app?vid=87f149b1-cab5-49af-81f5-5c96e5642ca8"},"vehicle_type_id":"4","last_reported":1686600419,"current_range_meters":29200,"station_id":"chh1huq6cuj3fo74tm60","pricing_plan_id":"free"},{"bike_id":"0ceae1a1-0efe-4ffc-b030-bbfa48de7478","system_id":"levelo_inurba_marseille","lat":43.295169,"lon":5.390426,"is_reserved":false,"is_disabled":false,"rental_uris":{"android":"levelo://app?vid=0ceae1a1-0efe-4ffc-b030-bbfa48de7478","ios":"levelo://app?vid=0ceae1a1-0efe-4ffc-b030-bbfa48de7478"},"vehicle_type_id":"4","last_reported":1686600419,"current_range_meters":18000,"station_id":"ce4bh3p2rcd13ifvqdp0","pricing_plan_id":"free"},{"bike_id":"a79959ec-0e97-465f-b895-8844e9b311f3","system_id":"levelo_inurba_marseille","lat":43.297814,"lon":5.393513,"is_reserved":false,"is_disabled":false,"rental_uris":{"android":"levelo://app?vid=a79959ec-0e97-465f-b895-8844e9b311f3","ios":"levelo://app?vid=a79959ec-0e97-465f-b895-8844e9b311f3"},"vehicle_type_id":"4","last_reported":1686600419,"current_range_meters":2000,"station_id":"chh1huq6cuj3fo74tm60","pricing_plan_id":"free"},{"bike_id":"8b682f7e-9886-4d05-bbc1-54546c2d813b","system_id":"levelo_inurba_marseille","lat":43.297814,"lon":5.393513,"is_reserved":false,"is_disabled":false,"rental_uris":{"android":"levelo://app?vid=8b682f7e-9886-4d05-bbc1-54546c2d813b","ios":"levelo://app?vid=8b682f7e-9886-4d05-bbc1-54546c2d813b"},"vehicle_type_id":"4","last_reported":1686600419,"current_range_meters":0,"station_id":"chh1huq6cuj3fo74tm60","pricing_plan_id":"free"},{"bike_id":"29fc385b-06c8-4c99-8543-ee6aee8fa0eb","system_id":"levelo_inurba_marseille","lat":43.289741,"lon":5.378306,"is_reserved":false,"is_disabled":false,"rental_uris":{"android":"levelo://app?vid=29fc385b-06c8-4c99-8543-ee6aee8fa0eb","ios":"levelo://app?vid=29fc385b-06c8-4c99-8543-ee6aee8fa0eb"},"vehicle_type_id":"4","last_reported":1686600419,"current_range_meters":22400,"station_id":"ce4bh9p2rcd13ifvqed0","pricing_plan_id":"free"},{"bike_id":"7c78ebb2-61da-4e03-9c21-94ee792dcf93","system_id":"levelo_inurba_marseille","lat":43.295169,"lon":5.390426,"is_reserved":false,"is_disabled":false,"rental_uris":{"android":"levelo://app?vid=7c78ebb2-61da-4e03-9c21-94ee792dcf93","ios":"levelo://app?vid=7c78ebb2-61da-4e03-9c21-94ee792dcf93"},"vehicle_type_id":"4","last_reported":1686600419,"current_range_meters":0,"station_id":"ce4bh3p2rcd13ifvqdp0","pricing_plan_id":"free"},{"bike_id":"a1e51f3b-87df-4d10-b451-998d46fc08ee","system_id":"levelo_inurba_marseille","lat":43.29526,"lon":5.39042,"is_reserved":false,"is_disabled":false,"rental_uris":{"android":"levelo://app?vid=a1e51f3b-87df-4d10-b451-998d46fc08ee","ios":"levelo://app?vid=a1e51f3b-87df-4d10-b451-998d46fc08ee"},"vehicle_type_id":"4","last_reported":1686600419,"current_range_meters":24000,"station_id":"ce4bh3p2rcd13ifvqdp0","pricing_plan_id":"free"},{"bike_id":"36091464-df09-4cd2-a68b-5f2bbdd8e515","system_id":"levelo_inurba_marseille","lat":43.29515,"lon":5.39043,"is_reserved":false,"is_disabled":false,"rental_uris":{"android":"levelo://app?vid=36091464-df09-4cd2-a68b-5f2bbdd8e515","ios":"levelo://app?vid=36091464-df09-4cd2-a68b-5f2bbdd8e515"},"vehicle_type_id":"4","last_reported":1686600419,"current_range_meters":3200,"station_id":"ce4bh3p2rcd13ifvqdp0","pricing_plan_id":"free"},{"bike_id":"a999440e-f1f5-4939-9b0b-029e4652fbe0","system_id":"levelo_inurba_marseille","lat":43.2901,"lon":5.381269,"is_reserved":false,"is_disabled":false,"rental_uris":{"android":"levelo://app?vid=a999440e-f1f5-4939-9b0b-029e4652fbe0","ios":"levelo://app?vid=a999440e-f1f5-4939-9b0b-029e4652fbe0"},"vehicle_type_id":"4","last_reported":1686600419,"current_range_meters":4400,"station_id":"ce4bh4p2rcd13ifvqe1g","pricing_plan_id":"free"},{"bike_id":"01a86c2d-52c1-4684-85ea-2116c00023dd","system_id":"levelo_inurba_marseille","lat":43.28856,"lon":5.358371,"is_reserved":false,"is_disabled":false,"rental_uris":{"android":"levelo://app?vid=01a86c2d-52c1-4684-85ea-2116c00023dd","ios":"levelo://app?vid=01a86c2d-52c1-4684-85ea-2116c00023dd"},"vehicle_type_id":"4","last_reported":1686600419,"current_range_meters":31200,"station_id":"ce4bhb12rcd13ifvqem0","pricing_plan_id":"free"},{"bike_id":"42fa1bd1-8f88-4ae6-94c3-5f289471adb3","system_id":"levelo_inurba_marseille","lat":43.28856,"lon":5.358371,"is_reserved":false,"is_disabled":false,"rental_uris":{"android":"levelo://app?vid=42fa1bd1-8f88-4ae6-94c3-5f289471adb3","ios":"levelo://app?vid=42fa1bd1-8f88-4ae6-94c3-5f289471adb3"},"vehicle_type_id":"4","last_reported":1686600419,"current_range_meters":31200,"station_id":"ce4bhb12rcd13ifvqem0","pricing_plan_id":"free"},{"bike_id":"8e1e2be4-a009-4b3c-831a-6182a9badfd8","system_id":"levelo_inurba_marseille","lat":43.28856,"lon":5.358371,"is_reserved":false,"is_disabled":false,"rental_uris":{"android":"levelo://app?vid=8e1e2be4-a009-4b3c-831a-6182a9badfd8","ios":"levelo://app?vid=8e1e2be4-a009-4b3c-831a-6182a9badfd8"},"vehicle_type_id":"4","last_reported":1686600419,"current_range_meters":6400,"station_id":"ce4bhb12rcd13ifvqem0","pricing_plan_id":"free"},{"bike_id":"c0fb8083-e02d-4dec-b1b9-fa095e6c5b75","system_id":"levelo_inurba_marseille","lat":43.337396,"lon":5.374526,"is_reserved":false,"is_disabled":false,"rental_uris":{"android":"levelo://app?vid=c0fb8083-e02d-4dec-b1b9-fa095e6c5b75","ios":"levelo://app?vid=c0fb8083-e02d-4dec-b1b9-fa095e6c5b75"},"vehicle_type_id":"4","last_reported":1686600419,"current_range_meters":15600,"station_id":"ce4bhp92rcd13ifvqhag","pricing_plan_id":"free"},{"bike_id":"eab63f62-2a45-4573-8811-a58f71726db2","system_id":"levelo_inurba_marseille","lat":43.309371,"lon":5.401449,"is_reserved":false,"is_disabled":false,"rental_uris":{"android":"levelo://app?vid=eab63f62-2a45-4573-8811-a58f71726db2","ios":"levelo://app?vid=eab63f62-2a45-4573-8811-a58f71726db2"},"vehicle_type_id":"4","last_reported":1686600419,"current_range_meters":0,"station_id":"ce4bgvp2rcd13ifvqct0","pricing_plan_id":"free"},{"bike_id":"abedfff7-19b2-4c6b-a953-6b439790f65a","system_id":"levelo_inurba_marseille","lat":43.309371,"lon":5.401449,"is_reserved":false,"is_disabled":false,"rental_uris":{"android":"levelo://app?vid=abedfff7-19b2-4c6b-a953-6b439790f65a","ios":"levelo://app?vid=abedfff7-19b2-4c6b-a953-6b439790f65a"},"vehicle_type_id":"4","last_reported":1686600419,"current_range_meters":0,"station_id":"ce4bgvp2rcd13ifvqct0","pricing_plan_id":"free"},{"bike_id":"659826ae-d1e7-416c-9cb5-780c2a59f674","system_id":"levelo_inurba_marseille","lat":43.309371,"lon":5.401449,"is_reserved":false,"is_disabled":false,"rental_uris":{"android":"levelo://app?vid=659826ae-d1e7-416c-9cb5-780c2a59f674","ios":"levelo://app?vid=659826ae-d1e7-416c-9cb5-780c2a59f674"},"vehicle_type_id":"4","last_reported":1686600419,"current_range_meters":20800,"station_id":"ce4bgvp2rcd13ifvqct0","pricing_plan_id":"free"},{"bike_id":"b9355282-1b19-4560-8893-c8d31e0e19e8","system_id":"levelo_inurba_marseille","lat":43.306412,"lon":5.401035,"is_reserved":false,"is_disabled":false,"rental_uris":{"android":"levelo://app?vid=b9355282-1b19-4560-8893-c8d31e0e19e8","ios":"levelo://app?vid=b9355282-1b19-4560-8893-c8d31e0e19e8"},"vehicle_type_id":"4","last_reported":1686600419,"current_range_meters":8800,"station_id":"ce4bh112rcd13ifvqda0","pricing_plan_id":"free"},{"bike_id":"ccb3a525-b300-4273-8631-4956ae5b0ec7","system_id":"levelo_inurba_marseille","lat":43.28704,"lon":5.37382,"is_reserved":false,"is_disabled":false,"rental_uris":{"android":"levelo://app?vid=ccb3a525-b300-4273-8631-4956ae5b0ec7","ios":"levelo://app?vid=ccb3a525-b300-4273-8631-4956ae5b0ec7"},"vehicle_type_id":"4","last_reported":1686600419,"current_range_meters":22000,"station_id":"","pricing_plan_id":"free"},{"bike_id":"af17827f-99ef-430a-aa42-4028060c2630","system_id":"levelo_inurba_marseille","lat":43.28705,"lon":5.37392,"is_reserved":false,"is_disabled":false,"rental_uris":{"android":"levelo://app?vid=af17827f-99ef-430a-aa42-4028060c2630","ios":"levelo://app?vid=af17827f-99ef-430a-aa42-4028060c2630"},"vehicle_type_id":"4","last_reported":1686600419,"current_range_meters":10400,"station_id":"","pricing_plan_id":"free"},{"bike_id":"49574b42-0728-45ed-aa6b-3f1ad11d7632","system_id":"levelo_inurba_marseille","lat":43.286591,"lon":5.363346,"is_reserved":false,"is_disabled":false,"rental_uris":{"android":"levelo://app?vid=49574b42-0728-45ed-aa6b-3f1ad11d7632","ios":"levelo://app?vid=49574b42-0728-45ed-aa6b-3f1ad11d7632"},"vehicle_type_id":"4","last_reported":1686600419,"current_range_meters":9600,"station_id":"ce4bhah2rcd13ifvqej0","pricing_plan_id":"free"},{"bike_id":"80bc739a-9b6a-41cc-83b7-6ba44a310f21","system_id":"levelo_inurba_marseille","lat":43.28664,"lon":5.36359,"is_reserved":false,"is_disabled":false,"rental_uris":{"android":"levelo://app?vid=80bc739a-9b6a-41cc-83b7-6ba44a310f21","ios":"levelo://app?vid=80bc739a-9b6a-41cc-83b7-6ba44a310f21"},"vehicle_type_id":"4","last_reported":1686600419,"current_range_meters":27600,"station_id":"ce4bhah2rcd13ifvqej0","pricing_plan_id":"free"},{"bike_id":"2ef1cf18-722e-42ca-9b58-487e13f07daf","system_id":"levelo_inurba_marseille","lat":43.286591,"lon":5.363346,"is_reserved":false,"is_disabled":false,"rental_uris":{"android":"levelo://app?vid=2ef1cf18-722e-42ca-9b58-487e13f07daf","ios":"levelo://app?vid=2ef1cf18-722e-42ca-9b58-487e13f07daf"},"vehicle_type_id":"4","last_reported":1686600419,"current_range_meters":12800,"station_id":"ce4bhah2rcd13ifvqej0","pricing_plan_id":"free"},{"bike_id":"f6f7f520-1291-4960-ba9e-219b19631321","system_id":"levelo_inurba_marseille","lat":43.28702,"lon":5.37393,"is_reserved":false,"is_disabled":false,"rental_uris":{"android":"levelo://app?vid=f6f7f520-1291-4960-ba9e-219b19631321","ios":"levelo://app?vid=f6f7f520-1291-4960-ba9e-219b19631321"},"vehicle_type_id":"4","last_reported":1686600419,"current_range_meters":22400,"station_id":"","pricing_plan_id":"free"},{"bike_id":"56958d85-50df-486d-a009-88f3986a7f2d","system_id":"levelo_inurba_marseille","lat":43.286591,"lon":5.363346,"is_reserved":false,"is_disabled":false,"rental_uris":{"android":"levelo://app?vid=56958d85-50df-486d-a009-88f3986a7f2d","ios":"levelo://app?vid=56958d85-50df-486d-a009-88f3986a7f2d"},"vehicle_type_id":"4","last_reported":1686600419,"current_range_meters":29200,"station_id":"ce4bhah2rcd13ifvqej0","pricing_plan_id":"free"},{"bike_id":"e308896f-13f0-4de1-8039-0cfd14ded282","system_id":"levelo_inurba_marseille","lat":43.286591,"lon":5.363346,"is_reserved":false,"is_disabled":false,"rental_uris":{"android":"levelo://app?vid=e308896f-13f0-4de1-8039-0cfd14ded282","ios":"levelo://app?vid=e308896f-13f0-4de1-8039-0cfd14ded282"},"vehicle_type_id":"4","last_reported":1686600419,"current_range_meters":31200,"station_id":"ce4bhah2rcd13ifvqej0","pricing_plan_id":"free"},{"bike_id":"0cabf977-4e63-4240-8689-d207763410c8","system_id":"levelo_inurba_marseille","lat":43.286591,"lon":5.363346,"is_reserved":false,"is_disabled":false,"rental_uris":{"android":"levelo://app?vid=0cabf977-4e63-4240-8689-d207763410c8","ios":"levelo://app?vid=0cabf977-4e63-4240-8689-d207763410c8"},"vehicle_type_id":"4","last_reported":1686600419,"current_range_meters":26800,"station_id":"ce4bhah2rcd13ifvqej0","pricing_plan_id":"free"},{"bike_id":"b964de44-be59-4650-8aa6-29ea0b023e95","system_id":"levelo_inurba_marseille","lat":43.28696,"lon":5.37391,"is_reserved":false,"is_disabled":false,"rental_uris":{"android":"levelo://app?vid=b964de44-be59-4650-8aa6-29ea0b023e95","ios":"levelo://app?vid=b964de44-be59-4650-8aa6-29ea0b023e95"},"vehicle_type_id":"4","last_reported":1686600419,"current_range_meters":10000,"station_id":"","pricing_plan_id":"free"},{"bike_id":"8d88e11d-3425-417e-ae78-4786dbeced9a","system_id":"levelo_inurba_marseille","lat":43.286591,"lon":5.363346,"is_reserved":false,"is_disabled":false,"rental_uris":{"android":"levelo://app?vid=8d88e11d-3425-417e-ae78-4786dbeced9a","ios":"levelo://app?vid=8d88e11d-3425-417e-ae78-4786dbeced9a"},"vehicle_type_id":"4","last_reported":1686600419,"current_range_meters":17600,"station_id":"ce4bhah2rcd13ifvqej0","pricing_plan_id":"free"},{"bike_id":"90621729-947a-47e9-9377-f2aff4c92d1c","system_id":"levelo_inurba_marseille","lat":43.286591,"lon":5.363346,"is_reserved":false,"is_disabled":false,"rental_uris":{"android":"levelo://app?vid=90621729-947a-47e9-9377-f2aff4c92d1c","ios":"levelo://app?vid=90621729-947a-47e9-9377-f2aff4c92d1c"},"vehicle_type_id":"4","last_reported":1686600419,"current_range_meters":17200,"station_id":"ce4bhah2rcd13ifvqej0","pricing_plan_id":"free"},{"bike_id":"48a15afa-2b84-46d1-a5f9-95351358ca06","system_id":"levelo_inurba_marseille","lat":43.295196,"lon":5.39397,"is_reserved":false,"is_disabled":false,"rental_uris":{"android":"levelo://app?vid=48a15afa-2b84-46d1-a5f9-95351358ca06","ios":"levelo://app?vid=48a15afa-2b84-46d1-a5f9-95351358ca06"},"vehicle_type_id":"4","last_reported":1686600419,"current_range_meters":13200,"station_id":"ce4bh292rcd13ifvqdf0","pricing_plan_id":"free"},{"bike_id":"ac77e8d4-11bb-410d-ac55-17a81ec0f0bc","system_id":"levelo_inurba_marseille","lat":43.295196,"lon":5.39397,"is_reserved":false,"is_disabled":false,"rental_uris":{"android":"levelo://app?vid=ac77e8d4-11bb-410d-ac55-17a81ec0f0bc","ios":"levelo://app?vid=ac77e8d4-11bb-410d-ac55-17a81ec0f0bc"},"vehicle_type_id":"4","last_reported":1686600419,"current_range_meters":8800,"station_id":"ce4bh292rcd13ifvqdf0","pricing_plan_id":"free"},{"bike_id":"3b8e11da-b7ca-4a06-a7f5-e366276dbf22","system_id":"levelo_inurba_marseille","lat":43.29028,"lon":5.38636,"is_reserved":false,"is_disabled":false,"rental_uris":{"android":"levelo://app?vid=3b8e11da-b7ca-4a06-a7f5-e366276dbf22","ios":"levelo://app?vid=3b8e11da-b7ca-4a06-a7f5-e366276dbf22"},"vehicle_type_id":"4","last_reported":1686600419,"current_range_meters":30400,"station_id":"ce4bh4p2rcd13ifvqe0g","pricing_plan_id":"free"},{"bike_id":"d0c5964c-b379-4ee4-962b-c6f70920c58c","system_id":"levelo_inurba_marseille","lat":43.2903,"lon":5.38644,"is_reserved":false,"is_disabled":false,"rental_uris":{"android":"levelo://app?vid=d0c5964c-b379-4ee4-962b-c6f70920c58c","ios":"levelo://app?vid=d0c5964c-b379-4ee4-962b-c6f70920c58c"},"vehicle_type_id":"4","last_reported":1686600419,"current_range_meters":29600,"station_id":"ce4bh4p2rcd13ifvqe0g","pricing_plan_id":"free"},{"bike_id":"b97aa3fd-ba48-46ce-be9a-7ec777bf57ce","system_id":"levelo_inurba_marseille","lat":43.290336,"lon":5.386425,"is_reserved":false,"is_disabled":false,"rental_uris":{"android":"levelo://app?vid=b97aa3fd-ba48-46ce-be9a-7ec777bf57ce","ios":"levelo://app?vid=b97aa3fd-ba48-46ce-be9a-7ec777bf57ce"},"vehicle_type_id":"4","last_reported":1686600419,"current_range_meters":0,"station_id":"ce4bh4p2rcd13ifvqe0g","pricing_plan_id":"free"},{"bike_id":"34d9f78a-9f25-4cb6-bd22-a65b5cfc1c1e","system_id":"levelo_inurba_marseille","lat":43.302759,"lon":5.400793,"is_reserved":false,"is_disabled":false,"rental_uris":{"android":"levelo://app?vid=34d9f78a-9f25-4cb6-bd22-a65b5cfc1c1e","ios":"levelo://app?vid=34d9f78a-9f25-4cb6-bd22-a65b5cfc1c1e"},"vehicle_type_id":"4","last_reported":1686600419,"current_range_meters":22800,"station_id":"ce4bgvh2rcd13ifvqcs0","pricing_plan_id":"free"},{"bike_id":"66c4605c-250e-4e4b-9cc7-3c0f715ed628","system_id":"levelo_inurba_marseille","lat":43.286039,"lon":5.370679,"is_reserved":false,"is_disabled":false,"rental_uris":{"android":"levelo://app?vid=66c4605c-250e-4e4b-9cc7-3c0f715ed628","ios":"levelo://app?vid=66c4605c-250e-4e4b-9cc7-3c0f715ed628"},"vehicle_type_id":"4","last_reported":1686600419,"current_range_meters":31600,"station_id":"ce4bht12rcd13ifvqi60","pricing_plan_id":"free"},{"bike_id":"a25d1025-022c-4385-811a-ec4dd8e18e05","system_id":"levelo_inurba_marseille","lat":43.286039,"lon":5.370679,"is_reserved":false,"is_disabled":false,"rental_uris":{"android":"levelo://app?vid=a25d1025-022c-4385-811a-ec4dd8e18e05","ios":"levelo://app?vid=a25d1025-022c-4385-811a-ec4dd8e18e05"},"vehicle_type_id":"4","last_reported":1686600419,"current_range_meters":31200,"station_id":"ce4bht12rcd13ifvqi60","pricing_plan_id":"free"},{"bike_id":"4ee7ee48-e8e8-46c8-90fa-6aeb086023e8","system_id":"levelo_inurba_marseille","lat":43.286168,"lon":5.370577,"is_reserved":false,"is_disabled":false,"rental_uris":{"android":"levelo://app?vid=4ee7ee48-e8e8-46c8-90fa-6aeb086023e8","ios":"levelo://app?vid=4ee7ee48-e8e8-46c8-90fa-6aeb086023e8"},"vehicle_type_id":"4","last_reported":1686600419,"current_range_meters":25200,"station_id":"ce4bht12rcd13ifvqi60","pricing_plan_id":"free"},{"bike_id":"c99fd0c4-e74a-4229-a496-db0520314414","system_id":"levelo_inurba_marseille","lat":43.295196,"lon":5.39397,"is_reserved":false,"is_disabled":false,"rental_uris":{"android":"levelo://app?vid=c99fd0c4-e74a-4229-a496-db0520314414","ios":"levelo://app?vid=c99fd0c4-e74a-4229-a496-db0520314414"},"vehicle_type_id":"4","last_reported":1686600419,"current_range_meters":13600,"station_id":"ce4bh292rcd13ifvqdf0","pricing_plan_id":"free"},{"bike_id":"bab6b805-48fd-4662-8031-f132d8bc3b3f","system_id":"levelo_inurba_marseille","lat":43.287185,"lon":5.379373,"is_reserved":false,"is_disabled":false,"rental_uris":{"android":"levelo://app?vid=bab6b805-48fd-4662-8031-f132d8bc3b3f","ios":"levelo://app?vid=bab6b805-48fd-4662-8031-f132d8bc3b3f"},"vehicle_type_id":"4","last_reported":1686600419,"current_range_meters":17200,"station_id":"ce4bh9p2rcd13ifvqec0","pricing_plan_id":"free"},{"bike_id":"a9e8a1ee-29fc-4eca-bcff-6d0559acd3f0","system_id":"levelo_inurba_marseille","lat":43.316523,"lon":5.404367,"is_reserved":false,"is_disabled":false,"rental_uris":{"android":"levelo://app?vid=a9e8a1ee-29fc-4eca-bcff-6d0559acd3f0","ios":"levelo://app?vid=a9e8a1ee-29fc-4eca-bcff-6d0559acd3f0"},"vehicle_type_id":"4","last_reported":1686600419,"current_range_meters":24400,"station_id":"ce4bh012rcd13ifvqd00","pricing_plan_id":"free"},{"bike_id":"8e529050-7054-4c4e-9b5a-d1e81da51499","system_id":"levelo_inurba_marseille","lat":43.316523,"lon":5.404367,"is_reserved":false,"is_disabled":false,"rental_uris":{"android":"levelo://app?vid=8e529050-7054-4c4e-9b5a-d1e81da51499","ios":"levelo://app?vid=8e529050-7054-4c4e-9b5a-d1e81da51499"},"vehicle_type_id":"4","last_reported":1686600419,"current_range_meters":24000,"station_id":"ce4bh012rcd13ifvqd00","pricing_plan_id":"free"},{"bike_id":"4cd4624b-7272-409a-b82b-ab9e2c7df2f3","system_id":"levelo_inurba_marseille","lat":43.291994,"lon":5.392907,"is_reserved":false,"is_disabled":false,"rental_uris":{"android":"levelo://app?vid=4cd4624b-7272-409a-b82b-ab9e2c7df2f3","ios":"levelo://app?vid=4cd4624b-7272-409a-b82b-ab9e2c7df2f3"},"vehicle_type_id":"4","last_reported":1686600419,"current_range_meters":6000,"station_id":"ce4bh192rcd13ifvqdd0","pricing_plan_id":"free"},{"bike_id":"629ceecb-b64c-4fbb-a2ef-794dd86146e0","system_id":"levelo_inurba_marseille","lat":43.29187,"lon":5.39311,"is_reserved":false,"is_disabled":false,"rental_uris":{"android":"levelo://app?vid=629ceecb-b64c-4fbb-a2ef-794dd86146e0","ios":"levelo://app?vid=629ceecb-b64c-4fbb-a2ef-794dd86146e0"},"vehicle_type_id":"4","last_reported":1686600419,"current_range_meters":18400,"station_id":"ce4bh192rcd13ifvqdd0","pricing_plan_id":"free"},{"bike_id":"0fd38e8d-58c1-481f-a529-22f44461db55","system_id":"levelo_inurba_marseille","lat":43.29188,"lon":5.39313,"is_reserved":false,"is_disabled":false,"rental_uris":{"android":"levelo://app?vid=0fd38e8d-58c1-481f-a529-22f44461db55","ios":"levelo://app?vid=0fd38e8d-58c1-481f-a529-22f44461db55"},"vehicle_type_id":"4","last_reported":1686600419,"current_range_meters":4400,"station_id":"ce4bh192rcd13ifvqdd0","pricing_plan_id":"free"},{"bike_id":"b0ad82a8-5ec4-4193-b8ea-580c59eb7935","system_id":"levelo_inurba_marseille","lat":43.30708,"lon":5.40523,"is_reserved":false,"is_disabled":false,"rental_uris":{"android":"levelo://app?vid=b0ad82a8-5ec4-4193-b8ea-580c59eb7935","ios":"levelo://app?vid=b0ad82a8-5ec4-4193-b8ea-580c59eb7935"},"vehicle_type_id":"4","last_reported":1686600419,"current_range_meters":3200,"station_id":"","pricing_plan_id":"free"},{"bike_id":"e6a46dff-5a34-4911-aa0f-fdf82cf552fc","system_id":"levelo_inurba_marseille","lat":43.284534,"lon":5.358662,"is_reserved":false,"is_disabled":false,"rental_uris":{"android":"levelo://app?vid=e6a46dff-5a34-4911-aa0f-fdf82cf552fc","ios":"levelo://app?vid=e6a46dff-5a34-4911-aa0f-fdf82cf552fc"},"vehicle_type_id":"4","last_reported":1686600419,"current_range_meters":23600,"station_id":"ce4bhah2rcd13ifvqei0","pricing_plan_id":"free"},{"bike_id":"b3f59d7f-4746-4e2a-b836-3e7a6cfea813","system_id":"levelo_inurba_marseille","lat":43.29433,"lon":5.39747,"is_reserved":false,"is_disabled":false,"rental_uris":{"android":"levelo://app?vid=b3f59d7f-4746-4e2a-b836-3e7a6cfea813","ios":"levelo://app?vid=b3f59d7f-4746-4e2a-b836-3e7a6cfea813"},"vehicle_type_id":"4","last_reported":1686600419,"current_range_meters":4800,"station_id":"","pricing_plan_id":"free"},{"bike_id":"c1f05937-f1ce-4bb7-8171-0c4bb6a3e32f","system_id":"levelo_inurba_marseille","lat":43.28419,"lon":5.37523,"is_reserved":false,"is_disabled":false,"rental_uris":{"android":"levelo://app?vid=c1f05937-f1ce-4bb7-8171-0c4bb6a3e32f","ios":"levelo://app?vid=c1f05937-f1ce-4bb7-8171-0c4bb6a3e32f"},"vehicle_type_id":"4","last_reported":1686600419,"current_range_meters":10800,"station_id":"","pricing_plan_id":"free"},{"bike_id":"fa965d66-a3df-43b1-979c-3e370bd5f67b","system_id":"levelo_inurba_marseille","lat":43.295713,"lon":5.399639,"is_reserved":false,"is_disabled":false,"rental_uris":{"android":"levelo://app?vid=fa965d66-a3df-43b1-979c-3e370bd5f67b","ios":"levelo://app?vid=fa965d66-a3df-43b1-979c-3e370bd5f67b"},"vehicle_type_id":"4","last_reported":1686600419,"current_range_meters":18800,"station_id":"ce4bh312rcd13ifvqdj0","pricing_plan_id":"free"},{"bike_id":"fa033d8a-15e2-4c1a-a09a-496f726471b3","system_id":"levelo_inurba_marseille","lat":43.29568,"lon":5.39967,"is_reserved":false,"is_disabled":false,"rental_uris":{"android":"levelo://app?vid=fa033d8a-15e2-4c1a-a09a-496f726471b3","ios":"levelo://app?vid=fa033d8a-15e2-4c1a-a09a-496f726471b3"},"vehicle_type_id":"4","last_reported":1686600419,"current_range_meters":26000,"station_id":"ce4bh312rcd13ifvqdj0","pricing_plan_id":"free"},{"bike_id":"c2d17567-a1d2-46db-8082-b89e56e67b7a","system_id":"levelo_inurba_marseille","lat":43.29896,"lon":5.40278,"is_reserved":false,"is_disabled":false,"rental_uris":{"android":"levelo://app?vid=c2d17567-a1d2-46db-8082-b89e56e67b7a","ios":"levelo://app?vid=c2d17567-a1d2-46db-8082-b89e56e67b7a"},"vehicle_type_id":"4","last_reported":1686600419,"current_range_meters":19600,"station_id":"","pricing_plan_id":"free"},{"bike_id":"5fc8293f-7100-4c17-9023-981b82c610d1","system_id":"levelo_inurba_marseille","lat":43.28529,"lon":5.35029,"is_reserved":false,"is_disabled":false,"rental_uris":{"android":"levelo://app?vid=5fc8293f-7100-4c17-9023-981b82c610d1","ios":"levelo://app?vid=5fc8293f-7100-4c17-9023-981b82c610d1"},"vehicle_type_id":"4","last_reported":1686600419,"current_range_meters":3200,"station_id":"ce4bhbh2rcd13ifvqepg","pricing_plan_id":"free"},{"bike_id":"c6146ae8-6a85-4744-96b6-4bdf65beae4e","system_id":"levelo_inurba_marseille","lat":43.28407,"lon":5.38076,"is_reserved":false,"is_disabled":false,"rental_uris":{"android":"levelo://app?vid=c6146ae8-6a85-4744-96b6-4bdf65beae4e","ios":"levelo://app?vid=c6146ae8-6a85-4744-96b6-4bdf65beae4e"},"vehicle_type_id":"4","last_reported":1686600419,"current_range_meters":5200,"station_id":"","pricing_plan_id":"free"},{"bike_id":"de8e53ac-c9d9-4e77-9c77-6adccfaaedc6","system_id":"levelo_inurba_marseille","lat":43.323464,"lon":5.406297,"is_reserved":false,"is_disabled":false,"rental_uris":{"android":"levelo://app?vid=de8e53ac-c9d9-4e77-9c77-6adccfaaedc6","ios":"levelo://app?vid=de8e53ac-c9d9-4e77-9c77-6adccfaaedc6"},"vehicle_type_id":"4","last_reported":1686600419,"current_range_meters":29200,"station_id":"ce4bhq92rcd13ifvqhjg","pricing_plan_id":"free"},{"bike_id":"891e330d-9ba6-4dc1-aaa9-b9a093e22a23","system_id":"levelo_inurba_marseille","lat":43.323464,"lon":5.406297,"is_reserved":false,"is_disabled":false,"rental_uris":{"android":"levelo://app?vid=891e330d-9ba6-4dc1-aaa9-b9a093e22a23","ios":"levelo://app?vid=891e330d-9ba6-4dc1-aaa9-b9a093e22a23"},"vehicle_type_id":"4","last_reported":1686600419,"current_range_meters":24400,"station_id":"ce4bhq92rcd13ifvqhjg","pricing_plan_id":"free"},{"bike_id":"16e5fedd-6e86-436a-a0a2-72c7cd60a6ea","system_id":"levelo_inurba_marseille","lat":43.323464,"lon":5.406297,"is_reserved":false,"is_disabled":false,"rental_uris":{"android":"levelo://app?vid=16e5fedd-6e86-436a-a0a2-72c7cd60a6ea","ios":"levelo://app?vid=16e5fedd-6e86-436a-a0a2-72c7cd60a6ea"},"vehicle_type_id":"4","last_reported":1686600419,"current_range_meters":28400,"station_id":"ce4bhq92rcd13ifvqhjg","pricing_plan_id":"free"},{"bike_id":"c94e786e-64bf-4086-bd5f-dc89f7159837","system_id":"levelo_inurba_marseille","lat":43.323464,"lon":5.406297,"is_reserved":false,"is_disabled":false,"rental_uris":{"android":"levelo://app?vid=c94e786e-64bf-4086-bd5f-dc89f7159837","ios":"levelo://app?vid=c94e786e-64bf-4086-bd5f-dc89f7159837"},"vehicle_type_id":"4","last_reported":1686600419,"current_range_meters":30000,"station_id":"ce4bhq92rcd13ifvqhjg","pricing_plan_id":"free"},{"bike_id":"a69f2b8c-5722-48a8-b9d5-586940ce00bf","system_id":"levelo_inurba_marseille","lat":43.288497,"lon":5.393089,"is_reserved":false,"is_disabled":false,"rental_uris":{"android":"levelo://app?vid=a69f2b8c-5722-48a8-b9d5-586940ce00bf","ios":"levelo://app?vid=a69f2b8c-5722-48a8-b9d5-586940ce00bf"},"vehicle_type_id":"4","last_reported":1686600419,"current_range_meters":2800,"station_id":"ce4bh2p2rcd13ifvqdi0","pricing_plan_id":"free"},{"bike_id":"0eeb49ba-4360-4c87-a205-a935ba82d8b9","system_id":"levelo_inurba_marseille","lat":43.283494,"lon":5.380945,"is_reserved":false,"is_disabled":false,"rental_uris":{"android":"levelo://app?vid=0eeb49ba-4360-4c87-a205-a935ba82d8b9","ios":"levelo://app?vid=0eeb49ba-4360-4c87-a205-a935ba82d8b9"},"vehicle_type_id":"4","last_reported":1686600419,"current_range_meters":24800,"station_id":"ce4bh412rcd13ifvqdr0","pricing_plan_id":"free"},{"bike_id":"21507e1c-4220-4265-b44d-827c0dc846fa","system_id":"levelo_inurba_marseille","lat":43.283494,"lon":5.380945,"is_reserved":false,"is_disabled":false,"rental_uris":{"android":"levelo://app?vid=21507e1c-4220-4265-b44d-827c0dc846fa","ios":"levelo://app?vid=21507e1c-4220-4265-b44d-827c0dc846fa"},"vehicle_type_id":"4","last_reported":1686600419,"current_range_meters":28000,"station_id":"ce4bh412rcd13ifvqdr0","pricing_plan_id":"free"},{"bike_id":"1384d3c4-6e9b-492b-9b41-9f6394ad7659","system_id":"levelo_inurba_marseille","lat":43.284217,"lon":5.349697,"is_reserved":false,"is_disabled":false,"rental_uris":{"android":"levelo://app?vid=1384d3c4-6e9b-492b-9b41-9f6394ad7659","ios":"levelo://app?vid=1384d3c4-6e9b-492b-9b41-9f6394ad7659"},"vehicle_type_id":"4","last_reported":1686600419,"current_range_meters":0,"station_id":"ce4bhbh2rcd13ifvqepg","pricing_plan_id":"free"},{"bike_id":"32e8cb40-ff4e-4d91-b104-f620e6196523","system_id":"levelo_inurba_marseille","lat":43.29645,"lon":5.40484,"is_reserved":false,"is_disabled":false,"rental_uris":{"android":"levelo://app?vid=32e8cb40-ff4e-4d91-b104-f620e6196523","ios":"levelo://app?vid=32e8cb40-ff4e-4d91-b104-f620e6196523"},"vehicle_type_id":"4","last_reported":1686600419,"current_range_meters":24000,"station_id":"","pricing_plan_id":"free"},{"bike_id":"92f96157-6cd8-4286-ad37-aa24a7b06d2b","system_id":"levelo_inurba_marseille","lat":43.28368,"lon":5.38616,"is_reserved":false,"is_disabled":false,"rental_uris":{"android":"levelo://app?vid=92f96157-6cd8-4286-ad37-aa24a7b06d2b","ios":"levelo://app?vid=92f96157-6cd8-4286-ad37-aa24a7b06d2b"},"vehicle_type_id":"4","last_reported":1686600419,"current_range_meters":2000,"station_id":"","pricing_plan_id":"free"},{"bike_id":"1ad075cb-3cb8-41f7-8b09-59253aa280f7","system_id":"levelo_inurba_marseille","lat":43.282754,"lon":5.350519,"is_reserved":false,"is_disabled":false,"rental_uris":{"android":"levelo://app?vid=1ad075cb-3cb8-41f7-8b09-59253aa280f7","ios":"levelo://app?vid=1ad075cb-3cb8-41f7-8b09-59253aa280f7"},"vehicle_type_id":"4","last_reported":1686600419,"current_range_meters":2800,"station_id":"ce4bhbp2rcd13ifvqerg","pricing_plan_id":"free"},{"bike_id":"9b9ac629-c309-4faa-a2e1-f55838bba2b3","system_id":"levelo_inurba_marseille","lat":43.283502,"lon":5.386471,"is_reserved":false,"is_disabled":false,"rental_uris":{"android":"levelo://app?vid=9b9ac629-c309-4faa-a2e1-f55838bba2b3","ios":"levelo://app?vid=9b9ac629-c309-4faa-a2e1-f55838bba2b3"},"vehicle_type_id":"4","last_reported":1686600419,"current_range_meters":19200,"station_id":"ce4bh492rcd13ifvqdvg","pricing_plan_id":"free"},{"bike_id":"2de228d4-5dd3-4f71-9c12-04d30cd1b074","system_id":"levelo_inurba_marseille","lat":43.28039,"lon":5.369297,"is_reserved":false,"is_disabled":false,"rental_uris":{"android":"levelo://app?vid=2de228d4-5dd3-4f71-9c12-04d30cd1b074","ios":"levelo://app?vid=2de228d4-5dd3-4f71-9c12-04d30cd1b074"},"vehicle_type_id":"4","last_reported":1686600419,"current_range_meters":19200,"station_id":"ce4bha12rcd13ifvqef0","pricing_plan_id":"free"},{"bike_id":"0c9a667d-4e58-47e9-9e47-a7ec2a479ed1","system_id":"levelo_inurba_marseille","lat":43.283502,"lon":5.386471,"is_reserved":false,"is_disabled":false,"rental_uris":{"android":"levelo://app?vid=0c9a667d-4e58-47e9-9e47-a7ec2a479ed1","ios":"levelo://app?vid=0c9a667d-4e58-47e9-9e47-a7ec2a479ed1"},"vehicle_type_id":"4","last_reported":1686600419,"current_range_meters":8400,"station_id":"ce4bh492rcd13ifvqdvg","pricing_plan_id":"free"},{"bike_id":"b2449f37-d90e-42f6-9c88-282cf579fdca","system_id":"levelo_inurba_marseille","lat":43.28107,"lon":5.37829,"is_reserved":false,"is_disabled":false,"rental_uris":{"android":"levelo://app?vid=b2449f37-d90e-42f6-9c88-282cf579fdca","ios":"levelo://app?vid=b2449f37-d90e-42f6-9c88-282cf579fdca"},"vehicle_type_id":"4","last_reported":1686600419,"current_range_meters":26800,"station_id":"ce4bha12rcd13ifvqee0","pricing_plan_id":"free"},{"bike_id":"77fcc606-b390-442d-b15c-6512c9ca7206","system_id":"levelo_inurba_marseille","lat":43.28104,"lon":5.37841,"is_reserved":false,"is_disabled":false,"rental_uris":{"android":"levelo://app?vid=77fcc606-b390-442d-b15c-6512c9ca7206","ios":"levelo://app?vid=77fcc606-b390-442d-b15c-6512c9ca7206"},"vehicle_type_id":"4","last_reported":1686600419,"current_range_meters":20400,"station_id":"ce4bha12rcd13ifvqee0","pricing_plan_id":"free"},{"bike_id":"5a4c71fd-9f64-467b-bb0c-f1494eee303e","system_id":"levelo_inurba_marseille","lat":43.281,"lon":5.37855,"is_reserved":false,"is_disabled":false,"rental_uris":{"android":"levelo://app?vid=5a4c71fd-9f64-467b-bb0c-f1494eee303e","ios":"levelo://app?vid=5a4c71fd-9f64-467b-bb0c-f1494eee303e"},"vehicle_type_id":"4","last_reported":1686600419,"current_range_meters":29200,"station_id":"ce4bha12rcd13ifvqee0","pricing_plan_id":"free"},{"bike_id":"786f1a60-0092-4603-addc-ac7cceb4eba6","system_id":"levelo_inurba_marseille","lat":43.326605,"lon":5.409903,"is_reserved":false,"is_disabled":false,"rental_uris":{"android":"levelo://app?vid=786f1a60-0092-4603-addc-ac7cceb4eba6","ios":"levelo://app?vid=786f1a60-0092-4603-addc-ac7cceb4eba6"},"vehicle_type_id":"4","last_reported":1686600419,"current_range_meters":0,"station_id":"ce4bhpp2rcd13ifvqhgg","pricing_plan_id":"free"},{"bike_id":"3c09f11d-a44d-4cc5-9f30-f203cd0602f9","system_id":"levelo_inurba_marseille","lat":43.27902,"lon":5.38019,"is_reserved":false,"is_disabled":false,"rental_uris":{"android":"levelo://app?vid=3c09f11d-a44d-4cc5-9f30-f203cd0602f9","ios":"levelo://app?vid=3c09f11d-a44d-4cc5-9f30-f203cd0602f9"},"vehicle_type_id":"4","last_reported":1686600419,"current_range_meters":13600,"station_id":"","pricing_plan_id":"free"},{"bike_id":"2e256ee5-e298-4ba7-b51f-4cdd2481acc5","system_id":"levelo_inurba_marseille","lat":43.287,"lon":5.39979,"is_reserved":false,"is_disabled":false,"rental_uris":{"android":"levelo://app?vid=2e256ee5-e298-4ba7-b51f-4cdd2481acc5","ios":"levelo://app?vid=2e256ee5-e298-4ba7-b51f-4cdd2481acc5"},"vehicle_type_id":"4","last_reported":1686600419,"current_range_meters":6000,"station_id":"ce4bho92rcd13ifvqh3g","pricing_plan_id":"free"},{"bike_id":"b26d8423-67a7-46a2-954a-ef1e3b9a835b","system_id":"levelo_inurba_marseille","lat":43.287154,"lon":5.399979,"is_reserved":false,"is_disabled":false,"rental_uris":{"android":"levelo://app?vid=b26d8423-67a7-46a2-954a-ef1e3b9a835b","ios":"levelo://app?vid=b26d8423-67a7-46a2-954a-ef1e3b9a835b"},"vehicle_type_id":"4","last_reported":1686600419,"current_range_meters":26800,"station_id":"ce4bho92rcd13ifvqh3g","pricing_plan_id":"free"},{"bike_id":"bee3c1eb-38f7-42b6-a988-84ffbe87c456","system_id":"levelo_inurba_marseille","lat":43.287154,"lon":5.399979,"is_reserved":false,"is_disabled":false,"rental_uris":{"android":"levelo://app?vid=bee3c1eb-38f7-42b6-a988-84ffbe87c456","ios":"levelo://app?vid=bee3c1eb-38f7-42b6-a988-84ffbe87c456"},"vehicle_type_id":"4","last_reported":1686600419,"current_range_meters":23200,"station_id":"ce4bho92rcd13ifvqh3g","pricing_plan_id":"free"},{"bike_id":"0bd3c255-c194-4195-a370-c06681c29fe6","system_id":"levelo_inurba_marseille","lat":43.33612,"lon":5.410321,"is_reserved":false,"is_disabled":false,"rental_uris":{"android":"levelo://app?vid=0bd3c255-c194-4195-a370-c06681c29fe6","ios":"levelo://app?vid=0bd3c255-c194-4195-a370-c06681c29fe6"},"vehicle_type_id":"4","last_reported":1686600419,"current_range_meters":8400,"station_id":"ce4bhqh2rcd13ifvqhmg","pricing_plan_id":"free"},{"bike_id":"c2037ee8-0dbd-4cf7-b503-88b654b986bd","system_id":"levelo_inurba_marseille","lat":43.320045,"lon":5.415046,"is_reserved":false,"is_disabled":false,"rental_uris":{"android":"levelo://app?vid=c2037ee8-0dbd-4cf7-b503-88b654b986bd","ios":"levelo://app?vid=c2037ee8-0dbd-4cf7-b503-88b654b986bd"},"vehicle_type_id":"4","last_reported":1686600419,"current_range_meters":13600,"station_id":"ce4bhq92rcd13ifvqhkg","pricing_plan_id":"free"},{"bike_id":"91e284f1-c317-4f2e-8caa-b2b7142869f2","system_id":"levelo_inurba_marseille","lat":43.29956,"lon":5.4132,"is_reserved":false,"is_disabled":false,"rental_uris":{"android":"levelo://app?vid=91e284f1-c317-4f2e-8caa-b2b7142869f2","ios":"levelo://app?vid=91e284f1-c317-4f2e-8caa-b2b7142869f2"},"vehicle_type_id":"4","last_reported":1686600419,"current_range_meters":7200,"station_id":"ce4bhp12rcd13ifvqh9g","pricing_plan_id":"free"},{"bike_id":"9cc780de-4c61-4010-ab1b-3e0bf73329cd","system_id":"levelo_inurba_marseille","lat":43.320045,"lon":5.415046,"is_reserved":false,"is_disabled":false,"rental_uris":{"android":"levelo://app?vid=9cc780de-4c61-4010-ab1b-3e0bf73329cd","ios":"levelo://app?vid=9cc780de-4c61-4010-ab1b-3e0bf73329cd"},"vehicle_type_id":"4","last_reported":1686600419,"current_range_meters":25600,"station_id":"ce4bhq92rcd13ifvqhkg","pricing_plan_id":"free"},{"bike_id":"830e2ef1-6cd8-4b27-964c-0353597997b2","system_id":"levelo_inurba_marseille","lat":43.292571,"lon":5.409107,"is_reserved":false,"is_disabled":false,"rental_uris":{"android":"levelo://app?vid=830e2ef1-6cd8-4b27-964c-0353597997b2","ios":"levelo://app?vid=830e2ef1-6cd8-4b27-964c-0353597997b2"},"vehicle_type_id":"4","last_reported":1686600419,"current_range_meters":4800,"station_id":"ce4bh192rcd13ifvqdc0","pricing_plan_id":"free"},{"bike_id":"ae39e40d-71b9-4312-8a15-c9263c849f97","system_id":"levelo_inurba_marseille","lat":43.29802,"lon":5.41337,"is_reserved":false,"is_disabled":false,"rental_uris":{"android":"levelo://app?vid=ae39e40d-71b9-4312-8a15-c9263c849f97","ios":"levelo://app?vid=ae39e40d-71b9-4312-8a15-c9263c849f97"},"vehicle_type_id":"4","last_reported":1686600419,"current_range_meters":24800,"station_id":"","pricing_plan_id":"free"},{"bike_id":"2ef71bcc-59ac-4e8c-a5a2-972482754eb6","system_id":"levelo_inurba_marseille","lat":43.28075,"lon":5.39649,"is_reserved":false,"is_disabled":false,"rental_uris":{"android":"levelo://app?vid=2ef71bcc-59ac-4e8c-a5a2-972482754eb6","ios":"levelo://app?vid=2ef71bcc-59ac-4e8c-a5a2-972482754eb6"},"vehicle_type_id":"4","last_reported":1686600419,"current_range_meters":25600,"station_id":"ce4bho12rcd13ifvqh2g","pricing_plan_id":"free"},{"bike_id":"8a470114-04b2-4dfd-9b72-09c74c9f749f","system_id":"levelo_inurba_marseille","lat":43.280784,"lon":5.396622,"is_reserved":false,"is_disabled":false,"rental_uris":{"android":"levelo://app?vid=8a470114-04b2-4dfd-9b72-09c74c9f749f","ios":"levelo://app?vid=8a470114-04b2-4dfd-9b72-09c74c9f749f"},"vehicle_type_id":"4","last_reported":1686600419,"current_range_meters":14400,"station_id":"ce4bho12rcd13ifvqh2g","pricing_plan_id":"free"},{"bike_id":"5798d32b-712e-4524-8646-a9c8edf39535","system_id":"levelo_inurba_marseille","lat":43.278401,"lon":5.392152,"is_reserved":false,"is_disabled":false,"rental_uris":{"android":"levelo://app?vid=5798d32b-712e-4524-8646-a9c8edf39535","ios":"levelo://app?vid=5798d32b-712e-4524-8646-a9c8edf39535"},"vehicle_type_id":"4","last_reported":1686600419,"current_range_meters":3200,"station_id":"ce4bhjp2rcd13ifvqga0","pricing_plan_id":"free"},{"bike_id":"e7452ad7-e82d-4df6-b9f8-f52173c3e52e","system_id":"levelo_inurba_marseille","lat":43.336134,"lon":5.410341,"is_reserved":false,"is_disabled":false,"rental_uris":{"android":"levelo://app?vid=e7452ad7-e82d-4df6-b9f8-f52173c3e52e","ios":"levelo://app?vid=e7452ad7-e82d-4df6-b9f8-f52173c3e52e"},"vehicle_type_id":"4","last_reported":1686600419,"current_range_meters":13600,"station_id":"ce4bhqh2rcd13ifvqhmg","pricing_plan_id":"free"},{"bike_id":"ae7adfde-7515-4c9e-b6a3-b41071a57bea","system_id":"levelo_inurba_marseille","lat":43.336134,"lon":5.410341,"is_reserved":false,"is_disabled":false,"rental_uris":{"android":"levelo://app?vid=ae7adfde-7515-4c9e-b6a3-b41071a57bea","ios":"levelo://app?vid=ae7adfde-7515-4c9e-b6a3-b41071a57bea"},"vehicle_type_id":"4","last_reported":1686600419,"current_range_meters":19600,"station_id":"ce4bhqh2rcd13ifvqhmg","pricing_plan_id":"free"},{"bike_id":"ccb8599f-b2ca-4134-b71e-bc372d64ff26","system_id":"levelo_inurba_marseille","lat":43.336134,"lon":5.410341,"is_reserved":false,"is_disabled":false,"rental_uris":{"android":"levelo://app?vid=ccb8599f-b2ca-4134-b71e-bc372d64ff26","ios":"levelo://app?vid=ccb8599f-b2ca-4134-b71e-bc372d64ff26"},"vehicle_type_id":"4","last_reported":1686600419,"current_range_meters":14000,"station_id":"ce4bhqh2rcd13ifvqhmg","pricing_plan_id":"free"},{"bike_id":"fdf5f688-4ba6-4507-85a0-ea7db31eb18c","system_id":"levelo_inurba_marseille","lat":43.35155,"lon":5.37568,"is_reserved":false,"is_disabled":false,"rental_uris":{"android":"levelo://app?vid=fdf5f688-4ba6-4507-85a0-ea7db31eb18c","ios":"levelo://app?vid=fdf5f688-4ba6-4507-85a0-ea7db31eb18c"},"vehicle_type_id":"4","last_reported":1686600419,"current_range_meters":8800,"station_id":"","pricing_plan_id":"free"},{"bike_id":"97bbe0a3-944e-4a8b-bab2-2d174d1bf292","system_id":"levelo_inurba_marseille","lat":43.317121,"lon":5.423936,"is_reserved":false,"is_disabled":false,"rental_uris":{"android":"levelo://app?vid=97bbe0a3-944e-4a8b-bab2-2d174d1bf292","ios":"levelo://app?vid=97bbe0a3-944e-4a8b-bab2-2d174d1bf292"},"vehicle_type_id":"4","last_reported":1686600419,"current_range_meters":22000,"station_id":"ce4bhp92rcd13ifvqhbg","pricing_plan_id":"free"},{"bike_id":"60369bb0-0d71-43b9-a915-5d4c7e589c53","system_id":"levelo_inurba_marseille","lat":43.317121,"lon":5.423936,"is_reserved":false,"is_disabled":false,"rental_uris":{"android":"levelo://app?vid=60369bb0-0d71-43b9-a915-5d4c7e589c53","ios":"levelo://app?vid=60369bb0-0d71-43b9-a915-5d4c7e589c53"},"vehicle_type_id":"4","last_reported":1686600419,"current_range_meters":1200,"station_id":"ce4bhp92rcd13ifvqhbg","pricing_plan_id":"free"},{"bike_id":"02154598-66f1-4656-9b5c-ca3d9b8bcb13","system_id":"levelo_inurba_marseille","lat":43.317121,"lon":5.423936,"is_reserved":false,"is_disabled":false,"rental_uris":{"android":"levelo://app?vid=02154598-66f1-4656-9b5c-ca3d9b8bcb13","ios":"levelo://app?vid=02154598-66f1-4656-9b5c-ca3d9b8bcb13"},"vehicle_type_id":"4","last_reported":1686600419,"current_range_meters":18000,"station_id":"ce4bhp92rcd13ifvqhbg","pricing_plan_id":"free"},{"bike_id":"c135417b-40c4-4c04-943e-b7711837ba3c","system_id":"levelo_inurba_marseille","lat":43.317121,"lon":5.423936,"is_reserved":false,"is_disabled":false,"rental_uris":{"android":"levelo://app?vid=c135417b-40c4-4c04-943e-b7711837ba3c","ios":"levelo://app?vid=c135417b-40c4-4c04-943e-b7711837ba3c"},"vehicle_type_id":"4","last_reported":1686600419,"current_range_meters":25200,"station_id":"ce4bhp92rcd13ifvqhbg","pricing_plan_id":"free"},{"bike_id":"753c6b72-ca8a-45ae-bd9d-8eca801d7a1c","system_id":"levelo_inurba_marseille","lat":43.27614,"lon":5.39489,"is_reserved":false,"is_disabled":false,"rental_uris":{"android":"levelo://app?vid=753c6b72-ca8a-45ae-bd9d-8eca801d7a1c","ios":"levelo://app?vid=753c6b72-ca8a-45ae-bd9d-8eca801d7a1c"},"vehicle_type_id":"4","last_reported":1686600419,"current_range_meters":10000,"station_id":"","pricing_plan_id":"free"},{"bike_id":"6efa99cc-7361-4e68-ba56-c5220692b8aa","system_id":"levelo_inurba_marseille","lat":43.272116,"lon":5.391763,"is_reserved":false,"is_disabled":false,"rental_uris":{"android":"levelo://app?vid=6efa99cc-7361-4e68-ba56-c5220692b8aa","ios":"levelo://app?vid=6efa99cc-7361-4e68-ba56-c5220692b8aa"},"vehicle_type_id":"4","last_reported":1686600419,"current_range_meters":24400,"station_id":"ce4bhhp2rcd13ifvqfm0","pricing_plan_id":"free"},{"bike_id":"534e1721-ce5f-48b5-a357-4315a4fd3aa0","system_id":"levelo_inurba_marseille","lat":43.27811,"lon":5.40693,"is_reserved":false,"is_disabled":false,"rental_uris":{"android":"levelo://app?vid=534e1721-ce5f-48b5-a357-4315a4fd3aa0","ios":"levelo://app?vid=534e1721-ce5f-48b5-a357-4315a4fd3aa0"},"vehicle_type_id":"4","last_reported":1686600419,"current_range_meters":11200,"station_id":"","pricing_plan_id":"free"},{"bike_id":"822832b7-1766-4ef3-ba8d-cadae1947573","system_id":"levelo_inurba_marseille","lat":43.278128,"lon":5.407195,"is_reserved":false,"is_disabled":false,"rental_uris":{"android":"levelo://app?vid=822832b7-1766-4ef3-ba8d-cadae1947573","ios":"levelo://app?vid=822832b7-1766-4ef3-ba8d-cadae1947573"},"vehicle_type_id":"4","last_reported":1686600419,"current_range_meters":28800,"station_id":"ce4bhnh2rcd13ifvqgtg","pricing_plan_id":"free"},{"bike_id":"681efcaf-a6c2-42f5-8a06-a631ab884938","system_id":"levelo_inurba_marseille","lat":43.27815,"lon":5.40707,"is_reserved":false,"is_disabled":false,"rental_uris":{"android":"levelo://app?vid=681efcaf-a6c2-42f5-8a06-a631ab884938","ios":"levelo://app?vid=681efcaf-a6c2-42f5-8a06-a631ab884938"},"vehicle_type_id":"4","last_reported":1686600419,"current_range_meters":6000,"station_id":"ce4bhnh2rcd13ifvqgtg","pricing_plan_id":"free"},{"bike_id":"0035d56e-f975-4b3d-8fad-670d496742ce","system_id":"levelo_inurba_marseille","lat":43.278128,"lon":5.407195,"is_reserved":false,"is_disabled":false,"rental_uris":{"android":"levelo://app?vid=0035d56e-f975-4b3d-8fad-670d496742ce","ios":"levelo://app?vid=0035d56e-f975-4b3d-8fad-670d496742ce"},"vehicle_type_id":"4","last_reported":1686600419,"current_range_meters":19200,"station_id":"ce4bhnh2rcd13ifvqgtg","pricing_plan_id":"free"},{"bike_id":"278ee436-7ab2-4e00-86a9-0e93915a289c","system_id":"levelo_inurba_marseille","lat":43.278128,"lon":5.407195,"is_reserved":false,"is_disabled":false,"rental_uris":{"android":"levelo://app?vid=278ee436-7ab2-4e00-86a9-0e93915a289c","ios":"levelo://app?vid=278ee436-7ab2-4e00-86a9-0e93915a289c"},"vehicle_type_id":"4","last_reported":1686600419,"current_range_meters":22000,"station_id":"ce4bhnh2rcd13ifvqgtg","pricing_plan_id":"free"},{"bike_id":"0ad57b0c-4974-4d54-a187-78d183611933","system_id":"levelo_inurba_marseille","lat":43.278128,"lon":5.407195,"is_reserved":false,"is_disabled":false,"rental_uris":{"android":"levelo://app?vid=0ad57b0c-4974-4d54-a187-78d183611933","ios":"levelo://app?vid=0ad57b0c-4974-4d54-a187-78d183611933"},"vehicle_type_id":"4","last_reported":1686600419,"current_range_meters":20400,"station_id":"ce4bhnh2rcd13ifvqgtg","pricing_plan_id":"free"},{"bike_id":"cf7f49b9-cc8c-4a81-a54c-fd1a34549409","system_id":"levelo_inurba_marseille","lat":43.278128,"lon":5.407195,"is_reserved":false,"is_disabled":false,"rental_uris":{"android":"levelo://app?vid=cf7f49b9-cc8c-4a81-a54c-fd1a34549409","ios":"levelo://app?vid=cf7f49b9-cc8c-4a81-a54c-fd1a34549409"},"vehicle_type_id":"4","last_reported":1686600419,"current_range_meters":28400,"station_id":"ce4bhnh2rcd13ifvqgtg","pricing_plan_id":"free"},{"bike_id":"f3318291-4839-41a2-9c73-b494a157f66b","system_id":"levelo_inurba_marseille","lat":43.269319,"lon":5.389397,"is_reserved":false,"is_disabled":false,"rental_uris":{"android":"levelo://app?vid=f3318291-4839-41a2-9c73-b494a157f66b","ios":"levelo://app?vid=f3318291-4839-41a2-9c73-b494a157f66b"},"vehicle_type_id":"4","last_reported":1686600419,"current_range_meters":24000,"station_id":"ce4bhhh2rcd13ifvqfl0","pricing_plan_id":"free"},{"bike_id":"1a20fedd-112f-4304-9d00-2f9fbce83900","system_id":"levelo_inurba_marseille","lat":43.26929,"lon":5.3892,"is_reserved":false,"is_disabled":false,"rental_uris":{"android":"levelo://app?vid=1a20fedd-112f-4304-9d00-2f9fbce83900","ios":"levelo://app?vid=1a20fedd-112f-4304-9d00-2f9fbce83900"},"vehicle_type_id":"4","last_reported":1686600419,"current_range_meters":400,"station_id":"ce4bhhh2rcd13ifvqfl0","pricing_plan_id":"free"},{"bike_id":"c028772f-525f-460c-b6e1-ef39cab93090","system_id":"levelo_inurba_marseille","lat":43.28002,"lon":5.41657,"is_reserved":false,"is_disabled":false,"rental_uris":{"android":"levelo://app?vid=c028772f-525f-460c-b6e1-ef39cab93090","ios":"levelo://app?vid=c028772f-525f-460c-b6e1-ef39cab93090"},"vehicle_type_id":"4","last_reported":1686600419,"current_range_meters":26000,"station_id":"ce4bho12rcd13ifvqh1g","pricing_plan_id":"free"},{"bike_id":"544ecff3-03f7-4a66-96d9-f82d214679cd","system_id":"levelo_inurba_marseille","lat":43.279927,"lon":5.416523,"is_reserved":false,"is_disabled":false,"rental_uris":{"android":"levelo://app?vid=544ecff3-03f7-4a66-96d9-f82d214679cd","ios":"levelo://app?vid=544ecff3-03f7-4a66-96d9-f82d214679cd"},"vehicle_type_id":"4","last_reported":1686600419,"current_range_meters":31200,"station_id":"ce4bho12rcd13ifvqh1g","pricing_plan_id":"free"},