{"last_updated":1727219268,"ttl":60,"version":"2.2","data":{"bikes":[{"bike_id":"d5908469-4ad0-4d90-bfbf-96709fc22e92","system_id":"levelo_inurba_marseille","lat":43.27494,"lon":5.42453,"is_reserved":false,"is_disabled":false,"rental_uris":{"android":"levelo://app?vid=d5908469-4ad0-4d90-bfbf-96709fc22e92","ios":"levelo://app?vid=d5908469-4ad0-4d90-bfbf-96709fc22e92"},"vehicle_type_id":"4","last_reported":1727219268,"current_range_meters":25200,"station_id":"ce4bhn92rcd13ifvqgrg","pricing_plan_id":"cebpf4jnsgd1na2vs0mg"},{"bike_id":"dc929efc-0c43-486c-9a16-d8a71128110d","system_id":"levelo_inurba_marseille","lat":43.28432,"lon":5.34994,"is_reserved":false,"is_disabled":false,"rental_uris":{"android":"levelo://app?vid=dc929efc-0c43-486c-9a16-d8a71128110d","ios":"levelo://app?vid=dc929efc-0c43-486c-9a16-d8a71128110d"},"vehicle_type_id":"4","last_reported":1727219268,"current_range_meters":38800,"station_id":"ce4bhbh2rcd13ifvqepg","pricing_plan_id":"cebpf4jnsgd1na2vs0mg"},{"bike_id":"8ee7fb84-da46-476f-a091-3c35d33d7645","system_id":"levelo_inurba_marseille","lat":43.27943,"lon":5.41044,"is_reserved":false,"is_disabled":false,"rental_uris":{"android":"levelo://app?vid=8ee7fb84-da46-476f-a091-3c35d33d7645","ios":"levelo://app?vid=8ee7fb84-da46-476f-a091-3c35d33d7645"},"vehicle_type_id":"4","last_reported":1727219268,"current_range_meters":13600,"station_id":"ce4bhnp2rcd13ifvqh0g","pricing_plan_id":"cebpf4jnsgd1na2vs0mg"},{"bike_id":"a867207d-ca9d-438a-92e2-8cf8e679686d","system_id":"levelo_inurba_marseille","lat":43.279007,"lon":5.380073,"is_reserved":false,"is_disabled":false,"rental_uris":{"android":"levelo://app?vid=a867207d-ca9d-438a-92e2-8cf8e679686d","ios":"levelo://app?vid=a867207d-ca9d-438a-92e2-8cf8e679686d"},"vehicle_type_id":"4","last_reported":1727219268,"current_range_meters":38800,"station_id":"ce4bhf92rcd13ifvqf50","pricing_plan_id":"cebpf4jnsgd1na2vs0mg"},{"bike_id":"c85c3ac1-ec61-453b-a260-9f3875c4a0d0","system_id":"levelo_inurba_marseille","lat":43.27944,"lon":5.41035,"is_reserved":false,"is_disabled":false,"rental_uris":{"android":"levelo://app?vid=c85c3ac1-ec61-453b-a260-9f3875c4a0d0","ios":"levelo://app?vid=c85c3ac1-ec61-453b-a260-9f3875c4a0d0"},"vehicle_type_id":"4","last_reported":1727219268,"current_range_meters":28400,"station_id":"ce4bhnp2rcd13ifvqh0g","pricing_plan_id":"cebpf4jnsgd1na2vs0mg"},{"bike_id":"72784618-c3e2-44b5-babf-8d7f67e9e3a2","system_id":"levelo_inurba_marseille","lat":43.30894,"lon":5.39646,"is_reserved":false,"is_disabled":false,"rental_uris":{"android":"levelo://app?vid=72784618-c3e2-44b5-babf-8d7f67e9e3a2","ios":"levelo://app?vid=72784618-c3e2-44b5-babf-8d7f67e9e3a2"},"vehicle_type_id":"4","last_reported":1727219268,"current_range_meters":39200,"station_id":"ce4bh012rcd13ifvqcv0","pricing_plan_id":"cebpf4jnsgd1na2vs0mg"},{"bike_id":"b3d911e4-2b36-4572-8f8c-79db27f5545f","system_id":"levelo_inurba_marseille","lat":43.28447,"lon":5.39208,"is_reserved":false,"is_disabled":false,"rental_uris":{"android":"levelo://app?vid=b3d911e4-2b36-4572-8f8c-79db27f5545f","ios":"levelo://app?vid=b3d911e4-2b36-4572-8f8c-79db27f5545f"},"vehicle_type_id":"4","last_reported":1727219268,"current_range_meters":38400,"station_id":"ce4bhoh2rcd13ifvqh5g","pricing_plan_id":"cebpf4jnsgd1na2vs0mg"},{"bike_id":"29e11072-6113-485f-8b69-65812b402fe2","system_id":"levelo_inurba_marseille","lat":43.30787,"lon":5.37643,"is_reserved":false,"is_disabled":false,"rental_uris":{"android":"levelo://app?vid=29e11072-6113-485f-8b69-65812b402fe2","ios":"levelo://app?vid=29e11072-6113-485f-8b69-65812b402fe2"},"vehicle_type_id":"4","last_reported":1727219268,"current_range_meters":32800,"station_id":"ce4bgv92rcd13ifvqcq0","pricing_plan_id":"cebpf4jnsgd1na2vs0mg"},{"bike_id":"fd1aa1ae-79f8-4d42-a8d1-b39762946286","system_id":"levelo_inurba_marseille","lat":43.25732,"lon":5.41104,"is_reserved":false,"is_disabled":false,"rental_uris":{"android":"levelo://app?vid=fd1aa1ae-79f8-4d42-a8d1-b39762946286","ios":"levelo://app?vid=fd1aa1ae-79f8-4d42-a8d1-b39762946286"},"vehicle_type_id":"4","last_reported":1727219268,"current_range_meters":38800,"station_id":"ce4bhkp2rcd13ifvqgd0","pricing_plan_id":"cebpf4jnsgd1na2vs0mg"},{"bike_id":"3c374343-aa99-421a-8521-b9bd189598db","system_id":"levelo_inurba_marseille","lat":43.28276,"lon":5.35063,"is_reserved":false,"is_disabled":false,"rental_uris":{"android":"levelo://app?vid=3c374343-aa99-421a-8521-b9bd189598db","ios":"levelo://app?vid=3c374343-aa99-421a-8521-b9bd189598db"},"vehicle_type_id":"4","last_reported":1727219268,"current_range_meters":37600,"station_id":"ce4bhbp2rcd13ifvqerg","pricing_plan_id":"cebpf4jnsgd1na2vs0mg"},{"bike_id":"0d4b5458-b225-48a0-afcc-d519ae9c6167","system_id":"levelo_inurba_marseille","lat":43.32664,"lon":5.40995,"is_reserved":false,"is_disabled":false,"rental_uris":{"android":"levelo://app?vid=0d4b5458-b225-48a0-afcc-d519ae9c6167","ios":"levelo://app?vid=0d4b5458-b225-48a0-afcc-d519ae9c6167"},"vehicle_type_id":"4","last_reported":1727219268,"current_range_meters":38800,"station_id":"ce4bhpp2rcd13ifvqhgg","pricing_plan_id":"cebpf4jnsgd1na2vs0mg"},{"bike_id":"c6cd9b70-3b14-42a0-9ee3-01408936a20e","system_id":"levelo_inurba_marseille","lat":43.27789,"lon":5.40755,"is_reserved":false,"is_disabled":false,"rental_uris":{"android":"levelo://app?vid=c6cd9b70-3b14-42a0-9ee3-01408936a20e","ios":"levelo://app?vid=c6cd9b70-3b14-42a0-9ee3-01408936a20e"},"vehicle_type_id":"4","last_reported":1727219268,"current_range_meters":17600,"station_id":"ce4bhnh2rcd13ifvqgtg","pricing_plan_id":"cebpf4jnsgd1na2vs0mg"},{"bike_id":"a2e8d937-74dd-4528-9647-c84f9ad6486c","system_id":"levelo_inurba_marseille","lat":43.30808,"lon":5.38155,"is_reserved":false,"is_disabled":false,"rental_uris":{"android":"levelo://app?vid=a2e8d937-74dd-4528-9647-c84f9ad6486c","ios":"levelo://app?vid=a2e8d937-74dd-4528-9647-c84f9ad6486c"},"vehicle_type_id":"4","last_reported":1727219268,"current_range_meters":38800,"station_id":"ce4bgt12rcd13ifvqce0","pricing_plan_id":"cebpf4jnsgd1na2vs0mg"},{"bike_id":"dec73f4f-b681-4818-a068-daca63f0a22d","system_id":"levelo_inurba_marseille","lat":43.22926,"lon":5.35388,"is_reserved":false,"is_disabled":false,"rental_uris":{"android":"levelo://app?vid=dec73f4f-b681-4818-a068-daca63f0a22d","ios":"levelo://app?vid=dec73f4f-b681-4818-a068-daca63f0a22d"},"vehicle_type_id":"4","last_reported":1727219268,"current_range_meters":38800,"station_id":"cpo3532slgdg3j2ikp40","pricing_plan_id":"cebpf4jnsgd1na2vs0mg"},{"bike_id":"9926f8d4-52ff-41d7-995b-39e4b6d4cdc0","system_id":"levelo_inurba_marseille","lat":43.32485,"lon":5.36556,"is_reserved":false,"is_disabled":false,"rental_uris":{"android":"levelo://app?vid=9926f8d4-52ff-41d7-995b-39e4b6d4cdc0","ios":"levelo://app?vid=9926f8d4-52ff-41d7-995b-39e4b6d4cdc0"},"vehicle_type_id":"4","last_reported":1727219268,"current_range_meters":38800,"station_id":"ce4bhs12rcd13ifvqhvg","pricing_plan_id":"cebpf4jnsgd1na2vs0mg"},{"bike_id":"31c81cbf-bc97-485d-99cc-1c48e223b569","system_id":"levelo_inurba_marseille","lat":43.2467,"lon":5.38163,"is_reserved":false,"is_disabled":false,"rental_uris":{"android":"levelo://app?vid=31c81cbf-bc97-485d-99cc-1c48e223b569","ios":"levelo://app?vid=31c81cbf-bc97-485d-99cc-1c48e223b569"},"vehicle_type_id":"4","last_reported":1727219268,"current_range_meters":37600,"station_id":"ce4bhih2rcd13ifvqfr0","pricing_plan_id":"cebpf4jnsgd1na2vs0mg"},{"bike_id":"881645e5-f4c7-4b41-b4c9-d93404411ab1","system_id":"levelo_inurba_marseille","lat":43.26568,"lon":5.39014,"is_reserved":false,"is_disabled":false,"rental_uris":{"android":"levelo://app?vid=881645e5-f4c7-4b41-b4c9-d93404411ab1","ios":"levelo://app?vid=881645e5-f4c7-4b41-b4c9-d93404411ab1"},"vehicle_type_id":"4","last_reported":1727219268,"current_range_meters":38800,"station_id":"ce4bhe12rcd13ifvqf30","pricing_plan_id":"cebpf4jnsgd1na2vs0mg"},{"bike_id":"cbc03ce7-b441-469e-bbab-40847c31f3d2","system_id":"levelo_inurba_marseille","lat":43.27946,"lon":5.4105,"is_reserved":false,"is_disabled":false,"rental_uris":{"android":"levelo://app?vid=cbc03ce7-b441-469e-bbab-40847c31f3d2","ios":"levelo://app?vid=cbc03ce7-b441-469e-bbab-40847c31f3d2"},"vehicle_type_id":"4","last_reported":1727219268,"current_range_meters":35200,"station_id":"ce4bhnp2rcd13ifvqh0g","pricing_plan_id":"cebpf4jnsgd1na2vs0mg"},{"bike_id":"d0d6dfcd-7289-4854-9c05-35a0c44bde3f","system_id":"levelo_inurba_marseille","lat":43.26809,"lon":5.40266,"is_reserved":false,"is_disabled":false,"rental_uris":{"android":"levelo://app?vid=d0d6dfcd-7289-4854-9c05-35a0c44bde3f","ios":"levelo://app?vid=d0d6dfcd-7289-4854-9c05-35a0c44bde3f"},"vehicle_type_id":"4","last_reported":1727219268,"current_range_meters":27200,"station_id":"ce501612rcd8frsf0b60","pricing_plan_id":"cebpf4jnsgd1na2vs0mg"},{"bike_id":"9a5e97a5-b6f0-45b1-b415-a0d8cc7c1563","system_id":"levelo_inurba_marseille","lat":43.24076,"lon":5.37749,"is_reserved":false,"is_disabled":false,"rental_uris":{"android":"levelo://app?vid=9a5e97a5-b6f0-45b1-b415-a0d8cc7c1563","ios":"levelo://app?vid=9a5e97a5-b6f0-45b1-b415-a0d8cc7c1563"},"vehicle_type_id":"4","last_reported":1727219268,"current_range_meters":38800,"station_id":"ce4bhnp2rcd13ifvqgvg","pricing_plan_id":"cebpf4jnsgd1na2vs0mg"},{"bike_id":"9acec9ee-03ac-47c6-938a-7db8a9781163","system_id":"levelo_inurba_marseille","lat":43.27569,"lon":5.38413,"is_reserved":false,"is_disabled":false,"rental_uris":{"android":"levelo://app?vid=9acec9ee-03ac-47c6-938a-7db8a9781163","ios":"levelo://app?vid=9acec9ee-03ac-47c6-938a-7db8a9781163"},"vehicle_type_id":"4","last_reported":1727219268,"current_range_meters":34000,"station_id":"ce4bhh92rcd13ifvqfi0","pricing_plan_id":"cebpf4jnsgd1na2vs0mg"},{"bike_id":"d9927889-b3eb-4de3-b314-afc25b21b934","system_id":"levelo_inurba_marseille","lat":43.29273,"lon":5.40127,"is_reserved":false,"is_disabled":false,"rental_uris":{"android":"levelo://app?vid=d9927889-b3eb-4de3-b314-afc25b21b934","ios":"levelo://app?vid=d9927889-b3eb-4de3-b314-afc25b21b934"},"vehicle_type_id":"4","last_reported":1727219268,"current_range_meters":36000,"station_id":"ce4bh312rcd13ifvqdk0","pricing_plan_id":"cebpf4jnsgd1na2vs0mg"},{"bike_id":"56d048ab-20a3-4e2a-a3b0-ce688e7edcef","system_id":"levelo_inurba_marseille","lat":43.30611,"lon":5.37211,"is_reserved":false,"is_disabled":false,"rental_uris":{"android":"levelo://app?vid=56d048ab-20a3-4e2a-a3b0-ce688e7edcef","ios":"levelo://app?vid=56d048ab-20a3-4e2a-a3b0-ce688e7edcef"},"vehicle_type_id":"4","last_reported":1727219268,"current_range_meters":38400,"station_id":"ce4bgqh2rcd13ifvqc4g","pricing_plan_id":"cebpf4jnsgd1na2vs0mg"},{"bike_id":"c2e767df-d13b-4bd7-a35a-c449057287bc","system_id":"levelo_inurba_marseille","lat":43.30787,"lon":5.37653,"is_reserved":false,"is_disabled":false,"rental_uris":{"android":"levelo://app?vid=c2e767df-d13b-4bd7-a35a-c449057287bc","ios":"levelo://app?vid=c2e767df-d13b-4bd7-a35a-c449057287bc"},"vehicle_type_id":"4","last_reported":1727219268,"current_range_meters":38800,"station_id":"ce4bgv92rcd13ifvqcq0","pricing_plan_id":"cebpf4jnsgd1na2vs0mg"},{"bike_id":"9c03e0f0-96c4-48fe-a0c9-2ff39af48c29","system_id":"levelo_inurba_marseille","lat":43.31994,"lon":5.38154,"is_reserved":false,"is_disabled":false,"rental_uris":{"android":"levelo://app?vid=9c03e0f0-96c4-48fe-a0c9-2ff39af48c29","ios":"levelo://app?vid=9c03e0f0-96c4-48fe-a0c9-2ff39af48c29"},"vehicle_type_id":"4","last_reported":1727219268,"current_range_meters":38800,"station_id":"ce4bhr12rcd13ifvqhpg","pricing_plan_id":"cebpf4jnsgd1na2vs0mg"},{"bike_id":"4bbcfecc-f6d8-4b41-8c7a-a73e0cd6d734","system_id":"levelo_inurba_marseille","lat":43.27949,"lon":5.41048,"is_reserved":false,"is_disabled":false,"rental_uris":{"android":"levelo://app?vid=4bbcfecc-f6d8-4b41-8c7a-a73e0cd6d734","ios":"levelo://app?vid=4bbcfecc-f6d8-4b41-8c7a-a73e0cd6d734"},"vehicle_type_id":"4","last_reported":1727219268,"current_range_meters":10000,"station_id":"ce4bhnp2rcd13ifvqh0g","pricing_plan_id":"cebpf4jnsgd1na2vs0mg"},{"bike_id":"08e2b91c-16d5-478b-bcac-2aacef01c141","system_id":"levelo_inurba_marseille","lat":43.30424,"lon":5.4129,"is_reserved":false,"is_disabled":false,"rental_uris":{"android":"levelo://app?vid=08e2b91c-16d5-478b-bcac-2aacef01c141","ios":"levelo://app?vid=08e2b91c-16d5-478b-bcac-2aacef01c141"},"vehicle_type_id":"4","last_reported":1727219268,"current_range_meters":38800,"station_id":"ce4bhop2rcd13ifvqh8g","pricing_plan_id":"cebpf4jnsgd1na2vs0mg"},{"bike_id":"c98803b0-10fe-4e03-82bd-ba19ce0378b7","system_id":"levelo_inurba_marseille","lat":43.29803,"lon":5.39341,"is_reserved":false,"is_disabled":false,"rental_uris":{"android":"levelo://app?vid=c98803b0-10fe-4e03-82bd-ba19ce0378b7","ios":"levelo://app?vid=c98803b0-10fe-4e03-82bd-ba19ce0378b7"},"vehicle_type_id":"4","last_reported":1727219268,"current_range_meters":38800,"station_id":"chh1huq6cuj3fo74tm60","pricing_plan_id":"cebpf4jnsgd1na2vs0mg"},{"bike_id":"2ec5f482-ef2f-4ef8-b42f-3ca6cf554387","system_id":"levelo_inurba_marseille","lat":43.31333,"lon":5.39692,"is_reserved":false,"is_disabled":false,"rental_uris":{"android":"levelo://app?vid=2ec5f482-ef2f-4ef8-b42f-3ca6cf554387","ios":"levelo://app?vid=2ec5f482-ef2f-4ef8-b42f-3ca6cf554387"},"vehicle_type_id":"4","last_reported":1727219268,"current_range_meters":39200,"station_id":"ce4bgvp2rcd13ifvqcu0","pricing_plan_id":"cebpf4jnsgd1na2vs0mg"},{"bike_id":"7737b815-6daf-41f0-8354-4b28ba75917f","system_id":"levelo_inurba_marseille","lat":43.30198,"lon":5.39822,"is_reserved":false,"is_disabled":false,"rental_uris":{"android":"levelo://app?vid=7737b815-6daf-41f0-8354-4b28ba75917f","ios":"levelo://app?vid=7737b815-6daf-41f0-8354-4b28ba75917f"},"vehicle_type_id":"4","last_reported":1727219268,"current_range_meters":20000,"station_id":"ce4bgvp2rcd13ifvqct0","pricing_plan_id":"cebpf4jnsgd1na2vs0mg"},{"bike_id":"934dea65-c890-40ea-b799-f7b54ddb5c48","system_id":"levelo_inurba_marseille","lat":43.248,"lon":5.37457,"is_reserved":false,"is_disabled":false,"rental_uris":{"android":"levelo://app?vid=934dea65-c890-40ea-b799-f7b54ddb5c48","ios":"levelo://app?vid=934dea65-c890-40ea-b799-f7b54ddb5c48"},"vehicle_type_id":"4","last_reported":1727219268,"current_range_meters":38800,"station_id":"ce4bhgh2rcd13ifvqfb0","pricing_plan_id":"cebpf4jnsgd1na2vs0mg"},{"bike_id":"0471c745-c3d9-4a99-b048-d77951c65463","system_id":"levelo_inurba_marseille","lat":43.30782,"lon":5.37655,"is_reserved":false,"is_disabled":false,"rental_uris":{"android":"levelo://app?vid=0471c745-c3d9-4a99-b048-d77951c65463","ios":"levelo://app?vid=0471c745-c3d9-4a99-b048-d77951c65463"},"vehicle_type_id":"4","last_reported":1727219268,"current_range_meters":10000,"station_id":"ce4bgv92rcd13ifvqcq0","pricing_plan_id":"cebpf4jnsgd1na2vs0mg"},{"bike_id":"37d634b8-0da9-4533-8238-95a091b609bc","system_id":"levelo_inurba_marseille","lat":43.3189,"lon":5.40734,"is_reserved":false,"is_disabled":false,"rental_uris":{"android":"levelo://app?vid=37d634b8-0da9-4533-8238-95a091b609bc","ios":"levelo://app?vid=37d634b8-0da9-4533-8238-95a091b609bc"},"vehicle_type_id":"4","last_reported":1727219268,"current_range_meters":36800,"station_id":"ce4bhq12rcd13ifvqhig","pricing_plan_id":"cebpf4jnsgd1na2vs0mg"},{"bike_id":"93af468c-1321-4d4c-99c3-612c9b0da5a4","system_id":"levelo_inurba_marseille","lat":43.25819,"lon":5.3943,"is_reserved":false,"is_disabled":false,"rental_uris":{"android":"levelo://app?vid=93af468c-1321-4d4c-99c3-612c9b0da5a4","ios":"levelo://app?vid=93af468c-1321-4d4c-99c3-612c9b0da5a4"},"vehicle_type_id":"4","last_reported":1727219268,"current_range_meters":9600,"station_id":"ce4bhip2rcd13ifvqft0","pricing_plan_id":"cebpf4jnsgd1na2vs0mg"},{"bike_id":"e0c40f06-3d04-498e-be97-d9ef077db8a1","system_id":"levelo_inurba_marseille","lat":43.2396,"lon":5.36639,"is_reserved":false,"is_disabled":false,"rental_uris":{"android":"levelo://app?vid=e0c40f06-3d04-498e-be97-d9ef077db8a1","ios":"levelo://app?vid=e0c40f06-3d04-498e-be97-d9ef077db8a1"},"vehicle_type_id":"4","last_reported":1727219268,"current_range_meters":38800,"station_id":"ce4bhi12rcd13ifvqfp0","pricing_plan_id":"cebpf4jnsgd1na2vs0mg"},{"bike_id":"c846df12-3b2c-456e-a231-0b53e4d815d5","system_id":"levelo_inurba_marseille","lat":43.28465,"lon":5.35883,"is_reserved":false,"is_disabled":false,"rental_uris":{"android":"levelo://app?vid=c846df12-3b2c-456e-a231-0b53e4d815d5","ios":"levelo://app?vid=c846df12-3b2c-456e-a231-0b53e4d815d5"},"vehicle_type_id":"4","last_reported":1727219268,"current_range_meters":6400,"station_id":"ce4bhah2rcd13ifvqei0","pricing_plan_id":"cebpf4jnsgd1na2vs0mg"},{"bike_id":"12a91ca7-89e2-4321-ab83-41b6880d06bb","system_id":"levelo_inurba_marseille","lat":43.2841,"lon":5.3752,"is_reserved":false,"is_disabled":false,"rental_uris":{"android":"levelo://app?vid=12a91ca7-89e2-4321-ab83-41b6880d06bb","ios":"levelo://app?vid=12a91ca7-89e2-4321-ab83-41b6880d06bb"},"vehicle_type_id":"4","last_reported":1727219268,"current_range_meters":30000,"station_id":"ce4bh412rcd13ifvqds0","pricing_plan_id":"cebpf4jnsgd1na2vs0mg"},{"bike_id":"9e8a6286-2aa6-4c4f-837d-ef22b57ca874","system_id":"levelo_inurba_marseille","lat":43.2408,"lon":5.37744,"is_reserved":false,"is_disabled":false,"rental_uris":{"android":"levelo://app?vid=9e8a6286-2aa6-4c4f-837d-ef22b57ca874","ios":"levelo://app?vid=9e8a6286-2aa6-4c4f-837d-ef22b57ca874"},"vehicle_type_id":"4","last_reported":1727219268,"current_range_meters":24800,"station_id":"ce4bhnp2rcd13ifvqgvg","pricing_plan_id":"cebpf4jnsgd1na2vs0mg"},{"bike_id":"f2d3a346-9600-4f43-b76b-2b4ec5e8d36a","system_id":"levelo_inurba_marseille","lat":43.24667,"lon":5.38156,"is_reserved":false,"is_disabled":false,"rental_uris":{"android":"levelo://app?vid=f2d3a346-9600-4f43-b76b-2b4ec5e8d36a","ios":"levelo://app?vid=f2d3a346-9600-4f43-b76b-2b4ec5e8d36a"},"vehicle_type_id":"4","last_reported":1727219268,"current_range_meters":29600,"station_id":"ce4bhih2rcd13ifvqfr0","pricing_plan_id":"cebpf4jnsgd1na2vs0mg"},{"bike_id":"86b6dccf-ea7c-412a-a291-bf2084731947","system_id":"levelo_inurba_marseille","lat":43.27372,"lon":5.3625,"is_reserved":false,"is_disabled":false,"rental_uris":{"android":"levelo://app?vid=86b6dccf-ea7c-412a-a291-bf2084731947","ios":"levelo://app?vid=86b6dccf-ea7c-412a-a291-bf2084731947"},"vehicle_type_id":"4","last_reported":1727219268,"current_range_meters":8800,"station_id":"ce4bhbh2rcd13ifvqeo0","pricing_plan_id":"cebpf4jnsgd1na2vs0mg"},{"bike_id":"f8c704cc-636c-4268-80af-5309e4b09904","system_id":"levelo_inurba_marseille","lat":43.24182,"lon":5.3972,"is_reserved":false,"is_disabled":false,"rental_uris":{"android":"levelo://app?vid=f8c704cc-636c-4268-80af-5309e4b09904","ios":"levelo://app?vid=f8c704cc-636c-4268-80af-5309e4b09904"},"vehicle_type_id":"4","last_reported":1727219268,"current_range_meters":36000,"station_id":"ce4bhn12rcd13ifvqgpg","pricing_plan_id":"cebpf4jnsgd1na2vs0mg"},{"bike_id":"8db4eeae-90dc-450b-8149-34b6ce69b1f8","system_id":"levelo_inurba_marseille","lat":43.23189,"lon":5.39982,"is_reserved":false,"is_disabled":false,"rental_uris":{"android":"levelo://app?vid=8db4eeae-90dc-450b-8149-34b6ce69b1f8","ios":"levelo://app?vid=8db4eeae-90dc-450b-8149-34b6ce69b1f8"},"vehicle_type_id":"4","last_reported":1727219268,"current_range_meters":29600,"station_id":"ce4bhn12rcd13ifvqgqg","pricing_plan_id":"cebpf4jnsgd1na2vs0mg"},{"bike_id":"5e63a82a-5383-4289-af28-a05f1ab0253d","system_id":"levelo_inurba_marseille","lat":43.30808,"lon":5.38149,"is_reserved":false,"is_disabled":false,"rental_uris":{"android":"levelo://app?vid=5e63a82a-5383-4289-af28-a05f1ab0253d","ios":"levelo://app?vid=5e63a82a-5383-4289-af28-a05f1ab0253d"},"vehicle_type_id":"4","last_reported":1727219268,"current_range_meters":24000,"station_id":"ce4bgt12rcd13ifvqce0","pricing_plan_id":"cebpf4jnsgd1na2vs0mg"},{"bike_id":"20bdd43a-fb86-4a6a-8151-53f794460f1a","system_id":"levelo_inurba_marseille","lat":43.28407,"lon":5.37513,"is_reserved":false,"is_disabled":false,"rental_uris":{"android":"levelo://app?vid=20bdd43a-fb86-4a6a-8151-53f794460f1a","ios":"levelo://app?vid=20bdd43a-fb86-4a6a-8151-53f794460f1a"},"vehicle_type_id":"4","last_reported":1727219268,"current_range_meters":14400,"station_id":"ce4bh412rcd13ifvqds0","pricing_plan_id":"cebpf4jnsgd1na2vs0mg"},{"bike_id":"5b94ac8f-7ada-4f82-b400-95810572b03a","system_id":"levelo_inurba_marseille","lat":43.31336,"lon":5.39694,"is_reserved":false,"is_disabled":false,"rental_uris":{"android":"levelo://app?vid=5b94ac8f-7ada-4f82-b400-95810572b03a","ios":"levelo://app?vid=5b94ac8f-7ada-4f82-b400-95810572b03a"},"vehicle_type_id":"4","last_reported":1727219268,"current_range_meters":35200,"station_id":"ce4bgvp2rcd13ifvqcu0","pricing_plan_id":"cebpf4jnsgd1na2vs0mg"},{"bike_id":"6fb66ae3-6fa9-43dd-9897-b56fb30fb83f","system_id":"levelo_inurba_marseille","lat":43.29982,"lon":5.37177,"is_reserved":false,"is_disabled":false,"rental_uris":{"android":"levelo://app?vid=6fb66ae3-6fa9-43dd-9897-b56fb30fb83f","ios":"levelo://app?vid=6fb66ae3-6fa9-43dd-9897-b56fb30fb83f"},"vehicle_type_id":"4","last_reported":1727219268,"current_range_meters":6400,"station_id":"ce4bgr92rcd13ifvqc7g","pricing_plan_id":"cebpf4jnsgd1na2vs0mg"},{"bike_id":"7a8458d5-44ac-4f2e-abef-3f01eb31f7ca","system_id":"levelo_inurba_marseille","lat":43.337444,"lon":5.374475,"is_reserved":false,"is_disabled":false,"rental_uris":{"android":"levelo://app?vid=7a8458d5-44ac-4f2e-abef-3f01eb31f7ca","ios":"levelo://app?vid=7a8458d5-44ac-4f2e-abef-3f01eb31f7ca"},"vehicle_type_id":"4","last_reported":1727219268,"current_range_meters":28000,"station_id":"","pricing_plan_id":"cebpf4jnsgd1na2vs0mg"},{"bike_id":"e9f58633-02b7-482f-be0a-1808b0ff1f1b","system_id":"levelo_inurba_marseille","lat":43.32367,"lon":5.38882,"is_reserved":false,"is_disabled":false,"rental_uris":{"android":"levelo://app?vid=e9f58633-02b7-482f-be0a-1808b0ff1f1b","ios":"levelo://app?vid=e9f58633-02b7-482f-be0a-1808b0ff1f1b"},"vehicle_type_id":"4","last_reported":1727219268,"current_range_meters":23200,"station_id":"ce4bhqp2rcd13ifvqhog","pricing_plan_id":"cebpf4jnsgd1na2vs0mg"},{"bike_id":"12d5813c-bef4-4788-8bf7-21573df55f53","system_id":"levelo_inurba_marseille","lat":43.27914,"lon":5.38005,"is_reserved":false,"is_disabled":false,"rental_uris":{"android":"levelo://app?vid=12d5813c-bef4-4788-8bf7-21573df55f53","ios":"levelo://app?vid=12d5813c-bef4-4788-8bf7-21573df55f53"},"vehicle_type_id":"4","last_reported":1727219268,"current_range_meters":36800,"station_id":"ce4bhf92rcd13ifvqf50","pricing_plan_id":"cebpf4jnsgd1na2vs0mg"},{"bike_id":"77e173d9-88cc-420c-b669-312c3d413969","system_id":"levelo_inurba_marseille","lat":43.29687,"lon":5.37277,"is_reserved":false,"is_disabled":false,"rental_uris":{"android":"levelo://app?vid=77e173d9-88cc-420c-b669-312c3d413969","ios":"levelo://app?vid=77e173d9-88cc-420c-b669-312c3d413969"},"vehicle_type_id":"4","last_reported":1727219268,"current_range_meters":38800,"station_id":"ce4bgk12rcd13ifvqbj0","pricing_plan_id":"cebpf4jnsgd1na2vs0mg"},{"bike_id":"c9b5ec6f-9235-414f-8086-a847b21c71d9","system_id":"levelo_inurba_marseille","lat":43.31996,"lon":5.3815,"is_reserved":false,"is_disabled":false,"rental_uris":{"android":"levelo://app?vid=c9b5ec6f-9235-414f-8086-a847b21c71d9","ios":"levelo://app?vid=c9b5ec6f-9235-414f-8086-a847b21c71d9"},"vehicle_type_id":"4","last_reported":1727219268,"current_range_meters":38800,"station_id":"ce4bhr12rcd13ifvqhpg","pricing_plan_id":"cebpf4jnsgd1na2vs0mg"},{"bike_id":"0c753969-17e0-46bd-a779-2f2ecb7ed5df","system_id":"levelo_inurba_marseille","lat":43.30135,"lon":5.39878,"is_reserved":false,"is_disabled":false,"rental_uris":{"android":"levelo://app?vid=0c753969-17e0-46bd-a779-2f2ecb7ed5df","ios":"levelo://app?vid=0c753969-17e0-46bd-a779-2f2ecb7ed5df"},"vehicle_type_id":"4","last_reported":1727219268,"current_range_meters":38000,"station_id":"ce4bh0h2rcd13ifvqd40","pricing_plan_id":"cebpf4jnsgd1na2vs0mg"},{"bike_id":"caaa4edd-dfb2-4c6d-bee0-ff713fd39174","system_id":"levelo_inurba_marseille","lat":43.28463,"lon":5.35895,"is_reserved":false,"is_disabled":false,"rental_uris":{"android":"levelo://app?vid=caaa4edd-dfb2-4c6d-bee0-ff713fd39174","ios":"levelo://app?vid=caaa4edd-dfb2-4c6d-bee0-ff713fd39174"},"vehicle_type_id":"4","last_reported":1727219268,"current_range_meters":35600,"station_id":"ce4bhah2rcd13ifvqei0","pricing_plan_id":"cebpf4jnsgd1na2vs0mg"},{"bike_id":"a1f389dd-bb24-412b-85a7-c4163f3337bb","system_id":"levelo_inurba_marseille","lat":43.31754,"lon":5.39018,"is_reserved":false,"is_disabled":false,"rental_uris":{"android":"levelo://app?vid=a1f389dd-bb24-412b-85a7-c4163f3337bb","ios":"levelo://app?vid=a1f389dd-bb24-412b-85a7-c4163f3337bb"},"vehicle_type_id":"4","last_reported":1727219268,"current_range_meters":30800,"station_id":"ce4bhqp2rcd13ifvqhng","pricing_plan_id":"cebpf4jnsgd1na2vs0mg"},{"bike_id":"36450a01-8f71-4323-abb9-677aa1b31b9c","system_id":"levelo_inurba_marseille","lat":43.27834,"lon":5.39205,"is_reserved":false,"is_disabled":false,"rental_uris":{"android":"levelo://app?vid=36450a01-8f71-4323-abb9-677aa1b31b9c","ios":"levelo://app?vid=36450a01-8f71-4323-abb9-677aa1b31b9c"},"vehicle_type_id":"4","last_reported":1727219268,"current_range_meters":38800,"station_id":"ce4bhjp2rcd13ifvqga0","pricing_plan_id":"cebpf4jnsgd1na2vs0mg"},{"bike_id":"b947ca82-b929-4925-b901-3e2693fbd581","system_id":"levelo_inurba_marseille","lat":43.28701,"lon":5.37383,"is_reserved":false,"is_disabled":false,"rental_uris":{"android":"levelo://app?vid=b947ca82-b929-4925-b901-3e2693fbd581","ios":"levelo://app?vid=b947ca82-b929-4925-b901-3e2693fbd581"},"vehicle_type_id":"4","last_reported":1727219268,"current_range_meters":8400,"station_id":"ce4bh3p2rcd13ifvqdq0","pricing_plan_id":"cebpf4jnsgd1na2vs0mg"},{"bike_id":"4628adaa-a8b2-423a-91e1-6faa5c881c75","system_id":"levelo_inurba_marseille","lat":43.27954,"lon":5.410439,"is_reserved":false,"is_disabled":false,"rental_uris":{"android":"levelo://app?vid=4628adaa-a8b2-423a-91e1-6faa5c881c75","ios":"levelo://app?vid=4628adaa-a8b2-423a-91e1-6faa5c881c75"},"vehicle_type_id":"4","last_reported":1727219268,"current_range_meters":38800,"station_id":"ce4bhnp2rcd13ifvqh0g","pricing_plan_id":"cebpf4jnsgd1na2vs0mg"},{"bike_id":"173443cc-b829-4093-a757-cf7e821856d6","system_id":"levelo_inurba_marseille","lat":43.29801,"lon":5.40408,"is_reserved":false,"is_disabled":false,"rental_uris":{"android":"levelo://app?vid=173443cc-b829-4093-a757-cf7e821856d6","ios":"levelo://app?vid=173443cc-b829-4093-a757-cf7e821856d6"},"vehicle_type_id":"4","last_reported":1727219268,"current_range_meters":3600,"station_id":"ce4bh112rcd13ifvqd90","pricing_plan_id":"cebpf4jnsgd1na2vs0mg"},{"bike_id":"56cbcd49-4eda-4409-ad0f-39231c49d9e4","system_id":"levelo_inurba_marseille","lat":43.30784,"lon":5.37641,"is_reserved":false,"is_disabled":false,"rental_uris":{"android":"levelo://app?vid=56cbcd49-4eda-4409-ad0f-39231c49d9e4","ios":"levelo://app?vid=56cbcd49-4eda-4409-ad0f-39231c49d9e4"},"vehicle_type_id":"4","last_reported":1727219268,"current_range_meters":6800,"station_id":"ce4bgv92rcd13ifvqcq0","pricing_plan_id":"cebpf4jnsgd1na2vs0mg"},{"bike_id":"74a10610-3df3-41b7-a3c6-59e791a9c6eb","system_id":"levelo_inurba_marseille","lat":43.29009,"lon":5.39892,"is_reserved":false,"is_disabled":false,"rental_uris":{"android":"levelo://app?vid=74a10610-3df3-41b7-a3c6-59e791a9c6eb","ios":"levelo://app?vid=74a10610-3df3-41b7-a3c6-59e791a9c6eb"},"vehicle_type_id":"4","last_reported":1727219268,"current_range_meters":37600,"station_id":"ce4bh392rcd13ifvqdm0","pricing_plan_id":"cebpf4jnsgd1na2vs0mg"},{"bike_id":"aaf5ba86-58de-460a-adbe-e58e97ba3511","system_id":"levelo_inurba_marseille","lat":43.26026,"lon":5.37559,"is_reserved":false,"is_disabled":false,"rental_uris":{"android":"levelo://app?vid=aaf5ba86-58de-460a-adbe-e58e97ba3511","ios":"levelo://app?vid=aaf5ba86-58de-460a-adbe-e58e97ba3511"},"vehicle_type_id":"4","last_reported":1727219268,"current_range_meters":38800,"station_id":"ce4bhgh2rcd13ifvqfa0","pricing_plan_id":"cebpf4jnsgd1na2vs0mg"},{"bike_id":"195e040e-9409-49d3-9dd3-bcac34d34007","system_id":"levelo_inurba_marseille","lat":43.22933,"lon":5.35378,"is_reserved":false,"is_disabled":false,"rental_uris":{"android":"levelo://app?vid=195e040e-9409-49d3-9dd3-bcac34d34007","ios":"levelo://app?vid=195e040e-9409-49d3-9dd3-bcac34d34007"},"vehicle_type_id":"4","last_reported":1727219268,"current_range_meters":16400,"station_id":"cpo3532slgdg3j2ikp40","pricing_plan_id":"cebpf4jnsgd1na2vs0mg"},{"bike_id":"cefb6643-fc89-4b04-b95f-6cff2759399c","system_id":"levelo_inurba_marseille","lat":43.3229,"lon":5.38274,"is_reserved":false,"is_disabled":false,"rental_uris":{"android":"levelo://app?vid=cefb6643-fc89-4b04-b95f-6cff2759399c","ios":"levelo://app?vid=cefb6643-fc89-4b04-b95f-6cff2759399c"},"vehicle_type_id":"4","last_reported":1727219268,"current_range_meters":38800,"station_id":"ce4bhr12rcd13ifvqhqg","pricing_plan_id":"cebpf4jnsgd1na2vs0mg"},{"bike_id":"30d0f976-3493-4292-92f2-234cb6fef603","system_id":"levelo_inurba_marseille","lat":43.28708,"lon":5.37386,"is_reserved":false,"is_disabled":false,"rental_uris":{"android":"levelo://app?vid=30d0f976-3493-4292-92f2-234cb6fef603","ios":"levelo://app?vid=30d0f976-3493-4292-92f2-234cb6fef603"},"vehicle_type_id":"4","last_reported":1727219268,"current_range_meters":39200,"station_id":"ce4bh3p2rcd13ifvqdq0","pricing_plan_id":"cebpf4jnsgd1na2vs0mg"},{"bike_id":"0e3f3c7a-7614-4ed0-9132-2ee329accc26","system_id":"levelo_inurba_marseille","lat":43.28579,"lon":5.39494,"is_reserved":false,"is_disabled":false,"rental_uris":{"android":"levelo://app?vid=0e3f3c7a-7614-4ed0-9132-2ee329accc26","ios":"levelo://app?vid=0e3f3c7a-7614-4ed0-9132-2ee329accc26"},"vehicle_type_id":"4","last_reported":1727219268,"current_range_meters":38800,"station_id":"ce4bh292rcd13ifvqdg0","pricing_plan_id":"cebpf4jnsgd1na2vs0mg"},{"bike_id":"5bcea1ca-d6a8-4178-b9c8-289382d91307","system_id":"levelo_inurba_marseille","lat":43.2549,"lon":5.37651,"is_reserved":false,"is_disabled":false,"rental_uris":{"android":"levelo://app?vid=5bcea1ca-d6a8-4178-b9c8-289382d91307","ios":"levelo://app?vid=5bcea1ca-d6a8-4178-b9c8-289382d91307"},"vehicle_type_id":"4","last_reported":1727219268,"current_range_meters":38800,"station_id":"ce4bhh12rcd13ifvqff0","pricing_plan_id":"cebpf4jnsgd1na2vs0mg"},{"bike_id":"683f833b-acfe-4dae-91f7-d9ab7a6c472e","system_id":"levelo_inurba_marseille","lat":43.33025,"lon":5.39039,"is_reserved":false,"is_disabled":false,"rental_uris":{"android":"levelo://app?vid=683f833b-acfe-4dae-91f7-d9ab7a6c472e","ios":"levelo://app?vid=683f833b-acfe-4dae-91f7-d9ab7a6c472e"},"vehicle_type_id":"4","last_reported":1727219268,"current_range_meters":38800,"station_id":"ce4bhr92rcd13ifvqhrg","pricing_plan_id":"cebpf4jnsgd1na2vs0mg"},{"bike_id":"2d4d7a57-fc8d-40a8-a37f-8d0279400743","system_id":"levelo_inurba_marseille","lat":43.24667,"lon":5.38162,"is_reserved":false,"is_disabled":false,"rental_uris":{"android":"levelo://app?vid=2d4d7a57-fc8d-40a8-a37f-8d0279400743","ios":"levelo://app?vid=2d4d7a57-fc8d-40a8-a37f-8d0279400743"},"vehicle_type_id":"4","last_reported":1727219268,"current_range_meters":38400,"station_id":"ce4bhih2rcd13ifvqfr0","pricing_plan_id":"cebpf4jnsgd1na2vs0mg"},{"bike_id":"f8701f40-f79e-46c4-b059-badc9e339852","system_id":"levelo_inurba_marseille","lat":43.30946,"lon":5.3903,"is_reserved":false,"is_disabled":false,"rental_uris":{"android":"levelo://app?vid=f8701f40-f79e-46c4-b059-badc9e339852","ios":"levelo://app?vid=f8701f40-f79e-46c4-b059-badc9e339852"},"vehicle_type_id":"4","last_reported":1727219268,"current_range_meters":3200,"station_id":"ce4bgup2rcd13ifvqco0","pricing_plan_id":"cebpf4jnsgd1na2vs0mg"},{"bike_id":"4b15922f-83f6-4b5a-aa5a-91c95d6336f1","system_id":"levelo_inurba_marseille","lat":43.28462,"lon":5.35881,"is_reserved":false,"is_disabled":false,"rental_uris":{"android":"levelo://app?vid=4b15922f-83f6-4b5a-aa5a-91c95d6336f1","ios":"levelo://app?vid=4b15922f-83f6-4b5a-aa5a-91c95d6336f1"},"vehicle_type_id":"4","last_reported":1727219268,"current_range_meters":6000,"station_id":"ce4bhah2rcd13ifvqei0","pricing_plan_id":"cebpf4jnsgd1na2vs0mg"},{"bike_id":"2da24b92-3734-492c-9a6c-8b09da92c194","system_id":"levelo_inurba_marseille","lat":43.337444,"lon":5.374475,"is_reserved":false,"is_disabled":false,"rental_uris":{"android":"levelo://app?vid=2da24b92-3734-492c-9a6c-8b09da92c194","ios":"levelo://app?vid=2da24b92-3734-492c-9a6c-8b09da92c194"},"vehicle_type_id":"4","last_reported":1727219268,"current_range_meters":24400,"station_id":"","pricing_plan_id":"cebpf4jnsgd1na2vs0mg"},{"bike_id":"39af98d0-adf0-4182-b86c-567613ebbe09","system_id":"levelo_inurba_marseille","lat":43.31731,"lon":5.43701,"is_reserved":false,"is_disabled":false,"rental_uris":{"android":"levelo://app?vid=39af98d0-adf0-4182-b86c-567613ebbe09","ios":"levelo://app?vid=39af98d0-adf0-4182-b86c-567613ebbe09"},"vehicle_type_id":"4","last_reported":1727219268,"current_range_meters":8000,"station_id":"ce4bhp92rcd13ifvqhcg","pricing_plan_id":"cebpf4jnsgd1na2vs0mg"},{"bike_id":"548235df-a792-4a16-81fa-c35f935b0aef","system_id":"levelo_inurba_marseille","lat":43.26566,"lon":5.39008,"is_reserved":false,"is_disabled":false,"rental_uris":{"android":"levelo://app?vid=548235df-a792-4a16-81fa-c35f935b0aef","ios":"levelo://app?vid=548235df-a792-4a16-81fa-c35f935b0aef"},"vehicle_type_id":"4","last_reported":1727219268,"current_range_meters":39200,"station_id":"ce4bhe12rcd13ifvqf30","pricing_plan_id":"cebpf4jnsgd1na2vs0mg"},{"bike_id":"48fb61fa-a50c-4c50-90c6-dcaf2a474b29","system_id":"levelo_inurba_marseille","lat":43.29795,"lon":5.40406,"is_reserved":false,"is_disabled":false,"rental_uris":{"android":"levelo://app?vid=48fb61fa-a50c-4c50-90c6-dcaf2a474b29","ios":"levelo://app?vid=48fb61fa-a50c-4c50-90c6-dcaf2a474b29"},"vehicle_type_id":"4","last_reported":1727219268,"current_range_meters":38000,"station_id":"ce4bh112rcd13ifvqd90","pricing_plan_id":"cebpf4jnsgd1na2vs0mg"},{"bike_id":"4191bab8-8b49-4083-a41a-88c5392fc7e3","system_id":"levelo_inurba_marseille","lat":43.30654,"lon":5.40087,"is_reserved":false,"is_disabled":false,"rental_uris":{"android":"levelo://app?vid=4191bab8-8b49-4083-a41a-88c5392fc7e3","ios":"levelo://app?vid=4191bab8-8b49-4083-a41a-88c5392fc7e3"},"vehicle_type_id":"4","last_reported":1727219268,"current_range_meters":38000,"station_id":"ce4bh112rcd13ifvqda0","pricing_plan_id":"cebpf4jnsgd1na2vs0mg"},{"bike_id":"5655e961-dde7-4df9-bce3-446271a3c33e","system_id":"levelo_inurba_marseille","lat":43.27076,"lon":5.42273,"is_reserved":false,"is_disabled":false,"rental_uris":{"android":"levelo://app?vid=5655e961-dde7-4df9-bce3-446271a3c33e","ios":"levelo://app?vid=5655e961-dde7-4df9-bce3-446271a3c33e"},"vehicle_type_id":"4","last_reported":1727219268,"current_range_meters":38800,"station_id":"ce4bhk92rcd13ifvqgb0","pricing_plan_id":"cebpf4jnsgd1na2vs0mg"},{"bike_id":"f61740c6-cc03-47eb-8072-b4d8729e922f","system_id":"levelo_inurba_marseille","lat":43.31083,"lon":5.42431,"is_reserved":false,"is_disabled":false,"rental_uris":{"android":"levelo://app?vid=f61740c6-cc03-47eb-8072-b4d8729e922f","ios":"levelo://app?vid=f61740c6-cc03-47eb-8072-b4d8729e922f"},"vehicle_type_id":"4","last_reported":1727219268,"current_range_meters":38800,"station_id":"ce4bhp92rcd13ifvqhag","pricing_plan_id":"cebpf4jnsgd1na2vs0mg"},{"bike_id":"2e2de685-4ec7-4511-82d2-40bbdf2d487e","system_id":"levelo_inurba_marseille","lat":43.24548,"lon":5.39526,"is_reserved":false,"is_disabled":false,"rental_uris":{"android":"levelo://app?vid=2e2de685-4ec7-4511-82d2-40bbdf2d487e","ios":"levelo://app?vid=2e2de685-4ec7-4511-82d2-40bbdf2d487e"},"vehicle_type_id":"4","last_reported":1727219268,"current_range_meters":38800,"station_id":"ce4bhlp2rcd13ifvqgjg","pricing_plan_id":"cebpf4jnsgd1na2vs0mg"},{"bike_id":"22901ff8-312e-4868-9a6f-fc35f382462a","system_id":"levelo_inurba_marseille","lat":43.28701,"lon":5.39985,"is_reserved":false,"is_disabled":false,"rental_uris":{"android":"levelo://app?vid=22901ff8-312e-4868-9a6f-fc35f382462a","ios":"levelo://app?vid=22901ff8-312e-4868-9a6f-fc35f382462a"},"vehicle_type_id":"4","last_reported":1727219268,"current_range_meters":12400,"station_id":"ce4bho92rcd13ifvqh3g","pricing_plan_id":"cebpf4jnsgd1na2vs0mg"},{"bike_id":"ac0019e9-ee5b-4377-95bc-765dea66f357","system_id":"levelo_inurba_marseille","lat":43.27991,"lon":5.41659,"is_reserved":false,"is_disabled":false,"rental_uris":{"android":"levelo://app?vid=ac0019e9-ee5b-4377-95bc-765dea66f357","ios":"levelo://app?vid=ac0019e9-ee5b-4377-95bc-765dea66f357"},"vehicle_type_id":"4","last_reported":1727219268,"current_range_meters":38800,"station_id":"ce4bho12rcd13ifvqh1g","pricing_plan_id":"cebpf4jnsgd1na2vs0mg"},{"bike_id":"62dbf7d7-3cba-48a5-b759-e77c437e0c44","system_id":"levelo_inurba_marseille","lat":43.23191,"lon":5.35553,"is_reserved":false,"is_disabled":false,"rental_uris":{"android":"levelo://app?vid=62dbf7d7-3cba-48a5-b759-e77c437e0c44","ios":"levelo://app?vid=62dbf7d7-3cba-48a5-b759-e77c437e0c44"},"vehicle_type_id":"4","last_reported":1727219268,"current_range_meters":38000,"station_id":"ce4bhu92rcd13ifvqi70","pricing_plan_id":"cebpf4jnsgd1na2vs0mg"},{"bike_id":"ecb70881-b110-48a8-b751-24b4690d4031","system_id":"levelo_inurba_marseille","lat":43.23186,"lon":5.39986,"is_reserved":false,"is_disabled":false,"rental_uris":{"android":"levelo://app?vid=ecb70881-b110-48a8-b751-24b4690d4031","ios":"levelo://app?vid=ecb70881-b110-48a8-b751-24b4690d4031"},"vehicle_type_id":"4","last_reported":1727219268,"current_range_meters":9600,"station_id":"ce4bhn12rcd13ifvqgqg","pricing_plan_id":"cebpf4jnsgd1na2vs0mg"},{"bike_id":"d84e9818-d585-45e3-b58c-b7a1c2eb0e6c","system_id":"levelo_inurba_marseille","lat":43.3089,"lon":5.39645,"is_reserved":false,"is_disabled":false,"rental_uris":{"android":"levelo://app?vid=d84e9818-d585-45e3-b58c-b7a1c2eb0e6c","ios":"levelo://app?vid=d84e9818-d585-45e3-b58c-b7a1c2eb0e6c"},"vehicle_type_id":"4","last_reported":1727219268,"current_range_meters":8400,"station_id":"ce4bh012rcd13ifvqcv0","pricing_plan_id":"cebpf4jnsgd1na2vs0mg"},{"bike_id":"25bd7405-be80-4a77-a761-8a1efed52652","system_id":"levelo_inurba_marseille","lat":43.29896,"lon":5.43659,"is_reserved":false,"is_disabled":false,"rental_uris":{"android":"levelo://app?vid=25bd7405-be80-4a77-a761-8a1efed52652","ios":"levelo://app?vid=25bd7405-be80-4a77-a761-8a1efed52652"},"vehicle_type_id":"4","last_reported":1727219268,"current_range_meters":38800,"station_id":"ce4bhpp2rcd13ifvqhfg","pricing_plan_id":"cebpf4jnsgd1na2vs0mg"},{"bike_id":"2fe2c0de-08ff-45d0-a649-6b26bff02b66","system_id":"levelo_inurba_marseille","lat":43.28088,"lon":5.39666,"is_reserved":false,"is_disabled":false,"rental_uris":{"android":"levelo://app?vid=2fe2c0de-08ff-45d0-a649-6b26bff02b66","ios":"levelo://app?vid=2fe2c0de-08ff-45d0-a649-6b26bff02b66"},"vehicle_type_id":"4","last_reported":1727219268,"current_range_meters":37600,"station_id":"ce4bho12rcd13ifvqh2g","pricing_plan_id":"cebpf4jnsgd1na2vs0mg"},{"bike_id":"11c4f5be-b465-471a-b3d0-dbbc3061010b","system_id":"levelo_inurba_marseille","lat":43.30801,"lon":5.43526,"is_reserved":false,"is_disabled":false,"rental_uris":{"android":"levelo://app?vid=11c4f5be-b465-471a-b3d0-dbbc3061010b","ios":"levelo://app?vid=11c4f5be-b465-471a-b3d0-dbbc3061010b"},"vehicle_type_id":"4","last_reported":1727219268,"current_range_meters":21600,"station_id":"ce4bhph2rcd13ifvqheg","pricing_plan_id":"cebpf4jnsgd1na2vs0mg"},{"bike_id":"b892d38d-6036-48c1-8333-338a8ccecbdd","system_id":"levelo_inurba_marseille","lat":43.31278,"lon":5.40162,"is_reserved":false,"is_disabled":false,"rental_uris":{"android":"levelo://app?vid=b892d38d-6036-48c1-8333-338a8ccecbdd","ios":"levelo://app?vid=b892d38d-6036-48c1-8333-338a8ccecbdd"},"vehicle_type_id":"4","last_reported":1727219268,"current_range_meters":38800,"station_id":"ce4bh092rcd13ifvqd30","pricing_plan_id":"cebpf4jnsgd1na2vs0mg"},{"bike_id":"162ee78d-83e3-4081-92bd-328649d7b4ba","system_id":"levelo_inurba_marseille","lat":43.31758,"lon":5.39013,"is_reserved":false,"is_disabled":false,"rental_uris":{"android":"levelo://app?vid=162ee78d-83e3-4081-92bd-328649d7b4ba","ios":"levelo://app?vid=162ee78d-83e3-4081-92bd-328649d7b4ba"},"vehicle_type_id":"4","last_reported":1727219268,"current_range_meters":9600,"station_id":"ce4bhqp2rcd13ifvqhng","pricing_plan_id":"cebpf4jnsgd1na2vs0mg"},{"bike_id":"ca72b491-f110-426a-9bf1-c5a5b83721b7","system_id":"levelo_inurba_marseille","lat":43.28084,"lon":5.39648,"is_reserved":false,"is_disabled":false,"rental_uris":{"android":"levelo://app?vid=ca72b491-f110-426a-9bf1-c5a5b83721b7","ios":"levelo://app?vid=ca72b491-f110-426a-9bf1-c5a5b83721b7"},"vehicle_type_id":"4","last_reported":1727219268,"current_range_meters":37600,"station_id":"ce4bho12rcd13ifvqh2g","pricing_plan_id":"cebpf4jnsgd1na2vs0mg"},{"bike_id":"467459a6-9682-4c5d-a8e2-6efde3d52b5f","system_id":"levelo_inurba_marseille","lat":43.28702,"lon":5.39981,"is_reserved":false,"is_disabled":false,"rental_uris":{"android":"levelo://app?vid=467459a6-9682-4c5d-a8e2-6efde3d52b5f","ios":"levelo://app?vid=467459a6-9682-4c5d-a8e2-6efde3d52b5f"},"vehicle_type_id":"4","last_reported":1727219268,"current_range_meters":3200,"station_id":"ce4bho92rcd13ifvqh3g","pricing_plan_id":"cebpf4jnsgd1na2vs0mg"},{"bike_id":"c7ef48a1-c091-4bd1-8005-cb0f802fe2ef","system_id":"levelo_inurba_marseille","lat":43.28671,"lon":5.36352,"is_reserved":false,"is_disabled":false,"rental_uris":{"android":"levelo://app?vid=c7ef48a1-c091-4bd1-8005-cb0f802fe2ef","ios":"levelo://app?vid=c7ef48a1-c091-4bd1-8005-cb0f802fe2ef"},"vehicle_type_id":"4","last_reported":1727219268,"current_range_meters":38800,"station_id":"ce4bhah2rcd13ifvqej0","pricing_plan_id":"cebpf4jnsgd1na2vs0mg"},{"bike_id":"eea2cd5a-ea70-49e4-b38f-c464fb6c5cc3","system_id":"levelo_inurba_marseille","lat":43.337444,"lon":5.374475,"is_reserved":false,"is_disabled":false,"rental_uris":{"android":"levelo://app?vid=eea2cd5a-ea70-49e4-b38f-c464fb6c5cc3","ios":"levelo://app?vid=eea2cd5a-ea70-49e4-b38f-c464fb6c5cc3"},"vehicle_type_id":"4","last_reported":1727219268,"current_range_meters":32800,"station_id":"","pricing_plan_id":"cebpf4jnsgd1na2vs0mg"},{"bike_id":"9a47b717-7019-4432-8919-a04f87b15333","system_id":"levelo_inurba_marseille","lat":43.30212,"lon":5.39462,"is_reserved":false,"is_disabled":false,"rental_uris":{"android":"levelo://app?vid=9a47b717-7019-4432-8919-a04f87b15333","ios":"levelo://app?vid=9a47b717-7019-4432-8919-a04f87b15333"},"vehicle_type_id":"4","last_reported":1727219268,"current_range_meters":16000,"station_id":"ce4bh0p2rcd13ifvqd70","pricing_plan_id":"cebpf4jnsgd1na2vs0mg"},{"bike_id":"87219a8f-0882-4b10-b887-bde676d43338","system_id":"levelo_inurba_marseille","lat":43.31333,"lon":5.39697,"is_reserved":false,"is_disabled":false,"rental_uris":{"android":"levelo://app?vid=87219a8f-0882-4b10-b887-bde676d43338","ios":"levelo://app?vid=87219a8f-0882-4b10-b887-bde676d43338"},"vehicle_type_id":"4","last_reported":1727219268,"current_range_meters":8000,"station_id":"ce4bgvp2rcd13ifvqcu0","pricing_plan_id":"cebpf4jnsgd1na2vs0mg"},{"bike_id":"9a956495-97f1-4caa-a970-dab6d313b018","system_id":"levelo_inurba_marseille","lat":43.28666,"lon":5.36343,"is_reserved":false,"is_disabled":false,"rental_uris":{"android":"levelo://app?vid=9a956495-97f1-4caa-a970-dab6d313b018","ios":"levelo://app?vid=9a956495-97f1-4caa-a970-dab6d313b018"},"vehicle_type_id":"4","last_reported":1727219268,"current_range_meters":9600,"station_id":"ce4bhah2rcd13ifvqej0","pricing_plan_id":"cebpf4jnsgd1na2vs0mg"},{"bike_id":"a403d474-e46a-40fe-adf5-8aa11cef681f","system_id":"levelo_inurba_marseille","lat":43.31325,"lon":5.39696,"is_reserved":false,"is_disabled":false,"rental_uris":{"android":"levelo://app?vid=a403d474-e46a-40fe-adf5-8aa11cef681f","ios":"levelo://app?vid=a403d474-e46a-40fe-adf5-8aa11cef681f"},"vehicle_type_id":"4","last_reported":1727219268,"current_range_meters":33600,"station_id":"ce4bgvp2rcd13ifvqcu0","pricing_plan_id":"cebpf4jnsgd1na2vs0mg"},{"bike_id":"a1b199c4-ec31-42f9-94ef-5cd98c464a07","system_id":"levelo_inurba_marseille","lat":43.31076,"lon":5.3835,"is_reserved":false,"is_disabled":false,"rental_uris":{"android":"levelo://app?vid=a1b199c4-ec31-42f9-94ef-5cd98c464a07","ios":"levelo://app?vid=a1b199c4-ec31-42f9-94ef-5cd98c464a07"},"vehicle_type_id":"4","last_reported":1727219268,"current_range_meters":31200,"station_id":"ce4bgv92rcd13ifvqcr0","pricing_plan_id":"cebpf4jnsgd1na2vs0mg"},{"bike_id":"e5accd9d-24b1-48a2-85dd-636c889e71c1","system_id":"levelo_inurba_marseille","lat":43.31533,"lon":5.38023,"is_reserved":false,"is_disabled":false,"rental_uris":{"android":"levelo://app?vid=e5accd9d-24b1-48a2-85dd-636c889e71c1","ios":"levelo://app?vid=e5accd9d-24b1-48a2-85dd-636c889e71c1"},"vehicle_type_id":"4","last_reported":1727219268,"current_range_meters":8400,"station_id":"ce4bhsp2rcd13ifvqi50","pricing_plan_id":"cebpf4jnsgd1na2vs0mg"},{"bike_id":"159c7209-adf4-460b-b550-6277c6e03ee2","system_id":"levelo_inurba_marseille","lat":43.24395,"lon":5.37055,"is_reserved":false,"is_disabled":false,"rental_uris":{"android":"levelo://app?vid=159c7209-adf4-460b-b550-6277c6e03ee2","ios":"levelo://app?vid=159c7209-adf4-460b-b550-6277c6e03ee2"},"vehicle_type_id":"4","last_reported":1727219268,"current_range_meters":39200,"station_id":"ce4bhhh2rcd13ifvqfk0","pricing_plan_id":"cebpf4jnsgd1na2vs0mg"},{"bike_id":"22b724aa-3194-41d5-8047-37f062d1e9b5","system_id":"levelo_inurba_marseille","lat":43.31271,"lon":5.40169,"is_reserved":false,"is_disabled":false,"rental_uris":{"android":"levelo://app?vid=22b724aa-3194-41d5-8047-37f062d1e9b5","ios":"levelo://app?vid=22b724aa-3194-41d5-8047-37f062d1e9b5"},"vehicle_type_id":"4","last_reported":1727219268,"current_range_meters":33200,"station_id":"ce4bh092rcd13ifvqd30","pricing_plan_id":"cebpf4jnsgd1na2vs0mg"},{"bike_id":"19eb3182-6fa3-422b-a570-2c6afa42ac1b","system_id":"levelo_inurba_marseille","lat":43.30212,"lon":5.39463,"is_reserved":false,"is_disabled":false,"rental_uris":{"android":"levelo://app?vid=19eb3182-6fa3-422b-a570-2c6afa42ac1b","ios":"levelo://app?vid=19eb3182-6fa3-422b-a570-2c6afa42ac1b"},"vehicle_type_id":"4","last_reported":1727219268,"current_range_meters":15200,"station_id":"ce4bh0p2rcd13ifvqd70","pricing_plan_id":"cebpf4jnsgd1na2vs0mg"},{"bike_id":"f4f9f7b1-0483-4614-a717-c97a58bb909c","system_id":"levelo_inurba_marseille","lat":43.2874,"lon":5.3652,"is_reserved":false,"is_disabled":false,"rental_uris":{"android":"levelo://app?vid=f4f9f7b1-0483-4614-a717-c97a58bb909c","ios":"levelo://app?vid=f4f9f7b1-0483-4614-a717-c97a58bb909c"},"vehicle_type_id":"4","last_reported":1727219268,"current_range_meters":18800,"station_id":"ce4bgt12rcd13ifvqcd0","pricing_plan_id":"cebpf4jnsgd1na2vs0mg"},{"bike_id":"1802deb5-1c46-4f67-afa3-157e0fdc0220","system_id":"levelo_inurba_marseille","lat":43.2782,"lon":5.4072,"is_reserved":false,"is_disabled":false,"rental_uris":{"android":"levelo://app?vid=1802deb5-1c46-4f67-afa3-157e0fdc0220","ios":"levelo://app?vid=1802deb5-1c46-4f67-afa3-157e0fdc0220"},"vehicle_type_id":"4","last_reported":1727219268,"current_range_meters":27200,"station_id":"ce4bhnh2rcd13ifvqgtg","pricing_plan_id":"cebpf4jnsgd1na2vs0mg"},{"bike_id":"bf934032-88ce-4fc2-af2a-7aa654b14d36","system_id":"levelo_inurba_marseille","lat":43.24547,"lon":5.39524,"is_reserved":false,"is_disabled":false,"rental_uris":{"android":"levelo://app?vid=bf934032-88ce-4fc2-af2a-7aa654b14d36","ios":"levelo://app?vid=bf934032-88ce-4fc2-af2a-7aa654b14d36"},"vehicle_type_id":"4","last_reported":1727219268,"current_range_meters":12400,"station_id":"ce4bhlp2rcd13ifvqgjg","pricing_plan_id":"cebpf4jnsgd1na2vs0mg"},{"bike_id":"32133b7e-bfd2-452d-9708-18ecbfbebe2d","system_id":"levelo_inurba_marseille","lat":43.28722,"lon":5.36084,"is_reserved":false,"is_disabled":false,"rental_uris":{"android":"levelo://app?vid=32133b7e-bfd2-452d-9708-18ecbfbebe2d","ios":"levelo://app?vid=32133b7e-bfd2-452d-9708-18ecbfbebe2d"},"vehicle_type_id":"4","last_reported":1727219268,"current_range_meters":36000,"station_id":"cki0cbj6b192h4jlfktg","pricing_plan_id":"cebpf4jnsgd1na2vs0mg"},{"bike_id":"4b3f338b-df24-42af-b85a-4f54f291a067","system_id":"levelo_inurba_marseille","lat":43.30792,"lon":5.38149,"is_reserved":false,"is_disabled":false,"rental_uris":{"android":"levelo://app?vid=4b3f338b-df24-42af-b85a-4f54f291a067","ios":"levelo://app?vid=4b3f338b-df24-42af-b85a-4f54f291a067"},"vehicle_type_id":"4","last_reported":1727219268,"current_range_meters":36800,"station_id":"ce4bgt12rcd13ifvqce0","pricing_plan_id":"cebpf4jnsgd1na2vs0mg"},{"bike_id":"62086ef0-0fdd-4de5-b44e-6256f5c2a99c","system_id":"levelo_inurba_marseille","lat":43.24652,"lon":5.38891,"is_reserved":false,"is_disabled":false,"rental_uris":{"android":"levelo://app?vid=62086ef0-0fdd-4de5-b44e-6256f5c2a99c","ios":"levelo://app?vid=62086ef0-0fdd-4de5-b44e-6256f5c2a99c"},"vehicle_type_id":"4","last_reported":1727219268,"current_range_meters":38800,"station_id":"ce4bhg12rcd13ifvqf60","pricing_plan_id":"cebpf4jnsgd1na2vs0mg"},{"bike_id":"2f958106-65b2-4b11-96aa-7adfd054d7e7","system_id":"levelo_inurba_marseille","lat":43.29264,"lon":5.40908,"is_reserved":false,"is_disabled":false,"rental_uris":{"android":"levelo://app?vid=2f958106-65b2-4b11-96aa-7adfd054d7e7","ios":"levelo://app?vid=2f958106-65b2-4b11-96aa-7adfd054d7e7"},"vehicle_type_id":"4","last_reported":1727219268,"current_range_meters":36400,"station_id":"ce4bh192rcd13ifvqdc0","pricing_plan_id":"cebpf4jnsgd1na2vs0mg"},{"bike_id":"a92561d6-f4cf-4f91-8a10-b45c103c120b","system_id":"levelo_inurba_marseille","lat":43.30891,"lon":5.39638,"is_reserved":false,"is_disabled":false,"rental_uris":{"android":"levelo://app?vid=a92561d6-f4cf-4f91-8a10-b45c103c120b","ios":"levelo://app?vid=a92561d6-f4cf-4f91-8a10-b45c103c120b"},"vehicle_type_id":"4","last_reported":1727219268,"current_range_meters":36000,"station_id":"ce4bh012rcd13ifvqcv0","pricing_plan_id":"cebpf4jnsgd1na2vs0mg"},{"bike_id":"a333b021-0d64-4ef6-81f3-d0458b4bd42e","system_id":"levelo_inurba_marseille","lat":43.24655,"lon":5.38956,"is_reserved":false,"is_disabled":false,"rental_uris":{"android":"levelo://app?vid=a333b021-0d64-4ef6-81f3-d0458b4bd42e","ios":"levelo://app?vid=a333b021-0d64-4ef6-81f3-d0458b4bd42e"},"vehicle_type_id":"4","last_reported":1727219268,"current_range_meters":15200,"station_id":"ce4bhg12rcd13ifvqf60","pricing_plan_id":"cebpf4jnsgd1na2vs0mg"},{"bike_id":"cf7ac539-f4dc-4e1f-b039-53aef50a1a09","system_id":"levelo_inurba_marseille","lat":43.312766,"lon":5.401747,"is_reserved":false,"is_disabled":false,"rental_uris":{"android":"levelo://app?vid=cf7ac539-f4dc-4e1f-b039-53aef50a1a09","ios":"levelo://app?vid=cf7ac539-f4dc-4e1f-b039-53aef50a1a09"},"vehicle_type_id":"4","last_reported":1727219268,"current_range_meters":38800,"station_id":"ce4bh092rcd13ifvqd30","pricing_plan_id":"cebpf4jnsgd1na2vs0mg"},{"bike_id":"768f3444-0576-4344-a883-b7b1b167cbfb","system_id":"levelo_inurba_marseille","lat":43.28081,"lon":5.39655,"is_reserved":false,"is_disabled":false,"rental_uris":{"android":"levelo://app?vid=768f3444-0576-4344-a883-b7b1b167cbfb","ios":"levelo://app?vid=768f3444-0576-4344-a883-b7b1b167cbfb"},"vehicle_type_id":"4","last_reported":1727219268,"current_range_meters":32000,"station_id":"ce4bho12rcd13ifvqh2g","pricing_plan_id":"cebpf4jnsgd1na2vs0mg"},{"bike_id":"57757cf2-b971-443b-97a6-6c791a375948","system_id":"levelo_inurba_marseille","lat":43.28249,"lon":5.43043,"is_reserved":false,"is_disabled":false,"rental_uris":{"android":"levelo://app?vid=57757cf2-b971-443b-97a6-6c791a375948","ios":"levelo://app?vid=57757cf2-b971-443b-97a6-6c791a375948"},"vehicle_type_id":"4","last_reported":1727219268,"current_range_meters":25600,"station_id":"","pricing_plan_id":"cebpf4jnsgd1na2vs0mg"},{"bike_id":"adcd9b3c-e165-4d80-a5ba-b64db630aec3","system_id":"levelo_inurba_marseille","lat":43.27626,"lon":5.36109,"is_reserved":false,"is_disabled":false,"rental_uris":{"android":"levelo://app?vid=adcd9b3c-e165-4d80-a5ba-b64db630aec3","ios":"levelo://app?vid=adcd9b3c-e165-4d80-a5ba-b64db630aec3"},"vehicle_type_id":"4","last_reported":1727219268,"current_range_meters":38800,"station_id":"ce4bgj92rcd13ifvqbe0","pricing_plan_id":"cebpf4jnsgd1na2vs0mg"},{"bike_id":"73d06c40-68ea-41b9-8233-ccd164ab434b","system_id":"levelo_inurba_marseille","lat":43.2455,"lon":5.39529,"is_reserved":false,"is_disabled":false,"rental_uris":{"android":"levelo://app?vid=73d06c40-68ea-41b9-8233-ccd164ab434b","ios":"levelo://app?vid=73d06c40-68ea-41b9-8233-ccd164ab434b"},"vehicle_type_id":"4","last_reported":1727219268,"current_range_meters":37600,"station_id":"ce4bhlp2rcd13ifvqgjg","pricing_plan_id":"cebpf4jnsgd1na2vs0mg"},{"bike_id":"d9b188bc-cf8f-48bb-b89c-6b15d658fb12","system_id":"levelo_inurba_marseille","lat":43.32485,"lon":5.36558,"is_reserved":false,"is_disabled":false,"rental_uris":{"android":"levelo://app?vid=d9b188bc-cf8f-48bb-b89c-6b15d658fb12","ios":"levelo://app?vid=d9b188bc-cf8f-48bb-b89c-6b15d658fb12"},"vehicle_type_id":"4","last_reported":1727219268,"current_range_meters":38800,"station_id":"ce4bhs12rcd13ifvqhvg","pricing_plan_id":"cebpf4jnsgd1na2vs0mg"},{"bike_id":"73e7f655-b2b9-4127-a50c-dc2251f994d0","system_id":"levelo_inurba_marseille","lat":43.28766,"lon":5.39688,"is_reserved":false,"is_disabled":false,"rental_uris":{"android":"levelo://app?vid=73e7f655-b2b9-4127-a50c-dc2251f994d0","ios":"levelo://app?vid=73e7f655-b2b9-4127-a50c-dc2251f994d0"},"vehicle_type_id":"4","last_reported":1727219268,"current_range_meters":37600,"station_id":"","pricing_plan_id":"cebpf4jnsgd1na2vs0mg"},{"bike_id":"02ab7362-2b7f-4383-a176-abcd0062a076","system_id":"levelo_inurba_marseille","lat":43.2925,"lon":5.40909,"is_reserved":false,"is_disabled":false,"rental_uris":{"android":"levelo://app?vid=02ab7362-2b7f-4383-a176-abcd0062a076","ios":"levelo://app?vid=02ab7362-2b7f-4383-a176-abcd0062a076"},"vehicle_type_id":"4","last_reported":1727219268,"current_range_meters":34800,"station_id":"ce4bh192rcd13ifvqdc0","pricing_plan_id":"cebpf4jnsgd1na2vs0mg"},{"bike_id":"c7e22312-b0fb-45ac-af8a-e326e3594649","system_id":"levelo_inurba_marseille","lat":43.31174,"lon":5.3872,"is_reserved":false,"is_disabled":false,"rental_uris":{"android":"levelo://app?vid=c7e22312-b0fb-45ac-af8a-e326e3594649","ios":"levelo://app?vid=c7e22312-b0fb-45ac-af8a-e326e3594649"},"vehicle_type_id":"4","last_reported":1727219268,"current_range_meters":37600,"station_id":"ce4bgv12rcd13ifvqcp0","pricing_plan_id":"cebpf4jnsgd1na2vs0mg"},{"bike_id":"ff66e0b8-4fad-4627-a08b-582231462ca4","system_id":"levelo_inurba_marseille","lat":43.28446,"lon":5.3919,"is_reserved":false,"is_disabled":false,"rental_uris":{"android":"levelo://app?vid=ff66e0b8-4fad-4627-a08b-582231462ca4","ios":"levelo://app?vid=ff66e0b8-4fad-4627-a08b-582231462ca4"},"vehicle_type_id":"4","last_reported":1727219268,"current_range_meters":38800,"station_id":"ce4bhoh2rcd13ifvqh5g","pricing_plan_id":"cebpf4jnsgd1na2vs0mg"},{"bike_id":"b0d3516a-5b28-4d8a-ad9c-d515349f42a7","system_id":"levelo_inurba_marseille","lat":43.30586,"lon":5.39356,"is_reserved":false,"is_disabled":false,"rental_uris":{"android":"levelo://app?vid=b0d3516a-5b28-4d8a-ad9c-d515349f42a7","ios":"levelo://app?vid=b0d3516a-5b28-4d8a-ad9c-d515349f42a7"},"vehicle_type_id":"4","last_reported":1727219268,"current_range_meters":27600,"station_id":"ce4bh0p2rcd13ifvqd80","pricing_plan_id":"cebpf4jnsgd1na2vs0mg"},{"bike_id":"5459e5dd-02cf-41c0-a77a-9053bdc92a78","system_id":"levelo_inurba_marseille","lat":43.30806,"lon":5.43527,"is_reserved":false,"is_disabled":false,"rental_uris":{"android":"levelo://app?vid=5459e5dd-02cf-41c0-a77a-9053bdc92a78","ios":"levelo://app?vid=5459e5dd-02cf-41c0-a77a-9053bdc92a78"},"vehicle_type_id":"4","last_reported":1727219268,"current_range_meters":8800,"station_id":"ce4bhph2rcd13ifvqheg","pricing_plan_id":"cebpf4jnsgd1na2vs0mg"},{"bike_id":"d398706b-2e79-471e-bd1b-b0550663fdb2","system_id":"levelo_inurba_marseille","lat":43.27948,"lon":5.41035,"is_reserved":false,"is_disabled":false,"rental_uris":{"android":"levelo://app?vid=d398706b-2e79-471e-bd1b-b0550663fdb2","ios":"levelo://app?vid=d398706b-2e79-471e-bd1b-b0550663fdb2"},"vehicle_type_id":"4","last_reported":1727219268,"current_range_meters":6800,"station_id":"ce4bhnp2rcd13ifvqh0g","pricing_plan_id":"cebpf4jnsgd1na2vs0mg"},{"bike_id":"68c4e6d4-6b39-4f75-af01-20d8ee3eeed3","system_id":"levelo_inurba_marseille","lat":43.31707,"lon":5.3775,"is_reserved":false,"is_disabled":false,"rental_uris":{"android":"levelo://app?vid=68c4e6d4-6b39-4f75-af01-20d8ee3eeed3","ios":"levelo://app?vid=68c4e6d4-6b39-4f75-af01-20d8ee3eeed3"},"vehicle_type_id":"4","last_reported":1727219268,"current_range_meters":27200,"station_id":"ce4bgth2rcd13ifvqch0","pricing_plan_id":"cebpf4jnsgd1na2vs0mg"},{"bike_id":"5c80470d-e3d1-4b6e-a47e-35efb25bf944","system_id":"levelo_inurba_marseille","lat":43.28851,"lon":5.35851,"is_reserved":false,"is_disabled":false,"rental_uris":{"android":"levelo://app?vid=5c80470d-e3d1-4b6e-a47e-35efb25bf944","ios":"levelo://app?vid=5c80470d-e3d1-4b6e-a47e-35efb25bf944"},"vehicle_type_id":"4","last_reported":1727219268,"current_range_meters":22000,"station_id":"ce4bhb12rcd13ifvqem0","pricing_plan_id":"cebpf4jnsgd1na2vs0mg"},{"bike_id":"9fd8e932-0bbe-45a7-a9ac-3aa157bc97f4","system_id":"levelo_inurba_marseille","lat":43.27377,"lon":5.36254,"is_reserved":false,"is_disabled":false,"rental_uris":{"android":"levelo://app?vid=9fd8e932-0bbe-45a7-a9ac-3aa157bc97f4","ios":"levelo://app?vid=9fd8e932-0bbe-45a7-a9ac-3aa157bc97f4"},"vehicle_type_id":"4","last_reported":1727219268,"current_range_meters":39200,"station_id":"ce4bhbh2rcd13ifvqeo0","pricing_plan_id":"cebpf4jnsgd1na2vs0mg"},{"bike_id":"38d67b5a-f091-4c30-ab4e-8997c0ff8cbd","system_id":"levelo_inurba_marseille","lat":43.25117,"lon":5.40326,"is_reserved":false,"is_disabled":false,"rental_uris":{"android":"levelo://app?vid=38d67b5a-f091-4c30-ab4e-8997c0ff8cbd","ios":"levelo://app?vid=38d67b5a-f091-4c30-ab4e-8997c0ff8cbd"},"vehicle_type_id":"4","last_reported":1727219268,"current_range_meters":37600,"station_id":"ce4bhlh2rcd13ifvqgig","pricing_plan_id":"cebpf4jnsgd1na2vs0mg"},{"bike_id":"10b9f85e-e4ee-4f70-979e-f255ac0bd659","system_id":"levelo_inurba_marseille","lat":43.22932,"lon":5.35377,"is_reserved":false,"is_disabled":false,"rental_uris":{"android":"levelo://app?vid=10b9f85e-e4ee-4f70-979e-f255ac0bd659","ios":"levelo://app?vid=10b9f85e-e4ee-4f70-979e-f255ac0bd659"},"vehicle_type_id":"4","last_reported":1727219268,"current_range_meters":6400,"station_id":"cpo3532slgdg3j2ikp40","pricing_plan_id":"cebpf4jnsgd1na2vs0mg"},{"bike_id":"d8c1fa68-9472-41ea-9d50-96b464a0185f","system_id":"levelo_inurba_marseille","lat":43.28461,"lon":5.35883,"is_reserved":false,"is_disabled":false,"rental_uris":{"android":"levelo://app?vid=d8c1fa68-9472-41ea-9d50-96b464a0185f","ios":"levelo://app?vid=d8c1fa68-9472-41ea-9d50-96b464a0185f"},"vehicle_type_id":"4","last_reported":1727219268,"current_range_meters":38800,"station_id":"ce4bhah2rcd13ifvqei0","pricing_plan_id":"cebpf4jnsgd1na2vs0mg"},{"bike_id":"ab8a848e-2769-4062-b46f-06029e49159e","system_id":"levelo_inurba_marseille","lat":43.31174,"lon":5.3871,"is_reserved":false,"is_disabled":false,"rental_uris":{"android":"levelo://app?vid=ab8a848e-2769-4062-b46f-06029e49159e","ios":"levelo://app?vid=ab8a848e-2769-4062-b46f-06029e49159e"},"vehicle_type_id":"4","last_reported":1727219268,"current_range_meters":19200,"station_id":"ce4bgv12rcd13ifvqcp0","pricing_plan_id":"cebpf4jnsgd1na2vs0mg"},{"bike_id":"e1300870-5c46-4dc5-9b3a-d4cedf98b2e8","system_id":"levelo_inurba_marseille","lat":43.30324,"lon":5.40434,"is_reserved":false,"is_disabled":false,"rental_uris":{"android":"levelo://app?vid=e1300870-5c46-4dc5-9b3a-d4cedf98b2e8","ios":"levelo://app?vid=e1300870-5c46-4dc5-9b3a-d4cedf98b2e8"},"vehicle_type_id":"4","last_reported":1727219268,"current_range_meters":38800,"station_id":"ce4bh012rcd13ifvqd10","pricing_plan_id":"cebpf4jnsgd1na2vs0mg"},{"bike_id":"bebbf85e-31cf-4f2c-a4e1-9b1a14757aa3","system_id":"levelo_inurba_marseille","lat":43.28608,"lon":5.37067,"is_reserved":false,"is_disabled":false,"rental_uris":{"android":"levelo://app?vid=bebbf85e-31cf-4f2c-a4e1-9b1a14757aa3","ios":"levelo://app?vid=bebbf85e-31cf-4f2c-a4e1-9b1a14757aa3"},"vehicle_type_id":"4","last_reported":1727219268,"current_range_meters":10000,"station_id":"ce4bht12rcd13ifvqi60","pricing_plan_id":"cebpf4jnsgd1na2vs0mg"},{"bike_id":"6fbbaf5f-a329-4179-8d25-5ba01bae1337","system_id":"levelo_inurba_marseille","lat":43.2871,"lon":5.39995,"is_reserved":false,"is_disabled":false,"rental_uris":{"android":"levelo://app?vid=6fbbaf5f-a329-4179-8d25-5ba01bae1337","ios":"levelo://app?vid=6fbbaf5f-a329-4179-8d25-5ba01bae1337"},"vehicle_type_id":"4","last_reported":1727219268,"current_range_meters":36400,"station_id":"ce4bho92rcd13ifvqh3g","pricing_plan_id":"cebpf4jnsgd1na2vs0mg"},{"bike_id":"d799f437-88e9-4467-9125-dfbe20bda148","system_id":"levelo_inurba_marseille","lat":43.31716,"lon":5.43715,"is_reserved":false,"is_disabled":false,"rental_uris":{"android":"levelo://app?vid=d799f437-88e9-4467-9125-dfbe20bda148","ios":"levelo://app?vid=d799f437-88e9-4467-9125-dfbe20bda148"},"vehicle_type_id":"4","last_reported":1727219268,"current_range_meters":38800,"station_id":"ce4bhp92rcd13ifvqhcg","pricing_plan_id":"cebpf4jnsgd1na2vs0mg"},{"bike_id":"745111b8-733a-495c-87eb-81ad482ad10b","system_id":"levelo_inurba_marseille","lat":43.23192,"lon":5.39985,"is_reserved":false,"is_disabled":false,"rental_uris":{"android":"levelo://app?vid=745111b8-733a-495c-87eb-81ad482ad10b","ios":"levelo://app?vid=745111b8-733a-495c-87eb-81ad482ad10b"},"vehicle_type_id":"4","last_reported":1727219268,"current_range_meters":24400,"station_id":"ce4bhn12rcd13ifvqgqg","pricing_plan_id":"cebpf4jnsgd1na2vs0mg"},{"bike_id":"54fc5423-bff7-47fc-980d-06099f6eec79","system_id":"levelo_inurba_marseille","lat":43.25581,"lon":5.38237,"is_reserved":false,"is_disabled":false,"rental_uris":{"android":"levelo://app?vid=54fc5423-bff7-47fc-980d-06099f6eec79","ios":"levelo://app?vid=54fc5423-bff7-47fc-980d-06099f6eec79"},"vehicle_type_id":"4","last_reported":1727219268,"current_range_meters":38800,"station_id":"ce4bhih2rcd13ifvqfs0","pricing_plan_id":"cebpf4jnsgd1na2vs0mg"},{"bike_id":"6c93be71-bdf4-4650-be25-78d944b00c6d","system_id":"levelo_inurba_marseille","lat":43.28972,"lon":5.37833,"is_reserved":false,"is_disabled":false,"rental_uris":{"android":"levelo://app?vid=6c93be71-bdf4-4650-be25-78d944b00c6d","ios":"levelo://app?vid=6c93be71-bdf4-4650-be25-78d944b00c6d"},"vehicle_type_id":"4","last_reported":1727219268,"current_range_meters":38000,"station_id":"ce4bh9p2rcd13ifvqed0","pricing_plan_id":"cebpf4jnsgd1na2vs0mg"},{"bike_id":"cab7fbd7-b5f3-4bb2-9970-cb086cff3ce1","system_id":"levelo_inurba_marseille","lat":43.30545,"lon":5.3843,"is_reserved":false,"is_disabled":false,"rental_uris":{"android":"levelo://app?vid=cab7fbd7-b5f3-4bb2-9970-cb086cff3ce1","ios":"levelo://app?vid=cab7fbd7-b5f3-4bb2-9970-cb086cff3ce1"},"vehicle_type_id":"4","last_reported":1727219268,"current_range_meters":35200,"station_id":"ce4bgg92rcd13ifvqb30","pricing_plan_id":"cebpf4jnsgd1na2vs0mg"},{"bike_id":"8159df13-3f42-4e03-8dbd-4f83f58b905b","system_id":"levelo_inurba_marseille","lat":43.27679,"lon":5.38867,"is_reserved":false,"is_disabled":false,"rental_uris":{"android":"levelo://app?vid=8159df13-3f42-4e03-8dbd-4f83f58b905b","ios":"levelo://app?vid=8159df13-3f42-4e03-8dbd-4f83f58b905b"},"vehicle_type_id":"4","last_reported":1727219268,"current_range_meters":10000,"station_id":"ce4bhi12rcd13ifvqfo0","pricing_plan_id":"cebpf4jnsgd1na2vs0mg"},{"bike_id":"ae471f21-1f8b-40a4-9395-e3124494b4b8","system_id":"levelo_inurba_marseille","lat":43.31492,"lon":5.37309,"is_reserved":false,"is_disabled":false,"rental_uris":{"android":"levelo://app?vid=ae471f21-1f8b-40a4-9395-e3124494b4b8","ios":"levelo://app?vid=ae471f21-1f8b-40a4-9395-e3124494b4b8"},"vehicle_type_id":"4","last_reported":1727219268,"current_range_meters":9600,"station_id":"ce4bgt12rcd13ifvqcd0","pricing_plan_id":"cebpf4jnsgd1na2vs0mg"},{"bike_id":"87e8ea58-60a4-498a-91f1-002d4357e32c","system_id":"levelo_inurba_marseille","lat":43.25112,"lon":5.40325,"is_reserved":false,"is_disabled":false,"rental_uris":{"android":"levelo://app?vid=87e8ea58-60a4-498a-91f1-002d4357e32c","ios":"levelo://app?vid=87e8ea58-60a4-498a-91f1-002d4357e32c"},"vehicle_type_id":"4","last_reported":1727219268,"current_range_meters":11200,"station_id":"ce4bhlh2rcd13ifvqgig","pricing_plan_id":"cebpf4jnsgd1na2vs0mg"},{"bike_id":"87ac93c2-1c79-4444-9479-f54f849eeac0","system_id":"levelo_inurba_marseille","lat":43.25501,"lon":5.37674,"is_reserved":false,"is_disabled":false,"rental_uris":{"android":"levelo://app?vid=87ac93c2-1c79-4444-9479-f54f849eeac0","ios":"levelo://app?vid=87ac93c2-1c79-4444-9479-f54f849eeac0"},"vehicle_type_id":"4","last_reported":1727219268,"current_range_meters":38000,"station_id":"ce4bhh12rcd13ifvqff0","pricing_plan_id":"cebpf4jnsgd1na2vs0mg"},{"bike_id":"ae8edde1-0f5a-4e53-8432-f150b66df33a","system_id":"levelo_inurba_marseille","lat":43.31333,"lon":5.397,"is_reserved":false,"is_disabled":false,"rental_uris":{"android":"levelo://app?vid=ae8edde1-0f5a-4e53-8432-f150b66df33a","ios":"levelo://app?vid=ae8edde1-0f5a-4e53-8432-f150b66df33a"},"vehicle_type_id":"4","last_reported":1727219268,"current_range_meters":34000,"station_id":"ce4bgvp2rcd13ifvqcu0","pricing_plan_id":"cebpf4jnsgd1na2vs0mg"},{"bike_id":"ebec7cd5-5fed-46ce-abdb-3cd659f607ac","system_id":"levelo_inurba_marseille","lat":43.29554,"lon":5.42286,"is_reserved":false,"is_disabled":false,"rental_uris":{"android":"levelo://app?vid=ebec7cd5-5fed-46ce-abdb-3cd659f607ac","ios":"levelo://app?vid=ebec7cd5-5fed-46ce-abdb-3cd659f607ac"},"vehicle_type_id":"4","last_reported":1727219268,"current_range_meters":36400,"station_id":"ce4bhph2rcd13ifvqhdg","pricing_plan_id":"cebpf4jnsgd1na2vs0mg"},{"bike_id":"2b57e7b4-5a5f-4542-b92b-48482eb7a1b0","system_id":"levelo_inurba_marseille","lat":43.28556,"lon":5.39504,"is_reserved":false,"is_disabled":false,"rental_uris":{"android":"levelo://app?vid=2b57e7b4-5a5f-4542-b92b-48482eb7a1b0","ios":"levelo://app?vid=2b57e7b4-5a5f-4542-b92b-48482eb7a1b0"},"vehicle_type_id":"4","last_reported":1727219268,"current_range_meters":38800,"station_id":"ce4bh292rcd13ifvqdg0","pricing_plan_id":"cebpf4jnsgd1na2vs0mg"},{"bike_id":"5d9efa65-f554-4d52-9ae7-0f05ed54a1d1","system_id":"levelo_inurba_marseille","lat":43.31117,"lon":5.37762,"is_reserved":false,"is_disabled":false,"rental_uris":{"android":"levelo://app?vid=5d9efa65-f554-4d52-9ae7-0f05ed54a1d1","ios":"levelo://app?vid=5d9efa65-f554-4d52-9ae7-0f05ed54a1d1"},"vehicle_type_id":"4","last_reported":1727219268,"current_range_meters":10000,"station_id":"ce4bgt92rcd13ifvqcg0","pricing_plan_id":"cebpf4jnsgd1na2vs0mg"},{"bike_id":"584dc729-0cb1-4902-8a6c-23dc123e7906","system_id":"levelo_inurba_marseille","lat":43.22924,"lon":5.35377,"is_reserved":false,"is_disabled":false,"rental_uris":{"android":"levelo://app?vid=584dc729-0cb1-4902-8a6c-23dc123e7906","ios":"levelo://app?vid=584dc729-0cb1-4902-8a6c-23dc123e7906"},"vehicle_type_id":"4","last_reported":1727219268,"current_range_meters":24000,"station_id":"cpo3532slgdg3j2ikp40","pricing_plan_id":"cebpf4jnsgd1na2vs0mg"},{"bike_id":"df5b38d2-64cb-4df0-856f-ea9bd22c082c","system_id":"levelo_inurba_marseille","lat":43.23189,"lon":5.3556,"is_reserved":false,"is_disabled":false,"rental_uris":{"android":"levelo://app?vid=df5b38d2-64cb-4df0-856f-ea9bd22c082c","ios":"levelo://app?vid=df5b38d2-64cb-4df0-856f-ea9bd22c082c"},"vehicle_type_id":"4","last_reported":1727219268,"current_range_meters":9600,"station_id":"ce4bhu92rcd13ifvqi70","pricing_plan_id":"cebpf4jnsgd1na2vs0mg"},{"bike_id":"707528d8-0988-4632-94dc-544d37620d76","system_id":"levelo_inurba_marseille","lat":43.33603,"lon":5.41018,"is_reserved":false,"is_disabled":false,"rental_uris":{"android":"levelo://app?vid=707528d8-0988-4632-94dc-544d37620d76","ios":"levelo://app?vid=707528d8-0988-4632-94dc-544d37620d76"},"vehicle_type_id":"4","last_reported":1727219268,"current_range_meters":38800,"station_id":"ce4bhqh2rcd13ifvqhmg","pricing_plan_id":"cebpf4jnsgd1na2vs0mg"},{"bike_id":"14e2b627-7a17-4838-889b-5ca31abddf14","system_id":"levelo_inurba_marseille","lat":43.2996,"lon":5.41322,"is_reserved":false,"is_disabled":false,"rental_uris":{"android":"levelo://app?vid=14e2b627-7a17-4838-889b-5ca31abddf14","ios":"levelo://app?vid=14e2b627-7a17-4838-889b-5ca31abddf14"},"vehicle_type_id":"4","last_reported":1727219268,"current_range_meters":37600,"station_id":"ce4bhp12rcd13ifvqh9g","pricing_plan_id":"cebpf4jnsgd1na2vs0mg"},{"bike_id":"9893313c-a47c-4865-b7e0-c8509eabf1db","system_id":"levelo_inurba_marseille","lat":43.28275,"lon":5.35075,"is_reserved":false,"is_disabled":false,"rental_uris":{"android":"levelo://app?vid=9893313c-a47c-4865-b7e0-c8509eabf1db","ios":"levelo://app?vid=9893313c-a47c-4865-b7e0-c8509eabf1db"},"vehicle_type_id":"4","last_reported":1727219268,"current_range_meters":35600,"station_id":"ce4bhbp2rcd13ifvqerg","pricing_plan_id":"cebpf4jnsgd1na2vs0mg"},{"bike_id":"45ac985b-af84-4b61-8664-b0988d2a3dfc","system_id":"levelo_inurba_marseille","lat":43.30139,"lon":5.39874,"is_reserved":false,"is_disabled":false,"rental_uris":{"android":"levelo://app?vid=45ac985b-af84-4b61-8664-b0988d2a3dfc","ios":"levelo://app?vid=45ac985b-af84-4b61-8664-b0988d2a3dfc"},"vehicle_type_id":"4","last_reported":1727219268,"current_range_meters":38800,"station_id":"ce4bh0h2rcd13ifvqd40","pricing_plan_id":"cebpf4jnsgd1na2vs0mg"},{"bike_id":"93e6b704-6d99-4e3d-b405-9bfb159779ab","system_id":"levelo_inurba_marseille","lat":43.31085,"lon":5.42431,"is_reserved":false,"is_disabled":false,"rental_uris":{"android":"levelo://app?vid=93e6b704-6d99-4e3d-b405-9bfb159779ab","ios":"levelo://app?vid=93e6b704-6d99-4e3d-b405-9bfb159779ab"},"vehicle_type_id":"4","last_reported":1727219268,"current_range_meters":18800,"station_id":"ce4bhp92rcd13ifvqhag","pricing_plan_id":"cebpf4jnsgd1na2vs0mg"},{"bike_id":"66ec5e9d-3583-400a-9522-011e535be416","system_id":"levelo_inurba_marseille","lat":43.28281,"lon":5.35061,"is_reserved":false,"is_disabled":false,"rental_uris":{"android":"levelo://app?vid=66ec5e9d-3583-400a-9522-011e535be416","ios":"levelo://app?vid=66ec5e9d-3583-400a-9522-011e535be416"},"vehicle_type_id":"4","last_reported":1727219268,"current_range_meters":38400,"station_id":"ce4bhbp2rcd13ifvqerg","pricing_plan_id":"cebpf4jnsgd1na2vs0mg"},{"bike_id":"1b319552-587c-48fc-b73e-a2c1a6fabd4f","system_id":"levelo_inurba_marseille","lat":43.23966,"lon":5.36635,"is_reserved":false,"is_disabled":false,"rental_uris":{"android":"levelo://app?vid=1b319552-587c-48fc-b73e-a2c1a6fabd4f","ios":"levelo://app?vid=1b319552-587c-48fc-b73e-a2c1a6fabd4f"},"vehicle_type_id":"4","last_reported":1727219268,"current_range_meters":38800,"station_id":"ce4bhi12rcd13ifvqfp0","pricing_plan_id":"cebpf4jnsgd1na2vs0mg"},{"bike_id":"17b1cd1a-7803-4ca9-91f3-73c4fa44f09e","system_id":"levelo_inurba_marseille","lat":43.29553,"lon":5.42285,"is_reserved":false,"is_disabled":false,"rental_uris":{"android":"levelo://app?vid=17b1cd1a-7803-4ca9-91f3-73c4fa44f09e","ios":"levelo://app?vid=17b1cd1a-7803-4ca9-91f3-73c4fa44f09e"},"vehicle_type_id":"4","last_reported":1727219268,"current_range_meters":6400,"station_id":"ce4bhph2rcd13ifvqhdg","pricing_plan_id":"cebpf4jnsgd1na2vs0mg"},{"bike_id":"370ad2c9-c0c1-4242-b6d2-8b6c35717678","system_id":"levelo_inurba_marseille","lat":43.279367,"lon":5.41041,"is_reserved":false,"is_disabled":false,"rental_uris":{"android":"levelo://app?vid=370ad2c9-c0c1-4242-b6d2-8b6c35717678","ios":"levelo://app?vid=370ad2c9-c0c1-4242-b6d2-8b6c35717678"},"vehicle_type_id":"4","last_reported":1727219268,"current_range_meters":38800,"station_id":"ce4bhnp2rcd13ifvqh0g","pricing_plan_id":"cebpf4jnsgd1na2vs0mg"},{"bike_id":"27431c98-bcee-4fbc-9005-ef4fd6a106b8","system_id":"levelo_inurba_marseille","lat":43.23183,"lon":5.39976,"is_reserved":false,"is_disabled":false,"rental_uris":{"android":"levelo://app?vid=27431c98-bcee-4fbc-9005-ef4fd6a106b8","ios":"levelo://app?vid=27431c98-bcee-4fbc-9005-ef4fd6a106b8"},"vehicle_type_id":"4","last_reported":1727219268,"current_range_meters":14400,"station_id":"ce4bhn12rcd13ifvqgqg","pricing_plan_id":"cebpf4jnsgd1na2vs0mg"},{"bike_id":"b859d033-1095-4e5e-a6d2-faa05166d5e6","system_id":"levelo_inurba_marseille","lat":43.29445,"lon":5.39748,"is_reserved":false,"is_disabled":false,"rental_uris":{"android":"levelo://app?vid=b859d033-1095-4e5e-a6d2-faa05166d5e6","ios":"levelo://app?vid=b859d033-1095-4e5e-a6d2-faa05166d5e6"},"vehicle_type_id":"4","last_reported":1727219268,"current_range_meters":38400,"station_id":"ce4bh3h2rcd13ifvqdo0","pricing_plan_id":"cebpf4jnsgd1na2vs0mg"},{"bike_id":"7d6a71b9-eac8-474e-8d95-8d3a3dba95ff","system_id":"levelo_inurba_marseille","lat":43.26811,"lon":5.40271,"is_reserved":false,"is_disabled":false,"rental_uris":{"android":"levelo://app?vid=7d6a71b9-eac8-474e-8d95-8d3a3dba95ff","ios":"levelo://app?vid=7d6a71b9-eac8-474e-8d95-8d3a3dba95ff"},"vehicle_type_id":"4","last_reported":1727219268,"current_range_meters":37600,"station_id":"ce501612rcd8frsf0b60","pricing_plan_id":"cebpf4jnsgd1na2vs0mg"},{"bike_id":"9241c19d-9170-44ca-86ba-9ba6d3c2005f","system_id":"levelo_inurba_marseille","lat":43.30889,"lon":5.396541,"is_reserved":false,"is_disabled":false,"rental_uris":{"android":"levelo://app?vid=9241c19d-9170-44ca-86ba-9ba6d3c2005f","ios":"levelo://app?vid=9241c19d-9170-44ca-86ba-9ba6d3c2005f"},"vehicle_type_id":"4","last_reported":1727219268,"current_range_meters":38800,"station_id":"ce4bh012rcd13ifvqcv0","pricing_plan_id":"cebpf4jnsgd1na2vs0mg"},{"bike_id":"211e0346-61e5-4760-a281-2cb54eb23737","system_id":"levelo_inurba_marseille","lat":43.307826,"lon":5.376493,"is_reserved":false,"is_disabled":false,"rental_uris":{"android":"levelo://app?vid=211e0346-61e5-4760-a281-2cb54eb23737","ios":"levelo://app?vid=211e0346-61e5-4760-a281-2cb54eb23737"},"vehicle_type_id":"4","last_reported":1727219268,"current_range_meters":39200,"station_id":"ce4bgv92rcd13ifvqcq0","pricing_plan_id":"cebpf4jnsgd1na2vs0mg"},{"bike_id":"dcd126e0-9c30-46b7-a44f-678c75f333be","system_id":"levelo_inurba_marseille","lat":43.24081,"lon":5.377525,"is_reserved":false,"is_disabled":false,"rental_uris":{"android":"levelo://app?vid=dcd126e0-9c30-46b7-a44f-678c75f333be","ios":"levelo://app?vid=dcd126e0-9c30-46b7-a44f-678c75f333be"},"vehicle_type_id":"4","last_reported":1727219268,"current_range_meters":38800,"station_id":"ce4bhnp2rcd13ifvqgvg","pricing_plan_id":"cebpf4jnsgd1na2vs0mg"},{"bike_id":"737d46fd-6c6b-47d4-9346-db7d2591a217","system_id":"levelo_inurba_marseille","lat":43.2862,"lon":5.351,"is_reserved":false,"is_disabled":false,"rental_uris":{"android":"levelo://app?vid=737d46fd-6c6b-47d4-9346-db7d2591a217","ios":"levelo://app?vid=737d46fd-6c6b-47d4-9346-db7d2591a217"},"vehicle_type_id":"4","last_reported":1727219268,"current_range_meters":19600,"station_id":"ce4bhch2rcd13ifvqeug","pricing_plan_id":"cebpf4jnsgd1na2vs0mg"},{"bike_id":"ad9e6ef0-4a19-4a93-88ed-c66cad530a0a","system_id":"levelo_inurba_marseille","lat":43.32538,"lon":5.41423,"is_reserved":false,"is_disabled":false,"rental_uris":{"android":"levelo://app?vid=ad9e6ef0-4a19-4a93-88ed-c66cad530a0a","ios":"levelo://app?vid=ad9e6ef0-4a19-4a93-88ed-c66cad530a0a"},"vehicle_type_id":"4","last_reported":1727219268,"current_range_meters":6800,"station_id":"ce4bhq12rcd13ifvqhhg","pricing_plan_id":"cebpf4jnsgd1na2vs0mg"},{"bike_id":"c39b9ebf-3474-4128-98e6-09b47ddcbf97","system_id":"levelo_inurba_marseille","lat":43.2707,"lon":5.42281,"is_reserved":false,"is_disabled":false,"rental_uris":{"android":"levelo://app?vid=c39b9ebf-3474-4128-98e6-09b47ddcbf97","ios":"levelo://app?vid=c39b9ebf-3474-4128-98e6-09b47ddcbf97"},"vehicle_type_id":"4","last_reported":1727219268,"current_range_meters":32000,"station_id":"ce4bhk92rcd13ifvqgb0","pricing_plan_id":"cebpf4jnsgd1na2vs0mg"},{"bike_id":"81fe2cdc-578f-4aef-b667-c4b7e0aa10ee","system_id":"levelo_inurba_marseille","lat":43.306515,"lon":5.400927,"is_reserved":false,"is_disabled":false,"rental_uris":{"android":"levelo://app?vid=81fe2cdc-578f-4aef-b667-c4b7e0aa10ee","ios":"levelo://app?vid=81fe2cdc-578f-4aef-b667-c4b7e0aa10ee"},"vehicle_type_id":"4","last_reported":1727219268,"current_range_meters":35200,"station_id":"ce4bh112rcd13ifvqda0","pricing_plan_id":"cebpf4jnsgd1na2vs0mg"},{"bike_id":"acb0310f-a16e-4219-bdde-4543d08c4bfa","system_id":"levelo_inurba_marseille","lat":43.28851,"lon":5.35843,"is_reserved":false,"is_disabled":false,"rental_uris":{"android":"levelo://app?vid=acb0310f-a16e-4219-bdde-4543d08c4bfa","ios":"levelo://app?vid=acb0310f-a16e-4219-bdde-4543d08c4bfa"},"vehicle_type_id":"4","last_reported":1727219268,"current_range_meters":38000,"station_id":"ce4bhb12rcd13ifvqem0","pricing_plan_id":"cebpf4jnsgd1na2vs0mg"},{"bike_id":"952e53cc-ceff-42e1-bb8d-4a4ba285cfa9","system_id":"levelo_inurba_marseille","lat":43.27962,"lon":5.38726,"is_reserved":false,"is_disabled":false,"rental_uris":{"android":"levelo://app?vid=952e53cc-ceff-42e1-bb8d-4a4ba285cfa9","ios":"levelo://app?vid=952e53cc-ceff-42e1-bb8d-4a4ba285cfa9"},"vehicle_type_id":"4","last_reported":1727219268,"current_range_meters":18800,"station_id":"ce4bhg12rcd13ifvqf80","pricing_plan_id":"cebpf4jnsgd1na2vs0mg"},{"bike_id":"59c518d2-643b-4fc3-bb96-7756448a203e","system_id":"levelo_inurba_marseille","lat":43.304311,"lon":5.397524,"is_reserved":false,"is_disabled":false,"rental_uris":{"android":"levelo://app?vid=59c518d2-643b-4fc3-bb96-7756448a203e","ios":"levelo://app?vid=59c518d2-643b-4fc3-bb96-7756448a203e"},"vehicle_type_id":"4","last_reported":1727219268,"current_range_meters":38800,"station_id":"ce4bh092rcd13ifvqd20","pricing_plan_id":"cebpf4jnsgd1na2vs0mg"},{"bike_id":"b1f73128-5271-43d8-af34-94e10e3b804a","system_id":"levelo_inurba_marseille","lat":43.33129,"lon":5.39134,"is_reserved":false,"is_disabled":false,"rental_uris":{"android":"levelo://app?vid=b1f73128-5271-43d8-af34-94e10e3b804a","ios":"levelo://app?vid=b1f73128-5271-43d8-af34-94e10e3b804a"},"vehicle_type_id":"4","last_reported":1727219268,"current_range_meters":38000,"station_id":"","pricing_plan_id":"cebpf4jnsgd1na2vs0mg"},{"bike_id":"aa9005c8-05a0-4659-b06f-1e6354800693","system_id":"levelo_inurba_marseille","lat":43.31327,"lon":5.39697,"is_reserved":false,"is_disabled":false,"rental_uris":{"android":"levelo://app?vid=aa9005c8-05a0-4659-b06f-1e6354800693","ios":"levelo://app?vid=aa9005c8-05a0-4659-b06f-1e6354800693"},"vehicle_type_id":"4","last_reported":1727219268,"current_range_meters":38800,"station_id":"ce4bgvp2rcd13ifvqcu0","pricing_plan_id":"cebpf4jnsgd1na2vs0mg"},{"bike_id":"a1d82605-350d-4120-889c-7761b40719ec","system_id":"levelo_inurba_marseille","lat":43.32113,"lon":5.36778,"is_reserved":false,"is_disabled":false,"rental_uris":{"android":"levelo://app?vid=a1d82605-350d-4120-889c-7761b40719ec","ios":"levelo://app?vid=a1d82605-350d-4120-889c-7761b40719ec"},"vehicle_type_id":"4","last_reported":1727219268,"current_range_meters":23200,"station_id":"ce4bhrh2rcd13ifvqhug","pricing_plan_id":"cebpf4jnsgd1na2vs0mg"},{"bike_id":"270390c1-7478-42f7-9734-5e500db1da59","system_id":"levelo_inurba_marseille","lat":43.2718,"lon":5.40989,"is_reserved":false,"is_disabled":false,"rental_uris":{"android":"levelo://app?vid=270390c1-7478-42f7-9734-5e500db1da59","ios":"levelo://app?vid=270390c1-7478-42f7-9734-5e500db1da59"},"vehicle_type_id":"4","last_reported":1727219268,"current_range_meters":9600,"station_id":"ce4bhl12rcd13ifvqgf0","pricing_plan_id":"cebpf4jnsgd1na2vs0mg"},{"bike_id":"27a94d9a-7b34-4348-a7bf-e817803c2fed","system_id":"levelo_inurba_marseille","lat":43.31172,"lon":5.38706,"is_reserved":false,"is_disabled":false,"rental_uris":{"android":"levelo://app?vid=27a94d9a-7b34-4348-a7bf-e817803c2fed","ios":"levelo://app?vid=27a94d9a-7b34-4348-a7bf-e817803c2fed"},"vehicle_type_id":"4","last_reported":1727219268,"current_range_meters":38800,"station_id":"ce4bgv12rcd13ifvqcp0","pricing_plan_id":"cebpf4jnsgd1na2vs0mg"},{"bike_id":"7867c780-59e7-457b-80aa-b1c55d2cc50f","system_id":"levelo_inurba_marseille","lat":43.25075,"lon":5.39497,"is_reserved":false,"is_disabled":false,"rental_uris":{"android":"levelo://app?vid=7867c780-59e7-457b-80aa-b1c55d2cc50f","ios":"levelo://app?vid=7867c780-59e7-457b-80aa-b1c55d2cc50f"},"vehicle_type_id":"4","last_reported":1727219268,"current_range_meters":8000,"station_id":"ce4bhm12rcd13ifvqgkg","pricing_plan_id":"cebpf4jnsgd1na2vs0mg"},{"bike_id":"c0c4ac2c-dbd6-405c-ae94-75c9c39bd7ab","system_id":"levelo_inurba_marseille","lat":43.25083,"lon":5.39511,"is_reserved":false,"is_disabled":false,"rental_uris":{"android":"levelo://app?vid=c0c4ac2c-dbd6-405c-ae94-75c9c39bd7ab","ios":"levelo://app?vid=c0c4ac2c-dbd6-405c-ae94-75c9c39bd7ab"},"vehicle_type_id":"4","last_reported":1727219268,"current_range_meters":39200,"station_id":"ce4bhm12rcd13ifvqgkg","pricing_plan_id":"cebpf4jnsgd1na2vs0mg"},{"bike_id":"940ae4b5-cb20-4497-ac63-a3388e023517","system_id":"levelo_inurba_marseille","lat":43.30218,"lon":5.39472,"is_reserved":false,"is_disabled":false,"rental_uris":{"android":"levelo://app?vid=940ae4b5-cb20-4497-ac63-a3388e023517","ios":"levelo://app?vid=940ae4b5-cb20-4497-ac63-a3388e023517"},"vehicle_type_id":"4","last_reported":1727219268,"current_range_meters":38800,"station_id":"ce4bh0p2rcd13ifvqd70","pricing_plan_id":"cebpf4jnsgd1na2vs0mg"},{"bike_id":"1166f6b1-5b87-4bc1-b21d-c61655b2fee0","system_id":"levelo_inurba_marseille","lat":43.29454,"lon":5.38041,"is_reserved":false,"is_disabled":false,"rental_uris":{"android":"levelo://app?vid=1166f6b1-5b87-4bc1-b21d-c61655b2fee0","ios":"levelo://app?vid=1166f6b1-5b87-4bc1-b21d-c61655b2fee0"},"vehicle_type_id":"4","last_reported":1727219268,"current_range_meters":36800,"station_id":"","pricing_plan_id":"cebpf4jnsgd1na2vs0mg"},{"bike_id":"bfcca279-f857-447d-8c3f-896878a9c405","system_id":"levelo_inurba_marseille","lat":43.287354,"lon":5.380823,"is_reserved":false,"is_disabled":false,"rental_uris":{"android":"levelo://app?vid=bfcca279-f857-447d-8c3f-896878a9c405","ios":"levelo://app?vid=bfcca279-f857-447d-8c3f-896878a9c405"},"vehicle_type_id":"4","last_reported":1727219268,"current_range_meters":9200,"station_id":"","pricing_plan_id":"cebpf4jnsgd1na2vs0mg"},{"bike_id":"f33e56b7-df6f-4338-b029-6da3c28fa2ce","system_id":"levelo_inurba_marseille","lat":43.25576,"lon":5.38234,"is_reserved":false,"is_disabled":false,"rental_uris":{"android":"levelo://app?vid=f33e56b7-df6f-4338-b029-6da3c28fa2ce","ios":"levelo://app?vid=f33e56b7-df6f-4338-b029-6da3c28fa2ce"},"vehicle_type_id":"4","last_reported":1727219268,"current_range_meters":38800,"station_id":"ce4bhih2rcd13ifvqfs0","pricing_plan_id":"cebpf4jnsgd1na2vs0mg"},{"bike_id":"6cf02193-3ded-4cde-a5e9-273e1e7f9133","system_id":"levelo_inurba_marseille","lat":43.30803,"lon":5.43527,"is_reserved":false,"is_disabled":false,"rental_uris":{"android":"levelo://app?vid=6cf02193-3ded-4cde-a5e9-273e1e7f9133","ios":"levelo://app?vid=6cf02193-3ded-4cde-a5e9-273e1e7f9133"},"vehicle_type_id":"4","last_reported":1727219268,"current_range_meters":39200,"station_id":"ce4bhph2rcd13ifvqheg","pricing_plan_id":"cebpf4jnsgd1na2vs0mg"},{"bike_id":"eba5dbf3-3980-40b6-96a4-b67aaff433ca","system_id":"levelo_inurba_marseille","lat":43.30882,"lon":5.39639,"is_reserved":false,"is_disabled":false,"rental_uris":{"android":"levelo://app?vid=eba5dbf3-3980-40b6-96a4-b67aaff433ca","ios":"levelo://app?vid=eba5dbf3-3980-40b6-96a4-b67aaff433ca"},"vehicle_type_id":"4","last_reported":1727219268,"current_range_meters":36400,"station_id":"ce4bh012rcd13ifvqcv0","pricing_plan_id":"cebpf4jnsgd1na2vs0mg"},{"bike_id":"c517eafc-0d84-46c5-8fed-1b42b71b7911","system_id":"levelo_inurba_marseille","lat":43.31755,"lon":5.39011,"is_reserved":false,"is_disabled":false,"rental_uris":{"android":"levelo://app?vid=c517eafc-0d84-46c5-8fed-1b42b71b7911","ios":"levelo://app?vid=c517eafc-0d84-46c5-8fed-1b42b71b7911"},"vehicle_type_id":"4","last_reported":1727219268,"current_range_meters":36800,"station_id":"ce4bhqp2rcd13ifvqhng","pricing_plan_id":"cebpf4jnsgd1na2vs0mg"},{"bike_id":"daee9fa7-3bc5-44d7-9ace-70830363f730","system_id":"levelo_inurba_marseille","lat":43.27912,"lon":5.4124,"is_reserved":false,"is_disabled":false,"rental_uris":{"android":"levelo://app?vid=daee9fa7-3bc5-44d7-9ace-70830363f730","ios":"levelo://app?vid=daee9fa7-3bc5-44d7-9ace-70830363f730"},"vehicle_type_id":"4","last_reported":1727219268,"current_range_meters":8000,"station_id":"","pricing_plan_id":"cebpf4jnsgd1na2vs0mg"},{"bike_id":"3d7eb12c-ee39-48a6-960b-1120cad1538d","system_id":"levelo_inurba_marseille","lat":43.28461,"lon":5.35883,"is_reserved":false,"is_disabled":false,"rental_uris":{"android":"levelo://app?vid=3d7eb12c-ee39-48a6-960b-1120cad1538d","ios":"levelo://app?vid=3d7eb12c-ee39-48a6-960b-1120cad1538d"},"vehicle_type_id":"4","last_reported":1727219268,"current_range_meters":16000,"station_id":"ce4bhah2rcd13ifvqei0","pricing_plan_id":"cebpf4jnsgd1na2vs0mg"},{"bike_id":"fbc97a14-51ab-46bb-8bce-846250bcdb52","system_id":"levelo_inurba_marseille","lat":43.30212,"lon":5.394689,"is_reserved":false,"is_disabled":false,"rental_uris":{"android":"levelo://app?vid=fbc97a14-51ab-46bb-8bce-846250bcdb52","ios":"levelo://app?vid=fbc97a14-51ab-46bb-8bce-846250bcdb52"},"vehicle_type_id":"4","last_reported":1727219268,"current_range_meters":38800,"station_id":"ce4bh0p2rcd13ifvqd70","pricing_plan_id":"cebpf4jnsgd1na2vs0mg"},{"bike_id":"5d22d37c-c8d4-4feb-8685-bf150cafbdc6","system_id":"levelo_inurba_marseille","lat":43.24069,"lon":5.37757,"is_reserved":false,"is_disabled":false,"rental_uris":{"android":"levelo://app?vid=5d22d37c-c8d4-4feb-8685-bf150cafbdc6","ios":"levelo://app?vid=5d22d37c-c8d4-4feb-8685-bf150cafbdc6"},"vehicle_type_id":"4","last_reported":1727219268,"current_range_meters":20800,"station_id":"ce4bhnp2rcd13ifvqgvg","pricing_plan_id":"cebpf4jnsgd1na2vs0mg"},{"bike_id":"81000a3a-c11c-4d08-8723-5803ef31d63a","system_id":"levelo_inurba_marseille","lat":43.31995,"lon":5.38147,"is_reserved":false,"is_disabled":false,"rental_uris":{"android":"levelo://app?vid=81000a3a-c11c-4d08-8723-5803ef31d63a","ios":"levelo://app?vid=81000a3a-c11c-4d08-8723-5803ef31d63a"},"vehicle_type_id":"4","last_reported":1727219268,"current_range_meters":27200,"station_id":"ce4bhr12rcd13ifvqhpg","pricing_plan_id":"cebpf4jnsgd1na2vs0mg"},{"bike_id":"17701005-77c3-4e4f-a0b4-b2ece630517d","system_id":"levelo_inurba_marseille","lat":43.23955,"lon":5.36631,"is_reserved":false,"is_disabled":false,"rental_uris":{"android":"levelo://app?vid=17701005-77c3-4e4f-a0b4-b2ece630517d","ios":"levelo://app?vid=17701005-77c3-4e4f-a0b4-b2ece630517d"},"vehicle_type_id":"4","last_reported":1727219268,"current_range_meters":38000,"station_id":"ce4bhi12rcd13ifvqfp0","pricing_plan_id":"cebpf4jnsgd1na2vs0mg"},{"bike_id":"52b1b92f-17d8-4b31-90d2-8b0c06dc4ab0","system_id":"levelo_inurba_marseille","lat":43.31998,"lon":5.38151,"is_reserved":false,"is_disabled":false,"rental_uris":{"android":"levelo://app?vid=52b1b92f-17d8-4b31-90d2-8b0c06dc4ab0","ios":"levelo://app?vid=52b1b92f-17d8-4b31-90d2-8b0c06dc4ab0"},"vehicle_type_id":"4","last_reported":1727219268,"current_range_meters":21600,"station_id":"ce4bhr12rcd13ifvqhpg","pricing_plan_id":"cebpf4jnsgd1na2vs0mg"},{"bike_id":"593d6497-7390-464f-8fab-901d12215064","system_id":"levelo_inurba_marseille","lat":43.29008,"lon":5.3561,"is_reserved":false,"is_disabled":false,"rental_uris":{"android":"levelo://app?vid=593d6497-7390-464f-8fab-901d12215064","ios":"levelo://app?vid=593d6497-7390-464f-8fab-901d12215064"},"vehicle_type_id":"4","last_reported":1727219268,"current_range_meters":37600,"station_id":"ce4bhb92rcd13ifvqen0","pricing_plan_id":"cebpf4jnsgd1na2vs0mg"},{"bike_id":"c8e2e608-f468-4c9b-9708-10e6f0f0d98d","system_id":"levelo_inurba_marseille","lat":43.23189,"lon":5.3999,"is_reserved":false,"is_disabled":false,"rental_uris":{"android":"levelo://app?vid=c8e2e608-f468-4c9b-9708-10e6f0f0d98d","ios":"levelo://app?vid=c8e2e608-f468-4c9b-9708-10e6f0f0d98d"},"vehicle_type_id":"4","last_reported":1727219268,"current_range_meters":8000,"station_id":"ce4bhn12rcd13ifvqgqg","pricing_plan_id":"cebpf4jnsgd1na2vs0mg"},{"bike_id":"422c3bef-d0de-4a09-bd86-bffdb44eedb9","system_id":"levelo_inurba_marseille","lat":43.30436,"lon":5.3889,"is_reserved":false,"is_disabled":false,"rental_uris":{"android":"levelo://app?vid=422c3bef-d0de-4a09-bd86-bffdb44eedb9","ios":"levelo://app?vid=422c3bef-d0de-4a09-bd86-bffdb44eedb9"},"vehicle_type_id":"4","last_reported":1727219268,"current_range_meters":38800,"station_id":"ce4bgk12rcd13ifvqbi0","pricing_plan_id":"cebpf4jnsgd1na2vs0mg"},{"bike_id":"e4782e7a-e28a-48af-a586-42b249546ec0","system_id":"levelo_inurba_marseille","lat":43.31122,"lon":5.37752,"is_reserved":false,"is_disabled":false,"rental_uris":{"android":"levelo://app?vid=e4782e7a-e28a-48af-a586-42b249546ec0","ios":"levelo://app?vid=e4782e7a-e28a-48af-a586-42b249546ec0"},"vehicle_type_id":"4","last_reported":1727219268,"current_range_meters":38800,"station_id":"ce4bgt92rcd13ifvqcg0","pricing_plan_id":"cebpf4jnsgd1na2vs0mg"},{"bike_id":"3021f564-8aad-417d-a71a-3d7068289aa9","system_id":"levelo_inurba_marseille","lat":43.30884,"lon":5.39652,"is_reserved":false,"is_disabled":false,"rental_uris":{"android":"levelo://app?vid=3021f564-8aad-417d-a71a-3d7068289aa9","ios":"levelo://app?vid=3021f564-8aad-417d-a71a-3d7068289aa9"},"vehicle_type_id":"4","last_reported":1727219268,"current_range_meters":33600,"station_id":"ce4bh012rcd13ifvqcv0","pricing_plan_id":"cebpf4jnsgd1na2vs0mg"},{"bike_id":"331d72fd-b5e5-4ade-9a70-a7c817a74063","system_id":"levelo_inurba_marseille","lat":43.27915,"lon":5.38001,"is_reserved":false,"is_disabled":false,"rental_uris":{"android":"levelo://app?vid=331d72fd-b5e5-4ade-9a70-a7c817a74063","ios":"levelo://app?vid=331d72fd-b5e5-4ade-9a70-a7c817a74063"},"vehicle_type_id":"4","last_reported":1727219268,"current_range_meters":21600,"station_id":"ce4bhf92rcd13ifvqf50","pricing_plan_id":"cebpf4jnsgd1na2vs0mg"},{"bike_id":"a053247c-8afe-4e72-8290-e121a98a47f3","system_id":"levelo_inurba_marseille","lat":43.31486,"lon":5.37312,"is_reserved":false,"is_disabled":false,"rental_uris":{"android":"levelo://app?vid=a053247c-8afe-4e72-8290-e121a98a47f3","ios":"levelo://app?vid=a053247c-8afe-4e72-8290-e121a98a47f3"},"vehicle_type_id":"4","last_reported":1727219268,"current_range_meters":12000,"station_id":"ce4bgt12rcd13ifvqcd0","pricing_plan_id":"cebpf4jnsgd1na2vs0mg"},{"bike_id":"7e9e8414-11aa-4516-a0ba-b99da07411a2","system_id":"levelo_inurba_marseille","lat":43.24083,"lon":5.37755,"is_reserved":false,"is_disabled":false,"rental_uris":{"android":"levelo://app?vid=7e9e8414-11aa-4516-a0ba-b99da07411a2","ios":"levelo://app?vid=7e9e8414-11aa-4516-a0ba-b99da07411a2"},"vehicle_type_id":"4","last_reported":1727219268,"current_range_meters":19200,"station_id":"ce4bhnp2rcd13ifvqgvg","pricing_plan_id":"cebpf4jnsgd1na2vs0mg"},{"bike_id":"294b3ac3-786e-4d4d-b500-a1e0202e9549","system_id":"levelo_inurba_marseille","lat":43.31498,"lon":5.37307,"is_reserved":false,"is_disabled":false,"rental_uris":{"android":"levelo://app?vid=294b3ac3-786e-4d4d-b500-a1e0202e9549","ios":"levelo://app?vid=294b3ac3-786e-4d4d-b500-a1e0202e9549"},"vehicle_type_id":"4","last_reported":1727219268,"current_range_meters":12800,"station_id":"ce4bgt12rcd13ifvqcd0","pricing_plan_id":"cebpf4jnsgd1na2vs0mg"},{"bike_id":"08aeb96c-2414-43fb-a731-004123e5f581","system_id":"levelo_inurba_marseille","lat":43.31333,"lon":5.39694,"is_reserved":false,"is_disabled":false,"rental_uris":{"android":"levelo://app?vid=08aeb96c-2414-43fb-a731-004123e5f581","ios":"levelo://app?vid=08aeb96c-2414-43fb-a731-004123e5f581"},"vehicle_type_id":"4","last_reported":1727219268,"current_range_meters":23200,"station_id":"ce4bgvp2rcd13ifvqcu0","pricing_plan_id":"cebpf4jnsgd1na2vs0mg"},{"bike_id":"d5aa1add-115d-4e1a-b824-66ecde93a367","system_id":"levelo_inurba_marseille","lat":43.24076,"lon":5.37747,"is_reserved":false,"is_disabled":false,"rental_uris":{"android":"levelo://app?vid=d5aa1add-115d-4e1a-b824-66ecde93a367","ios":"levelo://app?vid=d5aa1add-115d-4e1a-b824-66ecde93a367"},"vehicle_type_id":"4","last_reported":1727219268,"current_range_meters":10000,"station_id":"ce4bhnp2rcd13ifvqgvg","pricing_plan_id":"cebpf4jnsgd1na2vs0mg"},{"bike_id":"0c5bc108-18bc-4032-8fe0-145c940828d0","system_id":"levelo_inurba_marseille","lat":43.25864,"lon":5.39907,"is_reserved":false,"is_disabled":false,"rental_uris":{"android":"levelo://app?vid=0c5bc108-18bc-4032-8fe0-145c940828d0","ios":"levelo://app?vid=0c5bc108-18bc-4032-8fe0-145c940828d0"},"vehicle_type_id":"4","last_reported":1727219268,"current_range_meters":38800,"station_id":"ce4bhl92rcd13ifvqghg","pricing_plan_id":"cebpf4jnsgd1na2vs0mg"},{"bike_id":"7a66c1dc-0e20-49d1-b730-80923666f8ac","system_id":"levelo_inurba_marseille","lat":43.28699,"lon":5.39984,"is_reserved":false,"is_disabled":false,"rental_uris":{"android":"levelo://app?vid=7a66c1dc-0e20-49d1-b730-80923666f8ac","ios":"levelo://app?vid=7a66c1dc-0e20-49d1-b730-80923666f8ac"},"vehicle_type_id":"4","last_reported":1727219268,"current_range_meters":25600,"station_id":"ce4bho92rcd13ifvqh3g","pricing_plan_id":"cebpf4jnsgd1na2vs0mg"},{"bike_id":"d24bbf1b-3aea-42be-a965-80ffa4745455","system_id":"levelo_inurba_marseille","lat":43.28355,"lon":5.38103,"is_reserved":false,"is_disabled":false,"rental_uris":{"android":"levelo://app?vid=d24bbf1b-3aea-42be-a965-80ffa4745455","ios":"levelo://app?vid=d24bbf1b-3aea-42be-a965-80ffa4745455"},"vehicle_type_id":"4","last_reported":1727219268,"current_range_meters":8400,"station_id":"ce4bh412rcd13ifvqdr0","pricing_plan_id":"cebpf4jnsgd1na2vs0mg"},{"bike_id":"a7bca3df-0344-4204-86d7-b742d4769839","system_id":"levelo_inurba_marseille","lat":43.30863,"lon":5.3685,"is_reserved":false,"is_disabled":false,"rental_uris":{"android":"levelo://app?vid=a7bca3df-0344-4204-86d7-b742d4769839","ios":"levelo://app?vid=a7bca3df-0344-4204-86d7-b742d4769839"},"vehicle_type_id":"4","last_reported":1727219268,"current_range_meters":30800,"station_id":"ce4bgn92rcd13ifvqbvg","pricing_plan_id":"cebpf4jnsgd1na2vs0mg"},{"bike_id":"f9048047-1df8-4372-ad5c-5da9d2f23e72","system_id":"levelo_inurba_marseille","lat":43.30791,"lon":5.37651,"is_reserved":false,"is_disabled":false,"rental_uris":{"android":"levelo://app?vid=f9048047-1df8-4372-ad5c-5da9d2f23e72","ios":"levelo://app?vid=f9048047-1df8-4372-ad5c-5da9d2f23e72"},"vehicle_type_id":"4","last_reported":1727219268,"current_range_meters":12400,"station_id":"ce4bgv92rcd13ifvqcq0","pricing_plan_id":"cebpf4jnsgd1na2vs0mg"},{"bike_id":"7a8a0800-f777-46b2-8e82-362f8ebbd9e6","system_id":"levelo_inurba_marseille","lat":43.32299,"lon":5.38273,"is_reserved":false,"is_disabled":false,"rental_uris":{"android":"levelo://app?vid=7a8a0800-f777-46b2-8e82-362f8ebbd9e6","ios":"levelo://app?vid=7a8a0800-f777-46b2-8e82-362f8ebbd9e6"},"vehicle_type_id":"4","last_reported":1727219268,"current_range_meters":28800,"station_id":"ce4bhr12rcd13ifvqhqg","pricing_plan_id":"cebpf4jnsgd1na2vs0mg"},{"bike_id":"95aac2a3-b33a-43b5-88a7-525e4c663a41","system_id":"levelo_inurba_marseille","lat":43.24546,"lon":5.39527,"is_reserved":false,"is_disabled":false,"rental_uris":{"android":"levelo://app?vid=95aac2a3-b33a-43b5-88a7-525e4c663a41","ios":"levelo://app?vid=95aac2a3-b33a-43b5-88a7-525e4c663a41"},"vehicle_type_id":"4","last_reported":1727219268,"current_range_meters":38800,"station_id":"ce4bhlp2rcd13ifvqgjg","pricing_plan_id":"cebpf4jnsgd1na2vs0mg"},{"bike_id":"29cef338-028b-46be-aec2-2de217d46e45","system_id":"levelo_inurba_marseille","lat":43.32374,"lon":5.38885,"is_reserved":false,"is_disabled":false,"rental_uris":{"android":"levelo://app?vid=29cef338-028b-46be-aec2-2de217d46e45","ios":"levelo://app?vid=29cef338-028b-46be-aec2-2de217d46e45"},"vehicle_type_id":"4","last_reported":1727219268,"current_range_meters":22400,"station_id":"ce4bhqp2rcd13ifvqhog","pricing_plan_id":"cebpf4jnsgd1na2vs0mg"},{"bike_id":"7827170f-fe53-4f76-acc5-1f9d10e67145","system_id":"levelo_inurba_marseille","lat":43.22932,"lon":5.35376,"is_reserved":false,"is_disabled":false,"rental_uris":{"android":"levelo://app?vid=7827170f-fe53-4f76-acc5-1f9d10e67145","ios":"levelo://app?vid=7827170f-fe53-4f76-acc5-1f9d10e67145"},"vehicle_type_id":"4","last_reported":1727219268,"current_range_meters":38800,"station_id":"cpo3532slgdg3j2ikp40","pricing_plan_id":"cebpf4jnsgd1na2vs0mg"},{"bike_id":"d831a0c8-0bcd-4449-91a5-836df1a52d4b","system_id":"levelo_inurba_marseille","lat":43.307135,"lon":5.372845,"is_reserved":false,"is_disabled":false,"rental_uris":{"android":"levelo://app?vid=d831a0c8-0bcd-4449-91a5-836df1a52d4b","ios":"levelo://app?vid=d831a0c8-0bcd-4449-91a5-836df1a52d4b"},"vehicle_type_id":"4","last_reported":1727219268,"current_range_meters":13600,"station_id":"","pricing_plan_id":"cebpf4jnsgd1na2vs0mg"},{"bike_id":"37ea3e6e-16e9-42b3-b4f9-836c84a7a894","system_id":"levelo_inurba_marseille","lat":43.23186,"lon":5.39985,"is_reserved":false,"is_disabled":false,"rental_uris":{"android":"levelo://app?vid=37ea3e6e-16e9-42b3-b4f9-836c84a7a894","ios":"levelo://app?vid=37ea3e6e-16e9-42b3-b4f9-836c84a7a894"},"vehicle_type_id":"4","last_reported":1727219268,"current_range_meters":32400,"station_id":"ce4bhn12rcd13ifvqgqg","pricing_plan_id":"cebpf4jnsgd1na2vs0mg"},{"bike_id":"337d797f-5bad-4e42-a3a9-741eceae0aa0","system_id":"levelo_inurba_marseille","lat":43.3372,"lon":5.39179,"is_reserved":false,"is_disabled":false,"rental_uris":{"android":"levelo://app?vid=337d797f-5bad-4e42-a3a9-741eceae0aa0","ios":"levelo://app?vid=337d797f-5bad-4e42-a3a9-741eceae0aa0"},"vehicle_type_id":"4","last_reported":1727219268,"current_range_meters":34800,"station_id":"ce4bhr92rcd13ifvqhsg","pricing_plan_id":"cebpf4jnsgd1na2vs0mg"},{"bike_id":"6de41add-2939-4139-9e1b-56c309cf2837","system_id":"levelo_inurba_marseille","lat":43.29043,"lon":5.35919,"is_reserved":false,"is_disabled":false,"rental_uris":{"android":"levelo://app?vid=6de41add-2939-4139-9e1b-56c309cf2837","ios":"levelo://app?vid=6de41add-2939-4139-9e1b-56c309cf2837"},"vehicle_type_id":"4","last_reported":1727219268,"current_range_meters":13600,"station_id":"ce4bha92rcd13ifvqeg0","pricing_plan_id":"cebpf4jnsgd1na2vs0mg"},{"bike_id":"c429e26a-1acd-4e91-9809-a448ccb99898","system_id":"levelo_inurba_marseille","lat":43.28121,"lon":5.40602,"is_reserved":false,"is_disabled":false,"rental_uris":{"android":"levelo://app?vid=c429e26a-1acd-4e91-9809-a448ccb99898","ios":"levelo://app?vid=c429e26a-1acd-4e91-9809-a448ccb99898"},"vehicle_type_id":"4","last_reported":1727219268,"current_range_meters":37600,"station_id":"","pricing_plan_id":"cebpf4jnsgd1na2vs0mg"},{"bike_id":"7d13bfe6-cac1-417a-a866-11f3f6431dbc","system_id":"levelo_inurba_marseille","lat":43.28619,"lon":5.37061,"is_reserved":false,"is_disabled":false,"rental_uris":{"android":"levelo://app?vid=7d13bfe6-cac1-417a-a866-11f3f6431dbc","ios":"levelo://app?vid=7d13bfe6-cac1-417a-a866-11f3f6431dbc"},"vehicle_type_id":"4","last_reported":1727219268,"current_range_meters":28800,"station_id":"ce4bht12rcd13ifvqi60","pricing_plan_id":"cebpf4jnsgd1na2vs0mg"},{"bike_id":"4a4bfd88-bdfc-4802-b3a8-e798e4274727","system_id":"levelo_inurba_marseille","lat":43.322922,"lon":5.382537,"is_reserved":false,"is_disabled":false,"rental_uris":{"android":"levelo://app?vid=4a4bfd88-bdfc-4802-b3a8-e798e4274727","ios":"levelo://app?vid=4a4bfd88-bdfc-4802-b3a8-e798e4274727"},"vehicle_type_id":"4","last_reported":1727219268,"current_range_meters":30800,"station_id":"ce4bhr12rcd13ifvqhqg","pricing_plan_id":"cebpf4jnsgd1na2vs0mg"},{"bike_id":"9fa6ce40-a2c5-4b94-8815-5c21202a1327","system_id":"levelo_inurba_marseille","lat":43.31756,"lon":5.39021,"is_reserved":false,"is_disabled":false,"rental_uris":{"android":"levelo://app?vid=9fa6ce40-a2c5-4b94-8815-5c21202a1327","ios":"levelo://app?vid=9fa6ce40-a2c5-4b94-8815-5c21202a1327"},"vehicle_type_id":"4","last_reported":1727219268,"current_range_meters":8800,"station_id":"ce4bhqp2rcd13ifvqhng","pricing_plan_id":"cebpf4jnsgd1na2vs0mg"},