{"last_updated":1701868203,"ttl":30,"version":"2.2","data":{"bikes":[{"bike_id":"3d529393-120c-4e42-a57e-af9af9e35db1","system_id":"levelo_inurba_marseille","lat":43.31341,"lon":5.367098,"is_reserved":false,"is_disabled":false,"rental_uris":{"android":"levelo://app?vid=3d529393-120c-4e42-a57e-af9af9e35db1","ios":"levelo://app?vid=3d529393-120c-4e42-a57e-af9af9e35db1"},"vehicle_type_id":"4","last_reported":1701868203,"current_range_meters":31600,"station_id":"ce4bgr92rcd13ifvqc6g","pricing_plan_id":"free"},{"bike_id":"11a0f3d6-d069-47ed-918a-40eecf757967","system_id":"levelo_inurba_marseille","lat":43.31344,"lon":5.36734,"is_reserved":false,"is_disabled":false,"rental_uris":{"android":"levelo://app?vid=11a0f3d6-d069-47ed-918a-40eecf757967","ios":"levelo://app?vid=11a0f3d6-d069-47ed-918a-40eecf757967"},"vehicle_type_id":"4","last_reported":1701868203,"current_range_meters":18000,"station_id":"ce4bgr92rcd13ifvqc6g","pricing_plan_id":"free"},{"bike_id":"373c682f-8a52-4d5b-87bf-cc5fef03619f","system_id":"levelo_inurba_marseille","lat":43.313391,"lon":5.36706,"is_reserved":false,"is_disabled":false,"rental_uris":{"android":"levelo://app?vid=373c682f-8a52-4d5b-87bf-cc5fef03619f","ios":"levelo://app?vid=373c682f-8a52-4d5b-87bf-cc5fef03619f"},"vehicle_type_id":"4","last_reported":1701868203,"current_range_meters":20000,"station_id":"ce4bgr92rcd13ifvqc6g","pricing_plan_id":"free"},{"bike_id":"3a9b5267-1e6b-4241-88fe-8869541b4bcc","system_id":"levelo_inurba_marseille","lat":43.31341,"lon":5.367098,"is_reserved":false,"is_disabled":false,"rental_uris":{"android":"levelo://app?vid=3a9b5267-1e6b-4241-88fe-8869541b4bcc","ios":"levelo://app?vid=3a9b5267-1e6b-4241-88fe-8869541b4bcc"},"vehicle_type_id":"4","last_reported":1701868203,"current_range_meters":30400,"station_id":"ce4bgr92rcd13ifvqc6g","pricing_plan_id":"free"},{"bike_id":"abc62d03-4891-49c3-94b1-60d308d83518","system_id":"levelo_inurba_marseille","lat":43.31341,"lon":5.367098,"is_reserved":false,"is_disabled":false,"rental_uris":{"android":"levelo://app?vid=abc62d03-4891-49c3-94b1-60d308d83518","ios":"levelo://app?vid=abc62d03-4891-49c3-94b1-60d308d83518"},"vehicle_type_id":"4","last_reported":1701868203,"current_range_meters":21600,"station_id":"ce4bgr92rcd13ifvqc6g","pricing_plan_id":"free"},{"bike_id":"c0470a3c-42aa-4c59-8acf-31502aa0bab9","system_id":"levelo_inurba_marseille","lat":43.31341,"lon":5.367098,"is_reserved":false,"is_disabled":false,"rental_uris":{"android":"levelo://app?vid=c0470a3c-42aa-4c59-8acf-31502aa0bab9","ios":"levelo://app?vid=c0470a3c-42aa-4c59-8acf-31502aa0bab9"},"vehicle_type_id":"4","last_reported":1701868203,"current_range_meters":8400,"station_id":"ce4bgr92rcd13ifvqc6g","pricing_plan_id":"free"},{"bike_id":"ba9bb771-dc60-40b2-b810-826e56111735","system_id":"levelo_inurba_marseille","lat":43.313391,"lon":5.36706,"is_reserved":false,"is_disabled":false,"rental_uris":{"android":"levelo://app?vid=ba9bb771-dc60-40b2-b810-826e56111735","ios":"levelo://app?vid=ba9bb771-dc60-40b2-b810-826e56111735"},"vehicle_type_id":"4","last_reported":1701868203,"current_range_meters":31600,"station_id":"ce4bgr92rcd13ifvqc6g","pricing_plan_id":"free"},{"bike_id":"a4f85eea-54de-42dc-86bf-af348cdde399","system_id":"levelo_inurba_marseille","lat":43.31359,"lon":5.36713,"is_reserved":false,"is_disabled":false,"rental_uris":{"android":"levelo://app?vid=a4f85eea-54de-42dc-86bf-af348cdde399","ios":"levelo://app?vid=a4f85eea-54de-42dc-86bf-af348cdde399"},"vehicle_type_id":"4","last_reported":1701868203,"current_range_meters":6800,"station_id":"ce4bgr92rcd13ifvqc6g","pricing_plan_id":"free"},{"bike_id":"59722351-95bc-4293-a766-6b37dcb2083d","system_id":"levelo_inurba_marseille","lat":43.313391,"lon":5.36706,"is_reserved":false,"is_disabled":false,"rental_uris":{"android":"levelo://app?vid=59722351-95bc-4293-a766-6b37dcb2083d","ios":"levelo://app?vid=59722351-95bc-4293-a766-6b37dcb2083d"},"vehicle_type_id":"4","last_reported":1701868203,"current_range_meters":26400,"station_id":"ce4bgr92rcd13ifvqc6g","pricing_plan_id":"free"},{"bike_id":"d7cff2fc-91b2-414b-8664-514c29073941","system_id":"levelo_inurba_marseille","lat":43.313391,"lon":5.36706,"is_reserved":false,"is_disabled":false,"rental_uris":{"android":"levelo://app?vid=d7cff2fc-91b2-414b-8664-514c29073941","ios":"levelo://app?vid=d7cff2fc-91b2-414b-8664-514c29073941"},"vehicle_type_id":"4","last_reported":1701868203,"current_range_meters":18000,"station_id":"ce4bgr92rcd13ifvqc6g","pricing_plan_id":"free"},{"bike_id":"9ee78ad1-fc8d-4485-912c-a8a0ec6f5528","system_id":"levelo_inurba_marseille","lat":43.31366,"lon":5.367,"is_reserved":false,"is_disabled":false,"rental_uris":{"android":"levelo://app?vid=9ee78ad1-fc8d-4485-912c-a8a0ec6f5528","ios":"levelo://app?vid=9ee78ad1-fc8d-4485-912c-a8a0ec6f5528"},"vehicle_type_id":"4","last_reported":1701868203,"current_range_meters":11600,"station_id":"ce4bgr92rcd13ifvqc6g","pricing_plan_id":"free"},{"bike_id":"8fbc5c86-5e29-4b6e-9a48-c3e0eb491e98","system_id":"levelo_inurba_marseille","lat":43.309039,"lon":5.371797,"is_reserved":false,"is_disabled":false,"rental_uris":{"android":"levelo://app?vid=8fbc5c86-5e29-4b6e-9a48-c3e0eb491e98","ios":"levelo://app?vid=8fbc5c86-5e29-4b6e-9a48-c3e0eb491e98"},"vehicle_type_id":"4","last_reported":1701868203,"current_range_meters":26000,"station_id":"ce4bguh2rcd13ifvqckg","pricing_plan_id":"free"},{"bike_id":"96f6ab39-7b3a-4d53-b936-b72bf447301a","system_id":"levelo_inurba_marseille","lat":43.309039,"lon":5.371797,"is_reserved":false,"is_disabled":false,"rental_uris":{"android":"levelo://app?vid=96f6ab39-7b3a-4d53-b936-b72bf447301a","ios":"levelo://app?vid=96f6ab39-7b3a-4d53-b936-b72bf447301a"},"vehicle_type_id":"4","last_reported":1701868203,"current_range_meters":7600,"station_id":"ce4bguh2rcd13ifvqckg","pricing_plan_id":"free"},{"bike_id":"985aab09-457a-4cec-9572-8c2a3ecfac74","system_id":"levelo_inurba_marseille","lat":43.306318,"lon":5.368272,"is_reserved":false,"is_disabled":false,"rental_uris":{"android":"levelo://app?vid=985aab09-457a-4cec-9572-8c2a3ecfac74","ios":"levelo://app?vid=985aab09-457a-4cec-9572-8c2a3ecfac74"},"vehicle_type_id":"4","last_reported":1701868203,"current_range_meters":21600,"station_id":"","pricing_plan_id":"free"},{"bike_id":"c0a24268-828c-46b8-bef8-ea1cf49cde91","system_id":"levelo_inurba_marseille","lat":43.305706,"lon":5.365654,"is_reserved":false,"is_disabled":false,"rental_uris":{"android":"levelo://app?vid=c0a24268-828c-46b8-bef8-ea1cf49cde91","ios":"levelo://app?vid=c0a24268-828c-46b8-bef8-ea1cf49cde91"},"vehicle_type_id":"4","last_reported":1701868203,"current_range_meters":12400,"station_id":"ce4bgs12rcd13ifvqcag","pricing_plan_id":"free"},{"bike_id":"3a578191-6f1e-4a3d-9c82-2683572bb26d","system_id":"levelo_inurba_marseille","lat":43.319237,"lon":5.37299,"is_reserved":false,"is_disabled":false,"rental_uris":{"android":"levelo://app?vid=3a578191-6f1e-4a3d-9c82-2683572bb26d","ios":"levelo://app?vid=3a578191-6f1e-4a3d-9c82-2683572bb26d"},"vehicle_type_id":"4","last_reported":1701868203,"current_range_meters":0,"station_id":"","pricing_plan_id":"free"},{"bike_id":"5c9db8a2-5f66-4e42-baed-47e6c0aec687","system_id":"levelo_inurba_marseille","lat":43.311125,"lon":5.377624,"is_reserved":false,"is_disabled":false,"rental_uris":{"android":"levelo://app?vid=5c9db8a2-5f66-4e42-baed-47e6c0aec687","ios":"levelo://app?vid=5c9db8a2-5f66-4e42-baed-47e6c0aec687"},"vehicle_type_id":"4","last_reported":1701868203,"current_range_meters":16800,"station_id":"ce4bgt92rcd13ifvqcg0","pricing_plan_id":"free"},{"bike_id":"963542c2-9d2e-4dc4-8818-dd6972367829","system_id":"levelo_inurba_marseille","lat":43.307945,"lon":5.376487,"is_reserved":false,"is_disabled":false,"rental_uris":{"android":"levelo://app?vid=963542c2-9d2e-4dc4-8818-dd6972367829","ios":"levelo://app?vid=963542c2-9d2e-4dc4-8818-dd6972367829"},"vehicle_type_id":"4","last_reported":1701868203,"current_range_meters":25600,"station_id":"ce4bgv92rcd13ifvqcq0","pricing_plan_id":"free"},{"bike_id":"8f51c910-97d8-4040-aaad-44f6ffc79ede","system_id":"levelo_inurba_marseille","lat":43.307945,"lon":5.376487,"is_reserved":false,"is_disabled":false,"rental_uris":{"android":"levelo://app?vid=8f51c910-97d8-4040-aaad-44f6ffc79ede","ios":"levelo://app?vid=8f51c910-97d8-4040-aaad-44f6ffc79ede"},"vehicle_type_id":"4","last_reported":1701868203,"current_range_meters":21200,"station_id":"ce4bgv92rcd13ifvqcq0","pricing_plan_id":"free"},{"bike_id":"3c6b41dd-92dd-4f68-adbe-4c41bd7f271a","system_id":"levelo_inurba_marseille","lat":43.307937,"lon":5.376617,"is_reserved":false,"is_disabled":false,"rental_uris":{"android":"levelo://app?vid=3c6b41dd-92dd-4f68-adbe-4c41bd7f271a","ios":"levelo://app?vid=3c6b41dd-92dd-4f68-adbe-4c41bd7f271a"},"vehicle_type_id":"4","last_reported":1701868203,"current_range_meters":9200,"station_id":"ce4bgv92rcd13ifvqcq0","pricing_plan_id":"free"},{"bike_id":"adf146c5-e4e1-4668-9a33-042940925130","system_id":"levelo_inurba_marseille","lat":43.31351,"lon":5.37909,"is_reserved":false,"is_disabled":false,"rental_uris":{"android":"levelo://app?vid=adf146c5-e4e1-4668-9a33-042940925130","ios":"levelo://app?vid=adf146c5-e4e1-4668-9a33-042940925130"},"vehicle_type_id":"4","last_reported":1701868203,"current_range_meters":6400,"station_id":"","pricing_plan_id":"free"},{"bike_id":"7cd1c395-b6ac-449e-8397-8d5bf70cb6d4","system_id":"levelo_inurba_marseille","lat":43.303046,"lon":5.368981,"is_reserved":false,"is_disabled":false,"rental_uris":{"android":"levelo://app?vid=7cd1c395-b6ac-449e-8397-8d5bf70cb6d4","ios":"levelo://app?vid=7cd1c395-b6ac-449e-8397-8d5bf70cb6d4"},"vehicle_type_id":"4","last_reported":1701868203,"current_range_meters":5200,"station_id":"ce4bgqh2rcd13ifvqc5g","pricing_plan_id":"free"},{"bike_id":"1ea60f58-75f7-4484-b705-1156df4b02ad","system_id":"levelo_inurba_marseille","lat":43.302815,"lon":5.37336,"is_reserved":false,"is_disabled":false,"rental_uris":{"android":"levelo://app?vid=1ea60f58-75f7-4484-b705-1156df4b02ad","ios":"levelo://app?vid=1ea60f58-75f7-4484-b705-1156df4b02ad"},"vehicle_type_id":"4","last_reported":1701868203,"current_range_meters":9600,"station_id":"","pricing_plan_id":"free"},{"bike_id":"acf5cf3c-600d-4430-b035-7745ddcc72a9","system_id":"levelo_inurba_marseille","lat":43.30815,"lon":5.38164,"is_reserved":false,"is_disabled":false,"rental_uris":{"android":"levelo://app?vid=acf5cf3c-600d-4430-b035-7745ddcc72a9","ios":"levelo://app?vid=acf5cf3c-600d-4430-b035-7745ddcc72a9"},"vehicle_type_id":"4","last_reported":1701868203,"current_range_meters":0,"station_id":"ce4bgt12rcd13ifvqce0","pricing_plan_id":"free"},{"bike_id":"cb2d582e-6d21-449a-8708-ad922054d1c4","system_id":"levelo_inurba_marseille","lat":43.304606,"lon":5.379026,"is_reserved":false,"is_disabled":false,"rental_uris":{"android":"levelo://app?vid=cb2d582e-6d21-449a-8708-ad922054d1c4","ios":"levelo://app?vid=cb2d582e-6d21-449a-8708-ad922054d1c4"},"vehicle_type_id":"4","last_reported":1701868203,"current_range_meters":16000,"station_id":"ce4bgup2rcd13ifvqcn0","pricing_plan_id":"free"},{"bike_id":"ad0935ae-b57d-45f9-b1bf-456eeac6ca9a","system_id":"levelo_inurba_marseille","lat":43.324771,"lon":5.36557,"is_reserved":false,"is_disabled":false,"rental_uris":{"android":"levelo://app?vid=ad0935ae-b57d-45f9-b1bf-456eeac6ca9a","ios":"levelo://app?vid=ad0935ae-b57d-45f9-b1bf-456eeac6ca9a"},"vehicle_type_id":"4","last_reported":1701868203,"current_range_meters":15600,"station_id":"ce4bhs12rcd13ifvqhvg","pricing_plan_id":"free"},{"bike_id":"cc1e349a-e537-4351-b40b-5ddbe17f040c","system_id":"levelo_inurba_marseille","lat":43.32479,"lon":5.36564,"is_reserved":false,"is_disabled":false,"rental_uris":{"android":"levelo://app?vid=cc1e349a-e537-4351-b40b-5ddbe17f040c","ios":"levelo://app?vid=cc1e349a-e537-4351-b40b-5ddbe17f040c"},"vehicle_type_id":"4","last_reported":1701868203,"current_range_meters":23600,"station_id":"ce4bhs12rcd13ifvqhvg","pricing_plan_id":"free"},{"bike_id":"cb9ebc57-09d2-4a98-aef4-954236a00790","system_id":"levelo_inurba_marseille","lat":43.32485,"lon":5.36554,"is_reserved":false,"is_disabled":false,"rental_uris":{"android":"levelo://app?vid=cb9ebc57-09d2-4a98-aef4-954236a00790","ios":"levelo://app?vid=cb9ebc57-09d2-4a98-aef4-954236a00790"},"vehicle_type_id":"4","last_reported":1701868203,"current_range_meters":21200,"station_id":"ce4bhs12rcd13ifvqhvg","pricing_plan_id":"free"},{"bike_id":"c6aa0c00-e877-43dc-bd90-9918ba38fb1e","system_id":"levelo_inurba_marseille","lat":43.301429,"lon":5.37413,"is_reserved":false,"is_disabled":false,"rental_uris":{"android":"levelo://app?vid=c6aa0c00-e877-43dc-bd90-9918ba38fb1e","ios":"levelo://app?vid=c6aa0c00-e877-43dc-bd90-9918ba38fb1e"},"vehicle_type_id":"4","last_reported":1701868203,"current_range_meters":10000,"station_id":"ce4bgs92rcd13ifvqcc0","pricing_plan_id":"free"},{"bike_id":"9ae94d0b-3bf1-4047-8781-8a890d852d5a","system_id":"levelo_inurba_marseille","lat":43.319935,"lon":5.381699,"is_reserved":false,"is_disabled":false,"rental_uris":{"android":"levelo://app?vid=9ae94d0b-3bf1-4047-8781-8a890d852d5a","ios":"levelo://app?vid=9ae94d0b-3bf1-4047-8781-8a890d852d5a"},"vehicle_type_id":"4","last_reported":1701868203,"current_range_meters":29200,"station_id":"ce4bhr12rcd13ifvqhpg","pricing_plan_id":"free"},{"bike_id":"44b639d4-c394-49b2-9e18-6098ae373bd6","system_id":"levelo_inurba_marseille","lat":43.320005,"lon":5.381524,"is_reserved":false,"is_disabled":false,"rental_uris":{"android":"levelo://app?vid=44b639d4-c394-49b2-9e18-6098ae373bd6","ios":"levelo://app?vid=44b639d4-c394-49b2-9e18-6098ae373bd6"},"vehicle_type_id":"4","last_reported":1701868203,"current_range_meters":31200,"station_id":"ce4bhr12rcd13ifvqhpg","pricing_plan_id":"free"},{"bike_id":"e6a7946c-a7d5-4369-b254-577b631c8d1a","system_id":"levelo_inurba_marseille","lat":43.32001,"lon":5.38157,"is_reserved":false,"is_disabled":false,"rental_uris":{"android":"levelo://app?vid=e6a7946c-a7d5-4369-b254-577b631c8d1a","ios":"levelo://app?vid=e6a7946c-a7d5-4369-b254-577b631c8d1a"},"vehicle_type_id":"4","last_reported":1701868203,"current_range_meters":24400,"station_id":"ce4bhr12rcd13ifvqhpg","pricing_plan_id":"free"},{"bike_id":"9ee0ef7a-8d9c-4d78-8ae5-64e12b708d26","system_id":"levelo_inurba_marseille","lat":43.319997,"lon":5.381594,"is_reserved":false,"is_disabled":false,"rental_uris":{"android":"levelo://app?vid=9ee0ef7a-8d9c-4d78-8ae5-64e12b708d26","ios":"levelo://app?vid=9ee0ef7a-8d9c-4d78-8ae5-64e12b708d26"},"vehicle_type_id":"4","last_reported":1701868203,"current_range_meters":0,"station_id":"ce4bhr12rcd13ifvqhpg","pricing_plan_id":"free"},{"bike_id":"a1af2736-4310-4717-a489-0d6442bb31eb","system_id":"levelo_inurba_marseille","lat":43.313571,"lon":5.384829,"is_reserved":false,"is_disabled":false,"rental_uris":{"android":"levelo://app?vid=a1af2736-4310-4717-a489-0d6442bb31eb","ios":"levelo://app?vid=a1af2736-4310-4717-a489-0d6442bb31eb"},"vehicle_type_id":"4","last_reported":1701868203,"current_range_meters":29200,"station_id":"ce4bgt92rcd13ifvqcf0","pricing_plan_id":"free"},{"bike_id":"fca56b3b-2a22-4efe-be77-43003e1688f9","system_id":"levelo_inurba_marseille","lat":43.299724,"lon":5.371829,"is_reserved":false,"is_disabled":false,"rental_uris":{"android":"levelo://app?vid=fca56b3b-2a22-4efe-be77-43003e1688f9","ios":"levelo://app?vid=fca56b3b-2a22-4efe-be77-43003e1688f9"},"vehicle_type_id":"4","last_reported":1701868203,"current_range_meters":21200,"station_id":"ce4bgr92rcd13ifvqc7g","pricing_plan_id":"free"},{"bike_id":"6f7cce86-db04-44b4-b1b9-e63b3d0e0aa7","system_id":"levelo_inurba_marseille","lat":43.29936,"lon":5.36556,"is_reserved":false,"is_disabled":false,"rental_uris":{"android":"levelo://app?vid=6f7cce86-db04-44b4-b1b9-e63b3d0e0aa7","ios":"levelo://app?vid=6f7cce86-db04-44b4-b1b9-e63b3d0e0aa7"},"vehicle_type_id":"4","last_reported":1701868203,"current_range_meters":6800,"station_id":"ce4bgm92rcd13ifvqbr0","pricing_plan_id":"free"},{"bike_id":"2a5098da-ced0-4ecc-8483-723d7ffccc99","system_id":"levelo_inurba_marseille","lat":43.299724,"lon":5.371829,"is_reserved":false,"is_disabled":false,"rental_uris":{"android":"levelo://app?vid=2a5098da-ced0-4ecc-8483-723d7ffccc99","ios":"levelo://app?vid=2a5098da-ced0-4ecc-8483-723d7ffccc99"},"vehicle_type_id":"4","last_reported":1701868203,"current_range_meters":10800,"station_id":"ce4bgr92rcd13ifvqc7g","pricing_plan_id":"free"},{"bike_id":"1c30aa42-beaf-48d4-8140-f2e1eab417d3","system_id":"levelo_inurba_marseille","lat":43.299243,"lon":5.37481,"is_reserved":false,"is_disabled":false,"rental_uris":{"android":"levelo://app?vid=1c30aa42-beaf-48d4-8140-f2e1eab417d3","ios":"levelo://app?vid=1c30aa42-beaf-48d4-8140-f2e1eab417d3"},"vehicle_type_id":"4","last_reported":1701868203,"current_range_meters":19600,"station_id":"ce4bgjh2rcd13ifvqbg0","pricing_plan_id":"free"},{"bike_id":"d47c412e-4170-4dae-9180-58c9151f00c2","system_id":"levelo_inurba_marseille","lat":43.322872,"lon":5.382756,"is_reserved":false,"is_disabled":false,"rental_uris":{"android":"levelo://app?vid=d47c412e-4170-4dae-9180-58c9151f00c2","ios":"levelo://app?vid=d47c412e-4170-4dae-9180-58c9151f00c2"},"vehicle_type_id":"4","last_reported":1701868203,"current_range_meters":28400,"station_id":"ce4bhr12rcd13ifvqhqg","pricing_plan_id":"free"},{"bike_id":"04ea328d-eef9-479c-b3df-9ac03c15edf6","system_id":"levelo_inurba_marseille","lat":43.298218,"lon":5.374416,"is_reserved":false,"is_disabled":false,"rental_uris":{"android":"levelo://app?vid=04ea328d-eef9-479c-b3df-9ac03c15edf6","ios":"levelo://app?vid=04ea328d-eef9-479c-b3df-9ac03c15edf6"},"vehicle_type_id":"4","last_reported":1701868203,"current_range_meters":13600,"station_id":"","pricing_plan_id":"free"},{"bike_id":"c58a2089-b67f-42c5-ac7a-21fc01aff172","system_id":"levelo_inurba_marseille","lat":43.32828,"lon":5.367,"is_reserved":false,"is_disabled":false,"rental_uris":{"android":"levelo://app?vid=c58a2089-b67f-42c5-ac7a-21fc01aff172","ios":"levelo://app?vid=c58a2089-b67f-42c5-ac7a-21fc01aff172"},"vehicle_type_id":"4","last_reported":1701868203,"current_range_meters":3200,"station_id":"ce4bhs92rcd13ifvqi0g","pricing_plan_id":"free"},{"bike_id":"4fc747a7-297f-46d2-98b5-9cbf56baab20","system_id":"levelo_inurba_marseille","lat":43.32832,"lon":5.36693,"is_reserved":false,"is_disabled":false,"rental_uris":{"android":"levelo://app?vid=4fc747a7-297f-46d2-98b5-9cbf56baab20","ios":"levelo://app?vid=4fc747a7-297f-46d2-98b5-9cbf56baab20"},"vehicle_type_id":"4","last_reported":1701868203,"current_range_meters":22400,"station_id":"ce4bhs92rcd13ifvqi0g","pricing_plan_id":"free"},{"bike_id":"94007754-7055-4e9f-884b-a69ad1a23f33","system_id":"levelo_inurba_marseille","lat":43.29883,"lon":5.378289,"is_reserved":false,"is_disabled":false,"rental_uris":{"android":"levelo://app?vid=94007754-7055-4e9f-884b-a69ad1a23f33","ios":"levelo://app?vid=94007754-7055-4e9f-884b-a69ad1a23f33"},"vehicle_type_id":"4","last_reported":1701868203,"current_range_meters":23200,"station_id":"","pricing_plan_id":"free"},{"bike_id":"92dc65d6-6823-4de3-93d4-056f738f090c","system_id":"levelo_inurba_marseille","lat":43.316538,"lon":5.38954,"is_reserved":false,"is_disabled":false,"rental_uris":{"android":"levelo://app?vid=92dc65d6-6823-4de3-93d4-056f738f090c","ios":"levelo://app?vid=92dc65d6-6823-4de3-93d4-056f738f090c"},"vehicle_type_id":"4","last_reported":1701868203,"current_range_meters":9200,"station_id":"","pricing_plan_id":"free"},{"bike_id":"2058c6d6-1098-4da8-ae5a-59648fc375cb","system_id":"levelo_inurba_marseille","lat":43.296935,"lon":5.376544,"is_reserved":false,"is_disabled":false,"rental_uris":{"android":"levelo://app?vid=2058c6d6-1098-4da8-ae5a-59648fc375cb","ios":"levelo://app?vid=2058c6d6-1098-4da8-ae5a-59648fc375cb"},"vehicle_type_id":"4","last_reported":1701868203,"current_range_meters":21600,"station_id":"ce4bgkh2rcd13ifvqbl0","pricing_plan_id":"free"},{"bike_id":"a1bd8489-c2d1-4501-a3b6-4196900f831e","system_id":"levelo_inurba_marseille","lat":43.309589,"lon":5.390258,"is_reserved":false,"is_disabled":false,"rental_uris":{"android":"levelo://app?vid=a1bd8489-c2d1-4501-a3b6-4196900f831e","ios":"levelo://app?vid=a1bd8489-c2d1-4501-a3b6-4196900f831e"},"vehicle_type_id":"4","last_reported":1701868203,"current_range_meters":3200,"station_id":"ce4bgup2rcd13ifvqco0","pricing_plan_id":"free"},{"bike_id":"7f5faf3c-4d23-41af-9238-b2bd90d04788","system_id":"levelo_inurba_marseille","lat":43.298037,"lon":5.381066,"is_reserved":false,"is_disabled":false,"rental_uris":{"android":"levelo://app?vid=7f5faf3c-4d23-41af-9238-b2bd90d04788","ios":"levelo://app?vid=7f5faf3c-4d23-41af-9238-b2bd90d04788"},"vehicle_type_id":"4","last_reported":1701868203,"current_range_meters":24400,"station_id":"ce4bgip2rcd13ifvqbb0","pricing_plan_id":"free"},{"bike_id":"357789c3-af0e-4dbf-8cb6-31115d3da10d","system_id":"levelo_inurba_marseille","lat":43.29628,"lon":5.37725,"is_reserved":false,"is_disabled":false,"rental_uris":{"android":"levelo://app?vid=357789c3-af0e-4dbf-8cb6-31115d3da10d","ios":"levelo://app?vid=357789c3-af0e-4dbf-8cb6-31115d3da10d"},"vehicle_type_id":"4","last_reported":1701868203,"current_range_meters":20400,"station_id":"ce4bgi92rcd13ifvqb90","pricing_plan_id":"free"},{"bike_id":"73eb3214-4b1e-4417-8f52-0cd8b167ca7a","system_id":"levelo_inurba_marseille","lat":43.304274,"lon":5.388873,"is_reserved":false,"is_disabled":false,"rental_uris":{"android":"levelo://app?vid=73eb3214-4b1e-4417-8f52-0cd8b167ca7a","ios":"levelo://app?vid=73eb3214-4b1e-4417-8f52-0cd8b167ca7a"},"vehicle_type_id":"4","last_reported":1701868203,"current_range_meters":19200,"station_id":"ce4bgk12rcd13ifvqbi0","pricing_plan_id":"free"},{"bike_id":"5f60fefa-3b65-4ab7-a63d-88dafaf2d779","system_id":"levelo_inurba_marseille","lat":43.2953,"lon":5.37503,"is_reserved":false,"is_disabled":false,"rental_uris":{"android":"levelo://app?vid=5f60fefa-3b65-4ab7-a63d-88dafaf2d779","ios":"levelo://app?vid=5f60fefa-3b65-4ab7-a63d-88dafaf2d779"},"vehicle_type_id":"4","last_reported":1701868203,"current_range_meters":3200,"station_id":"ce4bgkp2rcd13ifvqbmg","pricing_plan_id":"free"},{"bike_id":"cf43a8ed-fe95-4434-9aa1-29559558f34a","system_id":"levelo_inurba_marseille","lat":43.299707,"lon":5.384859,"is_reserved":false,"is_disabled":false,"rental_uris":{"android":"levelo://app?vid=cf43a8ed-fe95-4434-9aa1-29559558f34a","ios":"levelo://app?vid=cf43a8ed-fe95-4434-9aa1-29559558f34a"},"vehicle_type_id":"4","last_reported":1701868203,"current_range_meters":20000,"station_id":"ce4bgj92rcd13ifvqbd0","pricing_plan_id":"free"},{"bike_id":"dfa43688-9811-4195-a0e7-5227fe201b11","system_id":"levelo_inurba_marseille","lat":43.32367,"lon":5.388887,"is_reserved":false,"is_disabled":false,"rental_uris":{"android":"levelo://app?vid=dfa43688-9811-4195-a0e7-5227fe201b11","ios":"levelo://app?vid=dfa43688-9811-4195-a0e7-5227fe201b11"},"vehicle_type_id":"4","last_reported":1701868203,"current_range_meters":22800,"station_id":"ce4bhqp2rcd13ifvqhog","pricing_plan_id":"free"},{"bike_id":"9de1a80e-a5a6-4b70-9a80-3d9a37cc8846","system_id":"levelo_inurba_marseille","lat":43.331777,"lon":5.361739,"is_reserved":false,"is_disabled":false,"rental_uris":{"android":"levelo://app?vid=9de1a80e-a5a6-4b70-9a80-3d9a37cc8846","ios":"levelo://app?vid=9de1a80e-a5a6-4b70-9a80-3d9a37cc8846"},"vehicle_type_id":"4","last_reported":1701868203,"current_range_meters":30400,"station_id":"","pricing_plan_id":"free"},{"bike_id":"bee878c7-9934-4b7b-9642-7d3dc828b730","system_id":"levelo_inurba_marseille","lat":43.293009,"lon":5.374584,"is_reserved":false,"is_disabled":false,"rental_uris":{"android":"levelo://app?vid=bee878c7-9934-4b7b-9642-7d3dc828b730","ios":"levelo://app?vid=bee878c7-9934-4b7b-9642-7d3dc828b730"},"vehicle_type_id":"4","last_reported":1701868203,"current_range_meters":5600,"station_id":"ce4bgi12rcd13ifvqb70","pricing_plan_id":"free"},{"bike_id":"56610542-603d-402e-b34a-a078c338d7ee","system_id":"levelo_inurba_marseille","lat":43.2936,"lon":5.37835,"is_reserved":false,"is_disabled":false,"rental_uris":{"android":"levelo://app?vid=56610542-603d-402e-b34a-a078c338d7ee","ios":"levelo://app?vid=56610542-603d-402e-b34a-a078c338d7ee"},"vehicle_type_id":"4","last_reported":1701868203,"current_range_meters":5200,"station_id":"ce4bgjh2rcd13ifvqbf0","pricing_plan_id":"free"},{"bike_id":"9138cb10-b772-4df4-af23-bf7ccad41f39","system_id":"levelo_inurba_marseille","lat":43.2936,"lon":5.37835,"is_reserved":false,"is_disabled":false,"rental_uris":{"android":"levelo://app?vid=9138cb10-b772-4df4-af23-bf7ccad41f39","ios":"levelo://app?vid=9138cb10-b772-4df4-af23-bf7ccad41f39"},"vehicle_type_id":"4","last_reported":1701868203,"current_range_meters":19600,"station_id":"ce4bgjh2rcd13ifvqbf0","pricing_plan_id":"free"},{"bike_id":"1181ec05-ea3d-4ee5-b6b4-2a0305f2a3ef","system_id":"levelo_inurba_marseille","lat":43.292311,"lon":5.360731,"is_reserved":false,"is_disabled":false,"rental_uris":{"android":"levelo://app?vid=1181ec05-ea3d-4ee5-b6b4-2a0305f2a3ef","ios":"levelo://app?vid=1181ec05-ea3d-4ee5-b6b4-2a0305f2a3ef"},"vehicle_type_id":"4","last_reported":1701868203,"current_range_meters":13200,"station_id":"ce4bhbh2rcd13ifvqeqg","pricing_plan_id":"free"},{"bike_id":"2696167b-fddf-490b-b332-da418afcdf8a","system_id":"levelo_inurba_marseille","lat":43.292311,"lon":5.360731,"is_reserved":false,"is_disabled":false,"rental_uris":{"android":"levelo://app?vid=2696167b-fddf-490b-b332-da418afcdf8a","ios":"levelo://app?vid=2696167b-fddf-490b-b332-da418afcdf8a"},"vehicle_type_id":"4","last_reported":1701868203,"current_range_meters":14000,"station_id":"ce4bhbh2rcd13ifvqeqg","pricing_plan_id":"free"},{"bike_id":"a8bf5eaa-981d-4387-be53-f74c669e6fa8","system_id":"levelo_inurba_marseille","lat":43.292311,"lon":5.360731,"is_reserved":false,"is_disabled":false,"rental_uris":{"android":"levelo://app?vid=a8bf5eaa-981d-4387-be53-f74c669e6fa8","ios":"levelo://app?vid=a8bf5eaa-981d-4387-be53-f74c669e6fa8"},"vehicle_type_id":"4","last_reported":1701868203,"current_range_meters":0,"station_id":"ce4bhbh2rcd13ifvqeqg","pricing_plan_id":"free"},{"bike_id":"adc51aa0-2d0f-48a8-bff0-d4765267fc7c","system_id":"levelo_inurba_marseille","lat":43.291671,"lon":5.371575,"is_reserved":false,"is_disabled":false,"rental_uris":{"android":"levelo://app?vid=adc51aa0-2d0f-48a8-bff0-d4765267fc7c","ios":"levelo://app?vid=adc51aa0-2d0f-48a8-bff0-d4765267fc7c"},"vehicle_type_id":"4","last_reported":1701868203,"current_range_meters":22800,"station_id":"ce4bha92rcd13ifvqeh0","pricing_plan_id":"free"},{"bike_id":"0deadbd1-3f4c-4a93-8afa-b9db51f9aecc","system_id":"levelo_inurba_marseille","lat":43.29199,"lon":5.35799,"is_reserved":false,"is_disabled":false,"rental_uris":{"android":"levelo://app?vid=0deadbd1-3f4c-4a93-8afa-b9db51f9aecc","ios":"levelo://app?vid=0deadbd1-3f4c-4a93-8afa-b9db51f9aecc"},"vehicle_type_id":"4","last_reported":1701868203,"current_range_meters":14000,"station_id":"ce4bhb12rcd13ifvqel0","pricing_plan_id":"free"},{"bike_id":"9ef1d536-1283-4f3a-a5c3-0fee1d9db826","system_id":"levelo_inurba_marseille","lat":43.313291,"lon":5.396838,"is_reserved":false,"is_disabled":false,"rental_uris":{"android":"levelo://app?vid=9ef1d536-1283-4f3a-a5c3-0fee1d9db826","ios":"levelo://app?vid=9ef1d536-1283-4f3a-a5c3-0fee1d9db826"},"vehicle_type_id":"4","last_reported":1701868203,"current_range_meters":9200,"station_id":"ce4bgvp2rcd13ifvqcu0","pricing_plan_id":"free"},{"bike_id":"f2aa02ab-5fb5-4fd4-a244-da9a8c48a2d1","system_id":"levelo_inurba_marseille","lat":43.290779,"lon":5.371482,"is_reserved":false,"is_disabled":false,"rental_uris":{"android":"levelo://app?vid=f2aa02ab-5fb5-4fd4-a244-da9a8c48a2d1","ios":"levelo://app?vid=f2aa02ab-5fb5-4fd4-a244-da9a8c48a2d1"},"vehicle_type_id":"4","last_reported":1701868203,"current_range_meters":17600,"station_id":"ce4bh5p2rcd13ifvqe4g","pricing_plan_id":"free"},{"bike_id":"3ce7d67b-6886-4daa-9199-b167302bf42d","system_id":"levelo_inurba_marseille","lat":43.28955,"lon":5.36415,"is_reserved":false,"is_disabled":false,"rental_uris":{"android":"levelo://app?vid=3ce7d67b-6886-4daa-9199-b167302bf42d","ios":"levelo://app?vid=3ce7d67b-6886-4daa-9199-b167302bf42d"},"vehicle_type_id":"4","last_reported":1701868203,"current_range_meters":13600,"station_id":"ce4bhc92rcd13ifvqetg","pricing_plan_id":"free"},{"bike_id":"ff3cefe0-a04b-48ec-b57f-8148b92af063","system_id":"levelo_inurba_marseille","lat":43.289184,"lon":5.366408,"is_reserved":false,"is_disabled":false,"rental_uris":{"android":"levelo://app?vid=ff3cefe0-a04b-48ec-b57f-8148b92af063","ios":"levelo://app?vid=ff3cefe0-a04b-48ec-b57f-8148b92af063"},"vehicle_type_id":"4","last_reported":1701868203,"current_range_meters":16400,"station_id":"ce4bhap2rcd13ifvqek0","pricing_plan_id":"free"},{"bike_id":"88985a38-0aad-48e1-bded-22c4e8a29c66","system_id":"levelo_inurba_marseille","lat":43.289184,"lon":5.366408,"is_reserved":false,"is_disabled":false,"rental_uris":{"android":"levelo://app?vid=88985a38-0aad-48e1-bded-22c4e8a29c66","ios":"levelo://app?vid=88985a38-0aad-48e1-bded-22c4e8a29c66"},"vehicle_type_id":"4","last_reported":1701868203,"current_range_meters":24000,"station_id":"ce4bhap2rcd13ifvqek0","pricing_plan_id":"free"},{"bike_id":"1d3b437f-4215-4569-a934-55ee6142cc62","system_id":"levelo_inurba_marseille","lat":43.289184,"lon":5.366408,"is_reserved":false,"is_disabled":false,"rental_uris":{"android":"levelo://app?vid=1d3b437f-4215-4569-a934-55ee6142cc62","ios":"levelo://app?vid=1d3b437f-4215-4569-a934-55ee6142cc62"},"vehicle_type_id":"4","last_reported":1701868203,"current_range_meters":0,"station_id":"ce4bhap2rcd13ifvqek0","pricing_plan_id":"free"},{"bike_id":"78c7c9ce-8995-484f-ac05-75765b671874","system_id":"levelo_inurba_marseille","lat":43.289468,"lon":5.363719,"is_reserved":false,"is_disabled":false,"rental_uris":{"android":"levelo://app?vid=78c7c9ce-8995-484f-ac05-75765b671874","ios":"levelo://app?vid=78c7c9ce-8995-484f-ac05-75765b671874"},"vehicle_type_id":"4","last_reported":1701868203,"current_range_meters":9600,"station_id":"ce4bhc92rcd13ifvqetg","pricing_plan_id":"free"},{"bike_id":"d16f16cd-b2f1-484d-8e6a-6307cff0b5ae","system_id":"levelo_inurba_marseille","lat":43.28944,"lon":5.36409,"is_reserved":false,"is_disabled":false,"rental_uris":{"android":"levelo://app?vid=d16f16cd-b2f1-484d-8e6a-6307cff0b5ae","ios":"levelo://app?vid=d16f16cd-b2f1-484d-8e6a-6307cff0b5ae"},"vehicle_type_id":"4","last_reported":1701868203,"current_range_meters":10800,"station_id":"ce4bhc92rcd13ifvqetg","pricing_plan_id":"free"},{"bike_id":"68390ae0-b058-4b70-8703-7d61b4f7f8a9","system_id":"levelo_inurba_marseille","lat":43.28941,"lon":5.36401,"is_reserved":false,"is_disabled":false,"rental_uris":{"android":"levelo://app?vid=68390ae0-b058-4b70-8703-7d61b4f7f8a9","ios":"levelo://app?vid=68390ae0-b058-4b70-8703-7d61b4f7f8a9"},"vehicle_type_id":"4","last_reported":1701868203,"current_range_meters":27200,"station_id":"ce4bhc92rcd13ifvqetg","pricing_plan_id":"free"},{"bike_id":"a02a1b20-1fb1-4951-988a-77389649024d","system_id":"levelo_inurba_marseille","lat":43.289259,"lon":5.366364,"is_reserved":false,"is_disabled":false,"rental_uris":{"android":"levelo://app?vid=a02a1b20-1fb1-4951-988a-77389649024d","ios":"levelo://app?vid=a02a1b20-1fb1-4951-988a-77389649024d"},"vehicle_type_id":"4","last_reported":1701868203,"current_range_meters":23600,"station_id":"","pricing_plan_id":"free"},{"bike_id":"451d4c6b-04fe-46af-a678-e76edfc3e019","system_id":"levelo_inurba_marseille","lat":43.289335,"lon":5.363855,"is_reserved":false,"is_disabled":false,"rental_uris":{"android":"levelo://app?vid=451d4c6b-04fe-46af-a678-e76edfc3e019","ios":"levelo://app?vid=451d4c6b-04fe-46af-a678-e76edfc3e019"},"vehicle_type_id":"4","last_reported":1701868203,"current_range_meters":15200,"station_id":"ce4bhc92rcd13ifvqetg","pricing_plan_id":"free"},{"bike_id":"6c35dc3f-5b70-48b3-831b-73c12656f41a","system_id":"levelo_inurba_marseille","lat":43.304296,"lon":5.397513,"is_reserved":false,"is_disabled":false,"rental_uris":{"android":"levelo://app?vid=6c35dc3f-5b70-48b3-831b-73c12656f41a","ios":"levelo://app?vid=6c35dc3f-5b70-48b3-831b-73c12656f41a"},"vehicle_type_id":"4","last_reported":1701868203,"current_range_meters":20400,"station_id":"ce4bh092rcd13ifvqd20","pricing_plan_id":"free"},{"bike_id":"fd42f959-6e54-41f9-b7eb-b7ab84a07ab6","system_id":"levelo_inurba_marseille","lat":43.330442,"lon":5.389148,"is_reserved":false,"is_disabled":false,"rental_uris":{"android":"levelo://app?vid=fd42f959-6e54-41f9-b7eb-b7ab84a07ab6","ios":"levelo://app?vid=fd42f959-6e54-41f9-b7eb-b7ab84a07ab6"},"vehicle_type_id":"4","last_reported":1701868203,"current_range_meters":13600,"station_id":"ce4bhr92rcd13ifvqhrg","pricing_plan_id":"free"},{"bike_id":"bfc84fba-fd9c-4885-b230-77c6b556f3fa","system_id":"levelo_inurba_marseille","lat":43.330441,"lon":5.389183,"is_reserved":false,"is_disabled":false,"rental_uris":{"android":"levelo://app?vid=bfc84fba-fd9c-4885-b230-77c6b556f3fa","ios":"levelo://app?vid=bfc84fba-fd9c-4885-b230-77c6b556f3fa"},"vehicle_type_id":"4","last_reported":1701868203,"current_range_meters":27200,"station_id":"ce4bhr92rcd13ifvqhrg","pricing_plan_id":"free"},{"bike_id":"41264422-244a-4ee3-804a-0e79117f4bec","system_id":"levelo_inurba_marseille","lat":43.33043,"lon":5.3892,"is_reserved":false,"is_disabled":false,"rental_uris":{"android":"levelo://app?vid=41264422-244a-4ee3-804a-0e79117f4bec","ios":"levelo://app?vid=41264422-244a-4ee3-804a-0e79117f4bec"},"vehicle_type_id":"4","last_reported":1701868203,"current_range_meters":14400,"station_id":"ce4bhr92rcd13ifvqhrg","pricing_plan_id":"free"},{"bike_id":"bd57a0ff-608b-4e17-bef2-8d55e2235fbf","system_id":"levelo_inurba_marseille","lat":43.33045,"lon":5.38923,"is_reserved":false,"is_disabled":false,"rental_uris":{"android":"levelo://app?vid=bd57a0ff-608b-4e17-bef2-8d55e2235fbf","ios":"levelo://app?vid=bd57a0ff-608b-4e17-bef2-8d55e2235fbf"},"vehicle_type_id":"4","last_reported":1701868203,"current_range_meters":13600,"station_id":"ce4bhr92rcd13ifvqhrg","pricing_plan_id":"free"},{"bike_id":"358803ec-9bae-4dcb-88e5-3366453c8d80","system_id":"levelo_inurba_marseille","lat":43.33048,"lon":5.38923,"is_reserved":false,"is_disabled":false,"rental_uris":{"android":"levelo://app?vid=358803ec-9bae-4dcb-88e5-3366453c8d80","ios":"levelo://app?vid=358803ec-9bae-4dcb-88e5-3366453c8d80"},"vehicle_type_id":"4","last_reported":1701868203,"current_range_meters":31600,"station_id":"ce4bhr92rcd13ifvqhrg","pricing_plan_id":"free"},{"bike_id":"9143d033-4478-4f2b-ae6b-ceecb1aeb694","system_id":"levelo_inurba_marseille","lat":43.33047,"lon":5.38925,"is_reserved":false,"is_disabled":false,"rental_uris":{"android":"levelo://app?vid=9143d033-4478-4f2b-ae6b-ceecb1aeb694","ios":"levelo://app?vid=9143d033-4478-4f2b-ae6b-ceecb1aeb694"},"vehicle_type_id":"4","last_reported":1701868203,"current_range_meters":25200,"station_id":"ce4bhr92rcd13ifvqhrg","pricing_plan_id":"free"},{"bike_id":"ed02975c-c4d8-4b75-b399-17d9a1a9e6f4","system_id":"levelo_inurba_marseille","lat":43.290995,"lon":5.381361,"is_reserved":false,"is_disabled":false,"rental_uris":{"android":"levelo://app?vid=ed02975c-c4d8-4b75-b399-17d9a1a9e6f4","ios":"levelo://app?vid=ed02975c-c4d8-4b75-b399-17d9a1a9e6f4"},"vehicle_type_id":"4","last_reported":1701868203,"current_range_meters":12000,"station_id":"ce4bh512rcd13ifvqe2g","pricing_plan_id":"free"},{"bike_id":"2511150b-f550-4a0a-8b14-a99a29d20d18","system_id":"levelo_inurba_marseille","lat":43.29783,"lon":5.39335,"is_reserved":false,"is_disabled":false,"rental_uris":{"android":"levelo://app?vid=2511150b-f550-4a0a-8b14-a99a29d20d18","ios":"levelo://app?vid=2511150b-f550-4a0a-8b14-a99a29d20d18"},"vehicle_type_id":"4","last_reported":1701868203,"current_range_meters":7200,"station_id":"chh1huq6cuj3fo74tm60","pricing_plan_id":"free"},{"bike_id":"45fa0b81-43cd-4fd5-b8d0-2d2ced621658","system_id":"levelo_inurba_marseille","lat":43.289743,"lon":5.378304,"is_reserved":false,"is_disabled":false,"rental_uris":{"android":"levelo://app?vid=45fa0b81-43cd-4fd5-b8d0-2d2ced621658","ios":"levelo://app?vid=45fa0b81-43cd-4fd5-b8d0-2d2ced621658"},"vehicle_type_id":"4","last_reported":1701868203,"current_range_meters":22400,"station_id":"ce4bh9p2rcd13ifvqed0","pricing_plan_id":"free"},{"bike_id":"81c7394a-2df3-4997-9673-98efd57fc8ad","system_id":"levelo_inurba_marseille","lat":43.295169,"lon":5.390426,"is_reserved":false,"is_disabled":false,"rental_uris":{"android":"levelo://app?vid=81c7394a-2df3-4997-9673-98efd57fc8ad","ios":"levelo://app?vid=81c7394a-2df3-4997-9673-98efd57fc8ad"},"vehicle_type_id":"4","last_reported":1701868203,"current_range_meters":21600,"station_id":"ce4bh3p2rcd13ifvqdp0","pricing_plan_id":"free"},{"bike_id":"889b85b0-90dd-48fe-a189-ca693cf15424","system_id":"levelo_inurba_marseille","lat":43.290094,"lon":5.381264,"is_reserved":false,"is_disabled":false,"rental_uris":{"android":"levelo://app?vid=889b85b0-90dd-48fe-a189-ca693cf15424","ios":"levelo://app?vid=889b85b0-90dd-48fe-a189-ca693cf15424"},"vehicle_type_id":"4","last_reported":1701868203,"current_range_meters":0,"station_id":"ce4bh4p2rcd13ifvqe1g","pricing_plan_id":"free"},{"bike_id":"342519a6-01ac-4c52-8525-6aa2c75b3b90","system_id":"levelo_inurba_marseille","lat":43.309371,"lon":5.401449,"is_reserved":false,"is_disabled":false,"rental_uris":{"android":"levelo://app?vid=342519a6-01ac-4c52-8525-6aa2c75b3b90","ios":"levelo://app?vid=342519a6-01ac-4c52-8525-6aa2c75b3b90"},"vehicle_type_id":"4","last_reported":1701868203,"current_range_meters":0,"station_id":"ce4bgvp2rcd13ifvqct0","pricing_plan_id":"free"},{"bike_id":"44c1b1b2-0973-4870-b46d-f2780c9c18c7","system_id":"levelo_inurba_marseille","lat":43.337451,"lon":5.374602,"is_reserved":false,"is_disabled":false,"rental_uris":{"android":"levelo://app?vid=44c1b1b2-0973-4870-b46d-f2780c9c18c7","ios":"levelo://app?vid=44c1b1b2-0973-4870-b46d-f2780c9c18c7"},"vehicle_type_id":"4","last_reported":1701868203,"current_range_meters":22000,"station_id":"","pricing_plan_id":"free"},{"bike_id":"e3ac798c-6343-43ea-9327-13ff9d258c8c","system_id":"levelo_inurba_marseille","lat":43.337464,"lon":5.374801,"is_reserved":false,"is_disabled":false,"rental_uris":{"android":"levelo://app?vid=e3ac798c-6343-43ea-9327-13ff9d258c8c","ios":"levelo://app?vid=e3ac798c-6343-43ea-9327-13ff9d258c8c"},"vehicle_type_id":"4","last_reported":1701868203,"current_range_meters":30400,"station_id":"","pricing_plan_id":"free"},{"bike_id":"c1dbbc09-0034-45ec-8bd0-52d9f84cbcd2","system_id":"levelo_inurba_marseille","lat":43.337515,"lon":5.374499,"is_reserved":false,"is_disabled":false,"rental_uris":{"android":"levelo://app?vid=c1dbbc09-0034-45ec-8bd0-52d9f84cbcd2","ios":"levelo://app?vid=c1dbbc09-0034-45ec-8bd0-52d9f84cbcd2"},"vehicle_type_id":"4","last_reported":1701868203,"current_range_meters":29600,"station_id":"","pricing_plan_id":"free"},{"bike_id":"40308147-6528-47d6-910e-82773d58c1cd","system_id":"levelo_inurba_marseille","lat":43.309589,"lon":5.390258,"is_reserved":false,"is_disabled":false,"rental_uris":{"android":"levelo://app?vid=40308147-6528-47d6-910e-82773d58c1cd","ios":"levelo://app?vid=40308147-6528-47d6-910e-82773d58c1cd"},"vehicle_type_id":"4","last_reported":1701868203,"current_range_meters":17200,"station_id":"ce4bgup2rcd13ifvqco0","pricing_plan_id":"free"},{"bike_id":"822605d2-7494-4f1f-8e85-7b21a1e83420","system_id":"levelo_inurba_marseille","lat":43.33752,"lon":5.37483,"is_reserved":false,"is_disabled":false,"rental_uris":{"android":"levelo://app?vid=822605d2-7494-4f1f-8e85-7b21a1e83420","ios":"levelo://app?vid=822605d2-7494-4f1f-8e85-7b21a1e83420"},"vehicle_type_id":"4","last_reported":1701868203,"current_range_meters":24400,"station_id":"","pricing_plan_id":"free"},{"bike_id":"c7696395-4b6d-47c6-ba5e-ed97d58bdf6e","system_id":"levelo_inurba_marseille","lat":43.337579,"lon":5.374603,"is_reserved":false,"is_disabled":false,"rental_uris":{"android":"levelo://app?vid=c7696395-4b6d-47c6-ba5e-ed97d58bdf6e","ios":"levelo://app?vid=c7696395-4b6d-47c6-ba5e-ed97d58bdf6e"},"vehicle_type_id":"4","last_reported":1701868203,"current_range_meters":28400,"station_id":"","pricing_plan_id":"free"},{"bike_id":"c414c01b-a2f8-498a-b878-2b9e16cb8f02","system_id":"levelo_inurba_marseille","lat":43.337635,"lon":5.374484,"is_reserved":false,"is_disabled":false,"rental_uris":{"android":"levelo://app?vid=c414c01b-a2f8-498a-b878-2b9e16cb8f02","ios":"levelo://app?vid=c414c01b-a2f8-498a-b878-2b9e16cb8f02"},"vehicle_type_id":"4","last_reported":1701868203,"current_range_meters":29600,"station_id":"","pricing_plan_id":"free"},{"bike_id":"cc7f0274-00ce-4758-b0f8-4544701fc2b5","system_id":"levelo_inurba_marseille","lat":43.306412,"lon":5.401035,"is_reserved":false,"is_disabled":false,"rental_uris":{"android":"levelo://app?vid=cc7f0274-00ce-4758-b0f8-4544701fc2b5","ios":"levelo://app?vid=cc7f0274-00ce-4758-b0f8-4544701fc2b5"},"vehicle_type_id":"4","last_reported":1701868203,"current_range_meters":6400,"station_id":"ce4bh112rcd13ifvqda0","pricing_plan_id":"free"},{"bike_id":"e658f28b-b7c7-45e4-8c16-61adba012dcb","system_id":"levelo_inurba_marseille","lat":43.33773,"lon":5.37491,"is_reserved":false,"is_disabled":false,"rental_uris":{"android":"levelo://app?vid=e658f28b-b7c7-45e4-8c16-61adba012dcb","ios":"levelo://app?vid=e658f28b-b7c7-45e4-8c16-61adba012dcb"},"vehicle_type_id":"4","last_reported":1701868203,"current_range_meters":31200,"station_id":"","pricing_plan_id":"free"},{"bike_id":"1315ee53-38c3-4fab-ada9-e018d2f7a172","system_id":"levelo_inurba_marseille","lat":43.298681,"lon":5.397225,"is_reserved":false,"is_disabled":false,"rental_uris":{"android":"levelo://app?vid=1315ee53-38c3-4fab-ada9-e018d2f7a172","ios":"levelo://app?vid=1315ee53-38c3-4fab-ada9-e018d2f7a172"},"vehicle_type_id":"4","last_reported":1701868203,"current_range_meters":22800,"station_id":"ce4bh0h2rcd13ifvqd50","pricing_plan_id":"free"},{"bike_id":"220e2288-a458-43a6-a7c7-d20b84dca57e","system_id":"levelo_inurba_marseille","lat":43.286591,"lon":5.363346,"is_reserved":false,"is_disabled":false,"rental_uris":{"android":"levelo://app?vid=220e2288-a458-43a6-a7c7-d20b84dca57e","ios":"levelo://app?vid=220e2288-a458-43a6-a7c7-d20b84dca57e"},"vehicle_type_id":"4","last_reported":1701868203,"current_range_meters":22800,"station_id":"ce4bhah2rcd13ifvqej0","pricing_plan_id":"free"},{"bike_id":"1b44327e-f3c9-4db4-8326-228e21ce185c","system_id":"levelo_inurba_marseille","lat":43.295196,"lon":5.39397,"is_reserved":false,"is_disabled":false,"rental_uris":{"android":"levelo://app?vid=1b44327e-f3c9-4db4-8326-228e21ce185c","ios":"levelo://app?vid=1b44327e-f3c9-4db4-8326-228e21ce185c"},"vehicle_type_id":"4","last_reported":1701868203,"current_range_meters":14000,"station_id":"ce4bh292rcd13ifvqdf0","pricing_plan_id":"free"},{"bike_id":"fc14c62d-0a79-43a1-9930-db72ed4bd285","system_id":"levelo_inurba_marseille","lat":43.295196,"lon":5.39397,"is_reserved":false,"is_disabled":false,"rental_uris":{"android":"levelo://app?vid=fc14c62d-0a79-43a1-9930-db72ed4bd285","ios":"levelo://app?vid=fc14c62d-0a79-43a1-9930-db72ed4bd285"},"vehicle_type_id":"4","last_reported":1701868203,"current_range_meters":20000,"station_id":"ce4bh292rcd13ifvqdf0","pricing_plan_id":"free"},{"bike_id":"2f35af81-5913-4a71-afe5-f1e158f3013a","system_id":"levelo_inurba_marseille","lat":43.290345,"lon":5.38646,"is_reserved":false,"is_disabled":false,"rental_uris":{"android":"levelo://app?vid=2f35af81-5913-4a71-afe5-f1e158f3013a","ios":"levelo://app?vid=2f35af81-5913-4a71-afe5-f1e158f3013a"},"vehicle_type_id":"4","last_reported":1701868203,"current_range_meters":31200,"station_id":"ce4bh4p2rcd13ifvqe0g","pricing_plan_id":"free"},{"bike_id":"c006dd4b-3db6-498b-83f6-8619bc072a79","system_id":"levelo_inurba_marseille","lat":43.290345,"lon":5.38646,"is_reserved":false,"is_disabled":false,"rental_uris":{"android":"levelo://app?vid=c006dd4b-3db6-498b-83f6-8619bc072a79","ios":"levelo://app?vid=c006dd4b-3db6-498b-83f6-8619bc072a79"},"vehicle_type_id":"4","last_reported":1701868203,"current_range_meters":20800,"station_id":"ce4bh4p2rcd13ifvqe0g","pricing_plan_id":"free"},{"bike_id":"be4c88dc-807e-44cf-aa5e-ac963c558c95","system_id":"levelo_inurba_marseille","lat":43.290345,"lon":5.38646,"is_reserved":false,"is_disabled":false,"rental_uris":{"android":"levelo://app?vid=be4c88dc-807e-44cf-aa5e-ac963c558c95","ios":"levelo://app?vid=be4c88dc-807e-44cf-aa5e-ac963c558c95"},"vehicle_type_id":"4","last_reported":1701868203,"current_range_meters":16400,"station_id":"ce4bh4p2rcd13ifvqe0g","pricing_plan_id":"free"},{"bike_id":"4d98fdec-7fc3-4e6f-a8ca-4f648aab6e53","system_id":"levelo_inurba_marseille","lat":43.302759,"lon":5.400793,"is_reserved":false,"is_disabled":false,"rental_uris":{"android":"levelo://app?vid=4d98fdec-7fc3-4e6f-a8ca-4f648aab6e53","ios":"levelo://app?vid=4d98fdec-7fc3-4e6f-a8ca-4f648aab6e53"},"vehicle_type_id":"4","last_reported":1701868203,"current_range_meters":5200,"station_id":"ce4bgvh2rcd13ifvqcs0","pricing_plan_id":"free"},{"bike_id":"06a03168-1721-4c81-8d2b-47af61a70600","system_id":"levelo_inurba_marseille","lat":43.286039,"lon":5.370679,"is_reserved":false,"is_disabled":false,"rental_uris":{"android":"levelo://app?vid=06a03168-1721-4c81-8d2b-47af61a70600","ios":"levelo://app?vid=06a03168-1721-4c81-8d2b-47af61a70600"},"vehicle_type_id":"4","last_reported":1701868203,"current_range_meters":7600,"station_id":"ce4bht12rcd13ifvqi60","pricing_plan_id":"free"},{"bike_id":"c3c19f39-c928-427a-8008-115e12f7ce12","system_id":"levelo_inurba_marseille","lat":43.316517,"lon":5.404375,"is_reserved":false,"is_disabled":false,"rental_uris":{"android":"levelo://app?vid=c3c19f39-c928-427a-8008-115e12f7ce12","ios":"levelo://app?vid=c3c19f39-c928-427a-8008-115e12f7ce12"},"vehicle_type_id":"4","last_reported":1701868203,"current_range_meters":14000,"station_id":"ce4bh012rcd13ifvqd00","pricing_plan_id":"free"},{"bike_id":"c483605c-f11f-45bf-a637-e57b454b19d1","system_id":"levelo_inurba_marseille","lat":43.284538,"lon":5.358657,"is_reserved":false,"is_disabled":false,"rental_uris":{"android":"levelo://app?vid=c483605c-f11f-45bf-a637-e57b454b19d1","ios":"levelo://app?vid=c483605c-f11f-45bf-a637-e57b454b19d1"},"vehicle_type_id":"4","last_reported":1701868203,"current_range_meters":2800,"station_id":"ce4bhah2rcd13ifvqei0","pricing_plan_id":"free"},{"bike_id":"ab111484-c208-4087-aa3d-12d1d6315cad","system_id":"levelo_inurba_marseille","lat":43.286113,"lon":5.351036,"is_reserved":false,"is_disabled":false,"rental_uris":{"android":"levelo://app?vid=ab111484-c208-4087-aa3d-12d1d6315cad","ios":"levelo://app?vid=ab111484-c208-4087-aa3d-12d1d6315cad"},"vehicle_type_id":"4","last_reported":1701868203,"current_range_meters":23600,"station_id":"ce4bhch2rcd13ifvqeug","pricing_plan_id":"free"},{"bike_id":"e78ed1da-de0e-41fa-b418-e08a16765915","system_id":"levelo_inurba_marseille","lat":43.33717,"lon":5.391857,"is_reserved":false,"is_disabled":false,"rental_uris":{"android":"levelo://app?vid=e78ed1da-de0e-41fa-b418-e08a16765915","ios":"levelo://app?vid=e78ed1da-de0e-41fa-b418-e08a16765915"},"vehicle_type_id":"4","last_reported":1701868203,"current_range_meters":24800,"station_id":"ce4bhr92rcd13ifvqhsg","pricing_plan_id":"free"},{"bike_id":"ec42ce68-1ad3-48cd-9e1e-4c2199a2bfbc","system_id":"levelo_inurba_marseille","lat":43.337168,"lon":5.391825,"is_reserved":false,"is_disabled":false,"rental_uris":{"android":"levelo://app?vid=ec42ce68-1ad3-48cd-9e1e-4c2199a2bfbc","ios":"levelo://app?vid=ec42ce68-1ad3-48cd-9e1e-4c2199a2bfbc"},"vehicle_type_id":"4","last_reported":1701868203,"current_range_meters":29200,"station_id":"ce4bhr92rcd13ifvqhsg","pricing_plan_id":"free"},{"bike_id":"47f70068-fc8c-4884-98bc-083d8dad1d10","system_id":"levelo_inurba_marseille","lat":43.323464,"lon":5.406297,"is_reserved":false,"is_disabled":false,"rental_uris":{"android":"levelo://app?vid=47f70068-fc8c-4884-98bc-083d8dad1d10","ios":"levelo://app?vid=47f70068-fc8c-4884-98bc-083d8dad1d10"},"vehicle_type_id":"4","last_reported":1701868203,"current_range_meters":20400,"station_id":"ce4bhq92rcd13ifvqhjg","pricing_plan_id":"free"},{"bike_id":"f125b516-ac54-409a-a486-38d507b65063","system_id":"levelo_inurba_marseille","lat":43.323464,"lon":5.406297,"is_reserved":false,"is_disabled":false,"rental_uris":{"android":"levelo://app?vid=f125b516-ac54-409a-a486-38d507b65063","ios":"levelo://app?vid=f125b516-ac54-409a-a486-38d507b65063"},"vehicle_type_id":"4","last_reported":1701868203,"current_range_meters":12400,"station_id":"ce4bhq92rcd13ifvqhjg","pricing_plan_id":"free"},{"bike_id":"50eec19d-b8f0-4c45-bd69-dd6d045cc17f","system_id":"levelo_inurba_marseille","lat":43.283494,"lon":5.380945,"is_reserved":false,"is_disabled":false,"rental_uris":{"android":"levelo://app?vid=50eec19d-b8f0-4c45-bd69-dd6d045cc17f","ios":"levelo://app?vid=50eec19d-b8f0-4c45-bd69-dd6d045cc17f"},"vehicle_type_id":"4","last_reported":1701868203,"current_range_meters":12400,"station_id":"ce4bh412rcd13ifvqdr0","pricing_plan_id":"free"},{"bike_id":"4d67eda1-7426-4d49-8e7c-3dc228a5b2fe","system_id":"levelo_inurba_marseille","lat":43.284219,"lon":5.3497,"is_reserved":false,"is_disabled":false,"rental_uris":{"android":"levelo://app?vid=4d67eda1-7426-4d49-8e7c-3dc228a5b2fe","ios":"levelo://app?vid=4d67eda1-7426-4d49-8e7c-3dc228a5b2fe"},"vehicle_type_id":"4","last_reported":1701868203,"current_range_meters":26000,"station_id":"ce4bhbh2rcd13ifvqepg","pricing_plan_id":"free"},{"bike_id":"b91e830c-554f-4257-9167-aada8e057a41","system_id":"levelo_inurba_marseille","lat":43.284219,"lon":5.3497,"is_reserved":false,"is_disabled":false,"rental_uris":{"android":"levelo://app?vid=b91e830c-554f-4257-9167-aada8e057a41","ios":"levelo://app?vid=b91e830c-554f-4257-9167-aada8e057a41"},"vehicle_type_id":"4","last_reported":1701868203,"current_range_meters":18000,"station_id":"ce4bhbh2rcd13ifvqepg","pricing_plan_id":"free"},{"bike_id":"6717e6be-a52c-4c73-a5ee-7132300ab459","system_id":"levelo_inurba_marseille","lat":43.284219,"lon":5.3497,"is_reserved":false,"is_disabled":false,"rental_uris":{"android":"levelo://app?vid=6717e6be-a52c-4c73-a5ee-7132300ab459","ios":"levelo://app?vid=6717e6be-a52c-4c73-a5ee-7132300ab459"},"vehicle_type_id":"4","last_reported":1701868203,"current_range_meters":14800,"station_id":"ce4bhbh2rcd13ifvqepg","pricing_plan_id":"free"},{"bike_id":"968e0f8d-882a-4de5-a7ed-f711fba03ac0","system_id":"levelo_inurba_marseille","lat":43.282754,"lon":5.350519,"is_reserved":false,"is_disabled":false,"rental_uris":{"android":"levelo://app?vid=968e0f8d-882a-4de5-a7ed-f711fba03ac0","ios":"levelo://app?vid=968e0f8d-882a-4de5-a7ed-f711fba03ac0"},"vehicle_type_id":"4","last_reported":1701868203,"current_range_meters":14400,"station_id":"ce4bhbp2rcd13ifvqerg","pricing_plan_id":"free"},{"bike_id":"6fef5b55-7352-447e-adeb-747c11f7785d","system_id":"levelo_inurba_marseille","lat":43.28039,"lon":5.369297,"is_reserved":false,"is_disabled":false,"rental_uris":{"android":"levelo://app?vid=6fef5b55-7352-447e-adeb-747c11f7785d","ios":"levelo://app?vid=6fef5b55-7352-447e-adeb-747c11f7785d"},"vehicle_type_id":"4","last_reported":1701868203,"current_range_meters":26800,"station_id":"ce4bha12rcd13ifvqef0","pricing_plan_id":"free"},{"bike_id":"f811cd38-647b-4797-a386-45c34718913d","system_id":"levelo_inurba_marseille","lat":43.280382,"lon":5.369291,"is_reserved":false,"is_disabled":false,"rental_uris":{"android":"levelo://app?vid=f811cd38-647b-4797-a386-45c34718913d","ios":"levelo://app?vid=f811cd38-647b-4797-a386-45c34718913d"},"vehicle_type_id":"4","last_reported":1701868203,"current_range_meters":24000,"station_id":"ce4bha12rcd13ifvqef0","pricing_plan_id":"free"},{"bike_id":"cc74ef50-5f0f-4832-ae0a-0e369cc91aba","system_id":"levelo_inurba_marseille","lat":43.296263,"lon":5.40601,"is_reserved":false,"is_disabled":false,"rental_uris":{"android":"levelo://app?vid=cc74ef50-5f0f-4832-ae0a-0e369cc91aba","ios":"levelo://app?vid=cc74ef50-5f0f-4832-ae0a-0e369cc91aba"},"vehicle_type_id":"4","last_reported":1701868203,"current_range_meters":11600,"station_id":"ce4bh0h2rcd13ifvqd60","pricing_plan_id":"free"},{"bike_id":"a30f5e4c-6913-4e87-970c-66fce93ae2bb","system_id":"levelo_inurba_marseille","lat":43.284462,"lon":5.392121,"is_reserved":false,"is_disabled":false,"rental_uris":{"android":"levelo://app?vid=a30f5e4c-6913-4e87-970c-66fce93ae2bb","ios":"levelo://app?vid=a30f5e4c-6913-4e87-970c-66fce93ae2bb"},"vehicle_type_id":"4","last_reported":1701868203,"current_range_meters":28000,"station_id":"ce4bhoh2rcd13ifvqh5g","pricing_plan_id":"free"},{"bike_id":"b5a74636-0227-446f-9eca-5becd3896443","system_id":"levelo_inurba_marseille","lat":43.284462,"lon":5.392121,"is_reserved":false,"is_disabled":false,"rental_uris":{"android":"levelo://app?vid=b5a74636-0227-446f-9eca-5becd3896443","ios":"levelo://app?vid=b5a74636-0227-446f-9eca-5becd3896443"},"vehicle_type_id":"4","last_reported":1701868203,"current_range_meters":800,"station_id":"ce4bhoh2rcd13ifvqh5g","pricing_plan_id":"free"},{"bike_id":"f6880b93-a057-41a4-8211-82e5827f54a7","system_id":"levelo_inurba_marseille","lat":43.284462,"lon":5.392121,"is_reserved":false,"is_disabled":false,"rental_uris":{"android":"levelo://app?vid=f6880b93-a057-41a4-8211-82e5827f54a7","ios":"levelo://app?vid=f6880b93-a057-41a4-8211-82e5827f54a7"},"vehicle_type_id":"4","last_reported":1701868203,"current_range_meters":14400,"station_id":"ce4bhoh2rcd13ifvqh5g","pricing_plan_id":"free"},{"bike_id":"c4086dd2-cd1b-482a-ab4b-fc22a0cc1357","system_id":"levelo_inurba_marseille","lat":43.284462,"lon":5.392121,"is_reserved":false,"is_disabled":false,"rental_uris":{"android":"levelo://app?vid=c4086dd2-cd1b-482a-ab4b-fc22a0cc1357","ios":"levelo://app?vid=c4086dd2-cd1b-482a-ab4b-fc22a0cc1357"},"vehicle_type_id":"4","last_reported":1701868203,"current_range_meters":14000,"station_id":"ce4bhoh2rcd13ifvqh5g","pricing_plan_id":"free"},{"bike_id":"e34a95a0-7cff-4e77-94f9-439c52572039","system_id":"levelo_inurba_marseille","lat":43.285742,"lon":5.395004,"is_reserved":false,"is_disabled":false,"rental_uris":{"android":"levelo://app?vid=e34a95a0-7cff-4e77-94f9-439c52572039","ios":"levelo://app?vid=e34a95a0-7cff-4e77-94f9-439c52572039"},"vehicle_type_id":"4","last_reported":1701868203,"current_range_meters":24400,"station_id":"ce4bh292rcd13ifvqdg0","pricing_plan_id":"free"},{"bike_id":"92af68b0-493d-4e51-a7de-74acc05915e2","system_id":"levelo_inurba_marseille","lat":43.279087,"lon":5.380114,"is_reserved":false,"is_disabled":false,"rental_uris":{"android":"levelo://app?vid=92af68b0-493d-4e51-a7de-74acc05915e2","ios":"levelo://app?vid=92af68b0-493d-4e51-a7de-74acc05915e2"},"vehicle_type_id":"4","last_reported":1701868203,"current_range_meters":16800,"station_id":"ce4bhf92rcd13ifvqf50","pricing_plan_id":"free"},{"bike_id":"cec6daa9-0552-4c5f-83c1-1a488b38c7a8","system_id":"levelo_inurba_marseille","lat":43.279087,"lon":5.380114,"is_reserved":false,"is_disabled":false,"rental_uris":{"android":"levelo://app?vid=cec6daa9-0552-4c5f-83c1-1a488b38c7a8","ios":"levelo://app?vid=cec6daa9-0552-4c5f-83c1-1a488b38c7a8"},"vehicle_type_id":"4","last_reported":1701868203,"current_range_meters":27600,"station_id":"ce4bhf92rcd13ifvqf50","pricing_plan_id":"free"},{"bike_id":"fbc0a71e-a8e0-45ed-9c78-2812e45f60e0","system_id":"levelo_inurba_marseille","lat":43.279,"lon":5.38025,"is_reserved":false,"is_disabled":false,"rental_uris":{"android":"levelo://app?vid=fbc0a71e-a8e0-45ed-9c78-2812e45f60e0","ios":"levelo://app?vid=fbc0a71e-a8e0-45ed-9c78-2812e45f60e0"},"vehicle_type_id":"4","last_reported":1701868203,"current_range_meters":14000,"station_id":"ce4bhf92rcd13ifvqf50","pricing_plan_id":"free"},{"bike_id":"74dff095-6944-424e-ac10-68dad825ad60","system_id":"levelo_inurba_marseille","lat":43.320045,"lon":5.415046,"is_reserved":false,"is_disabled":false,"rental_uris":{"android":"levelo://app?vid=74dff095-6944-424e-ac10-68dad825ad60","ios":"levelo://app?vid=74dff095-6944-424e-ac10-68dad825ad60"},"vehicle_type_id":"4","last_reported":1701868203,"current_range_meters":30000,"station_id":"ce4bhq92rcd13ifvqhkg","pricing_plan_id":"free"},{"bike_id":"e89e6256-0aa8-4359-9236-a03d3a412c2b","system_id":"levelo_inurba_marseille","lat":43.279742,"lon":5.38744,"is_reserved":false,"is_disabled":false,"rental_uris":{"android":"levelo://app?vid=e89e6256-0aa8-4359-9236-a03d3a412c2b","ios":"levelo://app?vid=e89e6256-0aa8-4359-9236-a03d3a412c2b"},"vehicle_type_id":"4","last_reported":1701868203,"current_range_meters":9200,"station_id":"ce4bhg12rcd13ifvqf80","pricing_plan_id":"free"},{"bike_id":"29b87346-aacd-456d-b919-8d52707f2168","system_id":"levelo_inurba_marseille","lat":43.320045,"lon":5.415046,"is_reserved":false,"is_disabled":false,"rental_uris":{"android":"levelo://app?vid=29b87346-aacd-456d-b919-8d52707f2168","ios":"levelo://app?vid=29b87346-aacd-456d-b919-8d52707f2168"},"vehicle_type_id":"4","last_reported":1701868203,"current_range_meters":30800,"station_id":"ce4bhq92rcd13ifvqhkg","pricing_plan_id":"free"},{"bike_id":"61fc1393-bc29-4b70-89e8-dd7c00df8956","system_id":"levelo_inurba_marseille","lat":43.279742,"lon":5.38744,"is_reserved":false,"is_disabled":false,"rental_uris":{"android":"levelo://app?vid=61fc1393-bc29-4b70-89e8-dd7c00df8956","ios":"levelo://app?vid=61fc1393-bc29-4b70-89e8-dd7c00df8956"},"vehicle_type_id":"4","last_reported":1701868203,"current_range_meters":5200,"station_id":"ce4bhg12rcd13ifvqf80","pricing_plan_id":"free"},{"bike_id":"198f4b7b-3fb0-42d8-9320-3c61919b94cf","system_id":"levelo_inurba_marseille","lat":43.279742,"lon":5.38744,"is_reserved":false,"is_disabled":false,"rental_uris":{"android":"levelo://app?vid=198f4b7b-3fb0-42d8-9320-3c61919b94cf","ios":"levelo://app?vid=198f4b7b-3fb0-42d8-9320-3c61919b94cf"},"vehicle_type_id":"4","last_reported":1701868203,"current_range_meters":11600,"station_id":"ce4bhg12rcd13ifvqf80","pricing_plan_id":"free"},{"bike_id":"02d120eb-20e8-4c2b-b7fe-53c4ddf31275","system_id":"levelo_inurba_marseille","lat":43.325243,"lon":5.414326,"is_reserved":false,"is_disabled":false,"rental_uris":{"android":"levelo://app?vid=02d120eb-20e8-4c2b-b7fe-53c4ddf31275","ios":"levelo://app?vid=02d120eb-20e8-4c2b-b7fe-53c4ddf31275"},"vehicle_type_id":"4","last_reported":1701868203,"current_range_meters":8800,"station_id":"ce4bhq12rcd13ifvqhhg","pricing_plan_id":"free"},{"bike_id":"412e119b-5f26-40ac-9cbf-3612e099d935","system_id":"levelo_inurba_marseille","lat":43.32556,"lon":5.41437,"is_reserved":false,"is_disabled":false,"rental_uris":{"android":"levelo://app?vid=412e119b-5f26-40ac-9cbf-3612e099d935","ios":"levelo://app?vid=412e119b-5f26-40ac-9cbf-3612e099d935"},"vehicle_type_id":"4","last_reported":1701868203,"current_range_meters":0,"station_id":"ce4bhq12rcd13ifvqhhg","pricing_plan_id":"free"},{"bike_id":"62879fbf-7ff0-4a70-86fe-14dd94b349d2","system_id":"levelo_inurba_marseille","lat":43.32544,"lon":5.41445,"is_reserved":false,"is_disabled":false,"rental_uris":{"android":"levelo://app?vid=62879fbf-7ff0-4a70-86fe-14dd94b349d2","ios":"levelo://app?vid=62879fbf-7ff0-4a70-86fe-14dd94b349d2"},"vehicle_type_id":"4","last_reported":1701868203,"current_range_meters":4000,"station_id":"ce4bhq12rcd13ifvqhhg","pricing_plan_id":"free"},{"bike_id":"5094ef50-cc30-4c0c-b75e-69ab54f920ae","system_id":"levelo_inurba_marseille","lat":43.278128,"lon":5.407195,"is_reserved":false,"is_disabled":false,"rental_uris":{"android":"levelo://app?vid=5094ef50-cc30-4c0c-b75e-69ab54f920ae","ios":"levelo://app?vid=5094ef50-cc30-4c0c-b75e-69ab54f920ae"},"vehicle_type_id":"4","last_reported":1701868203,"current_range_meters":22400,"station_id":"ce4bhnh2rcd13ifvqgtg","pricing_plan_id":"free"},{"bike_id":"8a5b6e85-bb3e-47ae-9e28-b4f7dd313648","system_id":"levelo_inurba_marseille","lat":43.278399,"lon":5.392139,"is_reserved":false,"is_disabled":false,"rental_uris":{"android":"levelo://app?vid=8a5b6e85-bb3e-47ae-9e28-b4f7dd313648","ios":"levelo://app?vid=8a5b6e85-bb3e-47ae-9e28-b4f7dd313648"},"vehicle_type_id":"4","last_reported":1701868203,"current_range_meters":22000,"station_id":"ce4bhjp2rcd13ifvqga0","pricing_plan_id":"free"},{"bike_id":"75a2b667-2bd6-4148-baef-780309bbc529","system_id":"levelo_inurba_marseille","lat":43.275625,"lon":5.384392,"is_reserved":false,"is_disabled":false,"rental_uris":{"android":"levelo://app?vid=75a2b667-2bd6-4148-baef-780309bbc529","ios":"levelo://app?vid=75a2b667-2bd6-4148-baef-780309bbc529"},"vehicle_type_id":"4","last_reported":1701868203,"current_range_meters":28000,"station_id":"ce4bhh92rcd13ifvqfi0","pricing_plan_id":"free"},{"bike_id":"0d79fa90-e357-4fe9-92a1-5c75eba6097e","system_id":"levelo_inurba_marseille","lat":43.275625,"lon":5.384392,"is_reserved":false,"is_disabled":false,"rental_uris":{"android":"levelo://app?vid=0d79fa90-e357-4fe9-92a1-5c75eba6097e","ios":"levelo://app?vid=0d79fa90-e357-4fe9-92a1-5c75eba6097e"},"vehicle_type_id":"4","last_reported":1701868203,"current_range_meters":13600,"station_id":"ce4bhh92rcd13ifvqfi0","pricing_plan_id":"free"},{"bike_id":"49887d6e-45bf-426f-bcf7-4f15ec2b06db","system_id":"levelo_inurba_marseille","lat":43.273609,"lon":5.362708,"is_reserved":false,"is_disabled":false,"rental_uris":{"android":"levelo://app?vid=49887d6e-45bf-426f-bcf7-4f15ec2b06db","ios":"levelo://app?vid=49887d6e-45bf-426f-bcf7-4f15ec2b06db"},"vehicle_type_id":"4","last_reported":1701868203,"current_range_meters":30400,"station_id":"ce4bhbh2rcd13ifvqeo0","pricing_plan_id":"free"},{"bike_id":"c34f5cff-352e-4b5d-aa20-163a588c69f9","system_id":"levelo_inurba_marseille","lat":43.336,"lon":5.41027,"is_reserved":false,"is_disabled":false,"rental_uris":{"android":"levelo://app?vid=c34f5cff-352e-4b5d-aa20-163a588c69f9","ios":"levelo://app?vid=c34f5cff-352e-4b5d-aa20-163a588c69f9"},"vehicle_type_id":"4","last_reported":1701868203,"current_range_meters":31200,"station_id":"ce4bhqh2rcd13ifvqhmg","pricing_plan_id":"free"},{"bike_id":"fc097290-25ff-460b-b252-b06b7c0e7d70","system_id":"levelo_inurba_marseille","lat":43.276769,"lon":5.388787,"is_reserved":false,"is_disabled":false,"rental_uris":{"android":"levelo://app?vid=fc097290-25ff-460b-b252-b06b7c0e7d70","ios":"levelo://app?vid=fc097290-25ff-460b-b252-b06b7c0e7d70"},"vehicle_type_id":"4","last_reported":1701868203,"current_range_meters":28000,"station_id":"ce4bhi12rcd13ifvqfo0","pricing_plan_id":"free"},{"bike_id":"fa0af65c-dc22-4649-a6ea-10ea99d76fc5","system_id":"levelo_inurba_marseille","lat":43.276771,"lon":5.388799,"is_reserved":false,"is_disabled":false,"rental_uris":{"android":"levelo://app?vid=fa0af65c-dc22-4649-a6ea-10ea99d76fc5","ios":"levelo://app?vid=fa0af65c-dc22-4649-a6ea-10ea99d76fc5"},"vehicle_type_id":"4","last_reported":1701868203,"current_range_meters":22400,"station_id":"ce4bhi12rcd13ifvqfo0","pricing_plan_id":"free"},{"bike_id":"03c5f7be-f218-4047-94ad-24ab34c57a88","system_id":"levelo_inurba_marseille","lat":43.279952,"lon":5.400085,"is_reserved":false,"is_disabled":false,"rental_uris":{"android":"levelo://app?vid=03c5f7be-f218-4047-94ad-24ab34c57a88","ios":"levelo://app?vid=03c5f7be-f218-4047-94ad-24ab34c57a88"},"vehicle_type_id":"4","last_reported":1701868203,"current_range_meters":6800,"station_id":"ce4bho92rcd13ifvqh4g","pricing_plan_id":"free"},{"bike_id":"283b1518-47c4-4c7a-aece-e76435d9d17e","system_id":"levelo_inurba_marseille","lat":43.27622,"lon":5.39483,"is_reserved":false,"is_disabled":false,"rental_uris":{"android":"levelo://app?vid=283b1518-47c4-4c7a-aece-e76435d9d17e","ios":"levelo://app?vid=283b1518-47c4-4c7a-aece-e76435d9d17e"},"vehicle_type_id":"4","last_reported":1701868203,"current_range_meters":8800,"station_id":"","pricing_plan_id":"free"},{"bike_id":"48a1a1a4-e735-401c-83e7-33c2c02dc144","system_id":"levelo_inurba_marseille","lat":43.317121,"lon":5.423936,"is_reserved":false,"is_disabled":false,"rental_uris":{"android":"levelo://app?vid=48a1a1a4-e735-401c-83e7-33c2c02dc144","ios":"levelo://app?vid=48a1a1a4-e735-401c-83e7-33c2c02dc144"},"vehicle_type_id":"4","last_reported":1701868203,"current_range_meters":21600,"station_id":"ce4bhp92rcd13ifvqhbg","pricing_plan_id":"free"},{"bike_id":"422ecc8f-7144-4d8f-b16a-0be1ac2026f0","system_id":"levelo_inurba_marseille","lat":43.275689,"lon":5.395394,"is_reserved":false,"is_disabled":false,"rental_uris":{"android":"levelo://app?vid=422ecc8f-7144-4d8f-b16a-0be1ac2026f0","ios":"levelo://app?vid=422ecc8f-7144-4d8f-b16a-0be1ac2026f0"},"vehicle_type_id":"4","last_reported":1701868203,"current_range_meters":2400,"station_id":"","pricing_plan_id":"free"},{"bike_id":"b2af3ff3-1dbe-42b6-add2-99e0ac98c566","system_id":"levelo_inurba_marseille","lat":43.273125,"lon":5.390731,"is_reserved":false,"is_disabled":false,"rental_uris":{"android":"levelo://app?vid=b2af3ff3-1dbe-42b6-add2-99e0ac98c566","ios":"levelo://app?vid=b2af3ff3-1dbe-42b6-add2-99e0ac98c566"},"vehicle_type_id":"4","last_reported":1701868203,"current_range_meters":0,"station_id":"ce4bhgp2rcd13ifvqfe0","pricing_plan_id":"free"},{"bike_id":"9c87a941-ae14-4864-9d46-5e577727df9e","system_id":"levelo_inurba_marseille","lat":43.304096,"lon":5.425385,"is_reserved":false,"is_disabled":false,"rental_uris":{"android":"levelo://app?vid=9c87a941-ae14-4864-9d46-5e577727df9e","ios":"levelo://app?vid=9c87a941-ae14-4864-9d46-5e577727df9e"},"vehicle_type_id":"4","last_reported":1701868203,"current_range_meters":800,"station_id":"ce4bhoh2rcd13ifvqh6g","pricing_plan_id":"free"},{"bike_id":"e28fb009-97bc-41ac-84b0-e9a922d9b482","system_id":"levelo_inurba_marseille","lat":43.295523,"lon":5.422926,"is_reserved":false,"is_disabled":false,"rental_uris":{"android":"levelo://app?vid=e28fb009-97bc-41ac-84b0-e9a922d9b482","ios":"levelo://app?vid=e28fb009-97bc-41ac-84b0-e9a922d9b482"},"vehicle_type_id":"4","last_reported":1701868203,"current_range_meters":26800,"station_id":"ce4bhph2rcd13ifvqhdg","pricing_plan_id":"free"},{"bike_id":"77e2df1b-d75a-48fe-a6ad-744dfbe91f1d","system_id":"levelo_inurba_marseille","lat":43.27214,"lon":5.3925,"is_reserved":false,"is_disabled":false,"rental_uris":{"android":"levelo://app?vid=77e2df1b-d75a-48fe-a6ad-744dfbe91f1d","ios":"levelo://app?vid=77e2df1b-d75a-48fe-a6ad-744dfbe91f1d"},"vehicle_type_id":"4","last_reported":1701868203,"current_range_meters":13200,"station_id":"","pricing_plan_id":"free"},{"bike_id":"aec225cb-6bc2-4980-8167-aa44d5eb91a6","system_id":"levelo_inurba_marseille","lat":43.278128,"lon":5.407195,"is_reserved":false,"is_disabled":false,"rental_uris":{"android":"levelo://app?vid=aec225cb-6bc2-4980-8167-aa44d5eb91a6","ios":"levelo://app?vid=aec225cb-6bc2-4980-8167-aa44d5eb91a6"},"vehicle_type_id":"4","last_reported":1701868203,"current_range_meters":22400,"station_id":"ce4bhnh2rcd13ifvqgtg","pricing_plan_id":"free"},{"bike_id":"afe1e6d0-8dec-436b-a77f-dc3260647887","system_id":"levelo_inurba_marseille","lat":43.278128,"lon":5.407195,"is_reserved":false,"is_disabled":false,"rental_uris":{"android":"levelo://app?vid=afe1e6d0-8dec-436b-a77f-dc3260647887","ios":"levelo://app?vid=afe1e6d0-8dec-436b-a77f-dc3260647887"},"vehicle_type_id":"4","last_reported":1701868203,"current_range_meters":18400,"station_id":"ce4bhnh2rcd13ifvqgtg","pricing_plan_id":"free"},{"bike_id":"7daa6ba6-81b7-4094-9bb6-848156c9301e","system_id":"levelo_inurba_marseille","lat":43.269319,"lon":5.389397,"is_reserved":false,"is_disabled":false,"rental_uris":{"android":"levelo://app?vid=7daa6ba6-81b7-4094-9bb6-848156c9301e","ios":"levelo://app?vid=7daa6ba6-81b7-4094-9bb6-848156c9301e"},"vehicle_type_id":"4","last_reported":1701868203,"current_range_meters":18000,"station_id":"ce4bhhh2rcd13ifvqfl0","pricing_plan_id":"free"},{"bike_id":"09ddacd2-2397-4fe9-843e-3dc35fab16a8","system_id":"levelo_inurba_marseille","lat":43.26681,"lon":5.382694,"is_reserved":false,"is_disabled":false,"rental_uris":{"android":"levelo://app?vid=09ddacd2-2397-4fe9-843e-3dc35fab16a8","ios":"levelo://app?vid=09ddacd2-2397-4fe9-843e-3dc35fab16a8"},"vehicle_type_id":"4","last_reported":1701868203,"current_range_meters":19600,"station_id":"ce4bhg92rcd13ifvqf90","pricing_plan_id":"free"},{"bike_id":"ecb7156a-924c-49e1-90c4-71c947c6fedf","system_id":"levelo_inurba_marseille","lat":43.265714,"lon":5.372891,"is_reserved":false,"is_disabled":false,"rental_uris":{"android":"levelo://app?vid=ecb7156a-924c-49e1-90c4-71c947c6fedf","ios":"levelo://app?vid=ecb7156a-924c-49e1-90c4-71c947c6fedf"},"vehicle_type_id":"4","last_reported":1701868203,"current_range_meters":9600,"station_id":"ce4bhg12rcd13ifvqf70","pricing_plan_id":"free"},{"bike_id":"2269ab36-3a8a-40c9-a6fb-1835e367e0df","system_id":"levelo_inurba_marseille","lat":43.265714,"lon":5.372891,"is_reserved":false,"is_disabled":false,"rental_uris":{"android":"levelo://app?vid=2269ab36-3a8a-40c9-a6fb-1835e367e0df","ios":"levelo://app?vid=2269ab36-3a8a-40c9-a6fb-1835e367e0df"},"vehicle_type_id":"4","last_reported":1701868203,"current_range_meters":17200,"station_id":"ce4bhg12rcd13ifvqf70","pricing_plan_id":"free"},{"bike_id":"d1fe44cb-a304-4c24-8d87-a28d6daf209a","system_id":"levelo_inurba_marseille","lat":43.308051,"lon":5.43527,"is_reserved":false,"is_disabled":false,"rental_uris":{"android":"levelo://app?vid=d1fe44cb-a304-4c24-8d87-a28d6daf209a","ios":"levelo://app?vid=d1fe44cb-a304-4c24-8d87-a28d6daf209a"},"vehicle_type_id":"4","last_reported":1701868203,"current_range_meters":6000,"station_id":"ce4bhph2rcd13ifvqheg","pricing_plan_id":"free"},{"bike_id":"39265336-0d71-4f3d-9042-5c6c78cd8aa1","system_id":"levelo_inurba_marseille","lat":43.265703,"lon":5.390145,"is_reserved":false,"is_disabled":false,"rental_uris":{"android":"levelo://app?vid=39265336-0d71-4f3d-9042-5c6c78cd8aa1","ios":"levelo://app?vid=39265336-0d71-4f3d-9042-5c6c78cd8aa1"},"vehicle_type_id":"4","last_reported":1701868203,"current_range_meters":26800,"station_id":"ce4bhe12rcd13ifvqf30","pricing_plan_id":"free"},{"bike_id":"d15f1463-e4b2-40cb-926d-f12a94c37dbd","system_id":"levelo_inurba_marseille","lat":43.26941,"lon":5.40266,"is_reserved":false,"is_disabled":false,"rental_uris":{"android":"levelo://app?vid=d15f1463-e4b2-40cb-926d-f12a94c37dbd","ios":"levelo://app?vid=d15f1463-e4b2-40cb-926d-f12a94c37dbd"},"vehicle_type_id":"4","last_reported":1701868203,"current_range_meters":0,"station_id":"cjm6bp8fraef2m0cb0m0","pricing_plan_id":"free"},{"bike_id":"a25b46cb-c48b-4a96-9869-c85d1ef25a0f","system_id":"levelo_inurba_marseille","lat":43.298768,"lon":5.43643,"is_reserved":false,"is_disabled":false,"rental_uris":{"android":"levelo://app?vid=a25b46cb-c48b-4a96-9869-c85d1ef25a0f","ios":"levelo://app?vid=a25b46cb-c48b-4a96-9869-c85d1ef25a0f"},"vehicle_type_id":"4","last_reported":1701868203,"current_range_meters":26000,"station_id":"ce4bhpp2rcd13ifvqhfg","pricing_plan_id":"free"},{"bike_id":"e80a3a47-620b-4676-9864-80d5b53869ca","system_id":"levelo_inurba_marseille","lat":43.281548,"lon":5.42643,"is_reserved":false,"is_disabled":false,"rental_uris":{"android":"levelo://app?vid=e80a3a47-620b-4676-9864-80d5b53869ca","ios":"levelo://app?vid=e80a3a47-620b-4676-9864-80d5b53869ca"},"vehicle_type_id":"4","last_reported":1701868203,"current_range_meters":18400,"station_id":"ce4bhnh2rcd13ifvqgug","pricing_plan_id":"free"},{"bike_id":"ee765aba-32c7-4a7f-8e72-8501e85ff29c","system_id":"levelo_inurba_marseille","lat":43.281548,"lon":5.42643,"is_reserved":false,"is_disabled":false,"rental_uris":{"android":"levelo://app?vid=ee765aba-32c7-4a7f-8e72-8501e85ff29c","ios":"levelo://app?vid=ee765aba-32c7-4a7f-8e72-8501e85ff29c"},"vehicle_type_id":"4","last_reported":1701868203,"current_range_meters":3600,"station_id":"ce4bhnh2rcd13ifvqgug","pricing_plan_id":"free"},{"bike_id":"a267938e-d276-4a36-956e-9992c4dc0c16","system_id":"levelo_inurba_marseille","lat":43.281548,"lon":5.42643,"is_reserved":false,"is_disabled":false,"rental_uris":{"android":"levelo://app?vid=a267938e-d276-4a36-956e-9992c4dc0c16","ios":"levelo://app?vid=a267938e-d276-4a36-956e-9992c4dc0c16"},"vehicle_type_id":"4","last_reported":1701868203,"current_range_meters":21600,"station_id":"ce4bhnh2rcd13ifvqgug","pricing_plan_id":"free"},{"bike_id":"58e78dbd-26ed-4c1b-958a-ea0648eed3fb","system_id":"levelo_inurba_marseille","lat":43.2607,"lon":5.393983,"is_reserved":false,"is_disabled":false,"rental_uris":{"android":"levelo://app?vid=58e78dbd-26ed-4c1b-958a-ea0648eed3fb","ios":"levelo://app?vid=58e78dbd-26ed-4c1b-958a-ea0648eed3fb"},"vehicle_type_id":"4","last_reported":1701868203,"current_range_meters":28400,"station_id":"ce4bhh92rcd13ifvqfj0","pricing_plan_id":"free"},{"bike_id":"3ee3b409-3726-4936-9d58-67c92d42618a","system_id":"levelo_inurba_marseille","lat":43.258224,"lon":5.394369,"is_reserved":false,"is_disabled":false,"rental_uris":{"android":"levelo://app?vid=3ee3b409-3726-4936-9d58-67c92d42618a","ios":"levelo://app?vid=3ee3b409-3726-4936-9d58-67c92d42618a"},"vehicle_type_id":"4","last_reported":1701868203,"current_range_meters":24800,"station_id":"ce4bhip2rcd13ifvqft0","pricing_plan_id":"free"},{"bike_id":"d230b8ff-f662-4a20-a1fc-a6d6a847daa1","system_id":"levelo_inurba_marseille","lat":43.254947,"lon":5.376454,"is_reserved":false,"is_disabled":false,"rental_uris":{"android":"levelo://app?vid=d230b8ff-f662-4a20-a1fc-a6d6a847daa1","ios":"levelo://app?vid=d230b8ff-f662-4a20-a1fc-a6d6a847daa1"},"vehicle_type_id":"4","last_reported":1701868203,"current_range_meters":6800,"station_id":"ce4bhh12rcd13ifvqff0","pricing_plan_id":"free"},{"bike_id":"8c1f02f4-1a17-4d73-9182-bd5ce3398fc0","system_id":"levelo_inurba_marseille","lat":43.254947,"lon":5.376454,"is_reserved":false,"is_disabled":false,"rental_uris":{"android":"levelo://app?vid=8c1f02f4-1a17-4d73-9182-bd5ce3398fc0","ios":"levelo://app?vid=8c1f02f4-1a17-4d73-9182-bd5ce3398fc0"},"vehicle_type_id":"4","last_reported":1701868203,"current_range_meters":16400,"station_id":"ce4bhh12rcd13ifvqff0","pricing_plan_id":"free"},{"bike_id":"0d65d35c-c562-4524-8dbe-5b6cef2f2c2b","system_id":"levelo_inurba_marseille","lat":43.270721,"lon":5.422764,"is_reserved":false,"is_disabled":false,"rental_uris":{"android":"levelo://app?vid=0d65d35c-c562-4524-8dbe-5b6cef2f2c2b","ios":"levelo://app?vid=0d65d35c-c562-4524-8dbe-5b6cef2f2c2b"},"vehicle_type_id":"4","last_reported":1701868203,"current_range_meters":6400,"station_id":"ce4bhk92rcd13ifvqgb0","pricing_plan_id":"free"},{"bike_id":"7831317b-9364-4350-b65c-cc611beb348a","system_id":"levelo_inurba_marseille","lat":43.270721,"lon":5.422764,"is_reserved":false,"is_disabled":false,"rental_uris":{"android":"levelo://app?vid=7831317b-9364-4350-b65c-cc611beb348a","ios":"levelo://app?vid=7831317b-9364-4350-b65c-cc611beb348a"},"vehicle_type_id":"4","last_reported":1701868203,"current_range_meters":400,"station_id":"ce4bhk92rcd13ifvqgb0","pricing_plan_id":"free"},{"bike_id":"f89bb153-29cf-4d82-971b-69086d29d5f0","system_id":"levelo_inurba_marseille","lat":43.258658,"lon":5.398935,"is_reserved":false,"is_disabled":false,"rental_uris":{"android":"levelo://app?vid=f89bb153-29cf-4d82-971b-69086d29d5f0","ios":"levelo://app?vid=f89bb153-29cf-4d82-971b-69086d29d5f0"},"vehicle_type_id":"4","last_reported":1701868203,"current_range_meters":24400,"station_id":"ce4bhl92rcd13ifvqghg","pricing_plan_id":"free"},{"bike_id":"4206f1e1-5257-4ade-8c7a-29b08ab72805","system_id":"levelo_inurba_marseille","lat":43.259013,"lon":5.409301,"is_reserved":false,"is_disabled":false,"rental_uris":{"android":"levelo://app?vid=4206f1e1-5257-4ade-8c7a-29b08ab72805","ios":"levelo://app?vid=4206f1e1-5257-4ade-8c7a-29b08ab72805"},"vehicle_type_id":"4","last_reported":1701868203,"current_range_meters":18400,"station_id":"ce4bhm92rcd13ifvqglg","pricing_plan_id":"free"},{"bike_id":"97ed1142-1753-47f7-908d-e5389dd7cd79","system_id":"levelo_inurba_marseille","lat":43.259013,"lon":5.409301,"is_reserved":false,"is_disabled":false,"rental_uris":{"android":"levelo://app?vid=97ed1142-1753-47f7-908d-e5389dd7cd79","ios":"levelo://app?vid=97ed1142-1753-47f7-908d-e5389dd7cd79"},"vehicle_type_id":"4","last_reported":1701868203,"current_range_meters":15200,"station_id":"ce4bhm92rcd13ifvqglg","pricing_plan_id":"free"},{"bike_id":"960ff8c0-1464-46fa-8663-9b1bc7e7b448","system_id":"levelo_inurba_marseille","lat":43.2479,"lon":5.374457,"is_reserved":false,"is_disabled":false,"rental_uris":{"android":"levelo://app?vid=960ff8c0-1464-46fa-8663-9b1bc7e7b448","ios":"levelo://app?vid=960ff8c0-1464-46fa-8663-9b1bc7e7b448"},"vehicle_type_id":"4","last_reported":1701868203,"current_range_meters":26400,"station_id":"ce4bhgh2rcd13ifvqfb0","pricing_plan_id":"free"},{"bike_id":"f92d0ceb-029f-42c4-af2f-281126a7126a","system_id":"levelo_inurba_marseille","lat":43.2479,"lon":5.374457,"is_reserved":false,"is_disabled":false,"rental_uris":{"android":"levelo://app?vid=f92d0ceb-029f-42c4-af2f-281126a7126a","ios":"levelo://app?vid=f92d0ceb-029f-42c4-af2f-281126a7126a"},"vehicle_type_id":"4","last_reported":1701868203,"current_range_meters":12000,"station_id":"ce4bhgh2rcd13ifvqfb0","pricing_plan_id":"free"},{"bike_id":"6a8b6271-bf92-4640-908b-e3a766dce9e9","system_id":"levelo_inurba_marseille","lat":43.24693,"lon":5.382096,"is_reserved":false,"is_disabled":false,"rental_uris":{"android":"levelo://app?vid=6a8b6271-bf92-4640-908b-e3a766dce9e9","ios":"levelo://app?vid=6a8b6271-bf92-4640-908b-e3a766dce9e9"},"vehicle_type_id":"4","last_reported":1701868203,"current_range_meters":22000,"station_id":"ce4bhih2rcd13ifvqfr0","pricing_plan_id":"free"},{"bike_id":"b899c297-6024-42b6-864a-57ab03e5b082","system_id":"levelo_inurba_marseille","lat":43.24693,"lon":5.382096,"is_reserved":false,"is_disabled":false,"rental_uris":{"android":"levelo://app?vid=b899c297-6024-42b6-864a-57ab03e5b082","ios":"levelo://app?vid=b899c297-6024-42b6-864a-57ab03e5b082"},"vehicle_type_id":"4","last_reported":1701868203,"current_range_meters":23200,"station_id":"ce4bhih2rcd13ifvqfr0","pricing_plan_id":"free"},{"bike_id":"53b91a9d-d3c6-4957-bd14-fd8a5f56ad08","system_id":"levelo_inurba_marseille","lat":43.25102,"lon":5.403214,"is_reserved":false,"is_disabled":false,"rental_uris":{"android":"levelo://app?vid=53b91a9d-d3c6-4957-bd14-fd8a5f56ad08","ios":"levelo://app?vid=53b91a9d-d3c6-4957-bd14-fd8a5f56ad08"},"vehicle_type_id":"4","last_reported":1701868203,"current_range_meters":26400,"station_id":"ce4bhlh2rcd13ifvqgig","pricing_plan_id":"free"},{"bike_id":"a5ef68be-5216-474d-9975-df38b12ccb60","system_id":"levelo_inurba_marseille","lat":43.25102,"lon":5.403214,"is_reserved":false,"is_disabled":false,"rental_uris":{"android":"levelo://app?vid=a5ef68be-5216-474d-9975-df38b12ccb60","ios":"levelo://app?vid=a5ef68be-5216-474d-9975-df38b12ccb60"},"vehicle_type_id":"4","last_reported":1701868203,"current_range_meters":24400,"station_id":"ce4bhlh2rcd13ifvqgig","pricing_plan_id":"free"},{"bike_id":"ad9c41b5-0d53-4de4-a8fe-4bc134273d0e","system_id":"levelo_inurba_marseille","lat":43.239588,"lon":5.366238,"is_reserved":false,"is_disabled":false,"rental_uris":{"android":"levelo://app?vid=ad9c41b5-0d53-4de4-a8fe-4bc134273d0e","ios":"levelo://app?vid=ad9c41b5-0d53-4de4-a8fe-4bc134273d0e"},"vehicle_type_id":"4","last_reported":1701868203,"current_range_meters":4000,"station_id":"ce4bhi12rcd13ifvqfp0","pricing_plan_id":"free"},{"bike_id":"a2017a60-cff5-46fa-a2b4-af5d7ee300a6","system_id":"levelo_inurba_marseille","lat":43.241782,"lon":5.397261,"is_reserved":false,"is_disabled":false,"rental_uris":{"android":"levelo://app?vid=a2017a60-cff5-46fa-a2b4-af5d7ee300a6","ios":"levelo://app?vid=a2017a60-cff5-46fa-a2b4-af5d7ee300a6"},"vehicle_type_id":"4","last_reported":1701868203,"current_range_meters":8400,"station_id":"ce4bhn12rcd13ifvqgpg","pricing_plan_id":"free"},{"bike_id":"eee5cae3-a0ba-4530-b2a1-2a5afaf0250a","system_id":"levelo_inurba_marseille","lat":43.241782,"lon":5.397261,"is_reserved":false,"is_disabled":false,"rental_uris":{"android":"levelo://app?vid=eee5cae3-a0ba-4530-b2a1-2a5afaf0250a","ios":"levelo://app?vid=eee5cae3-a0ba-4530-b2a1-2a5afaf0250a"},"vehicle_type_id":"4","last_reported":1701868203,"current_range_meters":31200,"station_id":"ce4bhn12rcd13ifvqgpg","pricing_plan_id":"free"},{"bike_id":"13c0e5b5-62bd-42f7-8c7c-9168886e359e","system_id":"levelo_inurba_marseille","lat":43.23202,"lon":5.35555,"is_reserved":false,"is_disabled":false,"rental_uris":{"android":"levelo://app?vid=13c0e5b5-62bd-42f7-8c7c-9168886e359e","ios":"levelo://app?vid=13c0e5b5-62bd-42f7-8c7c-9168886e359e"},"vehicle_type_id":"4","last_reported":1701868203,"current_range_meters":30000,"station_id":"ce4bhu92rcd13ifvqi70","pricing_plan_id":"free"},{"bike_id":"8d93eeb2-1ca5-45c1-aa71-2bedec57b2ab","system_id":"levelo_inurba_marseille","lat":43.231923,"lon":5.355545,"is_reserved":false,"is_disabled":false,"rental_uris":{"android":"levelo://app?vid=8d93eeb2-1ca5-45c1-aa71-2bedec57b2ab","ios":"levelo://app?vid=8d93eeb2-1ca5-45c1-aa71-2bedec57b2ab"},"vehicle_type_id":"4","last_reported":1701868203,"current_range_meters":30400,"station_id":"ce4bhu92rcd13ifvqi70","pricing_plan_id":"free"},{"bike_id":"cb54492e-531a-4ddd-ac05-b584fa4c27e9","system_id":"levelo_inurba_marseille","lat":43.231957,"lon":5.35548,"is_reserved":false,"is_disabled":false,"rental_uris":{"android":"levelo://app?vid=cb54492e-531a-4ddd-ac05-b584fa4c27e9","ios":"levelo://app?vid=cb54492e-531a-4ddd-ac05-b584fa4c27e9"},"vehicle_type_id":"4","last_reported":1701868203,"current_range_meters":31200,"station_id":"ce4bhu92rcd13ifvqi70","pricing_plan_id":"free"},{"bike_id":"265d8647-926c-4792-875e-587423febe0c","system_id":"levelo_inurba_marseille","lat":43.231947,"lon":5.355591,"is_reserved":false,"is_disabled":false,"rental_uris":{"android":"levelo://app?vid=265d8647-926c-4792-875e-587423febe0c","ios":"levelo://app?vid=265d8647-926c-4792-875e-587423febe0c"},"vehicle_type_id":"4","last_reported":1701868203,"current_range_meters":13600,"station_id":"ce4bhu92rcd13ifvqi70","pricing_plan_id":"free"},{"bike_id":"e2aa6ba6-fe77-46b8-9b07-373b92acd67a","system_id":"levelo_inurba_marseille","lat":43.23193,"lon":5.355602,"is_reserved":false,"is_disabled":false,"rental_uris":{"android":"levelo://app?vid=e2aa6ba6-fe77-46b8-9b07-373b92acd67a","ios":"levelo://app?vid=e2aa6ba6-fe77-46b8-9b07-373b92acd67a"},"vehicle_type_id":"4","last_reported":1701868203,"current_range_meters":30000,"station_id":"ce4bhu92rcd13ifvqi70","pricing_plan_id":"free"},{"bike_id":"6bdb87c7-8611-4910-9ce3-ff8207311338","system_id":"levelo_inurba_marseille","lat":43.231929,"lon":5.355549,"is_reserved":false,"is_disabled":false,"rental_uris":{"android":"levelo://app?vid=6bdb87c7-8611-4910-9ce3-ff8207311338","ios":"levelo://app?vid=6bdb87c7-8611-4910-9ce3-ff8207311338"},"vehicle_type_id":"4","last_reported":1701868203,"current_range_meters":16000,"station_id":"ce4bhu92rcd13ifvqi70","pricing_plan_id":"free"},{"bike_id":"c67a76af-19e2-4781-b20f-4f48d4550695","system_id":"levelo_inurba_marseille","lat":43.23192,"lon":5.35547,"is_reserved":false,"is_disabled":false,"rental_uris":{"android":"levelo://app?vid=c67a76af-19e2-4781-b20f-4f48d4550695","ios":"levelo://app?vid=c67a76af-19e2-4781-b20f-4f48d4550695"},"vehicle_type_id":"4","last_reported":1701868203,"current_range_meters":20800,"station_id":"ce4bhu92rcd13ifvqi70","pricing_plan_id":"free"},{"bike_id":"31a33c15-352d-45b2-8ca0-1a47651437f3","system_id":"levelo_inurba_marseille","lat":43.2319,"lon":5.35544,"is_reserved":false,"is_disabled":false,"rental_uris":{"android":"levelo://app?vid=31a33c15-352d-45b2-8ca0-1a47651437f3","ios":"levelo://app?vid=31a33c15-352d-45b2-8ca0-1a47651437f3"},"vehicle_type_id":"4","last_reported":1701868203,"current_range_meters":25600,"station_id":"ce4bhu92rcd13ifvqi70","pricing_plan_id":"free"},{"bike_id":"ee8851ba-2934-4bc6-b20d-354057ab45e2","system_id":"levelo_inurba_marseille","lat":43.23186,"lon":5.35546,"is_reserved":false,"is_disabled":false,"rental_uris":{"android":"levelo://app?vid=ee8851ba-2934-4bc6-b20d-354057ab45e2","ios":"levelo://app?vid=ee8851ba-2934-4bc6-b20d-354057ab45e2"},"vehicle_type_id":"4","last_reported":1701868203,"current_range_meters":11600,"station_id":"ce4bhu92rcd13ifvqi70","pricing_plan_id":"free"},{"bike_id":"665751fa-b6e1-4e36-8467-b488a695febb","system_id":"levelo_inurba_marseille","lat":43.231793,"lon":5.400044,"is_reserved":false,"is_disabled":false,"rental_uris":{"android":"levelo://app?vid=665751fa-b6e1-4e36-8467-b488a695febb","ios":"levelo://app?vid=665751fa-b6e1-4e36-8467-b488a695febb"},"vehicle_type_id":"4","last_reported":1701868203,"current_range_meters":29200,"station_id":"ce4bhn12rcd13ifvqgqg","pricing_plan_id":"free"},{"bike_id":"d4fafc8f-17c1-4709-ba6c-7f18a0e46857","system_id":"levelo_inurba_marseille","lat":43.231794,"lon":5.400052,"is_reserved":false,"is_disabled":false,"rental_uris":{"android":"levelo://app?vid=d4fafc8f-17c1-4709-ba6c-7f18a0e46857","ios":"levelo://app?vid=d4fafc8f-17c1-4709-ba6c-7f18a0e46857"},"vehicle_type_id":"4","last_reported":1701868203,"current_range_meters":17600,"station_id":"ce4bhn12rcd13ifvqgqg","pricing_plan_id":"free"},{"bike_id":"901a5ad1-6326-4310-99d1-e5550d8117ee","system_id":"levelo_inurba_marseille","lat":43.231793,"lon":5.400044,"is_reserved":false,"is_disabled":false,"rental_uris":{"android":"levelo://app?vid=901a5ad1-6326-4310-99d1-e5550d8117ee","ios":"levelo://app?vid=901a5ad1-6326-4310-99d1-e5550d8117ee"},"vehicle_type_id":"4","last_reported":1701868203,"current_range_meters":25200,"station_id":"ce4bhn12rcd13ifvqgqg","pricing_plan_id":"free"},{"bike_id":"f1b84a36-46b4-4777-8d9b-adfc0d30be06","system_id":"levelo_inurba_marseille","lat":43.231793,"lon":5.400044,"is_reserved":false,"is_disabled":false,"rental_uris":{"android":"levelo://app?vid=f1b84a36-46b4-4777-8d9b-adfc0d30be06","ios":"levelo://app?vid=f1b84a36-46b4-4777-8d9b-adfc0d30be06"},"vehicle_type_id":"4","last_reported":1701868203,"current_range_meters":0,"station_id":"ce4bhn12rcd13ifvqgqg","pricing_plan_id":"free"},{"bike_id":"66f21e22-ce31-42e7-a51f-a5076b53bb0a","system_id":"levelo_inurba_marseille","lat":43.231793,"lon":5.400044,"is_reserved":false,"is_disabled":false,"rental_uris":{"android":"levelo://app?vid=66f21e22-ce31-42e7-a51f-a5076b53bb0a","ios":"levelo://app?vid=66f21e22-ce31-42e7-a51f-a5076b53bb0a"},"vehicle_type_id":"4","last_reported":1701868203,"current_range_meters":29200,"station_id":"ce4bhn12rcd13ifvqgqg","pricing_plan_id":"free"},{"bike_id":"532069f4-e08d-45bf-af3a-d0b088d4d417","system_id":"levelo_inurba_marseille","lat":43.231793,"lon":5.400044,"is_reserved":false,"is_disabled":false,"rental_uris":{"android":"levelo://app?vid=532069f4-e08d-45bf-af3a-d0b088d4d417","ios":"levelo://app?vid=532069f4-e08d-45bf-af3a-d0b088d4d417"},"vehicle_type_id":"4","last_reported":1701868203,"current_range_meters":8800,"station_id":"ce4bhn12rcd13ifvqgqg","pricing_plan_id":"free"},{"bike_id":"e21a2dcc-a5d3-4088-aa88-3ef72049c7dc","system_id":"levelo_inurba_marseille","lat":43.231793,"lon":5.400044,"is_reserved":false,"is_disabled":false,"rental_uris":{"android":"levelo://app?vid=e21a2dcc-a5d3-4088-aa88-3ef72049c7dc","ios":"levelo://app?vid=e21a2dcc-a5d3-4088-aa88-3ef72049c7dc"},"vehicle_type_id":"4","last_reported":1701868203,"current_range_meters":4800,"station_id":"ce4bhn12rcd13ifvqgqg","pricing_plan_id":"free"},{"bike_id":"19cd97c2-90a0-4893-8845-2f6a224bf5f7","system_id":"levelo_inurba_marseille","lat":43.231794,"lon":5.400052,"is_reserved":false,"is_disabled":false,"rental_uris":{"android":"levelo://app?vid=19cd97c2-90a0-4893-8845-2f6a224bf5f7","ios":"levelo://app?vid=19cd97c2-90a0-4893-8845-2f6a224bf5f7"},"vehicle_type_id":"4","last_reported":1701868203,"current_range_meters":31600,"station_id":"ce4bhn12rcd13ifvqgqg","pricing_plan_id":"free"},{"bike_id":"2a73e8fa-c92c-487d-afb8-ed18138423a5","system_id":"levelo_inurba_marseille","lat":43.231794,"lon":5.400052,"is_reserved":false,"is_disabled":false,"rental_uris":{"android":"levelo://app?vid=2a73e8fa-c92c-487d-afb8-ed18138423a5","ios":"levelo://app?vid=2a73e8fa-c92c-487d-afb8-ed18138423a5"},"vehicle_type_id":"4","last_reported":1701868203,"current_range_meters":21200,"station_id":"ce4bhn12rcd13ifvqgqg","pricing_plan_id":"free"},{"bike_id":"cc1f465c-2a96-4d0e-9933-59899d0661dc","system_id":"levelo_inurba_marseille","lat":43.231562,"lon":5.436933,"is_reserved":false,"is_disabled":false,"rental_uris":{"android":"levelo://app?vid=cc1f465c-2a96-4d0e-9933-59899d0661dc","ios":"levelo://app?vid=cc1f465c-2a96-4d0e-9933-59899d0661dc"},"vehicle_type_id":"4","last_reported":1701868203,"current_range_meters":0,"station_id":"ce4bhmp2rcd13ifvqgog","pricing_plan_id":"free"},{"bike_id":"afc7a389-a3a7-4e56-8db6-8b1af60d8d30","system_id":"levelo_inurba_marseille","lat":43.231562,"lon":5.436933,"is_reserved":false,"is_disabled":false,"rental_uris":{"android":"levelo://app?vid=afc7a389-a3a7-4e56-8db6-8b1af60d8d30","ios":"levelo://app?vid=afc7a389-a3a7-4e56-8db6-8b1af60d8d30"},"vehicle_type_id":"4","last_reported":1701868203,"current_range_meters":0,"station_id":"ce4bhmp2rcd13ifvqgog","pricing_plan_id":"free"},{"bike_id":"075282f0-c021-4c3b-ab85-62d2b8d99df1","system_id":"levelo_inurba_marseille","lat":43.231562,"lon":5.436933,"is_reserved":false,"is_disabled":false,"rental_uris":{"android":"levelo://app?vid=075282f0-c021-4c3b-ab85-62d2b8d99df1","ios":"levelo://app?vid=075282f0-c021-4c3b-ab85-62d2b8d99df1"},"vehicle_type_id":"4","last_reported":1701868203,"current_range_meters":800,"station_id":"ce4bhmp2rcd13ifvqgog","pricing_plan_id":"free"},{"bike_id":"4c87a925-060f-4042-83d3-c9a1a412ed0e","system_id":"levelo_inurba_marseille","lat":43.231562,"lon":5.436933,"is_reserved":false,"is_disabled":false,"rental_uris":{"android":"levelo://app?vid=4c87a925-060f-4042-83d3-c9a1a412ed0e","ios":"levelo://app?vid=4c87a925-060f-4042-83d3-c9a1a412ed0e"},"vehicle_type_id":"4","last_reported":1701868203,"current_range_meters":6800,"station_id":"ce4bhmp2rcd13ifvqgog","pricing_plan_id":"free"},{"bike_id":"dd01c6b3-fa3e-445c-9a8e-c0f758a12cba","system_id":"levelo_inurba_marseille","lat":43.231562,"lon":5.436933,"is_reserved":false,"is_disabled":false,"rental_uris":{"android":"levelo://app?vid=dd01c6b3-fa3e-445c-9a8e-c0f758a12cba","ios":"levelo://app?vid=dd01c6b3-fa3e-445c-9a8e-c0f758a12cba"},"vehicle_type_id":"4","last_reported":1701868203,"current_range_meters":31200,"station_id":"ce4bhmp2rcd13ifvqgog","pricing_plan_id":"free"},{"bike_id":"56430272-dad1-41f8-84d0-a8e1088d51bf","system_id":"levelo_inurba_marseille","lat":43.231562,"lon":5.436933,"is_reserved":false,"is_disabled":false,"rental_uris":{"android":"levelo://app?vid=56430272-dad1-41f8-84d0-a8e1088d51bf","ios":"levelo://app?vid=56430272-dad1-41f8-84d0-a8e1088d51bf"},"vehicle_type_id":"4","last_reported":1701868203,"current_range_meters":31600,"station_id":"ce4bhmp2rcd13ifvqgog","pricing_plan_id":"free"},{"bike_id":"ceef45cf-eb38-4c77-8919-0d17aac14d67","system_id":"levelo_inurba_marseille","lat":43.231562,"lon":5.436933,"is_reserved":false,"is_disabled":false,"rental_uris":{"android":"levelo://app?vid=ceef45cf-eb38-4c77-8919-0d17aac14d67","ios":"levelo://app?vid=ceef45cf-eb38-4c77-8919-0d17aac14d67"},"vehicle_type_id":"4","last_reported":1701868203,"current_range_meters":31200,"station_id":"ce4bhmp2rcd13ifvqgog","pricing_plan_id":"free"},{"bike_id":"18694f44-4de7-4e36-8126-84af36c601e5","system_id":"levelo_inurba_marseille","lat":43.231562,"lon":5.436933,"is_reserved":false,"is_disabled":false,"rental_uris":{"android":"levelo://app?vid=18694f44-4de7-4e36-8126-84af36c601e5","ios":"levelo://app?vid=18694f44-4de7-4e36-8126-84af36c601e5"},"vehicle_type_id":"4","last_reported":1701868203,"current_range_meters":30800,"station_id":"ce4bhmp2rcd13ifvqgog","pricing_plan_id":"free"},{"bike_id":"778e5985-dbdd-42e1-a7d8-130a2b906c87","system_id":"levelo_inurba_marseille","lat":43.231562,"lon":5.436933,"is_reserved":false,"is_disabled":false,"rental_uris":{"android":"levelo://app?vid=778e5985-dbdd-42e1-a7d8-130a2b906c87","ios":"levelo://app?vid=778e5985-dbdd-42e1-a7d8-130a2b906c87"},"vehicle_type_id":"4","last_reported":1701868203,"current_range_meters":800,"station_id":"ce4bhmp2rcd13ifvqgog","pricing_plan_id":"free"}]}}