{"last_updated":1748873446,"ttl":60,"version":"2.2","data":{"bikes":[{"bike_id":"15fb5b2c-40e9-40e9-9d0c-0f999f38e893","system_id":"levelo_inurba_marseille","lat":43.27061,"lon":5.40261,"is_reserved":false,"is_disabled":false,"rental_uris":{"android":"levelo://app?vid=15fb5b2c-40e9-40e9-9d0c-0f999f38e893","ios":"levelo://app?vid=15fb5b2c-40e9-40e9-9d0c-0f999f38e893"},"vehicle_type_id":"4","last_reported":1748873447,"current_range_meters":2800,"station_id":"ce4bhk92rcd13ifvqgc0","pricing_plan_id":"cebpf4jnsgd1na2vs0mg"},{"bike_id":"856921fa-71f2-4879-a42b-58fd6d7b6a14","system_id":"levelo_inurba_marseille","lat":43.320069,"lon":5.394663,"is_reserved":false,"is_disabled":false,"rental_uris":{"android":"levelo://app?vid=856921fa-71f2-4879-a42b-58fd6d7b6a14","ios":"levelo://app?vid=856921fa-71f2-4879-a42b-58fd6d7b6a14"},"vehicle_type_id":"4","last_reported":1748873447,"current_range_meters":2800,"station_id":"","pricing_plan_id":"cebpf4jnsgd1na2vs0mg"},{"bike_id":"bf633535-23ba-4781-bd68-289a0a1a7fdb","system_id":"levelo_inurba_marseille","lat":43.29911,"lon":5.38138,"is_reserved":false,"is_disabled":false,"rental_uris":{"android":"levelo://app?vid=bf633535-23ba-4781-bd68-289a0a1a7fdb","ios":"levelo://app?vid=bf633535-23ba-4781-bd68-289a0a1a7fdb"},"vehicle_type_id":"4","last_reported":1748873447,"current_range_meters":3200,"station_id":"ce4bgj12rcd13ifvqbc0","pricing_plan_id":"cebpf4jnsgd1na2vs0mg"},{"bike_id":"1dace7ea-26d9-4c85-9d01-671f021f08e4","system_id":"levelo_inurba_marseille","lat":43.25394,"lon":5.41455,"is_reserved":false,"is_disabled":false,"rental_uris":{"android":"levelo://app?vid=1dace7ea-26d9-4c85-9d01-671f021f08e4","ios":"levelo://app?vid=1dace7ea-26d9-4c85-9d01-671f021f08e4"},"vehicle_type_id":"4","last_reported":1748873447,"current_range_meters":3200,"station_id":"","pricing_plan_id":"cebpf4jnsgd1na2vs0mg"},{"bike_id":"32af8c4c-dd44-4ee2-beaa-ed66c4f4b191","system_id":"levelo_inurba_marseille","lat":43.25001,"lon":5.38932,"is_reserved":false,"is_disabled":false,"rental_uris":{"android":"levelo://app?vid=32af8c4c-dd44-4ee2-beaa-ed66c4f4b191","ios":"levelo://app?vid=32af8c4c-dd44-4ee2-beaa-ed66c4f4b191"},"vehicle_type_id":"4","last_reported":1748873447,"current_range_meters":3200,"station_id":"ce4bhgp2rcd13ifvqfd0","pricing_plan_id":"cebpf4jnsgd1na2vs0mg"},{"bike_id":"ca267b29-486d-4071-b7d8-46f0d3f35c35","system_id":"levelo_inurba_marseille","lat":43.28424,"lon":5.34983,"is_reserved":false,"is_disabled":false,"rental_uris":{"android":"levelo://app?vid=ca267b29-486d-4071-b7d8-46f0d3f35c35","ios":"levelo://app?vid=ca267b29-486d-4071-b7d8-46f0d3f35c35"},"vehicle_type_id":"4","last_reported":1748873447,"current_range_meters":3200,"station_id":"ce4bhbh2rcd13ifvqepg","pricing_plan_id":"cebpf4jnsgd1na2vs0mg"},{"bike_id":"9999edb3-d67d-4df2-8994-1f01283ab154","system_id":"levelo_inurba_marseille","lat":43.30146,"lon":5.39885,"is_reserved":false,"is_disabled":false,"rental_uris":{"android":"levelo://app?vid=9999edb3-d67d-4df2-8994-1f01283ab154","ios":"levelo://app?vid=9999edb3-d67d-4df2-8994-1f01283ab154"},"vehicle_type_id":"4","last_reported":1748873447,"current_range_meters":3600,"station_id":"ce4bh0h2rcd13ifvqd40","pricing_plan_id":"cebpf4jnsgd1na2vs0mg"},{"bike_id":"d79e7b4a-41e6-4797-b57b-b837fa6a25d7","system_id":"levelo_inurba_marseille","lat":43.29698,"lon":5.36609,"is_reserved":false,"is_disabled":false,"rental_uris":{"android":"levelo://app?vid=d79e7b4a-41e6-4797-b57b-b837fa6a25d7","ios":"levelo://app?vid=d79e7b4a-41e6-4797-b57b-b837fa6a25d7"},"vehicle_type_id":"4","last_reported":1748873447,"current_range_meters":4000,"station_id":"ce4bgn12rcd13ifvqbt0","pricing_plan_id":"cebpf4jnsgd1na2vs0mg"},{"bike_id":"973a0cfa-222d-487c-830d-1313bf055f4b","system_id":"levelo_inurba_marseille","lat":43.2681,"lon":5.40278,"is_reserved":false,"is_disabled":false,"rental_uris":{"android":"levelo://app?vid=973a0cfa-222d-487c-830d-1313bf055f4b","ios":"levelo://app?vid=973a0cfa-222d-487c-830d-1313bf055f4b"},"vehicle_type_id":"4","last_reported":1748873447,"current_range_meters":4000,"station_id":"ce501612rcd8frsf0b60","pricing_plan_id":"cebpf4jnsgd1na2vs0mg"},{"bike_id":"337aeb83-b4c9-424f-a323-e2ce7c40906e","system_id":"levelo_inurba_marseille","lat":43.28473,"lon":5.38425,"is_reserved":false,"is_disabled":false,"rental_uris":{"android":"levelo://app?vid=337aeb83-b4c9-424f-a323-e2ce7c40906e","ios":"levelo://app?vid=337aeb83-b4c9-424f-a323-e2ce7c40906e"},"vehicle_type_id":"4","last_reported":1748873447,"current_range_meters":3600,"station_id":"ce4bh512rcd13ifvqe3g","pricing_plan_id":"cebpf4jnsgd1na2vs0mg"},{"bike_id":"05b6d613-ab90-4e8e-83a9-e38d2060350d","system_id":"levelo_inurba_marseille","lat":43.231964,"lon":5.355565,"is_reserved":false,"is_disabled":false,"rental_uris":{"android":"levelo://app?vid=05b6d613-ab90-4e8e-83a9-e38d2060350d","ios":"levelo://app?vid=05b6d613-ab90-4e8e-83a9-e38d2060350d"},"vehicle_type_id":"4","last_reported":1748873447,"current_range_meters":4800,"station_id":"ce4bhu92rcd13ifvqi70","pricing_plan_id":"cebpf4jnsgd1na2vs0mg"},{"bike_id":"e4c97afa-e9ab-439e-8ad9-0157e0913d40","system_id":"levelo_inurba_marseille","lat":43.2512,"lon":5.40337,"is_reserved":false,"is_disabled":false,"rental_uris":{"android":"levelo://app?vid=e4c97afa-e9ab-439e-8ad9-0157e0913d40","ios":"levelo://app?vid=e4c97afa-e9ab-439e-8ad9-0157e0913d40"},"vehicle_type_id":"4","last_reported":1748873447,"current_range_meters":4800,"station_id":"ce4bhlh2rcd13ifvqgig","pricing_plan_id":"cebpf4jnsgd1na2vs0mg"},{"bike_id":"c0565502-b04b-472a-a0e2-d76a02759ce6","system_id":"levelo_inurba_marseille","lat":43.3094,"lon":5.389961,"is_reserved":false,"is_disabled":false,"rental_uris":{"android":"levelo://app?vid=c0565502-b04b-472a-a0e2-d76a02759ce6","ios":"levelo://app?vid=c0565502-b04b-472a-a0e2-d76a02759ce6"},"vehicle_type_id":"4","last_reported":1748873447,"current_range_meters":4800,"station_id":"ce4bgup2rcd13ifvqco0","pricing_plan_id":"cebpf4jnsgd1na2vs0mg"},{"bike_id":"f75fd03e-3a87-4886-9f71-a4ebb052dd1a","system_id":"levelo_inurba_marseille","lat":43.30551,"lon":5.36548,"is_reserved":false,"is_disabled":false,"rental_uris":{"android":"levelo://app?vid=f75fd03e-3a87-4886-9f71-a4ebb052dd1a","ios":"levelo://app?vid=f75fd03e-3a87-4886-9f71-a4ebb052dd1a"},"vehicle_type_id":"4","last_reported":1748873447,"current_range_meters":4800,"station_id":"ce4bgs12rcd13ifvqcag","pricing_plan_id":"cebpf4jnsgd1na2vs0mg"},{"bike_id":"1cd3cb65-e4e6-4f9b-b340-27d5d9b7f8c0","system_id":"levelo_inurba_marseille","lat":43.28108,"lon":5.37846,"is_reserved":false,"is_disabled":false,"rental_uris":{"android":"levelo://app?vid=1cd3cb65-e4e6-4f9b-b340-27d5d9b7f8c0","ios":"levelo://app?vid=1cd3cb65-e4e6-4f9b-b340-27d5d9b7f8c0"},"vehicle_type_id":"4","last_reported":1748873447,"current_range_meters":5600,"station_id":"ce4bha12rcd13ifvqee0","pricing_plan_id":"cebpf4jnsgd1na2vs0mg"},{"bike_id":"b8204872-d67c-4e67-9bdb-56611bde3ac5","system_id":"levelo_inurba_marseille","lat":43.3061,"lon":5.37232,"is_reserved":false,"is_disabled":false,"rental_uris":{"android":"levelo://app?vid=b8204872-d67c-4e67-9bdb-56611bde3ac5","ios":"levelo://app?vid=b8204872-d67c-4e67-9bdb-56611bde3ac5"},"vehicle_type_id":"4","last_reported":1748873447,"current_range_meters":5600,"station_id":"ce4bgqh2rcd13ifvqc4g","pricing_plan_id":"cebpf4jnsgd1na2vs0mg"},{"bike_id":"826b2db6-1579-4beb-a849-09c1cda03041","system_id":"levelo_inurba_marseille","lat":43.279114,"lon":5.380214,"is_reserved":false,"is_disabled":false,"rental_uris":{"android":"levelo://app?vid=826b2db6-1579-4beb-a849-09c1cda03041","ios":"levelo://app?vid=826b2db6-1579-4beb-a849-09c1cda03041"},"vehicle_type_id":"4","last_reported":1748873447,"current_range_meters":4800,"station_id":"ce4bhf92rcd13ifvqf50","pricing_plan_id":"cebpf4jnsgd1na2vs0mg"},{"bike_id":"3103b7e4-142c-4213-8207-0c1a23245e53","system_id":"levelo_inurba_marseille","lat":43.320995,"lon":5.367952,"is_reserved":false,"is_disabled":false,"rental_uris":{"android":"levelo://app?vid=3103b7e4-142c-4213-8207-0c1a23245e53","ios":"levelo://app?vid=3103b7e4-142c-4213-8207-0c1a23245e53"},"vehicle_type_id":"4","last_reported":1748873447,"current_range_meters":5600,"station_id":"ce4bhrh2rcd13ifvqhug","pricing_plan_id":"cebpf4jnsgd1na2vs0mg"},{"bike_id":"3cac35ce-69f5-4ba7-aa2f-a217d1845b0e","system_id":"levelo_inurba_marseille","lat":43.29726,"lon":5.37697,"is_reserved":false,"is_disabled":false,"rental_uris":{"android":"levelo://app?vid=3cac35ce-69f5-4ba7-aa2f-a217d1845b0e","ios":"levelo://app?vid=3cac35ce-69f5-4ba7-aa2f-a217d1845b0e"},"vehicle_type_id":"4","last_reported":1748873447,"current_range_meters":5600,"station_id":"ce4bgkh2rcd13ifvqbl0","pricing_plan_id":"cebpf4jnsgd1na2vs0mg"},{"bike_id":"c97038f3-4518-4c9d-afaa-4920937e02fa","system_id":"levelo_inurba_marseille","lat":43.24547,"lon":5.3938,"is_reserved":false,"is_disabled":false,"rental_uris":{"android":"levelo://app?vid=c97038f3-4518-4c9d-afaa-4920937e02fa","ios":"levelo://app?vid=c97038f3-4518-4c9d-afaa-4920937e02fa"},"vehicle_type_id":"4","last_reported":1748873447,"current_range_meters":5600,"station_id":"","pricing_plan_id":"cebpf4jnsgd1na2vs0mg"},{"bike_id":"bff91e46-d50f-47f4-abcc-a302e9440288","system_id":"levelo_inurba_marseille","lat":43.330276,"lon":5.394248,"is_reserved":false,"is_disabled":false,"rental_uris":{"android":"levelo://app?vid=bff91e46-d50f-47f4-abcc-a302e9440288","ios":"levelo://app?vid=bff91e46-d50f-47f4-abcc-a302e9440288"},"vehicle_type_id":"4","last_reported":1748873447,"current_range_meters":5600,"station_id":"","pricing_plan_id":"cebpf4jnsgd1na2vs0mg"},{"bike_id":"4fb1c657-8fe0-46da-b3cf-1795380c0f39","system_id":"levelo_inurba_marseille","lat":43.29971,"lon":5.41316,"is_reserved":false,"is_disabled":false,"rental_uris":{"android":"levelo://app?vid=4fb1c657-8fe0-46da-b3cf-1795380c0f39","ios":"levelo://app?vid=4fb1c657-8fe0-46da-b3cf-1795380c0f39"},"vehicle_type_id":"4","last_reported":1748873447,"current_range_meters":6000,"station_id":"ce4bhp12rcd13ifvqh9g","pricing_plan_id":"cebpf4jnsgd1na2vs0mg"},{"bike_id":"35475920-3016-444c-b3ef-f81b78d2d790","system_id":"levelo_inurba_marseille","lat":43.29193,"lon":5.35804,"is_reserved":false,"is_disabled":false,"rental_uris":{"android":"levelo://app?vid=35475920-3016-444c-b3ef-f81b78d2d790","ios":"levelo://app?vid=35475920-3016-444c-b3ef-f81b78d2d790"},"vehicle_type_id":"4","last_reported":1748873447,"current_range_meters":6000,"station_id":"ce4bhb12rcd13ifvqel0","pricing_plan_id":"cebpf4jnsgd1na2vs0mg"},{"bike_id":"e1bd8cbd-9aff-45b3-9417-1d3d88113417","system_id":"levelo_inurba_marseille","lat":43.25117,"lon":5.40324,"is_reserved":false,"is_disabled":false,"rental_uris":{"android":"levelo://app?vid=e1bd8cbd-9aff-45b3-9417-1d3d88113417","ios":"levelo://app?vid=e1bd8cbd-9aff-45b3-9417-1d3d88113417"},"vehicle_type_id":"4","last_reported":1748873447,"current_range_meters":5600,"station_id":"ce4bhlh2rcd13ifvqgig","pricing_plan_id":"cebpf4jnsgd1na2vs0mg"},{"bike_id":"f38e3ce5-1984-4511-9afb-8f47f8c21bca","system_id":"levelo_inurba_marseille","lat":43.2816,"lon":5.42653,"is_reserved":false,"is_disabled":false,"rental_uris":{"android":"levelo://app?vid=f38e3ce5-1984-4511-9afb-8f47f8c21bca","ios":"levelo://app?vid=f38e3ce5-1984-4511-9afb-8f47f8c21bca"},"vehicle_type_id":"4","last_reported":1748873447,"current_range_meters":6000,"station_id":"ce4bhnh2rcd13ifvqgug","pricing_plan_id":"cebpf4jnsgd1na2vs0mg"},{"bike_id":"dee32d1b-a506-4bda-aec7-7da6a373c524","system_id":"levelo_inurba_marseille","lat":43.29199,"lon":5.39322,"is_reserved":false,"is_disabled":false,"rental_uris":{"android":"levelo://app?vid=dee32d1b-a506-4bda-aec7-7da6a373c524","ios":"levelo://app?vid=dee32d1b-a506-4bda-aec7-7da6a373c524"},"vehicle_type_id":"4","last_reported":1748873447,"current_range_meters":6000,"station_id":"ce4bh192rcd13ifvqdd0","pricing_plan_id":"cebpf4jnsgd1na2vs0mg"},{"bike_id":"599c4b08-abd9-45dc-bc82-eaa5c40ec871","system_id":"levelo_inurba_marseille","lat":43.25829,"lon":5.39441,"is_reserved":false,"is_disabled":false,"rental_uris":{"android":"levelo://app?vid=599c4b08-abd9-45dc-bc82-eaa5c40ec871","ios":"levelo://app?vid=599c4b08-abd9-45dc-bc82-eaa5c40ec871"},"vehicle_type_id":"4","last_reported":1748873447,"current_range_meters":5600,"station_id":"ce4bhip2rcd13ifvqft0","pricing_plan_id":"cebpf4jnsgd1na2vs0mg"},{"bike_id":"033ff9ba-13e4-4b7d-b2ba-04ddee5741e3","system_id":"levelo_inurba_marseille","lat":43.2512,"lon":5.40327,"is_reserved":false,"is_disabled":false,"rental_uris":{"android":"levelo://app?vid=033ff9ba-13e4-4b7d-b2ba-04ddee5741e3","ios":"levelo://app?vid=033ff9ba-13e4-4b7d-b2ba-04ddee5741e3"},"vehicle_type_id":"4","last_reported":1748873447,"current_range_meters":6400,"station_id":"ce4bhlh2rcd13ifvqgig","pricing_plan_id":"cebpf4jnsgd1na2vs0mg"},{"bike_id":"aadb95fc-d156-41e0-9614-75d762b11d28","system_id":"levelo_inurba_marseille","lat":43.319583,"lon":5.440603,"is_reserved":false,"is_disabled":false,"rental_uris":{"android":"levelo://app?vid=aadb95fc-d156-41e0-9614-75d762b11d28","ios":"levelo://app?vid=aadb95fc-d156-41e0-9614-75d762b11d28"},"vehicle_type_id":"4","last_reported":1748873447,"current_range_meters":6400,"station_id":"","pricing_plan_id":"cebpf4jnsgd1na2vs0mg"},{"bike_id":"3ce2adc0-e17b-4fe7-8bc0-bbf0f922e730","system_id":"levelo_inurba_marseille","lat":43.28085,"lon":5.39662,"is_reserved":false,"is_disabled":false,"rental_uris":{"android":"levelo://app?vid=3ce2adc0-e17b-4fe7-8bc0-bbf0f922e730","ios":"levelo://app?vid=3ce2adc0-e17b-4fe7-8bc0-bbf0f922e730"},"vehicle_type_id":"4","last_reported":1748873447,"current_range_meters":6400,"station_id":"ce4bho12rcd13ifvqh2g","pricing_plan_id":"cebpf4jnsgd1na2vs0mg"},{"bike_id":"2d489d03-6cc3-4883-84ea-a821245dcb9b","system_id":"levelo_inurba_marseille","lat":43.26819,"lon":5.39475,"is_reserved":false,"is_disabled":false,"rental_uris":{"android":"levelo://app?vid=2d489d03-6cc3-4883-84ea-a821245dcb9b","ios":"levelo://app?vid=2d489d03-6cc3-4883-84ea-a821245dcb9b"},"vehicle_type_id":"4","last_reported":1748873447,"current_range_meters":6800,"station_id":"","pricing_plan_id":"cebpf4jnsgd1na2vs0mg"},{"bike_id":"7a915cad-0eb6-4b58-9f96-c0c82a56f71d","system_id":"levelo_inurba_marseille","lat":43.265581,"lon":5.372813,"is_reserved":false,"is_disabled":false,"rental_uris":{"android":"levelo://app?vid=7a915cad-0eb6-4b58-9f96-c0c82a56f71d","ios":"levelo://app?vid=7a915cad-0eb6-4b58-9f96-c0c82a56f71d"},"vehicle_type_id":"4","last_reported":1748873447,"current_range_meters":6800,"station_id":"ce4bhg12rcd13ifvqf70","pricing_plan_id":"cebpf4jnsgd1na2vs0mg"},{"bike_id":"b237e30c-f4fd-45af-b9bb-9a7a69ceaa73","system_id":"levelo_inurba_marseille","lat":43.28091,"lon":5.39657,"is_reserved":false,"is_disabled":false,"rental_uris":{"android":"levelo://app?vid=b237e30c-f4fd-45af-b9bb-9a7a69ceaa73","ios":"levelo://app?vid=b237e30c-f4fd-45af-b9bb-9a7a69ceaa73"},"vehicle_type_id":"4","last_reported":1748873447,"current_range_meters":6800,"station_id":"ce4bho12rcd13ifvqh2g","pricing_plan_id":"cebpf4jnsgd1na2vs0mg"},{"bike_id":"c7aa496f-5556-4272-bc79-3012a4604f0a","system_id":"levelo_inurba_marseille","lat":43.337276,"lon":5.391838,"is_reserved":false,"is_disabled":false,"rental_uris":{"android":"levelo://app?vid=c7aa496f-5556-4272-bc79-3012a4604f0a","ios":"levelo://app?vid=c7aa496f-5556-4272-bc79-3012a4604f0a"},"vehicle_type_id":"4","last_reported":1748873447,"current_range_meters":6800,"station_id":"ce4bhr92rcd13ifvqhsg","pricing_plan_id":"cebpf4jnsgd1na2vs0mg"},{"bike_id":"3bb92c33-91d8-4f88-8f2c-672c7868f4ad","system_id":"levelo_inurba_marseille","lat":43.3289,"lon":5.40549,"is_reserved":false,"is_disabled":false,"rental_uris":{"android":"levelo://app?vid=3bb92c33-91d8-4f88-8f2c-672c7868f4ad","ios":"levelo://app?vid=3bb92c33-91d8-4f88-8f2c-672c7868f4ad"},"vehicle_type_id":"4","last_reported":1748873447,"current_range_meters":6800,"station_id":"","pricing_plan_id":"cebpf4jnsgd1na2vs0mg"},{"bike_id":"bfc5ef3f-b45a-4475-9ae4-9a0465f66e15","system_id":"levelo_inurba_marseille","lat":43.25128,"lon":5.39379,"is_reserved":false,"is_disabled":false,"rental_uris":{"android":"levelo://app?vid=bfc5ef3f-b45a-4475-9ae4-9a0465f66e15","ios":"levelo://app?vid=bfc5ef3f-b45a-4475-9ae4-9a0465f66e15"},"vehicle_type_id":"4","last_reported":1748873447,"current_range_meters":6800,"station_id":"","pricing_plan_id":"cebpf4jnsgd1na2vs0mg"},{"bike_id":"e077442b-6ea1-4643-8b72-e1e94616c99e","system_id":"levelo_inurba_marseille","lat":43.25592,"lon":5.3824,"is_reserved":false,"is_disabled":false,"rental_uris":{"android":"levelo://app?vid=e077442b-6ea1-4643-8b72-e1e94616c99e","ios":"levelo://app?vid=e077442b-6ea1-4643-8b72-e1e94616c99e"},"vehicle_type_id":"4","last_reported":1748873447,"current_range_meters":6800,"station_id":"ce4bhih2rcd13ifvqfs0","pricing_plan_id":"cebpf4jnsgd1na2vs0mg"},{"bike_id":"8dd6b8be-9d9e-4f08-88d6-8d2a4b65a186","system_id":"levelo_inurba_marseille","lat":43.27981,"lon":5.38747,"is_reserved":false,"is_disabled":false,"rental_uris":{"android":"levelo://app?vid=8dd6b8be-9d9e-4f08-88d6-8d2a4b65a186","ios":"levelo://app?vid=8dd6b8be-9d9e-4f08-88d6-8d2a4b65a186"},"vehicle_type_id":"4","last_reported":1748873447,"current_range_meters":7200,"station_id":"ce4bhg12rcd13ifvqf80","pricing_plan_id":"cebpf4jnsgd1na2vs0mg"},{"bike_id":"7490d5dc-735e-4375-8341-6d53750855b2","system_id":"levelo_inurba_marseille","lat":43.29055,"lon":5.37794,"is_reserved":false,"is_disabled":false,"rental_uris":{"android":"levelo://app?vid=7490d5dc-735e-4375-8341-6d53750855b2","ios":"levelo://app?vid=7490d5dc-735e-4375-8341-6d53750855b2"},"vehicle_type_id":"4","last_reported":1748873447,"current_range_meters":7200,"station_id":"","pricing_plan_id":"cebpf4jnsgd1na2vs0mg"},{"bike_id":"036a3f84-6c04-4f85-bd69-c60fcc1a093a","system_id":"levelo_inurba_marseille","lat":43.33022,"lon":5.39436,"is_reserved":false,"is_disabled":false,"rental_uris":{"android":"levelo://app?vid=036a3f84-6c04-4f85-bd69-c60fcc1a093a","ios":"levelo://app?vid=036a3f84-6c04-4f85-bd69-c60fcc1a093a"},"vehicle_type_id":"4","last_reported":1748873447,"current_range_meters":7200,"station_id":"","pricing_plan_id":"cebpf4jnsgd1na2vs0mg"},{"bike_id":"6c58d642-0f6d-4103-85ab-59d593919366","system_id":"levelo_inurba_marseille","lat":43.341467,"lon":5.409017,"is_reserved":false,"is_disabled":false,"rental_uris":{"android":"levelo://app?vid=6c58d642-0f6d-4103-85ab-59d593919366","ios":"levelo://app?vid=6c58d642-0f6d-4103-85ab-59d593919366"},"vehicle_type_id":"4","last_reported":1748873447,"current_range_meters":8000,"station_id":"ce4bhqh2rcd13ifvqhlg","pricing_plan_id":"cebpf4jnsgd1na2vs0mg"},{"bike_id":"43df8678-f7df-481c-9ada-60e3f3db1487","system_id":"levelo_inurba_marseille","lat":43.283383,"lon":5.350277,"is_reserved":false,"is_disabled":false,"rental_uris":{"android":"levelo://app?vid=43df8678-f7df-481c-9ada-60e3f3db1487","ios":"levelo://app?vid=43df8678-f7df-481c-9ada-60e3f3db1487"},"vehicle_type_id":"4","last_reported":1748873447,"current_range_meters":8000,"station_id":"","pricing_plan_id":"cebpf4jnsgd1na2vs0mg"},{"bike_id":"42fb4aba-8737-45d7-94d7-28da9797bed4","system_id":"levelo_inurba_marseille","lat":43.28087,"lon":5.39663,"is_reserved":false,"is_disabled":false,"rental_uris":{"android":"levelo://app?vid=42fb4aba-8737-45d7-94d7-28da9797bed4","ios":"levelo://app?vid=42fb4aba-8737-45d7-94d7-28da9797bed4"},"vehicle_type_id":"4","last_reported":1748873447,"current_range_meters":8000,"station_id":"ce4bho12rcd13ifvqh2g","pricing_plan_id":"cebpf4jnsgd1na2vs0mg"},{"bike_id":"ea7d6bc6-cb3b-4df0-b48f-d4808f8af288","system_id":"levelo_inurba_marseille","lat":43.29012,"lon":5.35615,"is_reserved":false,"is_disabled":false,"rental_uris":{"android":"levelo://app?vid=ea7d6bc6-cb3b-4df0-b48f-d4808f8af288","ios":"levelo://app?vid=ea7d6bc6-cb3b-4df0-b48f-d4808f8af288"},"vehicle_type_id":"4","last_reported":1748873447,"current_range_meters":8000,"station_id":"ce4bhb92rcd13ifvqen0","pricing_plan_id":"cebpf4jnsgd1na2vs0mg"},{"bike_id":"6e8749e3-8a3c-4cc2-abd2-de6aca1a0f70","system_id":"levelo_inurba_marseille","lat":43.31404,"lon":5.3671,"is_reserved":false,"is_disabled":false,"rental_uris":{"android":"levelo://app?vid=6e8749e3-8a3c-4cc2-abd2-de6aca1a0f70","ios":"levelo://app?vid=6e8749e3-8a3c-4cc2-abd2-de6aca1a0f70"},"vehicle_type_id":"4","last_reported":1748873447,"current_range_meters":8000,"station_id":"","pricing_plan_id":"cebpf4jnsgd1na2vs0mg"},{"bike_id":"77563c89-0ac2-4043-bd50-220ab97bc1f7","system_id":"levelo_inurba_marseille","lat":43.322941,"lon":5.382745,"is_reserved":false,"is_disabled":false,"rental_uris":{"android":"levelo://app?vid=77563c89-0ac2-4043-bd50-220ab97bc1f7","ios":"levelo://app?vid=77563c89-0ac2-4043-bd50-220ab97bc1f7"},"vehicle_type_id":"4","last_reported":1748873447,"current_range_meters":8000,"station_id":"ce4bhr12rcd13ifvqhqg","pricing_plan_id":"cebpf4jnsgd1na2vs0mg"},{"bike_id":"8f6d4bf2-3386-41f4-a4a3-33318f66c651","system_id":"levelo_inurba_marseille","lat":43.25719,"lon":5.41113,"is_reserved":false,"is_disabled":false,"rental_uris":{"android":"levelo://app?vid=8f6d4bf2-3386-41f4-a4a3-33318f66c651","ios":"levelo://app?vid=8f6d4bf2-3386-41f4-a4a3-33318f66c651"},"vehicle_type_id":"4","last_reported":1748873447,"current_range_meters":8000,"station_id":"ce4bhkp2rcd13ifvqgd0","pricing_plan_id":"cebpf4jnsgd1na2vs0mg"},{"bike_id":"c94b197a-b686-4fe6-bcab-5f66c81add56","system_id":"levelo_inurba_marseille","lat":43.231496,"lon":5.437158,"is_reserved":false,"is_disabled":false,"rental_uris":{"android":"levelo://app?vid=c94b197a-b686-4fe6-bcab-5f66c81add56","ios":"levelo://app?vid=c94b197a-b686-4fe6-bcab-5f66c81add56"},"vehicle_type_id":"4","last_reported":1748873447,"current_range_meters":8000,"station_id":"ce4bhmp2rcd13ifvqgog","pricing_plan_id":"cebpf4jnsgd1na2vs0mg"},{"bike_id":"1fbdb284-044b-45b9-a174-9369f7ceefa8","system_id":"levelo_inurba_marseille","lat":43.23169,"lon":5.43733,"is_reserved":false,"is_disabled":false,"rental_uris":{"android":"levelo://app?vid=1fbdb284-044b-45b9-a174-9369f7ceefa8","ios":"levelo://app?vid=1fbdb284-044b-45b9-a174-9369f7ceefa8"},"vehicle_type_id":"4","last_reported":1748873447,"current_range_meters":8000,"station_id":"ce4bhmp2rcd13ifvqgog","pricing_plan_id":"cebpf4jnsgd1na2vs0mg"},{"bike_id":"a39717e7-4923-4bb4-8b8d-f06788e0cdc7","system_id":"levelo_inurba_marseille","lat":43.293282,"lon":5.374545,"is_reserved":false,"is_disabled":false,"rental_uris":{"android":"levelo://app?vid=a39717e7-4923-4bb4-8b8d-f06788e0cdc7","ios":"levelo://app?vid=a39717e7-4923-4bb4-8b8d-f06788e0cdc7"},"vehicle_type_id":"4","last_reported":1748873447,"current_range_meters":8400,"station_id":"ce4bgi12rcd13ifvqb70","pricing_plan_id":"cebpf4jnsgd1na2vs0mg"},{"bike_id":"aa02ecc3-0174-452a-a499-158f0075f488","system_id":"levelo_inurba_marseille","lat":43.29605,"lon":5.36775,"is_reserved":false,"is_disabled":false,"rental_uris":{"android":"levelo://app?vid=aa02ecc3-0174-452a-a499-158f0075f488","ios":"levelo://app?vid=aa02ecc3-0174-452a-a499-158f0075f488"},"vehicle_type_id":"4","last_reported":1748873447,"current_range_meters":8400,"station_id":"ce4bgph2rcd13ifvqc2g","pricing_plan_id":"cebpf4jnsgd1na2vs0mg"},{"bike_id":"082c3033-90af-4660-9ab8-23e055d21e55","system_id":"levelo_inurba_marseille","lat":43.28027,"lon":5.36966,"is_reserved":false,"is_disabled":false,"rental_uris":{"android":"levelo://app?vid=082c3033-90af-4660-9ab8-23e055d21e55","ios":"levelo://app?vid=082c3033-90af-4660-9ab8-23e055d21e55"},"vehicle_type_id":"4","last_reported":1748873447,"current_range_meters":6000,"station_id":"ce4bha12rcd13ifvqef0","pricing_plan_id":"cebpf4jnsgd1na2vs0mg"},{"bike_id":"1a180c67-ccc3-4a54-89d1-c999cec66108","system_id":"levelo_inurba_marseille","lat":43.30456,"lon":5.41273,"is_reserved":false,"is_disabled":false,"rental_uris":{"android":"levelo://app?vid=1a180c67-ccc3-4a54-89d1-c999cec66108","ios":"levelo://app?vid=1a180c67-ccc3-4a54-89d1-c999cec66108"},"vehicle_type_id":"4","last_reported":1748873447,"current_range_meters":8400,"station_id":"ce4bhop2rcd13ifvqh8g","pricing_plan_id":"cebpf4jnsgd1na2vs0mg"},{"bike_id":"b6cfca19-4dc6-41f6-a73f-67c63686e63d","system_id":"levelo_inurba_marseille","lat":43.29204,"lon":5.39322,"is_reserved":false,"is_disabled":false,"rental_uris":{"android":"levelo://app?vid=b6cfca19-4dc6-41f6-a73f-67c63686e63d","ios":"levelo://app?vid=b6cfca19-4dc6-41f6-a73f-67c63686e63d"},"vehicle_type_id":"4","last_reported":1748873447,"current_range_meters":8400,"station_id":"ce4bh192rcd13ifvqdd0","pricing_plan_id":"cebpf4jnsgd1na2vs0mg"},{"bike_id":"5dead81c-52cf-467b-885d-461d40fb80a5","system_id":"levelo_inurba_marseille","lat":43.251,"lon":5.40952,"is_reserved":false,"is_disabled":false,"rental_uris":{"android":"levelo://app?vid=5dead81c-52cf-467b-885d-461d40fb80a5","ios":"levelo://app?vid=5dead81c-52cf-467b-885d-461d40fb80a5"},"vehicle_type_id":"4","last_reported":1748873447,"current_range_meters":8800,"station_id":"","pricing_plan_id":"cebpf4jnsgd1na2vs0mg"},{"bike_id":"d72d5a5e-a033-4555-a5b7-2e9b101d2f01","system_id":"levelo_inurba_marseille","lat":43.24354,"lon":5.4114,"is_reserved":false,"is_disabled":false,"rental_uris":{"android":"levelo://app?vid=d72d5a5e-a033-4555-a5b7-2e9b101d2f01","ios":"levelo://app?vid=d72d5a5e-a033-4555-a5b7-2e9b101d2f01"},"vehicle_type_id":"4","last_reported":1748873447,"current_range_meters":8800,"station_id":"","pricing_plan_id":"cebpf4jnsgd1na2vs0mg"},{"bike_id":"0b3654db-33dc-4a56-850c-0b6b7ac0b481","system_id":"levelo_inurba_marseille","lat":43.23078,"lon":5.40192,"is_reserved":false,"is_disabled":false,"rental_uris":{"android":"levelo://app?vid=0b3654db-33dc-4a56-850c-0b6b7ac0b481","ios":"levelo://app?vid=0b3654db-33dc-4a56-850c-0b6b7ac0b481"},"vehicle_type_id":"4","last_reported":1748873447,"current_range_meters":8800,"station_id":"","pricing_plan_id":"cebpf4jnsgd1na2vs0mg"},{"bike_id":"9376123c-1d7b-4fd1-a6da-d86eaa91c545","system_id":"levelo_inurba_marseille","lat":43.269354,"lon":5.40251,"is_reserved":false,"is_disabled":false,"rental_uris":{"android":"levelo://app?vid=9376123c-1d7b-4fd1-a6da-d86eaa91c545","ios":"levelo://app?vid=9376123c-1d7b-4fd1-a6da-d86eaa91c545"},"vehicle_type_id":"4","last_reported":1748873447,"current_range_meters":9200,"station_id":"cjm6bp8fraef2m0cb0m0","pricing_plan_id":"cebpf4jnsgd1na2vs0mg"},{"bike_id":"e7c14216-2d82-48bb-889b-3912f979ed5b","system_id":"levelo_inurba_marseille","lat":43.27321,"lon":5.39093,"is_reserved":false,"is_disabled":false,"rental_uris":{"android":"levelo://app?vid=e7c14216-2d82-48bb-889b-3912f979ed5b","ios":"levelo://app?vid=e7c14216-2d82-48bb-889b-3912f979ed5b"},"vehicle_type_id":"4","last_reported":1748873447,"current_range_meters":9200,"station_id":"ce4bhgp2rcd13ifvqfe0","pricing_plan_id":"cebpf4jnsgd1na2vs0mg"},{"bike_id":"83f430d0-c0fa-4f2a-899e-7de3601bf2ea","system_id":"levelo_inurba_marseille","lat":43.28416,"lon":5.34977,"is_reserved":false,"is_disabled":false,"rental_uris":{"android":"levelo://app?vid=83f430d0-c0fa-4f2a-899e-7de3601bf2ea","ios":"levelo://app?vid=83f430d0-c0fa-4f2a-899e-7de3601bf2ea"},"vehicle_type_id":"4","last_reported":1748873447,"current_range_meters":4800,"station_id":"ce4bhbh2rcd13ifvqepg","pricing_plan_id":"cebpf4jnsgd1na2vs0mg"},{"bike_id":"73a4770d-0c02-48d5-a0f7-4d250b83527c","system_id":"levelo_inurba_marseille","lat":43.324747,"lon":5.424768,"is_reserved":false,"is_disabled":false,"rental_uris":{"android":"levelo://app?vid=73a4770d-0c02-48d5-a0f7-4d250b83527c","ios":"levelo://app?vid=73a4770d-0c02-48d5-a0f7-4d250b83527c"},"vehicle_type_id":"4","last_reported":1748873447,"current_range_meters":9200,"station_id":"","pricing_plan_id":"cebpf4jnsgd1na2vs0mg"},{"bike_id":"cb31f4f9-6acb-47ea-a94a-1032e0e8edf3","system_id":"levelo_inurba_marseille","lat":43.304235,"lon":5.412802,"is_reserved":false,"is_disabled":false,"rental_uris":{"android":"levelo://app?vid=cb31f4f9-6acb-47ea-a94a-1032e0e8edf3","ios":"levelo://app?vid=cb31f4f9-6acb-47ea-a94a-1032e0e8edf3"},"vehicle_type_id":"4","last_reported":1748873447,"current_range_meters":9600,"station_id":"ce4bhop2rcd13ifvqh8g","pricing_plan_id":"cebpf4jnsgd1na2vs0mg"},{"bike_id":"a23f66ad-b280-4808-89ca-5f4323e24e47","system_id":"levelo_inurba_marseille","lat":43.2991,"lon":5.38141,"is_reserved":false,"is_disabled":false,"rental_uris":{"android":"levelo://app?vid=a23f66ad-b280-4808-89ca-5f4323e24e47","ios":"levelo://app?vid=a23f66ad-b280-4808-89ca-5f4323e24e47"},"vehicle_type_id":"4","last_reported":1748873447,"current_range_meters":9600,"station_id":"ce4bgj12rcd13ifvqbc0","pricing_plan_id":"cebpf4jnsgd1na2vs0mg"},{"bike_id":"2e1d045b-b85c-4035-944b-c033fbaa153a","system_id":"levelo_inurba_marseille","lat":43.27324,"lon":5.39091,"is_reserved":false,"is_disabled":false,"rental_uris":{"android":"levelo://app?vid=2e1d045b-b85c-4035-944b-c033fbaa153a","ios":"levelo://app?vid=2e1d045b-b85c-4035-944b-c033fbaa153a"},"vehicle_type_id":"4","last_reported":1748873447,"current_range_meters":9600,"station_id":"ce4bhgp2rcd13ifvqfe0","pricing_plan_id":"cebpf4jnsgd1na2vs0mg"},{"bike_id":"b987c110-e501-4ce5-b8b6-3b8cb601cbfe","system_id":"levelo_inurba_marseille","lat":43.28632,"lon":5.35113,"is_reserved":false,"is_disabled":false,"rental_uris":{"android":"levelo://app?vid=b987c110-e501-4ce5-b8b6-3b8cb601cbfe","ios":"levelo://app?vid=b987c110-e501-4ce5-b8b6-3b8cb601cbfe"},"vehicle_type_id":"4","last_reported":1748873447,"current_range_meters":9600,"station_id":"ce4bhch2rcd13ifvqeug","pricing_plan_id":"cebpf4jnsgd1na2vs0mg"},{"bike_id":"dd01710d-a0f0-4627-87fb-913fc9d92aed","system_id":"levelo_inurba_marseille","lat":43.29187,"lon":5.35807,"is_reserved":false,"is_disabled":false,"rental_uris":{"android":"levelo://app?vid=dd01710d-a0f0-4627-87fb-913fc9d92aed","ios":"levelo://app?vid=dd01710d-a0f0-4627-87fb-913fc9d92aed"},"vehicle_type_id":"4","last_reported":1748873447,"current_range_meters":9600,"station_id":"ce4bhb12rcd13ifvqel0","pricing_plan_id":"cebpf4jnsgd1na2vs0mg"},{"bike_id":"75c664b5-8c32-42f6-9085-436c62fd99be","system_id":"levelo_inurba_marseille","lat":43.3236,"lon":5.36742,"is_reserved":false,"is_disabled":false,"rental_uris":{"android":"levelo://app?vid=75c664b5-8c32-42f6-9085-436c62fd99be","ios":"levelo://app?vid=75c664b5-8c32-42f6-9085-436c62fd99be"},"vehicle_type_id":"4","last_reported":1748873447,"current_range_meters":9600,"station_id":"ce4bhsh2rcd13ifvqi2g","pricing_plan_id":"cebpf4jnsgd1na2vs0mg"},{"bike_id":"99d59ddb-ca3d-43a4-b2ac-7c92aea831a5","system_id":"levelo_inurba_marseille","lat":43.31363,"lon":5.36677,"is_reserved":false,"is_disabled":true,"rental_uris":{"android":"levelo://app?vid=99d59ddb-ca3d-43a4-b2ac-7c92aea831a5","ios":"levelo://app?vid=99d59ddb-ca3d-43a4-b2ac-7c92aea831a5"},"vehicle_type_id":"4","last_reported":1748873447,"current_range_meters":10000,"station_id":"ce4bgr92rcd13ifvqc6g","pricing_plan_id":"cebpf4jnsgd1na2vs0mg"},{"bike_id":"afe42cf5-b493-4fb7-b710-2b3f0a107bae","system_id":"levelo_inurba_marseille","lat":43.317471,"lon":5.38752,"is_reserved":false,"is_disabled":false,"rental_uris":{"android":"levelo://app?vid=afe42cf5-b493-4fb7-b710-2b3f0a107bae","ios":"levelo://app?vid=afe42cf5-b493-4fb7-b710-2b3f0a107bae"},"vehicle_type_id":"4","last_reported":1748873447,"current_range_meters":10000,"station_id":"","pricing_plan_id":"cebpf4jnsgd1na2vs0mg"},{"bike_id":"e9c10b6e-993e-4045-b0cd-2ddfea388a4e","system_id":"levelo_inurba_marseille","lat":43.23197,"lon":5.35564,"is_reserved":false,"is_disabled":false,"rental_uris":{"android":"levelo://app?vid=e9c10b6e-993e-4045-b0cd-2ddfea388a4e","ios":"levelo://app?vid=e9c10b6e-993e-4045-b0cd-2ddfea388a4e"},"vehicle_type_id":"4","last_reported":1748873447,"current_range_meters":10000,"station_id":"ce4bhu92rcd13ifvqi70","pricing_plan_id":"cebpf4jnsgd1na2vs0mg"},{"bike_id":"99031a1d-6b77-43a2-8d83-6e94fd8717ad","system_id":"levelo_inurba_marseille","lat":43.29876,"lon":5.38915,"is_reserved":false,"is_disabled":false,"rental_uris":{"android":"levelo://app?vid=99031a1d-6b77-43a2-8d83-6e94fd8717ad","ios":"levelo://app?vid=99031a1d-6b77-43a2-8d83-6e94fd8717ad"},"vehicle_type_id":"4","last_reported":1748873447,"current_range_meters":10000,"station_id":"ce4bh392rcd13ifvqdl0","pricing_plan_id":"cebpf4jnsgd1na2vs0mg"},{"bike_id":"d0f0c7bc-9274-4819-94da-3b617eccf293","system_id":"levelo_inurba_marseille","lat":43.284127,"lon":5.349815,"is_reserved":false,"is_disabled":false,"rental_uris":{"android":"levelo://app?vid=d0f0c7bc-9274-4819-94da-3b617eccf293","ios":"levelo://app?vid=d0f0c7bc-9274-4819-94da-3b617eccf293"},"vehicle_type_id":"4","last_reported":1748873447,"current_range_meters":10800,"station_id":"ce4bhbh2rcd13ifvqepg","pricing_plan_id":"cebpf4jnsgd1na2vs0mg"},{"bike_id":"005bcc6c-5313-491c-af50-25a503840f66","system_id":"levelo_inurba_marseille","lat":43.217637,"lon":5.346167,"is_reserved":false,"is_disabled":false,"rental_uris":{"android":"levelo://app?vid=005bcc6c-5313-491c-af50-25a503840f66","ios":"levelo://app?vid=005bcc6c-5313-491c-af50-25a503840f66"},"vehicle_type_id":"4","last_reported":1748873447,"current_range_meters":10800,"station_id":"","pricing_plan_id":"cebpf4jnsgd1na2vs0mg"},{"bike_id":"0826802e-78e7-4998-be72-a3c416a3f670","system_id":"levelo_inurba_marseille","lat":43.29385,"lon":5.37874,"is_reserved":false,"is_disabled":false,"rental_uris":{"android":"levelo://app?vid=0826802e-78e7-4998-be72-a3c416a3f670","ios":"levelo://app?vid=0826802e-78e7-4998-be72-a3c416a3f670"},"vehicle_type_id":"4","last_reported":1748873447,"current_range_meters":10000,"station_id":"ce4bgjh2rcd13ifvqbf0","pricing_plan_id":"cebpf4jnsgd1na2vs0mg"},{"bike_id":"ea5d828c-ef58-49c2-a222-4a3e55c9c134","system_id":"levelo_inurba_marseille","lat":43.304442,"lon":5.397471,"is_reserved":false,"is_disabled":false,"rental_uris":{"android":"levelo://app?vid=ea5d828c-ef58-49c2-a222-4a3e55c9c134","ios":"levelo://app?vid=ea5d828c-ef58-49c2-a222-4a3e55c9c134"},"vehicle_type_id":"4","last_reported":1748873447,"current_range_meters":10800,"station_id":"ce4bh092rcd13ifvqd20","pricing_plan_id":"cebpf4jnsgd1na2vs0mg"},{"bike_id":"4448d46e-b7df-4f6a-827d-fa64d237e360","system_id":"levelo_inurba_marseille","lat":43.31373,"lon":5.38493,"is_reserved":false,"is_disabled":false,"rental_uris":{"android":"levelo://app?vid=4448d46e-b7df-4f6a-827d-fa64d237e360","ios":"levelo://app?vid=4448d46e-b7df-4f6a-827d-fa64d237e360"},"vehicle_type_id":"4","last_reported":1748873447,"current_range_meters":10800,"station_id":"ce4bgt92rcd13ifvqcf0","pricing_plan_id":"cebpf4jnsgd1na2vs0mg"},{"bike_id":"5a23114b-fdd9-4fc6-901d-41a6f63d027b","system_id":"levelo_inurba_marseille","lat":43.24555,"lon":5.3955,"is_reserved":false,"is_disabled":false,"rental_uris":{"android":"levelo://app?vid=5a23114b-fdd9-4fc6-901d-41a6f63d027b","ios":"levelo://app?vid=5a23114b-fdd9-4fc6-901d-41a6f63d027b"},"vehicle_type_id":"4","last_reported":1748873447,"current_range_meters":10800,"station_id":"ce4bhlp2rcd13ifvqgjg","pricing_plan_id":"cebpf4jnsgd1na2vs0mg"},{"bike_id":"e3becad8-e8bb-4aa8-8f77-50d9806595d6","system_id":"levelo_inurba_marseille","lat":43.30908,"lon":5.37203,"is_reserved":false,"is_disabled":false,"rental_uris":{"android":"levelo://app?vid=e3becad8-e8bb-4aa8-8f77-50d9806595d6","ios":"levelo://app?vid=e3becad8-e8bb-4aa8-8f77-50d9806595d6"},"vehicle_type_id":"4","last_reported":1748873447,"current_range_meters":11200,"station_id":"ce4bguh2rcd13ifvqckg","pricing_plan_id":"cebpf4jnsgd1na2vs0mg"},{"bike_id":"7a6151c7-a921-4835-8394-2344c58e4547","system_id":"levelo_inurba_marseille","lat":43.25749,"lon":5.41138,"is_reserved":false,"is_disabled":false,"rental_uris":{"android":"levelo://app?vid=7a6151c7-a921-4835-8394-2344c58e4547","ios":"levelo://app?vid=7a6151c7-a921-4835-8394-2344c58e4547"},"vehicle_type_id":"4","last_reported":1748873447,"current_range_meters":11200,"station_id":"","pricing_plan_id":"cebpf4jnsgd1na2vs0mg"},{"bike_id":"1c543a57-ab36-4bbe-8293-006c721e89b9","system_id":"levelo_inurba_marseille","lat":43.276263,"lon":5.361136,"is_reserved":false,"is_disabled":false,"rental_uris":{"android":"levelo://app?vid=1c543a57-ab36-4bbe-8293-006c721e89b9","ios":"levelo://app?vid=1c543a57-ab36-4bbe-8293-006c721e89b9"},"vehicle_type_id":"4","last_reported":1748873447,"current_range_meters":11200,"station_id":"ce4bgj92rcd13ifvqbe0","pricing_plan_id":"cebpf4jnsgd1na2vs0mg"},{"bike_id":"0f10a517-42e8-4df9-8fd7-03a0e59ed51b","system_id":"levelo_inurba_marseille","lat":43.27956,"lon":5.38697,"is_reserved":false,"is_disabled":false,"rental_uris":{"android":"levelo://app?vid=0f10a517-42e8-4df9-8fd7-03a0e59ed51b","ios":"levelo://app?vid=0f10a517-42e8-4df9-8fd7-03a0e59ed51b"},"vehicle_type_id":"4","last_reported":1748873447,"current_range_meters":11200,"station_id":"ce4bhg12rcd13ifvqf80","pricing_plan_id":"cebpf4jnsgd1na2vs0mg"},{"bike_id":"319bd584-ae0d-4b97-be88-477c160947c8","system_id":"levelo_inurba_marseille","lat":43.302124,"lon":5.394692,"is_reserved":false,"is_disabled":false,"rental_uris":{"android":"levelo://app?vid=319bd584-ae0d-4b97-be88-477c160947c8","ios":"levelo://app?vid=319bd584-ae0d-4b97-be88-477c160947c8"},"vehicle_type_id":"4","last_reported":1748873447,"current_range_meters":10800,"station_id":"ce4bh0p2rcd13ifvqd70","pricing_plan_id":"cebpf4jnsgd1na2vs0mg"},{"bike_id":"c36bd383-74a7-41fe-8c4e-b4e265509657","system_id":"levelo_inurba_marseille","lat":43.30191,"lon":5.3664,"is_reserved":false,"is_disabled":false,"rental_uris":{"android":"levelo://app?vid=c36bd383-74a7-41fe-8c4e-b4e265509657","ios":"levelo://app?vid=c36bd383-74a7-41fe-8c4e-b4e265509657"},"vehicle_type_id":"4","last_reported":1748873447,"current_range_meters":11200,"station_id":"ce4bgrh2rcd13ifvqc8g","pricing_plan_id":"cebpf4jnsgd1na2vs0mg"},{"bike_id":"eb7e536b-e1fe-4a00-b0be-f21612ad8028","system_id":"levelo_inurba_marseille","lat":43.25124,"lon":5.40317,"is_reserved":false,"is_disabled":false,"rental_uris":{"android":"levelo://app?vid=eb7e536b-e1fe-4a00-b0be-f21612ad8028","ios":"levelo://app?vid=eb7e536b-e1fe-4a00-b0be-f21612ad8028"},"vehicle_type_id":"4","last_reported":1748873447,"current_range_meters":11600,"station_id":"ce4bhlh2rcd13ifvqgig","pricing_plan_id":"cebpf4jnsgd1na2vs0mg"},{"bike_id":"a79d1f14-488a-4717-9122-17153b9e053b","system_id":"levelo_inurba_marseille","lat":43.21753,"lon":5.345963,"is_reserved":false,"is_disabled":false,"rental_uris":{"android":"levelo://app?vid=a79d1f14-488a-4717-9122-17153b9e053b","ios":"levelo://app?vid=a79d1f14-488a-4717-9122-17153b9e053b"},"vehicle_type_id":"4","last_reported":1748873447,"current_range_meters":11600,"station_id":"st_cvj6r9ubvosntc0bgbag","pricing_plan_id":"cebpf4jnsgd1na2vs0mg"},{"bike_id":"218f6c8d-e3e4-4093-9e7b-4362ebcd001c","system_id":"levelo_inurba_marseille","lat":43.21782,"lon":5.34581,"is_reserved":false,"is_disabled":false,"rental_uris":{"android":"levelo://app?vid=218f6c8d-e3e4-4093-9e7b-4362ebcd001c","ios":"levelo://app?vid=218f6c8d-e3e4-4093-9e7b-4362ebcd001c"},"vehicle_type_id":"4","last_reported":1748873447,"current_range_meters":11600,"station_id":"st_cvj6r9ubvosntc0bgbag","pricing_plan_id":"cebpf4jnsgd1na2vs0mg"},{"bike_id":"abbdae3f-74e4-40c4-883b-77677a0ed953","system_id":"levelo_inurba_marseille","lat":43.28924,"lon":5.36399,"is_reserved":false,"is_disabled":false,"rental_uris":{"android":"levelo://app?vid=abbdae3f-74e4-40c4-883b-77677a0ed953","ios":"levelo://app?vid=abbdae3f-74e4-40c4-883b-77677a0ed953"},"vehicle_type_id":"4","last_reported":1748873447,"current_range_meters":11600,"station_id":"ce4bhc92rcd13ifvqetg","pricing_plan_id":"cebpf4jnsgd1na2vs0mg"},{"bike_id":"4f12d321-0f52-4036-88cf-0e5077f77127","system_id":"levelo_inurba_marseille","lat":43.29201,"lon":5.39326,"is_reserved":false,"is_disabled":false,"rental_uris":{"android":"levelo://app?vid=4f12d321-0f52-4036-88cf-0e5077f77127","ios":"levelo://app?vid=4f12d321-0f52-4036-88cf-0e5077f77127"},"vehicle_type_id":"4","last_reported":1748873447,"current_range_meters":11200,"station_id":"ce4bh192rcd13ifvqdd0","pricing_plan_id":"cebpf4jnsgd1na2vs0mg"},{"bike_id":"6eb4696e-ff7c-46d1-b911-1091dd510d69","system_id":"levelo_inurba_marseille","lat":43.30549,"lon":5.36534,"is_reserved":false,"is_disabled":false,"rental_uris":{"android":"levelo://app?vid=6eb4696e-ff7c-46d1-b911-1091dd510d69","ios":"levelo://app?vid=6eb4696e-ff7c-46d1-b911-1091dd510d69"},"vehicle_type_id":"4","last_reported":1748873447,"current_range_meters":11600,"station_id":"ce4bgs12rcd13ifvqcag","pricing_plan_id":"cebpf4jnsgd1na2vs0mg"},{"bike_id":"d54bad3a-7ff1-4a15-aeab-92cdac98e952","system_id":"levelo_inurba_marseille","lat":43.27882,"lon":5.3961,"is_reserved":false,"is_disabled":false,"rental_uris":{"android":"levelo://app?vid=d54bad3a-7ff1-4a15-aeab-92cdac98e952","ios":"levelo://app?vid=d54bad3a-7ff1-4a15-aeab-92cdac98e952"},"vehicle_type_id":"4","last_reported":1748873447,"current_range_meters":11600,"station_id":"","pricing_plan_id":"cebpf4jnsgd1na2vs0mg"},{"bike_id":"87610420-1946-4129-93d3-32a7a4601033","system_id":"levelo_inurba_marseille","lat":43.30644,"lon":5.40095,"is_reserved":false,"is_disabled":false,"rental_uris":{"android":"levelo://app?vid=87610420-1946-4129-93d3-32a7a4601033","ios":"levelo://app?vid=87610420-1946-4129-93d3-32a7a4601033"},"vehicle_type_id":"4","last_reported":1748873447,"current_range_meters":12000,"station_id":"ce4bh112rcd13ifvqda0","pricing_plan_id":"cebpf4jnsgd1na2vs0mg"},{"bike_id":"569ee311-0d90-4f86-aecd-d0afa7bdb281","system_id":"levelo_inurba_marseille","lat":43.26561,"lon":5.390253,"is_reserved":false,"is_disabled":false,"rental_uris":{"android":"levelo://app?vid=569ee311-0d90-4f86-aecd-d0afa7bdb281","ios":"levelo://app?vid=569ee311-0d90-4f86-aecd-d0afa7bdb281"},"vehicle_type_id":"4","last_reported":1748873447,"current_range_meters":12000,"station_id":"ce4bhe12rcd13ifvqf30","pricing_plan_id":"cebpf4jnsgd1na2vs0mg"},{"bike_id":"d6836856-7e36-41b4-9f7e-c649d2861772","system_id":"levelo_inurba_marseille","lat":43.32484,"lon":5.3657,"is_reserved":false,"is_disabled":false,"rental_uris":{"android":"levelo://app?vid=d6836856-7e36-41b4-9f7e-c649d2861772","ios":"levelo://app?vid=d6836856-7e36-41b4-9f7e-c649d2861772"},"vehicle_type_id":"4","last_reported":1748873447,"current_range_meters":12000,"station_id":"ce4bhs12rcd13ifvqhvg","pricing_plan_id":"cebpf4jnsgd1na2vs0mg"},{"bike_id":"41ab561b-deed-4743-a96c-0360e4ec4d0e","system_id":"levelo_inurba_marseille","lat":43.2989,"lon":5.43661,"is_reserved":false,"is_disabled":false,"rental_uris":{"android":"levelo://app?vid=41ab561b-deed-4743-a96c-0360e4ec4d0e","ios":"levelo://app?vid=41ab561b-deed-4743-a96c-0360e4ec4d0e"},"vehicle_type_id":"4","last_reported":1748873447,"current_range_meters":12000,"station_id":"ce4bhpp2rcd13ifvqhfg","pricing_plan_id":"cebpf4jnsgd1na2vs0mg"},{"bike_id":"574dceb7-82c3-4f01-a992-0391d1461390","system_id":"levelo_inurba_marseille","lat":43.28154,"lon":5.42645,"is_reserved":false,"is_disabled":false,"rental_uris":{"android":"levelo://app?vid=574dceb7-82c3-4f01-a992-0391d1461390","ios":"levelo://app?vid=574dceb7-82c3-4f01-a992-0391d1461390"},"vehicle_type_id":"4","last_reported":1748873447,"current_range_meters":12000,"station_id":"ce4bhnh2rcd13ifvqgug","pricing_plan_id":"cebpf4jnsgd1na2vs0mg"},{"bike_id":"716ae743-21da-48ff-a8cd-4d872669e845","system_id":"levelo_inurba_marseille","lat":43.281012,"lon":5.378506,"is_reserved":false,"is_disabled":false,"rental_uris":{"android":"levelo://app?vid=716ae743-21da-48ff-a8cd-4d872669e845","ios":"levelo://app?vid=716ae743-21da-48ff-a8cd-4d872669e845"},"vehicle_type_id":"4","last_reported":1748873447,"current_range_meters":12400,"station_id":"ce4bha12rcd13ifvqee0","pricing_plan_id":"cebpf4jnsgd1na2vs0mg"},{"bike_id":"00631d3c-2231-4625-9d84-019f18cef5bc","system_id":"levelo_inurba_marseille","lat":43.292633,"lon":5.376216,"is_reserved":false,"is_disabled":false,"rental_uris":{"android":"levelo://app?vid=00631d3c-2231-4625-9d84-019f18cef5bc","ios":"levelo://app?vid=00631d3c-2231-4625-9d84-019f18cef5bc"},"vehicle_type_id":"4","last_reported":1748873447,"current_range_meters":12400,"station_id":"ce4bgi12rcd13ifvqb80","pricing_plan_id":"cebpf4jnsgd1na2vs0mg"},{"bike_id":"2c64e4bc-106d-4a69-8474-903f360d4142","system_id":"levelo_inurba_marseille","lat":43.231983,"lon":5.399963,"is_reserved":false,"is_disabled":false,"rental_uris":{"android":"levelo://app?vid=2c64e4bc-106d-4a69-8474-903f360d4142","ios":"levelo://app?vid=2c64e4bc-106d-4a69-8474-903f360d4142"},"vehicle_type_id":"4","last_reported":1748873447,"current_range_meters":12400,"station_id":"ce4bhn12rcd13ifvqgqg","pricing_plan_id":"cebpf4jnsgd1na2vs0mg"},{"bike_id":"0f30309f-7b66-4769-9810-8ca40cd81515","system_id":"levelo_inurba_marseille","lat":43.310638,"lon":5.383558,"is_reserved":false,"is_disabled":false,"rental_uris":{"android":"levelo://app?vid=0f30309f-7b66-4769-9810-8ca40cd81515","ios":"levelo://app?vid=0f30309f-7b66-4769-9810-8ca40cd81515"},"vehicle_type_id":"4","last_reported":1748873447,"current_range_meters":12400,"station_id":"ce4bgv92rcd13ifvqcr0","pricing_plan_id":"cebpf4jnsgd1na2vs0mg"},{"bike_id":"a5ef64a0-9027-4826-813b-2620fd6750d1","system_id":"levelo_inurba_marseille","lat":43.3133,"lon":5.39697,"is_reserved":false,"is_disabled":false,"rental_uris":{"android":"levelo://app?vid=a5ef64a0-9027-4826-813b-2620fd6750d1","ios":"levelo://app?vid=a5ef64a0-9027-4826-813b-2620fd6750d1"},"vehicle_type_id":"4","last_reported":1748873447,"current_range_meters":12400,"station_id":"ce4bgvp2rcd13ifvqcu0","pricing_plan_id":"cebpf4jnsgd1na2vs0mg"},{"bike_id":"59de7ec4-5c22-4816-8015-438902d6b81f","system_id":"levelo_inurba_marseille","lat":43.31055,"lon":5.38361,"is_reserved":false,"is_disabled":false,"rental_uris":{"android":"levelo://app?vid=59de7ec4-5c22-4816-8015-438902d6b81f","ios":"levelo://app?vid=59de7ec4-5c22-4816-8015-438902d6b81f"},"vehicle_type_id":"4","last_reported":1748873447,"current_range_meters":12400,"station_id":"ce4bgv92rcd13ifvqcr0","pricing_plan_id":"cebpf4jnsgd1na2vs0mg"},{"bike_id":"f1c8c7e1-3f34-4d38-a503-caa580ebde75","system_id":"levelo_inurba_marseille","lat":43.225092,"lon":5.347879,"is_reserved":false,"is_disabled":false,"rental_uris":{"android":"levelo://app?vid=f1c8c7e1-3f34-4d38-a503-caa580ebde75","ios":"levelo://app?vid=f1c8c7e1-3f34-4d38-a503-caa580ebde75"},"vehicle_type_id":"4","last_reported":1748873447,"current_range_meters":12800,"station_id":"st_cvj5dfep6f1abm77gieg","pricing_plan_id":"cebpf4jnsgd1na2vs0mg"},{"bike_id":"0ce29571-45c3-4ad8-bbe0-648fed70aa51","system_id":"levelo_inurba_marseille","lat":43.28464,"lon":5.3589,"is_reserved":false,"is_disabled":false,"rental_uris":{"android":"levelo://app?vid=0ce29571-45c3-4ad8-bbe0-648fed70aa51","ios":"levelo://app?vid=0ce29571-45c3-4ad8-bbe0-648fed70aa51"},"vehicle_type_id":"4","last_reported":1748873447,"current_range_meters":12400,"station_id":"ce4bhah2rcd13ifvqei0","pricing_plan_id":"cebpf4jnsgd1na2vs0mg"},{"bike_id":"e33139e4-cb28-4d7f-bf42-8535a8a89047","system_id":"levelo_inurba_marseille","lat":43.24174,"lon":5.36407,"is_reserved":false,"is_disabled":false,"rental_uris":{"android":"levelo://app?vid=e33139e4-cb28-4d7f-bf42-8535a8a89047","ios":"levelo://app?vid=e33139e4-cb28-4d7f-bf42-8535a8a89047"},"vehicle_type_id":"4","last_reported":1748873447,"current_range_meters":12800,"station_id":"cpo36qri1sfpv3e86is0","pricing_plan_id":"cebpf4jnsgd1na2vs0mg"},{"bike_id":"1b9074d1-2360-427a-8750-65291a76af96","system_id":"levelo_inurba_marseille","lat":43.25721,"lon":5.41125,"is_reserved":false,"is_disabled":false,"rental_uris":{"android":"levelo://app?vid=1b9074d1-2360-427a-8750-65291a76af96","ios":"levelo://app?vid=1b9074d1-2360-427a-8750-65291a76af96"},"vehicle_type_id":"4","last_reported":1748873447,"current_range_meters":12800,"station_id":"ce4bhkp2rcd13ifvqgd0","pricing_plan_id":"cebpf4jnsgd1na2vs0mg"},{"bike_id":"f74a73a6-340a-410c-9a23-993f38c2e216","system_id":"levelo_inurba_marseille","lat":43.29573,"lon":5.39979,"is_reserved":false,"is_disabled":false,"rental_uris":{"android":"levelo://app?vid=f74a73a6-340a-410c-9a23-993f38c2e216","ios":"levelo://app?vid=f74a73a6-340a-410c-9a23-993f38c2e216"},"vehicle_type_id":"4","last_reported":1748873447,"current_range_meters":12400,"station_id":"ce4bh312rcd13ifvqdj0","pricing_plan_id":"cebpf4jnsgd1na2vs0mg"},{"bike_id":"0c11b441-cd79-40c0-bfd7-f68a34f41d8f","system_id":"levelo_inurba_marseille","lat":43.31398,"lon":5.36709,"is_reserved":false,"is_disabled":false,"rental_uris":{"android":"levelo://app?vid=0c11b441-cd79-40c0-bfd7-f68a34f41d8f","ios":"levelo://app?vid=0c11b441-cd79-40c0-bfd7-f68a34f41d8f"},"vehicle_type_id":"4","last_reported":1748873447,"current_range_meters":13600,"station_id":"ce4bgr92rcd13ifvqc6g","pricing_plan_id":"cebpf4jnsgd1na2vs0mg"},{"bike_id":"48bb8681-8587-4d2d-9b4b-5a41fd7557e0","system_id":"levelo_inurba_marseille","lat":43.28708,"lon":5.37405,"is_reserved":false,"is_disabled":false,"rental_uris":{"android":"levelo://app?vid=48bb8681-8587-4d2d-9b4b-5a41fd7557e0","ios":"levelo://app?vid=48bb8681-8587-4d2d-9b4b-5a41fd7557e0"},"vehicle_type_id":"4","last_reported":1748873447,"current_range_meters":13600,"station_id":"ce4bh3p2rcd13ifvqdq0","pricing_plan_id":"cebpf4jnsgd1na2vs0mg"},{"bike_id":"e21b4011-bcd9-42ab-8041-569fea952c02","system_id":"levelo_inurba_marseille","lat":43.27998,"lon":5.4166,"is_reserved":false,"is_disabled":false,"rental_uris":{"android":"levelo://app?vid=e21b4011-bcd9-42ab-8041-569fea952c02","ios":"levelo://app?vid=e21b4011-bcd9-42ab-8041-569fea952c02"},"vehicle_type_id":"4","last_reported":1748873447,"current_range_meters":13600,"station_id":"ce4bho12rcd13ifvqh1g","pricing_plan_id":"cebpf4jnsgd1na2vs0mg"},{"bike_id":"c79ccd7b-ccfc-4842-ae3b-a5d97cf87c57","system_id":"levelo_inurba_marseille","lat":43.31536,"lon":5.38027,"is_reserved":false,"is_disabled":false,"rental_uris":{"android":"levelo://app?vid=c79ccd7b-ccfc-4842-ae3b-a5d97cf87c57","ios":"levelo://app?vid=c79ccd7b-ccfc-4842-ae3b-a5d97cf87c57"},"vehicle_type_id":"4","last_reported":1748873447,"current_range_meters":13600,"station_id":"ce4bhsp2rcd13ifvqi50","pricing_plan_id":"cebpf4jnsgd1na2vs0mg"},{"bike_id":"fb8ee3bd-a031-44aa-9193-12aef769ac6e","system_id":"levelo_inurba_marseille","lat":43.26796,"lon":5.39414,"is_reserved":false,"is_disabled":false,"rental_uris":{"android":"levelo://app?vid=fb8ee3bd-a031-44aa-9193-12aef769ac6e","ios":"levelo://app?vid=fb8ee3bd-a031-44aa-9193-12aef769ac6e"},"vehicle_type_id":"4","last_reported":1748873447,"current_range_meters":13600,"station_id":"ce4bhh12rcd13ifvqfg0","pricing_plan_id":"cebpf4jnsgd1na2vs0mg"},{"bike_id":"499fb29d-0d16-4a40-9c2e-e16e069b3a26","system_id":"levelo_inurba_marseille","lat":43.29564,"lon":5.3753,"is_reserved":false,"is_disabled":false,"rental_uris":{"android":"levelo://app?vid=499fb29d-0d16-4a40-9c2e-e16e069b3a26","ios":"levelo://app?vid=499fb29d-0d16-4a40-9c2e-e16e069b3a26"},"vehicle_type_id":"4","last_reported":1748873447,"current_range_meters":14000,"station_id":"ce4bgh92rcd13ifvqb50","pricing_plan_id":"cebpf4jnsgd1na2vs0mg"},{"bike_id":"eca45143-16af-4fbb-8c61-2374cc75d18f","system_id":"levelo_inurba_marseille","lat":43.298173,"lon":5.380927,"is_reserved":false,"is_disabled":false,"rental_uris":{"android":"levelo://app?vid=eca45143-16af-4fbb-8c61-2374cc75d18f","ios":"levelo://app?vid=eca45143-16af-4fbb-8c61-2374cc75d18f"},"vehicle_type_id":"4","last_reported":1748873447,"current_range_meters":14000,"station_id":"ce4bgip2rcd13ifvqbb0","pricing_plan_id":"cebpf4jnsgd1na2vs0mg"},{"bike_id":"f9da597e-827d-4322-b772-952bf14f1407","system_id":"levelo_inurba_marseille","lat":43.29185,"lon":5.39337,"is_reserved":false,"is_disabled":false,"rental_uris":{"android":"levelo://app?vid=f9da597e-827d-4322-b772-952bf14f1407","ios":"levelo://app?vid=f9da597e-827d-4322-b772-952bf14f1407"},"vehicle_type_id":"4","last_reported":1748873447,"current_range_meters":14000,"station_id":"ce4bh192rcd13ifvqdd0","pricing_plan_id":"cebpf4jnsgd1na2vs0mg"},{"bike_id":"d1376fdb-bb8d-40aa-8de5-84acb3706c2e","system_id":"levelo_inurba_marseille","lat":43.3237,"lon":5.36766,"is_reserved":false,"is_disabled":false,"rental_uris":{"android":"levelo://app?vid=d1376fdb-bb8d-40aa-8de5-84acb3706c2e","ios":"levelo://app?vid=d1376fdb-bb8d-40aa-8de5-84acb3706c2e"},"vehicle_type_id":"4","last_reported":1748873447,"current_range_meters":14000,"station_id":"ce4bhsh2rcd13ifvqi2g","pricing_plan_id":"cebpf4jnsgd1na2vs0mg"},{"bike_id":"f9ba8850-482d-43cd-93c6-da015477c7af","system_id":"levelo_inurba_marseille","lat":43.28634,"lon":5.3837,"is_reserved":false,"is_disabled":false,"rental_uris":{"android":"levelo://app?vid=f9ba8850-482d-43cd-93c6-da015477c7af","ios":"levelo://app?vid=f9ba8850-482d-43cd-93c6-da015477c7af"},"vehicle_type_id":"4","last_reported":1748873447,"current_range_meters":14000,"station_id":"","pricing_plan_id":"cebpf4jnsgd1na2vs0mg"},{"bike_id":"5b0c04c7-3e5d-4981-ba91-7d65704822b2","system_id":"levelo_inurba_marseille","lat":43.27947,"lon":5.37966,"is_reserved":false,"is_disabled":false,"rental_uris":{"android":"levelo://app?vid=5b0c04c7-3e5d-4981-ba91-7d65704822b2","ios":"levelo://app?vid=5b0c04c7-3e5d-4981-ba91-7d65704822b2"},"vehicle_type_id":"4","last_reported":1748873447,"current_range_meters":14400,"station_id":"","pricing_plan_id":"cebpf4jnsgd1na2vs0mg"},{"bike_id":"552c79e8-7db3-4c59-9ec7-b3480eb521de","system_id":"levelo_inurba_marseille","lat":43.29873,"lon":5.39736,"is_reserved":false,"is_disabled":false,"rental_uris":{"android":"levelo://app?vid=552c79e8-7db3-4c59-9ec7-b3480eb521de","ios":"levelo://app?vid=552c79e8-7db3-4c59-9ec7-b3480eb521de"},"vehicle_type_id":"4","last_reported":1748873447,"current_range_meters":14400,"station_id":"ce4bh0h2rcd13ifvqd50","pricing_plan_id":"cebpf4jnsgd1na2vs0mg"},{"bike_id":"fa62253e-e4db-42d1-9a63-6ab16922bf00","system_id":"levelo_inurba_marseille","lat":43.32006,"lon":5.36854,"is_reserved":false,"is_disabled":false,"rental_uris":{"android":"levelo://app?vid=fa62253e-e4db-42d1-9a63-6ab16922bf00","ios":"levelo://app?vid=fa62253e-e4db-42d1-9a63-6ab16922bf00"},"vehicle_type_id":"4","last_reported":1748873447,"current_range_meters":14800,"station_id":"","pricing_plan_id":"cebpf4jnsgd1na2vs0mg"},{"bike_id":"0fc4f835-2339-4b15-970f-d27b0d088aec","system_id":"levelo_inurba_marseille","lat":43.28427,"lon":5.34991,"is_reserved":false,"is_disabled":false,"rental_uris":{"android":"levelo://app?vid=0fc4f835-2339-4b15-970f-d27b0d088aec","ios":"levelo://app?vid=0fc4f835-2339-4b15-970f-d27b0d088aec"},"vehicle_type_id":"4","last_reported":1748873447,"current_range_meters":14800,"station_id":"ce4bhbh2rcd13ifvqepg","pricing_plan_id":"cebpf4jnsgd1na2vs0mg"},{"bike_id":"65618225-bb32-4e2c-8cb5-9009cbc8d45a","system_id":"levelo_inurba_marseille","lat":43.23159,"lon":5.43702,"is_reserved":false,"is_disabled":false,"rental_uris":{"android":"levelo://app?vid=65618225-bb32-4e2c-8cb5-9009cbc8d45a","ios":"levelo://app?vid=65618225-bb32-4e2c-8cb5-9009cbc8d45a"},"vehicle_type_id":"4","last_reported":1748873447,"current_range_meters":14800,"station_id":"ce4bhmp2rcd13ifvqgog","pricing_plan_id":"cebpf4jnsgd1na2vs0mg"},{"bike_id":"69302918-50bb-4dad-a695-2d971fb923bb","system_id":"levelo_inurba_marseille","lat":43.2942,"lon":5.38626,"is_reserved":false,"is_disabled":false,"rental_uris":{"android":"levelo://app?vid=69302918-50bb-4dad-a695-2d971fb923bb","ios":"levelo://app?vid=69302918-50bb-4dad-a695-2d971fb923bb"},"vehicle_type_id":"4","last_reported":1748873447,"current_range_meters":14800,"station_id":"ce4bh2h2rcd13ifvqdh0","pricing_plan_id":"cebpf4jnsgd1na2vs0mg"},{"bike_id":"dd2a3ade-af55-41e4-821f-8fde85596c6a","system_id":"levelo_inurba_marseille","lat":43.30555,"lon":5.36559,"is_reserved":false,"is_disabled":false,"rental_uris":{"android":"levelo://app?vid=dd2a3ade-af55-41e4-821f-8fde85596c6a","ios":"levelo://app?vid=dd2a3ade-af55-41e4-821f-8fde85596c6a"},"vehicle_type_id":"4","last_reported":1748873447,"current_range_meters":15200,"station_id":"ce4bgs12rcd13ifvqcag","pricing_plan_id":"cebpf4jnsgd1na2vs0mg"},{"bike_id":"3082751b-d3f4-42ac-b6c0-bf946931c7e5","system_id":"levelo_inurba_marseille","lat":43.21196,"lon":5.35073,"is_reserved":false,"is_disabled":false,"rental_uris":{"android":"levelo://app?vid=3082751b-d3f4-42ac-b6c0-bf946931c7e5","ios":"levelo://app?vid=3082751b-d3f4-42ac-b6c0-bf946931c7e5"},"vehicle_type_id":"4","last_reported":1748873447,"current_range_meters":15200,"station_id":"st_cvj6sg6p6f1abm77japg","pricing_plan_id":"cebpf4jnsgd1na2vs0mg"},{"bike_id":"e1185c3f-87a6-4d0a-a6c5-956e916d3e0f","system_id":"levelo_inurba_marseille","lat":43.21204,"lon":5.35082,"is_reserved":false,"is_disabled":false,"rental_uris":{"android":"levelo://app?vid=e1185c3f-87a6-4d0a-a6c5-956e916d3e0f","ios":"levelo://app?vid=e1185c3f-87a6-4d0a-a6c5-956e916d3e0f"},"vehicle_type_id":"4","last_reported":1748873447,"current_range_meters":15200,"station_id":"st_cvj6sg6p6f1abm77japg","pricing_plan_id":"cebpf4jnsgd1na2vs0mg"},{"bike_id":"82667e3c-ff58-4aa6-9360-efb778fc85fb","system_id":"levelo_inurba_marseille","lat":43.30265,"lon":5.40069,"is_reserved":false,"is_disabled":false,"rental_uris":{"android":"levelo://app?vid=82667e3c-ff58-4aa6-9360-efb778fc85fb","ios":"levelo://app?vid=82667e3c-ff58-4aa6-9360-efb778fc85fb"},"vehicle_type_id":"4","last_reported":1748873447,"current_range_meters":15200,"station_id":"ce4bgvh2rcd13ifvqcs0","pricing_plan_id":"cebpf4jnsgd1na2vs0mg"},{"bike_id":"227636ac-d2bb-4594-8605-dd97af78d50e","system_id":"levelo_inurba_marseille","lat":43.28272,"lon":5.35077,"is_reserved":false,"is_disabled":false,"rental_uris":{"android":"levelo://app?vid=227636ac-d2bb-4594-8605-dd97af78d50e","ios":"levelo://app?vid=227636ac-d2bb-4594-8605-dd97af78d50e"},"vehicle_type_id":"4","last_reported":1748873447,"current_range_meters":15200,"station_id":"ce4bhbp2rcd13ifvqerg","pricing_plan_id":"cebpf4jnsgd1na2vs0mg"},{"bike_id":"c4aea8e6-a6f2-4d96-830e-57e046402925","system_id":"levelo_inurba_marseille","lat":43.30551,"lon":5.36553,"is_reserved":false,"is_disabled":false,"rental_uris":{"android":"levelo://app?vid=c4aea8e6-a6f2-4d96-830e-57e046402925","ios":"levelo://app?vid=c4aea8e6-a6f2-4d96-830e-57e046402925"},"vehicle_type_id":"4","last_reported":1748873447,"current_range_meters":15200,"station_id":"ce4bgs12rcd13ifvqcag","pricing_plan_id":"cebpf4jnsgd1na2vs0mg"},{"bike_id":"ac2caa47-de50-4eb2-a0a2-d67e53dc1071","system_id":"levelo_inurba_marseille","lat":43.301424,"lon":5.374193,"is_reserved":false,"is_disabled":false,"rental_uris":{"android":"levelo://app?vid=ac2caa47-de50-4eb2-a0a2-d67e53dc1071","ios":"levelo://app?vid=ac2caa47-de50-4eb2-a0a2-d67e53dc1071"},"vehicle_type_id":"4","last_reported":1748873447,"current_range_meters":16000,"station_id":"ce4bgs92rcd13ifvqcc0","pricing_plan_id":"cebpf4jnsgd1na2vs0mg"},{"bike_id":"dcf11d28-6f02-4602-9c51-5f0a021771bb","system_id":"levelo_inurba_marseille","lat":43.21195,"lon":5.35081,"is_reserved":false,"is_disabled":false,"rental_uris":{"android":"levelo://app?vid=dcf11d28-6f02-4602-9c51-5f0a021771bb","ios":"levelo://app?vid=dcf11d28-6f02-4602-9c51-5f0a021771bb"},"vehicle_type_id":"4","last_reported":1748873447,"current_range_meters":16000,"station_id":"st_cvj6sg6p6f1abm77japg","pricing_plan_id":"cebpf4jnsgd1na2vs0mg"},{"bike_id":"3d55b845-5c54-4369-aeeb-6eab9ba1b9a0","system_id":"levelo_inurba_marseille","lat":43.26565,"lon":5.37327,"is_reserved":false,"is_disabled":false,"rental_uris":{"android":"levelo://app?vid=3d55b845-5c54-4369-aeeb-6eab9ba1b9a0","ios":"levelo://app?vid=3d55b845-5c54-4369-aeeb-6eab9ba1b9a0"},"vehicle_type_id":"4","last_reported":1748873447,"current_range_meters":16000,"station_id":"ce4bhg12rcd13ifvqf70","pricing_plan_id":"cebpf4jnsgd1na2vs0mg"},{"bike_id":"55fb8a73-56e9-497c-b0e3-4646c91193d3","system_id":"levelo_inurba_marseille","lat":43.28455,"lon":5.35875,"is_reserved":false,"is_disabled":false,"rental_uris":{"android":"levelo://app?vid=55fb8a73-56e9-497c-b0e3-4646c91193d3","ios":"levelo://app?vid=55fb8a73-56e9-497c-b0e3-4646c91193d3"},"vehicle_type_id":"4","last_reported":1748873447,"current_range_meters":12000,"station_id":"ce4bhah2rcd13ifvqei0","pricing_plan_id":"cebpf4jnsgd1na2vs0mg"},{"bike_id":"d181378e-63f0-434d-ab37-12e8e8f0cb32","system_id":"levelo_inurba_marseille","lat":43.22942,"lon":5.35402,"is_reserved":false,"is_disabled":false,"rental_uris":{"android":"levelo://app?vid=d181378e-63f0-434d-ab37-12e8e8f0cb32","ios":"levelo://app?vid=d181378e-63f0-434d-ab37-12e8e8f0cb32"},"vehicle_type_id":"4","last_reported":1748873447,"current_range_meters":16000,"station_id":"cpo3532slgdg3j2ikp40","pricing_plan_id":"cebpf4jnsgd1na2vs0mg"},{"bike_id":"f68b568c-19c3-4299-b1fc-d195d756dfea","system_id":"levelo_inurba_marseille","lat":43.28267,"lon":5.350609,"is_reserved":false,"is_disabled":false,"rental_uris":{"android":"levelo://app?vid=f68b568c-19c3-4299-b1fc-d195d756dfea","ios":"levelo://app?vid=f68b568c-19c3-4299-b1fc-d195d756dfea"},"vehicle_type_id":"4","last_reported":1748873447,"current_range_meters":16000,"station_id":"ce4bhbp2rcd13ifvqerg","pricing_plan_id":"cebpf4jnsgd1na2vs0mg"},{"bike_id":"363d42d1-8881-4cff-801b-87381b9f43fa","system_id":"levelo_inurba_marseille","lat":43.3055,"lon":5.36545,"is_reserved":false,"is_disabled":false,"rental_uris":{"android":"levelo://app?vid=363d42d1-8881-4cff-801b-87381b9f43fa","ios":"levelo://app?vid=363d42d1-8881-4cff-801b-87381b9f43fa"},"vehicle_type_id":"4","last_reported":1748873447,"current_range_meters":16400,"station_id":"ce4bgs12rcd13ifvqcag","pricing_plan_id":"cebpf4jnsgd1na2vs0mg"},{"bike_id":"090cb496-b83a-41f9-be11-d42dd877f608","system_id":"levelo_inurba_marseille","lat":43.31087,"lon":5.42431,"is_reserved":false,"is_disabled":false,"rental_uris":{"android":"levelo://app?vid=090cb496-b83a-41f9-be11-d42dd877f608","ios":"levelo://app?vid=090cb496-b83a-41f9-be11-d42dd877f608"},"vehicle_type_id":"4","last_reported":1748873447,"current_range_meters":16400,"station_id":"ce4bhp92rcd13ifvqhag","pricing_plan_id":"cebpf4jnsgd1na2vs0mg"},{"bike_id":"ee7060ce-edbe-4970-b01b-a63d17d4960c","system_id":"levelo_inurba_marseille","lat":43.31896,"lon":5.40746,"is_reserved":false,"is_disabled":false,"rental_uris":{"android":"levelo://app?vid=ee7060ce-edbe-4970-b01b-a63d17d4960c","ios":"levelo://app?vid=ee7060ce-edbe-4970-b01b-a63d17d4960c"},"vehicle_type_id":"4","last_reported":1748873447,"current_range_meters":16400,"station_id":"ce4bhq12rcd13ifvqhig","pricing_plan_id":"cebpf4jnsgd1na2vs0mg"},{"bike_id":"c919ea94-6c36-4e0a-83e4-049ad3ac8dbc","system_id":"levelo_inurba_marseille","lat":43.231577,"lon":5.43713,"is_reserved":false,"is_disabled":false,"rental_uris":{"android":"levelo://app?vid=c919ea94-6c36-4e0a-83e4-049ad3ac8dbc","ios":"levelo://app?vid=c919ea94-6c36-4e0a-83e4-049ad3ac8dbc"},"vehicle_type_id":"4","last_reported":1748873447,"current_range_meters":16400,"station_id":"ce4bhmp2rcd13ifvqgog","pricing_plan_id":"cebpf4jnsgd1na2vs0mg"},{"bike_id":"a688aa03-5584-43d6-8aef-3f6b47566496","system_id":"levelo_inurba_marseille","lat":43.2828,"lon":5.35083,"is_reserved":false,"is_disabled":false,"rental_uris":{"android":"levelo://app?vid=a688aa03-5584-43d6-8aef-3f6b47566496","ios":"levelo://app?vid=a688aa03-5584-43d6-8aef-3f6b47566496"},"vehicle_type_id":"4","last_reported":1748873447,"current_range_meters":16400,"station_id":"ce4bhbp2rcd13ifvqerg","pricing_plan_id":"cebpf4jnsgd1na2vs0mg"},{"bike_id":"d14ebd18-dc3f-4796-90cd-57dc78449139","system_id":"levelo_inurba_marseille","lat":43.27318,"lon":5.39084,"is_reserved":false,"is_disabled":false,"rental_uris":{"android":"levelo://app?vid=d14ebd18-dc3f-4796-90cd-57dc78449139","ios":"levelo://app?vid=d14ebd18-dc3f-4796-90cd-57dc78449139"},"vehicle_type_id":"4","last_reported":1748873447,"current_range_meters":16400,"station_id":"ce4bhgp2rcd13ifvqfe0","pricing_plan_id":"cebpf4jnsgd1na2vs0mg"},{"bike_id":"fe719a31-043d-4762-aa13-0736c163cf9a","system_id":"levelo_inurba_marseille","lat":43.2862,"lon":5.37059,"is_reserved":false,"is_disabled":false,"rental_uris":{"android":"levelo://app?vid=fe719a31-043d-4762-aa13-0736c163cf9a","ios":"levelo://app?vid=fe719a31-043d-4762-aa13-0736c163cf9a"},"vehicle_type_id":"4","last_reported":1748873447,"current_range_meters":16800,"station_id":"ce4bht12rcd13ifvqi60","pricing_plan_id":"cebpf4jnsgd1na2vs0mg"},{"bike_id":"feadbe60-ebe9-45b8-b120-91266528ce93","system_id":"levelo_inurba_marseille","lat":43.27912,"lon":5.39576,"is_reserved":false,"is_disabled":false,"rental_uris":{"android":"levelo://app?vid=feadbe60-ebe9-45b8-b120-91266528ce93","ios":"levelo://app?vid=feadbe60-ebe9-45b8-b120-91266528ce93"},"vehicle_type_id":"4","last_reported":1748873447,"current_range_meters":16800,"station_id":"ce4bhf92rcd13ifvqf40","pricing_plan_id":"cebpf4jnsgd1na2vs0mg"},{"bike_id":"d51849d1-6fc5-430a-b576-e89f6a87e8fa","system_id":"levelo_inurba_marseille","lat":43.296363,"lon":5.371727,"is_reserved":false,"is_disabled":false,"rental_uris":{"android":"levelo://app?vid=d51849d1-6fc5-430a-b576-e89f6a87e8fa","ios":"levelo://app?vid=d51849d1-6fc5-430a-b576-e89f6a87e8fa"},"vehicle_type_id":"4","last_reported":1748873447,"current_range_meters":16800,"station_id":"ce4bgnh2rcd13ifvqc0g","pricing_plan_id":"cebpf4jnsgd1na2vs0mg"},{"bike_id":"de0ebf6f-ac67-4c0e-9982-8da5332658a5","system_id":"levelo_inurba_marseille","lat":43.28672,"lon":5.36355,"is_reserved":false,"is_disabled":false,"rental_uris":{"android":"levelo://app?vid=de0ebf6f-ac67-4c0e-9982-8da5332658a5","ios":"levelo://app?vid=de0ebf6f-ac67-4c0e-9982-8da5332658a5"},"vehicle_type_id":"4","last_reported":1748873447,"current_range_meters":16800,"station_id":"ce4bhah2rcd13ifvqej0","pricing_plan_id":"cebpf4jnsgd1na2vs0mg"},{"bike_id":"41420d86-f98f-4d69-885c-4cf79e374be5","system_id":"levelo_inurba_marseille","lat":43.30884,"lon":5.39645,"is_reserved":false,"is_disabled":false,"rental_uris":{"android":"levelo://app?vid=41420d86-f98f-4d69-885c-4cf79e374be5","ios":"levelo://app?vid=41420d86-f98f-4d69-885c-4cf79e374be5"},"vehicle_type_id":"4","last_reported":1748873447,"current_range_meters":17200,"station_id":"ce4bh012rcd13ifvqcv0","pricing_plan_id":"cebpf4jnsgd1na2vs0mg"},{"bike_id":"49d8c1d3-42d0-49d5-aa51-c11ee75a8849","system_id":"levelo_inurba_marseille","lat":43.2738,"lon":5.36259,"is_reserved":false,"is_disabled":false,"rental_uris":{"android":"levelo://app?vid=49d8c1d3-42d0-49d5-aa51-c11ee75a8849","ios":"levelo://app?vid=49d8c1d3-42d0-49d5-aa51-c11ee75a8849"},"vehicle_type_id":"4","last_reported":1748873447,"current_range_meters":17200,"station_id":"ce4bhbh2rcd13ifvqeo0","pricing_plan_id":"cebpf4jnsgd1na2vs0mg"},{"bike_id":"2171c9f1-57c0-4bf3-b436-aee76219ed87","system_id":"levelo_inurba_marseille","lat":43.27818,"lon":5.40709,"is_reserved":false,"is_disabled":false,"rental_uris":{"android":"levelo://app?vid=2171c9f1-57c0-4bf3-b436-aee76219ed87","ios":"levelo://app?vid=2171c9f1-57c0-4bf3-b436-aee76219ed87"},"vehicle_type_id":"4","last_reported":1748873447,"current_range_meters":17200,"station_id":"ce4bhnh2rcd13ifvqgtg","pricing_plan_id":"cebpf4jnsgd1na2vs0mg"},{"bike_id":"42d21854-b7c7-42b9-a82c-e70aa362b55e","system_id":"levelo_inurba_marseille","lat":43.272125,"lon":5.391908,"is_reserved":false,"is_disabled":false,"rental_uris":{"android":"levelo://app?vid=42d21854-b7c7-42b9-a82c-e70aa362b55e","ios":"levelo://app?vid=42d21854-b7c7-42b9-a82c-e70aa362b55e"},"vehicle_type_id":"4","last_reported":1748873447,"current_range_meters":16800,"station_id":"ce4bhhp2rcd13ifvqfm0","pricing_plan_id":"cebpf4jnsgd1na2vs0mg"},{"bike_id":"e073c3b9-579e-431b-8c54-b6a28caa0933","system_id":"levelo_inurba_marseille","lat":43.22933,"lon":5.35378,"is_reserved":false,"is_disabled":false,"rental_uris":{"android":"levelo://app?vid=e073c3b9-579e-431b-8c54-b6a28caa0933","ios":"levelo://app?vid=e073c3b9-579e-431b-8c54-b6a28caa0933"},"vehicle_type_id":"4","last_reported":1748873447,"current_range_meters":17200,"station_id":"cpo3532slgdg3j2ikp40","pricing_plan_id":"cebpf4jnsgd1na2vs0mg"},{"bike_id":"5fb6a041-7f17-4545-83e7-dba29fc3266d","system_id":"levelo_inurba_marseille","lat":43.30886,"lon":5.39647,"is_reserved":false,"is_disabled":false,"rental_uris":{"android":"levelo://app?vid=5fb6a041-7f17-4545-83e7-dba29fc3266d","ios":"levelo://app?vid=5fb6a041-7f17-4545-83e7-dba29fc3266d"},"vehicle_type_id":"4","last_reported":1748873447,"current_range_meters":17200,"station_id":"ce4bh012rcd13ifvqcv0","pricing_plan_id":"cebpf4jnsgd1na2vs0mg"},{"bike_id":"ec488bb4-0fd8-4bc9-80f8-f907c5574e33","system_id":"levelo_inurba_marseille","lat":43.29826,"lon":5.3808,"is_reserved":false,"is_disabled":false,"rental_uris":{"android":"levelo://app?vid=ec488bb4-0fd8-4bc9-80f8-f907c5574e33","ios":"levelo://app?vid=ec488bb4-0fd8-4bc9-80f8-f907c5574e33"},"vehicle_type_id":"4","last_reported":1748873447,"current_range_meters":17200,"station_id":"ce4bgip2rcd13ifvqbb0","pricing_plan_id":"cebpf4jnsgd1na2vs0mg"},{"bike_id":"9bab5004-737c-472f-9853-94ff0054500d","system_id":"levelo_inurba_marseille","lat":43.32118,"lon":5.36773,"is_reserved":false,"is_disabled":false,"rental_uris":{"android":"levelo://app?vid=9bab5004-737c-472f-9853-94ff0054500d","ios":"levelo://app?vid=9bab5004-737c-472f-9853-94ff0054500d"},"vehicle_type_id":"4","last_reported":1748873447,"current_range_meters":17600,"station_id":"ce4bhrh2rcd13ifvqhug","pricing_plan_id":"cebpf4jnsgd1na2vs0mg"},{"bike_id":"784180dd-9bbc-4a7e-817b-24dd293372b0","system_id":"levelo_inurba_marseille","lat":43.27999,"lon":5.4003,"is_reserved":false,"is_disabled":false,"rental_uris":{"android":"levelo://app?vid=784180dd-9bbc-4a7e-817b-24dd293372b0","ios":"levelo://app?vid=784180dd-9bbc-4a7e-817b-24dd293372b0"},"vehicle_type_id":"4","last_reported":1748873447,"current_range_meters":17600,"station_id":"ce4bho92rcd13ifvqh4g","pricing_plan_id":"cebpf4jnsgd1na2vs0mg"},{"bike_id":"e5c05754-7020-47d3-9700-6a7e9ff38e0d","system_id":"levelo_inurba_marseille","lat":43.28409,"lon":5.37509,"is_reserved":false,"is_disabled":false,"rental_uris":{"android":"levelo://app?vid=e5c05754-7020-47d3-9700-6a7e9ff38e0d","ios":"levelo://app?vid=e5c05754-7020-47d3-9700-6a7e9ff38e0d"},"vehicle_type_id":"4","last_reported":1748873447,"current_range_meters":17600,"station_id":"ce4bh412rcd13ifvqds0","pricing_plan_id":"cebpf4jnsgd1na2vs0mg"},{"bike_id":"4501ef29-c7e4-4354-b9e8-fe05b9e81f5c","system_id":"levelo_inurba_marseille","lat":43.298779,"lon":5.397401,"is_reserved":false,"is_disabled":false,"rental_uris":{"android":"levelo://app?vid=4501ef29-c7e4-4354-b9e8-fe05b9e81f5c","ios":"levelo://app?vid=4501ef29-c7e4-4354-b9e8-fe05b9e81f5c"},"vehicle_type_id":"4","last_reported":1748873447,"current_range_meters":18000,"station_id":"ce4bh0h2rcd13ifvqd50","pricing_plan_id":"cebpf4jnsgd1na2vs0mg"},{"bike_id":"ee803415-e083-4ee4-ac66-cf1a24b642b7","system_id":"levelo_inurba_marseille","lat":43.30558,"lon":5.36564,"is_reserved":false,"is_disabled":false,"rental_uris":{"android":"levelo://app?vid=ee803415-e083-4ee4-ac66-cf1a24b642b7","ios":"levelo://app?vid=ee803415-e083-4ee4-ac66-cf1a24b642b7"},"vehicle_type_id":"4","last_reported":1748873447,"current_range_meters":18000,"station_id":"ce4bgs12rcd13ifvqcag","pricing_plan_id":"cebpf4jnsgd1na2vs0mg"},{"bike_id":"207887e6-2ae4-416f-88d4-762e419331b7","system_id":"levelo_inurba_marseille","lat":43.231525,"lon":5.437052,"is_reserved":false,"is_disabled":false,"rental_uris":{"android":"levelo://app?vid=207887e6-2ae4-416f-88d4-762e419331b7","ios":"levelo://app?vid=207887e6-2ae4-416f-88d4-762e419331b7"},"vehicle_type_id":"4","last_reported":1748873447,"current_range_meters":18000,"station_id":"ce4bhmp2rcd13ifvqgog","pricing_plan_id":"cebpf4jnsgd1na2vs0mg"},{"bike_id":"64bb3847-00c9-4dc0-b6f3-d3ad704790d7","system_id":"levelo_inurba_marseille","lat":43.29172,"lon":5.37155,"is_reserved":false,"is_disabled":false,"rental_uris":{"android":"levelo://app?vid=64bb3847-00c9-4dc0-b6f3-d3ad704790d7","ios":"levelo://app?vid=64bb3847-00c9-4dc0-b6f3-d3ad704790d7"},"vehicle_type_id":"4","last_reported":1748873447,"current_range_meters":18000,"station_id":"ce4bha92rcd13ifvqeh0","pricing_plan_id":"cebpf4jnsgd1na2vs0mg"},{"bike_id":"56ebd079-5325-4146-a252-c6e09bfabc00","system_id":"levelo_inurba_marseille","lat":43.319017,"lon":5.407354,"is_reserved":false,"is_disabled":false,"rental_uris":{"android":"levelo://app?vid=56ebd079-5325-4146-a252-c6e09bfabc00","ios":"levelo://app?vid=56ebd079-5325-4146-a252-c6e09bfabc00"},"vehicle_type_id":"4","last_reported":1748873447,"current_range_meters":18000,"station_id":"ce4bhq12rcd13ifvqhig","pricing_plan_id":"cebpf4jnsgd1na2vs0mg"},{"bike_id":"62ebcf99-52d8-4ec8-a1af-b944e399c355","system_id":"levelo_inurba_marseille","lat":43.2738,"lon":5.36256,"is_reserved":false,"is_disabled":false,"rental_uris":{"android":"levelo://app?vid=62ebcf99-52d8-4ec8-a1af-b944e399c355","ios":"levelo://app?vid=62ebcf99-52d8-4ec8-a1af-b944e399c355"},"vehicle_type_id":"4","last_reported":1748873447,"current_range_meters":18000,"station_id":"ce4bhbh2rcd13ifvqeo0","pricing_plan_id":"cebpf4jnsgd1na2vs0mg"},{"bike_id":"86ccdb9b-9ade-492e-9d0e-dcc088997898","system_id":"levelo_inurba_marseille","lat":43.23968,"lon":5.36636,"is_reserved":false,"is_disabled":false,"rental_uris":{"android":"levelo://app?vid=86ccdb9b-9ade-492e-9d0e-dcc088997898","ios":"levelo://app?vid=86ccdb9b-9ade-492e-9d0e-dcc088997898"},"vehicle_type_id":"4","last_reported":1748873447,"current_range_meters":17600,"station_id":"ce4bhi12rcd13ifvqfp0","pricing_plan_id":"cebpf4jnsgd1na2vs0mg"},{"bike_id":"cf50256b-f677-491f-9a96-139663eb5aac","system_id":"levelo_inurba_marseille","lat":43.26563,"lon":5.39009,"is_reserved":false,"is_disabled":false,"rental_uris":{"android":"levelo://app?vid=cf50256b-f677-491f-9a96-139663eb5aac","ios":"levelo://app?vid=cf50256b-f677-491f-9a96-139663eb5aac"},"vehicle_type_id":"4","last_reported":1748873447,"current_range_meters":18000,"station_id":"ce4bhe12rcd13ifvqf30","pricing_plan_id":"cebpf4jnsgd1na2vs0mg"},{"bike_id":"357d48fa-d01e-475d-9293-9c49d84e3875","system_id":"levelo_inurba_marseille","lat":43.30935,"lon":5.40137,"is_reserved":false,"is_disabled":false,"rental_uris":{"android":"levelo://app?vid=357d48fa-d01e-475d-9293-9c49d84e3875","ios":"levelo://app?vid=357d48fa-d01e-475d-9293-9c49d84e3875"},"vehicle_type_id":"4","last_reported":1748873447,"current_range_meters":18000,"station_id":"ce4bgvp2rcd13ifvqct0","pricing_plan_id":"cebpf4jnsgd1na2vs0mg"},{"bike_id":"6db8da9d-ed27-45cf-9935-6e37c99d0be9","system_id":"levelo_inurba_marseille","lat":43.26225,"lon":5.40156,"is_reserved":false,"is_disabled":false,"rental_uris":{"android":"levelo://app?vid=6db8da9d-ed27-45cf-9935-6e37c99d0be9","ios":"levelo://app?vid=6db8da9d-ed27-45cf-9935-6e37c99d0be9"},"vehicle_type_id":"4","last_reported":1748873447,"current_range_meters":18800,"station_id":"","pricing_plan_id":"cebpf4jnsgd1na2vs0mg"},{"bike_id":"43d9d3a8-0f96-4fa9-8ca3-fa60143d2d69","system_id":"levelo_inurba_marseille","lat":43.31161,"lon":5.38724,"is_reserved":false,"is_disabled":false,"rental_uris":{"android":"levelo://app?vid=43d9d3a8-0f96-4fa9-8ca3-fa60143d2d69","ios":"levelo://app?vid=43d9d3a8-0f96-4fa9-8ca3-fa60143d2d69"},"vehicle_type_id":"4","last_reported":1748873447,"current_range_meters":18800,"station_id":"ce4bgv12rcd13ifvqcp0","pricing_plan_id":"cebpf4jnsgd1na2vs0mg"},{"bike_id":"da55c3d0-5dbb-4a17-92a0-30d38d99ee8b","system_id":"levelo_inurba_marseille","lat":43.282732,"lon":5.350811,"is_reserved":false,"is_disabled":false,"rental_uris":{"android":"levelo://app?vid=da55c3d0-5dbb-4a17-92a0-30d38d99ee8b","ios":"levelo://app?vid=da55c3d0-5dbb-4a17-92a0-30d38d99ee8b"},"vehicle_type_id":"4","last_reported":1748873447,"current_range_meters":18800,"station_id":"ce4bhbp2rcd13ifvqerg","pricing_plan_id":"cebpf4jnsgd1na2vs0mg"},{"bike_id":"5ba03271-83e5-4713-986d-af707940e504","system_id":"levelo_inurba_marseille","lat":43.29982,"lon":5.38524,"is_reserved":false,"is_disabled":false,"rental_uris":{"android":"levelo://app?vid=5ba03271-83e5-4713-986d-af707940e504","ios":"levelo://app?vid=5ba03271-83e5-4713-986d-af707940e504"},"vehicle_type_id":"4","last_reported":1748873447,"current_range_meters":18800,"station_id":"ce4bgj92rcd13ifvqbd0","pricing_plan_id":"cebpf4jnsgd1na2vs0mg"},{"bike_id":"206735aa-cc71-47f7-9c67-d08fbdf682ee","system_id":"levelo_inurba_marseille","lat":43.25123,"lon":5.40345,"is_reserved":false,"is_disabled":false,"rental_uris":{"android":"levelo://app?vid=206735aa-cc71-47f7-9c67-d08fbdf682ee","ios":"levelo://app?vid=206735aa-cc71-47f7-9c67-d08fbdf682ee"},"vehicle_type_id":"4","last_reported":1748873447,"current_range_meters":18800,"station_id":"ce4bhlh2rcd13ifvqgig","pricing_plan_id":"cebpf4jnsgd1na2vs0mg"},{"bike_id":"8c89f475-6fe8-4582-aa19-f5a92237c03b","system_id":"levelo_inurba_marseille","lat":43.27212,"lon":5.39196,"is_reserved":false,"is_disabled":false,"rental_uris":{"android":"levelo://app?vid=8c89f475-6fe8-4582-aa19-f5a92237c03b","ios":"levelo://app?vid=8c89f475-6fe8-4582-aa19-f5a92237c03b"},"vehicle_type_id":"4","last_reported":1748873447,"current_range_meters":18000,"station_id":"ce4bhhp2rcd13ifvqfm0","pricing_plan_id":"cebpf4jnsgd1na2vs0mg"},{"bike_id":"cec6c8d7-488a-4d69-860f-429583fefc3f","system_id":"levelo_inurba_marseille","lat":43.32365,"lon":5.36748,"is_reserved":false,"is_disabled":false,"rental_uris":{"android":"levelo://app?vid=cec6c8d7-488a-4d69-860f-429583fefc3f","ios":"levelo://app?vid=cec6c8d7-488a-4d69-860f-429583fefc3f"},"vehicle_type_id":"4","last_reported":1748873447,"current_range_meters":18800,"station_id":"ce4bhsh2rcd13ifvqi2g","pricing_plan_id":"cebpf4jnsgd1na2vs0mg"},{"bike_id":"0719e304-787d-4942-8ac7-f7e9c5a426ff","system_id":"levelo_inurba_marseille","lat":43.29702,"lon":5.36615,"is_reserved":false,"is_disabled":false,"rental_uris":{"android":"levelo://app?vid=0719e304-787d-4942-8ac7-f7e9c5a426ff","ios":"levelo://app?vid=0719e304-787d-4942-8ac7-f7e9c5a426ff"},"vehicle_type_id":"4","last_reported":1748873447,"current_range_meters":18800,"station_id":"ce4bgn12rcd13ifvqbt0","pricing_plan_id":"cebpf4jnsgd1na2vs0mg"},{"bike_id":"c98de2b9-f035-4443-94c5-9a2dbde55f11","system_id":"levelo_inurba_marseille","lat":43.2961,"lon":5.38094,"is_reserved":false,"is_disabled":false,"rental_uris":{"android":"levelo://app?vid=c98de2b9-f035-4443-94c5-9a2dbde55f11","ios":"levelo://app?vid=c98de2b9-f035-4443-94c5-9a2dbde55f11"},"vehicle_type_id":"4","last_reported":1748873447,"current_range_meters":18800,"station_id":"ce4bgl12rcd13ifvqbo0","pricing_plan_id":"cebpf4jnsgd1na2vs0mg"},{"bike_id":"121b1b48-2c1b-41cc-8e7a-d5b0c7fe023b","system_id":"levelo_inurba_marseille","lat":43.29873,"lon":5.39735,"is_reserved":false,"is_disabled":false,"rental_uris":{"android":"levelo://app?vid=121b1b48-2c1b-41cc-8e7a-d5b0c7fe023b","ios":"levelo://app?vid=121b1b48-2c1b-41cc-8e7a-d5b0c7fe023b"},"vehicle_type_id":"4","last_reported":1748873447,"current_range_meters":18800,"station_id":"ce4bh0h2rcd13ifvqd50","pricing_plan_id":"cebpf4jnsgd1na2vs0mg"},{"bike_id":"1cb7c0a1-48f8-49ab-9106-52040059037c","system_id":"levelo_inurba_marseille","lat":43.2306,"lon":5.35495,"is_reserved":false,"is_disabled":false,"rental_uris":{"android":"levelo://app?vid=1cb7c0a1-48f8-49ab-9106-52040059037c","ios":"levelo://app?vid=1cb7c0a1-48f8-49ab-9106-52040059037c"},"vehicle_type_id":"4","last_reported":1748873447,"current_range_meters":18800,"station_id":"cpo3342slgdg3j2ifvpg","pricing_plan_id":"cebpf4jnsgd1na2vs0mg"},{"bike_id":"1bebd82d-26c0-4e20-8f0a-10d3fd8e22f7","system_id":"levelo_inurba_marseille","lat":43.26566,"lon":5.39008,"is_reserved":false,"is_disabled":false,"rental_uris":{"android":"levelo://app?vid=1bebd82d-26c0-4e20-8f0a-10d3fd8e22f7","ios":"levelo://app?vid=1bebd82d-26c0-4e20-8f0a-10d3fd8e22f7"},"vehicle_type_id":"4","last_reported":1748873447,"current_range_meters":19200,"station_id":"ce4bhe12rcd13ifvqf30","pricing_plan_id":"cebpf4jnsgd1na2vs0mg"},{"bike_id":"ef17b56f-9789-4b73-9b86-3e177d4d12f6","system_id":"levelo_inurba_marseille","lat":43.29806,"lon":5.3807,"is_reserved":false,"is_disabled":false,"rental_uris":{"android":"levelo://app?vid=ef17b56f-9789-4b73-9b86-3e177d4d12f6","ios":"levelo://app?vid=ef17b56f-9789-4b73-9b86-3e177d4d12f6"},"vehicle_type_id":"4","last_reported":1748873447,"current_range_meters":19200,"station_id":"ce4bgip2rcd13ifvqbb0","pricing_plan_id":"cebpf4jnsgd1na2vs0mg"},{"bike_id":"f2a7ada7-b328-4509-a930-8c4ff1a1cca8","system_id":"levelo_inurba_marseille","lat":43.30155,"lon":5.381,"is_reserved":false,"is_disabled":false,"rental_uris":{"android":"levelo://app?vid=f2a7ada7-b328-4509-a930-8c4ff1a1cca8","ios":"levelo://app?vid=f2a7ada7-b328-4509-a930-8c4ff1a1cca8"},"vehicle_type_id":"4","last_reported":1748873447,"current_range_meters":19200,"station_id":"ce4bgjp2rcd13ifvqbh0","pricing_plan_id":"cebpf4jnsgd1na2vs0mg"},{"bike_id":"c21c2c63-91b0-4d2e-ae1f-60138f25127d","system_id":"levelo_inurba_marseille","lat":43.29618,"lon":5.37719,"is_reserved":false,"is_disabled":false,"rental_uris":{"android":"levelo://app?vid=c21c2c63-91b0-4d2e-ae1f-60138f25127d","ios":"levelo://app?vid=c21c2c63-91b0-4d2e-ae1f-60138f25127d"},"vehicle_type_id":"4","last_reported":1748873447,"current_range_meters":19200,"station_id":"ce4bgi92rcd13ifvqb90","pricing_plan_id":"cebpf4jnsgd1na2vs0mg"},{"bike_id":"f36d0fcd-f8bd-4666-baf6-f41745d7572d","system_id":"levelo_inurba_marseille","lat":43.27998,"lon":5.40026,"is_reserved":false,"is_disabled":false,"rental_uris":{"android":"levelo://app?vid=f36d0fcd-f8bd-4666-baf6-f41745d7572d","ios":"levelo://app?vid=f36d0fcd-f8bd-4666-baf6-f41745d7572d"},"vehicle_type_id":"4","last_reported":1748873447,"current_range_meters":19200,"station_id":"ce4bho92rcd13ifvqh4g","pricing_plan_id":"cebpf4jnsgd1na2vs0mg"},{"bike_id":"961f3f7b-0f2c-4d42-9f49-7462bebe5264","system_id":"levelo_inurba_marseille","lat":43.314885,"lon":5.372965,"is_reserved":false,"is_disabled":false,"rental_uris":{"android":"levelo://app?vid=961f3f7b-0f2c-4d42-9f49-7462bebe5264","ios":"levelo://app?vid=961f3f7b-0f2c-4d42-9f49-7462bebe5264"},"vehicle_type_id":"4","last_reported":1748873447,"current_range_meters":19200,"station_id":"ce4bgt12rcd13ifvqcd0","pricing_plan_id":"cebpf4jnsgd1na2vs0mg"},{"bike_id":"eb72deed-44e7-4a3e-982b-5b4df113534f","system_id":"levelo_inurba_marseille","lat":43.217512,"lon":5.346045,"is_reserved":false,"is_disabled":false,"rental_uris":{"android":"levelo://app?vid=eb72deed-44e7-4a3e-982b-5b4df113534f","ios":"levelo://app?vid=eb72deed-44e7-4a3e-982b-5b4df113534f"},"vehicle_type_id":"4","last_reported":1748873447,"current_range_meters":19200,"station_id":"st_cvj6r9ubvosntc0bgbag","pricing_plan_id":"cebpf4jnsgd1na2vs0mg"},{"bike_id":"bee5d55a-1122-42f1-9464-b302008e3a57","system_id":"levelo_inurba_marseille","lat":43.27211,"lon":5.39176,"is_reserved":false,"is_disabled":false,"rental_uris":{"android":"levelo://app?vid=bee5d55a-1122-42f1-9464-b302008e3a57","ios":"levelo://app?vid=bee5d55a-1122-42f1-9464-b302008e3a57"},"vehicle_type_id":"4","last_reported":1748873447,"current_range_meters":18800,"station_id":"ce4bhhp2rcd13ifvqfm0","pricing_plan_id":"cebpf4jnsgd1na2vs0mg"},{"bike_id":"9dd52115-f6f7-4f75-b362-3fcab0f7703f","system_id":"levelo_inurba_marseille","lat":43.30213,"lon":5.39463,"is_reserved":false,"is_disabled":false,"rental_uris":{"android":"levelo://app?vid=9dd52115-f6f7-4f75-b362-3fcab0f7703f","ios":"levelo://app?vid=9dd52115-f6f7-4f75-b362-3fcab0f7703f"},"vehicle_type_id":"4","last_reported":1748873447,"current_range_meters":19200,"station_id":"ce4bh0p2rcd13ifvqd70","pricing_plan_id":"cebpf4jnsgd1na2vs0mg"},{"bike_id":"8e64d6de-8887-4b68-a9b5-85ff423fdaee","system_id":"levelo_inurba_marseille","lat":43.29067,"lon":5.37172,"is_reserved":false,"is_disabled":false,"rental_uris":{"android":"levelo://app?vid=8e64d6de-8887-4b68-a9b5-85ff423fdaee","ios":"levelo://app?vid=8e64d6de-8887-4b68-a9b5-85ff423fdaee"},"vehicle_type_id":"4","last_reported":1748873447,"current_range_meters":19200,"station_id":"ce4bh5p2rcd13ifvqe4g","pricing_plan_id":"cebpf4jnsgd1na2vs0mg"},{"bike_id":"18980328-5fb3-40a0-af58-d8c4d315808b","system_id":"levelo_inurba_marseille","lat":43.30098,"lon":5.39082,"is_reserved":false,"is_disabled":false,"rental_uris":{"android":"levelo://app?vid=18980328-5fb3-40a0-af58-d8c4d315808b","ios":"levelo://app?vid=18980328-5fb3-40a0-af58-d8c4d315808b"},"vehicle_type_id":"4","last_reported":1748873447,"current_range_meters":19200,"station_id":"ce4bh192rcd13ifvqdb0","pricing_plan_id":"cebpf4jnsgd1na2vs0mg"},{"bike_id":"0707e808-bab6-4d42-a885-8c182304427e","system_id":"levelo_inurba_marseille","lat":43.27817,"lon":5.40717,"is_reserved":false,"is_disabled":false,"rental_uris":{"android":"levelo://app?vid=0707e808-bab6-4d42-a885-8c182304427e","ios":"levelo://app?vid=0707e808-bab6-4d42-a885-8c182304427e"},"vehicle_type_id":"4","last_reported":1748873447,"current_range_meters":19200,"station_id":"ce4bhnh2rcd13ifvqgtg","pricing_plan_id":"cebpf4jnsgd1na2vs0mg"},{"bike_id":"8e45c534-9f38-4aaf-bfc0-20831aa0c778","system_id":"levelo_inurba_marseille","lat":43.26061,"lon":5.39401,"is_reserved":false,"is_disabled":false,"rental_uris":{"android":"levelo://app?vid=8e45c534-9f38-4aaf-bfc0-20831aa0c778","ios":"levelo://app?vid=8e45c534-9f38-4aaf-bfc0-20831aa0c778"},"vehicle_type_id":"4","last_reported":1748873447,"current_range_meters":19600,"station_id":"ce4bhh92rcd13ifvqfj0","pricing_plan_id":"cebpf4jnsgd1na2vs0mg"},{"bike_id":"96083968-b6a7-438a-8682-3788643b3730","system_id":"levelo_inurba_marseille","lat":43.28666,"lon":5.3635,"is_reserved":false,"is_disabled":false,"rental_uris":{"android":"levelo://app?vid=96083968-b6a7-438a-8682-3788643b3730","ios":"levelo://app?vid=96083968-b6a7-438a-8682-3788643b3730"},"vehicle_type_id":"4","last_reported":1748873447,"current_range_meters":19200,"station_id":"ce4bhah2rcd13ifvqej0","pricing_plan_id":"cebpf4jnsgd1na2vs0mg"},{"bike_id":"25e46e8c-5532-4a50-8662-9e60411644db","system_id":"levelo_inurba_marseille","lat":43.30855,"lon":5.3703,"is_reserved":false,"is_disabled":false,"rental_uris":{"android":"levelo://app?vid=25e46e8c-5532-4a50-8662-9e60411644db","ios":"levelo://app?vid=25e46e8c-5532-4a50-8662-9e60411644db"},"vehicle_type_id":"4","last_reported":1748873447,"current_range_meters":19600,"station_id":"ce4bguh2rcd13ifvqckg","pricing_plan_id":"cebpf4jnsgd1na2vs0mg"},{"bike_id":"fa54fc9c-bcb2-478b-ac53-5742e27815a2","system_id":"levelo_inurba_marseille","lat":43.30556,"lon":5.36706,"is_reserved":false,"is_disabled":false,"rental_uris":{"android":"levelo://app?vid=fa54fc9c-bcb2-478b-ac53-5742e27815a2","ios":"levelo://app?vid=fa54fc9c-bcb2-478b-ac53-5742e27815a2"},"vehicle_type_id":"4","last_reported":1748873447,"current_range_meters":19600,"station_id":"ce4bgrp2rcd13ifvqc9g","pricing_plan_id":"cebpf4jnsgd1na2vs0mg"},{"bike_id":"5b536054-600d-4e23-8558-f74f4f3ec365","system_id":"levelo_inurba_marseille","lat":43.33016,"lon":5.39042,"is_reserved":false,"is_disabled":false,"rental_uris":{"android":"levelo://app?vid=5b536054-600d-4e23-8558-f74f4f3ec365","ios":"levelo://app?vid=5b536054-600d-4e23-8558-f74f4f3ec365"},"vehicle_type_id":"4","last_reported":1748873447,"current_range_meters":20000,"station_id":"ce4bhr92rcd13ifvqhrg","pricing_plan_id":"cebpf4jnsgd1na2vs0mg"},{"bike_id":"315f9484-4aaa-4a19-8bd0-7c86a5436edd","system_id":"levelo_inurba_marseille","lat":43.2574,"lon":5.41105,"is_reserved":false,"is_disabled":false,"rental_uris":{"android":"levelo://app?vid=315f9484-4aaa-4a19-8bd0-7c86a5436edd","ios":"levelo://app?vid=315f9484-4aaa-4a19-8bd0-7c86a5436edd"},"vehicle_type_id":"4","last_reported":1748873447,"current_range_meters":20000,"station_id":"ce4bhkp2rcd13ifvqgd0","pricing_plan_id":"cebpf4jnsgd1na2vs0mg"},{"bike_id":"673deb31-27b9-4cbd-93f8-81b3390541f7","system_id":"levelo_inurba_marseille","lat":43.28623,"lon":5.35109,"is_reserved":false,"is_disabled":false,"rental_uris":{"android":"levelo://app?vid=673deb31-27b9-4cbd-93f8-81b3390541f7","ios":"levelo://app?vid=673deb31-27b9-4cbd-93f8-81b3390541f7"},"vehicle_type_id":"4","last_reported":1748873447,"current_range_meters":20000,"station_id":"ce4bhch2rcd13ifvqeug","pricing_plan_id":"cebpf4jnsgd1na2vs0mg"},{"bike_id":"11ef05c2-0b39-4c0d-842b-05509250b5bb","system_id":"levelo_inurba_marseille","lat":43.31068,"lon":5.38349,"is_reserved":false,"is_disabled":false,"rental_uris":{"android":"levelo://app?vid=11ef05c2-0b39-4c0d-842b-05509250b5bb","ios":"levelo://app?vid=11ef05c2-0b39-4c0d-842b-05509250b5bb"},"vehicle_type_id":"4","last_reported":1748873447,"current_range_meters":20000,"station_id":"ce4bgv92rcd13ifvqcr0","pricing_plan_id":"cebpf4jnsgd1na2vs0mg"},{"bike_id":"d5c42ad5-ff34-4089-85cb-56dc1d92134c","system_id":"levelo_inurba_marseille","lat":43.280402,"lon":5.369517,"is_reserved":false,"is_disabled":false,"rental_uris":{"android":"levelo://app?vid=d5c42ad5-ff34-4089-85cb-56dc1d92134c","ios":"levelo://app?vid=d5c42ad5-ff34-4089-85cb-56dc1d92134c"},"vehicle_type_id":"4","last_reported":1748873447,"current_range_meters":20000,"station_id":"ce4bha12rcd13ifvqef0","pricing_plan_id":"cebpf4jnsgd1na2vs0mg"},{"bike_id":"bb1a3f5d-31dc-42d6-8757-cb63d4ee907b","system_id":"levelo_inurba_marseille","lat":43.29987,"lon":5.37188,"is_reserved":false,"is_disabled":false,"rental_uris":{"android":"levelo://app?vid=bb1a3f5d-31dc-42d6-8757-cb63d4ee907b","ios":"levelo://app?vid=bb1a3f5d-31dc-42d6-8757-cb63d4ee907b"},"vehicle_type_id":"4","last_reported":1748873447,"current_range_meters":19600,"station_id":"ce4bgr92rcd13ifvqc7g","pricing_plan_id":"cebpf4jnsgd1na2vs0mg"},{"bike_id":"f08018dc-1375-45d9-bf16-f49f60a5d269","system_id":"levelo_inurba_marseille","lat":43.2481,"lon":5.3746,"is_reserved":false,"is_disabled":false,"rental_uris":{"android":"levelo://app?vid=f08018dc-1375-45d9-bf16-f49f60a5d269","ios":"levelo://app?vid=f08018dc-1375-45d9-bf16-f49f60a5d269"},"vehicle_type_id":"4","last_reported":1748873447,"current_range_meters":20000,"station_id":"ce4bhgh2rcd13ifvqfb0","pricing_plan_id":"cebpf4jnsgd1na2vs0mg"},{"bike_id":"ddac4608-f718-4cf2-bc7d-7941c1d8ea8a","system_id":"levelo_inurba_marseille","lat":43.24674,"lon":5.38156,"is_reserved":false,"is_disabled":false,"rental_uris":{"android":"levelo://app?vid=ddac4608-f718-4cf2-bc7d-7941c1d8ea8a","ios":"levelo://app?vid=ddac4608-f718-4cf2-bc7d-7941c1d8ea8a"},"vehicle_type_id":"4","last_reported":1748873447,"current_range_meters":20000,"station_id":"ce4bhih2rcd13ifvqfr0","pricing_plan_id":"cebpf4jnsgd1na2vs0mg"},{"bike_id":"54a0fab2-5088-492a-b433-f8c4e0a11dfa","system_id":"levelo_inurba_marseille","lat":43.30117,"lon":5.39879,"is_reserved":false,"is_disabled":false,"rental_uris":{"android":"levelo://app?vid=54a0fab2-5088-492a-b433-f8c4e0a11dfa","ios":"levelo://app?vid=54a0fab2-5088-492a-b433-f8c4e0a11dfa"},"vehicle_type_id":"4","last_reported":1748873447,"current_range_meters":20400,"station_id":"ce4bh0h2rcd13ifvqd40","pricing_plan_id":"cebpf4jnsgd1na2vs0mg"},{"bike_id":"4e17c123-8236-4a02-a8a2-a61cdc625d7e","system_id":"levelo_inurba_marseille","lat":43.304785,"lon":5.370822,"is_reserved":false,"is_disabled":false,"rental_uris":{"android":"levelo://app?vid=4e17c123-8236-4a02-a8a2-a61cdc625d7e","ios":"levelo://app?vid=4e17c123-8236-4a02-a8a2-a61cdc625d7e"},"vehicle_type_id":"4","last_reported":1748873447,"current_range_meters":20400,"station_id":"","pricing_plan_id":"cebpf4jnsgd1na2vs0mg"},{"bike_id":"8f1abff6-43f5-4c08-b8bc-78edfa30c78a","system_id":"levelo_inurba_marseille","lat":43.313589,"lon":5.367406,"is_reserved":false,"is_disabled":false,"rental_uris":{"android":"levelo://app?vid=8f1abff6-43f5-4c08-b8bc-78edfa30c78a","ios":"levelo://app?vid=8f1abff6-43f5-4c08-b8bc-78edfa30c78a"},"vehicle_type_id":"4","last_reported":1748873447,"current_range_meters":20400,"station_id":"","pricing_plan_id":"cebpf4jnsgd1na2vs0mg"},{"bike_id":"c843076b-a0b7-4017-a0c7-62d1049e9aab","system_id":"levelo_inurba_marseille","lat":43.2981,"lon":5.381,"is_reserved":false,"is_disabled":false,"rental_uris":{"android":"levelo://app?vid=c843076b-a0b7-4017-a0c7-62d1049e9aab","ios":"levelo://app?vid=c843076b-a0b7-4017-a0c7-62d1049e9aab"},"vehicle_type_id":"4","last_reported":1748873447,"current_range_meters":20400,"station_id":"ce4bgip2rcd13ifvqbb0","pricing_plan_id":"cebpf4jnsgd1na2vs0mg"},{"bike_id":"7d90557c-7532-4e1d-9f32-f01460539f46","system_id":"levelo_inurba_marseille","lat":43.278136,"lon":5.40716,"is_reserved":false,"is_disabled":false,"rental_uris":{"android":"levelo://app?vid=7d90557c-7532-4e1d-9f32-f01460539f46","ios":"levelo://app?vid=7d90557c-7532-4e1d-9f32-f01460539f46"},"vehicle_type_id":"4","last_reported":1748873447,"current_range_meters":20400,"station_id":"ce4bhnh2rcd13ifvqgtg","pricing_plan_id":"cebpf4jnsgd1na2vs0mg"},{"bike_id":"3201aaf4-2734-45b1-aaac-7b9c394694d6","system_id":"levelo_inurba_marseille","lat":43.25574,"lon":5.38231,"is_reserved":false,"is_disabled":false,"rental_uris":{"android":"levelo://app?vid=3201aaf4-2734-45b1-aaac-7b9c394694d6","ios":"levelo://app?vid=3201aaf4-2734-45b1-aaac-7b9c394694d6"},"vehicle_type_id":"4","last_reported":1748873447,"current_range_meters":20400,"station_id":"ce4bhih2rcd13ifvqfs0","pricing_plan_id":"cebpf4jnsgd1na2vs0mg"},{"bike_id":"3475ba18-79bd-4c99-bdca-31383d145fb3","system_id":"levelo_inurba_marseille","lat":43.29423,"lon":5.3863,"is_reserved":false,"is_disabled":false,"rental_uris":{"android":"levelo://app?vid=3475ba18-79bd-4c99-bdca-31383d145fb3","ios":"levelo://app?vid=3475ba18-79bd-4c99-bdca-31383d145fb3"},"vehicle_type_id":"4","last_reported":1748873447,"current_range_meters":20000,"station_id":"ce4bh2h2rcd13ifvqdh0","pricing_plan_id":"cebpf4jnsgd1na2vs0mg"},{"bike_id":"8b4ca9d0-294e-4f06-8e37-dc4ce50ff381","system_id":"levelo_inurba_marseille","lat":43.28872,"lon":5.3588,"is_reserved":false,"is_disabled":false,"rental_uris":{"android":"levelo://app?vid=8b4ca9d0-294e-4f06-8e37-dc4ce50ff381","ios":"levelo://app?vid=8b4ca9d0-294e-4f06-8e37-dc4ce50ff381"},"vehicle_type_id":"4","last_reported":1748873447,"current_range_meters":20400,"station_id":"ce4bhb12rcd13ifvqem0","pricing_plan_id":"cebpf4jnsgd1na2vs0mg"},{"bike_id":"efe9630e-9fbf-4c83-9694-ef13b01a1a4d","system_id":"levelo_inurba_marseille","lat":43.337634,"lon":5.374442,"is_reserved":false,"is_disabled":false,"rental_uris":{"android":"levelo://app?vid=efe9630e-9fbf-4c83-9694-ef13b01a1a4d","ios":"levelo://app?vid=efe9630e-9fbf-4c83-9694-ef13b01a1a4d"},"vehicle_type_id":"4","last_reported":1748873447,"current_range_meters":21600,"station_id":"","pricing_plan_id":"cebpf4jnsgd1na2vs0mg"},{"bike_id":"ea5157e0-fe70-4d6c-86fa-570220ef1f21","system_id":"levelo_inurba_marseille","lat":43.24667,"lon":5.3816,"is_reserved":false,"is_disabled":false,"rental_uris":{"android":"levelo://app?vid=ea5157e0-fe70-4d6c-86fa-570220ef1f21","ios":"levelo://app?vid=ea5157e0-fe70-4d6c-86fa-570220ef1f21"},"vehicle_type_id":"4","last_reported":1748873447,"current_range_meters":20800,"station_id":"ce4bhih2rcd13ifvqfr0","pricing_plan_id":"cebpf4jnsgd1na2vs0mg"},{"bike_id":"6ef1176b-68e3-45cb-9dda-17922e6a3f2b","system_id":"levelo_inurba_marseille","lat":43.29582,"lon":5.39986,"is_reserved":false,"is_disabled":false,"rental_uris":{"android":"levelo://app?vid=6ef1176b-68e3-45cb-9dda-17922e6a3f2b","ios":"levelo://app?vid=6ef1176b-68e3-45cb-9dda-17922e6a3f2b"},"vehicle_type_id":"4","last_reported":1748873447,"current_range_meters":20800,"station_id":"ce4bh312rcd13ifvqdj0","pricing_plan_id":"cebpf4jnsgd1na2vs0mg"},{"bike_id":"706e3c8e-2d21-450e-a547-1b1f64cccb05","system_id":"levelo_inurba_marseille","lat":43.26572,"lon":5.39015,"is_reserved":false,"is_disabled":false,"rental_uris":{"android":"levelo://app?vid=706e3c8e-2d21-450e-a547-1b1f64cccb05","ios":"levelo://app?vid=706e3c8e-2d21-450e-a547-1b1f64cccb05"},"vehicle_type_id":"4","last_reported":1748873447,"current_range_meters":20800,"station_id":"ce4bhe12rcd13ifvqf30","pricing_plan_id":"cebpf4jnsgd1na2vs0mg"},{"bike_id":"5d8e4265-3ad6-4555-9b67-93e92242da74","system_id":"levelo_inurba_marseille","lat":43.23177,"lon":5.43689,"is_reserved":false,"is_disabled":false,"rental_uris":{"android":"levelo://app?vid=5d8e4265-3ad6-4555-9b67-93e92242da74","ios":"levelo://app?vid=5d8e4265-3ad6-4555-9b67-93e92242da74"},"vehicle_type_id":"4","last_reported":1748873447,"current_range_meters":20800,"station_id":"ce4bhmp2rcd13ifvqgog","pricing_plan_id":"cebpf4jnsgd1na2vs0mg"},{"bike_id":"1e0a1263-2d49-46a8-b582-8ca914271a59","system_id":"levelo_inurba_marseille","lat":43.25876,"lon":5.39905,"is_reserved":false,"is_disabled":false,"rental_uris":{"android":"levelo://app?vid=1e0a1263-2d49-46a8-b582-8ca914271a59","ios":"levelo://app?vid=1e0a1263-2d49-46a8-b582-8ca914271a59"},"vehicle_type_id":"4","last_reported":1748873447,"current_range_meters":20800,"station_id":"ce4bhl92rcd13ifvqghg","pricing_plan_id":"cebpf4jnsgd1na2vs0mg"},{"bike_id":"d1abef43-5689-4162-9c90-f75feb06a402","system_id":"levelo_inurba_marseille","lat":43.25877,"lon":5.39927,"is_reserved":false,"is_disabled":false,"rental_uris":{"android":"levelo://app?vid=d1abef43-5689-4162-9c90-f75feb06a402","ios":"levelo://app?vid=d1abef43-5689-4162-9c90-f75feb06a402"},"vehicle_type_id":"4","last_reported":1748873447,"current_range_meters":21600,"station_id":"ce4bhl92rcd13ifvqghg","pricing_plan_id":"cebpf4jnsgd1na2vs0mg"},{"bike_id":"f30ce591-cc9d-412f-ad89-74da8b0e53c5","system_id":"levelo_inurba_marseille","lat":43.290048,"lon":5.378071,"is_reserved":false,"is_disabled":false,"rental_uris":{"android":"levelo://app?vid=f30ce591-cc9d-412f-ad89-74da8b0e53c5","ios":"levelo://app?vid=f30ce591-cc9d-412f-ad89-74da8b0e53c5"},"vehicle_type_id":"4","last_reported":1748873447,"current_range_meters":21600,"station_id":"ce4bh9p2rcd13ifvqed0","pricing_plan_id":"cebpf4jnsgd1na2vs0mg"},{"bike_id":"a90529d8-805f-4fba-9cca-0edca7fe451c","system_id":"levelo_inurba_marseille","lat":43.323617,"lon":5.367576,"is_reserved":false,"is_disabled":false,"rental_uris":{"android":"levelo://app?vid=a90529d8-805f-4fba-9cca-0edca7fe451c","ios":"levelo://app?vid=a90529d8-805f-4fba-9cca-0edca7fe451c"},"vehicle_type_id":"4","last_reported":1748873447,"current_range_meters":21600,"station_id":"ce4bhsh2rcd13ifvqi2g","pricing_plan_id":"cebpf4jnsgd1na2vs0mg"},{"bike_id":"af38fec9-b912-410e-bd7f-26508a31a096","system_id":"levelo_inurba_marseille","lat":43.30928,"lon":5.36843,"is_reserved":false,"is_disabled":false,"rental_uris":{"android":"levelo://app?vid=af38fec9-b912-410e-bd7f-26508a31a096","ios":"levelo://app?vid=af38fec9-b912-410e-bd7f-26508a31a096"},"vehicle_type_id":"4","last_reported":1748873447,"current_range_meters":21600,"station_id":"ce4bgn92rcd13ifvqbvg","pricing_plan_id":"cebpf4jnsgd1na2vs0mg"},{"bike_id":"c945769f-70aa-4377-ab9c-d84af2e86546","system_id":"levelo_inurba_marseille","lat":43.33159,"lon":5.38186,"is_reserved":false,"is_disabled":false,"rental_uris":{"android":"levelo://app?vid=c945769f-70aa-4377-ab9c-d84af2e86546","ios":"levelo://app?vid=c945769f-70aa-4377-ab9c-d84af2e86546"},"vehicle_type_id":"4","last_reported":1748873447,"current_range_meters":21600,"station_id":"","pricing_plan_id":"cebpf4jnsgd1na2vs0mg"},{"bike_id":"bc67a60f-0e19-4a36-82be-597497a1aba0","system_id":"levelo_inurba_marseille","lat":43.309174,"lon":5.368534,"is_reserved":false,"is_disabled":false,"rental_uris":{"android":"levelo://app?vid=bc67a60f-0e19-4a36-82be-597497a1aba0","ios":"levelo://app?vid=bc67a60f-0e19-4a36-82be-597497a1aba0"},"vehicle_type_id":"4","last_reported":1748873447,"current_range_meters":21600,"station_id":"ce4bgn92rcd13ifvqbvg","pricing_plan_id":"cebpf4jnsgd1na2vs0mg"},{"bike_id":"22f839c0-7837-49f4-b4b1-6cd233d79363","system_id":"levelo_inurba_marseille","lat":43.29892,"lon":5.4369,"is_reserved":false,"is_disabled":false,"rental_uris":{"android":"levelo://app?vid=22f839c0-7837-49f4-b4b1-6cd233d79363","ios":"levelo://app?vid=22f839c0-7837-49f4-b4b1-6cd233d79363"},"vehicle_type_id":"4","last_reported":1748873447,"current_range_meters":21600,"station_id":"ce4bhpp2rcd13ifvqhfg","pricing_plan_id":"cebpf4jnsgd1na2vs0mg"},{"bike_id":"f0d34e7f-8103-46e9-a438-c85d36f28543","system_id":"levelo_inurba_marseille","lat":43.278651,"lon":5.35433,"is_reserved":false,"is_disabled":false,"rental_uris":{"android":"levelo://app?vid=f0d34e7f-8103-46e9-a438-c85d36f28543","ios":"levelo://app?vid=f0d34e7f-8103-46e9-a438-c85d36f28543"},