{"last_updated":1737310242,"ttl":60,"version":"2.2","data":{"bikes":[{"bike_id":"8bface02-8741-4157-a2ca-4b8723bc93d9","system_id":"levelo_inurba_marseille","lat":43.31278,"lon":5.40177,"is_reserved":false,"is_disabled":false,"rental_uris":{"android":"levelo://app?vid=8bface02-8741-4157-a2ca-4b8723bc93d9","ios":"levelo://app?vid=8bface02-8741-4157-a2ca-4b8723bc93d9"},"vehicle_type_id":"4","last_reported":1737310242,"current_range_meters":28800,"station_id":"ce4bh092rcd13ifvqd30","pricing_plan_id":"cebpf4jnsgd1na2vs0mg"},{"bike_id":"c3bf0b33-3b06-4922-bee8-921f3d9e566f","system_id":"levelo_inurba_marseille","lat":43.26577,"lon":5.37294,"is_reserved":false,"is_disabled":false,"rental_uris":{"android":"levelo://app?vid=c3bf0b33-3b06-4922-bee8-921f3d9e566f","ios":"levelo://app?vid=c3bf0b33-3b06-4922-bee8-921f3d9e566f"},"vehicle_type_id":"4","last_reported":1737310242,"current_range_meters":38800,"station_id":"ce4bhg12rcd13ifvqf70","pricing_plan_id":"cebpf4jnsgd1na2vs0mg"},{"bike_id":"d383b76c-b1c5-4112-bf95-e420a42ff72e","system_id":"levelo_inurba_marseille","lat":43.24819,"lon":5.37458,"is_reserved":false,"is_disabled":false,"rental_uris":{"android":"levelo://app?vid=d383b76c-b1c5-4112-bf95-e420a42ff72e","ios":"levelo://app?vid=d383b76c-b1c5-4112-bf95-e420a42ff72e"},"vehicle_type_id":"4","last_reported":1737310242,"current_range_meters":36400,"station_id":"ce4bhgh2rcd13ifvqfb0","pricing_plan_id":"cebpf4jnsgd1na2vs0mg"},{"bike_id":"bf79b5c4-0988-4ed9-bb11-0a06d57d2b15","system_id":"levelo_inurba_marseille","lat":43.27324,"lon":5.39064,"is_reserved":false,"is_disabled":false,"rental_uris":{"android":"levelo://app?vid=bf79b5c4-0988-4ed9-bb11-0a06d57d2b15","ios":"levelo://app?vid=bf79b5c4-0988-4ed9-bb11-0a06d57d2b15"},"vehicle_type_id":"4","last_reported":1737310242,"current_range_meters":38800,"station_id":"ce4bhgp2rcd13ifvqfe0","pricing_plan_id":"cebpf4jnsgd1na2vs0mg"},{"bike_id":"016891d3-d48d-43ea-9d8d-aacd30510a50","system_id":"levelo_inurba_marseille","lat":43.23061,"lon":5.35494,"is_reserved":false,"is_disabled":false,"rental_uris":{"android":"levelo://app?vid=016891d3-d48d-43ea-9d8d-aacd30510a50","ios":"levelo://app?vid=016891d3-d48d-43ea-9d8d-aacd30510a50"},"vehicle_type_id":"4","last_reported":1737310242,"current_range_meters":24000,"station_id":"cpo3342slgdg3j2ifvpg","pricing_plan_id":"cebpf4jnsgd1na2vs0mg"},{"bike_id":"753e632a-5031-4e6c-96d1-f3cb623f8582","system_id":"levelo_inurba_marseille","lat":43.30125,"lon":5.37422,"is_reserved":false,"is_disabled":false,"rental_uris":{"android":"levelo://app?vid=753e632a-5031-4e6c-96d1-f3cb623f8582","ios":"levelo://app?vid=753e632a-5031-4e6c-96d1-f3cb623f8582"},"vehicle_type_id":"4","last_reported":1737310242,"current_range_meters":39200,"station_id":"ce4bgs92rcd13ifvqcc0","pricing_plan_id":"cebpf4jnsgd1na2vs0mg"},{"bike_id":"a5cfd84d-4cae-4412-b199-dcb982d64799","system_id":"levelo_inurba_marseille","lat":43.284452,"lon":5.391858,"is_reserved":false,"is_disabled":true,"rental_uris":{"android":"levelo://app?vid=a5cfd84d-4cae-4412-b199-dcb982d64799","ios":"levelo://app?vid=a5cfd84d-4cae-4412-b199-dcb982d64799"},"vehicle_type_id":"4","last_reported":1737310242,"current_range_meters":0,"station_id":"ce4bhoh2rcd13ifvqh5g","pricing_plan_id":"cebpf4jnsgd1na2vs0mg"},{"bike_id":"f9ba6911-1d74-4e31-be86-e083ccd6eee1","system_id":"levelo_inurba_marseille","lat":43.26791,"lon":5.39417,"is_reserved":false,"is_disabled":false,"rental_uris":{"android":"levelo://app?vid=f9ba6911-1d74-4e31-be86-e083ccd6eee1","ios":"levelo://app?vid=f9ba6911-1d74-4e31-be86-e083ccd6eee1"},"vehicle_type_id":"4","last_reported":1737310242,"current_range_meters":24000,"station_id":"ce4bhh12rcd13ifvqfg0","pricing_plan_id":"cebpf4jnsgd1na2vs0mg"},{"bike_id":"d1889acc-ccb4-4467-9239-c14e6452db6a","system_id":"levelo_inurba_marseille","lat":43.27828,"lon":5.39216,"is_reserved":false,"is_disabled":false,"rental_uris":{"android":"levelo://app?vid=d1889acc-ccb4-4467-9239-c14e6452db6a","ios":"levelo://app?vid=d1889acc-ccb4-4467-9239-c14e6452db6a"},"vehicle_type_id":"4","last_reported":1737310242,"current_range_meters":7200,"station_id":"ce4bhjp2rcd13ifvqga0","pricing_plan_id":"cebpf4jnsgd1na2vs0mg"},{"bike_id":"c981f361-a508-4553-8bc2-435b4c98d6fb","system_id":"levelo_inurba_marseille","lat":43.31482,"lon":5.37302,"is_reserved":false,"is_disabled":false,"rental_uris":{"android":"levelo://app?vid=c981f361-a508-4553-8bc2-435b4c98d6fb","ios":"levelo://app?vid=c981f361-a508-4553-8bc2-435b4c98d6fb"},"vehicle_type_id":"4","last_reported":1737310242,"current_range_meters":16400,"station_id":"ce4bgt12rcd13ifvqcd0","pricing_plan_id":"cebpf4jnsgd1na2vs0mg"},{"bike_id":"b846d7af-124d-4f4a-8053-b0de3756dd48","system_id":"levelo_inurba_marseille","lat":43.26784,"lon":5.39422,"is_reserved":false,"is_disabled":false,"rental_uris":{"android":"levelo://app?vid=b846d7af-124d-4f4a-8053-b0de3756dd48","ios":"levelo://app?vid=b846d7af-124d-4f4a-8053-b0de3756dd48"},"vehicle_type_id":"4","last_reported":1737310242,"current_range_meters":15200,"station_id":"ce4bhh12rcd13ifvqfg0","pricing_plan_id":"cebpf4jnsgd1na2vs0mg"},{"bike_id":"90c165c3-eff9-4a4a-8f28-cfa68619e419","system_id":"levelo_inurba_marseille","lat":43.28718,"lon":5.40005,"is_reserved":false,"is_disabled":true,"rental_uris":{"android":"levelo://app?vid=90c165c3-eff9-4a4a-8f28-cfa68619e419","ios":"levelo://app?vid=90c165c3-eff9-4a4a-8f28-cfa68619e419"},"vehicle_type_id":"4","last_reported":1737310242,"current_range_meters":28000,"station_id":"ce4bho92rcd13ifvqh3g","pricing_plan_id":"cebpf4jnsgd1na2vs0mg"},{"bike_id":"5e1fa4eb-ff40-422a-ba90-b77aa05b27f5","system_id":"levelo_inurba_marseille","lat":43.26056,"lon":5.39394,"is_reserved":false,"is_disabled":false,"rental_uris":{"android":"levelo://app?vid=5e1fa4eb-ff40-422a-ba90-b77aa05b27f5","ios":"levelo://app?vid=5e1fa4eb-ff40-422a-ba90-b77aa05b27f5"},"vehicle_type_id":"4","last_reported":1737310242,"current_range_meters":36000,"station_id":"ce4bhh92rcd13ifvqfj0","pricing_plan_id":"cebpf4jnsgd1na2vs0mg"},{"bike_id":"21994adb-fa11-42d4-8203-7d0e03b8597a","system_id":"levelo_inurba_marseille","lat":43.29031,"lon":5.38657,"is_reserved":false,"is_disabled":false,"rental_uris":{"android":"levelo://app?vid=21994adb-fa11-42d4-8203-7d0e03b8597a","ios":"levelo://app?vid=21994adb-fa11-42d4-8203-7d0e03b8597a"},"vehicle_type_id":"4","last_reported":1737310242,"current_range_meters":30400,"station_id":"ce4bh4p2rcd13ifvqe0g","pricing_plan_id":"cebpf4jnsgd1na2vs0mg"},{"bike_id":"92ab5620-f315-4e2f-8ceb-5680c73029ac","system_id":"levelo_inurba_marseille","lat":43.3133,"lon":5.39682,"is_reserved":false,"is_disabled":false,"rental_uris":{"android":"levelo://app?vid=92ab5620-f315-4e2f-8ceb-5680c73029ac","ios":"levelo://app?vid=92ab5620-f315-4e2f-8ceb-5680c73029ac"},"vehicle_type_id":"4","last_reported":1737310242,"current_range_meters":32400,"station_id":"ce4bgvp2rcd13ifvqcu0","pricing_plan_id":"cebpf4jnsgd1na2vs0mg"},{"bike_id":"bb4afb95-c7f0-4860-8460-5fc5e3d37182","system_id":"levelo_inurba_marseille","lat":43.27309,"lon":5.39101,"is_reserved":false,"is_disabled":false,"rental_uris":{"android":"levelo://app?vid=bb4afb95-c7f0-4860-8460-5fc5e3d37182","ios":"levelo://app?vid=bb4afb95-c7f0-4860-8460-5fc5e3d37182"},"vehicle_type_id":"4","last_reported":1737310242,"current_range_meters":30000,"station_id":"ce4bhgp2rcd13ifvqfe0","pricing_plan_id":"cebpf4jnsgd1na2vs0mg"},{"bike_id":"763ed4fc-16fd-47a0-aedf-62c028daa66f","system_id":"levelo_inurba_marseille","lat":43.36392,"lon":5.35556,"is_reserved":false,"is_disabled":false,"rental_uris":{"android":"levelo://app?vid=763ed4fc-16fd-47a0-aedf-62c028daa66f","ios":"levelo://app?vid=763ed4fc-16fd-47a0-aedf-62c028daa66f"},"vehicle_type_id":"4","last_reported":1737310242,"current_range_meters":12000,"station_id":"","pricing_plan_id":"cebpf4jnsgd1na2vs0mg"},{"bike_id":"28b2bf6f-13f9-4bcf-b94c-b59a390975a6","system_id":"levelo_inurba_marseille","lat":43.306039,"lon":5.372282,"is_reserved":false,"is_disabled":false,"rental_uris":{"android":"levelo://app?vid=28b2bf6f-13f9-4bcf-b94c-b59a390975a6","ios":"levelo://app?vid=28b2bf6f-13f9-4bcf-b94c-b59a390975a6"},"vehicle_type_id":"4","last_reported":1737310242,"current_range_meters":20400,"station_id":"","pricing_plan_id":"cebpf4jnsgd1na2vs0mg"},{"bike_id":"56855a2d-6aa0-43be-9bd4-39897b793621","system_id":"levelo_inurba_marseille","lat":43.23194,"lon":5.35554,"is_reserved":false,"is_disabled":false,"rental_uris":{"android":"levelo://app?vid=56855a2d-6aa0-43be-9bd4-39897b793621","ios":"levelo://app?vid=56855a2d-6aa0-43be-9bd4-39897b793621"},"vehicle_type_id":"4","last_reported":1737310242,"current_range_meters":7200,"station_id":"ce4bhu92rcd13ifvqi70","pricing_plan_id":"cebpf4jnsgd1na2vs0mg"},{"bike_id":"0be87886-7cc2-4a7c-aefd-b4d145a1ecaa","system_id":"levelo_inurba_marseille","lat":43.30887,"lon":5.39662,"is_reserved":false,"is_disabled":false,"rental_uris":{"android":"levelo://app?vid=0be87886-7cc2-4a7c-aefd-b4d145a1ecaa","ios":"levelo://app?vid=0be87886-7cc2-4a7c-aefd-b4d145a1ecaa"},"vehicle_type_id":"4","last_reported":1737310242,"current_range_meters":18800,"station_id":"ce4bh012rcd13ifvqcv0","pricing_plan_id":"cebpf4jnsgd1na2vs0mg"},{"bike_id":"15c83418-e1db-44e0-8411-b100a6c69ea6","system_id":"levelo_inurba_marseille","lat":43.28926,"lon":5.38402,"is_reserved":false,"is_disabled":false,"rental_uris":{"android":"levelo://app?vid=15c83418-e1db-44e0-8411-b100a6c69ea6","ios":"levelo://app?vid=15c83418-e1db-44e0-8411-b100a6c69ea6"},"vehicle_type_id":"4","last_reported":1737310242,"current_range_meters":31200,"station_id":"ce4bh612rcd13ifvqe6g","pricing_plan_id":"cebpf4jnsgd1na2vs0mg"},{"bike_id":"6fb53fbf-37b5-4d29-8892-c5872afeb694","system_id":"levelo_inurba_marseille","lat":43.257273,"lon":5.411079,"is_reserved":false,"is_disabled":false,"rental_uris":{"android":"levelo://app?vid=6fb53fbf-37b5-4d29-8892-c5872afeb694","ios":"levelo://app?vid=6fb53fbf-37b5-4d29-8892-c5872afeb694"},"vehicle_type_id":"4","last_reported":1737310242,"current_range_meters":38000,"station_id":"ce4bhkp2rcd13ifvqgd0","pricing_plan_id":"cebpf4jnsgd1na2vs0mg"},{"bike_id":"f3c94274-f861-4c89-8bb1-1ebe1a531935","system_id":"levelo_inurba_marseille","lat":43.25033,"lon":5.38935,"is_reserved":false,"is_disabled":false,"rental_uris":{"android":"levelo://app?vid=f3c94274-f861-4c89-8bb1-1ebe1a531935","ios":"levelo://app?vid=f3c94274-f861-4c89-8bb1-1ebe1a531935"},"vehicle_type_id":"4","last_reported":1737310242,"current_range_meters":36800,"station_id":"ce4bhgp2rcd13ifvqfd0","pricing_plan_id":"cebpf4jnsgd1na2vs0mg"},{"bike_id":"bf1fe53b-94d2-4974-a56f-b29081d0e260","system_id":"levelo_inurba_marseille","lat":43.28,"lon":5.40012,"is_reserved":false,"is_disabled":false,"rental_uris":{"android":"levelo://app?vid=bf1fe53b-94d2-4974-a56f-b29081d0e260","ios":"levelo://app?vid=bf1fe53b-94d2-4974-a56f-b29081d0e260"},"vehicle_type_id":"4","last_reported":1737310242,"current_range_meters":22800,"station_id":"ce4bho92rcd13ifvqh4g","pricing_plan_id":"cebpf4jnsgd1na2vs0mg"},{"bike_id":"ea820ade-d81d-428e-82b9-7f165f7e8e75","system_id":"levelo_inurba_marseille","lat":43.32266,"lon":5.36634,"is_reserved":false,"is_disabled":false,"rental_uris":{"android":"levelo://app?vid=ea820ade-d81d-428e-82b9-7f165f7e8e75","ios":"levelo://app?vid=ea820ade-d81d-428e-82b9-7f165f7e8e75"},"vehicle_type_id":"4","last_reported":1737310242,"current_range_meters":15200,"station_id":"","pricing_plan_id":"cebpf4jnsgd1na2vs0mg"},{"bike_id":"c29020e0-83ef-4b06-ac4f-c4422257f84a","system_id":"levelo_inurba_marseille","lat":43.36391,"lon":5.35605,"is_reserved":false,"is_disabled":false,"rental_uris":{"android":"levelo://app?vid=c29020e0-83ef-4b06-ac4f-c4422257f84a","ios":"levelo://app?vid=c29020e0-83ef-4b06-ac4f-c4422257f84a"},"vehicle_type_id":"4","last_reported":1737310242,"current_range_meters":17600,"station_id":"","pricing_plan_id":"cebpf4jnsgd1na2vs0mg"},{"bike_id":"57e0b0d8-d8ec-40e8-a565-79918766e977","system_id":"levelo_inurba_marseille","lat":43.27572,"lon":5.38424,"is_reserved":false,"is_disabled":false,"rental_uris":{"android":"levelo://app?vid=57e0b0d8-d8ec-40e8-a565-79918766e977","ios":"levelo://app?vid=57e0b0d8-d8ec-40e8-a565-79918766e977"},"vehicle_type_id":"4","last_reported":1737310242,"current_range_meters":37600,"station_id":"ce4bhh92rcd13ifvqfi0","pricing_plan_id":"cebpf4jnsgd1na2vs0mg"},{"bike_id":"6bf5bd29-3e54-437a-9020-86384919dc04","system_id":"levelo_inurba_marseille","lat":43.32295,"lon":5.38258,"is_reserved":false,"is_disabled":false,"rental_uris":{"android":"levelo://app?vid=6bf5bd29-3e54-437a-9020-86384919dc04","ios":"levelo://app?vid=6bf5bd29-3e54-437a-9020-86384919dc04"},"vehicle_type_id":"4","last_reported":1737310242,"current_range_meters":39200,"station_id":"ce4bhr12rcd13ifvqhqg","pricing_plan_id":"cebpf4jnsgd1na2vs0mg"},{"bike_id":"f44382c6-b18f-49e1-9974-78a592f98736","system_id":"levelo_inurba_marseille","lat":43.29911,"lon":5.38151,"is_reserved":false,"is_disabled":false,"rental_uris":{"android":"levelo://app?vid=f44382c6-b18f-49e1-9974-78a592f98736","ios":"levelo://app?vid=f44382c6-b18f-49e1-9974-78a592f98736"},"vehicle_type_id":"4","last_reported":1737310242,"current_range_meters":25600,"station_id":"ce4bgj12rcd13ifvqbc0","pricing_plan_id":"cebpf4jnsgd1na2vs0mg"},{"bike_id":"b672b566-ae6e-4181-a2cb-0155be334a04","system_id":"levelo_inurba_marseille","lat":43.2895,"lon":5.36636,"is_reserved":false,"is_disabled":true,"rental_uris":{"android":"levelo://app?vid=b672b566-ae6e-4181-a2cb-0155be334a04","ios":"levelo://app?vid=b672b566-ae6e-4181-a2cb-0155be334a04"},"vehicle_type_id":"4","last_reported":1737310242,"current_range_meters":32400,"station_id":"ce4bhap2rcd13ifvqek0","pricing_plan_id":"cebpf4jnsgd1na2vs0mg"},{"bike_id":"de359285-6551-4a7a-9b07-47eb5926f194","system_id":"levelo_inurba_marseille","lat":43.30599,"lon":5.39351,"is_reserved":false,"is_disabled":false,"rental_uris":{"android":"levelo://app?vid=de359285-6551-4a7a-9b07-47eb5926f194","ios":"levelo://app?vid=de359285-6551-4a7a-9b07-47eb5926f194"},"vehicle_type_id":"4","last_reported":1737310242,"current_range_meters":24800,"station_id":"ce4bh0p2rcd13ifvqd80","pricing_plan_id":"cebpf4jnsgd1na2vs0mg"},{"bike_id":"6e8cf18b-34af-4c46-a48c-4d751ce7fea8","system_id":"levelo_inurba_marseille","lat":43.30146,"lon":5.37393,"is_reserved":false,"is_disabled":false,"rental_uris":{"android":"levelo://app?vid=6e8cf18b-34af-4c46-a48c-4d751ce7fea8","ios":"levelo://app?vid=6e8cf18b-34af-4c46-a48c-4d751ce7fea8"},"vehicle_type_id":"4","last_reported":1737310242,"current_range_meters":36400,"station_id":"ce4bgs92rcd13ifvqcc0","pricing_plan_id":"cebpf4jnsgd1na2vs0mg"},{"bike_id":"04e7f6b2-1170-476d-8eb7-54bc6ab7d23c","system_id":"levelo_inurba_marseille","lat":43.24408,"lon":5.3706,"is_reserved":false,"is_disabled":false,"rental_uris":{"android":"levelo://app?vid=04e7f6b2-1170-476d-8eb7-54bc6ab7d23c","ios":"levelo://app?vid=04e7f6b2-1170-476d-8eb7-54bc6ab7d23c"},"vehicle_type_id":"4","last_reported":1737310242,"current_range_meters":37600,"station_id":"ce4bhhh2rcd13ifvqfk0","pricing_plan_id":"cebpf4jnsgd1na2vs0mg"},{"bike_id":"ed07bdd0-f810-46cd-af8c-feef0bd2e510","system_id":"levelo_inurba_marseille","lat":43.2655,"lon":5.373,"is_reserved":false,"is_disabled":false,"rental_uris":{"android":"levelo://app?vid=ed07bdd0-f810-46cd-af8c-feef0bd2e510","ios":"levelo://app?vid=ed07bdd0-f810-46cd-af8c-feef0bd2e510"},"vehicle_type_id":"4","last_reported":1737310242,"current_range_meters":38800,"station_id":"ce4bhg12rcd13ifvqf70","pricing_plan_id":"cebpf4jnsgd1na2vs0mg"},{"bike_id":"4e52aa08-d559-4159-8744-42a805a8a9dc","system_id":"levelo_inurba_marseille","lat":43.29877,"lon":5.38904,"is_reserved":false,"is_disabled":false,"rental_uris":{"android":"levelo://app?vid=4e52aa08-d559-4159-8744-42a805a8a9dc","ios":"levelo://app?vid=4e52aa08-d559-4159-8744-42a805a8a9dc"},"vehicle_type_id":"4","last_reported":1737310242,"current_range_meters":39200,"station_id":"ce4bh392rcd13ifvqdl0","pricing_plan_id":"cebpf4jnsgd1na2vs0mg"},{"bike_id":"21f1f408-8cce-4f6a-8206-86319fcf1309","system_id":"levelo_inurba_marseille","lat":43.29019,"lon":5.38138,"is_reserved":false,"is_disabled":false,"rental_uris":{"android":"levelo://app?vid=21f1f408-8cce-4f6a-8206-86319fcf1309","ios":"levelo://app?vid=21f1f408-8cce-4f6a-8206-86319fcf1309"},"vehicle_type_id":"4","last_reported":1737310242,"current_range_meters":38400,"station_id":"ce4bh4p2rcd13ifvqe1g","pricing_plan_id":"cebpf4jnsgd1na2vs0mg"},{"bike_id":"a1268425-e1b2-45b1-8fbc-9391b8140126","system_id":"levelo_inurba_marseille","lat":43.24385,"lon":5.37058,"is_reserved":false,"is_disabled":false,"rental_uris":{"android":"levelo://app?vid=a1268425-e1b2-45b1-8fbc-9391b8140126","ios":"levelo://app?vid=a1268425-e1b2-45b1-8fbc-9391b8140126"},"vehicle_type_id":"4","last_reported":1737310242,"current_range_meters":28400,"station_id":"ce4bhhh2rcd13ifvqfk0","pricing_plan_id":"cebpf4jnsgd1na2vs0mg"},{"bike_id":"93ccf62e-5857-4ef1-82a1-4115736411fd","system_id":"levelo_inurba_marseille","lat":43.26222,"lon":5.40465,"is_reserved":false,"is_disabled":false,"rental_uris":{"android":"levelo://app?vid=93ccf62e-5857-4ef1-82a1-4115736411fd","ios":"levelo://app?vid=93ccf62e-5857-4ef1-82a1-4115736411fd"},"vehicle_type_id":"4","last_reported":1737310242,"current_range_meters":35200,"station_id":"","pricing_plan_id":"cebpf4jnsgd1na2vs0mg"},{"bike_id":"76fce58d-0447-4860-85d7-104f58ab493d","system_id":"levelo_inurba_marseille","lat":43.30643,"lon":5.40093,"is_reserved":false,"is_disabled":false,"rental_uris":{"android":"levelo://app?vid=76fce58d-0447-4860-85d7-104f58ab493d","ios":"levelo://app?vid=76fce58d-0447-4860-85d7-104f58ab493d"},"vehicle_type_id":"4","last_reported":1737310242,"current_range_meters":29600,"station_id":"ce4bh112rcd13ifvqda0","pricing_plan_id":"cebpf4jnsgd1na2vs0mg"},{"bike_id":"d29c2132-c56f-4cae-af2c-5d645e547eb7","system_id":"levelo_inurba_marseille","lat":43.28489,"lon":5.38415,"is_reserved":false,"is_disabled":false,"rental_uris":{"android":"levelo://app?vid=d29c2132-c56f-4cae-af2c-5d645e547eb7","ios":"levelo://app?vid=d29c2132-c56f-4cae-af2c-5d645e547eb7"},"vehicle_type_id":"4","last_reported":1737310242,"current_range_meters":19600,"station_id":"ce4bh512rcd13ifvqe3g","pricing_plan_id":"cebpf4jnsgd1na2vs0mg"},{"bike_id":"80b01635-da8d-49c6-970d-fcae6353de6a","system_id":"levelo_inurba_marseille","lat":43.26941,"lon":5.4025,"is_reserved":false,"is_disabled":false,"rental_uris":{"android":"levelo://app?vid=80b01635-da8d-49c6-970d-fcae6353de6a","ios":"levelo://app?vid=80b01635-da8d-49c6-970d-fcae6353de6a"},"vehicle_type_id":"4","last_reported":1737310242,"current_range_meters":16000,"station_id":"cjm6bp8fraef2m0cb0m0","pricing_plan_id":"cebpf4jnsgd1na2vs0mg"},{"bike_id":"529c5357-3139-4edd-85ea-52fbb21f95f1","system_id":"levelo_inurba_marseille","lat":43.29194,"lon":5.39333,"is_reserved":false,"is_disabled":false,"rental_uris":{"android":"levelo://app?vid=529c5357-3139-4edd-85ea-52fbb21f95f1","ios":"levelo://app?vid=529c5357-3139-4edd-85ea-52fbb21f95f1"},"vehicle_type_id":"4","last_reported":1737310242,"current_range_meters":38800,"station_id":"ce4bh192rcd13ifvqdd0","pricing_plan_id":"cebpf4jnsgd1na2vs0mg"},{"bike_id":"81112329-1dad-4775-ba9b-1357b51686d0","system_id":"levelo_inurba_marseille","lat":43.31316,"lon":5.37348,"is_reserved":false,"is_disabled":false,"rental_uris":{"android":"levelo://app?vid=81112329-1dad-4775-ba9b-1357b51686d0","ios":"levelo://app?vid=81112329-1dad-4775-ba9b-1357b51686d0"},"vehicle_type_id":"4","last_reported":1737310242,"current_range_meters":36400,"station_id":"","pricing_plan_id":"cebpf4jnsgd1na2vs0mg"},{"bike_id":"cd25f333-fd4e-4c60-8178-f47ff2a33434","system_id":"levelo_inurba_marseille","lat":43.24385,"lon":5.37059,"is_reserved":false,"is_disabled":false,"rental_uris":{"android":"levelo://app?vid=cd25f333-fd4e-4c60-8178-f47ff2a33434","ios":"levelo://app?vid=cd25f333-fd4e-4c60-8178-f47ff2a33434"},"vehicle_type_id":"4","last_reported":1737310242,"current_range_meters":24000,"station_id":"ce4bhhh2rcd13ifvqfk0","pricing_plan_id":"cebpf4jnsgd1na2vs0mg"},{"bike_id":"e8977f8d-4704-43fc-84cc-a8268aab5cff","system_id":"levelo_inurba_marseille","lat":43.26807,"lon":5.40274,"is_reserved":false,"is_disabled":false,"rental_uris":{"android":"levelo://app?vid=e8977f8d-4704-43fc-84cc-a8268aab5cff","ios":"levelo://app?vid=e8977f8d-4704-43fc-84cc-a8268aab5cff"},"vehicle_type_id":"4","last_reported":1737310242,"current_range_meters":4800,"station_id":"ce501612rcd8frsf0b60","pricing_plan_id":"cebpf4jnsgd1na2vs0mg"},{"bike_id":"9fcb437f-d1a6-4d4a-a34e-7e3d4417b70c","system_id":"levelo_inurba_marseille","lat":43.25114,"lon":5.40323,"is_reserved":false,"is_disabled":false,"rental_uris":{"android":"levelo://app?vid=9fcb437f-d1a6-4d4a-a34e-7e3d4417b70c","ios":"levelo://app?vid=9fcb437f-d1a6-4d4a-a34e-7e3d4417b70c"},"vehicle_type_id":"4","last_reported":1737310242,"current_range_meters":34000,"station_id":"ce4bhlh2rcd13ifvqgig","pricing_plan_id":"cebpf4jnsgd1na2vs0mg"},{"bike_id":"afa3b07f-a639-42dd-abf5-28cc00708042","system_id":"levelo_inurba_marseille","lat":43.29195,"lon":5.39324,"is_reserved":false,"is_disabled":false,"rental_uris":{"android":"levelo://app?vid=afa3b07f-a639-42dd-abf5-28cc00708042","ios":"levelo://app?vid=afa3b07f-a639-42dd-abf5-28cc00708042"},"vehicle_type_id":"4","last_reported":1737310242,"current_range_meters":26000,"station_id":"ce4bh192rcd13ifvqdd0","pricing_plan_id":"cebpf4jnsgd1na2vs0mg"},{"bike_id":"3860f79b-6390-4baa-9962-103869425bc6","system_id":"levelo_inurba_marseille","lat":43.299,"lon":5.43678,"is_reserved":false,"is_disabled":false,"rental_uris":{"android":"levelo://app?vid=3860f79b-6390-4baa-9962-103869425bc6","ios":"levelo://app?vid=3860f79b-6390-4baa-9962-103869425bc6"},"vehicle_type_id":"4","last_reported":1737310242,"current_range_meters":22000,"station_id":"ce4bhpp2rcd13ifvqhfg","pricing_plan_id":"cebpf4jnsgd1na2vs0mg"},{"bike_id":"98771dd2-dbcc-49da-8f17-f07259fada19","system_id":"levelo_inurba_marseille","lat":43.32008,"lon":5.38115,"is_reserved":false,"is_disabled":false,"rental_uris":{"android":"levelo://app?vid=98771dd2-dbcc-49da-8f17-f07259fada19","ios":"levelo://app?vid=98771dd2-dbcc-49da-8f17-f07259fada19"},"vehicle_type_id":"4","last_reported":1737310242,"current_range_meters":8400,"station_id":"ce4bhr12rcd13ifvqhpg","pricing_plan_id":"cebpf4jnsgd1na2vs0mg"},{"bike_id":"ec1ead99-65a0-4333-8a22-ff4e8980ef0e","system_id":"levelo_inurba_marseille","lat":43.26775,"lon":5.39448,"is_reserved":false,"is_disabled":false,"rental_uris":{"android":"levelo://app?vid=ec1ead99-65a0-4333-8a22-ff4e8980ef0e","ios":"levelo://app?vid=ec1ead99-65a0-4333-8a22-ff4e8980ef0e"},"vehicle_type_id":"4","last_reported":1737310242,"current_range_meters":38800,"station_id":"ce4bhh12rcd13ifvqfg0","pricing_plan_id":"cebpf4jnsgd1na2vs0mg"},{"bike_id":"ba92f0e9-4e5d-4b16-b71c-3f4e05ede3ed","system_id":"levelo_inurba_marseille","lat":43.24071,"lon":5.37762,"is_reserved":false,"is_disabled":false,"rental_uris":{"android":"levelo://app?vid=ba92f0e9-4e5d-4b16-b71c-3f4e05ede3ed","ios":"levelo://app?vid=ba92f0e9-4e5d-4b16-b71c-3f4e05ede3ed"},"vehicle_type_id":"4","last_reported":1737310242,"current_range_meters":37600,"station_id":"ce4bhnp2rcd13ifvqgvg","pricing_plan_id":"cebpf4jnsgd1na2vs0mg"},{"bike_id":"10b8da58-1f12-44b0-8c4c-eff01d48a146","system_id":"levelo_inurba_marseille","lat":43.30694,"lon":5.40125,"is_reserved":false,"is_disabled":true,"rental_uris":{"android":"levelo://app?vid=10b8da58-1f12-44b0-8c4c-eff01d48a146","ios":"levelo://app?vid=10b8da58-1f12-44b0-8c4c-eff01d48a146"},"vehicle_type_id":"4","last_reported":1737310242,"current_range_meters":27600,"station_id":"","pricing_plan_id":"cebpf4jnsgd1na2vs0mg"},{"bike_id":"c1ac3d1f-d090-4645-8fe5-d0818e56f664","system_id":"levelo_inurba_marseille","lat":43.27945,"lon":5.41044,"is_reserved":false,"is_disabled":false,"rental_uris":{"android":"levelo://app?vid=c1ac3d1f-d090-4645-8fe5-d0818e56f664","ios":"levelo://app?vid=c1ac3d1f-d090-4645-8fe5-d0818e56f664"},"vehicle_type_id":"4","last_reported":1737310242,"current_range_meters":16000,"station_id":"ce4bhnp2rcd13ifvqh0g","pricing_plan_id":"cebpf4jnsgd1na2vs0mg"},{"bike_id":"ca8aa51d-4833-4c77-8009-59b7c07323a3","system_id":"levelo_inurba_marseille","lat":43.323618,"lon":5.367539,"is_reserved":false,"is_disabled":false,"rental_uris":{"android":"levelo://app?vid=ca8aa51d-4833-4c77-8009-59b7c07323a3","ios":"levelo://app?vid=ca8aa51d-4833-4c77-8009-59b7c07323a3"},"vehicle_type_id":"4","last_reported":1737310242,"current_range_meters":35600,"station_id":"ce4bhsh2rcd13ifvqi2g","pricing_plan_id":"cebpf4jnsgd1na2vs0mg"},{"bike_id":"8572b761-76fc-4b3e-90d3-98c20ac6925f","system_id":"levelo_inurba_marseille","lat":43.30159,"lon":5.37401,"is_reserved":false,"is_disabled":false,"rental_uris":{"android":"levelo://app?vid=8572b761-76fc-4b3e-90d3-98c20ac6925f","ios":"levelo://app?vid=8572b761-76fc-4b3e-90d3-98c20ac6925f"},"vehicle_type_id":"4","last_reported":1737310242,"current_range_meters":38800,"station_id":"ce4bgs92rcd13ifvqcc0","pricing_plan_id":"cebpf4jnsgd1na2vs0mg"},{"bike_id":"c754d310-4dc8-4120-ba80-12c8f506ac95","system_id":"levelo_inurba_marseille","lat":43.3008,"lon":5.39087,"is_reserved":false,"is_disabled":true,"rental_uris":{"android":"levelo://app?vid=c754d310-4dc8-4120-ba80-12c8f506ac95","ios":"levelo://app?vid=c754d310-4dc8-4120-ba80-12c8f506ac95"},"vehicle_type_id":"4","last_reported":1737310242,"current_range_meters":800,"station_id":"ce4bh192rcd13ifvqdb0","pricing_plan_id":"cebpf4jnsgd1na2vs0mg"},{"bike_id":"ce0ee56d-180c-40a7-8ee4-1ff6fa737784","system_id":"levelo_inurba_marseille","lat":43.29898,"lon":5.43661,"is_reserved":false,"is_disabled":false,"rental_uris":{"android":"levelo://app?vid=ce0ee56d-180c-40a7-8ee4-1ff6fa737784","ios":"levelo://app?vid=ce0ee56d-180c-40a7-8ee4-1ff6fa737784"},"vehicle_type_id":"4","last_reported":1737310242,"current_range_meters":38800,"station_id":"ce4bhpp2rcd13ifvqhfg","pricing_plan_id":"cebpf4jnsgd1na2vs0mg"},{"bike_id":"51379e9f-1ebd-43ee-bd84-6927ab606473","system_id":"levelo_inurba_marseille","lat":43.24163,"lon":5.36407,"is_reserved":false,"is_disabled":false,"rental_uris":{"android":"levelo://app?vid=51379e9f-1ebd-43ee-bd84-6927ab606473","ios":"levelo://app?vid=51379e9f-1ebd-43ee-bd84-6927ab606473"},"vehicle_type_id":"4","last_reported":1737310242,"current_range_meters":26000,"station_id":"cpo36qri1sfpv3e86is0","pricing_plan_id":"cebpf4jnsgd1na2vs0mg"},{"bike_id":"57d9fa47-e597-4ea4-913f-9b45079bd718","system_id":"levelo_inurba_marseille","lat":43.33022,"lon":5.39034,"is_reserved":false,"is_disabled":false,"rental_uris":{"android":"levelo://app?vid=57d9fa47-e597-4ea4-913f-9b45079bd718","ios":"levelo://app?vid=57d9fa47-e597-4ea4-913f-9b45079bd718"},"vehicle_type_id":"4","last_reported":1737310242,"current_range_meters":11200,"station_id":"ce4bhr92rcd13ifvqhrg","pricing_plan_id":"cebpf4jnsgd1na2vs0mg"},{"bike_id":"bfa743ca-da16-4855-86e9-697ade250281","system_id":"levelo_inurba_marseille","lat":43.29711,"lon":5.36604,"is_reserved":false,"is_disabled":false,"rental_uris":{"android":"levelo://app?vid=bfa743ca-da16-4855-86e9-697ade250281","ios":"levelo://app?vid=bfa743ca-da16-4855-86e9-697ade250281"},"vehicle_type_id":"4","last_reported":1737310242,"current_range_meters":38800,"station_id":"ce4bgn12rcd13ifvqbt0","pricing_plan_id":"cebpf4jnsgd1na2vs0mg"},{"bike_id":"4ec76aa8-1e80-4051-b2ea-1baaf50a61e8","system_id":"levelo_inurba_marseille","lat":43.24138,"lon":5.38088,"is_reserved":false,"is_disabled":false,"rental_uris":{"android":"levelo://app?vid=4ec76aa8-1e80-4051-b2ea-1baaf50a61e8","ios":"levelo://app?vid=4ec76aa8-1e80-4051-b2ea-1baaf50a61e8"},"vehicle_type_id":"4","last_reported":1737310242,"current_range_meters":16800,"station_id":"","pricing_plan_id":"cebpf4jnsgd1na2vs0mg"},{"bike_id":"d7b57092-5089-4c4a-819e-bef9772d11d8","system_id":"levelo_inurba_marseille","lat":43.31796,"lon":5.37791,"is_reserved":false,"is_disabled":false,"rental_uris":{"android":"levelo://app?vid=d7b57092-5089-4c4a-819e-bef9772d11d8","ios":"levelo://app?vid=d7b57092-5089-4c4a-819e-bef9772d11d8"},"vehicle_type_id":"4","last_reported":1737310242,"current_range_meters":30400,"station_id":"","pricing_plan_id":"cebpf4jnsgd1na2vs0mg"},{"bike_id":"bd00f222-ce0c-4f81-a68c-0edabc3e5f6b","system_id":"levelo_inurba_marseille","lat":43.25107,"lon":5.39486,"is_reserved":false,"is_disabled":false,"rental_uris":{"android":"levelo://app?vid=bd00f222-ce0c-4f81-a68c-0edabc3e5f6b","ios":"levelo://app?vid=bd00f222-ce0c-4f81-a68c-0edabc3e5f6b"},"vehicle_type_id":"4","last_reported":1737310242,"current_range_meters":36400,"station_id":"ce4bhm12rcd13ifvqgkg","pricing_plan_id":"cebpf4jnsgd1na2vs0mg"},{"bike_id":"b14c698e-ccbd-4931-a1a4-89ecd1354a05","system_id":"levelo_inurba_marseille","lat":43.27408,"lon":5.39406,"is_reserved":false,"is_disabled":true,"rental_uris":{"android":"levelo://app?vid=b14c698e-ccbd-4931-a1a4-89ecd1354a05","ios":"levelo://app?vid=b14c698e-ccbd-4931-a1a4-89ecd1354a05"},"vehicle_type_id":"4","last_reported":1737310242,"current_range_meters":1200,"station_id":"ce4bhdp2rcd13ifvqf20","pricing_plan_id":"cebpf4jnsgd1na2vs0mg"},{"bike_id":"4104cbba-088f-4383-b2a0-261d17699731","system_id":"levelo_inurba_marseille","lat":43.23963,"lon":5.36638,"is_reserved":false,"is_disabled":false,"rental_uris":{"android":"levelo://app?vid=4104cbba-088f-4383-b2a0-261d17699731","ios":"levelo://app?vid=4104cbba-088f-4383-b2a0-261d17699731"},"vehicle_type_id":"4","last_reported":1737310242,"current_range_meters":36000,"station_id":"ce4bhi12rcd13ifvqfp0","pricing_plan_id":"cebpf4jnsgd1na2vs0mg"},{"bike_id":"fa3ae047-f405-4f0c-8e0e-dbbd46305ff7","system_id":"levelo_inurba_marseille","lat":43.275705,"lon":5.384105,"is_reserved":false,"is_disabled":false,"rental_uris":{"android":"levelo://app?vid=fa3ae047-f405-4f0c-8e0e-dbbd46305ff7","ios":"levelo://app?vid=fa3ae047-f405-4f0c-8e0e-dbbd46305ff7"},"vehicle_type_id":"4","last_reported":1737310242,"current_range_meters":38800,"station_id":"ce4bhh92rcd13ifvqfi0","pricing_plan_id":"cebpf4jnsgd1na2vs0mg"},{"bike_id":"b5efb390-7a38-4acd-88da-cfae35c1be12","system_id":"levelo_inurba_marseille","lat":43.27726,"lon":5.38827,"is_reserved":false,"is_disabled":false,"rental_uris":{"android":"levelo://app?vid=b5efb390-7a38-4acd-88da-cfae35c1be12","ios":"levelo://app?vid=b5efb390-7a38-4acd-88da-cfae35c1be12"},"vehicle_type_id":"4","last_reported":1737310242,"current_range_meters":30400,"station_id":"ce4bhgp2rcd13ifvqfe0","pricing_plan_id":"cebpf4jnsgd1na2vs0mg"},{"bike_id":"4eab8b95-e725-4774-9c70-d2be6401d290","system_id":"levelo_inurba_marseille","lat":43.32492,"lon":5.36563,"is_reserved":false,"is_disabled":false,"rental_uris":{"android":"levelo://app?vid=4eab8b95-e725-4774-9c70-d2be6401d290","ios":"levelo://app?vid=4eab8b95-e725-4774-9c70-d2be6401d290"},"vehicle_type_id":"4","last_reported":1737310242,"current_range_meters":36400,"station_id":"ce4bhs12rcd13ifvqhvg","pricing_plan_id":"cebpf4jnsgd1na2vs0mg"},{"bike_id":"28ef1c1e-dd89-43e8-817b-9b489831397b","system_id":"levelo_inurba_marseille","lat":43.27111,"lon":5.39619,"is_reserved":false,"is_disabled":true,"rental_uris":{"android":"levelo://app?vid=28ef1c1e-dd89-43e8-817b-9b489831397b","ios":"levelo://app?vid=28ef1c1e-dd89-43e8-817b-9b489831397b"},"vehicle_type_id":"4","last_reported":1737310242,"current_range_meters":0,"station_id":"","pricing_plan_id":"cebpf4jnsgd1na2vs0mg"},{"bike_id":"a090d58d-a1fb-4921-bd15-f1d1e2db9ea4","system_id":"levelo_inurba_marseille","lat":43.24175,"lon":5.39732,"is_reserved":false,"is_disabled":false,"rental_uris":{"android":"levelo://app?vid=a090d58d-a1fb-4921-bd15-f1d1e2db9ea4","ios":"levelo://app?vid=a090d58d-a1fb-4921-bd15-f1d1e2db9ea4"},"vehicle_type_id":"4","last_reported":1737310242,"current_range_meters":29600,"station_id":"ce4bhn12rcd13ifvqgpg","pricing_plan_id":"cebpf4jnsgd1na2vs0mg"},{"bike_id":"7d444872-3fb0-4536-9005-7a5b415b9ac8","system_id":"levelo_inurba_marseille","lat":43.24545,"lon":5.39529,"is_reserved":false,"is_disabled":false,"rental_uris":{"android":"levelo://app?vid=7d444872-3fb0-4536-9005-7a5b415b9ac8","ios":"levelo://app?vid=7d444872-3fb0-4536-9005-7a5b415b9ac8"},"vehicle_type_id":"4","last_reported":1737310242,"current_range_meters":34800,"station_id":"ce4bhlp2rcd13ifvqgjg","pricing_plan_id":"cebpf4jnsgd1na2vs0mg"},{"bike_id":"fd4d57d3-e476-4095-a9ce-e96d6483545c","system_id":"levelo_inurba_marseille","lat":43.28409,"lon":5.37526,"is_reserved":false,"is_disabled":false,"rental_uris":{"android":"levelo://app?vid=fd4d57d3-e476-4095-a9ce-e96d6483545c","ios":"levelo://app?vid=fd4d57d3-e476-4095-a9ce-e96d6483545c"},"vehicle_type_id":"4","last_reported":1737310242,"current_range_meters":28800,"station_id":"ce4bh412rcd13ifvqds0","pricing_plan_id":"cebpf4jnsgd1na2vs0mg"},{"bike_id":"0736e657-040d-49de-bbc1-e6d8b0edefc5","system_id":"levelo_inurba_marseille","lat":43.29532,"lon":5.38533,"is_reserved":false,"is_disabled":false,"rental_uris":{"android":"levelo://app?vid=0736e657-040d-49de-bbc1-e6d8b0edefc5","ios":"levelo://app?vid=0736e657-040d-49de-bbc1-e6d8b0edefc5"},"vehicle_type_id":"4","last_reported":1737310242,"current_range_meters":30000,"station_id":"ce4bgih2rcd13ifvqba0","pricing_plan_id":"cebpf4jnsgd1na2vs0mg"},{"bike_id":"357eaeda-fef2-41f2-9ad0-621ae2cc5c09","system_id":"levelo_inurba_marseille","lat":43.33753,"lon":5.37518,"is_reserved":false,"is_disabled":false,"rental_uris":{"android":"levelo://app?vid=357eaeda-fef2-41f2-9ad0-621ae2cc5c09","ios":"levelo://app?vid=357eaeda-fef2-41f2-9ad0-621ae2cc5c09"},"vehicle_type_id":"4","last_reported":1737310242,"current_range_meters":32000,"station_id":"","pricing_plan_id":"cebpf4jnsgd1na2vs0mg"},{"bike_id":"9aae8e84-558d-4a3d-aa92-e29e8750a485","system_id":"levelo_inurba_marseille","lat":43.2511,"lon":5.40339,"is_reserved":false,"is_disabled":false,"rental_uris":{"android":"levelo://app?vid=9aae8e84-558d-4a3d-aa92-e29e8750a485","ios":"levelo://app?vid=9aae8e84-558d-4a3d-aa92-e29e8750a485"},"vehicle_type_id":"4","last_reported":1737310242,"current_range_meters":8000,"station_id":"ce4bhlh2rcd13ifvqgig","pricing_plan_id":"cebpf4jnsgd1na2vs0mg"},{"bike_id":"ce27e413-df3d-41a0-b3b9-f2bea8802047","system_id":"levelo_inurba_marseille","lat":43.28703,"lon":5.37401,"is_reserved":false,"is_disabled":false,"rental_uris":{"android":"levelo://app?vid=ce27e413-df3d-41a0-b3b9-f2bea8802047","ios":"levelo://app?vid=ce27e413-df3d-41a0-b3b9-f2bea8802047"},"vehicle_type_id":"4","last_reported":1737310242,"current_range_meters":30400,"station_id":"ce4bh3p2rcd13ifvqdq0","pricing_plan_id":"cebpf4jnsgd1na2vs0mg"},{"bike_id":"4ca0c0a8-ebec-4495-a31b-51805b75ee6d","system_id":"levelo_inurba_marseille","lat":43.24653,"lon":5.38891,"is_reserved":false,"is_disabled":false,"rental_uris":{"android":"levelo://app?vid=4ca0c0a8-ebec-4495-a31b-51805b75ee6d","ios":"levelo://app?vid=4ca0c0a8-ebec-4495-a31b-51805b75ee6d"},"vehicle_type_id":"4","last_reported":1737310242,"current_range_meters":24400,"station_id":"ce4bhg12rcd13ifvqf60","pricing_plan_id":"cebpf4jnsgd1na2vs0mg"},{"bike_id":"59573d05-8b25-4d08-928a-2e522ea4e7a5","system_id":"levelo_inurba_marseille","lat":43.31161,"lon":5.38716,"is_reserved":false,"is_disabled":true,"rental_uris":{"android":"levelo://app?vid=59573d05-8b25-4d08-928a-2e522ea4e7a5","ios":"levelo://app?vid=59573d05-8b25-4d08-928a-2e522ea4e7a5"},"vehicle_type_id":"4","last_reported":1737310242,"current_range_meters":38800,"station_id":"ce4bgv12rcd13ifvqcp0","pricing_plan_id":"cebpf4jnsgd1na2vs0mg"},{"bike_id":"d714004e-0a5d-46dc-8f45-dcd4ee7c47a7","system_id":"levelo_inurba_marseille","lat":43.29523,"lon":5.37497,"is_reserved":false,"is_disabled":true,"rental_uris":{"android":"levelo://app?vid=d714004e-0a5d-46dc-8f45-dcd4ee7c47a7","ios":"levelo://app?vid=d714004e-0a5d-46dc-8f45-dcd4ee7c47a7"},"vehicle_type_id":"4","last_reported":1737310242,"current_range_meters":14000,"station_id":"ce4bgkp2rcd13ifvqbmg","pricing_plan_id":"cebpf4jnsgd1na2vs0mg"},{"bike_id":"e1b56c5d-e12e-4ccf-84ff-3b0dd5942ba0","system_id":"levelo_inurba_marseille","lat":43.29546,"lon":5.42259,"is_reserved":false,"is_disabled":false,"rental_uris":{"android":"levelo://app?vid=e1b56c5d-e12e-4ccf-84ff-3b0dd5942ba0","ios":"levelo://app?vid=e1b56c5d-e12e-4ccf-84ff-3b0dd5942ba0"},"vehicle_type_id":"4","last_reported":1737310242,"current_range_meters":38800,"station_id":"ce4bhph2rcd13ifvqhdg","pricing_plan_id":"cebpf4jnsgd1na2vs0mg"},{"bike_id":"406cf7e1-dd3a-472a-896f-d09b14680f3c","system_id":"levelo_inurba_marseille","lat":43.26064,"lon":5.39405,"is_reserved":false,"is_disabled":false,"rental_uris":{"android":"levelo://app?vid=406cf7e1-dd3a-472a-896f-d09b14680f3c","ios":"levelo://app?vid=406cf7e1-dd3a-472a-896f-d09b14680f3c"},"vehicle_type_id":"4","last_reported":1737310242,"current_range_meters":25200,"station_id":"ce4bhh92rcd13ifvqfj0","pricing_plan_id":"cebpf4jnsgd1na2vs0mg"},{"bike_id":"10fbf793-650b-45ab-a847-3345db2e6687","system_id":"levelo_inurba_marseille","lat":43.29248,"lon":5.384383,"is_reserved":false,"is_disabled":false,"rental_uris":{"android":"levelo://app?vid=10fbf793-650b-45ab-a847-3345db2e6687","ios":"levelo://app?vid=10fbf793-650b-45ab-a847-3345db2e6687"},"vehicle_type_id":"4","last_reported":1737310242,"current_range_meters":38800,"station_id":"ce4bh692rcd13ifvqea0","pricing_plan_id":"cebpf4jnsgd1na2vs0mg"},{"bike_id":"01a07bd9-36a1-4c19-a88b-7c9e3a6ee490","system_id":"levelo_inurba_marseille","lat":43.25099,"lon":5.39514,"is_reserved":false,"is_disabled":false,"rental_uris":{"android":"levelo://app?vid=01a07bd9-36a1-4c19-a88b-7c9e3a6ee490","ios":"levelo://app?vid=01a07bd9-36a1-4c19-a88b-7c9e3a6ee490"},"vehicle_type_id":"4","last_reported":1737310242,"current_range_meters":32000,"station_id":"ce4bhm12rcd13ifvqgkg","pricing_plan_id":"cebpf4jnsgd1na2vs0mg"},{"bike_id":"3ee3bed5-3086-456c-978b-a08673a42a05","system_id":"levelo_inurba_marseille","lat":43.28464,"lon":5.38427,"is_reserved":false,"is_disabled":false,"rental_uris":{"android":"levelo://app?vid=3ee3bed5-3086-456c-978b-a08673a42a05","ios":"levelo://app?vid=3ee3bed5-3086-456c-978b-a08673a42a05"},"vehicle_type_id":"4","last_reported":1737310242,"current_range_meters":22400,"station_id":"ce4bh512rcd13ifvqe3g","pricing_plan_id":"cebpf4jnsgd1na2vs0mg"},{"bike_id":"3a226b53-772d-4831-aae6-679204abc709","system_id":"levelo_inurba_marseille","lat":43.25863,"lon":5.39903,"is_reserved":false,"is_disabled":false,"rental_uris":{"android":"levelo://app?vid=3a226b53-772d-4831-aae6-679204abc709","ios":"levelo://app?vid=3a226b53-772d-4831-aae6-679204abc709"},"vehicle_type_id":"4","last_reported":1737310242,"current_range_meters":38800,"station_id":"ce4bhl92rcd13ifvqghg","pricing_plan_id":"cebpf4jnsgd1na2vs0mg"},{"bike_id":"d751e749-afcd-4240-9c1e-54752c62ac8f","system_id":"levelo_inurba_marseille","lat":43.27494,"lon":5.42457,"is_reserved":false,"is_disabled":true,"rental_uris":{"android":"levelo://app?vid=d751e749-afcd-4240-9c1e-54752c62ac8f","ios":"levelo://app?vid=d751e749-afcd-4240-9c1e-54752c62ac8f"},"vehicle_type_id":"4","last_reported":1737310242,"current_range_meters":38400,"station_id":"ce4bhn92rcd13ifvqgrg","pricing_plan_id":"cebpf4jnsgd1na2vs0mg"},{"bike_id":"82cd05ae-aa96-407a-8e0e-fa582ebd7730","system_id":"levelo_inurba_marseille","lat":43.30585,"lon":5.39363,"is_reserved":false,"is_disabled":false,"rental_uris":{"android":"levelo://app?vid=82cd05ae-aa96-407a-8e0e-fa582ebd7730","ios":"levelo://app?vid=82cd05ae-aa96-407a-8e0e-fa582ebd7730"},"vehicle_type_id":"4","last_reported":1737310242,"current_range_meters":32800,"station_id":"ce4bh0p2rcd13ifvqd80","pricing_plan_id":"cebpf4jnsgd1na2vs0mg"},{"bike_id":"1a531580-4efd-49f3-925f-81e7e3768874","system_id":"levelo_inurba_marseille","lat":43.25726,"lon":5.41107,"is_reserved":false,"is_disabled":false,"rental_uris":{"android":"levelo://app?vid=1a531580-4efd-49f3-925f-81e7e3768874","ios":"levelo://app?vid=1a531580-4efd-49f3-925f-81e7e3768874"},"vehicle_type_id":"4","last_reported":1737310242,"current_range_meters":23200,"station_id":"ce4bhkp2rcd13ifvqgd0","pricing_plan_id":"cebpf4jnsgd1na2vs0mg"},{"bike_id":"524072f1-ace1-43cc-8007-f91dc732b1f7","system_id":"levelo_inurba_marseille","lat":43.25084,"lon":5.39513,"is_reserved":false,"is_disabled":false,"rental_uris":{"android":"levelo://app?vid=524072f1-ace1-43cc-8007-f91dc732b1f7","ios":"levelo://app?vid=524072f1-ace1-43cc-8007-f91dc732b1f7"},"vehicle_type_id":"4","last_reported":1737310242,"current_range_meters":30400,"station_id":"ce4bhm12rcd13ifvqgkg","pricing_plan_id":"cebpf4jnsgd1na2vs0mg"},{"bike_id":"c42268c0-a5e0-42b8-b874-93ef21576df8","system_id":"levelo_inurba_marseille","lat":43.28144,"lon":5.42635,"is_reserved":false,"is_disabled":false,"rental_uris":{"android":"levelo://app?vid=c42268c0-a5e0-42b8-b874-93ef21576df8","ios":"levelo://app?vid=c42268c0-a5e0-42b8-b874-93ef21576df8"},"vehicle_type_id":"4","last_reported":1737310242,"current_range_meters":27200,"station_id":"ce4bhnh2rcd13ifvqgug","pricing_plan_id":"cebpf4jnsgd1na2vs0mg"},{"bike_id":"65a67c24-b043-409c-9b6c-49d12733cda3","system_id":"levelo_inurba_marseille","lat":43.27324,"lon":5.39109,"is_reserved":false,"is_disabled":false,"rental_uris":{"android":"levelo://app?vid=65a67c24-b043-409c-9b6c-49d12733cda3","ios":"levelo://app?vid=65a67c24-b043-409c-9b6c-49d12733cda3"},"vehicle_type_id":"4","last_reported":1737310242,"current_range_meters":35200,"station_id":"ce4bhgp2rcd13ifvqfe0","pricing_plan_id":"cebpf4jnsgd1na2vs0mg"},{"bike_id":"0f2743d1-4d5e-4f5d-80a9-2ff55d9ea33b","system_id":"levelo_inurba_marseille","lat":43.24088,"lon":5.37783,"is_reserved":false,"is_disabled":false,"rental_uris":{"android":"levelo://app?vid=0f2743d1-4d5e-4f5d-80a9-2ff55d9ea33b","ios":"levelo://app?vid=0f2743d1-4d5e-4f5d-80a9-2ff55d9ea33b"},"vehicle_type_id":"4","last_reported":1737310242,"current_range_meters":37600,"station_id":"ce4bhnp2rcd13ifvqgvg","pricing_plan_id":"cebpf4jnsgd1na2vs0mg"},{"bike_id":"6c856576-b5fe-48dd-b2ab-0a4b615188d9","system_id":"levelo_inurba_marseille","lat":43.32344,"lon":5.40622,"is_reserved":false,"is_disabled":false,"rental_uris":{"android":"levelo://app?vid=6c856576-b5fe-48dd-b2ab-0a4b615188d9","ios":"levelo://app?vid=6c856576-b5fe-48dd-b2ab-0a4b615188d9"},"vehicle_type_id":"4","last_reported":1737310242,"current_range_meters":38800,"station_id":"ce4bhq92rcd13ifvqhjg","pricing_plan_id":"cebpf4jnsgd1na2vs0mg"},{"bike_id":"392d5c13-52e3-4447-bb35-77b670143dc4","system_id":"levelo_inurba_marseille","lat":43.23965,"lon":5.36626,"is_reserved":false,"is_disabled":false,"rental_uris":{"android":"levelo://app?vid=392d5c13-52e3-4447-bb35-77b670143dc4","ios":"levelo://app?vid=392d5c13-52e3-4447-bb35-77b670143dc4"},"vehicle_type_id":"4","last_reported":1737310242,"current_range_meters":32000,"station_id":"ce4bhi12rcd13ifvqfp0","pricing_plan_id":"cebpf4jnsgd1na2vs0mg"},{"bike_id":"260ef7c5-2e0b-4cf7-b219-14421cf90ccf","system_id":"levelo_inurba_marseille","lat":43.29289,"lon":5.37467,"is_reserved":false,"is_disabled":false,"rental_uris":{"android":"levelo://app?vid=260ef7c5-2e0b-4cf7-b219-14421cf90ccf","ios":"levelo://app?vid=260ef7c5-2e0b-4cf7-b219-14421cf90ccf"},"vehicle_type_id":"4","last_reported":1737310242,"current_range_meters":16800,"station_id":"ce4bgi12rcd13ifvqb70","pricing_plan_id":"cebpf4jnsgd1na2vs0mg"},{"bike_id":"4291632b-b89c-4c47-8e03-1ac2c74e4815","system_id":"levelo_inurba_marseille","lat":43.24179,"lon":5.39725,"is_reserved":false,"is_disabled":false,"rental_uris":{"android":"levelo://app?vid=4291632b-b89c-4c47-8e03-1ac2c74e4815","ios":"levelo://app?vid=4291632b-b89c-4c47-8e03-1ac2c74e4815"},"vehicle_type_id":"4","last_reported":1737310242,"current_range_meters":37600,"station_id":"ce4bhn12rcd13ifvqgpg","pricing_plan_id":"cebpf4jnsgd1na2vs0mg"},{"bike_id":"ee73fa00-f9a6-49b4-893a-68a7f4e3a906","system_id":"levelo_inurba_marseille","lat":43.24676,"lon":5.38167,"is_reserved":false,"is_disabled":false,"rental_uris":{"android":"levelo://app?vid=ee73fa00-f9a6-49b4-893a-68a7f4e3a906","ios":"levelo://app?vid=ee73fa00-f9a6-49b4-893a-68a7f4e3a906"},"vehicle_type_id":"4","last_reported":1737310242,"current_range_meters":20000,"station_id":"ce4bhih2rcd13ifvqfr0","pricing_plan_id":"cebpf4jnsgd1na2vs0mg"},{"bike_id":"cb023393-3cf4-4a90-91bf-27968d7b6e27","system_id":"levelo_inurba_marseille","lat":43.24806,"lon":5.37466,"is_reserved":false,"is_disabled":false,"rental_uris":{"android":"levelo://app?vid=cb023393-3cf4-4a90-91bf-27968d7b6e27","ios":"levelo://app?vid=cb023393-3cf4-4a90-91bf-27968d7b6e27"},"vehicle_type_id":"4","last_reported":1737310242,"current_range_meters":38800,"station_id":"ce4bhgh2rcd13ifvqfb0","pricing_plan_id":"cebpf4jnsgd1na2vs0mg"},{"bike_id":"8e7b76ca-5077-464a-84f9-764ce4ba6856","system_id":"levelo_inurba_marseille","lat":43.29634,"lon":5.3715,"is_reserved":false,"is_disabled":false,"rental_uris":{"android":"levelo://app?vid=8e7b76ca-5077-464a-84f9-764ce4ba6856","ios":"levelo://app?vid=8e7b76ca-5077-464a-84f9-764ce4ba6856"},"vehicle_type_id":"4","last_reported":1737310242,"current_range_meters":27600,"station_id":"ce4bgnh2rcd13ifvqc0g","pricing_plan_id":"cebpf4jnsgd1na2vs0mg"},{"bike_id":"900ad26d-3b21-49f7-89ce-2c50eb20d154","system_id":"levelo_inurba_marseille","lat":43.28485,"lon":5.38421,"is_reserved":false,"is_disabled":false,"rental_uris":{"android":"levelo://app?vid=900ad26d-3b21-49f7-89ce-2c50eb20d154","ios":"levelo://app?vid=900ad26d-3b21-49f7-89ce-2c50eb20d154"},"vehicle_type_id":"4","last_reported":1737310242,"current_range_meters":9600,"station_id":"ce4bh512rcd13ifvqe3g","pricing_plan_id":"cebpf4jnsgd1na2vs0mg"},{"bike_id":"da0c1458-7a2f-497b-bc8a-70e13e9507b3","system_id":"levelo_inurba_marseille","lat":43.29887,"lon":5.38913,"is_reserved":false,"is_disabled":false,"rental_uris":{"android":"levelo://app?vid=da0c1458-7a2f-497b-bc8a-70e13e9507b3","ios":"levelo://app?vid=da0c1458-7a2f-497b-bc8a-70e13e9507b3"},"vehicle_type_id":"4","last_reported":1737310242,"current_range_meters":29600,"station_id":"ce4bh392rcd13ifvqdl0","pricing_plan_id":"cebpf4jnsgd1na2vs0mg"},{"bike_id":"d3a19521-d267-44a3-a4e5-1bbdbe6a331e","system_id":"levelo_inurba_marseille","lat":43.27951,"lon":5.38704,"is_reserved":false,"is_disabled":false,"rental_uris":{"android":"levelo://app?vid=d3a19521-d267-44a3-a4e5-1bbdbe6a331e","ios":"levelo://app?vid=d3a19521-d267-44a3-a4e5-1bbdbe6a331e"},"vehicle_type_id":"4","last_reported":1737310242,"current_range_meters":24800,"station_id":"ce4bhg12rcd13ifvqf80","pricing_plan_id":"cebpf4jnsgd1na2vs0mg"},{"bike_id":"80bcc3e7-77de-44a5-8965-f19acb6d7452","system_id":"levelo_inurba_marseille","lat":43.33035,"lon":5.39038,"is_reserved":false,"is_disabled":false,"rental_uris":{"android":"levelo://app?vid=80bcc3e7-77de-44a5-8965-f19acb6d7452","ios":"levelo://app?vid=80bcc3e7-77de-44a5-8965-f19acb6d7452"},"vehicle_type_id":"4","last_reported":1737310242,"current_range_meters":39200,"station_id":"ce4bhr92rcd13ifvqhrg","pricing_plan_id":"cebpf4jnsgd1na2vs0mg"},{"bike_id":"692b488f-a76c-4e4e-b1af-7a10f04864b5","system_id":"levelo_inurba_marseille","lat":43.29633,"lon":5.40601,"is_reserved":false,"is_disabled":false,"rental_uris":{"android":"levelo://app?vid=692b488f-a76c-4e4e-b1af-7a10f04864b5","ios":"levelo://app?vid=692b488f-a76c-4e4e-b1af-7a10f04864b5"},"vehicle_type_id":"4","last_reported":1737310242,"current_range_meters":38000,"station_id":"ce4bh0h2rcd13ifvqd60","pricing_plan_id":"cebpf4jnsgd1na2vs0mg"},{"bike_id":"f4a4a406-b0a5-42fc-9236-32e93ac6f6b2","system_id":"levelo_inurba_marseille","lat":43.23157,"lon":5.437,"is_reserved":false,"is_disabled":true,"rental_uris":{"android":"levelo://app?vid=f4a4a406-b0a5-42fc-9236-32e93ac6f6b2","ios":"levelo://app?vid=f4a4a406-b0a5-42fc-9236-32e93ac6f6b2"},"vehicle_type_id":"4","last_reported":1737310242,"current_range_meters":25200,"station_id":"ce4bhmp2rcd13ifvqgog","pricing_plan_id":"cebpf4jnsgd1na2vs0mg"},{"bike_id":"210ffe2d-27bf-471a-a897-ba0eb55d9e2b","system_id":"levelo_inurba_marseille","lat":43.27072,"lon":5.42282,"is_reserved":false,"is_disabled":false,"rental_uris":{"android":"levelo://app?vid=210ffe2d-27bf-471a-a897-ba0eb55d9e2b","ios":"levelo://app?vid=210ffe2d-27bf-471a-a897-ba0eb55d9e2b"},"vehicle_type_id":"4","last_reported":1737310242,"current_range_meters":34000,"station_id":"ce4bhk92rcd13ifvqgb0","pricing_plan_id":"cebpf4jnsgd1na2vs0mg"},{"bike_id":"e72c6bc3-490d-4f26-98bf-720e4d07f4f2","system_id":"levelo_inurba_marseille","lat":43.29562,"lon":5.37523,"is_reserved":false,"is_disabled":false,"rental_uris":{"android":"levelo://app?vid=e72c6bc3-490d-4f26-98bf-720e4d07f4f2","ios":"levelo://app?vid=e72c6bc3-490d-4f26-98bf-720e4d07f4f2"},"vehicle_type_id":"4","last_reported":1737310242,"current_range_meters":26800,"station_id":"ce4bgh92rcd13ifvqb50","pricing_plan_id":"cebpf4jnsgd1na2vs0mg"},{"bike_id":"6388216e-4db0-4133-93f6-6790333371ab","system_id":"levelo_inurba_marseille","lat":43.29529,"lon":5.38534,"is_reserved":false,"is_disabled":false,"rental_uris":{"android":"levelo://app?vid=6388216e-4db0-4133-93f6-6790333371ab","ios":"levelo://app?vid=6388216e-4db0-4133-93f6-6790333371ab"},"vehicle_type_id":"4","last_reported":1737310242,"current_range_meters":38800,"station_id":"ce4bgih2rcd13ifvqba0","pricing_plan_id":"cebpf4jnsgd1na2vs0mg"},{"bike_id":"e16bfad3-6e5c-42b6-90cd-e77c51d0ba6a","system_id":"levelo_inurba_marseille","lat":43.29898,"lon":5.38121,"is_reserved":false,"is_disabled":true,"rental_uris":{"android":"levelo://app?vid=e16bfad3-6e5c-42b6-90cd-e77c51d0ba6a","ios":"levelo://app?vid=e16bfad3-6e5c-42b6-90cd-e77c51d0ba6a"},"vehicle_type_id":"4","last_reported":1737310242,"current_range_meters":18000,"station_id":"ce4bgj12rcd13ifvqbc0","pricing_plan_id":"cebpf4jnsgd1na2vs0mg"},{"bike_id":"ed68907f-255c-459d-8b28-ef9a664d0ec1","system_id":"levelo_inurba_marseille","lat":43.27929,"lon":5.41036,"is_reserved":false,"is_disabled":false,"rental_uris":{"android":"levelo://app?vid=ed68907f-255c-459d-8b28-ef9a664d0ec1","ios":"levelo://app?vid=ed68907f-255c-459d-8b28-ef9a664d0ec1"},"vehicle_type_id":"4","last_reported":1737310242,"current_range_meters":35600,"station_id":"ce4bhnp2rcd13ifvqh0g","pricing_plan_id":"cebpf4jnsgd1na2vs0mg"},{"bike_id":"f0d21c93-9619-4b35-a6b3-82a8f4bbc9a3","system_id":"levelo_inurba_marseille","lat":43.31162,"lon":5.38719,"is_reserved":false,"is_disabled":false,"rental_uris":{"android":"levelo://app?vid=f0d21c93-9619-4b35-a6b3-82a8f4bbc9a3","ios":"levelo://app?vid=f0d21c93-9619-4b35-a6b3-82a8f4bbc9a3"},"vehicle_type_id":"4","last_reported":1737310242,"current_range_meters":8400,"station_id":"ce4bgv12rcd13ifvqcp0","pricing_plan_id":"cebpf4jnsgd1na2vs0mg"},{"bike_id":"94fea386-5420-4c74-892a-6c7151b02687","system_id":"levelo_inurba_marseille","lat":43.30215,"lon":5.39468,"is_reserved":false,"is_disabled":false,"rental_uris":{"android":"levelo://app?vid=94fea386-5420-4c74-892a-6c7151b02687","ios":"levelo://app?vid=94fea386-5420-4c74-892a-6c7151b02687"},"vehicle_type_id":"4","last_reported":1737310242,"current_range_meters":38000,"station_id":"ce4bh0p2rcd13ifvqd70","pricing_plan_id":"cebpf4jnsgd1na2vs0mg"},{"bike_id":"cfd23fa5-2b3e-421e-9de0-c7340d7befa4","system_id":"levelo_inurba_marseille","lat":43.2678,"lon":5.39424,"is_reserved":false,"is_disabled":false,"rental_uris":{"android":"levelo://app?vid=cfd23fa5-2b3e-421e-9de0-c7340d7befa4","ios":"levelo://app?vid=cfd23fa5-2b3e-421e-9de0-c7340d7befa4"},"vehicle_type_id":"4","last_reported":1737310242,"current_range_meters":18800,"station_id":"ce4bhh12rcd13ifvqfg0","pricing_plan_id":"cebpf4jnsgd1na2vs0mg"},{"bike_id":"227a6e1e-06e0-49aa-9e1c-30318de21751","system_id":"levelo_inurba_marseille","lat":43.29365,"lon":5.37851,"is_reserved":false,"is_disabled":false,"rental_uris":{"android":"levelo://app?vid=227a6e1e-06e0-49aa-9e1c-30318de21751","ios":"levelo://app?vid=227a6e1e-06e0-49aa-9e1c-30318de21751"},"vehicle_type_id":"4","last_reported":1737310242,"current_range_meters":38000,"station_id":"ce4bgjh2rcd13ifvqbf0","pricing_plan_id":"cebpf4jnsgd1na2vs0mg"},{"bike_id":"2f6c14fb-24c9-4c94-9678-efc4058573ff","system_id":"levelo_inurba_marseille","lat":43.31359,"lon":5.38493,"is_reserved":false,"is_disabled":false,"rental_uris":{"android":"levelo://app?vid=2f6c14fb-24c9-4c94-9678-efc4058573ff","ios":"levelo://app?vid=2f6c14fb-24c9-4c94-9678-efc4058573ff"},"vehicle_type_id":"4","last_reported":1737310242,"current_range_meters":25200,"station_id":"ce4bh112rcd13ifvqda0","pricing_plan_id":"cebpf4jnsgd1na2vs0mg"},{"bike_id":"b79eab69-1d0c-4f14-bd63-8d0285eb77de","system_id":"levelo_inurba_marseille","lat":43.27057,"lon":5.40263,"is_reserved":false,"is_disabled":false,"rental_uris":{"android":"levelo://app?vid=b79eab69-1d0c-4f14-bd63-8d0285eb77de","ios":"levelo://app?vid=b79eab69-1d0c-4f14-bd63-8d0285eb77de"},"vehicle_type_id":"4","last_reported":1737310242,"current_range_meters":24400,"station_id":"ce4bhk92rcd13ifvqgc0","pricing_plan_id":"cebpf4jnsgd1na2vs0mg"},{"bike_id":"234d1550-b7dd-465b-9578-32049a642f2b","system_id":"levelo_inurba_marseille","lat":43.29964,"lon":5.41321,"is_reserved":false,"is_disabled":false,"rental_uris":{"android":"levelo://app?vid=234d1550-b7dd-465b-9578-32049a642f2b","ios":"levelo://app?vid=234d1550-b7dd-465b-9578-32049a642f2b"},"vehicle_type_id":"4","last_reported":1737310242,"current_range_meters":34800,"station_id":"ce4bhp12rcd13ifvqh9g","pricing_plan_id":"cebpf4jnsgd1na2vs0mg"},{"bike_id":"5d510905-1ec5-4e64-9b99-f297738b580c","system_id":"levelo_inurba_marseille","lat":43.29872,"lon":5.389144,"is_reserved":false,"is_disabled":false,"rental_uris":{"android":"levelo://app?vid=5d510905-1ec5-4e64-9b99-f297738b580c","ios":"levelo://app?vid=5d510905-1ec5-4e64-9b99-f297738b580c"},"vehicle_type_id":"4","last_reported":1737310242,"current_range_meters":38000,"station_id":"ce4bh392rcd13ifvqdl0","pricing_plan_id":"cebpf4jnsgd1na2vs0mg"},{"bike_id":"8dce55b1-3518-420e-b71e-746eefa67b60","system_id":"levelo_inurba_marseille","lat":43.26771,"lon":5.39452,"is_reserved":false,"is_disabled":false,"rental_uris":{"android":"levelo://app?vid=8dce55b1-3518-420e-b71e-746eefa67b60","ios":"levelo://app?vid=8dce55b1-3518-420e-b71e-746eefa67b60"},"vehicle_type_id":"4","last_reported":1737310242,"current_range_meters":13600,"station_id":"ce4bhh12rcd13ifvqfg0","pricing_plan_id":"cebpf4jnsgd1na2vs0mg"},{"bike_id":"427adfa9-113c-4817-9db8-65205ccf4edf","system_id":"levelo_inurba_marseille","lat":43.31691,"lon":5.40475,"is_reserved":false,"is_disabled":false,"rental_uris":{"android":"levelo://app?vid=427adfa9-113c-4817-9db8-65205ccf4edf","ios":"levelo://app?vid=427adfa9-113c-4817-9db8-65205ccf4edf"},"vehicle_type_id":"4","last_reported":1737310242,"current_range_meters":38400,"station_id":"ce4bh012rcd13ifvqd00","pricing_plan_id":"cebpf4jnsgd1na2vs0mg"},{"bike_id":"8d6bb48d-5f03-4ca8-bbb4-42770a97f63b","system_id":"levelo_inurba_marseille","lat":43.29095,"lon":5.38163,"is_reserved":false,"is_disabled":false,"rental_uris":{"android":"levelo://app?vid=8d6bb48d-5f03-4ca8-bbb4-42770a97f63b","ios":"levelo://app?vid=8d6bb48d-5f03-4ca8-bbb4-42770a97f63b"},"vehicle_type_id":"4","last_reported":1737310242,"current_range_meters":39200,"station_id":"ce4bh512rcd13ifvqe2g","pricing_plan_id":"cebpf4jnsgd1na2vs0mg"},{"bike_id":"da504497-6fcd-4cba-a3f1-3310d661e5fe","system_id":"levelo_inurba_marseille","lat":43.27309,"lon":5.39097,"is_reserved":false,"is_disabled":false,"rental_uris":{"android":"levelo://app?vid=da504497-6fcd-4cba-a3f1-3310d661e5fe","ios":"levelo://app?vid=da504497-6fcd-4cba-a3f1-3310d661e5fe"},"vehicle_type_id":"4","last_reported":1737310242,"current_range_meters":10800,"station_id":"ce4bhgp2rcd13ifvqfe0","pricing_plan_id":"cebpf4jnsgd1na2vs0mg"},{"bike_id":"a2e709f9-6f94-4c83-b323-d7d411dcacbe","system_id":"levelo_inurba_marseille","lat":43.267815,"lon":5.394278,"is_reserved":false,"is_disabled":false,"rental_uris":{"android":"levelo://app?vid=a2e709f9-6f94-4c83-b323-d7d411dcacbe","ios":"levelo://app?vid=a2e709f9-6f94-4c83-b323-d7d411dcacbe"},"vehicle_type_id":"4","last_reported":1737310242,"current_range_meters":39200,"station_id":"ce4bhh12rcd13ifvqfg0","pricing_plan_id":"cebpf4jnsgd1na2vs0mg"},{"bike_id":"56b8e9bc-f750-4815-bc98-9098414d16db","system_id":"levelo_inurba_marseille","lat":43.23199,"lon":5.35546,"is_reserved":false,"is_disabled":true,"rental_uris":{"android":"levelo://app?vid=56b8e9bc-f750-4815-bc98-9098414d16db","ios":"levelo://app?vid=56b8e9bc-f750-4815-bc98-9098414d16db"},"vehicle_type_id":"4","last_reported":1737310242,"current_range_meters":0,"station_id":"ce4bhu92rcd13ifvqi70","pricing_plan_id":"cebpf4jnsgd1na2vs0mg"},{"bike_id":"0e91b70c-1e42-4d65-a90a-72cbd40954b0","system_id":"levelo_inurba_marseille","lat":43.32363,"lon":5.36772,"is_reserved":false,"is_disabled":false,"rental_uris":{"android":"levelo://app?vid=0e91b70c-1e42-4d65-a90a-72cbd40954b0","ios":"levelo://app?vid=0e91b70c-1e42-4d65-a90a-72cbd40954b0"},"vehicle_type_id":"4","last_reported":1737310242,"current_range_meters":7200,"station_id":"ce4bhsh2rcd13ifvqi2g","pricing_plan_id":"cebpf4jnsgd1na2vs0mg"},{"bike_id":"82960873-2ce8-48ce-bff0-07b9da07eb03","system_id":"levelo_inurba_marseille","lat":43.29302,"lon":5.3746,"is_reserved":false,"is_disabled":false,"rental_uris":{"android":"levelo://app?vid=82960873-2ce8-48ce-bff0-07b9da07eb03","ios":"levelo://app?vid=82960873-2ce8-48ce-bff0-07b9da07eb03"},"vehicle_type_id":"4","last_reported":1737310242,"current_range_meters":15200,"station_id":"ce4bgi12rcd13ifvqb70","pricing_plan_id":"cebpf4jnsgd1na2vs0mg"},{"bike_id":"fcff8b6e-6484-4e4c-8d98-9ab325ed2e27","system_id":"levelo_inurba_marseille","lat":43.32479,"lon":5.36569,"is_reserved":false,"is_disabled":false,"rental_uris":{"android":"levelo://app?vid=fcff8b6e-6484-4e4c-8d98-9ab325ed2e27","ios":"levelo://app?vid=fcff8b6e-6484-4e4c-8d98-9ab325ed2e27"},"vehicle_type_id":"4","last_reported":1737310242,"current_range_meters":38000,"station_id":"ce4bhs12rcd13ifvqhvg","pricing_plan_id":"cebpf4jnsgd1na2vs0mg"},{"bike_id":"7f6908f7-cfcb-4080-a4c3-d5b221bf885b","system_id":"levelo_inurba_marseille","lat":43.32033,"lon":5.41553,"is_reserved":false,"is_disabled":true,"rental_uris":{"android":"levelo://app?vid=7f6908f7-cfcb-4080-a4c3-d5b221bf885b","ios":"levelo://app?vid=7f6908f7-cfcb-4080-a4c3-d5b221bf885b"},"vehicle_type_id":"4","last_reported":1737310242,"current_range_meters":1200,"station_id":"ce4bhq92rcd13ifvqhkg","pricing_plan_id":"cebpf4jnsgd1na2vs0mg"},{"bike_id":"b7d7ca1a-41a3-48c4-b0ac-c73d423d3450","system_id":"levelo_inurba_marseille","lat":43.26788,"lon":5.39417,"is_reserved":false,"is_disabled":false,"rental_uris":{"android":"levelo://app?vid=b7d7ca1a-41a3-48c4-b0ac-c73d423d3450","ios":"levelo://app?vid=b7d7ca1a-41a3-48c4-b0ac-c73d423d3450"},"vehicle_type_id":"4","last_reported":1737310242,"current_range_meters":30400,"station_id":"ce4bhh12rcd13ifvqfg0","pricing_plan_id":"cebpf4jnsgd1na2vs0mg"},{"bike_id":"8ff75af4-f7c6-4467-9183-ca155a200aa2","system_id":"levelo_inurba_marseille","lat":43.26933,"lon":5.40249,"is_reserved":false,"is_disabled":false,"rental_uris":{"android":"levelo://app?vid=8ff75af4-f7c6-4467-9183-ca155a200aa2","ios":"levelo://app?vid=8ff75af4-f7c6-4467-9183-ca155a200aa2"},"vehicle_type_id":"4","last_reported":1737310242,"current_range_meters":17200,"station_id":"cjm6bp8fraef2m0cb0m0","pricing_plan_id":"cebpf4jnsgd1na2vs0mg"},{"bike_id":"b1a75506-186b-4c9c-a730-b2eb76aae481","system_id":"levelo_inurba_marseille","lat":43.27571,"lon":5.38407,"is_reserved":false,"is_disabled":false,"rental_uris":{"android":"levelo://app?vid=b1a75506-186b-4c9c-a730-b2eb76aae481","ios":"levelo://app?vid=b1a75506-186b-4c9c-a730-b2eb76aae481"},"vehicle_type_id":"4","last_reported":1737310242,"current_range_meters":38800,"station_id":"ce4bhh92rcd13ifvqfi0","pricing_plan_id":"cebpf4jnsgd1na2vs0mg"},{"bike_id":"0966a8a8-2d5b-449d-8d62-52bfeeb2bcde","system_id":"levelo_inurba_marseille","lat":43.29747,"lon":5.37681,"is_reserved":false,"is_disabled":true,"rental_uris":{"android":"levelo://app?vid=0966a8a8-2d5b-449d-8d62-52bfeeb2bcde","ios":"levelo://app?vid=0966a8a8-2d5b-449d-8d62-52bfeeb2bcde"},"vehicle_type_id":"4","last_reported":1737310242,"current_range_meters":36800,"station_id":"ce4bgkh2rcd13ifvqbl0","pricing_plan_id":"cebpf4jnsgd1na2vs0mg"},{"bike_id":"22465212-93af-4e0b-b803-6ee82bba56d5","system_id":"levelo_inurba_marseille","lat":43.33759,"lon":5.3748,"is_reserved":false,"is_disabled":false,"rental_uris":{"android":"levelo://app?vid=22465212-93af-4e0b-b803-6ee82bba56d5","ios":"levelo://app?vid=22465212-93af-4e0b-b803-6ee82bba56d5"},"vehicle_type_id":"4","last_reported":1737310242,"current_range_meters":27600,"station_id":"","pricing_plan_id":"cebpf4jnsgd1na2vs0mg"},{"bike_id":"d6d1604c-c524-40c9-b4a5-227697805b64","system_id":"levelo_inurba_marseille","lat":43.29928,"lon":5.39767,"is_reserved":false,"is_disabled":true,"rental_uris":{"android":"levelo://app?vid=d6d1604c-c524-40c9-b4a5-227697805b64","ios":"levelo://app?vid=d6d1604c-c524-40c9-b4a5-227697805b64"},"vehicle_type_id":"4","last_reported":1737310242,"current_range_meters":1600,"station_id":"","pricing_plan_id":"cebpf4jnsgd1na2vs0mg"},{"bike_id":"dd405a20-0581-49f5-a701-55a02f6a3684","system_id":"levelo_inurba_marseille","lat":43.31073,"lon":5.38363,"is_reserved":false,"is_disabled":false,"rental_uris":{"android":"levelo://app?vid=dd405a20-0581-49f5-a701-55a02f6a3684","ios":"levelo://app?vid=dd405a20-0581-49f5-a701-55a02f6a3684"},"vehicle_type_id":"4","last_reported":1737310242,"current_range_meters":28000,"station_id":"ce4bgv92rcd13ifvqcr0","pricing_plan_id":"cebpf4jnsgd1na2vs0mg"},{"bike_id":"6a12bd71-874b-4cd1-8cfd-fc720b60dd9a","system_id":"levelo_inurba_marseille","lat":43.29977,"lon":5.38475,"is_reserved":false,"is_disabled":false,"rental_uris":{"android":"levelo://app?vid=6a12bd71-874b-4cd1-8cfd-fc720b60dd9a","ios":"levelo://app?vid=6a12bd71-874b-4cd1-8cfd-fc720b60dd9a"},"vehicle_type_id":"4","last_reported":1737310242,"current_range_meters":22000,"station_id":"ce4bgj92rcd13ifvqbd0","pricing_plan_id":"cebpf4jnsgd1na2vs0mg"},{"bike_id":"19fb1931-f075-402c-a076-088e72accb76","system_id":"levelo_inurba_marseille","lat":43.24815,"lon":5.37454,"is_reserved":false,"is_disabled":false,"rental_uris":{"android":"levelo://app?vid=19fb1931-f075-402c-a076-088e72accb76","ios":"levelo://app?vid=19fb1931-f075-402c-a076-088e72accb76"},"vehicle_type_id":"4","last_reported":1737310242,"current_range_meters":9600,"station_id":"ce4bhgh2rcd13ifvqfb0","pricing_plan_id":"cebpf4jnsgd1na2vs0mg"},{"bike_id":"0d0a9787-dc25-4549-b9d1-4116921e2b21","system_id":"levelo_inurba_marseille","lat":43.31757,"lon":5.39011,"is_reserved":false,"is_disabled":false,"rental_uris":{"android":"levelo://app?vid=0d0a9787-dc25-4549-b9d1-4116921e2b21","ios":"levelo://app?vid=0d0a9787-dc25-4549-b9d1-4116921e2b21"},"vehicle_type_id":"4","last_reported":1737310242,"current_range_meters":38800,"station_id":"ce4bhqp2rcd13ifvqhng","pricing_plan_id":"cebpf4jnsgd1na2vs0mg"},{"bike_id":"523d6678-5d7e-496f-ae55-7887c1ee4bd3","system_id":"levelo_inurba_marseille","lat":43.29927,"lon":5.36541,"is_reserved":false,"is_disabled":false,"rental_uris":{"android":"levelo://app?vid=523d6678-5d7e-496f-ae55-7887c1ee4bd3","ios":"levelo://app?vid=523d6678-5d7e-496f-ae55-7887c1ee4bd3"},"vehicle_type_id":"4","last_reported":1737310242,"current_range_meters":31200,"station_id":"ce4bgm92rcd13ifvqbr0","pricing_plan_id":"cebpf4jnsgd1na2vs0mg"},{"bike_id":"16a7176a-24c9-4d21-8155-eb4f5f1f837c","system_id":"levelo_inurba_marseille","lat":43.24661,"lon":5.38154,"is_reserved":false,"is_disabled":false,"rental_uris":{"android":"levelo://app?vid=16a7176a-24c9-4d21-8155-eb4f5f1f837c","ios":"levelo://app?vid=16a7176a-24c9-4d21-8155-eb4f5f1f837c"},"vehicle_type_id":"4","last_reported":1737310242,"current_range_meters":38000,"station_id":"ce4bhih2rcd13ifvqfr0","pricing_plan_id":"cebpf4jnsgd1na2vs0mg"},{"bike_id":"07af6754-25ba-4377-bdd8-25fd03913c3c","system_id":"levelo_inurba_marseille","lat":43.31333,"lon":5.39691,"is_reserved":false,"is_disabled":false,"rental_uris":{"android":"levelo://app?vid=07af6754-25ba-4377-bdd8-25fd03913c3c","ios":"levelo://app?vid=07af6754-25ba-4377-bdd8-25fd03913c3c"},"vehicle_type_id":"4","last_reported":1737310242,"current_range_meters":24000,"station_id":"ce4bgvp2rcd13ifvqcu0","pricing_plan_id":"cebpf4jnsgd1na2vs0mg"},{"bike_id":"d447af06-3ffa-488a-80bd-7f56da277dbb","system_id":"levelo_inurba_marseille","lat":43.27824,"lon":5.39208,"is_reserved":false,"is_disabled":false,"rental_uris":{"android":"levelo://app?vid=d447af06-3ffa-488a-80bd-7f56da277dbb","ios":"levelo://app?vid=d447af06-3ffa-488a-80bd-7f56da277dbb"},"vehicle_type_id":"4","last_reported":1737310242,"current_range_meters":13600,"station_id":"ce4bhjp2rcd13ifvqga0","pricing_plan_id":"cebpf4jnsgd1na2vs0mg"},{"bike_id":"45b46742-a62d-4855-9ae3-d6f0621cbfdc","system_id":"levelo_inurba_marseille","lat":43.25832,"lon":5.39442,"is_reserved":false,"is_disabled":true,"rental_uris":{"android":"levelo://app?vid=45b46742-a62d-4855-9ae3-d6f0621cbfdc","ios":"levelo://app?vid=45b46742-a62d-4855-9ae3-d6f0621cbfdc"},"vehicle_type_id":"4","last_reported":1737310242,"current_range_meters":38800,"station_id":"ce4bhip2rcd13ifvqft0","pricing_plan_id":"cebpf4jnsgd1na2vs0mg"},{"bike_id":"aca483db-0b8d-469f-b864-7fdb7898f9bc","system_id":"levelo_inurba_marseille","lat":43.29199,"lon":5.3933,"is_reserved":false,"is_disabled":false,"rental_uris":{"android":"levelo://app?vid=aca483db-0b8d-469f-b864-7fdb7898f9bc","ios":"levelo://app?vid=aca483db-0b8d-469f-b864-7fdb7898f9bc"},"vehicle_type_id":"4","last_reported":1737310242,"current_range_meters":22400,"station_id":"ce4bh192rcd13ifvqdd0","pricing_plan_id":"cebpf4jnsgd1na2vs0mg"},{"bike_id":"12da18b6-5a3d-434d-8281-09add3f66c34","system_id":"levelo_inurba_marseille","lat":43.32483,"lon":5.36565,"is_reserved":false,"is_disabled":false,"rental_uris":{"android":"levelo://app?vid=12da18b6-5a3d-434d-8281-09add3f66c34","ios":"levelo://app?vid=12da18b6-5a3d-434d-8281-09add3f66c34"},"vehicle_type_id":"4","last_reported":1737310242,"current_range_meters":5600,"station_id":"ce4bhs12rcd13ifvqhvg","pricing_plan_id":"cebpf4jnsgd1na2vs0mg"},{"bike_id":"58ac83c3-7458-41c0-ba48-2ca035507656","system_id":"levelo_inurba_marseille","lat":43.26558,"lon":5.39024,"is_reserved":false,"is_disabled":false,"rental_uris":{"android":"levelo://app?vid=58ac83c3-7458-41c0-ba48-2ca035507656","ios":"levelo://app?vid=58ac83c3-7458-41c0-ba48-2ca035507656"},"vehicle_type_id":"4","last_reported":1737310242,"current_range_meters":36800,"station_id":"ce4bhe12rcd13ifvqf30","pricing_plan_id":"cebpf4jnsgd1na2vs0mg"},{"bike_id":"7a214395-f9e6-49d1-ac27-650b72d950ac","system_id":"levelo_inurba_marseille","lat":43.30194,"lon":5.36628,"is_reserved":false,"is_disabled":false,"rental_uris":{"android":"levelo://app?vid=7a214395-f9e6-49d1-ac27-650b72d950ac","ios":"levelo://app?vid=7a214395-f9e6-49d1-ac27-650b72d950ac"},"vehicle_type_id":"4","last_reported":1737310242,"current_range_meters":38800,"station_id":"ce4bgrh2rcd13ifvqc8g","pricing_plan_id":"cebpf4jnsgd1na2vs0mg"},{"bike_id":"92fa69bb-8d79-4a4e-8892-87ec90c4fac1","system_id":"levelo_inurba_marseille","lat":43.31332,"lon":5.39705,"is_reserved":false,"is_disabled":false,"rental_uris":{"android":"levelo://app?vid=92fa69bb-8d79-4a4e-8892-87ec90c4fac1","ios":"levelo://app?vid=92fa69bb-8d79-4a4e-8892-87ec90c4fac1"},"vehicle_type_id":"4","last_reported":1737310242,"current_range_meters":21600,"station_id":"ce4bgvp2rcd13ifvqcu0","pricing_plan_id":"cebpf4jnsgd1na2vs0mg"},{"bike_id":"1a02b04d-f2a4-448a-9bbb-8a76d155fc6c","system_id":"levelo_inurba_marseille","lat":43.30215,"lon":5.39484,"is_reserved":false,"is_disabled":false,"rental_uris":{"android":"levelo://app?vid=1a02b04d-f2a4-448a-9bbb-8a76d155fc6c","ios":"levelo://app?vid=1a02b04d-f2a4-448a-9bbb-8a76d155fc6c"},"vehicle_type_id":"4","last_reported":1737310242,"current_range_meters":39200,"station_id":"ce4bh0p2rcd13ifvqd70","pricing_plan_id":"cebpf4jnsgd1na2vs0mg"},{"bike_id":"f2390374-e060-4fe1-bcfa-cb2711193e58","system_id":"levelo_inurba_marseille","lat":43.25078,"lon":5.39496,"is_reserved":false,"is_disabled":false,"rental_uris":{"android":"levelo://app?vid=f2390374-e060-4fe1-bcfa-cb2711193e58","ios":"levelo://app?vid=f2390374-e060-4fe1-bcfa-cb2711193e58"},"vehicle_type_id":"4","last_reported":1737310242,"current_range_meters":38000,"station_id":"ce4bhm12rcd13ifvqgkg","pricing_plan_id":"cebpf4jnsgd1na2vs0mg"},{"bike_id":"dd22f8e6-4180-4257-8c33-cab9dc2658f8","system_id":"levelo_inurba_marseille","lat":43.27321,"lon":5.39087,"is_reserved":false,"is_disabled":false,"rental_uris":{"android":"levelo://app?vid=dd22f8e6-4180-4257-8c33-cab9dc2658f8","ios":"levelo://app?vid=dd22f8e6-4180-4257-8c33-cab9dc2658f8"},"vehicle_type_id":"4","last_reported":1737310242,"current_range_meters":38000,"station_id":"ce4bhgp2rcd13ifvqfe0","pricing_plan_id":"cebpf4jnsgd1na2vs0mg"},{"bike_id":"591b3bd2-5685-4ec2-843e-e45d69c9aabd","system_id":"levelo_inurba_marseille","lat":43.2606,"lon":5.39399,"is_reserved":false,"is_disabled":false,"rental_uris":{"android":"levelo://app?vid=591b3bd2-5685-4ec2-843e-e45d69c9aabd","ios":"levelo://app?vid=591b3bd2-5685-4ec2-843e-e45d69c9aabd"},"vehicle_type_id":"4","last_reported":1737310242,"current_range_meters":38800,"station_id":"ce4bhh92rcd13ifvqfj0","pricing_plan_id":"cebpf4jnsgd1na2vs0mg"},{"bike_id":"1aa8eecf-96db-4dff-a694-3573ca799e03","system_id":"levelo_inurba_marseille","lat":43.28334,"lon":5.38117,"is_reserved":false,"is_disabled":false,"rental_uris":{"android":"levelo://app?vid=1aa8eecf-96db-4dff-a694-3573ca799e03","ios":"levelo://app?vid=1aa8eecf-96db-4dff-a694-3573ca799e03"},"vehicle_type_id":"4","last_reported":1737310242,"current_range_meters":27200,"station_id":"ce4bh412rcd13ifvqdr0","pricing_plan_id":"cebpf4jnsgd1na2vs0mg"},{"bike_id":"948a0d36-7930-4c83-89da-81f27ad60806","system_id":"levelo_inurba_marseille","lat":43.28859,"lon":5.39328,"is_reserved":false,"is_disabled":true,"rental_uris":{"android":"levelo://app?vid=948a0d36-7930-4c83-89da-81f27ad60806","ios":"levelo://app?vid=948a0d36-7930-4c83-89da-81f27ad60806"},"vehicle_type_id":"4","last_reported":1737310242,"current_range_meters":6400,"station_id":"ce4bh2p2rcd13ifvqdi0","pricing_plan_id":"cebpf4jnsgd1na2vs0mg"},{"bike_id":"37709945-8e35-45eb-a992-bd6f409dbedb","system_id":"levelo_inurba_marseille","lat":43.29264,"lon":5.38421,"is_reserved":false,"is_disabled":false,"rental_uris":{"android":"levelo://app?vid=37709945-8e35-45eb-a992-bd6f409dbedb","ios":"levelo://app?vid=37709945-8e35-45eb-a992-bd6f409dbedb"},"vehicle_type_id":"4","last_reported":1737310242,"current_range_meters":38000,"station_id":"ce4bh692rcd13ifvqea0","pricing_plan_id":"cebpf4jnsgd1na2vs0mg"},{"bike_id":"b272dd3f-7e14-46c8-950d-c354a3dc4098","system_id":"levelo_inurba_marseille","lat":43.29842,"lon":5.36265,"is_reserved":false,"is_disabled":false,"rental_uris":{"android":"levelo://app?vid=b272dd3f-7e14-46c8-950d-c354a3dc4098","ios":"levelo://app?vid=b272dd3f-7e14-46c8-950d-c354a3dc4098"},"vehicle_type_id":"4","last_reported":1737310242,"current_range_meters":38800,"station_id":"ce4bgpp2rcd13ifvqc3g","pricing_plan_id":"cebpf4jnsgd1na2vs0mg"},{"bike_id":"0aa4a416-5ca3-4c2e-b222-394c6f697f31","system_id":"levelo_inurba_marseille","lat":43.31343,"lon":5.36714,"is_reserved":false,"is_disabled":true,"rental_uris":{"android":"levelo://app?vid=0aa4a416-5ca3-4c2e-b222-394c6f697f31","ios":"levelo://app?vid=0aa4a416-5ca3-4c2e-b222-394c6f697f31"},"vehicle_type_id":"4","last_reported":1737310242,"current_range_meters":0,"station_id":"ce4bgr92rcd13ifvqc6g","pricing_plan_id":"cebpf4jnsgd1na2vs0mg"},{"bike_id":"33428a5a-e3f4-425c-9407-e533953e3041","system_id":"levelo_inurba_marseille","lat":43.25107,"lon":5.40326,"is_reserved":false,"is_disabled":false,"rental_uris":{"android":"levelo://app?vid=33428a5a-e3f4-425c-9407-e533953e3041","ios":"levelo://app?vid=33428a5a-e3f4-425c-9407-e533953e3041"},"vehicle_type_id":"4","last_reported":1737310242,"current_range_meters":10000,"station_id":"ce4bhlh2rcd13ifvqgig","pricing_plan_id":"cebpf4jnsgd1na2vs0mg"},{"bike_id":"a95248e8-7ba2-479e-9b5c-9fb4d8e98c2b","system_id":"levelo_inurba_marseille","lat":43.28093,"lon":5.42196,"is_reserved":false,"is_disabled":true,"rental_uris":{"android":"levelo://app?vid=a95248e8-7ba2-479e-9b5c-9fb4d8e98c2b","ios":"levelo://app?vid=a95248e8-7ba2-479e-9b5c-9fb4d8e98c2b"},"vehicle_type_id":"4","last_reported":1737310242,"current_range_meters":0,"station_id":"","pricing_plan_id":"cebpf4jnsgd1na2vs0mg"},{"bike_id":"246f2aa1-d855-40ee-b8e2-0e541013d632","system_id":"levelo_inurba_marseille","lat":43.27812,"lon":5.40728,"is_reserved":false,"is_disabled":true,"rental_uris":{"android":"levelo://app?vid=246f2aa1-d855-40ee-b8e2-0e541013d632","ios":"levelo://app?vid=246f2aa1-d855-40ee-b8e2-0e541013d632"},"vehicle_type_id":"4","last_reported":1737310242,"current_range_meters":0,"station_id":"ce4bhnh2rcd13ifvqgtg","pricing_plan_id":"cebpf4jnsgd1na2vs0mg"},{"bike_id":"1296c22a-fd06-464a-9422-375c040fd819","system_id":"levelo_inurba_marseille","lat":43.3149,"lon":5.37313,"is_reserved":false,"is_disabled":false,"rental_uris":{"android":"levelo://app?vid=1296c22a-fd06-464a-9422-375c040fd819","ios":"levelo://app?vid=1296c22a-fd06-464a-9422-375c040fd819"},"vehicle_type_id":"4","last_reported":1737310242,"current_range_meters":32000,"station_id":"ce4bgt12rcd13ifvqcd0","pricing_plan_id":"cebpf4jnsgd1na2vs0mg"},{"bike_id":"c406e2bd-23ff-4e1f-a222-e3b1c1d85894","system_id":"levelo_inurba_marseille","lat":43.3169,"lon":5.37761,"is_reserved":false,"is_disabled":false,"rental_uris":{"android":"levelo://app?vid=c406e2bd-23ff-4e1f-a222-e3b1c1d85894","ios":"levelo://app?vid=c406e2bd-23ff-4e1f-a222-e3b1c1d85894"},"vehicle_type_id":"4","last_reported":1737310242,"current_range_meters":37600,"station_id":"ce4bgth2rcd13ifvqch0","pricing_plan_id":"cebpf4jnsgd1na2vs0mg"},{"bike_id":"88ce3a2b-343a-48fa-9bfd-c30ff1dbe4e5","system_id":"levelo_inurba_marseille","lat":43.25088,"lon":5.39526,"is_reserved":false,"is_disabled":false,"rental_uris":{"android":"levelo://app?vid=88ce3a2b-343a-48fa-9bfd-c30ff1dbe4e5","ios":"levelo://app?vid=88ce3a2b-343a-48fa-9bfd-c30ff1dbe4e5"},"vehicle_type_id":"4","last_reported":1737310242,"current_range_meters":14000,"station_id":"ce4bhm12rcd13ifvqgkg","pricing_plan_id":"cebpf4jnsgd1na2vs0mg"},{"bike_id":"091a7b8b-06a2-4f69-95f0-3170bf0df85d","system_id":"levelo_inurba_marseille","lat":43.27058,"lon":5.40266,"is_reserved":false,"is_disabled":false,"rental_uris":{"android":"levelo://app?vid=091a7b8b-06a2-4f69-95f0-3170bf0df85d","ios":"levelo://app?vid=091a7b8b-06a2-4f69-95f0-3170bf0df85d"},"vehicle_type_id":"4","last_reported":1737310242,"current_range_meters":28800,"station_id":"ce4bhk92rcd13ifvqgc0","pricing_plan_id":"cebpf4jnsgd1na2vs0mg"},{"bike_id":"c0943972-b0b0-4123-8a79-be8a92f5a1d0","system_id":"levelo_inurba_marseille","lat":43.26061,"lon":5.39397,"is_reserved":false,"is_disabled":false,"rental_uris":{"android":"levelo://app?vid=c0943972-b0b0-4123-8a79-be8a92f5a1d0","ios":"levelo://app?vid=c0943972-b0b0-4123-8a79-be8a92f5a1d0"},"vehicle_type_id":"4","last_reported":1737310242,"current_range_meters":18800,"station_id":"ce4bhh92rcd13ifvqfj0","pricing_plan_id":"cebpf4jnsgd1na2vs0mg"},{"bike_id":"acd80385-89a9-42c5-9858-345e2b1cdd8f","system_id":"levelo_inurba_marseille","lat":43.27421,"lon":5.39419,"is_reserved":false,"is_disabled":false,"rental_uris":{"android":"levelo://app?vid=acd80385-89a9-42c5-9858-345e2b1cdd8f","ios":"levelo://app?vid=acd80385-89a9-42c5-9858-345e2b1cdd8f"},"vehicle_type_id":"4","last_reported":1737310242,"current_range_meters":38000,"station_id":"ce4bhdp2rcd13ifvqf20","pricing_plan_id":"cebpf4jnsgd1na2vs0mg"},{"bike_id":"2189f33e-4cfd-4f76-9d91-913095d551c4","system_id":"levelo_inurba_marseille","lat":43.30345,"lon":5.39106,"is_reserved":false,"is_disabled":true,"rental_uris":{"android":"levelo://app?vid=2189f33e-4cfd-4f76-9d91-913095d551c4","ios":"levelo://app?vid=2189f33e-4cfd-4f76-9d91-913095d551c4"},"vehicle_type_id":"4","last_reported":1737310242,"current_range_meters":0,"station_id":"","pricing_plan_id":"cebpf4jnsgd1na2vs0mg"},{"bike_id":"2e59cf0e-e98c-4240-9965-76351b5f4055","system_id":"levelo_inurba_marseille","lat":43.25003,"lon":5.38946,"is_reserved":false,"is_disabled":false,"rental_uris":{"android":"levelo://app?vid=2e59cf0e-e98c-4240-9965-76351b5f4055","ios":"levelo://app?vid=2e59cf0e-e98c-4240-9965-76351b5f4055"},"vehicle_type_id":"4","last_reported":1737310242,"current_range_meters":4400,"station_id":"ce4bhgp2rcd13ifvqfd0","pricing_plan_id":"cebpf4jnsgd1na2vs0mg"},{"bike_id":"c80ee54a-7e67-4496-8b9d-ee72f4cb026f","system_id":"levelo_inurba_marseille","lat":43.30302,"lon":5.39203,"is_reserved":false,"is_disabled":false,"rental_uris":{"android":"levelo://app?vid=c80ee54a-7e67-4496-8b9d-ee72f4cb026f","ios":"levelo://app?vid=c80ee54a-7e67-4496-8b9d-ee72f4cb026f"},"vehicle_type_id":"4","last_reported":1737310242,"current_range_meters":25600,"station_id":"ce4bgkh2rcd13ifvqbk0","pricing_plan_id":"cebpf4jnsgd1na2vs0mg"},{"bike_id":"668f9767-c78d-438a-96bb-c0760f782967","system_id":"levelo_inurba_marseille","lat":43.26203,"lon":5.37928,"is_reserved":false,"is_disabled":false,"rental_uris":{"android":"levelo://app?vid=668f9767-c78d-438a-96bb-c0760f782967","ios":"levelo://app?vid=668f9767-c78d-438a-96bb-c0760f782967"},"vehicle_type_id":"4","last_reported":1737310242,"current_range_meters":36000,"station_id":"ce4bhjp2rcd13ifvqg90","pricing_plan_id":"cebpf4jnsgd1na2vs0mg"},{"bike_id":"02f1cc49-4ebe-4d9e-8cd2-4c44a07573b6","system_id":"levelo_inurba_marseille","lat":43.30009,"lon":5.38002,"is_reserved":false,"is_disabled":false,"rental_uris":{"android":"levelo://app?vid=02f1cc49-4ebe-4d9e-8cd2-4c44a07573b6","ios":"levelo://app?vid=02f1cc49-4ebe-4d9e-8cd2-4c44a07573b6"},"vehicle_type_id":"4","last_reported":1737310242,"current_range_meters":35600,"station_id":"","pricing_plan_id":"cebpf4jnsgd1na2vs0mg"},{"bike_id":"c3c71d80-b128-41f2-8336-986dc23c0ea0","system_id":"levelo_inurba_marseille","lat":43.3025,"lon":5.40075,"is_reserved":false,"is_disabled":false,"rental_uris":{"android":"levelo://app?vid=c3c71d80-b128-41f2-8336-986dc23c0ea0","ios":"levelo://app?vid=c3c71d80-b128-41f2-8336-986dc23c0ea0"},"vehicle_type_id":"4","last_reported":1737310242,"current_range_meters":37600,"station_id":"ce4bgvh2rcd13ifvqcs0","pricing_plan_id":"cebpf4jnsgd1na2vs0mg"},{"bike_id":"b1856928-93a4-4a7b-85f0-5bc76125f62d","system_id":"levelo_inurba_marseille","lat":43.29265,"lon":5.38444,"is_reserved":false,"is_disabled":false,"rental_uris":{"android":"levelo://app?vid=b1856928-93a4-4a7b-85f0-5bc76125f62d","ios":"levelo://app?vid=b1856928-93a4-4a7b-85f0-5bc76125f62d"},"vehicle_type_id":"4","last_reported":1737310242,"current_range_meters":16800,"station_id":"ce4bh692rcd13ifvqea0","pricing_plan_id":"cebpf4jnsgd1na2vs0mg"},{"bike_id":"1921f9ea-da91-44f8-bf04-2ddb7715d061","system_id":"levelo_inurba_marseille","lat":43.26785,"lon":5.39419,"is_reserved":false,"is_disabled":false,"rental_uris":{"android":"levelo://app?vid=1921f9ea-da91-44f8-bf04-2ddb7715d061","ios":"levelo://app?vid=1921f9ea-da91-44f8-bf04-2ddb7715d061"},"vehicle_type_id":"4","last_reported":1737310242,"current_range_meters":35600,"station_id":"ce4bhh12rcd13ifvqfg0","pricing_plan_id":"cebpf4jnsgd1na2vs0mg"},{"bike_id":"0d5bf58b-8962-4322-87c4-754920ec04ac","system_id":"levelo_inurba_marseille","lat":43.3119,"lon":5.38692,"is_reserved":false,"is_disabled":true,"rental_uris":{"android":"levelo://app?vid=0d5bf58b-8962-4322-87c4-754920ec04ac","ios":"levelo://app?vid=0d5bf58b-8962-4322-87c4-754920ec04ac"},"vehicle_type_id":"4","last_reported":1737310242,"current_range_meters":30400,"station_id":"ce4bgv12rcd13ifvqcp0","pricing_plan_id":"cebpf4jnsgd1na2vs0mg"},{"bike_id":"c92cbb9f-5a8c-4f30-b00a-221ba31b944d","system_id":"levelo_inurba_marseille","lat":43.28427,"lon":5.34973,"is_reserved":false,"is_disabled":true,"rental_uris":{"android":"levelo://app?vid=c92cbb9f-5a8c-4f30-b00a-221ba31b944d","ios":"levelo://app?vid=c92cbb9f-5a8c-4f30-b00a-221ba31b944d"},"vehicle_type_id":"4","last_reported":1737310242,"current_range_meters":30000,"station_id":"ce4bhbh2rcd13ifvqepg","pricing_plan_id":"cebpf4jnsgd1na2vs0mg"},{"bike_id":"d4116b54-1192-400e-826e-3395404d56bf","system_id":"levelo_inurba_marseille","lat":43.29274,"lon":5.38437,"is_reserved":false,"is_disabled":false,"rental_uris":{"android":"levelo://app?vid=d4116b54-1192-400e-826e-3395404d56bf","ios":"levelo://app?vid=d4116b54-1192-400e-826e-3395404d56bf"},"vehicle_type_id":"4","last_reported":1737310242,"current_range_meters":14400,"station_id":"ce4bh692rcd13ifvqea0","pricing_plan_id":"cebpf4jnsgd1na2vs0mg"},{"bike_id":"86b57124-6019-4f93-8e8b-374d80eb494f","system_id":"levelo_inurba_marseille","lat":43.27324,"lon":5.39095,"is_reserved":false,"is_disabled":false,"rental_uris":{"android":"levelo://app?vid=86b57124-6019-4f93-8e8b-374d80eb494f","ios":"levelo://app?vid=86b57124-6019-4f93-8e8b-374d80eb494f"},"vehicle_type_id":"4","last_reported":1737310242,"current_range_meters":21600,"station_id":"ce4bhgp2rcd13ifvqfe0","pricing_plan_id":"cebpf4jnsgd1na2vs0mg"},{"bike_id":"1716be8d-fb4f-4141-9945-9fe308dd60c1","system_id":"levelo_inurba_marseille","lat":43.28726,"lon":5.36105,"is_reserved":false,"is_disabled":false,"rental_uris":{"android":"levelo://app?vid=1716be8d-fb4f-4141-9945-9fe308dd60c1","ios":"levelo://app?vid=1716be8d-fb4f-4141-9945-9fe308dd60c1"},"vehicle_type_id":"4","last_reported":1737310242,"current_range_meters":38000,"station_id":"cki0cbj6b192h4jlfktg","pricing_plan_id":"cebpf4jnsgd1na2vs0mg"},{"bike_id":"fe90f7a6-3920-456a-9451-50d213b7000f","system_id":"levelo_inurba_marseille","lat":43.28474,"lon":5.38428,"is_reserved":false,"is_disabled":true,"rental_uris":{"android":"levelo://app?vid=fe90f7a6-3920-456a-9451-50d213b7000f","ios":"levelo://app?vid=fe90f7a6-3920-456a-9451-50d213b7000f"},"vehicle_type_id":"4","last_reported":1737310242,"current_range_meters":30800,"station_id":"ce4bh512rcd13ifvqe3g","pricing_plan_id":"cebpf4jnsgd1na2vs0mg"},{"bike_id":"67fe5a2e-d8fb-4c79-a771-ee3875d3a660","system_id":"levelo_inurba_marseille","lat":43.3373,"lon":5.39179,"is_reserved":false,"is_disabled":false,"rental_uris":{"android":"levelo://app?vid=67fe5a2e-d8fb-4c79-a771-ee3875d3a660","ios":"levelo://app?vid=67fe5a2e-d8fb-4c79-a771-ee3875d3a660"},"vehicle_type_id":"4","last_reported":1737310242,"current_range_meters":38800,"station_id":"ce4bhr92rcd13ifvqhsg","pricing_plan_id":"cebpf4jnsgd1na2vs0mg"},{"bike_id":"a5e54fff-92da-48a5-b188-02794fc4460d","system_id":"levelo_inurba_marseille","lat":43.312722,"lon":5.4017,"is_reserved":false,"is_disabled":false,"rental_uris":{"android":"levelo://app?vid=a5e54fff-92da-48a5-b188-02794fc4460d","ios":"levelo://app?vid=a5e54fff-92da-48a5-b188-02794fc4460d"},"vehicle_type_id":"4","last_reported":1737310242,"current_range_meters":31200,"station_id":"ce4bh092rcd13ifvqd30","pricing_plan_id":"cebpf4jnsgd1na2vs0mg"},{"bike_id":"e025dcb2-97d0-482a-9e00-097a26586b2a","system_id":"levelo_inurba_marseille","lat":43.29628,"lon":5.40593,"is_reserved":false,"is_disabled":false,"rental_uris":{"android":"levelo://app?vid=e025dcb2-97d0-482a-9e00-097a26586b2a","ios":"levelo://app?vid=e025dcb2-97d0-482a-9e00-097a26586b2a"},"vehicle_type_id":"4","last_reported":1737310242,"current_range_meters":26000,"station_id":"ce4bh0h2rcd13ifvqd60","pricing_plan_id":"cebpf4jnsgd1na2vs0mg"},{"bike_id":"aeeb7245-8a7c-4b79-b9ac-efca69f7818a","system_id":"levelo_inurba_marseille","lat":43.32109,"lon":5.36799,"is_reserved":false,"is_disabled":false,"rental_uris":{"android":"levelo://app?vid=aeeb7245-8a7c-4b79-b9ac-efca69f7818a","ios":"levelo://app?vid=aeeb7245-8a7c-4b79-b9ac-efca69f7818a"},"vehicle_type_id":"4","last_reported":1737310242,"current_range_meters":19600,"station_id":"ce4bhrh2rcd13ifvqhug","pricing_plan_id":"cebpf4jnsgd1na2vs0mg"},{"bike_id":"a0e1f522-20af-4612-861b-ffde02893b17","system_id":"levelo_inurba_marseille","lat":43.26503,"lon":5.39535,"is_reserved":false,"is_disabled":false,"rental_uris":{"android":"levelo://app?vid=a0e1f522-20af-4612-861b-ffde02893b17","ios":"levelo://app?vid=a0e1f522-20af-4612-861b-ffde02893b17"},"vehicle_type_id":"4","last_reported":1737310242,"current_range_meters":34800,"station_id":"ce4bhi12rcd13ifvqfq0","pricing_plan_id":"cebpf4jnsgd1na2vs0mg"},{"bike_id":"d7ebea74-ea94-4f72-85c3-775497bc315c","system_id":"levelo_inurba_marseille","lat":43.32286,"lon":5.38293,"is_reserved":false,"is_disabled":false,"rental_uris":{"android":"levelo://app?vid=d7ebea74-ea94-4f72-85c3-775497bc315c","ios":"levelo://app?vid=d7ebea74-ea94-4f72-85c3-775497bc315c"},"vehicle_type_id":"4","last_reported":1737310242,"current_range_meters":39200,"station_id":"ce4bhr12rcd13ifvqhqg","pricing_plan_id":"cebpf4jnsgd1na2vs0mg"},{"bike_id":"7b52e969-7498-42fb-aafb-034e09ca2f2a","system_id":"levelo_inurba_marseille","lat":43.3082,"lon":5.43596,"is_reserved":false,"is_disabled":false,"rental_uris":{"android":"levelo://app?vid=7b52e969-7498-42fb-aafb-034e09ca2f2a","ios":"levelo://app?vid=7b52e969-7498-42fb-aafb-034e09ca2f2a"},"vehicle_type_id":"4","last_reported":1737310242,"current_range_meters":29600,"station_id":"","pricing_plan_id":"cebpf4jnsgd1na2vs0mg"},{"bike_id":"a1139886-d64d-45d6-b73c-50c7d99afa7b","system_id":"levelo_inurba_marseille","lat":43.32287,"lon":5.38287,"is_reserved":false,"is_disabled":false,"rental_uris":{"android":"levelo://app?vid=a1139886-d64d-45d6-b73c-50c7d99afa7b","ios":"levelo://app?vid=a1139886-d64d-45d6-b73c-50c7d99afa7b"},"vehicle_type_id":"4","last_reported":1737310242,"current_range_meters":26800,"station_id":"ce4bhr12rcd13ifvqhqg","pricing_plan_id":"cebpf4jnsgd1na2vs0mg"},{"bike_id":"9eb335b9-be9e-4d87-ab11-b7aad1d486a4","system_id":"levelo_inurba_marseille","lat":43.23143,"lon":5.43711,"is_reserved":false,"is_disabled":true,"rental_uris":{"android":"levelo://app?vid=9eb335b9-be9e-4d87-ab11-b7aad1d486a4","ios":"levelo://app?vid=9eb335b9-be9e-4d87-ab11-b7aad1d486a4"},"vehicle_type_id":"4","last_reported":1737310242,"current_range_meters":0,"station_id":"ce4bhmp2rcd13ifvqgog","pricing_plan_id":"cebpf4jnsgd1na2vs0mg"},{"bike_id":"af7a856b-270b-4bf7-8c2f-4b76a38948fa","system_id":"levelo_inurba_marseille","lat":43.23192,"lon":5.3999,"is_reserved":false,"is_disabled":false,"rental_uris":{"android":"levelo://app?vid=af7a856b-270b-4bf7-8c2f-4b76a38948fa","ios":"levelo://app?vid=af7a856b-270b-4bf7-8c2f-4b76a38948fa"},"vehicle_type_id":"4","last_reported":1737310242,"current_range_meters":6800,"station_id":"ce4bhn12rcd13ifvqgqg","pricing_plan_id":"cebpf4jnsgd1na2vs0mg"},{"bike_id":"0cf77d38-0c01-40a4-844b-fa0d5e0fa12b","system_id":"levelo_inurba_marseille","lat":43.29258,"lon":5.38434,"is_reserved":false,"is_disabled":false,"rental_uris":{"android":"levelo://app?vid=0cf77d38-0c01-40a4-844b-fa0d5e0fa12b","ios":"levelo://app?vid=0cf77d38-0c01-40a4-844b-fa0d5e0fa12b"},"vehicle_type_id":"4","last_reported":1737310242,"current_range_meters":19200,"station_id":"ce4bh692rcd13ifvqea0","pricing_plan_id":"cebpf4jnsgd1na2vs0mg"},{"bike_id":"c152fc79-1cd4-48b6-9683-75e37b136f35","system_id":"levelo_inurba_marseille","lat":43.25008,"lon":5.38916,"is_reserved":false,"is_disabled":true,"rental_uris":{"android":"levelo://app?vid=c152fc79-1cd4-48b6-9683-75e37b136f35","ios":"levelo://app?vid=c152fc79-1cd4-48b6-9683-75e37b136f35"},"vehicle_type_id":"4","last_reported":1737310242,"current_range_meters":0,"station_id":"ce4bhgp2rcd13ifvqfd0","pricing_plan_id":"cebpf4jnsgd1na2vs0mg"},{"bike_id":"63a0c470-0e3d-4f46-a361-302d7a67e5d2","system_id":"levelo_inurba_marseille","lat":43.24805,"lon":5.37462,"is_reserved":false,"is_disabled":true,"rental_uris":{"android":"levelo://app?vid=63a0c470-0e3d-4f46-a361-302d7a67e5d2","ios":"levelo://app?vid=63a0c470-0e3d-4f46-a361-302d7a67e5d2"},"vehicle_type_id":"4","last_reported":1737310242,"current_range_meters":38000,"station_id":"ce4bhgh2rcd13ifvqfb0","pricing_plan_id":"cebpf4jnsgd1na2vs0mg"},{"bike_id":"d5a4b84a-471f-4edb-a016-4dd0af7e2137","system_id":"levelo_inurba_marseille","lat":43.25873,"lon":5.39913,"is_reserved":false,"is_disabled":false,"rental_uris":{"android":"levelo://app?vid=d5a4b84a-471f-4edb-a016-4dd0af7e2137","ios":"levelo://app?vid=d5a4b84a-471f-4edb-a016-4dd0af7e2137"},"vehicle_type_id":"4","last_reported":1737310242,"current_range_meters":38000,"station_id":"ce4bhl92rcd13ifvqghg","pricing_plan_id":"cebpf4jnsgd1na2vs0mg"},{"bike_id":"facc059d-d00a-4a11-bbe8-0f6fa002357c","system_id":"levelo_inurba_marseille","lat":43.32481,"lon":5.36571,"is_reserved":false,"is_disabled":false,"rental_uris":{"android":"levelo://app?vid=facc059d-d00a-4a11-bbe8-0f6fa002357c","ios":"levelo://app?vid=facc059d-d00a-4a11-bbe8-0f6fa002357c"},"vehicle_type_id":"4","last_reported":1737310242,"current_range_meters":26000,"station_id":"ce4bhs12rcd13ifvqhvg","pricing_plan_id":"cebpf4jnsgd1na2vs0mg"},{"bike_id":"62b7df12-4600-425b-aa4a-540d007dcc18","system_id":"levelo_inurba_marseille","lat":43.24544,"lon":5.39524,"is_reserved":false,"is_disabled":true,"rental_uris":{"android":"levelo://app?vid=62b7df12-4600-425b-aa4a-540d007dcc18","ios":"levelo://app?vid=62b7df12-4600-425b-aa4a-540d007dcc18"},"vehicle_type_id":"4","last_reported":1737310242,"current_range_meters":0,"station_id":"ce4bhlp2rcd13ifvqgjg","pricing_plan_id":"cebpf4jnsgd1na2vs0mg"},{"bike_id":"d2cd0fdc-12c5-4763-b438-c602263f69bb","system_id":"levelo_inurba_marseille","lat":43.29796,"lon":5.38155,"is_reserved":false,"is_disabled":false,"rental_uris":{"android":"levelo://app?vid=d2cd0fdc-12c5-4763-b438-c602263f69bb","ios":"levelo://app?vid=d2cd0fdc-12c5-4763-b438-c602263f69bb"},"vehicle_type_id":"4","last_reported":1737310242,"current_range_meters":8000,"station_id":"ce4bgip2rcd13ifvqbb0","pricing_plan_id":"cebpf4jnsgd1na2vs0mg"},{"bike_id":"50267a36-8428-4ee1-ac27-ac6a771a71af","system_id":"levelo_inurba_marseille","lat":43.33727,"lon":5.35572,"is_reserved":false,"is_disabled":false,"rental_uris":{"android":"levelo://app?vid=50267a36-8428-4ee1-ac27-ac6a771a71af","ios":"levelo://app?vid=50267a36-8428-4ee1-ac27-ac6a771a71af"},"vehicle_type_id":"4","last_reported":1737310242,"current_range_meters":5600,"station_id":"","pricing_plan_id":"cebpf4jnsgd1na2vs0mg"},{"bike_id":"17743f6f-2ad1-4a89-b953-3695a20d31f3","system_id":"levelo_inurba_marseille","lat":43.29629,"lon":5.40603,"is_reserved":false,"is_disabled":false,"rental_uris":{"android":"levelo://app?vid=17743f6f-2ad1-4a89-b953-3695a20d31f3","ios":"levelo://app?vid=17743f6f-2ad1-4a89-b953-3695a20d31f3"},"vehicle_type_id":"4","last_reported":1737310242,"current_range_meters":20400,"station_id":"ce4bh0h2rcd13ifvqd60","pricing_plan_id":"cebpf4jnsgd1na2vs0mg"},{"bike_id":"f5863b18-13a1-4c6e-92de-5668ea912ad3","system_id":"levelo_inurba_marseille","lat":43.26234,"lon":5.40439,"is_reserved":false,"is_disabled":true,"rental_uris":{"android":"levelo://app?vid=f5863b18-13a1-4c6e-92de-5668ea912ad3","ios":"levelo://app?vid=f5863b18-13a1-4c6e-92de-5668ea912ad3"},"vehicle_type_id":"4","last_reported":1737310242,"current_range_meters":0,"station_id":"","pricing_plan_id":"cebpf4jnsgd1na2vs0mg"},{"bike_id":"019341d9-81c1-4ace-b891-1521e6b98622","system_id":"levelo_inurba_marseille","lat":43.29927,"lon":5.3749,"is_reserved":false,"is_disabled":false,"rental_uris":{"android":"levelo://app?vid=019341d9-81c1-4ace-b891-1521e6b98622","ios":"levelo://app?vid=019341d9-81c1-4ace-b891-1521e6b98622"},"vehicle_type_id":"4","last_reported":1737310242,"current_range_meters":32000,"station_id":"ce4bgjh2rcd13ifvqbg0","pricing_plan_id":"cebpf4jnsgd1na2vs0mg"},{"bike_id":"73c6a84c-5bd7-4f3e-a1a7-a85556d4f1bf","system_id":"levelo_inurba_marseille","lat":43.29559,"lon":5.42298,"is_reserved":false,"is_disabled":false,"rental_uris":{"android":"levelo://app?vid=73c6a84c-5bd7-4f3e-a1a7-a85556d4f1bf","ios":"levelo://app?vid=73c6a84c-5bd7-4f3e-a1a7-a85556d4f1bf"},"vehicle_type_id":"4","last_reported":1737310242,"current_range_meters":38400,"station_id":"ce4bhph2rcd13ifvqhdg","pricing_plan_id":"cebpf4jnsgd1na2vs0mg"},{"bike_id":"f508a21d-b248-4aec-b651-f5fadd9eae66","system_id":"levelo_inurba_marseille","lat":43.2396,"lon":5.3663,"is_reserved":false,"is_disabled":false,"rental_uris":{"android":"levelo://app?vid=f508a21d-b248-4aec-b651-f5fadd9eae66","ios":"levelo://app?vid=f508a21d-b248-4aec-b651-f5fadd9eae66"},"vehicle_type_id":"4","last_reported":1737310242,"current_range_meters":32000,"station_id":"ce4bhi12rcd13ifvqfp0","pricing_plan_id":"cebpf4jnsgd1na2vs0mg"},{"bike_id":"46686b70-f375-4947-b209-2f4548c2edcf","system_id":"levelo_inurba_marseille","lat":43.2889,"lon":5.39443,"is_reserved":false,"is_disabled":true,"rental_uris":{"android":"levelo://app?vid=46686b70-f375-4947-b209-2f4548c2edcf","ios":"levelo://app?vid=46686b70-f375-4947-b209-2f4548c2edcf"},"vehicle_type_id":"4","last_reported":1737310242,"current_range_meters":0,"station_id":"","pricing_plan_id":"cebpf4jnsgd1na2vs0mg"},{"bike_id":"c160579d-57a0-455c-96db-5193fb7ebdc0","system_id":"levelo_inurba_marseille","lat":43.33009,"lon":5.39022,"is_reserved":false,"is_disabled":false,"rental_uris":{"android":"levelo://app?vid=c160579d-57a0-455c-96db-5193fb7ebdc0","ios":"levelo://app?vid=c160579d-57a0-455c-96db-5193fb7ebdc0"},"vehicle_type_id":"4","last_reported":1737310242,"current_range_meters":17200,"station_id":"ce4bhr92rcd13ifvqhrg","pricing_plan_id":"cebpf4jnsgd1na2vs0mg"},{"bike_id":"6e42a6c7-87c2-403e-84fd-d739a3d405a6","system_id":"levelo_inurba_marseille","lat":43.24586,"lon":5.42056,"is_reserved":false,"is_disabled":true,"rental_uris":{"android":"levelo://app?vid=6e42a6c7-87c2-403e-84fd-d739a3d405a6","ios":"levelo://app?vid=6e42a6c7-87c2-403e-84fd-d739a3d405a6"},"vehicle_type_id":"4","last_reported":1737310242,"current_range_meters":0,"station_id":"","pricing_plan_id":"cebpf4jnsgd1na2vs0mg"},{"bike_id":"cd3beb5a-b8ce-4c49-b7d3-3913f98f6fc7","system_id":"levelo_inurba_marseille","lat":43.29875,"lon":5.38939,"is_reserved":false,"is_disabled":false,"rental_uris":{"android":"levelo://app?vid=cd3beb5a-b8ce-4c49-b7d3-3913f98f6fc7","ios":"levelo://app?vid=cd3beb5a-b8ce-4c49-b7d3-3913f98f6fc7"},"vehicle_type_id":"4","last_reported":1737310242,"current_range_meters":28800,"station_id":"ce4bh392rcd13ifvqdl0","pricing_plan_id":"cebpf4jnsgd1na2vs0mg"},{"bike_id":"6ecd6173-42ec-49fa-8634-dc35bf5f690d","system_id":"levelo_inurba_marseille","lat":43.26482,"lon":5.39545,"is_reserved":false,"is_disabled":false,"rental_uris":{"android":"levelo://app?vid=6ecd6173-42ec-49fa-8634-dc35bf5f690d","ios":"levelo://app?vid=6ecd6173-42ec-49fa-8634-dc35bf5f690d"},"vehicle_type_id":"4","last_reported":1737310242,"current_range_meters":34000,"station_id":"ce4bhi12rcd13ifvqfq0","pricing_plan_id":"cebpf4jnsgd1na2vs0mg"},{"bike_id":"0ed208be-396b-4a50-bc4d-a118062702c5","system_id":"levelo_inurba_marseille","lat":43.27813,"lon":5.40714,"is_reserved":false,"is_disabled":false,"rental_uris":{"android":"levelo://app?vid=0ed208be-396b-4a50-bc4d-a118062702c5","ios":"levelo://app?vid=0ed208be-396b-4a50-bc4d-a118062702c5"},"vehicle_type_id":"4","last_reported":1737310242,"current_range_meters":37600,"station_id":"ce4bhnh2rcd13ifvqgtg","pricing_plan_id":"cebpf4jnsgd1na2vs0mg"},{"bike_id":"4fe58642-8ec3-4f25-a4fc-eb5dc3dc47a8","system_id":"levelo_inurba_marseille","lat":43.33537,"lon":5.36133,"is_reserved":false,"is_disabled":false,"rental_uris":{"android":"levelo://app?vid=4fe58642-8ec3-4f25-a4fc-eb5dc3dc47a8","ios":"levelo://app?vid=4fe58642-8ec3-4f25-a4fc-eb5dc3dc47a8"},"vehicle_type_id":"4","last_reported":1737310242,"current_range_meters":28400,"station_id":"","pricing_plan_id":"cebpf4jnsgd1na2vs0mg"},{"bike_id":"fc21beed-45dd-4850-b81d-09023555628a","system_id":"levelo_inurba_marseille","lat":43.265,"lon":5.395509,"is_reserved":false,"is_disabled":false,"rental_uris":{"android":"levelo://app?vid=fc21beed-45dd-4850-b81d-09023555628a","ios":"levelo://app?vid=fc21beed-45dd-4850-b81d-09023555628a"},"vehicle_type_id":"4","last_reported":1737310242,"current_range_meters":36400,"station_id":"ce4bhi12rcd13ifvqfq0","pricing_plan_id":"cebpf4jnsgd1na2vs0mg"},{"bike_id":"8fb510e2-9b79-41e9-a1e4-81aa9ab593a4","system_id":"levelo_inurba_marseille","lat":43.24674,"lon":5.38174,"is_reserved":false,"is_disabled":false,"rental_uris":{"android":"levelo://app?vid=8fb510e2-9b79-41e9-a1e4-81aa9ab593a4","ios":"levelo://app?vid=8fb510e2-9b79-41e9-a1e4-81aa9ab593a4"},"vehicle_type_id":"4","last_reported":1737310242,"current_range_meters":34000,"station_id":"ce4bhih2rcd13ifvqfr0","pricing_plan_id":"cebpf4jnsgd1na2vs0mg"},{"bike_id":"dd9105e4-8c60-4d28-a4fd-4c1d1134526c","system_id":"levelo_inurba_marseille","lat":43.2783,"lon":5.39208,"is_reserved":false,"is_disabled":false,"rental_uris":{"android":"levelo://app?vid=dd9105e4-8c60-4d28-a4fd-4c1d1134526c","ios":"levelo://app?vid=dd9105e4-8c60-4d28-a4fd-4c1d1134526c"},"vehicle_type_id":"4","last_reported":1737310242,"current_range_meters":6000,"station_id":"ce4bhjp2rcd13ifvqga0","pricing_plan_id":"cebpf4jnsgd1na2vs0mg"},{"bike_id":"64fdd4ce-00cc-4dac-8d6e-1a945bd30985","system_id":"levelo_inurba_marseille","lat":43.30971,"lon":5.37343,"is_reserved":false,"is_disabled":false,"rental_uris":{"android":"levelo://app?vid=64fdd4ce-00cc-4dac-8d6e-1a945bd30985","ios":"levelo://app?vid=64fdd4ce-00cc-4dac-8d6e-1a945bd30985"},"vehicle_type_id":"4","last_reported":1737310242,"current_range_meters":8800,"station_id":"ce4bgr92rcd13ifvqc6g","pricing_plan_id":"cebpf4jnsgd1na2vs0mg"},{"bike_id":"0c1a5a77-8695-4faf-afb6-fdffe58d9623","system_id":"levelo_inurba_marseille","lat":43.3204,"lon":5.41545,"is_reserved":false,"is_disabled":false,"rental_uris":{"android":"levelo://app?vid=0c1a5a77-8695-4faf-afb6-fdffe58d9623","ios":"levelo://app?vid=0c1a5a77-8695-4faf-afb6-fdffe58d9623"},"vehicle_type_id":"4","last_reported":1737310242,"current_range_meters":24800,"station_id":"ce4bhq92rcd13ifvqhkg","pricing_plan_id":"cebpf4jnsgd1na2vs0mg"},{"bike_id":"84e880a0-7e5a-4f07-8e3f-dc125d133075","system_id":"levelo_inurba_marseille","lat":43.31492,"lon":5.37305,"is_reserved":false,"is_disabled":false,"rental_uris":{"android":"levelo://app?vid=84e880a0-7e5a-4f07-8e3f-dc125d133075","ios":"levelo://app?vid=84e880a0-7e5a-4f07-8e3f-dc125d133075"},"vehicle_type_id":"4","last_reported":1737310242,"current_range_meters":38800,"station_id":"ce4bgt12rcd13ifvqcd0","pricing_plan_id":"cebpf4jnsgd1na2vs0mg"},{"bike_id":"13a9853e-21c2-4d7a-8ae7-af374064a8b8","system_id":"levelo_inurba_marseille","lat":43.31805,"lon":5.37398,"is_reserved":false,"is_disabled":false,"rental_uris":{"android":"levelo://app?vid=13a9853e-21c2-4d7a-8ae7-af374064a8b8","ios":"levelo://app?vid=13a9853e-21c2-4d7a-8ae7-af374064a8b8"},"vehicle_type_id":"4","last_reported":1737310242,"current_range_meters":25200,"station_id":"","pricing_plan_id":"cebpf4jnsgd1na2vs0mg"},{"bike_id":"60b7d049-237a-4dbd-ad0c-436ecde1802f","system_id":"levelo_inurba_marseille","lat":43.23194,"lon":5.35558,"is_reserved":false,"is_disabled":false,"rental_uris":{"android":"levelo://app?vid=60b7d049-237a-4dbd-ad0c-436ecde1802f","ios":"levelo://app?vid=60b7d049-237a-4dbd-ad0c-436ecde1802f"},"vehicle_type_id":"4","last_reported":1737310242,"current_range_meters":27600,"station_id":"ce4bhu92rcd13ifvqi70","pricing_plan_id":"cebpf4jnsgd1na2vs0mg"},{"bike_id":"43b91266-7199-458e-9e99-c1a7412ff5a9","system_id":"levelo_inurba_marseille","lat":43.26938,"lon":5.40254,"is_reserved":false,"is_disabled":false,"rental_uris":{"android":"levelo://app?vid=43b91266-7199-458e-9e99-c1a7412ff5a9","ios":"levelo://app?vid=43b91266-7199-458e-9e99-c1a7412ff5a9"},"vehicle_type_id":"4","last_reported":1737310242,"current_range_meters":26000,"station_id":"cjm6bp8fraef2m0cb0m0","pricing_plan_id":"cebpf4jnsgd1na2vs0mg"},{"bike_id":"a8701af7-deca-400c-9cb2-c845062564a7","system_id":"levelo_inurba_marseille","lat":43.314377,"lon":5.387715,"is_reserved":false,"is_disabled":true,"rental_uris":{"android":"levelo://app?vid=a8701af7-deca-400c-9cb2-c845062564a7","ios":"levelo://app?vid=a8701af7-deca-400c-9cb2-c845062564a7"},