{"last_updated":1717517400,"ttl":30,"version":"2.2","data":{"bikes":[{"bike_id":"4849a2e9-2a76-4a22-a294-7058840cdefb","system_id":"levelo_inurba_marseille","lat":43.312239,"lon":5.368562,"is_reserved":false,"is_disabled":false,"rental_uris":{"android":"levelo://app?vid=4849a2e9-2a76-4a22-a294-7058840cdefb","ios":"levelo://app?vid=4849a2e9-2a76-4a22-a294-7058840cdefb"},"vehicle_type_id":"4","last_reported":1717517400,"current_range_meters":0,"station_id":"ce4bgl92rcd13ifvqbq0","pricing_plan_id":"cebpf4jnsgd1na2vs0mg"},{"bike_id":"966aeeb6-167c-45f3-9816-971365821a31","system_id":"levelo_inurba_marseille","lat":43.30887,"lon":5.36664,"is_reserved":false,"is_disabled":false,"rental_uris":{"android":"levelo://app?vid=966aeeb6-167c-45f3-9816-971365821a31","ios":"levelo://app?vid=966aeeb6-167c-45f3-9816-971365821a31"},"vehicle_type_id":"4","last_reported":1717517400,"current_range_meters":18000,"station_id":"","pricing_plan_id":"cebpf4jnsgd1na2vs0mg"},{"bike_id":"5e37b873-40eb-49cc-8009-0954e736dfe8","system_id":"levelo_inurba_marseille","lat":43.31489,"lon":5.37306,"is_reserved":false,"is_disabled":false,"rental_uris":{"android":"levelo://app?vid=5e37b873-40eb-49cc-8009-0954e736dfe8","ios":"levelo://app?vid=5e37b873-40eb-49cc-8009-0954e736dfe8"},"vehicle_type_id":"4","last_reported":1717517400,"current_range_meters":0,"station_id":"ce4bgt12rcd13ifvqcd0","pricing_plan_id":"cebpf4jnsgd1na2vs0mg"},{"bike_id":"db0496e8-f6cf-469f-b513-9f30353da81f","system_id":"levelo_inurba_marseille","lat":43.314811,"lon":5.373104,"is_reserved":false,"is_disabled":false,"rental_uris":{"android":"levelo://app?vid=db0496e8-f6cf-469f-b513-9f30353da81f","ios":"levelo://app?vid=db0496e8-f6cf-469f-b513-9f30353da81f"},"vehicle_type_id":"4","last_reported":1717517400,"current_range_meters":30800,"station_id":"ce4bgt12rcd13ifvqcd0","pricing_plan_id":"cebpf4jnsgd1na2vs0mg"},{"bike_id":"8432855b-e9fb-4347-a087-65f92a2abe6f","system_id":"levelo_inurba_marseille","lat":43.315072,"lon":5.373024,"is_reserved":false,"is_disabled":false,"rental_uris":{"android":"levelo://app?vid=8432855b-e9fb-4347-a087-65f92a2abe6f","ios":"levelo://app?vid=8432855b-e9fb-4347-a087-65f92a2abe6f"},"vehicle_type_id":"4","last_reported":1717517400,"current_range_meters":26800,"station_id":"ce4bgt12rcd13ifvqcd0","pricing_plan_id":"cebpf4jnsgd1na2vs0mg"},{"bike_id":"d5226fdf-528e-472b-8951-fc0e922f47ab","system_id":"levelo_inurba_marseille","lat":43.309039,"lon":5.371797,"is_reserved":false,"is_disabled":false,"rental_uris":{"android":"levelo://app?vid=d5226fdf-528e-472b-8951-fc0e922f47ab","ios":"levelo://app?vid=d5226fdf-528e-472b-8951-fc0e922f47ab"},"vehicle_type_id":"4","last_reported":1717517400,"current_range_meters":0,"station_id":"ce4bguh2rcd13ifvqckg","pricing_plan_id":"cebpf4jnsgd1na2vs0mg"},{"bike_id":"618f5471-2803-41a6-b95f-08dbc13db155","system_id":"levelo_inurba_marseille","lat":43.30537,"lon":5.367345,"is_reserved":false,"is_disabled":false,"rental_uris":{"android":"levelo://app?vid=618f5471-2803-41a6-b95f-08dbc13db155","ios":"levelo://app?vid=618f5471-2803-41a6-b95f-08dbc13db155"},"vehicle_type_id":"4","last_reported":1717517400,"current_range_meters":0,"station_id":"ce4bgrp2rcd13ifvqc9g","pricing_plan_id":"cebpf4jnsgd1na2vs0mg"},{"bike_id":"af60e0c0-912e-4971-88af-fabe22ea103f","system_id":"levelo_inurba_marseille","lat":43.305368,"lon":5.367343,"is_reserved":false,"is_disabled":false,"rental_uris":{"android":"levelo://app?vid=af60e0c0-912e-4971-88af-fabe22ea103f","ios":"levelo://app?vid=af60e0c0-912e-4971-88af-fabe22ea103f"},"vehicle_type_id":"4","last_reported":1717517400,"current_range_meters":0,"station_id":"ce4bgrp2rcd13ifvqc9g","pricing_plan_id":"cebpf4jnsgd1na2vs0mg"},{"bike_id":"146c20f7-d814-4d07-8802-625f5852e99e","system_id":"levelo_inurba_marseille","lat":43.307936,"lon":5.376512,"is_reserved":false,"is_disabled":false,"rental_uris":{"android":"levelo://app?vid=146c20f7-d814-4d07-8802-625f5852e99e","ios":"levelo://app?vid=146c20f7-d814-4d07-8802-625f5852e99e"},"vehicle_type_id":"4","last_reported":1717517400,"current_range_meters":6800,"station_id":"ce4bgv92rcd13ifvqcq0","pricing_plan_id":"cebpf4jnsgd1na2vs0mg"},{"bike_id":"396d8463-038f-4ca5-ba81-fe0c7604873a","system_id":"levelo_inurba_marseille","lat":43.307945,"lon":5.376487,"is_reserved":false,"is_disabled":false,"rental_uris":{"android":"levelo://app?vid=396d8463-038f-4ca5-ba81-fe0c7604873a","ios":"levelo://app?vid=396d8463-038f-4ca5-ba81-fe0c7604873a"},"vehicle_type_id":"4","last_reported":1717517400,"current_range_meters":23600,"station_id":"ce4bgv92rcd13ifvqcq0","pricing_plan_id":"cebpf4jnsgd1na2vs0mg"},{"bike_id":"cea38550-054b-4f14-9152-78a905402ea7","system_id":"levelo_inurba_marseille","lat":43.30793,"lon":5.37653,"is_reserved":false,"is_disabled":false,"rental_uris":{"android":"levelo://app?vid=cea38550-054b-4f14-9152-78a905402ea7","ios":"levelo://app?vid=cea38550-054b-4f14-9152-78a905402ea7"},"vehicle_type_id":"4","last_reported":1717517400,"current_range_meters":28400,"station_id":"ce4bgv92rcd13ifvqcq0","pricing_plan_id":"cebpf4jnsgd1na2vs0mg"},{"bike_id":"5f5a98da-683d-40bc-9b06-31412ff979ad","system_id":"levelo_inurba_marseille","lat":43.307883,"lon":5.376502,"is_reserved":false,"is_disabled":false,"rental_uris":{"android":"levelo://app?vid=5f5a98da-683d-40bc-9b06-31412ff979ad","ios":"levelo://app?vid=5f5a98da-683d-40bc-9b06-31412ff979ad"},"vehicle_type_id":"4","last_reported":1717517400,"current_range_meters":29600,"station_id":"ce4bgv92rcd13ifvqcq0","pricing_plan_id":"cebpf4jnsgd1na2vs0mg"},{"bike_id":"e7be93aa-0201-4009-861c-fac8e9cbb4fc","system_id":"levelo_inurba_marseille","lat":43.307945,"lon":5.376487,"is_reserved":false,"is_disabled":false,"rental_uris":{"android":"levelo://app?vid=e7be93aa-0201-4009-861c-fac8e9cbb4fc","ios":"levelo://app?vid=e7be93aa-0201-4009-861c-fac8e9cbb4fc"},"vehicle_type_id":"4","last_reported":1717517400,"current_range_meters":10000,"station_id":"ce4bgv92rcd13ifvqcq0","pricing_plan_id":"cebpf4jnsgd1na2vs0mg"},{"bike_id":"4fb050a3-9389-4403-903c-ee020c3d9eae","system_id":"levelo_inurba_marseille","lat":43.30781,"lon":5.37652,"is_reserved":false,"is_disabled":false,"rental_uris":{"android":"levelo://app?vid=4fb050a3-9389-4403-903c-ee020c3d9eae","ios":"levelo://app?vid=4fb050a3-9389-4403-903c-ee020c3d9eae"},"vehicle_type_id":"4","last_reported":1717517400,"current_range_meters":29200,"station_id":"ce4bgv92rcd13ifvqcq0","pricing_plan_id":"cebpf4jnsgd1na2vs0mg"},{"bike_id":"60e12cee-fdce-4e2c-8d8d-fc3cf5f07c2a","system_id":"levelo_inurba_marseille","lat":43.307945,"lon":5.376487,"is_reserved":false,"is_disabled":false,"rental_uris":{"android":"levelo://app?vid=60e12cee-fdce-4e2c-8d8d-fc3cf5f07c2a","ios":"levelo://app?vid=60e12cee-fdce-4e2c-8d8d-fc3cf5f07c2a"},"vehicle_type_id":"4","last_reported":1717517400,"current_range_meters":21600,"station_id":"ce4bgv92rcd13ifvqcq0","pricing_plan_id":"cebpf4jnsgd1na2vs0mg"},{"bike_id":"a111b4a1-e172-4105-92ef-edb59f78309f","system_id":"levelo_inurba_marseille","lat":43.317075,"lon":5.377367,"is_reserved":false,"is_disabled":false,"rental_uris":{"android":"levelo://app?vid=a111b4a1-e172-4105-92ef-edb59f78309f","ios":"levelo://app?vid=a111b4a1-e172-4105-92ef-edb59f78309f"},"vehicle_type_id":"4","last_reported":1717517400,"current_range_meters":0,"station_id":"ce4bgth2rcd13ifvqch0","pricing_plan_id":"cebpf4jnsgd1na2vs0mg"},{"bike_id":"c03aefd2-1bae-4ad6-b5d7-bd19ca3a0761","system_id":"levelo_inurba_marseille","lat":43.317525,"lon":5.377748,"is_reserved":false,"is_disabled":false,"rental_uris":{"android":"levelo://app?vid=c03aefd2-1bae-4ad6-b5d7-bd19ca3a0761","ios":"levelo://app?vid=c03aefd2-1bae-4ad6-b5d7-bd19ca3a0761"},"vehicle_type_id":"4","last_reported":1717517400,"current_range_meters":29600,"station_id":"ce4bgth2rcd13ifvqch0","pricing_plan_id":"cebpf4jnsgd1na2vs0mg"},{"bike_id":"5401ff84-06c4-4c94-b76e-411da2f5ffe9","system_id":"levelo_inurba_marseille","lat":43.321414,"lon":5.3714,"is_reserved":false,"is_disabled":false,"rental_uris":{"android":"levelo://app?vid=5401ff84-06c4-4c94-b76e-411da2f5ffe9","ios":"levelo://app?vid=5401ff84-06c4-4c94-b76e-411da2f5ffe9"},"vehicle_type_id":"4","last_reported":1717517400,"current_range_meters":11200,"station_id":"","pricing_plan_id":"cebpf4jnsgd1na2vs0mg"},{"bike_id":"26e732d7-4cff-4265-a08d-cbb5ede10cc0","system_id":"levelo_inurba_marseille","lat":43.303046,"lon":5.368981,"is_reserved":false,"is_disabled":false,"rental_uris":{"android":"levelo://app?vid=26e732d7-4cff-4265-a08d-cbb5ede10cc0","ios":"levelo://app?vid=26e732d7-4cff-4265-a08d-cbb5ede10cc0"},"vehicle_type_id":"4","last_reported":1717517400,"current_range_meters":0,"station_id":"ce4bgqh2rcd13ifvqc5g","pricing_plan_id":"cebpf4jnsgd1na2vs0mg"},{"bike_id":"0de36e3d-89d6-428f-a00b-30b749a5bf5c","system_id":"levelo_inurba_marseille","lat":43.30897,"lon":5.3827,"is_reserved":false,"is_disabled":false,"rental_uris":{"android":"levelo://app?vid=0de36e3d-89d6-428f-a00b-30b749a5bf5c","ios":"levelo://app?vid=0de36e3d-89d6-428f-a00b-30b749a5bf5c"},"vehicle_type_id":"4","last_reported":1717517400,"current_range_meters":15600,"station_id":"","pricing_plan_id":"cebpf4jnsgd1na2vs0mg"},{"bike_id":"1a48df33-b22c-4419-94b8-72d016575dc1","system_id":"levelo_inurba_marseille","lat":43.32485,"lon":5.36573,"is_reserved":false,"is_disabled":false,"rental_uris":{"android":"levelo://app?vid=1a48df33-b22c-4419-94b8-72d016575dc1","ios":"levelo://app?vid=1a48df33-b22c-4419-94b8-72d016575dc1"},"vehicle_type_id":"4","last_reported":1717517400,"current_range_meters":0,"station_id":"ce4bhs12rcd13ifvqhvg","pricing_plan_id":"cebpf4jnsgd1na2vs0mg"},{"bike_id":"92e1deed-3c96-44e2-844f-59bd781fffad","system_id":"levelo_inurba_marseille","lat":43.324771,"lon":5.36557,"is_reserved":false,"is_disabled":false,"rental_uris":{"android":"levelo://app?vid=92e1deed-3c96-44e2-844f-59bd781fffad","ios":"levelo://app?vid=92e1deed-3c96-44e2-844f-59bd781fffad"},"vehicle_type_id":"4","last_reported":1717517400,"current_range_meters":0,"station_id":"ce4bhs12rcd13ifvqhvg","pricing_plan_id":"cebpf4jnsgd1na2vs0mg"},{"bike_id":"172a0b7a-5d4a-41cb-8bd9-2db70526dce2","system_id":"levelo_inurba_marseille","lat":43.310769,"lon":5.383483,"is_reserved":false,"is_disabled":false,"rental_uris":{"android":"levelo://app?vid=172a0b7a-5d4a-41cb-8bd9-2db70526dce2","ios":"levelo://app?vid=172a0b7a-5d4a-41cb-8bd9-2db70526dce2"},"vehicle_type_id":"4","last_reported":1717517400,"current_range_meters":0,"station_id":"ce4bgv92rcd13ifvqcr0","pricing_plan_id":"cebpf4jnsgd1na2vs0mg"},{"bike_id":"e3685bd5-5417-41b9-81bf-8c96216c72fa","system_id":"levelo_inurba_marseille","lat":43.310804,"lon":5.38359,"is_reserved":false,"is_disabled":false,"rental_uris":{"android":"levelo://app?vid=e3685bd5-5417-41b9-81bf-8c96216c72fa","ios":"levelo://app?vid=e3685bd5-5417-41b9-81bf-8c96216c72fa"},"vehicle_type_id":"4","last_reported":1717517400,"current_range_meters":22400,"station_id":"ce4bgv92rcd13ifvqcr0","pricing_plan_id":"cebpf4jnsgd1na2vs0mg"},{"bike_id":"c06e82ac-c6dc-4e34-bc1c-abcd2a19c14a","system_id":"levelo_inurba_marseille","lat":43.3108,"lon":5.38358,"is_reserved":false,"is_disabled":false,"rental_uris":{"android":"levelo://app?vid=c06e82ac-c6dc-4e34-bc1c-abcd2a19c14a","ios":"levelo://app?vid=c06e82ac-c6dc-4e34-bc1c-abcd2a19c14a"},"vehicle_type_id":"4","last_reported":1717517400,"current_range_meters":0,"station_id":"ce4bgv92rcd13ifvqcr0","pricing_plan_id":"cebpf4jnsgd1na2vs0mg"},{"bike_id":"ff501f01-3c14-489e-b0a5-b57259c94f53","system_id":"levelo_inurba_marseille","lat":43.302784,"lon":5.377158,"is_reserved":false,"is_disabled":false,"rental_uris":{"android":"levelo://app?vid=ff501f01-3c14-489e-b0a5-b57259c94f53","ios":"levelo://app?vid=ff501f01-3c14-489e-b0a5-b57259c94f53"},"vehicle_type_id":"4","last_reported":1717517400,"current_range_meters":18800,"station_id":"ce4bguh2rcd13ifvqcj0","pricing_plan_id":"cebpf4jnsgd1na2vs0mg"},{"bike_id":"d43f1299-fff5-4519-a4e1-d8baaf44bc78","system_id":"levelo_inurba_marseille","lat":43.313571,"lon":5.384829,"is_reserved":false,"is_disabled":false,"rental_uris":{"android":"levelo://app?vid=d43f1299-fff5-4519-a4e1-d8baaf44bc78","ios":"levelo://app?vid=d43f1299-fff5-4519-a4e1-d8baaf44bc78"},"vehicle_type_id":"4","last_reported":1717517400,"current_range_meters":2800,"station_id":"ce4bgt92rcd13ifvqcf0","pricing_plan_id":"cebpf4jnsgd1na2vs0mg"},{"bike_id":"dc1bd07c-cde0-4cda-975a-2813cf7f6375","system_id":"levelo_inurba_marseille","lat":43.313571,"lon":5.384829,"is_reserved":false,"is_disabled":false,"rental_uris":{"android":"levelo://app?vid=dc1bd07c-cde0-4cda-975a-2813cf7f6375","ios":"levelo://app?vid=dc1bd07c-cde0-4cda-975a-2813cf7f6375"},"vehicle_type_id":"4","last_reported":1717517400,"current_range_meters":29200,"station_id":"ce4bgt92rcd13ifvqcf0","pricing_plan_id":"cebpf4jnsgd1na2vs0mg"},{"bike_id":"828ac7ce-2cf6-4738-9fcd-fe0dc14290fe","system_id":"levelo_inurba_marseille","lat":43.3135,"lon":5.38508,"is_reserved":false,"is_disabled":false,"rental_uris":{"android":"levelo://app?vid=828ac7ce-2cf6-4738-9fcd-fe0dc14290fe","ios":"levelo://app?vid=828ac7ce-2cf6-4738-9fcd-fe0dc14290fe"},"vehicle_type_id":"4","last_reported":1717517400,"current_range_meters":4000,"station_id":"ce4bgt92rcd13ifvqcf0","pricing_plan_id":"cebpf4jnsgd1na2vs0mg"},{"bike_id":"ca160eb1-05ee-4891-b068-2016d123d9e7","system_id":"levelo_inurba_marseille","lat":43.299534,"lon":5.365541,"is_reserved":false,"is_disabled":false,"rental_uris":{"android":"levelo://app?vid=ca160eb1-05ee-4891-b068-2016d123d9e7","ios":"levelo://app?vid=ca160eb1-05ee-4891-b068-2016d123d9e7"},"vehicle_type_id":"4","last_reported":1717517400,"current_range_meters":0,"station_id":"ce4bgm92rcd13ifvqbr0","pricing_plan_id":"cebpf4jnsgd1na2vs0mg"},{"bike_id":"3f518752-4275-4f6e-bdd5-5983ec3c0251","system_id":"levelo_inurba_marseille","lat":43.299885,"lon":5.371817,"is_reserved":false,"is_disabled":false,"rental_uris":{"android":"levelo://app?vid=3f518752-4275-4f6e-bdd5-5983ec3c0251","ios":"levelo://app?vid=3f518752-4275-4f6e-bdd5-5983ec3c0251"},"vehicle_type_id":"4","last_reported":1717517400,"current_range_meters":0,"station_id":"ce4bgr92rcd13ifvqc7g","pricing_plan_id":"cebpf4jnsgd1na2vs0mg"},{"bike_id":"16611543-afcd-4341-9dc5-3c15fba5c28e","system_id":"levelo_inurba_marseille","lat":43.299483,"lon":5.372871,"is_reserved":false,"is_disabled":false,"rental_uris":{"android":"levelo://app?vid=16611543-afcd-4341-9dc5-3c15fba5c28e","ios":"levelo://app?vid=16611543-afcd-4341-9dc5-3c15fba5c28e"},"vehicle_type_id":"4","last_reported":1717517400,"current_range_meters":19600,"station_id":"ce4bgr92rcd13ifvqc7g","pricing_plan_id":"cebpf4jnsgd1na2vs0mg"},{"bike_id":"e2a56627-0d60-4bf4-b729-9d13d6123579","system_id":"levelo_inurba_marseille","lat":43.302784,"lon":5.377158,"is_reserved":false,"is_disabled":false,"rental_uris":{"android":"levelo://app?vid=e2a56627-0d60-4bf4-b729-9d13d6123579","ios":"levelo://app?vid=e2a56627-0d60-4bf4-b729-9d13d6123579"},"vehicle_type_id":"4","last_reported":1717517400,"current_range_meters":4800,"station_id":"ce4bguh2rcd13ifvqcj0","pricing_plan_id":"cebpf4jnsgd1na2vs0mg"},{"bike_id":"7c0279c4-785e-41cc-9875-11b1aa5697b0","system_id":"levelo_inurba_marseille","lat":43.298433,"lon":5.362774,"is_reserved":false,"is_disabled":false,"rental_uris":{"android":"levelo://app?vid=7c0279c4-785e-41cc-9875-11b1aa5697b0","ios":"levelo://app?vid=7c0279c4-785e-41cc-9875-11b1aa5697b0"},"vehicle_type_id":"4","last_reported":1717517400,"current_range_meters":29200,"station_id":"ce4bgpp2rcd13ifvqc3g","pricing_plan_id":"cebpf4jnsgd1na2vs0mg"},{"bike_id":"2aa1535d-6816-43de-8efc-21f509407ac8","system_id":"levelo_inurba_marseille","lat":43.305364,"lon":5.384119,"is_reserved":false,"is_disabled":false,"rental_uris":{"android":"levelo://app?vid=2aa1535d-6816-43de-8efc-21f509407ac8","ios":"levelo://app?vid=2aa1535d-6816-43de-8efc-21f509407ac8"},"vehicle_type_id":"4","last_reported":1717517400,"current_range_meters":1200,"station_id":"ce4bgg92rcd13ifvqb30","pricing_plan_id":"cebpf4jnsgd1na2vs0mg"},{"bike_id":"1e59fc5d-d20d-47dc-a7eb-ce835caec56e","system_id":"levelo_inurba_marseille","lat":43.299243,"lon":5.37481,"is_reserved":false,"is_disabled":false,"rental_uris":{"android":"levelo://app?vid=1e59fc5d-d20d-47dc-a7eb-ce835caec56e","ios":"levelo://app?vid=1e59fc5d-d20d-47dc-a7eb-ce835caec56e"},"vehicle_type_id":"4","last_reported":1717517400,"current_range_meters":7200,"station_id":"ce4bgjh2rcd13ifvqbg0","pricing_plan_id":"cebpf4jnsgd1na2vs0mg"},{"bike_id":"68bff547-3fff-4a4f-8c69-af9f88633e6d","system_id":"levelo_inurba_marseille","lat":43.29922,"lon":5.374816,"is_reserved":false,"is_disabled":false,"rental_uris":{"android":"levelo://app?vid=68bff547-3fff-4a4f-8c69-af9f88633e6d","ios":"levelo://app?vid=68bff547-3fff-4a4f-8c69-af9f88633e6d"},"vehicle_type_id":"4","last_reported":1717517400,"current_range_meters":0,"station_id":"ce4bgjh2rcd13ifvqbg0","pricing_plan_id":"cebpf4jnsgd1na2vs0mg"},{"bike_id":"0dc22fee-bdcc-41fc-83db-c1e8aee2d258","system_id":"levelo_inurba_marseille","lat":43.297902,"lon":5.371348,"is_reserved":false,"is_disabled":false,"rental_uris":{"android":"levelo://app?vid=0dc22fee-bdcc-41fc-83db-c1e8aee2d258","ios":"levelo://app?vid=0dc22fee-bdcc-41fc-83db-c1e8aee2d258"},"vehicle_type_id":"4","last_reported":1717517400,"current_range_meters":2800,"station_id":"ce4bgop2rcd13ifvqc1g","pricing_plan_id":"cebpf4jnsgd1na2vs0mg"},{"bike_id":"a61b41d5-79d5-45d5-b43b-1c84eee00685","system_id":"levelo_inurba_marseille","lat":43.29774,"lon":5.37125,"is_reserved":false,"is_disabled":false,"rental_uris":{"android":"levelo://app?vid=a61b41d5-79d5-45d5-b43b-1c84eee00685","ios":"levelo://app?vid=a61b41d5-79d5-45d5-b43b-1c84eee00685"},"vehicle_type_id":"4","last_reported":1717517400,"current_range_meters":0,"station_id":"ce4bgop2rcd13ifvqc1g","pricing_plan_id":"cebpf4jnsgd1na2vs0mg"},{"bike_id":"a3dffa21-9089-4f19-856e-1c62e0f644a2","system_id":"levelo_inurba_marseille","lat":43.322872,"lon":5.382756,"is_reserved":false,"is_disabled":false,"rental_uris":{"android":"levelo://app?vid=a3dffa21-9089-4f19-856e-1c62e0f644a2","ios":"levelo://app?vid=a3dffa21-9089-4f19-856e-1c62e0f644a2"},"vehicle_type_id":"4","last_reported":1717517400,"current_range_meters":2400,"station_id":"ce4bhr12rcd13ifvqhqg","pricing_plan_id":"cebpf4jnsgd1na2vs0mg"},{"bike_id":"c1f69bca-9c85-44fb-97e8-6680022d8d18","system_id":"levelo_inurba_marseille","lat":43.297146,"lon":5.367245,"is_reserved":false,"is_disabled":false,"rental_uris":{"android":"levelo://app?vid=c1f69bca-9c85-44fb-97e8-6680022d8d18","ios":"levelo://app?vid=c1f69bca-9c85-44fb-97e8-6680022d8d18"},"vehicle_type_id":"4","last_reported":1717517400,"current_range_meters":0,"station_id":"ce4bgn12rcd13ifvqbt0","pricing_plan_id":"cebpf4jnsgd1na2vs0mg"},{"bike_id":"f63a3be0-9d65-441e-8448-917aaa7c9780","system_id":"levelo_inurba_marseille","lat":43.297163,"lon":5.365866,"is_reserved":false,"is_disabled":false,"rental_uris":{"android":"levelo://app?vid=f63a3be0-9d65-441e-8448-917aaa7c9780","ios":"levelo://app?vid=f63a3be0-9d65-441e-8448-917aaa7c9780"},"vehicle_type_id":"4","last_reported":1717517400,"current_range_meters":12800,"station_id":"ce4bgn12rcd13ifvqbt0","pricing_plan_id":"cebpf4jnsgd1na2vs0mg"},{"bike_id":"73342682-1b2a-4f6b-ac62-885c5cf9155d","system_id":"levelo_inurba_marseille","lat":43.297163,"lon":5.365866,"is_reserved":false,"is_disabled":false,"rental_uris":{"android":"levelo://app?vid=73342682-1b2a-4f6b-ac62-885c5cf9155d","ios":"levelo://app?vid=73342682-1b2a-4f6b-ac62-885c5cf9155d"},"vehicle_type_id":"4","last_reported":1717517400,"current_range_meters":0,"station_id":"ce4bgn12rcd13ifvqbt0","pricing_plan_id":"cebpf4jnsgd1na2vs0mg"},{"bike_id":"7003f6ce-22e8-4c01-8bec-cbbb226b657c","system_id":"levelo_inurba_marseille","lat":43.297163,"lon":5.365866,"is_reserved":false,"is_disabled":false,"rental_uris":{"android":"levelo://app?vid=7003f6ce-22e8-4c01-8bec-cbbb226b657c","ios":"levelo://app?vid=7003f6ce-22e8-4c01-8bec-cbbb226b657c"},"vehicle_type_id":"4","last_reported":1717517400,"current_range_meters":18000,"station_id":"ce4bgn12rcd13ifvqbt0","pricing_plan_id":"cebpf4jnsgd1na2vs0mg"},{"bike_id":"b3948200-e71a-468b-95d7-5200ddf69791","system_id":"levelo_inurba_marseille","lat":43.297163,"lon":5.365866,"is_reserved":false,"is_disabled":false,"rental_uris":{"android":"levelo://app?vid=b3948200-e71a-468b-95d7-5200ddf69791","ios":"levelo://app?vid=b3948200-e71a-468b-95d7-5200ddf69791"},"vehicle_type_id":"4","last_reported":1717517400,"current_range_meters":18400,"station_id":"ce4bgn12rcd13ifvqbt0","pricing_plan_id":"cebpf4jnsgd1na2vs0mg"},{"bike_id":"1f46e9b9-f042-4eda-b4fa-162777a50a24","system_id":"levelo_inurba_marseille","lat":43.28727,"lon":5.36078,"is_reserved":false,"is_disabled":false,"rental_uris":{"android":"levelo://app?vid=1f46e9b9-f042-4eda-b4fa-162777a50a24","ios":"levelo://app?vid=1f46e9b9-f042-4eda-b4fa-162777a50a24"},"vehicle_type_id":"4","last_reported":1717517400,"current_range_meters":30400,"station_id":"cki0cbj6b192h4jlfktg","pricing_plan_id":"cebpf4jnsgd1na2vs0mg"},{"bike_id":"ceefb973-a69a-4362-a1b7-1e93067a522a","system_id":"levelo_inurba_marseille","lat":43.2968,"lon":5.37291,"is_reserved":false,"is_disabled":false,"rental_uris":{"android":"levelo://app?vid=ceefb973-a69a-4362-a1b7-1e93067a522a","ios":"levelo://app?vid=ceefb973-a69a-4362-a1b7-1e93067a522a"},"vehicle_type_id":"4","last_reported":1717517400,"current_range_meters":13600,"station_id":"ce4bgk12rcd13ifvqbj0","pricing_plan_id":"cebpf4jnsgd1na2vs0mg"},{"bike_id":"a13e9f4d-634e-417f-953b-5b8ccb9df470","system_id":"levelo_inurba_marseille","lat":43.29631,"lon":5.3715,"is_reserved":false,"is_disabled":false,"rental_uris":{"android":"levelo://app?vid=a13e9f4d-634e-417f-953b-5b8ccb9df470","ios":"levelo://app?vid=a13e9f4d-634e-417f-953b-5b8ccb9df470"},"vehicle_type_id":"4","last_reported":1717517400,"current_range_meters":0,"station_id":"ce4bgnh2rcd13ifvqc0g","pricing_plan_id":"cebpf4jnsgd1na2vs0mg"},{"bike_id":"a4d4948a-f0c0-4758-9805-922390724219","system_id":"levelo_inurba_marseille","lat":43.29628,"lon":5.37156,"is_reserved":false,"is_disabled":false,"rental_uris":{"android":"levelo://app?vid=a4d4948a-f0c0-4758-9805-922390724219","ios":"levelo://app?vid=a4d4948a-f0c0-4758-9805-922390724219"},"vehicle_type_id":"4","last_reported":1717517400,"current_range_meters":0,"station_id":"ce4bgnh2rcd13ifvqc0g","pricing_plan_id":"cebpf4jnsgd1na2vs0mg"},{"bike_id":"528c8123-1b10-4b9c-9846-912f271ccd24","system_id":"levelo_inurba_marseille","lat":43.296131,"lon":5.370791,"is_reserved":false,"is_disabled":false,"rental_uris":{"android":"levelo://app?vid=528c8123-1b10-4b9c-9846-912f271ccd24","ios":"levelo://app?vid=528c8123-1b10-4b9c-9846-912f271ccd24"},"vehicle_type_id":"4","last_reported":1717517400,"current_range_meters":8000,"station_id":"ce4bgnh2rcd13ifvqc0g","pricing_plan_id":"cebpf4jnsgd1na2vs0mg"},{"bike_id":"539bad06-c849-4935-9dcb-a786eea7ffa5","system_id":"levelo_inurba_marseille","lat":43.309549,"lon":5.390346,"is_reserved":false,"is_disabled":false,"rental_uris":{"android":"levelo://app?vid=539bad06-c849-4935-9dcb-a786eea7ffa5","ios":"levelo://app?vid=539bad06-c849-4935-9dcb-a786eea7ffa5"},"vehicle_type_id":"4","last_reported":1717517400,"current_range_meters":0,"station_id":"ce4bgup2rcd13ifvqco0","pricing_plan_id":"cebpf4jnsgd1na2vs0mg"},{"bike_id":"41889238-5b06-4e2a-a0d6-634be91e14f7","system_id":"levelo_inurba_marseille","lat":43.309589,"lon":5.390258,"is_reserved":false,"is_disabled":false,"rental_uris":{"android":"levelo://app?vid=41889238-5b06-4e2a-a0d6-634be91e14f7","ios":"levelo://app?vid=41889238-5b06-4e2a-a0d6-634be91e14f7"},"vehicle_type_id":"4","last_reported":1717517400,"current_range_meters":0,"station_id":"ce4bgup2rcd13ifvqco0","pricing_plan_id":"cebpf4jnsgd1na2vs0mg"},{"bike_id":"fefa8f91-d930-4aeb-95df-e3705388d8e7","system_id":"levelo_inurba_marseille","lat":43.317557,"lon":5.390173,"is_reserved":false,"is_disabled":false,"rental_uris":{"android":"levelo://app?vid=fefa8f91-d930-4aeb-95df-e3705388d8e7","ios":"levelo://app?vid=fefa8f91-d930-4aeb-95df-e3705388d8e7"},"vehicle_type_id":"4","last_reported":1717517400,"current_range_meters":11600,"station_id":"ce4bhqp2rcd13ifvqhng","pricing_plan_id":"cebpf4jnsgd1na2vs0mg"},{"bike_id":"61a45587-516b-4519-9ad9-92e5ddc2e169","system_id":"levelo_inurba_marseille","lat":43.317557,"lon":5.390173,"is_reserved":false,"is_disabled":false,"rental_uris":{"android":"levelo://app?vid=61a45587-516b-4519-9ad9-92e5ddc2e169","ios":"levelo://app?vid=61a45587-516b-4519-9ad9-92e5ddc2e169"},"vehicle_type_id":"4","last_reported":1717517400,"current_range_meters":0,"station_id":"ce4bhqp2rcd13ifvqhng","pricing_plan_id":"cebpf4jnsgd1na2vs0mg"},{"bike_id":"f8f51f43-829a-4025-b930-bc684756852b","system_id":"levelo_inurba_marseille","lat":43.317557,"lon":5.390173,"is_reserved":false,"is_disabled":false,"rental_uris":{"android":"levelo://app?vid=f8f51f43-829a-4025-b930-bc684756852b","ios":"levelo://app?vid=f8f51f43-829a-4025-b930-bc684756852b"},"vehicle_type_id":"4","last_reported":1717517400,"current_range_meters":20400,"station_id":"ce4bhqp2rcd13ifvqhng","pricing_plan_id":"cebpf4jnsgd1na2vs0mg"},{"bike_id":"dacf4d35-4ecb-405d-9d70-65411210be1e","system_id":"levelo_inurba_marseille","lat":43.29589,"lon":5.37506,"is_reserved":false,"is_disabled":false,"rental_uris":{"android":"levelo://app?vid=dacf4d35-4ecb-405d-9d70-65411210be1e","ios":"levelo://app?vid=dacf4d35-4ecb-405d-9d70-65411210be1e"},"vehicle_type_id":"4","last_reported":1717517400,"current_range_meters":0,"station_id":"ce4bgh92rcd13ifvqb50","pricing_plan_id":"cebpf4jnsgd1na2vs0mg"},{"bike_id":"154b29a6-8cf7-4f56-b7ac-430008387b84","system_id":"levelo_inurba_marseille","lat":43.298037,"lon":5.381066,"is_reserved":false,"is_disabled":false,"rental_uris":{"android":"levelo://app?vid=154b29a6-8cf7-4f56-b7ac-430008387b84","ios":"levelo://app?vid=154b29a6-8cf7-4f56-b7ac-430008387b84"},"vehicle_type_id":"4","last_reported":1717517400,"current_range_meters":0,"station_id":"ce4bgip2rcd13ifvqbb0","pricing_plan_id":"cebpf4jnsgd1na2vs0mg"},{"bike_id":"dfbc4b7e-ce25-4a15-8332-3327c6bbc918","system_id":"levelo_inurba_marseille","lat":43.295748,"lon":5.37522,"is_reserved":false,"is_disabled":false,"rental_uris":{"android":"levelo://app?vid=dfbc4b7e-ce25-4a15-8332-3327c6bbc918","ios":"levelo://app?vid=dfbc4b7e-ce25-4a15-8332-3327c6bbc918"},"vehicle_type_id":"4","last_reported":1717517400,"current_range_meters":0,"station_id":"ce4bgh92rcd13ifvqb50","pricing_plan_id":"cebpf4jnsgd1na2vs0mg"},{"bike_id":"783bf350-e4c1-4f60-b59e-d72e19cc21ba","system_id":"levelo_inurba_marseille","lat":43.298037,"lon":5.381066,"is_reserved":false,"is_disabled":false,"rental_uris":{"android":"levelo://app?vid=783bf350-e4c1-4f60-b59e-d72e19cc21ba","ios":"levelo://app?vid=783bf350-e4c1-4f60-b59e-d72e19cc21ba"},"vehicle_type_id":"4","last_reported":1717517400,"current_range_meters":10400,"station_id":"ce4bgip2rcd13ifvqbb0","pricing_plan_id":"cebpf4jnsgd1na2vs0mg"},{"bike_id":"ff16c194-28f6-4701-8bf4-6bb9fe482ddd","system_id":"levelo_inurba_marseille","lat":43.298037,"lon":5.381066,"is_reserved":false,"is_disabled":false,"rental_uris":{"android":"levelo://app?vid=ff16c194-28f6-4701-8bf4-6bb9fe482ddd","ios":"levelo://app?vid=ff16c194-28f6-4701-8bf4-6bb9fe482ddd"},"vehicle_type_id":"4","last_reported":1717517400,"current_range_meters":800,"station_id":"ce4bgip2rcd13ifvqbb0","pricing_plan_id":"cebpf4jnsgd1na2vs0mg"},{"bike_id":"17e7744b-4fe7-4921-aa82-e70c53dbf0a4","system_id":"levelo_inurba_marseille","lat":43.304274,"lon":5.388873,"is_reserved":false,"is_disabled":false,"rental_uris":{"android":"levelo://app?vid=17e7744b-4fe7-4921-aa82-e70c53dbf0a4","ios":"levelo://app?vid=17e7744b-4fe7-4921-aa82-e70c53dbf0a4"},"vehicle_type_id":"4","last_reported":1717517400,"current_range_meters":17600,"station_id":"ce4bgk12rcd13ifvqbi0","pricing_plan_id":"cebpf4jnsgd1na2vs0mg"},{"bike_id":"606a3a11-004a-45bf-930a-4b7cf4ef824c","system_id":"levelo_inurba_marseille","lat":43.298037,"lon":5.381066,"is_reserved":false,"is_disabled":false,"rental_uris":{"android":"levelo://app?vid=606a3a11-004a-45bf-930a-4b7cf4ef824c","ios":"levelo://app?vid=606a3a11-004a-45bf-930a-4b7cf4ef824c"},"vehicle_type_id":"4","last_reported":1717517400,"current_range_meters":4400,"station_id":"ce4bgip2rcd13ifvqbb0","pricing_plan_id":"cebpf4jnsgd1na2vs0mg"},{"bike_id":"e64d87df-31f5-4040-9426-4fe8749167e8","system_id":"levelo_inurba_marseille","lat":43.296263,"lon":5.377094,"is_reserved":false,"is_disabled":false,"rental_uris":{"android":"levelo://app?vid=e64d87df-31f5-4040-9426-4fe8749167e8","ios":"levelo://app?vid=e64d87df-31f5-4040-9426-4fe8749167e8"},"vehicle_type_id":"4","last_reported":1717517400,"current_range_meters":0,"station_id":"ce4bgi92rcd13ifvqb90","pricing_plan_id":"cebpf4jnsgd1na2vs0mg"},{"bike_id":"953181ce-f746-4aaf-ab70-f1f1968ecd62","system_id":"levelo_inurba_marseille","lat":43.297933,"lon":5.381508,"is_reserved":false,"is_disabled":false,"rental_uris":{"android":"levelo://app?vid=953181ce-f746-4aaf-ab70-f1f1968ecd62","ios":"levelo://app?vid=953181ce-f746-4aaf-ab70-f1f1968ecd62"},"vehicle_type_id":"4","last_reported":1717517400,"current_range_meters":0,"station_id":"ce4bgip2rcd13ifvqbb0","pricing_plan_id":"cebpf4jnsgd1na2vs0mg"},{"bike_id":"564115d0-a5c3-4df3-8e43-780dd5100278","system_id":"levelo_inurba_marseille","lat":43.299707,"lon":5.384859,"is_reserved":false,"is_disabled":false,"rental_uris":{"android":"levelo://app?vid=564115d0-a5c3-4df3-8e43-780dd5100278","ios":"levelo://app?vid=564115d0-a5c3-4df3-8e43-780dd5100278"},"vehicle_type_id":"4","last_reported":1717517400,"current_range_meters":0,"station_id":"ce4bgj92rcd13ifvqbd0","pricing_plan_id":"cebpf4jnsgd1na2vs0mg"},{"bike_id":"8d2126fb-fba6-47db-bfe1-97ba038204d1","system_id":"levelo_inurba_marseille","lat":43.299717,"lon":5.384845,"is_reserved":false,"is_disabled":false,"rental_uris":{"android":"levelo://app?vid=8d2126fb-fba6-47db-bfe1-97ba038204d1","ios":"levelo://app?vid=8d2126fb-fba6-47db-bfe1-97ba038204d1"},"vehicle_type_id":"4","last_reported":1717517400,"current_range_meters":8800,"station_id":"ce4bgj92rcd13ifvqbd0","pricing_plan_id":"cebpf4jnsgd1na2vs0mg"},{"bike_id":"89dab484-0594-415d-ab5a-bcb7e8425686","system_id":"levelo_inurba_marseille","lat":43.298764,"lon":5.388973,"is_reserved":false,"is_disabled":false,"rental_uris":{"android":"levelo://app?vid=89dab484-0594-415d-ab5a-bcb7e8425686","ios":"levelo://app?vid=89dab484-0594-415d-ab5a-bcb7e8425686"},"vehicle_type_id":"4","last_reported":1717517400,"current_range_meters":11200,"station_id":"ce4bh392rcd13ifvqdl0","pricing_plan_id":"cebpf4jnsgd1na2vs0mg"},{"bike_id":"97708f04-9f35-4e07-bc12-959aa4039c9f","system_id":"levelo_inurba_marseille","lat":43.32367,"lon":5.388836,"is_reserved":false,"is_disabled":false,"rental_uris":{"android":"levelo://app?vid=97708f04-9f35-4e07-bc12-959aa4039c9f","ios":"levelo://app?vid=97708f04-9f35-4e07-bc12-959aa4039c9f"},"vehicle_type_id":"4","last_reported":1717517400,"current_range_meters":7600,"station_id":"ce4bhqp2rcd13ifvqhog","pricing_plan_id":"cebpf4jnsgd1na2vs0mg"},{"bike_id":"5dd60025-01ee-419c-a4b5-45da7e130cd0","system_id":"levelo_inurba_marseille","lat":43.32367,"lon":5.388836,"is_reserved":false,"is_disabled":false,"rental_uris":{"android":"levelo://app?vid=5dd60025-01ee-419c-a4b5-45da7e130cd0","ios":"levelo://app?vid=5dd60025-01ee-419c-a4b5-45da7e130cd0"},"vehicle_type_id":"4","last_reported":1717517400,"current_range_meters":27600,"station_id":"ce4bhqp2rcd13ifvqhog","pricing_plan_id":"cebpf4jnsgd1na2vs0mg"},{"bike_id":"69fa98ff-bee1-4d32-8c50-68204cd0be94","system_id":"levelo_inurba_marseille","lat":43.32367,"lon":5.388836,"is_reserved":false,"is_disabled":false,"rental_uris":{"android":"levelo://app?vid=69fa98ff-bee1-4d32-8c50-68204cd0be94","ios":"levelo://app?vid=69fa98ff-bee1-4d32-8c50-68204cd0be94"},"vehicle_type_id":"4","last_reported":1717517400,"current_range_meters":3600,"station_id":"ce4bhqp2rcd13ifvqhog","pricing_plan_id":"cebpf4jnsgd1na2vs0mg"},{"bike_id":"e2e4d6b1-3496-49b2-9ef2-e8848a9b4505","system_id":"levelo_inurba_marseille","lat":43.32367,"lon":5.388836,"is_reserved":false,"is_disabled":false,"rental_uris":{"android":"levelo://app?vid=e2e4d6b1-3496-49b2-9ef2-e8848a9b4505","ios":"levelo://app?vid=e2e4d6b1-3496-49b2-9ef2-e8848a9b4505"},"vehicle_type_id":"4","last_reported":1717517400,"current_range_meters":7200,"station_id":"ce4bhqp2rcd13ifvqhog","pricing_plan_id":"cebpf4jnsgd1na2vs0mg"},{"bike_id":"05b03e31-cb0e-4377-9d4c-0f9f351b3efd","system_id":"levelo_inurba_marseille","lat":43.32367,"lon":5.388836,"is_reserved":false,"is_disabled":false,"rental_uris":{"android":"levelo://app?vid=05b03e31-cb0e-4377-9d4c-0f9f351b3efd","ios":"levelo://app?vid=05b03e31-cb0e-4377-9d4c-0f9f351b3efd"},"vehicle_type_id":"4","last_reported":1717517400,"current_range_meters":12800,"station_id":"ce4bhqp2rcd13ifvqhog","pricing_plan_id":"cebpf4jnsgd1na2vs0mg"},{"bike_id":"7830efa7-a079-4762-b22e-8f2b69a4651e","system_id":"levelo_inurba_marseille","lat":43.29602,"lon":5.381084,"is_reserved":false,"is_disabled":false,"rental_uris":{"android":"levelo://app?vid=7830efa7-a079-4762-b22e-8f2b69a4651e","ios":"levelo://app?vid=7830efa7-a079-4762-b22e-8f2b69a4651e"},"vehicle_type_id":"4","last_reported":1717517400,"current_range_meters":19200,"station_id":"ce4bgl12rcd13ifvqbo0","pricing_plan_id":"cebpf4jnsgd1na2vs0mg"},{"bike_id":"87ff42e9-f3c4-4b13-a616-cf2215540ed0","system_id":"levelo_inurba_marseille","lat":43.29602,"lon":5.381084,"is_reserved":false,"is_disabled":false,"rental_uris":{"android":"levelo://app?vid=87ff42e9-f3c4-4b13-a616-cf2215540ed0","ios":"levelo://app?vid=87ff42e9-f3c4-4b13-a616-cf2215540ed0"},"vehicle_type_id":"4","last_reported":1717517400,"current_range_meters":0,"station_id":"ce4bgl12rcd13ifvqbo0","pricing_plan_id":"cebpf4jnsgd1na2vs0mg"},{"bike_id":"c5c2d4e8-4c80-4bf2-ba0c-552c693d470b","system_id":"levelo_inurba_marseille","lat":43.293259,"lon":5.371586,"is_reserved":false,"is_disabled":false,"rental_uris":{"android":"levelo://app?vid=c5c2d4e8-4c80-4bf2-ba0c-552c693d470b","ios":"levelo://app?vid=c5c2d4e8-4c80-4bf2-ba0c-552c693d470b"},"vehicle_type_id":"4","last_reported":1717517400,"current_range_meters":4000,"station_id":"ce4bgh92rcd13ifvqb40","pricing_plan_id":"cebpf4jnsgd1na2vs0mg"},{"bike_id":"6c9891d8-4a0d-44ad-90b6-4042970f8754","system_id":"levelo_inurba_marseille","lat":43.293259,"lon":5.371586,"is_reserved":false,"is_disabled":false,"rental_uris":{"android":"levelo://app?vid=6c9891d8-4a0d-44ad-90b6-4042970f8754","ios":"levelo://app?vid=6c9891d8-4a0d-44ad-90b6-4042970f8754"},"vehicle_type_id":"4","last_reported":1717517400,"current_range_meters":21600,"station_id":"ce4bgh92rcd13ifvqb40","pricing_plan_id":"cebpf4jnsgd1na2vs0mg"},{"bike_id":"728919db-f607-488d-a742-d9cdadb77e4a","system_id":"levelo_inurba_marseille","lat":43.292749,"lon":5.368402,"is_reserved":false,"is_disabled":false,"rental_uris":{"android":"levelo://app?vid=728919db-f607-488d-a742-d9cdadb77e4a","ios":"levelo://app?vid=728919db-f607-488d-a742-d9cdadb77e4a"},"vehicle_type_id":"4","last_reported":1717517400,"current_range_meters":22000,"station_id":"ce4bhbp2rcd13ifvqesg","pricing_plan_id":"cebpf4jnsgd1na2vs0mg"},{"bike_id":"9f2a7f6d-18a2-4f63-8499-2373b3fbed0b","system_id":"levelo_inurba_marseille","lat":43.292982,"lon":5.374629,"is_reserved":false,"is_disabled":false,"rental_uris":{"android":"levelo://app?vid=9f2a7f6d-18a2-4f63-8499-2373b3fbed0b","ios":"levelo://app?vid=9f2a7f6d-18a2-4f63-8499-2373b3fbed0b"},"vehicle_type_id":"4","last_reported":1717517400,"current_range_meters":0,"station_id":"ce4bgi12rcd13ifvqb70","pricing_plan_id":"cebpf4jnsgd1na2vs0mg"},{"bike_id":"cdf8c7a3-44d0-4fbf-bc6f-d83dbea41aab","system_id":"levelo_inurba_marseille","lat":43.305994,"lon":5.393687,"is_reserved":false,"is_disabled":false,"rental_uris":{"android":"levelo://app?vid=cdf8c7a3-44d0-4fbf-bc6f-d83dbea41aab","ios":"levelo://app?vid=cdf8c7a3-44d0-4fbf-bc6f-d83dbea41aab"},"vehicle_type_id":"4","last_reported":1717517400,"current_range_meters":18800,"station_id":"ce4bh0p2rcd13ifvqd80","pricing_plan_id":"cebpf4jnsgd1na2vs0mg"},{"bike_id":"25e754a6-9c4f-48e0-9664-136986e66304","system_id":"levelo_inurba_marseille","lat":43.293009,"lon":5.374584,"is_reserved":false,"is_disabled":false,"rental_uris":{"android":"levelo://app?vid=25e754a6-9c4f-48e0-9664-136986e66304","ios":"levelo://app?vid=25e754a6-9c4f-48e0-9664-136986e66304"},"vehicle_type_id":"4","last_reported":1717517400,"current_range_meters":17200,"station_id":"ce4bgi12rcd13ifvqb70","pricing_plan_id":"cebpf4jnsgd1na2vs0mg"},{"bike_id":"d8913ae5-b561-4a29-9cd6-ac3d88561ffa","system_id":"levelo_inurba_marseille","lat":43.302992,"lon":5.392136,"is_reserved":false,"is_disabled":false,"rental_uris":{"android":"levelo://app?vid=d8913ae5-b561-4a29-9cd6-ac3d88561ffa","ios":"levelo://app?vid=d8913ae5-b561-4a29-9cd6-ac3d88561ffa"},"vehicle_type_id":"4","last_reported":1717517400,"current_range_meters":0,"station_id":"ce4bgkh2rcd13ifvqbk0","pricing_plan_id":"cebpf4jnsgd1na2vs0mg"},{"bike_id":"6732d75a-9f6e-4b50-bb33-056817ab07eb","system_id":"levelo_inurba_marseille","lat":43.2936,"lon":5.37835,"is_reserved":false,"is_disabled":false,"rental_uris":{"android":"levelo://app?vid=6732d75a-9f6e-4b50-bb33-056817ab07eb","ios":"levelo://app?vid=6732d75a-9f6e-4b50-bb33-056817ab07eb"},"vehicle_type_id":"4","last_reported":1717517400,"current_range_meters":0,"station_id":"ce4bgjh2rcd13ifvqbf0","pricing_plan_id":"cebpf4jnsgd1na2vs0mg"},{"bike_id":"fd96fef2-3f3f-4aae-91e6-cb5e5c684ad4","system_id":"levelo_inurba_marseille","lat":43.30337,"lon":5.39252,"is_reserved":false,"is_disabled":false,"rental_uris":{"android":"levelo://app?vid=fd96fef2-3f3f-4aae-91e6-cb5e5c684ad4","ios":"levelo://app?vid=fd96fef2-3f3f-4aae-91e6-cb5e5c684ad4"},"vehicle_type_id":"4","last_reported":1717517400,"current_range_meters":5200,"station_id":"","pricing_plan_id":"cebpf4jnsgd1na2vs0mg"},{"bike_id":"d0bb001c-ea91-453f-8021-9cb23b0482de","system_id":"levelo_inurba_marseille","lat":43.292311,"lon":5.360731,"is_reserved":false,"is_disabled":false,"rental_uris":{"android":"levelo://app?vid=d0bb001c-ea91-453f-8021-9cb23b0482de","ios":"levelo://app?vid=d0bb001c-ea91-453f-8021-9cb23b0482de"},"vehicle_type_id":"4","last_reported":1717517400,"current_range_meters":0,"station_id":"ce4bhbh2rcd13ifvqeqg","pricing_plan_id":"cebpf4jnsgd1na2vs0mg"},{"bike_id":"a8464837-6997-4959-addc-4b6bb6a32e02","system_id":"levelo_inurba_marseille","lat":43.2936,"lon":5.37835,"is_reserved":false,"is_disabled":false,"rental_uris":{"android":"levelo://app?vid=a8464837-6997-4959-addc-4b6bb6a32e02","ios":"levelo://app?vid=a8464837-6997-4959-addc-4b6bb6a32e02"},"vehicle_type_id":"4","last_reported":1717517400,"current_range_meters":27200,"station_id":"ce4bgjh2rcd13ifvqbf0","pricing_plan_id":"cebpf4jnsgd1na2vs0mg"},{"bike_id":"52464e9e-026a-4010-b4d1-790b33967c7d","system_id":"levelo_inurba_marseille","lat":43.292311,"lon":5.360731,"is_reserved":false,"is_disabled":false,"rental_uris":{"android":"levelo://app?vid=52464e9e-026a-4010-b4d1-790b33967c7d","ios":"levelo://app?vid=52464e9e-026a-4010-b4d1-790b33967c7d"},"vehicle_type_id":"4","last_reported":1717517400,"current_range_meters":400,"station_id":"ce4bhbh2rcd13ifvqeqg","pricing_plan_id":"cebpf4jnsgd1na2vs0mg"},{"bike_id":"24eb3c1e-691c-4e46-ac31-f3127b233f6d","system_id":"levelo_inurba_marseille","lat":43.292311,"lon":5.360731,"is_reserved":false,"is_disabled":false,"rental_uris":{"android":"levelo://app?vid=24eb3c1e-691c-4e46-ac31-f3127b233f6d","ios":"levelo://app?vid=24eb3c1e-691c-4e46-ac31-f3127b233f6d"},"vehicle_type_id":"4","last_reported":1717517400,"current_range_meters":0,"station_id":"ce4bhbh2rcd13ifvqeqg","pricing_plan_id":"cebpf4jnsgd1na2vs0mg"},{"bike_id":"f96bc2ce-4238-4ff5-9265-d4d8bc771b0d","system_id":"levelo_inurba_marseille","lat":43.292311,"lon":5.360731,"is_reserved":false,"is_disabled":false,"rental_uris":{"android":"levelo://app?vid=f96bc2ce-4238-4ff5-9265-d4d8bc771b0d","ios":"levelo://app?vid=f96bc2ce-4238-4ff5-9265-d4d8bc771b0d"},"vehicle_type_id":"4","last_reported":1717517400,"current_range_meters":20400,"station_id":"ce4bhbh2rcd13ifvqeqg","pricing_plan_id":"cebpf4jnsgd1na2vs0mg"},{"bike_id":"e863dd7c-fbff-4bb9-b73b-37f9e083a00e","system_id":"levelo_inurba_marseille","lat":43.292311,"lon":5.360731,"is_reserved":false,"is_disabled":false,"rental_uris":{"android":"levelo://app?vid=e863dd7c-fbff-4bb9-b73b-37f9e083a00e","ios":"levelo://app?vid=e863dd7c-fbff-4bb9-b73b-37f9e083a00e"},"vehicle_type_id":"4","last_reported":1717517400,"current_range_meters":400,"station_id":"ce4bhbh2rcd13ifvqeqg","pricing_plan_id":"cebpf4jnsgd1na2vs0mg"},{"bike_id":"9d58fc1b-7c98-46d4-ba05-2db6798cbba0","system_id":"levelo_inurba_marseille","lat":43.298764,"lon":5.388973,"is_reserved":false,"is_disabled":false,"rental_uris":{"android":"levelo://app?vid=9d58fc1b-7c98-46d4-ba05-2db6798cbba0","ios":"levelo://app?vid=9d58fc1b-7c98-46d4-ba05-2db6798cbba0"},"vehicle_type_id":"4","last_reported":1717517400,"current_range_meters":17600,"station_id":"ce4bh392rcd13ifvqdl0","pricing_plan_id":"cebpf4jnsgd1na2vs0mg"},{"bike_id":"6c6f4bad-1ccf-4503-bc48-5691f3bfd0ab","system_id":"levelo_inurba_marseille","lat":43.298764,"lon":5.388973,"is_reserved":false,"is_disabled":false,"rental_uris":{"android":"levelo://app?vid=6c6f4bad-1ccf-4503-bc48-5691f3bfd0ab","ios":"levelo://app?vid=6c6f4bad-1ccf-4503-bc48-5691f3bfd0ab"},"vehicle_type_id":"4","last_reported":1717517400,"current_range_meters":16000,"station_id":"ce4bh392rcd13ifvqdl0","pricing_plan_id":"cebpf4jnsgd1na2vs0mg"},{"bike_id":"369be8b8-e180-44e5-a51b-7641a673f317","system_id":"levelo_inurba_marseille","lat":43.29911,"lon":5.38958,"is_reserved":false,"is_disabled":false,"rental_uris":{"android":"levelo://app?vid=369be8b8-e180-44e5-a51b-7641a673f317","ios":"levelo://app?vid=369be8b8-e180-44e5-a51b-7641a673f317"},"vehicle_type_id":"4","last_reported":1717517400,"current_range_meters":9200,"station_id":"","pricing_plan_id":"cebpf4jnsgd1na2vs0mg"},{"bike_id":"eb80dd01-ce85-4a03-98bf-203f26122350","system_id":"levelo_inurba_marseille","lat":43.292005,"lon":5.357875,"is_reserved":false,"is_disabled":false,"rental_uris":{"android":"levelo://app?vid=eb80dd01-ce85-4a03-98bf-203f26122350","ios":"levelo://app?vid=eb80dd01-ce85-4a03-98bf-203f26122350"},"vehicle_type_id":"4","last_reported":1717517400,"current_range_meters":26400,"station_id":"ce4bhb12rcd13ifvqel0","pricing_plan_id":"cebpf4jnsgd1na2vs0mg"},{"bike_id":"e4e5e64a-6133-43de-ae7b-7d38d636c669","system_id":"levelo_inurba_marseille","lat":43.313291,"lon":5.396838,"is_reserved":false,"is_disabled":false,"rental_uris":{"android":"levelo://app?vid=e4e5e64a-6133-43de-ae7b-7d38d636c669","ios":"levelo://app?vid=e4e5e64a-6133-43de-ae7b-7d38d636c669"},"vehicle_type_id":"4","last_reported":1717517400,"current_range_meters":4400,"station_id":"ce4bgvp2rcd13ifvqcu0","pricing_plan_id":"cebpf4jnsgd1na2vs0mg"},{"bike_id":"c6fcc120-fd63-43f4-86ce-6938384a1184","system_id":"levelo_inurba_marseille","lat":43.313291,"lon":5.396838,"is_reserved":false,"is_disabled":false,"rental_uris":{"android":"levelo://app?vid=c6fcc120-fd63-43f4-86ce-6938384a1184","ios":"levelo://app?vid=c6fcc120-fd63-43f4-86ce-6938384a1184"},"vehicle_type_id":"4","last_reported":1717517400,"current_range_meters":22000,"station_id":"ce4bgvp2rcd13ifvqcu0","pricing_plan_id":"cebpf4jnsgd1na2vs0mg"},{"bike_id":"7e03523e-c09b-43e9-85db-f218e2e84283","system_id":"levelo_inurba_marseille","lat":43.291994,"lon":5.357886,"is_reserved":false,"is_disabled":false,"rental_uris":{"android":"levelo://app?vid=7e03523e-c09b-43e9-85db-f218e2e84283","ios":"levelo://app?vid=7e03523e-c09b-43e9-85db-f218e2e84283"},"vehicle_type_id":"4","last_reported":1717517400,"current_range_meters":28400,"station_id":"ce4bhb12rcd13ifvqel0","pricing_plan_id":"cebpf4jnsgd1na2vs0mg"},{"bike_id":"56fec330-7a11-4b9c-a961-701fcb697bf5","system_id":"levelo_inurba_marseille","lat":43.313291,"lon":5.396838,"is_reserved":false,"is_disabled":false,"rental_uris":{"android":"levelo://app?vid=56fec330-7a11-4b9c-a961-701fcb697bf5","ios":"levelo://app?vid=56fec330-7a11-4b9c-a961-701fcb697bf5"},"vehicle_type_id":"4","last_reported":1717517400,"current_range_meters":1600,"station_id":"ce4bgvp2rcd13ifvqcu0","pricing_plan_id":"cebpf4jnsgd1na2vs0mg"},{"bike_id":"07e696ca-4a83-463e-83f3-fffac8f2bd7c","system_id":"levelo_inurba_marseille","lat":43.313291,"lon":5.396838,"is_reserved":false,"is_disabled":false,"rental_uris":{"android":"levelo://app?vid=07e696ca-4a83-463e-83f3-fffac8f2bd7c","ios":"levelo://app?vid=07e696ca-4a83-463e-83f3-fffac8f2bd7c"},"vehicle_type_id":"4","last_reported":1717517400,"current_range_meters":0,"station_id":"ce4bgvp2rcd13ifvqcu0","pricing_plan_id":"cebpf4jnsgd1na2vs0mg"},{"bike_id":"4d3c82a3-c6c6-4d5c-a61a-301f82f9bcdc","system_id":"levelo_inurba_marseille","lat":43.313291,"lon":5.396838,"is_reserved":false,"is_disabled":false,"rental_uris":{"android":"levelo://app?vid=4d3c82a3-c6c6-4d5c-a61a-301f82f9bcdc","ios":"levelo://app?vid=4d3c82a3-c6c6-4d5c-a61a-301f82f9bcdc"},"vehicle_type_id":"4","last_reported":1717517400,"current_range_meters":28000,"station_id":"ce4bgvp2rcd13ifvqcu0","pricing_plan_id":"cebpf4jnsgd1na2vs0mg"},{"bike_id":"43632675-0625-4dae-9868-1a7be9c5427b","system_id":"levelo_inurba_marseille","lat":43.30863,"lon":5.39645,"is_reserved":false,"is_disabled":false,"rental_uris":{"android":"levelo://app?vid=43632675-0625-4dae-9868-1a7be9c5427b","ios":"levelo://app?vid=43632675-0625-4dae-9868-1a7be9c5427b"},"vehicle_type_id":"4","last_reported":1717517400,"current_range_meters":0,"station_id":"ce4bh012rcd13ifvqcv0","pricing_plan_id":"cebpf4jnsgd1na2vs0mg"},{"bike_id":"880635a4-e95b-4e94-ba38-9995fc945937","system_id":"levelo_inurba_marseille","lat":43.29529,"lon":5.385581,"is_reserved":false,"is_disabled":false,"rental_uris":{"android":"levelo://app?vid=880635a4-e95b-4e94-ba38-9995fc945937","ios":"levelo://app?vid=880635a4-e95b-4e94-ba38-9995fc945937"},"vehicle_type_id":"4","last_reported":1717517400,"current_range_meters":12800,"station_id":"ce4bgih2rcd13ifvqba0","pricing_plan_id":"cebpf4jnsgd1na2vs0mg"},{"bike_id":"40b1ecfd-ca1e-4cde-b426-6cca67531ee1","system_id":"levelo_inurba_marseille","lat":43.29531,"lon":5.38538,"is_reserved":false,"is_disabled":false,"rental_uris":{"android":"levelo://app?vid=40b1ecfd-ca1e-4cde-b426-6cca67531ee1","ios":"levelo://app?vid=40b1ecfd-ca1e-4cde-b426-6cca67531ee1"},"vehicle_type_id":"4","last_reported":1717517400,"current_range_meters":9200,"station_id":"ce4bgih2rcd13ifvqba0","pricing_plan_id":"cebpf4jnsgd1na2vs0mg"},{"bike_id":"b92353bb-4e8d-421a-94bd-b3af181fde53","system_id":"levelo_inurba_marseille","lat":43.29529,"lon":5.385581,"is_reserved":false,"is_disabled":false,"rental_uris":{"android":"levelo://app?vid=b92353bb-4e8d-421a-94bd-b3af181fde53","ios":"levelo://app?vid=b92353bb-4e8d-421a-94bd-b3af181fde53"},"vehicle_type_id":"4","last_reported":1717517400,"current_range_meters":24800,"station_id":"ce4bgih2rcd13ifvqba0","pricing_plan_id":"cebpf4jnsgd1na2vs0mg"},{"bike_id":"0804364e-1799-41dc-88b0-be818612392c","system_id":"levelo_inurba_marseille","lat":43.295368,"lon":5.385531,"is_reserved":false,"is_disabled":false,"rental_uris":{"android":"levelo://app?vid=0804364e-1799-41dc-88b0-be818612392c","ios":"levelo://app?vid=0804364e-1799-41dc-88b0-be818612392c"},"vehicle_type_id":"4","last_reported":1717517400,"current_range_meters":15200,"station_id":"ce4bgih2rcd13ifvqba0","pricing_plan_id":"cebpf4jnsgd1na2vs0mg"},{"bike_id":"e79f7473-dfcf-4516-9091-dc35503e165d","system_id":"levelo_inurba_marseille","lat":43.29527,"lon":5.38542,"is_reserved":false,"is_disabled":false,"rental_uris":{"android":"levelo://app?vid=e79f7473-dfcf-4516-9091-dc35503e165d","ios":"levelo://app?vid=e79f7473-dfcf-4516-9091-dc35503e165d"},"vehicle_type_id":"4","last_reported":1717517400,"current_range_meters":26800,"station_id":"ce4bgih2rcd13ifvqba0","pricing_plan_id":"cebpf4jnsgd1na2vs0mg"},{"bike_id":"61411431-4091-48cd-b119-7246e3ee5e67","system_id":"levelo_inurba_marseille","lat":43.29529,"lon":5.385581,"is_reserved":false,"is_disabled":false,"rental_uris":{"android":"levelo://app?vid=61411431-4091-48cd-b119-7246e3ee5e67","ios":"levelo://app?vid=61411431-4091-48cd-b119-7246e3ee5e67"},"vehicle_type_id":"4","last_reported":1717517400,"current_range_meters":31200,"station_id":"ce4bgih2rcd13ifvqba0","pricing_plan_id":"cebpf4jnsgd1na2vs0mg"},{"bike_id":"cc7cdf48-4aed-427e-9ec2-5c78866a0a2d","system_id":"levelo_inurba_marseille","lat":43.302008,"lon":5.394694,"is_reserved":false,"is_disabled":false,"rental_uris":{"android":"levelo://app?vid=cc7cdf48-4aed-427e-9ec2-5c78866a0a2d","ios":"levelo://app?vid=cc7cdf48-4aed-427e-9ec2-5c78866a0a2d"},"vehicle_type_id":"4","last_reported":1717517400,"current_range_meters":0,"station_id":"ce4bh0p2rcd13ifvqd70","pricing_plan_id":"cebpf4jnsgd1na2vs0mg"},{"bike_id":"39da48a4-dc9c-44b6-aac0-12dc63536c4b","system_id":"levelo_inurba_marseille","lat":43.290624,"lon":5.359245,"is_reserved":false,"is_disabled":false,"rental_uris":{"android":"levelo://app?vid=39da48a4-dc9c-44b6-aac0-12dc63536c4b","ios":"levelo://app?vid=39da48a4-dc9c-44b6-aac0-12dc63536c4b"},"vehicle_type_id":"4","last_reported":1717517400,"current_range_meters":23200,"station_id":"ce4bha92rcd13ifvqeg0","pricing_plan_id":"cebpf4jnsgd1na2vs0mg"},{"bike_id":"95bb2621-3839-465f-9a63-486eb03ed39b","system_id":"levelo_inurba_marseille","lat":43.290624,"lon":5.359245,"is_reserved":false,"is_disabled":false,"rental_uris":{"android":"levelo://app?vid=95bb2621-3839-465f-9a63-486eb03ed39b","ios":"levelo://app?vid=95bb2621-3839-465f-9a63-486eb03ed39b"},"vehicle_type_id":"4","last_reported":1717517400,"current_range_meters":1600,"station_id":"ce4bha92rcd13ifvqeg0","pricing_plan_id":"cebpf4jnsgd1na2vs0mg"},{"bike_id":"9a00a14e-a410-43e4-8f79-bd6f404f60fb","system_id":"levelo_inurba_marseille","lat":43.290327,"lon":5.375711,"is_reserved":false,"is_disabled":false,"rental_uris":{"android":"levelo://app?vid=9a00a14e-a410-43e4-8f79-bd6f404f60fb","ios":"levelo://app?vid=9a00a14e-a410-43e4-8f79-bd6f404f60fb"},"vehicle_type_id":"4","last_reported":1717517400,"current_range_meters":6000,"station_id":"ce4bh692rcd13ifvqe90","pricing_plan_id":"cebpf4jnsgd1na2vs0mg"},{"bike_id":"20393390-d77e-43eb-87f9-e003b2970dcc","system_id":"levelo_inurba_marseille","lat":43.294153,"lon":5.386305,"is_reserved":false,"is_disabled":false,"rental_uris":{"android":"levelo://app?vid=20393390-d77e-43eb-87f9-e003b2970dcc","ios":"levelo://app?vid=20393390-d77e-43eb-87f9-e003b2970dcc"},"vehicle_type_id":"4","last_reported":1717517400,"current_range_meters":22400,"station_id":"ce4bh2h2rcd13ifvqdh0","pricing_plan_id":"cebpf4jnsgd1na2vs0mg"},{"bike_id":"4826a7dc-2e42-47d1-bc76-9f68b4386fe9","system_id":"levelo_inurba_marseille","lat":43.290327,"lon":5.375711,"is_reserved":false,"is_disabled":false,"rental_uris":{"android":"levelo://app?vid=4826a7dc-2e42-47d1-bc76-9f68b4386fe9","ios":"levelo://app?vid=4826a7dc-2e42-47d1-bc76-9f68b4386fe9"},"vehicle_type_id":"4","last_reported":1717517400,"current_range_meters":19600,"station_id":"ce4bh692rcd13ifvqe90","pricing_plan_id":"cebpf4jnsgd1na2vs0mg"},{"bike_id":"2ac21603-fcd1-46ad-9209-6bd39a09cc2a","system_id":"levelo_inurba_marseille","lat":43.294162,"lon":5.386292,"is_reserved":false,"is_disabled":false,"rental_uris":{"android":"levelo://app?vid=2ac21603-fcd1-46ad-9209-6bd39a09cc2a","ios":"levelo://app?vid=2ac21603-fcd1-46ad-9209-6bd39a09cc2a"},"vehicle_type_id":"4","last_reported":1717517400,"current_range_meters":18400,"station_id":"ce4bh2h2rcd13ifvqdh0","pricing_plan_id":"cebpf4jnsgd1na2vs0mg"},{"bike_id":"67f203b7-592b-46ab-a92f-d2bdbf24b0eb","system_id":"levelo_inurba_marseille","lat":43.330442,"lon":5.389148,"is_reserved":false,"is_disabled":false,"rental_uris":{"android":"levelo://app?vid=67f203b7-592b-46ab-a92f-d2bdbf24b0eb","ios":"levelo://app?vid=67f203b7-592b-46ab-a92f-d2bdbf24b0eb"},"vehicle_type_id":"4","last_reported":1717517400,"current_range_meters":24400,"station_id":"ce4bhr92rcd13ifvqhrg","pricing_plan_id":"cebpf4jnsgd1na2vs0mg"},{"bike_id":"de62c79c-3ba1-4398-bcf8-d179216ad0b0","system_id":"levelo_inurba_marseille","lat":43.292642,"lon":5.384254,"is_reserved":false,"is_disabled":false,"rental_uris":{"android":"levelo://app?vid=de62c79c-3ba1-4398-bcf8-d179216ad0b0","ios":"levelo://app?vid=de62c79c-3ba1-4398-bcf8-d179216ad0b0"},"vehicle_type_id":"4","last_reported":1717517400,"current_range_meters":15600,"station_id":"ce4bh692rcd13ifvqea0","pricing_plan_id":"cebpf4jnsgd1na2vs0mg"},{"bike_id":"aaabd6b7-745c-413a-8300-f54ba0a1aa82","system_id":"levelo_inurba_marseille","lat":43.292642,"lon":5.384254,"is_reserved":false,"is_disabled":false,"rental_uris":{"android":"levelo://app?vid=aaabd6b7-745c-413a-8300-f54ba0a1aa82","ios":"levelo://app?vid=aaabd6b7-745c-413a-8300-f54ba0a1aa82"},"vehicle_type_id":"4","last_reported":1717517400,"current_range_meters":18000,"station_id":"ce4bh692rcd13ifvqea0","pricing_plan_id":"cebpf4jnsgd1na2vs0mg"},{"bike_id":"a89fe047-5298-4dbf-b542-e2935d201013","system_id":"levelo_inurba_marseille","lat":43.304274,"lon":5.397513,"is_reserved":false,"is_disabled":false,"rental_uris":{"android":"levelo://app?vid=a89fe047-5298-4dbf-b542-e2935d201013","ios":"levelo://app?vid=a89fe047-5298-4dbf-b542-e2935d201013"},"vehicle_type_id":"4","last_reported":1717517400,"current_range_meters":12000,"station_id":"ce4bh092rcd13ifvqd20","pricing_plan_id":"cebpf4jnsgd1na2vs0mg"},{"bike_id":"404d84e2-a828-4e9e-aeeb-d5c8f277d82b","system_id":"levelo_inurba_marseille","lat":43.292644,"lon":5.384257,"is_reserved":false,"is_disabled":false,"rental_uris":{"android":"levelo://app?vid=404d84e2-a828-4e9e-aeeb-d5c8f277d82b","ios":"levelo://app?vid=404d84e2-a828-4e9e-aeeb-d5c8f277d82b"},"vehicle_type_id":"4","last_reported":1717517400,"current_range_meters":0,"station_id":"ce4bh692rcd13ifvqea0","pricing_plan_id":"cebpf4jnsgd1na2vs0mg"},{"bike_id":"bcb1f972-5198-4a82-8840-761b8bd94aef","system_id":"levelo_inurba_marseille","lat":43.292644,"lon":5.384257,"is_reserved":false,"is_disabled":false,"rental_uris":{"android":"levelo://app?vid=bcb1f972-5198-4a82-8840-761b8bd94aef","ios":"levelo://app?vid=bcb1f972-5198-4a82-8840-761b8bd94aef"},"vehicle_type_id":"4","last_reported":1717517400,"current_range_meters":13200,"station_id":"ce4bh692rcd13ifvqea0","pricing_plan_id":"cebpf4jnsgd1na2vs0mg"},{"bike_id":"d641b193-5e30-4411-9f49-9cca001e51be","system_id":"levelo_inurba_marseille","lat":43.290103,"lon":5.356114,"is_reserved":false,"is_disabled":false,"rental_uris":{"android":"levelo://app?vid=d641b193-5e30-4411-9f49-9cca001e51be","ios":"levelo://app?vid=d641b193-5e30-4411-9f49-9cca001e51be"},"vehicle_type_id":"4","last_reported":1717517400,"current_range_meters":16000,"station_id":"ce4bhb92rcd13ifvqen0","pricing_plan_id":"cebpf4jnsgd1na2vs0mg"},{"bike_id":"fa3b3b6c-0710-4c12-b762-99f2468acf47","system_id":"levelo_inurba_marseille","lat":43.295169,"lon":5.390426,"is_reserved":false,"is_disabled":false,"rental_uris":{"android":"levelo://app?vid=fa3b3b6c-0710-4c12-b762-99f2468acf47","ios":"levelo://app?vid=fa3b3b6c-0710-4c12-b762-99f2468acf47"},"vehicle_type_id":"4","last_reported":1717517400,"current_range_meters":11600,"station_id":"ce4bh3p2rcd13ifvqdp0","pricing_plan_id":"cebpf4jnsgd1na2vs0mg"},{"bike_id":"e7096369-178b-490c-ab74-f7f1da1d0fdf","system_id":"levelo_inurba_marseille","lat":43.330442,"lon":5.389148,"is_reserved":false,"is_disabled":false,"rental_uris":{"android":"levelo://app?vid=e7096369-178b-490c-ab74-f7f1da1d0fdf","ios":"levelo://app?vid=e7096369-178b-490c-ab74-f7f1da1d0fdf"},"vehicle_type_id":"4","last_reported":1717517400,"current_range_meters":20400,"station_id":"ce4bhr92rcd13ifvqhrg","pricing_plan_id":"cebpf4jnsgd1na2vs0mg"},{"bike_id":"7eea8dcc-f65c-4570-9e51-cfc679b0a553","system_id":"levelo_inurba_marseille","lat":43.28979,"lon":5.37837,"is_reserved":false,"is_disabled":false,"rental_uris":{"android":"levelo://app?vid=7eea8dcc-f65c-4570-9e51-cfc679b0a553","ios":"levelo://app?vid=7eea8dcc-f65c-4570-9e51-cfc679b0a553"},"vehicle_type_id":"4","last_reported":1717517400,"current_range_meters":12800,"station_id":"ce4bh9p2rcd13ifvqed0","pricing_plan_id":"cebpf4jnsgd1na2vs0mg"},{"bike_id":"49f80127-1924-4be9-a9c6-990e889e6991","system_id":"levelo_inurba_marseille","lat":43.330442,"lon":5.389148,"is_reserved":false,"is_disabled":false,"rental_uris":{"android":"levelo://app?vid=49f80127-1924-4be9-a9c6-990e889e6991","ios":"levelo://app?vid=49f80127-1924-4be9-a9c6-990e889e6991"},"vehicle_type_id":"4","last_reported":1717517400,"current_range_meters":20800,"station_id":"ce4bhr92rcd13ifvqhrg","pricing_plan_id":"cebpf4jnsgd1na2vs0mg"},{"bike_id":"bbe4c5f5-ff83-40ae-8615-ca0fe4d73e68","system_id":"levelo_inurba_marseille","lat":43.330442,"lon":5.389148,"is_reserved":false,"is_disabled":false,"rental_uris":{"android":"levelo://app?vid=bbe4c5f5-ff83-40ae-8615-ca0fe4d73e68","ios":"levelo://app?vid=bbe4c5f5-ff83-40ae-8615-ca0fe4d73e68"},"vehicle_type_id":"4","last_reported":1717517400,"current_range_meters":8000,"station_id":"ce4bhr92rcd13ifvqhrg","pricing_plan_id":"cebpf4jnsgd1na2vs0mg"},{"bike_id":"dce62d08-aec7-4ef9-9fc1-b99ec4487b86","system_id":"levelo_inurba_marseille","lat":43.330442,"lon":5.389148,"is_reserved":false,"is_disabled":false,"rental_uris":{"android":"levelo://app?vid=dce62d08-aec7-4ef9-9fc1-b99ec4487b86","ios":"levelo://app?vid=dce62d08-aec7-4ef9-9fc1-b99ec4487b86"},"vehicle_type_id":"4","last_reported":1717517400,"current_range_meters":0,"station_id":"ce4bhr92rcd13ifvqhrg","pricing_plan_id":"cebpf4jnsgd1na2vs0mg"},{"bike_id":"3b791442-f8c7-4b28-8050-598df94d97d0","system_id":"levelo_inurba_marseille","lat":43.289743,"lon":5.378304,"is_reserved":false,"is_disabled":false,"rental_uris":{"android":"levelo://app?vid=3b791442-f8c7-4b28-8050-598df94d97d0","ios":"levelo://app?vid=3b791442-f8c7-4b28-8050-598df94d97d0"},"vehicle_type_id":"4","last_reported":1717517400,"current_range_meters":0,"station_id":"ce4bh9p2rcd13ifvqed0","pricing_plan_id":"cebpf4jnsgd1na2vs0mg"},{"bike_id":"0beb7888-2e89-4ef9-8a87-b39fbfa2c062","system_id":"levelo_inurba_marseille","lat":43.330442,"lon":5.389148,"is_reserved":false,"is_disabled":false,"rental_uris":{"android":"levelo://app?vid=0beb7888-2e89-4ef9-8a87-b39fbfa2c062","ios":"levelo://app?vid=0beb7888-2e89-4ef9-8a87-b39fbfa2c062"},"vehicle_type_id":"4","last_reported":1717517400,"current_range_meters":12400,"station_id":"ce4bhr92rcd13ifvqhrg","pricing_plan_id":"cebpf4jnsgd1na2vs0mg"},{"bike_id":"254192c8-7c0d-44f9-9081-f635c151e2f3","system_id":"levelo_inurba_marseille","lat":43.330442,"lon":5.389148,"is_reserved":false,"is_disabled":false,"rental_uris":{"android":"levelo://app?vid=254192c8-7c0d-44f9-9081-f635c151e2f3","ios":"levelo://app?vid=254192c8-7c0d-44f9-9081-f635c151e2f3"},"vehicle_type_id":"4","last_reported":1717517400,"current_range_meters":31600,"station_id":"ce4bhr92rcd13ifvqhrg","pricing_plan_id":"cebpf4jnsgd1na2vs0mg"},{"bike_id":"383f2e03-3294-42a1-a3d1-47922f96b6aa","system_id":"levelo_inurba_marseille","lat":43.330442,"lon":5.389148,"is_reserved":false,"is_disabled":false,"rental_uris":{"android":"levelo://app?vid=383f2e03-3294-42a1-a3d1-47922f96b6aa","ios":"levelo://app?vid=383f2e03-3294-42a1-a3d1-47922f96b6aa"},"vehicle_type_id":"4","last_reported":1717517400,"current_range_meters":27200,"station_id":"ce4bhr92rcd13ifvqhrg","pricing_plan_id":"cebpf4jnsgd1na2vs0mg"},{"bike_id":"200758cc-a980-439e-9a29-a167aae7a4a0","system_id":"levelo_inurba_marseille","lat":43.330442,"lon":5.389148,"is_reserved":false,"is_disabled":false,"rental_uris":{"android":"levelo://app?vid=200758cc-a980-439e-9a29-a167aae7a4a0","ios":"levelo://app?vid=200758cc-a980-439e-9a29-a167aae7a4a0"},"vehicle_type_id":"4","last_reported":1717517400,"current_range_meters":25200,"station_id":"ce4bhr92rcd13ifvqhrg","pricing_plan_id":"cebpf4jnsgd1na2vs0mg"},{"bike_id":"739d392b-664e-4abb-801d-0fd59afd4c31","system_id":"levelo_inurba_marseille","lat":43.284787,"lon":5.384116,"is_reserved":false,"is_disabled":false,"rental_uris":{"android":"levelo://app?vid=739d392b-664e-4abb-801d-0fd59afd4c31","ios":"levelo://app?vid=739d392b-664e-4abb-801d-0fd59afd4c31"},"vehicle_type_id":"4","last_reported":1717517400,"current_range_meters":400,"station_id":"ce4bh512rcd13ifvqe3g","pricing_plan_id":"cebpf4jnsgd1na2vs0mg"},{"bike_id":"47c7927e-81e4-453b-8eed-6b52232ec34c","system_id":"levelo_inurba_marseille","lat":43.330442,"lon":5.389148,"is_reserved":false,"is_disabled":false,"rental_uris":{"android":"levelo://app?vid=47c7927e-81e4-453b-8eed-6b52232ec34c","ios":"levelo://app?vid=47c7927e-81e4-453b-8eed-6b52232ec34c"},"vehicle_type_id":"4","last_reported":1717517400,"current_range_meters":31600,"station_id":"ce4bhr92rcd13ifvqhrg","pricing_plan_id":"cebpf4jnsgd1na2vs0mg"},{"bike_id":"6ea25449-2305-4161-9a48-52a8290c60f2","system_id":"levelo_inurba_marseille","lat":43.330442,"lon":5.389148,"is_reserved":false,"is_disabled":false,"rental_uris":{"android":"levelo://app?vid=6ea25449-2305-4161-9a48-52a8290c60f2","ios":"levelo://app?vid=6ea25449-2305-4161-9a48-52a8290c60f2"},"vehicle_type_id":"4","last_reported":1717517400,"current_range_meters":22400,"station_id":"ce4bhr92rcd13ifvqhrg","pricing_plan_id":"cebpf4jnsgd1na2vs0mg"},{"bike_id":"94f72f37-dbf0-48a2-94f1-803550a7cd86","system_id":"levelo_inurba_marseille","lat":43.289741,"lon":5.378306,"is_reserved":false,"is_disabled":false,"rental_uris":{"android":"levelo://app?vid=94f72f37-dbf0-48a2-94f1-803550a7cd86","ios":"levelo://app?vid=94f72f37-dbf0-48a2-94f1-803550a7cd86"},"vehicle_type_id":"4","last_reported":1717517400,"current_range_meters":18800,"station_id":"ce4bh9p2rcd13ifvqed0","pricing_plan_id":"cebpf4jnsgd1na2vs0mg"},{"bike_id":"52082711-f349-40c9-8350-827066808b06","system_id":"levelo_inurba_marseille","lat":43.330442,"lon":5.389148,"is_reserved":false,"is_disabled":false,"rental_uris":{"android":"levelo://app?vid=52082711-f349-40c9-8350-827066808b06","ios":"levelo://app?vid=52082711-f349-40c9-8350-827066808b06"},"vehicle_type_id":"4","last_reported":1717517400,"current_range_meters":16400,"station_id":"ce4bhr92rcd13ifvqhrg","pricing_plan_id":"cebpf4jnsgd1na2vs0mg"},{"bike_id":"8c64c778-2f47-4d8f-be19-69c590a8c0e0","system_id":"levelo_inurba_marseille","lat":43.33025,"lon":5.390513,"is_reserved":false,"is_disabled":false,"rental_uris":{"android":"levelo://app?vid=8c64c778-2f47-4d8f-be19-69c590a8c0e0","ios":"levelo://app?vid=8c64c778-2f47-4d8f-be19-69c590a8c0e0"},"vehicle_type_id":"4","last_reported":1717517400,"current_range_meters":17600,"station_id":"ce4bhr92rcd13ifvqhrg","pricing_plan_id":"cebpf4jnsgd1na2vs0mg"},{"bike_id":"4775a8d1-0d5a-49df-b41a-7b403726af33","system_id":"levelo_inurba_marseille","lat":43.330442,"lon":5.389148,"is_reserved":false,"is_disabled":false,"rental_uris":{"android":"levelo://app?vid=4775a8d1-0d5a-49df-b41a-7b403726af33","ios":"levelo://app?vid=4775a8d1-0d5a-49df-b41a-7b403726af33"},"vehicle_type_id":"4","last_reported":1717517400,"current_range_meters":17600,"station_id":"ce4bhr92rcd13ifvqhrg","pricing_plan_id":"cebpf4jnsgd1na2vs0mg"},{"bike_id":"f9aa627e-3620-4096-ae76-0c38b21b39f5","system_id":"levelo_inurba_marseille","lat":43.330442,"lon":5.389148,"is_reserved":false,"is_disabled":false,"rental_uris":{"android":"levelo://app?vid=f9aa627e-3620-4096-ae76-0c38b21b39f5","ios":"levelo://app?vid=f9aa627e-3620-4096-ae76-0c38b21b39f5"},"vehicle_type_id":"4","last_reported":1717517400,"current_range_meters":17200,"station_id":"ce4bhr92rcd13ifvqhrg","pricing_plan_id":"cebpf4jnsgd1na2vs0mg"},{"bike_id":"4998d057-82c5-4b0c-aef1-4b41fe54f912","system_id":"levelo_inurba_marseille","lat":43.28856,"lon":5.358371,"is_reserved":false,"is_disabled":false,"rental_uris":{"android":"levelo://app?vid=4998d057-82c5-4b0c-aef1-4b41fe54f912","ios":"levelo://app?vid=4998d057-82c5-4b0c-aef1-4b41fe54f912"},"vehicle_type_id":"4","last_reported":1717517400,"current_range_meters":23200,"station_id":"ce4bhb12rcd13ifvqem0","pricing_plan_id":"cebpf4jnsgd1na2vs0mg"},{"bike_id":"aad31978-8023-4bae-ad86-abbb6c6ff107","system_id":"levelo_inurba_marseille","lat":43.28856,"lon":5.358371,"is_reserved":false,"is_disabled":false,"rental_uris":{"android":"levelo://app?vid=aad31978-8023-4bae-ad86-abbb6c6ff107","ios":"levelo://app?vid=aad31978-8023-4bae-ad86-abbb6c6ff107"},"vehicle_type_id":"4","last_reported":1717517400,"current_range_meters":18000,"station_id":"ce4bhb12rcd13ifvqem0","pricing_plan_id":"cebpf4jnsgd1na2vs0mg"},{"bike_id":"d750e031-6709-4a46-b066-7615f9a32c46","system_id":"levelo_inurba_marseille","lat":43.290094,"lon":5.381264,"is_reserved":false,"is_disabled":false,"rental_uris":{"android":"levelo://app?vid=d750e031-6709-4a46-b066-7615f9a32c46","ios":"levelo://app?vid=d750e031-6709-4a46-b066-7615f9a32c46"},"vehicle_type_id":"4","last_reported":1717517400,"current_range_meters":0,"station_id":"ce4bh4p2rcd13ifvqe1g","pricing_plan_id":"cebpf4jnsgd1na2vs0mg"},{"bike_id":"dc37b1be-67b7-4423-ba4f-52260a48674f","system_id":"levelo_inurba_marseille","lat":43.330442,"lon":5.389148,"is_reserved":false,"is_disabled":false,"rental_uris":{"android":"levelo://app?vid=dc37b1be-67b7-4423-ba4f-52260a48674f","ios":"levelo://app?vid=dc37b1be-67b7-4423-ba4f-52260a48674f"},"vehicle_type_id":"4","last_reported":1717517400,"current_range_meters":13200,"station_id":"ce4bhr92rcd13ifvqhrg","pricing_plan_id":"cebpf4jnsgd1na2vs0mg"},{"bike_id":"21d0a07e-f892-4f3a-ac0f-ab07c73c06de","system_id":"levelo_inurba_marseille","lat":43.28856,"lon":5.358371,"is_reserved":false,"is_disabled":false,"rental_uris":{"android":"levelo://app?vid=21d0a07e-f892-4f3a-ac0f-ab07c73c06de","ios":"levelo://app?vid=21d0a07e-f892-4f3a-ac0f-ab07c73c06de"},"vehicle_type_id":"4","last_reported":1717517400,"current_range_meters":11200,"station_id":"ce4bhb12rcd13ifvqem0","pricing_plan_id":"cebpf4jnsgd1na2vs0mg"},{"bike_id":"5a05ea89-7f60-4adf-bb68-0e60d60cd51e","system_id":"levelo_inurba_marseille","lat":43.2885,"lon":5.35849,"is_reserved":false,"is_disabled":false,"rental_uris":{"android":"levelo://app?vid=5a05ea89-7f60-4adf-bb68-0e60d60cd51e","ios":"levelo://app?vid=5a05ea89-7f60-4adf-bb68-0e60d60cd51e"},"vehicle_type_id":"4","last_reported":1717517400,"current_range_meters":0,"station_id":"ce4bhb12rcd13ifvqem0","pricing_plan_id":"cebpf4jnsgd1na2vs0mg"},{"bike_id":"ecca9bc6-d16d-4c34-a9bc-f2af3fbd68db","system_id":"levelo_inurba_marseille","lat":43.28856,"lon":5.358371,"is_reserved":false,"is_disabled":false,"rental_uris":{"android":"levelo://app?vid=ecca9bc6-d16d-4c34-a9bc-f2af3fbd68db","ios":"levelo://app?vid=ecca9bc6-d16d-4c34-a9bc-f2af3fbd68db"},"vehicle_type_id":"4","last_reported":1717517400,"current_range_meters":8000,"station_id":"ce4bhb12rcd13ifvqem0","pricing_plan_id":"cebpf4jnsgd1na2vs0mg"},{"bike_id":"8b6b4fc9-702b-4ced-8396-f1d0b8ee802b","system_id":"levelo_inurba_marseille","lat":43.28856,"lon":5.358371,"is_reserved":false,"is_disabled":false,"rental_uris":{"android":"levelo://app?vid=8b6b4fc9-702b-4ced-8396-f1d0b8ee802b","ios":"levelo://app?vid=8b6b4fc9-702b-4ced-8396-f1d0b8ee802b"},"vehicle_type_id":"4","last_reported":1717517400,"current_range_meters":10800,"station_id":"ce4bhb12rcd13ifvqem0","pricing_plan_id":"cebpf4jnsgd1na2vs0mg"},{"bike_id":"fdb843e9-1e21-4009-ae23-d2f6008a8e5d","system_id":"levelo_inurba_marseille","lat":43.312609,"lon":5.401662,"is_reserved":false,"is_disabled":false,"rental_uris":{"android":"levelo://app?vid=fdb843e9-1e21-4009-ae23-d2f6008a8e5d","ios":"levelo://app?vid=fdb843e9-1e21-4009-ae23-d2f6008a8e5d"},"vehicle_type_id":"4","last_reported":1717517400,"current_range_meters":0,"station_id":"ce4bh092rcd13ifvqd30","pricing_plan_id":"cebpf4jnsgd1na2vs0mg"},{"bike_id":"f9266449-dfab-456f-816b-66bc622f5878","system_id":"levelo_inurba_marseille","lat":43.312609,"lon":5.401662,"is_reserved":false,"is_disabled":false,"rental_uris":{"android":"levelo://app?vid=f9266449-dfab-456f-816b-66bc622f5878","ios":"levelo://app?vid=f9266449-dfab-456f-816b-66bc622f5878"},"vehicle_type_id":"4","last_reported":1717517400,"current_range_meters":26000,"station_id":"ce4bh092rcd13ifvqd30","pricing_plan_id":"cebpf4jnsgd1na2vs0mg"},{"bike_id":"3092f10d-600f-4294-bc1d-6e591921dd44","system_id":"levelo_inurba_marseille","lat":43.309371,"lon":5.401449,"is_reserved":false,"is_disabled":false,"rental_uris":{"android":"levelo://app?vid=3092f10d-600f-4294-bc1d-6e591921dd44","ios":"levelo://app?vid=3092f10d-600f-4294-bc1d-6e591921dd44"},"vehicle_type_id":"4","last_reported":1717517400,"current_range_meters":14000,"station_id":"ce4bgvp2rcd13ifvqct0","pricing_plan_id":"cebpf4jnsgd1na2vs0mg"},{"bike_id":"7a4e90ae-fc51-4908-a07a-5e63690a3e10","system_id":"levelo_inurba_marseille","lat":43.309371,"lon":5.401449,"is_reserved":false,"is_disabled":false,"rental_uris":{"android":"levelo://app?vid=7a4e90ae-fc51-4908-a07a-5e63690a3e10","ios":"levelo://app?vid=7a4e90ae-fc51-4908-a07a-5e63690a3e10"},"vehicle_type_id":"4","last_reported":1717517400,"current_range_meters":0,"station_id":"ce4bgvp2rcd13ifvqct0","pricing_plan_id":"cebpf4jnsgd1na2vs0mg"},{"bike_id":"f4a6424c-6b92-4d70-88a6-d27f42f96a1f","system_id":"levelo_inurba_marseille","lat":43.28727,"lon":5.36078,"is_reserved":false,"is_disabled":false,"rental_uris":{"android":"levelo://app?vid=f4a6424c-6b92-4d70-88a6-d27f42f96a1f","ios":"levelo://app?vid=f4a6424c-6b92-4d70-88a6-d27f42f96a1f"},"vehicle_type_id":"4","last_reported":1717517400,"current_range_meters":22400,"station_id":"cki0cbj6b192h4jlfktg","pricing_plan_id":"cebpf4jnsgd1na2vs0mg"},{"bike_id":"a9c9c991-fb7c-44b8-b698-75d4190c7e4f","system_id":"levelo_inurba_marseille","lat":43.312609,"lon":5.401662,"is_reserved":false,"is_disabled":false,"rental_uris":{"android":"levelo://app?vid=a9c9c991-fb7c-44b8-b698-75d4190c7e4f","ios":"levelo://app?vid=a9c9c991-fb7c-44b8-b698-75d4190c7e4f"},"vehicle_type_id":"4","last_reported":1717517400,"current_range_meters":10000,"station_id":"ce4bh092rcd13ifvqd30","pricing_plan_id":"cebpf4jnsgd1na2vs0mg"},{"bike_id":"26e88c15-1ebf-4978-814d-f8bc280f73dc","system_id":"levelo_inurba_marseille","lat":43.337446,"lon":5.37483,"is_reserved":false,"is_disabled":false,"rental_uris":{"android":"levelo://app?vid=26e88c15-1ebf-4978-814d-f8bc280f73dc","ios":"levelo://app?vid=26e88c15-1ebf-4978-814d-f8bc280f73dc"},"vehicle_type_id":"4","last_reported":1717517400,"current_range_meters":22800,"station_id":"","pricing_plan_id":"cebpf4jnsgd1na2vs0mg"},{"bike_id":"ed10c4e4-d3ba-48d3-9097-538e65a623f5","system_id":"levelo_inurba_marseille","lat":43.33758,"lon":5.37464,"is_reserved":false,"is_disabled":false,"rental_uris":{"android":"levelo://app?vid=ed10c4e4-d3ba-48d3-9097-538e65a623f5","ios":"levelo://app?vid=ed10c4e4-d3ba-48d3-9097-538e65a623f5"},"vehicle_type_id":"4","last_reported":1717517400,"current_range_meters":27600,"station_id":"","pricing_plan_id":"cebpf4jnsgd1na2vs0mg"},{"bike_id":"bda4c628-718c-4667-ad10-2f1ef30f1296","system_id":"levelo_inurba_marseille","lat":43.30642,"lon":5.401031,"is_reserved":false,"is_disabled":false,"rental_uris":{"android":"levelo://app?vid=bda4c628-718c-4667-ad10-2f1ef30f1296","ios":"levelo://app?vid=bda4c628-718c-4667-ad10-2f1ef30f1296"},"vehicle_type_id":"4","last_reported":1717517400,"current_range_meters":0,"station_id":"ce4bh112rcd13ifvqda0","pricing_plan_id":"cebpf4jnsgd1na2vs0mg"},{"bike_id":"add55eed-832a-4026-b428-ecbf1f1b8b33","system_id":"levelo_inurba_marseille","lat":43.28727,"lon":5.36078,"is_reserved":false,"is_disabled":false,"rental_uris":{"android":"levelo://app?vid=add55eed-832a-4026-b428-ecbf1f1b8b33","ios":"levelo://app?vid=add55eed-832a-4026-b428-ecbf1f1b8b33"},"vehicle_type_id":"4","last_reported":1717517400,"current_range_meters":15200,"station_id":"cki0cbj6b192h4jlfktg","pricing_plan_id":"cebpf4jnsgd1na2vs0mg"},{"bike_id":"94656701-0363-4d34-81d0-5fecec69e1f2","system_id":"levelo_inurba_marseille","lat":43.28727,"lon":5.36078,"is_reserved":false,"is_disabled":false,"rental_uris":{"android":"levelo://app?vid=94656701-0363-4d34-81d0-5fecec69e1f2","ios":"levelo://app?vid=94656701-0363-4d34-81d0-5fecec69e1f2"},"vehicle_type_id":"4","last_reported":1717517400,"current_range_meters":26400,"station_id":"cki0cbj6b192h4jlfktg","pricing_plan_id":"cebpf4jnsgd1na2vs0mg"},{"bike_id":"109e4d71-c0e0-4613-9949-c6bac39e665e","system_id":"levelo_inurba_marseille","lat":43.306412,"lon":5.401035,"is_reserved":false,"is_disabled":false,"rental_uris":{"android":"levelo://app?vid=109e4d71-c0e0-4613-9949-c6bac39e665e","ios":"levelo://app?vid=109e4d71-c0e0-4613-9949-c6bac39e665e"},"vehicle_type_id":"4","last_reported":1717517400,"current_range_meters":0,"station_id":"ce4bh112rcd13ifvqda0","pricing_plan_id":"cebpf4jnsgd1na2vs0mg"},{"bike_id":"d7161900-3e57-40ac-9489-598a570eea19","system_id":"levelo_inurba_marseille","lat":43.326605,"lon":5.409903,"is_reserved":false,"is_disabled":false,"rental_uris":{"android":"levelo://app?vid=d7161900-3e57-40ac-9489-598a570eea19","ios":"levelo://app?vid=d7161900-3e57-40ac-9489-598a570eea19"},"vehicle_type_id":"4","last_reported":1717517400,"current_range_meters":16000,"station_id":"ce4bhpp2rcd13ifvqhgg","pricing_plan_id":"cebpf4jnsgd1na2vs0mg"},{"bike_id":"9f71841f-1b32-4ad8-8efa-de572a657ccb","system_id":"levelo_inurba_marseille","lat":43.287192,"lon":5.37022,"is_reserved":false,"is_disabled":false,"rental_uris":{"android":"levelo://app?vid=9f71841f-1b32-4ad8-8efa-de572a657ccb","ios":"levelo://app?vid=9f71841f-1b32-4ad8-8efa-de572a657ccb"},"vehicle_type_id":"4","last_reported":1717517400,"current_range_meters":22800,"station_id":"ce4bht12rcd13ifvqi60","pricing_plan_id":"cebpf4jnsgd1na2vs0mg"},{"bike_id":"7508c35d-36c5-4e64-8e22-773495d1e509","system_id":"levelo_inurba_marseille","lat":43.28727,"lon":5.36078,"is_reserved":false,"is_disabled":false,"rental_uris":{"android":"levelo://app?vid=7508c35d-36c5-4e64-8e22-773495d1e509","ios":"levelo://app?vid=7508c35d-36c5-4e64-8e22-773495d1e509"},"vehicle_type_id":"4","last_reported":1717517400,"current_range_meters":18000,"station_id":"cki0cbj6b192h4jlfktg","pricing_plan_id":"cebpf4jnsgd1na2vs0mg"},{"bike_id":"478c0755-2fab-4b13-a482-62206f3b91bf","system_id":"levelo_inurba_marseille","lat":43.317104,"lon":5.436818,"is_reserved":false,"is_disabled":false,"rental_uris":{"android":"levelo://app?vid=478c0755-2fab-4b13-a482-62206f3b91bf","ios":"levelo://app?vid=478c0755-2fab-4b13-a482-62206f3b91bf"},"vehicle_type_id":"4","last_reported":1717517400,"current_range_meters":2000,"station_id":"ce4bhp92rcd13ifvqhcg","pricing_plan_id":"cebpf4jnsgd1na2vs0mg"},{"bike_id":"9964c764-8fd5-4349-8c5b-2e20a58cd10b","system_id":"levelo_inurba_marseille","lat":43.301032,"lon":5.399073,"is_reserved":false,"is_disabled":false,"rental_uris":{"android":"levelo://app?vid=9964c764-8fd5-4349-8c5b-2e20a58cd10b","ios":"levelo://app?vid=9964c764-8fd5-4349-8c5b-2e20a58cd10b"},"vehicle_type_id":"4","last_reported":1717517400,"current_range_meters":17600,"station_id":"ce4bh0h2rcd13ifvqd40","pricing_plan_id":"cebpf4jnsgd1na2vs0mg"},{"bike_id":"f9c776b4-6f6f-4c56-8164-08bfabb908cd","system_id":"levelo_inurba_marseille","lat":43.298681,"lon":5.397225,"is_reserved":false,"is_disabled":false,"rental_uris":{"android":"levelo://app?vid=f9c776b4-6f6f-4c56-8164-08bfabb908cd","ios":"levelo://app?vid=f9c776b4-6f6f-4c56-8164-08bfabb908cd"},"vehicle_type_id":"4","last_reported":1717517400,"current_range_meters":28000,"station_id":"ce4bh0h2rcd13ifvqd50","pricing_plan_id":"cebpf4jnsgd1na2vs0mg"},{"bike_id":"b68ac7fc-5654-4a4c-a725-48a11dd4f148","system_id":"levelo_inurba_marseille","lat":43.28703,"lon":5.37385,"is_reserved":false,"is_disabled":false,"rental_uris":{"android":"levelo://app?vid=b68ac7fc-5654-4a4c-a725-48a11dd4f148","ios":"levelo://app?vid=b68ac7fc-5654-4a4c-a725-48a11dd4f148"},"vehicle_type_id":"4","last_reported":1717517400,"current_range_meters":2000,"station_id":"ce4bh3p2rcd13ifvqdq0","pricing_plan_id":"cebpf4jnsgd1na2vs0mg"},{"bike_id":"16960724-28bf-4685-86f8-1751882e9aa2","system_id":"levelo_inurba_marseille","lat":43.298681,"lon":5.397225,"is_reserved":false,"is_disabled":false,"rental_uris":{"android":"levelo://app?vid=16960724-28bf-4685-86f8-1751882e9aa2","ios":"levelo://app?vid=16960724-28bf-4685-86f8-1751882e9aa2"},"vehicle_type_id":"4","last_reported":1717517400,"current_range_meters":4000,"station_id":"ce4bh0h2rcd13ifvqd50","pricing_plan_id":"cebpf4jnsgd1na2vs0mg"},{"bike_id":"d772c7f0-8649-4d4f-815d-bab409f134ca","system_id":"levelo_inurba_marseille","lat":43.298681,"lon":5.397225,"is_reserved":false,"is_disabled":false,"rental_uris":{"android":"levelo://app?vid=d772c7f0-8649-4d4f-815d-bab409f134ca","ios":"levelo://app?vid=d772c7f0-8649-4d4f-815d-bab409f134ca"},"vehicle_type_id":"4","last_reported":1717517400,"current_range_meters":28000,"station_id":"ce4bh0h2rcd13ifvqd50","pricing_plan_id":"cebpf4jnsgd1na2vs0mg"},{"bike_id":"bf6f9844-ef83-4f8e-84b7-bed606554633","system_id":"levelo_inurba_marseille","lat":43.286961,"lon":5.373785,"is_reserved":false,"is_disabled":false,"rental_uris":{"android":"levelo://app?vid=bf6f9844-ef83-4f8e-84b7-bed606554633","ios":"levelo://app?vid=bf6f9844-ef83-4f8e-84b7-bed606554633"},"vehicle_type_id":"4","last_reported":1717517400,"current_range_meters":13200,"station_id":"ce4bh3p2rcd13ifvqdq0","pricing_plan_id":"cebpf4jnsgd1na2vs0mg"},{"bike_id":"9d61e334-24e2-45a7-90c4-007bc16dc2cb","system_id":"levelo_inurba_marseille","lat":43.28702,"lon":5.3739,"is_reserved":false,"is_disabled":false,"rental_uris":{"android":"levelo://app?vid=9d61e334-24e2-45a7-90c4-007bc16dc2cb","ios":"levelo://app?vid=9d61e334-24e2-45a7-90c4-007bc16dc2cb"},"vehicle_type_id":"4","last_reported":1717517400,"current_range_meters":9200,"station_id":"ce4bh3p2rcd13ifvqdq0","pricing_plan_id":"cebpf4jnsgd1na2vs0mg"},{"bike_id":"2d76c403-de85-48e0-a325-ef9dec7549b8","system_id":"levelo_inurba_marseille","lat":43.298681,"lon":5.397225,"is_reserved":false,"is_disabled":false,"rental_uris":{"android":"levelo://app?vid=2d76c403-de85-48e0-a325-ef9dec7549b8","ios":"levelo://app?vid=2d76c403-de85-48e0-a325-ef9dec7549b8"},"vehicle_type_id":"4","last_reported":1717517400,"current_range_meters":14400,"station_id":"ce4bh0h2rcd13ifvqd50","pricing_plan_id":"cebpf4jnsgd1na2vs0mg"},{"bike_id":"3e0bf985-3a7e-4a2d-9468-0dde6a1d458c","system_id":"levelo_inurba_marseille","lat":43.290345,"lon":5.38646,"is_reserved":false,"is_disabled":false,"rental_uris":{"android":"levelo://app?vid=3e0bf985-3a7e-4a2d-9468-0dde6a1d458c","ios":"levelo://app?vid=3e0bf985-3a7e-4a2d-9468-0dde6a1d458c"},"vehicle_type_id":"4","last_reported":1717517400,"current_range_meters":26400,"station_id":"ce4bh4p2rcd13ifvqe0g","pricing_plan_id":"cebpf4jnsgd1na2vs0mg"},{"bike_id":"bb826db8-de57-42a9-b79b-14813ed8896c","system_id":"levelo_inurba_marseille","lat":43.28698,"lon":5.37388,"is_reserved":false,"is_disabled":false,"rental_uris":{"android":"levelo://app?vid=bb826db8-de57-42a9-b79b-14813ed8896c","ios":"levelo://app?vid=bb826db8-de57-42a9-b79b-14813ed8896c"},"vehicle_type_id":"4","last_reported":1717517400,"current_range_meters":0,"station_id":"ce4bh3p2rcd13ifvqdq0","pricing_plan_id":"cebpf4jnsgd1na2vs0mg"},{"bike_id":"5ab0a7db-32a3-4438-ad2b-2c3f6499443b","system_id":"levelo_inurba_marseille","lat":43.28695,"lon":5.37384,"is_reserved":false,"is_disabled":false,"rental_uris":{"android":"levelo://app?vid=5ab0a7db-32a3-4438-ad2b-2c3f6499443b","ios":"levelo://app?vid=5ab0a7db-32a3-4438-ad2b-2c3f6499443b"},"vehicle_type_id":"4","last_reported":1717517400,"current_range_meters":9200,"station_id":"ce4bh3p2rcd13ifvqdq0","pricing_plan_id":"cebpf4jnsgd1na2vs0mg"},{"bike_id":"928cef5c-80a4-4e07-b2c0-3d719ab3fd62","system_id":"levelo_inurba_marseille","lat":43.289307,"lon":5.38406,"is_reserved":false,"is_disabled":false,"rental_uris":{"android":"levelo://app?vid=928cef5c-80a4-4e07-b2c0-3d719ab3fd62","ios":"levelo://app?vid=928cef5c-80a4-4e07-b2c0-3d719ab3fd62"},"vehicle_type_id":"4","last_reported":1717517400,"current_range_meters":0,"station_id":"ce4bh612rcd13ifvqe6g","pricing_plan_id":"cebpf4jnsgd1na2vs0mg"},{"bike_id":"8d33641f-4f76-4519-a741-bcb72432af9a","system_id":"levelo_inurba_marseille","lat":43.300949,"lon":5.399534,"is_reserved":false,"is_disabled":false,"rental_uris":{"android":"levelo://app?vid=8d33641f-4f76-4519-a741-bcb72432af9a","ios":"levelo://app?vid=8d33641f-4f76-4519-a741-bcb72432af9a"},"vehicle_type_id":"4","last_reported":1717517400,"current_range_meters":0,"station_id":"ce4bh0h2rcd13ifvqd40","pricing_plan_id":"cebpf4jnsgd1na2vs0mg"},{"bike_id":"8ddd8160-13cc-4c83-be80-5f488d0d9e5e","system_id":"levelo_inurba_marseille","lat":43.290345,"lon":5.38646,"is_reserved":false,"is_disabled":false,"rental_uris":{"android":"levelo://app?vid=8ddd8160-13cc-4c83-be80-5f488d0d9e5e","ios":"levelo://app?vid=8ddd8160-13cc-4c83-be80-5f488d0d9e5e"},"vehicle_type_id":"4","last_reported":1717517400,"current_range_meters":31200,"station_id":"ce4bh4p2rcd13ifvqe0g","pricing_plan_id":"cebpf4jnsgd1na2vs0mg"},{"bike_id":"d2bc7b77-578e-4637-830b-03dd891af930","system_id":"levelo_inurba_marseille","lat":43.289307,"lon":5.38406,"is_reserved":false,"is_disabled":false,"rental_uris":{"android":"levelo://app?vid=d2bc7b77-578e-4637-830b-03dd891af930","ios":"levelo://app?vid=d2bc7b77-578e-4637-830b-03dd891af930"},"vehicle_type_id":"4","last_reported":1717517400,"current_range_meters":400,"station_id":"ce4bh612rcd13ifvqe6g","pricing_plan_id":"cebpf4jnsgd1na2vs0mg"},{"bike_id":"e8e7b140-03ad-4e29-9669-4b7da29f84b7","system_id":"levelo_inurba_marseille","lat":43.29035,"lon":5.38655,"is_reserved":false,"is_disabled":false,"rental_uris":{"android":"levelo://app?vid=e8e7b140-03ad-4e29-9669-4b7da29f84b7","ios":"levelo://app?vid=e8e7b140-03ad-4e29-9669-4b7da29f84b7"},"vehicle_type_id":"4","last_reported":1717517400,"current_range_meters":2400,"station_id":"ce4bh4p2rcd13ifvqe0g","pricing_plan_id":"cebpf4jnsgd1na2vs0mg"},{"bike_id":"df34120b-15bc-489d-9ce5-36ecc5577c93","system_id":"levelo_inurba_marseille","lat":43.290277,"lon":5.386422,"is_reserved":false,"is_disabled":false,"rental_uris":{"android":"levelo://app?vid=df34120b-15bc-489d-9ce5-36ecc5577c93","ios":"levelo://app?vid=df34120b-15bc-489d-9ce5-36ecc5577c93"},"vehicle_type_id":"4","last_reported":1717517400,"current_range_meters":7200,"station_id":"ce4bh4p2rcd13ifvqe0g","pricing_plan_id":"cebpf4jnsgd1na2vs0mg"},{"bike_id":"0fc5695e-7611-4726-a9fd-1901903c27ca","system_id":"levelo_inurba_marseille","lat":43.29029,"lon":5.38646,"is_reserved":false,"is_disabled":false,"rental_uris":{"android":"levelo://app?vid=0fc5695e-7611-4726-a9fd-1901903c27ca","ios":"levelo://app?vid=0fc5695e-7611-4726-a9fd-1901903c27ca"},"vehicle_type_id":"4","last_reported":1717517400,"current_range_meters":2400,"station_id":"ce4bh4p2rcd13ifvqe0g","pricing_plan_id":"cebpf4jnsgd1na2vs0mg"},{"bike_id":"e2937116-7f9e-487a-abc6-d95cf8e0cd05","system_id":"levelo_inurba_marseille","lat":43.290286,"lon":5.386458,"is_reserved":false,"is_disabled":false,"rental_uris":{"android":"levelo://app?vid=e2937116-7f9e-487a-abc6-d95cf8e0cd05","ios":"levelo://app?vid=e2937116-7f9e-487a-abc6-d95cf8e0cd05"},"vehicle_type_id":"4","last_reported":1717517400,"current_range_meters":3200,"station_id":"ce4bh4p2rcd13ifvqe0g","pricing_plan_id":"cebpf4jnsgd1na2vs0mg"},{"bike_id":"8318623b-8f56-4d58-9a95-6b48edd26679","system_id":"levelo_inurba_marseille","lat":43.290271,"lon":5.386471,"is_reserved":false,"is_disabled":false,"rental_uris":{"android":"levelo://app?vid=8318623b-8f56-4d58-9a95-6b48edd26679","ios":"levelo://app?vid=8318623b-8f56-4d58-9a95-6b48edd26679"},"vehicle_type_id":"4","last_reported":1717517400,"current_range_meters":16800,"station_id":"ce4bh4p2rcd13ifvqe0g","pricing_plan_id":"cebpf4jnsgd1na2vs0mg"},{"bike_id":"f44ae9c0-0b82-4f27-afdd-e7f6584c1811","system_id":"levelo_inurba_marseille","lat":43.302759,"lon":5.400793,"is_reserved":false,"is_disabled":false,"rental_uris":{"android":"levelo://app?vid=f44ae9c0-0b82-4f27-afdd-e7f6584c1811","ios":"levelo://app?vid=f44ae9c0-0b82-4f27-afdd-e7f6584c1811"},"vehicle_type_id":"4","last_reported":1717517400,"current_range_meters":18800,"station_id":"ce4bgvh2rcd13ifvqcs0","pricing_plan_id":"cebpf4jnsgd1na2vs0mg"},{"bike_id":"7e2dfc3e-aa6c-4501-8f8e-d2bc0eff8021","system_id":"levelo_inurba_marseille","lat":43.289307,"lon":5.38406,"is_reserved":false,"is_disabled":false,"rental_uris":{"android":"levelo://app?vid=7e2dfc3e-aa6c-4501-8f8e-d2bc0eff8021","ios":"levelo://app?vid=7e2dfc3e-aa6c-4501-8f8e-d2bc0eff8021"},"vehicle_type_id":"4","last_reported":1717517400,"current_range_meters":2000,"station_id":"ce4bh612rcd13ifvqe6g","pricing_plan_id":"cebpf4jnsgd1na2vs0mg"},{"bike_id":"fd25c0af-d77b-4c14-919a-d51e9c92deb8","system_id":"levelo_inurba_marseille","lat":43.29027,"lon":5.3865,"is_reserved":false,"is_disabled":false,"rental_uris":{"android":"levelo://app?vid=fd25c0af-d77b-4c14-919a-d51e9c92deb8","ios":"levelo://app?vid=fd25c0af-d77b-4c14-919a-d51e9c92deb8"},"vehicle_type_id":"4","last_reported":1717517400,"current_range_meters":30000,"station_id":"ce4bh4p2rcd13ifvqe0g","pricing_plan_id":"cebpf4jnsgd1na2vs0mg"},{"bike_id":"00fcc281-2bd4-442d-8742-83e5f0d344dc","system_id":"levelo_inurba_marseille","lat":43.302759,"lon":5.400793,"is_reserved":false,"is_disabled":false,"rental_uris":{"android":"levelo://app?vid=00fcc281-2bd4-442d-8742-83e5f0d344dc","ios":"levelo://app?vid=00fcc281-2bd4-442d-8742-83e5f0d344dc"},"vehicle_type_id":"4","last_reported":1717517400,"current_range_meters":400,"station_id":"ce4bgvh2rcd13ifvqcs0","pricing_plan_id":"cebpf4jnsgd1na2vs0mg"},{"bike_id":"66b403f4-bbac-4138-8247-e487eacca8d7","system_id":"levelo_inurba_marseille","lat":43.302759,"lon":5.400793,"is_reserved":false,"is_disabled":false,"rental_uris":{"android":"levelo://app?vid=66b403f4-bbac-4138-8247-e487eacca8d7","ios":"levelo://app?vid=66b403f4-bbac-4138-8247-e487eacca8d7"},"vehicle_type_id":"4","last_reported":1717517400,"current_range_meters":1600,"station_id":"ce4bgvh2rcd13ifvqcs0","pricing_plan_id":"cebpf4jnsgd1na2vs0mg"},{"bike_id":"317b891a-f814-486a-921f-31718ed46c0f","system_id":"levelo_inurba_marseille","lat":43.286147,"lon":5.37059,"is_reserved":false,"is_disabled":false,"rental_uris":{"android":"levelo://app?vid=317b891a-f814-486a-921f-31718ed46c0f","ios":"levelo://app?vid=317b891a-f814-486a-921f-31718ed46c0f"},"vehicle_type_id":"4","last_reported":1717517400,"current_range_meters":18800,"station_id":"ce4bht12rcd13ifvqi60","pricing_plan_id":"cebpf4jnsgd1na2vs0mg"},{"bike_id":"4fd4dba8-1627-40fe-9e5e-a6567ec40b7f","system_id":"levelo_inurba_marseille","lat":43.28615,"lon":5.37066,"is_reserved":false,"is_disabled":false,"rental_uris":{"android":"levelo://app?vid=4fd4dba8-1627-40fe-9e5e-a6567ec40b7f","ios":"levelo://app?vid=4fd4dba8-1627-40fe-9e5e-a6567ec40b7f"},"vehicle_type_id":"4","last_reported":1717517400,"current_range_meters":30400,"station_id":"ce4bht12rcd13ifvqi60","pricing_plan_id":"cebpf4jnsgd1na2vs0mg"},{"bike_id":"91c4ce60-de74-43a9-ac88-fc0588db7565","system_id":"levelo_inurba_marseille","lat":43.28614,"lon":5.37069,"is_reserved":false,"is_disabled":false,"rental_uris":{"android":"levelo://app?vid=91c4ce60-de74-43a9-ac88-fc0588db7565","ios":"levelo://app?vid=91c4ce60-de74-43a9-ac88-fc0588db7565"},"vehicle_type_id":"4","last_reported":1717517400,"current_range_meters":30800,"station_id":"ce4bht12rcd13ifvqi60","pricing_plan_id":"cebpf4jnsgd1na2vs0mg"},{"bike_id":"a9466b26-03b2-465e-af2a-3ebe25341322","system_id":"levelo_inurba_marseille","lat":43.28612,"lon":5.37058,"is_reserved":false,"is_disabled":false,"rental_uris":{"android":"levelo://app?vid=a9466b26-03b2-465e-af2a-3ebe25341322","ios":"levelo://app?vid=a9466b26-03b2-465e-af2a-3ebe25341322"},"vehicle_type_id":"4","last_reported":1717517400,"current_range_meters":30400,"station_id":"ce4bht12rcd13ifvqi60","pricing_plan_id":"cebpf4jnsgd1na2vs0mg"},{"bike_id":"6029e254-20fc-49b2-ab77-47f9b78d39f9","system_id":"levelo_inurba_marseille","lat":43.295194,"lon":5.39397,"is_reserved":false,"is_disabled":false,"rental_uris":{"android":"levelo://app?vid=6029e254-20fc-49b2-ab77-47f9b78d39f9","ios":"levelo://app?vid=6029e254-20fc-49b2-ab77-47f9b78d39f9"},"vehicle_type_id":"4","last_reported":1717517400,"current_range_meters":7600,"station_id":"ce4bh292rcd13ifvqdf0","pricing_plan_id":"cebpf4jnsgd1na2vs0mg"},{"bike_id":"08883ee6-9a78-4c23-a9f7-fe3b8ebbbc09","system_id":"levelo_inurba_marseille","lat":43.287185,"lon":5.379373,"is_reserved":false,"is_disabled":false,"rental_uris":{"android":"levelo://app?vid=08883ee6-9a78-4c23-a9f7-fe3b8ebbbc09","ios":"levelo://app?vid=08883ee6-9a78-4c23-a9f7-fe3b8ebbbc09"},"vehicle_type_id":"4","last_reported":1717517400,"current_range_meters":21600,"station_id":"ce4bh9p2rcd13ifvqec0","pricing_plan_id":"cebpf4jnsgd1na2vs0mg"},{"bike_id":"086c3c11-6bf1-4f75-afbf-38bacc47ef42","system_id":"levelo_inurba_marseille","lat":43.287185,"lon":5.379373,"is_reserved":false,"is_disabled":false,"rental_uris":{"android":"levelo://app?vid=086c3c11-6bf1-4f75-afbf-38bacc47ef42","ios":"levelo://app?vid=086c3c11-6bf1-4f75-afbf-38bacc47ef42"},"vehicle_type_id":"4","last_reported":1717517400,"current_range_meters":4400,"station_id":"ce4bh9p2rcd13ifvqec0","pricing_plan_id":"cebpf4jnsgd1na2vs0mg"},{"bike_id":"78685770-5957-48be-b663-d028ac1e0d8b","system_id":"levelo_inurba_marseille","lat":43.286087,"lon":5.35939,"is_reserved":false,"is_disabled":false,"rental_uris":{"android":"levelo://app?vid=78685770-5957-48be-b663-d028ac1e0d8b","ios":"levelo://app?vid=78685770-5957-48be-b663-d028ac1e0d8b"},"vehicle_type_id":"4","last_reported":1717517400,"current_range_meters":16400,"station_id":"","pricing_plan_id":"cebpf4jnsgd1na2vs0mg"},{"bike_id":"64b5d888-6428-4ed3-ad1a-77a660aca0cb","system_id":"levelo_inurba_marseille","lat":43.275625,"lon":5.384392,"is_reserved":false,"is_disabled":false,"rental_uris":{"android":"levelo://app?vid=64b5d888-6428-4ed3-ad1a-77a660aca0cb","ios":"levelo://app?vid=64b5d888-6428-4ed3-ad1a-77a660aca0cb"},"vehicle_type_id":"4","last_reported":1717517400,"current_range_meters":24400,"station_id":"ce4bhh92rcd13ifvqfi0","pricing_plan_id":"cebpf4jnsgd1na2vs0mg"},{"bike_id":"066d22cd-58d8-47ea-87e4-0a166750d36b","system_id":"levelo_inurba_marseille","lat":43.289307,"lon":5.38406,"is_reserved":false,"is_disabled":false,"rental_uris":{"android":"levelo://app?vid=066d22cd-58d8-47ea-87e4-0a166750d36b","ios":"levelo://app?vid=066d22cd-58d8-47ea-87e4-0a166750d36b"},"vehicle_type_id":"4","last_reported":1717517400,"current_range_meters":28800,"station_id":"ce4bh612rcd13ifvqe6g","pricing_plan_id":"cebpf4jnsgd1na2vs0mg"},{"bike_id":"4cd1330a-0938-402e-b9be-7c20a9854b2b","system_id":"levelo_inurba_marseille","lat":43.312609,"lon":5.401662,"is_reserved":false,"is_disabled":false,"rental_uris":{"android":"levelo://app?vid=4cd1330a-0938-402e-b9be-7c20a9854b2b","ios":"levelo://app?vid=4cd1330a-0938-402e-b9be-7c20a9854b2b"},"vehicle_type_id":"4","last_reported":1717517400,"current_range_meters":0,"station_id":"ce4bh092rcd13ifvqd30","pricing_plan_id":"cebpf4jnsgd1na2vs0mg"},{"bike_id":"e8237c5a-3f79-498e-94e9-68458c73a953","system_id":"levelo_inurba_marseille","lat":43.284534,"lon":5.358662,"is_reserved":false,"is_disabled":false,"rental_uris":{"android":"levelo://app?vid=e8237c5a-3f79-498e-94e9-68458c73a953","ios":"levelo://app?vid=e8237c5a-3f79-498e-94e9-68458c73a953"},"vehicle_type_id":"4","last_reported":1717517400,"current_range_meters":16400,"station_id":"ce4bhah2rcd13ifvqei0","pricing_plan_id":"cebpf4jnsgd1na2vs0mg"},{"bike_id":"4765c990-6b1e-428e-9d0f-38e803fb6aaa","system_id":"levelo_inurba_marseille","lat":43.291994,"lon":5.392907,"is_reserved":false,"is_disabled":false,"rental_uris":{"android":"levelo://app?vid=4765c990-6b1e-428e-9d0f-38e803fb6aaa","ios":"levelo://app?vid=4765c990-6b1e-428e-9d0f-38e803fb6aaa"},"vehicle_type_id":"4","last_reported":1717517400,"current_range_meters":6400,"station_id":"ce4bh192rcd13ifvqdd0","pricing_plan_id":"cebpf4jnsgd1na2vs0mg"},{"bike_id":"48abf619-3208-4e96-ae50-f08b49c9c070","system_id":"levelo_inurba_marseille","lat":43.284534,"lon":5.358662,"is_reserved":false,"is_disabled":false,"rental_uris":{"android":"levelo://app?vid=48abf619-3208-4e96-ae50-f08b49c9c070","ios":"levelo://app?vid=48abf619-3208-4e96-ae50-f08b49c9c070"},"vehicle_type_id":"4","last_reported":1717517400,"current_range_meters":6000,"station_id":"ce4bhah2rcd13ifvqei0","pricing_plan_id":"cebpf4jnsgd1na2vs0mg"},{"bike_id":"e1c0c584-9181-4861-8ad9-11206770b94f","system_id":"levelo_inurba_marseille","lat":43.28856,"lon":5.358371,"is_reserved":false,"is_disabled":false,"rental_uris":{"android":"levelo://app?vid=e1c0c584-9181-4861-8ad9-11206770b94f","ios":"levelo://app?vid=e1c0c584-9181-4861-8ad9-11206770b94f"},"vehicle_type_id":"4","last_reported":1717517400,"current_range_meters":27600,"station_id":"ce4bhb12rcd13ifvqem0","pricing_plan_id":"cebpf4jnsgd1na2vs0mg"},{"bike_id":"121df1dc-aadf-4b97-944e-a28ebfb46a43","system_id":"levelo_inurba_marseille","lat":43.284538,"lon":5.358657,"is_reserved":false,"is_disabled":false,"rental_uris":{"android":"levelo://app?vid=121df1dc-aadf-4b97-944e-a28ebfb46a43","ios":"levelo://app?vid=121df1dc-aadf-4b97-944e-a28ebfb46a43"},"vehicle_type_id":"4","last_reported":1717517400,"current_range_meters":1200,"station_id":"ce4bhah2rcd13ifvqei0","pricing_plan_id":"cebpf4jnsgd1na2vs0mg"},{"bike_id":"b61cd810-ac3d-4354-810b-804304315258","system_id":"levelo_inurba_marseille","lat":43.284538,"lon":5.358657,"is_reserved":false,"is_disabled":false,"rental_uris":{"android":"levelo://app?vid=b61cd810-ac3d-4354-810b-804304315258","ios":"levelo://app?vid=b61cd810-ac3d-4354-810b-804304315258"},"vehicle_type_id":"4","last_reported":1717517400,"current_range_meters":8400,"station_id":"ce4bhah2rcd13ifvqei0","pricing_plan_id":"cebpf4jnsgd1na2vs0mg"},{"bike_id":"af5c3532-4b91-4a71-bff8-555d0ba52bb0","system_id":"levelo_inurba_marseille","lat":43.284538,"lon":5.358657,"is_reserved":false,"is_disabled":false,"rental_uris":{"android":"levelo://app?vid=af5c3532-4b91-4a71-bff8-555d0ba52bb0","ios":"levelo://app?vid=af5c3532-4b91-4a71-bff8-555d0ba52bb0"},"vehicle_type_id":"4","last_reported":1717517400,"current_range_meters":13200,"station_id":"ce4bhah2rcd13ifvqei0","pricing_plan_id":"cebpf4jnsgd1na2vs0mg"},{"bike_id":"b21de323-4d0a-42a4-a9aa-25e90e10e8e7","system_id":"levelo_inurba_marseille","lat":43.284538,"lon":5.358657,"is_reserved":false,"is_disabled":false,"rental_uris":{"android":"levelo://app?vid=b21de323-4d0a-42a4-a9aa-25e90e10e8e7","ios":"levelo://app?vid=b21de323-4d0a-42a4-a9aa-25e90e10e8e7"},"vehicle_type_id":"4","last_reported":1717517400,"current_range_meters":18000,"station_id":"ce4bhah2rcd13ifvqei0","pricing_plan_id":"cebpf4jnsgd1na2vs0mg"},{"bike_id":"66a872fa-e2e9-4346-bb2f-29a9799ce8c7","system_id":"levelo_inurba_marseille","lat":43.284538,"lon":5.358657,"is_reserved":false,"is_disabled":false,"rental_uris":{"android":"levelo://app?vid=66a872fa-e2e9-4346-bb2f-29a9799ce8c7","ios":"levelo://app?vid=66a872fa-e2e9-4346-bb2f-29a9799ce8c7"},"vehicle_type_id":"4","last_reported":1717517400,"current_range_meters":31600,"station_id":"ce4bhah2rcd13ifvqei0","pricing_plan_id":"cebpf4jnsgd1na2vs0mg"},{"bike_id":"5a98b3c3-7472-4bf6-8030-c4dffdefa9e1","system_id":"levelo_inurba_marseille","lat":43.284534,"lon":5.358662,"is_reserved":false,"is_disabled":false,"rental_uris":{"android":"levelo://app?vid=5a98b3c3-7472-4bf6-8030-c4dffdefa9e1","ios":"levelo://app?vid=5a98b3c3-7472-4bf6-8030-c4dffdefa9e1"},"vehicle_type_id":"4","last_reported":1717517400,"current_range_meters":0,"station_id":"ce4bhah2rcd13ifvqei0","pricing_plan_id":"cebpf4jnsgd1na2vs0mg"},{"bike_id":"5f4d004b-6994-47b9-88b2-b8f8fbdcc032","system_id":"levelo_inurba_marseille","lat":43.284534,"lon":5.358662,"is_reserved":false,"is_disabled":false,"rental_uris":{"android":"levelo://app?vid=5f4d004b-6994-47b9-88b2-b8f8fbdcc032","ios":"levelo://app?vid=5f4d004b-6994-47b9-88b2-b8f8fbdcc032"},"vehicle_type_id":"4","last_reported":1717517400,"current_range_meters":12000,"station_id":"ce4bhah2rcd13ifvqei0","pricing_plan_id":"cebpf4jnsgd1na2vs0mg"},{"bike_id":"a85bcb5c-4e0e-4c43-bf8f-4008f1c59ea6","system_id":"levelo_inurba_marseille","lat":43.284534,"lon":5.358662,"is_reserved":false,"is_disabled":false,"rental_uris":{"android":"levelo://app?vid=a85bcb5c-4e0e-4c43-bf8f-4008f1c59ea6","ios":"levelo://app?vid=a85bcb5c-4e0e-4c43-bf8f-4008f1c59ea6"},"vehicle_type_id":"4","last_reported":1717517400,"current_range_meters":19600,"station_id":"ce4bhah2rcd13ifvqei0","pricing_plan_id":"cebpf4jnsgd1na2vs0mg"},{"bike_id":"068ddbd9-15bd-4baf-aea7-1873da6a3e84","system_id":"levelo_inurba_marseille","lat":43.284534,"lon":5.358662,"is_reserved":false,"is_disabled":false,"rental_uris":{"android":"levelo://app?vid=068ddbd9-15bd-4baf-aea7-1873da6a3e84","ios":"levelo://app?vid=068ddbd9-15bd-4baf-aea7-1873da6a3e84"},"vehicle_type_id":"4","last_reported":1717517400,"current_range_meters":14800,"station_id":"ce4bhah2rcd13ifvqei0","pricing_plan_id":"cebpf4jnsgd1na2vs0mg"},{"bike_id":"fafb6da7-1486-46b8-8c73-ad1de5006879","system_id":"levelo_inurba_marseille","lat":43.284538,"lon":5.358657,"is_reserved":false,"is_disabled":false,"rental_uris":{"android":"levelo://app?vid=fafb6da7-1486-46b8-8c73-ad1de5006879","ios":"levelo://app?vid=fafb6da7-1486-46b8-8c73-ad1de5006879"},"vehicle_type_id":"4","last_reported":1717517400,"current_range_meters":9200,"station_id":"ce4bhah2rcd13ifvqei0","pricing_plan_id":"cebpf4jnsgd1na2vs0mg"},{"bike_id":"f65860fe-2d7f-40e1-b0b9-6da506ab2dd2","system_id":"levelo_inurba_marseille","lat":43.284538,"lon":5.358657,"is_reserved":false,"is_disabled":false,"rental_uris":{"android":"levelo://app?vid=f65860fe-2d7f-40e1-b0b9-6da506ab2dd2","ios":"levelo://app?vid=f65860fe-2d7f-40e1-b0b9-6da506ab2dd2"},"vehicle_type_id":"4","last_reported":1717517400,"current_range_meters":15600,"station_id":"ce4bhah2rcd13ifvqei0","pricing_plan_id":"cebpf4jnsgd1na2vs0mg"},{"bike_id":"17fe2530-b1c4-40d3-8961-95baf784366e","system_id":"levelo_inurba_marseille","lat":43.284538,"lon":5.358657,"is_reserved":false,"is_disabled":false,"rental_uris":{"android":"levelo://app?vid=17fe2530-b1c4-40d3-8961-95baf784366e","ios":"levelo://app?vid=17fe2530-b1c4-40d3-8961-95baf784366e"},"vehicle_type_id":"4","last_reported":1717517400,"current_range_meters":0,"station_id":"ce4bhah2rcd13ifvqei0","pricing_plan_id":"cebpf4jnsgd1na2vs0mg"},{"bike_id":"ad14ee65-a61d-42d3-bcb1-0a23137d8d9d","system_id":"levelo_inurba_marseille","lat":43.294314,"lon":5.397498,"is_reserved":false,"is_disabled":false,"rental_uris":{"android":"levelo://app?vid=ad14ee65-a61d-42d3-bcb1-0a23137d8d9d","ios":"levelo://app?vid=ad14ee65-a61d-42d3-bcb1-0a23137d8d9d"},"vehicle_type_id":"4","last_reported":1717517400,"current_range_meters":28000,"station_id":"ce4bh3h2rcd13ifvqdo0","pricing_plan_id":"cebpf4jnsgd1na2vs0mg"},{"bike_id":"08829b8f-9b13-4b40-91c9-f7e16f0dc9b1","system_id":"levelo_inurba_marseille","lat":43.294314,"lon":5.397498,"is_reserved":false,"is_disabled":false,"rental_uris":{"android":"levelo://app?vid=08829b8f-9b13-4b40-91c9-f7e16f0dc9b1","ios":"levelo://app?vid=08829b8f-9b13-4b40-91c9-f7e16f0dc9b1"},"vehicle_type_id":"4","last_reported":1717517400,"current_range_meters":5600,"station_id":"ce4bh3h2rcd13ifvqdo0","pricing_plan_id":"cebpf4jnsgd1na2vs0mg"},{"bike_id":"8039d15b-d714-4262-8871-58a05d2a8329","system_id":"levelo_inurba_marseille","lat":43.284557,"lon":5.358755,"is_reserved":false,"is_disabled":false,"rental_uris":{"android":"levelo://app?vid=8039d15b-d714-4262-8871-58a05d2a8329","ios":"levelo://app?vid=8039d15b-d714-4262-8871-58a05d2a8329"},"vehicle_type_id":"4","last_reported":1717517400,"current_range_meters":800,"station_id":"ce4bhah2rcd13ifvqei0","pricing_plan_id":"cebpf4jnsgd1na2vs0mg"},{"bike_id":"85ba3262-13d3-42cb-9169-0d3f0b61e456","system_id":"levelo_inurba_marseille","lat":43.284538,"lon":5.358657,"is_reserved":false,"is_disabled":false,"rental_uris":{"android":"levelo://app?vid=85ba3262-13d3-42cb-9169-0d3f0b61e456","ios":"levelo://app?vid=85ba3262-13d3-42cb-9169-0d3f0b61e456"},