{"last_updated":1756249756,"ttl":60,"version":"2.2","data":{"bikes":[{"bike_id":"932266f1-6d81-484b-bfc3-906276f16aea","system_id":"levelo_inurba_marseille","lat":43.33052,"lon":5.38769,"is_reserved":false,"is_disabled":false,"rental_uris":{"android":"levelo://app?vid=932266f1-6d81-484b-bfc3-906276f16aea","ios":"levelo://app?vid=932266f1-6d81-484b-bfc3-906276f16aea"},"vehicle_type_id":"4","last_reported":1756249756,"current_range_meters":2800,"station_id":"","pricing_plan_id":"cebpf4jnsgd1na2vs0mg"},{"bike_id":"5cdf50db-5883-4898-8c10-83e428266d71","system_id":"levelo_inurba_marseille","lat":43.30416,"lon":5.41286,"is_reserved":false,"is_disabled":false,"rental_uris":{"android":"levelo://app?vid=5cdf50db-5883-4898-8c10-83e428266d71","ios":"levelo://app?vid=5cdf50db-5883-4898-8c10-83e428266d71"},"vehicle_type_id":"4","last_reported":1756249756,"current_range_meters":2800,"station_id":"ce4bhop2rcd13ifvqh8g","pricing_plan_id":"cebpf4jnsgd1na2vs0mg"},{"bike_id":"dff2fd5e-e41a-4b82-a882-15e8da47df31","system_id":"levelo_inurba_marseille","lat":43.30939,"lon":5.37921,"is_reserved":false,"is_disabled":false,"rental_uris":{"android":"levelo://app?vid=dff2fd5e-e41a-4b82-a882-15e8da47df31","ios":"levelo://app?vid=dff2fd5e-e41a-4b82-a882-15e8da47df31"},"vehicle_type_id":"4","last_reported":1756249756,"current_range_meters":2800,"station_id":"","pricing_plan_id":"cebpf4jnsgd1na2vs0mg"},{"bike_id":"c4ccc10f-8ccd-44be-a00a-f6ebdc6ec159","system_id":"levelo_inurba_marseille","lat":43.304058,"lon":5.43443,"is_reserved":false,"is_disabled":false,"rental_uris":{"android":"levelo://app?vid=c4ccc10f-8ccd-44be-a00a-f6ebdc6ec159","ios":"levelo://app?vid=c4ccc10f-8ccd-44be-a00a-f6ebdc6ec159"},"vehicle_type_id":"4","last_reported":1756249756,"current_range_meters":3200,"station_id":"","pricing_plan_id":"cebpf4jnsgd1na2vs0mg"},{"bike_id":"b7ae4788-799a-4b16-872e-25f91660ad43","system_id":"levelo_inurba_marseille","lat":43.28079,"lon":5.39667,"is_reserved":false,"is_disabled":false,"rental_uris":{"android":"levelo://app?vid=b7ae4788-799a-4b16-872e-25f91660ad43","ios":"levelo://app?vid=b7ae4788-799a-4b16-872e-25f91660ad43"},"vehicle_type_id":"4","last_reported":1756249756,"current_range_meters":3200,"station_id":"ce4bho12rcd13ifvqh2g","pricing_plan_id":"cebpf4jnsgd1na2vs0mg"},{"bike_id":"fb0ecd7c-2c0f-42f1-9e73-9448c9893367","system_id":"levelo_inurba_marseille","lat":43.26475,"lon":5.37036,"is_reserved":false,"is_disabled":false,"rental_uris":{"android":"levelo://app?vid=fb0ecd7c-2c0f-42f1-9e73-9448c9893367","ios":"levelo://app?vid=fb0ecd7c-2c0f-42f1-9e73-9448c9893367"},"vehicle_type_id":"4","last_reported":1756249756,"current_range_meters":3200,"station_id":"","pricing_plan_id":"cebpf4jnsgd1na2vs0mg"},{"bike_id":"de061c93-84a6-4995-85e2-4e51d88fce9b","system_id":"levelo_inurba_marseille","lat":43.32,"lon":5.38162,"is_reserved":false,"is_disabled":false,"rental_uris":{"android":"levelo://app?vid=de061c93-84a6-4995-85e2-4e51d88fce9b","ios":"levelo://app?vid=de061c93-84a6-4995-85e2-4e51d88fce9b"},"vehicle_type_id":"4","last_reported":1756249756,"current_range_meters":3600,"station_id":"ce4bhr12rcd13ifvqhpg","pricing_plan_id":"cebpf4jnsgd1na2vs0mg"},{"bike_id":"0a9e3777-f07f-4c43-868d-4cb38bccdca6","system_id":"levelo_inurba_marseille","lat":43.30134,"lon":5.39879,"is_reserved":false,"is_disabled":false,"rental_uris":{"android":"levelo://app?vid=0a9e3777-f07f-4c43-868d-4cb38bccdca6","ios":"levelo://app?vid=0a9e3777-f07f-4c43-868d-4cb38bccdca6"},"vehicle_type_id":"4","last_reported":1756249756,"current_range_meters":3600,"station_id":"ce4bh0h2rcd13ifvqd40","pricing_plan_id":"cebpf4jnsgd1na2vs0mg"},{"bike_id":"a0910228-eb81-44db-ae1b-0bb7bea7b3ea","system_id":"levelo_inurba_marseille","lat":43.28614,"lon":5.35101,"is_reserved":false,"is_disabled":false,"rental_uris":{"android":"levelo://app?vid=a0910228-eb81-44db-ae1b-0bb7bea7b3ea","ios":"levelo://app?vid=a0910228-eb81-44db-ae1b-0bb7bea7b3ea"},"vehicle_type_id":"4","last_reported":1756249756,"current_range_meters":3600,"station_id":"ce4bhch2rcd13ifvqeug","pricing_plan_id":"cebpf4jnsgd1na2vs0mg"},{"bike_id":"8b886799-f46e-4dd1-83ca-247357fc553d","system_id":"levelo_inurba_marseille","lat":43.30685,"lon":5.40088,"is_reserved":false,"is_disabled":false,"rental_uris":{"android":"levelo://app?vid=8b886799-f46e-4dd1-83ca-247357fc553d","ios":"levelo://app?vid=8b886799-f46e-4dd1-83ca-247357fc553d"},"vehicle_type_id":"4","last_reported":1756249756,"current_range_meters":4400,"station_id":"ce4bh112rcd13ifvqda0","pricing_plan_id":"cebpf4jnsgd1na2vs0mg"},{"bike_id":"69dea794-ff41-4ff0-9312-973f237cfcb2","system_id":"levelo_inurba_marseille","lat":43.21188,"lon":5.35082,"is_reserved":false,"is_disabled":false,"rental_uris":{"android":"levelo://app?vid=69dea794-ff41-4ff0-9312-973f237cfcb2","ios":"levelo://app?vid=69dea794-ff41-4ff0-9312-973f237cfcb2"},"vehicle_type_id":"4","last_reported":1756249756,"current_range_meters":4400,"station_id":"","pricing_plan_id":"cebpf4jnsgd1na2vs0mg"},{"bike_id":"79f76a60-8d54-484a-84fc-432347824946","system_id":"levelo_inurba_marseille","lat":43.30944,"lon":5.40151,"is_reserved":false,"is_disabled":false,"rental_uris":{"android":"levelo://app?vid=79f76a60-8d54-484a-84fc-432347824946","ios":"levelo://app?vid=79f76a60-8d54-484a-84fc-432347824946"},"vehicle_type_id":"4","last_reported":1756249756,"current_range_meters":4800,"station_id":"ce4bgvp2rcd13ifvqct0","pricing_plan_id":"cebpf4jnsgd1na2vs0mg"},{"bike_id":"d63ccd67-ef7f-494a-9eeb-0267643a90a0","system_id":"levelo_inurba_marseille","lat":43.28941,"lon":5.36391,"is_reserved":false,"is_disabled":false,"rental_uris":{"android":"levelo://app?vid=d63ccd67-ef7f-494a-9eeb-0267643a90a0","ios":"levelo://app?vid=d63ccd67-ef7f-494a-9eeb-0267643a90a0"},"vehicle_type_id":"4","last_reported":1756249756,"current_range_meters":4800,"station_id":"ce4bhc92rcd13ifvqetg","pricing_plan_id":"cebpf4jnsgd1na2vs0mg"},{"bike_id":"bdf85e08-5676-48b0-8060-453cc8bae2cf","system_id":"levelo_inurba_marseille","lat":43.29187,"lon":5.35792,"is_reserved":false,"is_disabled":true,"rental_uris":{"android":"levelo://app?vid=bdf85e08-5676-48b0-8060-453cc8bae2cf","ios":"levelo://app?vid=bdf85e08-5676-48b0-8060-453cc8bae2cf"},"vehicle_type_id":"4","last_reported":1756249756,"current_range_meters":5600,"station_id":"ce4bhb12rcd13ifvqel0","pricing_plan_id":"cebpf4jnsgd1na2vs0mg"},{"bike_id":"c9a1e2f5-9ea7-4dc5-af99-4282e671d3b5","system_id":"levelo_inurba_marseille","lat":43.26216,"lon":5.37455,"is_reserved":false,"is_disabled":true,"rental_uris":{"android":"levelo://app?vid=c9a1e2f5-9ea7-4dc5-af99-4282e671d3b5","ios":"levelo://app?vid=c9a1e2f5-9ea7-4dc5-af99-4282e671d3b5"},"vehicle_type_id":"4","last_reported":1756249756,"current_range_meters":4800,"station_id":"ce4bhgp2rcd13ifvqfc0","pricing_plan_id":"cebpf4jnsgd1na2vs0mg"},{"bike_id":"2c6911da-bb3e-4211-a2e7-78996802ae49","system_id":"levelo_inurba_marseille","lat":43.26679,"lon":5.38202,"is_reserved":false,"is_disabled":false,"rental_uris":{"android":"levelo://app?vid=2c6911da-bb3e-4211-a2e7-78996802ae49","ios":"levelo://app?vid=2c6911da-bb3e-4211-a2e7-78996802ae49"},"vehicle_type_id":"4","last_reported":1756249756,"current_range_meters":4800,"station_id":"","pricing_plan_id":"cebpf4jnsgd1na2vs0mg"},{"bike_id":"7b818e63-e4fb-4473-b335-44ef19f5bb79","system_id":"levelo_inurba_marseille","lat":43.28271,"lon":5.350782,"is_reserved":false,"is_disabled":true,"rental_uris":{"android":"levelo://app?vid=7b818e63-e4fb-4473-b335-44ef19f5bb79","ios":"levelo://app?vid=7b818e63-e4fb-4473-b335-44ef19f5bb79"},"vehicle_type_id":"4","last_reported":1756249756,"current_range_meters":5600,"station_id":"ce4bhbp2rcd13ifvqerg","pricing_plan_id":"cebpf4jnsgd1na2vs0mg"},{"bike_id":"43a14931-dcd0-4ae0-861f-dece37fa7f4d","system_id":"levelo_inurba_marseille","lat":43.33032,"lon":5.38774,"is_reserved":false,"is_disabled":false,"rental_uris":{"android":"levelo://app?vid=43a14931-dcd0-4ae0-861f-dece37fa7f4d","ios":"levelo://app?vid=43a14931-dcd0-4ae0-861f-dece37fa7f4d"},"vehicle_type_id":"4","last_reported":1756249756,"current_range_meters":6000,"station_id":"","pricing_plan_id":"cebpf4jnsgd1na2vs0mg"},{"bike_id":"910a2fe9-c763-44c1-8de4-85789a7f1606","system_id":"levelo_inurba_marseille","lat":43.2742,"lon":5.39412,"is_reserved":false,"is_disabled":true,"rental_uris":{"android":"levelo://app?vid=910a2fe9-c763-44c1-8de4-85789a7f1606","ios":"levelo://app?vid=910a2fe9-c763-44c1-8de4-85789a7f1606"},"vehicle_type_id":"4","last_reported":1756249756,"current_range_meters":6000,"station_id":"ce4bhdp2rcd13ifvqf20","pricing_plan_id":"cebpf4jnsgd1na2vs0mg"},{"bike_id":"f6bd5b86-eb54-487c-8a4e-3da908b177ef","system_id":"levelo_inurba_marseille","lat":43.29568,"lon":5.37527,"is_reserved":false,"is_disabled":true,"rental_uris":{"android":"levelo://app?vid=f6bd5b86-eb54-487c-8a4e-3da908b177ef","ios":"levelo://app?vid=f6bd5b86-eb54-487c-8a4e-3da908b177ef"},"vehicle_type_id":"4","last_reported":1756249756,"current_range_meters":6000,"station_id":"","pricing_plan_id":"cebpf4jnsgd1na2vs0mg"},{"bike_id":"236f1a17-bd84-4b8e-977f-7df7d8cf402c","system_id":"levelo_inurba_marseille","lat":43.30821,"lon":5.43523,"is_reserved":false,"is_disabled":true,"rental_uris":{"android":"levelo://app?vid=236f1a17-bd84-4b8e-977f-7df7d8cf402c","ios":"levelo://app?vid=236f1a17-bd84-4b8e-977f-7df7d8cf402c"},"vehicle_type_id":"4","last_reported":1756249756,"current_range_meters":6400,"station_id":"ce4bhph2rcd13ifvqheg","pricing_plan_id":"cebpf4jnsgd1na2vs0mg"},{"bike_id":"41b1d83d-450d-4f85-a248-16582d62ea04","system_id":"levelo_inurba_marseille","lat":43.31535,"lon":5.38035,"is_reserved":false,"is_disabled":false,"rental_uris":{"android":"levelo://app?vid=41b1d83d-450d-4f85-a248-16582d62ea04","ios":"levelo://app?vid=41b1d83d-450d-4f85-a248-16582d62ea04"},"vehicle_type_id":"4","last_reported":1756249756,"current_range_meters":6400,"station_id":"ce4bhsp2rcd13ifvqi50","pricing_plan_id":"cebpf4jnsgd1na2vs0mg"},{"bike_id":"5fb89390-5c1c-49f9-ace3-fa1969a19768","system_id":"levelo_inurba_marseille","lat":43.31686,"lon":5.40478,"is_reserved":false,"is_disabled":false,"rental_uris":{"android":"levelo://app?vid=5fb89390-5c1c-49f9-ace3-fa1969a19768","ios":"levelo://app?vid=5fb89390-5c1c-49f9-ace3-fa1969a19768"},"vehicle_type_id":"4","last_reported":1756249756,"current_range_meters":6800,"station_id":"ce4bh012rcd13ifvqd00","pricing_plan_id":"cebpf4jnsgd1na2vs0mg"},{"bike_id":"03be758f-3e6d-4c72-8876-95a4359600d6","system_id":"levelo_inurba_marseille","lat":43.33797,"lon":5.37503,"is_reserved":false,"is_disabled":false,"rental_uris":{"android":"levelo://app?vid=03be758f-3e6d-4c72-8876-95a4359600d6","ios":"levelo://app?vid=03be758f-3e6d-4c72-8876-95a4359600d6"},"vehicle_type_id":"4","last_reported":1756249756,"current_range_meters":6800,"station_id":"","pricing_plan_id":"cebpf4jnsgd1na2vs0mg"},{"bike_id":"ea98ce35-bda4-40d2-a282-cd38d9cc121a","system_id":"levelo_inurba_marseille","lat":43.295337,"lon":5.38546,"is_reserved":false,"is_disabled":false,"rental_uris":{"android":"levelo://app?vid=ea98ce35-bda4-40d2-a282-cd38d9cc121a","ios":"levelo://app?vid=ea98ce35-bda4-40d2-a282-cd38d9cc121a"},"vehicle_type_id":"4","last_reported":1756249756,"current_range_meters":7200,"station_id":"ce4bgih2rcd13ifvqba0","pricing_plan_id":"cebpf4jnsgd1na2vs0mg"},{"bike_id":"190a5517-d667-4ede-9233-cde387a0ef53","system_id":"levelo_inurba_marseille","lat":43.303675,"lon":5.386467,"is_reserved":false,"is_disabled":false,"rental_uris":{"android":"levelo://app?vid=190a5517-d667-4ede-9233-cde387a0ef53","ios":"levelo://app?vid=190a5517-d667-4ede-9233-cde387a0ef53"},"vehicle_type_id":"4","last_reported":1756249756,"current_range_meters":8000,"station_id":"ce4bgk12rcd13ifvqbi0","pricing_plan_id":"cebpf4jnsgd1na2vs0mg"},{"bike_id":"b167edfd-c54d-4027-83e0-98edda92909f","system_id":"levelo_inurba_marseille","lat":43.30799,"lon":5.38148,"is_reserved":false,"is_disabled":false,"rental_uris":{"android":"levelo://app?vid=b167edfd-c54d-4027-83e0-98edda92909f","ios":"levelo://app?vid=b167edfd-c54d-4027-83e0-98edda92909f"},"vehicle_type_id":"4","last_reported":1756249756,"current_range_meters":8000,"station_id":"ce4bgt12rcd13ifvqce0","pricing_plan_id":"cebpf4jnsgd1na2vs0mg"},{"bike_id":"19a08ea6-418f-4829-adee-fbefcd00568a","system_id":"levelo_inurba_marseille","lat":43.30642,"lon":5.40096,"is_reserved":false,"is_disabled":false,"rental_uris":{"android":"levelo://app?vid=19a08ea6-418f-4829-adee-fbefcd00568a","ios":"levelo://app?vid=19a08ea6-418f-4829-adee-fbefcd00568a"},"vehicle_type_id":"4","last_reported":1756249756,"current_range_meters":8000,"station_id":"ce4bh112rcd13ifvqda0","pricing_plan_id":"cebpf4jnsgd1na2vs0mg"},{"bike_id":"b1d4ac09-82d1-417e-b7f9-6c57595a77ce","system_id":"levelo_inurba_marseille","lat":43.2808,"lon":5.39653,"is_reserved":false,"is_disabled":false,"rental_uris":{"android":"levelo://app?vid=b1d4ac09-82d1-417e-b7f9-6c57595a77ce","ios":"levelo://app?vid=b1d4ac09-82d1-417e-b7f9-6c57595a77ce"},"vehicle_type_id":"4","last_reported":1756249756,"current_range_meters":8000,"station_id":"ce4bho12rcd13ifvqh2g","pricing_plan_id":"cebpf4jnsgd1na2vs0mg"},{"bike_id":"2f4e8b28-6095-4b3f-ae0a-f9f0c872541a","system_id":"levelo_inurba_marseille","lat":43.29035,"lon":5.37571,"is_reserved":false,"is_disabled":false,"rental_uris":{"android":"levelo://app?vid=2f4e8b28-6095-4b3f-ae0a-f9f0c872541a","ios":"levelo://app?vid=2f4e8b28-6095-4b3f-ae0a-f9f0c872541a"},"vehicle_type_id":"4","last_reported":1756249756,"current_range_meters":8400,"station_id":"ce4bh692rcd13ifvqe90","pricing_plan_id":"cebpf4jnsgd1na2vs0mg"},{"bike_id":"3a73533b-b574-456a-8ab6-ee5826f02fd1","system_id":"levelo_inurba_marseille","lat":43.23206,"lon":5.39983,"is_reserved":false,"is_disabled":false,"rental_uris":{"android":"levelo://app?vid=3a73533b-b574-456a-8ab6-ee5826f02fd1","ios":"levelo://app?vid=3a73533b-b574-456a-8ab6-ee5826f02fd1"},"vehicle_type_id":"4","last_reported":1756249756,"current_range_meters":8400,"station_id":"ce4bhn12rcd13ifvqgqg","pricing_plan_id":"cebpf4jnsgd1na2vs0mg"},{"bike_id":"e3339c3e-ccf4-45f0-93d0-7111f046cf9d","system_id":"levelo_inurba_marseille","lat":43.29091,"lon":5.38136,"is_reserved":false,"is_disabled":false,"rental_uris":{"android":"levelo://app?vid=e3339c3e-ccf4-45f0-93d0-7111f046cf9d","ios":"levelo://app?vid=e3339c3e-ccf4-45f0-93d0-7111f046cf9d"},"vehicle_type_id":"4","last_reported":1756249756,"current_range_meters":8400,"station_id":"ce4bh512rcd13ifvqe2g","pricing_plan_id":"cebpf4jnsgd1na2vs0mg"},{"bike_id":"edc4c588-4db1-4b48-bddb-0eba1d72ba9f","system_id":"levelo_inurba_marseille","lat":43.21204,"lon":5.35073,"is_reserved":false,"is_disabled":false,"rental_uris":{"android":"levelo://app?vid=edc4c588-4db1-4b48-bddb-0eba1d72ba9f","ios":"levelo://app?vid=edc4c588-4db1-4b48-bddb-0eba1d72ba9f"},"vehicle_type_id":"4","last_reported":1756249756,"current_range_meters":8400,"station_id":"st_cvj6sg6p6f1abm77japg","pricing_plan_id":"cebpf4jnsgd1na2vs0mg"},{"bike_id":"cf113ad4-b4a3-421f-872e-dfb5537698dd","system_id":"levelo_inurba_marseille","lat":43.29566,"lon":5.39962,"is_reserved":false,"is_disabled":false,"rental_uris":{"android":"levelo://app?vid=cf113ad4-b4a3-421f-872e-dfb5537698dd","ios":"levelo://app?vid=cf113ad4-b4a3-421f-872e-dfb5537698dd"},"vehicle_type_id":"4","last_reported":1756249756,"current_range_meters":8000,"station_id":"ce4bh312rcd13ifvqdj0","pricing_plan_id":"cebpf4jnsgd1na2vs0mg"},{"bike_id":"f81c8074-fd30-4a1c-8f21-f44a688769d9","system_id":"levelo_inurba_marseille","lat":43.30319,"lon":5.40433,"is_reserved":false,"is_disabled":false,"rental_uris":{"android":"levelo://app?vid=f81c8074-fd30-4a1c-8f21-f44a688769d9","ios":"levelo://app?vid=f81c8074-fd30-4a1c-8f21-f44a688769d9"},"vehicle_type_id":"4","last_reported":1756249756,"current_range_meters":8400,"station_id":"ce4bh012rcd13ifvqd10","pricing_plan_id":"cebpf4jnsgd1na2vs0mg"},{"bike_id":"d902b193-c032-4f07-9f41-2b1838121c24","system_id":"levelo_inurba_marseille","lat":43.28082,"lon":5.39663,"is_reserved":false,"is_disabled":true,"rental_uris":{"android":"levelo://app?vid=d902b193-c032-4f07-9f41-2b1838121c24","ios":"levelo://app?vid=d902b193-c032-4f07-9f41-2b1838121c24"},"vehicle_type_id":"4","last_reported":1756249756,"current_range_meters":8800,"station_id":"ce4bho12rcd13ifvqh2g","pricing_plan_id":"cebpf4jnsgd1na2vs0mg"},{"bike_id":"9ebbca0f-8b0f-49e0-bbc0-5934ebb0e846","system_id":"levelo_inurba_marseille","lat":43.21218,"lon":5.35064,"is_reserved":false,"is_disabled":false,"rental_uris":{"android":"levelo://app?vid=9ebbca0f-8b0f-49e0-bbc0-5934ebb0e846","ios":"levelo://app?vid=9ebbca0f-8b0f-49e0-bbc0-5934ebb0e846"},"vehicle_type_id":"4","last_reported":1756249756,"current_range_meters":8800,"station_id":"st_cvj6sg6p6f1abm77japg","pricing_plan_id":"cebpf4jnsgd1na2vs0mg"},{"bike_id":"e729fb3c-5bb1-4f41-a6b3-596db3a669ee","system_id":"levelo_inurba_marseille","lat":43.28076,"lon":5.39659,"is_reserved":false,"is_disabled":false,"rental_uris":{"android":"levelo://app?vid=e729fb3c-5bb1-4f41-a6b3-596db3a669ee","ios":"levelo://app?vid=e729fb3c-5bb1-4f41-a6b3-596db3a669ee"},"vehicle_type_id":"4","last_reported":1756249756,"current_range_meters":8800,"station_id":"ce4bho12rcd13ifvqh2g","pricing_plan_id":"cebpf4jnsgd1na2vs0mg"},{"bike_id":"d7bfe4ef-096f-44b6-8b30-8748c29b5f59","system_id":"levelo_inurba_marseille","lat":43.29244,"lon":5.4092,"is_reserved":false,"is_disabled":false,"rental_uris":{"android":"levelo://app?vid=d7bfe4ef-096f-44b6-8b30-8748c29b5f59","ios":"levelo://app?vid=d7bfe4ef-096f-44b6-8b30-8748c29b5f59"},"vehicle_type_id":"4","last_reported":1756249756,"current_range_meters":8800,"station_id":"ce4bh192rcd13ifvqdc0","pricing_plan_id":"cebpf4jnsgd1na2vs0mg"},{"bike_id":"f781d014-afa9-4acc-b6f7-3670b0862de3","system_id":"levelo_inurba_marseille","lat":43.21229,"lon":5.35038,"is_reserved":false,"is_disabled":false,"rental_uris":{"android":"levelo://app?vid=f781d014-afa9-4acc-b6f7-3670b0862de3","ios":"levelo://app?vid=f781d014-afa9-4acc-b6f7-3670b0862de3"},"vehicle_type_id":"4","last_reported":1756249756,"current_range_meters":8800,"station_id":"","pricing_plan_id":"cebpf4jnsgd1na2vs0mg"},{"bike_id":"c3fffd03-1f6c-42ed-8457-623f3cfabc19","system_id":"levelo_inurba_marseille","lat":43.30934,"lon":5.40146,"is_reserved":false,"is_disabled":false,"rental_uris":{"android":"levelo://app?vid=c3fffd03-1f6c-42ed-8457-623f3cfabc19","ios":"levelo://app?vid=c3fffd03-1f6c-42ed-8457-623f3cfabc19"},"vehicle_type_id":"4","last_reported":1756249756,"current_range_meters":9200,"station_id":"ce4bgvp2rcd13ifvqct0","pricing_plan_id":"cebpf4jnsgd1na2vs0mg"},{"bike_id":"a68c0ed1-bfa8-44fa-a449-3a65d0f58ae5","system_id":"levelo_inurba_marseille","lat":43.26783,"lon":5.39417,"is_reserved":false,"is_disabled":false,"rental_uris":{"android":"levelo://app?vid=a68c0ed1-bfa8-44fa-a449-3a65d0f58ae5","ios":"levelo://app?vid=a68c0ed1-bfa8-44fa-a449-3a65d0f58ae5"},"vehicle_type_id":"4","last_reported":1756249756,"current_range_meters":8800,"station_id":"ce4bhh12rcd13ifvqfg0","pricing_plan_id":"cebpf4jnsgd1na2vs0mg"},{"bike_id":"968096ff-cdb0-4c7f-af2c-bdcd971a78ce","system_id":"levelo_inurba_marseille","lat":43.32111,"lon":5.36771,"is_reserved":false,"is_disabled":false,"rental_uris":{"android":"levelo://app?vid=968096ff-cdb0-4c7f-af2c-bdcd971a78ce","ios":"levelo://app?vid=968096ff-cdb0-4c7f-af2c-bdcd971a78ce"},"vehicle_type_id":"4","last_reported":1756249756,"current_range_meters":9200,"station_id":"ce4bhrh2rcd13ifvqhug","pricing_plan_id":"cebpf4jnsgd1na2vs0mg"},{"bike_id":"a5aa9036-f9b1-40d8-9673-1b8888d166df","system_id":"levelo_inurba_marseille","lat":43.31995,"lon":5.38163,"is_reserved":false,"is_disabled":false,"rental_uris":{"android":"levelo://app?vid=a5aa9036-f9b1-40d8-9673-1b8888d166df","ios":"levelo://app?vid=a5aa9036-f9b1-40d8-9673-1b8888d166df"},"vehicle_type_id":"4","last_reported":1756249756,"current_range_meters":9200,"station_id":"ce4bhr12rcd13ifvqhpg","pricing_plan_id":"cebpf4jnsgd1na2vs0mg"},{"bike_id":"b8f03d8b-f39d-4a2d-9913-796f1ac6f634","system_id":"levelo_inurba_marseille","lat":43.25102,"lon":5.40327,"is_reserved":false,"is_disabled":false,"rental_uris":{"android":"levelo://app?vid=b8f03d8b-f39d-4a2d-9913-796f1ac6f634","ios":"levelo://app?vid=b8f03d8b-f39d-4a2d-9913-796f1ac6f634"},"vehicle_type_id":"4","last_reported":1756249756,"current_range_meters":9600,"station_id":"ce4bhlh2rcd13ifvqgig","pricing_plan_id":"cebpf4jnsgd1na2vs0mg"},{"bike_id":"5be9e936-ded3-43ee-af46-9ddd44ee9f72","system_id":"levelo_inurba_marseille","lat":43.26059,"lon":5.39401,"is_reserved":false,"is_disabled":false,"rental_uris":{"android":"levelo://app?vid=5be9e936-ded3-43ee-af46-9ddd44ee9f72","ios":"levelo://app?vid=5be9e936-ded3-43ee-af46-9ddd44ee9f72"},"vehicle_type_id":"4","last_reported":1756249756,"current_range_meters":9600,"station_id":"ce4bhh92rcd13ifvqfj0","pricing_plan_id":"cebpf4jnsgd1na2vs0mg"},{"bike_id":"e8d1778e-c6b3-4250-8162-e7beac829d38","system_id":"levelo_inurba_marseille","lat":43.27981,"lon":5.41672,"is_reserved":false,"is_disabled":false,"rental_uris":{"android":"levelo://app?vid=e8d1778e-c6b3-4250-8162-e7beac829d38","ios":"levelo://app?vid=e8d1778e-c6b3-4250-8162-e7beac829d38"},"vehicle_type_id":"4","last_reported":1756249756,"current_range_meters":10000,"station_id":"ce4bho12rcd13ifvqh1g","pricing_plan_id":"cebpf4jnsgd1na2vs0mg"},{"bike_id":"540ce205-844f-4d40-8cfb-d5d924d9065e","system_id":"levelo_inurba_marseille","lat":43.29191,"lon":5.39344,"is_reserved":false,"is_disabled":false,"rental_uris":{"android":"levelo://app?vid=540ce205-844f-4d40-8cfb-d5d924d9065e","ios":"levelo://app?vid=540ce205-844f-4d40-8cfb-d5d924d9065e"},"vehicle_type_id":"4","last_reported":1756249756,"current_range_meters":10000,"station_id":"ce4bh192rcd13ifvqdd0","pricing_plan_id":"cebpf4jnsgd1na2vs0mg"},{"bike_id":"e6179b46-81c8-4876-9a4c-537a47573db1","system_id":"levelo_inurba_marseille","lat":43.3138,"lon":5.40617,"is_reserved":false,"is_disabled":false,"rental_uris":{"android":"levelo://app?vid=e6179b46-81c8-4876-9a4c-537a47573db1","ios":"levelo://app?vid=e6179b46-81c8-4876-9a4c-537a47573db1"},"vehicle_type_id":"4","last_reported":1756249756,"current_range_meters":10000,"station_id":"","pricing_plan_id":"cebpf4jnsgd1na2vs0mg"},{"bike_id":"47c72c85-64e7-43b8-ada4-0f17a3d10859","system_id":"levelo_inurba_marseille","lat":43.21756,"lon":5.34598,"is_reserved":false,"is_disabled":true,"rental_uris":{"android":"levelo://app?vid=47c72c85-64e7-43b8-ada4-0f17a3d10859","ios":"levelo://app?vid=47c72c85-64e7-43b8-ada4-0f17a3d10859"},"vehicle_type_id":"4","last_reported":1756249756,"current_range_meters":10000,"station_id":"st_cvj6r9ubvosntc0bgbag","pricing_plan_id":"cebpf4jnsgd1na2vs0mg"},{"bike_id":"eaac1ac6-6c5d-4274-970f-7bad9d177f4b","system_id":"levelo_inurba_marseille","lat":43.33757,"lon":5.37466,"is_reserved":false,"is_disabled":false,"rental_uris":{"android":"levelo://app?vid=eaac1ac6-6c5d-4274-970f-7bad9d177f4b","ios":"levelo://app?vid=eaac1ac6-6c5d-4274-970f-7bad9d177f4b"},"vehicle_type_id":"4","last_reported":1756249756,"current_range_meters":10800,"station_id":"","pricing_plan_id":"cebpf4jnsgd1na2vs0mg"},{"bike_id":"6a810793-da72-4be4-9532-9c2bce7340c2","system_id":"levelo_inurba_marseille","lat":43.31273,"lon":5.40159,"is_reserved":false,"is_disabled":false,"rental_uris":{"android":"levelo://app?vid=6a810793-da72-4be4-9532-9c2bce7340c2","ios":"levelo://app?vid=6a810793-da72-4be4-9532-9c2bce7340c2"},"vehicle_type_id":"4","last_reported":1756249756,"current_range_meters":10800,"station_id":"ce4bh092rcd13ifvqd30","pricing_plan_id":"cebpf4jnsgd1na2vs0mg"},{"bike_id":"ec6705ad-1994-4f7b-8ba1-066d763e7f38","system_id":"levelo_inurba_marseille","lat":43.2558,"lon":5.38229,"is_reserved":false,"is_disabled":true,"rental_uris":{"android":"levelo://app?vid=ec6705ad-1994-4f7b-8ba1-066d763e7f38","ios":"levelo://app?vid=ec6705ad-1994-4f7b-8ba1-066d763e7f38"},"vehicle_type_id":"4","last_reported":1756249756,"current_range_meters":10800,"station_id":"ce4bhih2rcd13ifvqfs0","pricing_plan_id":"cebpf4jnsgd1na2vs0mg"},{"bike_id":"0d502687-08ef-4491-8893-8a03d8688be8","system_id":"levelo_inurba_marseille","lat":43.29606,"lon":5.36122,"is_reserved":false,"is_disabled":false,"rental_uris":{"android":"levelo://app?vid=0d502687-08ef-4491-8893-8a03d8688be8","ios":"levelo://app?vid=0d502687-08ef-4491-8893-8a03d8688be8"},"vehicle_type_id":"4","last_reported":1756249756,"current_range_meters":10800,"station_id":"","pricing_plan_id":"cebpf4jnsgd1na2vs0mg"},{"bike_id":"a4578e98-0c0e-42ba-b4cc-92d22d1008a9","system_id":"levelo_inurba_marseille","lat":43.29014,"lon":5.38125,"is_reserved":false,"is_disabled":true,"rental_uris":{"android":"levelo://app?vid=a4578e98-0c0e-42ba-b4cc-92d22d1008a9","ios":"levelo://app?vid=a4578e98-0c0e-42ba-b4cc-92d22d1008a9"},"vehicle_type_id":"4","last_reported":1756249756,"current_range_meters":10800,"station_id":"ce4bh4p2rcd13ifvqe1g","pricing_plan_id":"cebpf4jnsgd1na2vs0mg"},{"bike_id":"1f709344-d1f7-4c4b-bf9d-f253549a9c0a","system_id":"levelo_inurba_marseille","lat":43.3067,"lon":5.40085,"is_reserved":false,"is_disabled":false,"rental_uris":{"android":"levelo://app?vid=1f709344-d1f7-4c4b-bf9d-f253549a9c0a","ios":"levelo://app?vid=1f709344-d1f7-4c4b-bf9d-f253549a9c0a"},"vehicle_type_id":"4","last_reported":1756249756,"current_range_meters":10800,"station_id":"ce4bh112rcd13ifvqda0","pricing_plan_id":"cebpf4jnsgd1na2vs0mg"},{"bike_id":"5a8c0a8b-2b21-40da-92e9-e5ac291a4cb5","system_id":"levelo_inurba_marseille","lat":43.30297,"lon":5.36879,"is_reserved":false,"is_disabled":false,"rental_uris":{"android":"levelo://app?vid=5a8c0a8b-2b21-40da-92e9-e5ac291a4cb5","ios":"levelo://app?vid=5a8c0a8b-2b21-40da-92e9-e5ac291a4cb5"},"vehicle_type_id":"4","last_reported":1756249756,"current_range_meters":11200,"station_id":"ce4bgqh2rcd13ifvqc5g","pricing_plan_id":"cebpf4jnsgd1na2vs0mg"},{"bike_id":"4dd4428e-edbe-4c5d-9dc1-a53e9a716334","system_id":"levelo_inurba_marseille","lat":43.22508,"lon":5.34782,"is_reserved":false,"is_disabled":true,"rental_uris":{"android":"levelo://app?vid=4dd4428e-edbe-4c5d-9dc1-a53e9a716334","ios":"levelo://app?vid=4dd4428e-edbe-4c5d-9dc1-a53e9a716334"},"vehicle_type_id":"4","last_reported":1756249756,"current_range_meters":11200,"station_id":"","pricing_plan_id":"cebpf4jnsgd1na2vs0mg"},{"bike_id":"95b545a0-ee0d-4c3b-93a8-5510fc42d841","system_id":"levelo_inurba_marseille","lat":43.27069,"lon":5.42278,"is_reserved":false,"is_disabled":false,"rental_uris":{"android":"levelo://app?vid=95b545a0-ee0d-4c3b-93a8-5510fc42d841","ios":"levelo://app?vid=95b545a0-ee0d-4c3b-93a8-5510fc42d841"},"vehicle_type_id":"4","last_reported":1756249756,"current_range_meters":11200,"station_id":"ce4bhk92rcd13ifvqgb0","pricing_plan_id":"cebpf4jnsgd1na2vs0mg"},{"bike_id":"51842e17-ef10-4624-a23e-c8a182427991","system_id":"levelo_inurba_marseille","lat":43.31614,"lon":5.38165,"is_reserved":false,"is_disabled":false,"rental_uris":{"android":"levelo://app?vid=51842e17-ef10-4624-a23e-c8a182427991","ios":"levelo://app?vid=51842e17-ef10-4624-a23e-c8a182427991"},"vehicle_type_id":"4","last_reported":1756249756,"current_range_meters":11200,"station_id":"","pricing_plan_id":"cebpf4jnsgd1na2vs0mg"},{"bike_id":"8a00d99b-940c-4dd8-b9d9-a9e3540088dd","system_id":"levelo_inurba_marseille","lat":43.29202,"lon":5.39323,"is_reserved":false,"is_disabled":false,"rental_uris":{"android":"levelo://app?vid=8a00d99b-940c-4dd8-b9d9-a9e3540088dd","ios":"levelo://app?vid=8a00d99b-940c-4dd8-b9d9-a9e3540088dd"},"vehicle_type_id":"4","last_reported":1756249756,"current_range_meters":11200,"station_id":"ce4bh192rcd13ifvqdd0","pricing_plan_id":"cebpf4jnsgd1na2vs0mg"},{"bike_id":"cfa378dc-95aa-4571-8437-b63172d17092","system_id":"levelo_inurba_marseille","lat":43.24671,"lon":5.38164,"is_reserved":false,"is_disabled":false,"rental_uris":{"android":"levelo://app?vid=cfa378dc-95aa-4571-8437-b63172d17092","ios":"levelo://app?vid=cfa378dc-95aa-4571-8437-b63172d17092"},"vehicle_type_id":"4","last_reported":1756249756,"current_range_meters":11600,"station_id":"ce4bhih2rcd13ifvqfr0","pricing_plan_id":"cebpf4jnsgd1na2vs0mg"},{"bike_id":"bfcde6a8-ccc6-4d52-a2bf-66c07481b52c","system_id":"levelo_inurba_marseille","lat":43.292777,"lon":5.401407,"is_reserved":false,"is_disabled":false,"rental_uris":{"android":"levelo://app?vid=bfcde6a8-ccc6-4d52-a2bf-66c07481b52c","ios":"levelo://app?vid=bfcde6a8-ccc6-4d52-a2bf-66c07481b52c"},"vehicle_type_id":"4","last_reported":1756249756,"current_range_meters":11600,"station_id":"ce4bh312rcd13ifvqdk0","pricing_plan_id":"cebpf4jnsgd1na2vs0mg"},{"bike_id":"6595f1dd-a3cd-46e9-a8a0-203a1f4c11d9","system_id":"levelo_inurba_marseille","lat":43.25111,"lon":5.40324,"is_reserved":false,"is_disabled":false,"rental_uris":{"android":"levelo://app?vid=6595f1dd-a3cd-46e9-a8a0-203a1f4c11d9","ios":"levelo://app?vid=6595f1dd-a3cd-46e9-a8a0-203a1f4c11d9"},"vehicle_type_id":"4","last_reported":1756249756,"current_range_meters":11600,"station_id":"","pricing_plan_id":"cebpf4jnsgd1na2vs0mg"},{"bike_id":"1921085e-f62f-4779-92b3-2f6e9c198564","system_id":"levelo_inurba_marseille","lat":43.24074,"lon":5.37769,"is_reserved":false,"is_disabled":false,"rental_uris":{"android":"levelo://app?vid=1921085e-f62f-4779-92b3-2f6e9c198564","ios":"levelo://app?vid=1921085e-f62f-4779-92b3-2f6e9c198564"},"vehicle_type_id":"4","last_reported":1756249756,"current_range_meters":12000,"station_id":"ce4bhnp2rcd13ifvqgvg","pricing_plan_id":"cebpf4jnsgd1na2vs0mg"},{"bike_id":"22204b3f-0752-4e89-997e-d062562f8b6a","system_id":"levelo_inurba_marseille","lat":43.29261,"lon":5.40912,"is_reserved":false,"is_disabled":false,"rental_uris":{"android":"levelo://app?vid=22204b3f-0752-4e89-997e-d062562f8b6a","ios":"levelo://app?vid=22204b3f-0752-4e89-997e-d062562f8b6a"},"vehicle_type_id":"4","last_reported":1756249756,"current_range_meters":12000,"station_id":"ce4bh192rcd13ifvqdc0","pricing_plan_id":"cebpf4jnsgd1na2vs0mg"},{"bike_id":"63f2abed-057a-4b88-a942-7fb1eb5fe235","system_id":"levelo_inurba_marseille","lat":43.27912,"lon":5.39575,"is_reserved":false,"is_disabled":false,"rental_uris":{"android":"levelo://app?vid=63f2abed-057a-4b88-a942-7fb1eb5fe235","ios":"levelo://app?vid=63f2abed-057a-4b88-a942-7fb1eb5fe235"},"vehicle_type_id":"4","last_reported":1756249756,"current_range_meters":12000,"station_id":"ce4bhf92rcd13ifvqf40","pricing_plan_id":"cebpf4jnsgd1na2vs0mg"},{"bike_id":"da4fbb2f-e275-4d42-bb2b-48b9958ae534","system_id":"levelo_inurba_marseille","lat":43.253317,"lon":5.421747,"is_reserved":false,"is_disabled":false,"rental_uris":{"android":"levelo://app?vid=da4fbb2f-e275-4d42-bb2b-48b9958ae534","ios":"levelo://app?vid=da4fbb2f-e275-4d42-bb2b-48b9958ae534"},"vehicle_type_id":"4","last_reported":1756249756,"current_range_meters":12000,"station_id":"st_d2m65c5bi1j21697t3ng","pricing_plan_id":"cebpf4jnsgd1na2vs0mg"},{"bike_id":"68f66da7-f6b1-4cc1-8b5d-757fb3a00f60","system_id":"levelo_inurba_marseille","lat":43.25573,"lon":5.38231,"is_reserved":false,"is_disabled":false,"rental_uris":{"android":"levelo://app?vid=68f66da7-f6b1-4cc1-8b5d-757fb3a00f60","ios":"levelo://app?vid=68f66da7-f6b1-4cc1-8b5d-757fb3a00f60"},"vehicle_type_id":"4","last_reported":1756249756,"current_range_meters":12000,"station_id":"ce4bhih2rcd13ifvqfs0","pricing_plan_id":"cebpf4jnsgd1na2vs0mg"},{"bike_id":"2d018b38-51dc-4c2d-b935-970f32cf436f","system_id":"levelo_inurba_marseille","lat":43.25323,"lon":5.4219,"is_reserved":false,"is_disabled":false,"rental_uris":{"android":"levelo://app?vid=2d018b38-51dc-4c2d-b935-970f32cf436f","ios":"levelo://app?vid=2d018b38-51dc-4c2d-b935-970f32cf436f"},"vehicle_type_id":"4","last_reported":1756249756,"current_range_meters":12000,"station_id":"st_d2m65c5bi1j21697t3ng","pricing_plan_id":"cebpf4jnsgd1na2vs0mg"},{"bike_id":"ca90d0c9-ea31-4b7a-ac13-eb7c663855d4","system_id":"levelo_inurba_marseille","lat":43.2842,"lon":5.37519,"is_reserved":false,"is_disabled":false,"rental_uris":{"android":"levelo://app?vid=ca90d0c9-ea31-4b7a-ac13-eb7c663855d4","ios":"levelo://app?vid=ca90d0c9-ea31-4b7a-ac13-eb7c663855d4"},"vehicle_type_id":"4","last_reported":1756249756,"current_range_meters":12000,"station_id":"ce4bh412rcd13ifvqds0","pricing_plan_id":"cebpf4jnsgd1na2vs0mg"},{"bike_id":"4e330b1f-161c-4651-9fd6-20401a194c71","system_id":"levelo_inurba_marseille","lat":43.24105,"lon":5.37751,"is_reserved":false,"is_disabled":false,"rental_uris":{"android":"levelo://app?vid=4e330b1f-161c-4651-9fd6-20401a194c71","ios":"levelo://app?vid=4e330b1f-161c-4651-9fd6-20401a194c71"},"vehicle_type_id":"4","last_reported":1756249756,"current_range_meters":12000,"station_id":"ce4bhnp2rcd13ifvqgvg","pricing_plan_id":"cebpf4jnsgd1na2vs0mg"},{"bike_id":"89bb2efc-5c45-48e0-b659-b8ecb63211d5","system_id":"levelo_inurba_marseille","lat":43.29792,"lon":5.39372,"is_reserved":false,"is_disabled":false,"rental_uris":{"android":"levelo://app?vid=89bb2efc-5c45-48e0-b659-b8ecb63211d5","ios":"levelo://app?vid=89bb2efc-5c45-48e0-b659-b8ecb63211d5"},"vehicle_type_id":"4","last_reported":1756249756,"current_range_meters":12400,"station_id":"chh1huq6cuj3fo74tm60","pricing_plan_id":"cebpf4jnsgd1na2vs0mg"},{"bike_id":"a9c8448e-6218-4e69-a780-11bdb66755b5","system_id":"levelo_inurba_marseille","lat":43.28411,"lon":5.37539,"is_reserved":false,"is_disabled":false,"rental_uris":{"android":"levelo://app?vid=a9c8448e-6218-4e69-a780-11bdb66755b5","ios":"levelo://app?vid=a9c8448e-6218-4e69-a780-11bdb66755b5"},"vehicle_type_id":"4","last_reported":1756249756,"current_range_meters":12400,"station_id":"ce4bh412rcd13ifvqds0","pricing_plan_id":"cebpf4jnsgd1na2vs0mg"},{"bike_id":"8ad69d7f-6d52-4611-bf92-39c173b24a99","system_id":"levelo_inurba_marseille","lat":43.29274,"lon":5.36837,"is_reserved":false,"is_disabled":false,"rental_uris":{"android":"levelo://app?vid=8ad69d7f-6d52-4611-bf92-39c173b24a99","ios":"levelo://app?vid=8ad69d7f-6d52-4611-bf92-39c173b24a99"},"vehicle_type_id":"4","last_reported":1756249756,"current_range_meters":12400,"station_id":"ce4bhbp2rcd13ifvqesg","pricing_plan_id":"cebpf4jnsgd1na2vs0mg"},{"bike_id":"b4d6c33d-a0bf-42a3-9ab7-0db80b72b559","system_id":"levelo_inurba_marseille","lat":43.28958,"lon":5.36621,"is_reserved":false,"is_disabled":true,"rental_uris":{"android":"levelo://app?vid=b4d6c33d-a0bf-42a3-9ab7-0db80b72b559","ios":"levelo://app?vid=b4d6c33d-a0bf-42a3-9ab7-0db80b72b559"},"vehicle_type_id":"4","last_reported":1756249756,"current_range_meters":12400,"station_id":"ce4bhap2rcd13ifvqek0","pricing_plan_id":"cebpf4jnsgd1na2vs0mg"},{"bike_id":"1027bb83-a668-47de-9094-84302cb909d4","system_id":"levelo_inurba_marseille","lat":43.21238,"lon":5.35078,"is_reserved":false,"is_disabled":false,"rental_uris":{"android":"levelo://app?vid=1027bb83-a668-47de-9094-84302cb909d4","ios":"levelo://app?vid=1027bb83-a668-47de-9094-84302cb909d4"},"vehicle_type_id":"4","last_reported":1756249756,"current_range_meters":12400,"station_id":"","pricing_plan_id":"cebpf4jnsgd1na2vs0mg"},{"bike_id":"92c082b0-21bd-43f1-a1c8-1d12806833ca","system_id":"levelo_inurba_marseille","lat":43.28346,"lon":5.38103,"is_reserved":false,"is_disabled":true,"rental_uris":{"android":"levelo://app?vid=92c082b0-21bd-43f1-a1c8-1d12806833ca","ios":"levelo://app?vid=92c082b0-21bd-43f1-a1c8-1d12806833ca"},"vehicle_type_id":"4","last_reported":1756249756,"current_range_meters":12400,"station_id":"ce4bh412rcd13ifvqdr0","pricing_plan_id":"cebpf4jnsgd1na2vs0mg"},{"bike_id":"d0c5eb57-a46f-4f81-bdbb-c39cf032661b","system_id":"levelo_inurba_marseille","lat":43.31513,"lon":5.38039,"is_reserved":false,"is_disabled":false,"rental_uris":{"android":"levelo://app?vid=d0c5eb57-a46f-4f81-bdbb-c39cf032661b","ios":"levelo://app?vid=d0c5eb57-a46f-4f81-bdbb-c39cf032661b"},"vehicle_type_id":"4","last_reported":1756249756,"current_range_meters":12400,"station_id":"ce4bhsp2rcd13ifvqi50","pricing_plan_id":"cebpf4jnsgd1na2vs0mg"},{"bike_id":"6b1581e2-1543-434c-b1e5-28d7a00a39b0","system_id":"levelo_inurba_marseille","lat":43.25344,"lon":5.42137,"is_reserved":false,"is_disabled":false,"rental_uris":{"android":"levelo://app?vid=6b1581e2-1543-434c-b1e5-28d7a00a39b0","ios":"levelo://app?vid=6b1581e2-1543-434c-b1e5-28d7a00a39b0"},"vehicle_type_id":"4","last_reported":1756249756,"current_range_meters":12400,"station_id":"st_d2m65c5bi1j21697t3ng","pricing_plan_id":"cebpf4jnsgd1na2vs0mg"},{"bike_id":"5ebfc32c-3ff0-440a-97ee-1c808332e074","system_id":"levelo_inurba_marseille","lat":43.25006,"lon":5.389113,"is_reserved":false,"is_disabled":false,"rental_uris":{"android":"levelo://app?vid=5ebfc32c-3ff0-440a-97ee-1c808332e074","ios":"levelo://app?vid=5ebfc32c-3ff0-440a-97ee-1c808332e074"},"vehicle_type_id":"4","last_reported":1756249756,"current_range_meters":12400,"station_id":"","pricing_plan_id":"cebpf4jnsgd1na2vs0mg"},{"bike_id":"70725e45-1278-4337-bab4-392de6291b76","system_id":"levelo_inurba_marseille","lat":43.278232,"lon":5.407135,"is_reserved":false,"is_disabled":false,"rental_uris":{"android":"levelo://app?vid=70725e45-1278-4337-bab4-392de6291b76","ios":"levelo://app?vid=70725e45-1278-4337-bab4-392de6291b76"},"vehicle_type_id":"4","last_reported":1756249756,"current_range_meters":12400,"station_id":"ce4bhnh2rcd13ifvqgtg","pricing_plan_id":"cebpf4jnsgd1na2vs0mg"},{"bike_id":"c73d9183-822c-4a14-a8c1-53bf72c04baf","system_id":"levelo_inurba_marseille","lat":43.29437,"lon":5.43215,"is_reserved":false,"is_disabled":false,"rental_uris":{"android":"levelo://app?vid=c73d9183-822c-4a14-a8c1-53bf72c04baf","ios":"levelo://app?vid=c73d9183-822c-4a14-a8c1-53bf72c04baf"},"vehicle_type_id":"4","last_reported":1756249756,"current_range_meters":13600,"station_id":"","pricing_plan_id":"cebpf4jnsgd1na2vs0mg"},{"bike_id":"64ce4dd4-505e-4776-a639-1928ff564005","system_id":"levelo_inurba_marseille","lat":43.31177,"lon":5.38707,"is_reserved":false,"is_disabled":false,"rental_uris":{"android":"levelo://app?vid=64ce4dd4-505e-4776-a639-1928ff564005","ios":"levelo://app?vid=64ce4dd4-505e-4776-a639-1928ff564005"},"vehicle_type_id":"4","last_reported":1756249756,"current_range_meters":12800,"station_id":"ce4bgv12rcd13ifvqcp0","pricing_plan_id":"cebpf4jnsgd1na2vs0mg"},{"bike_id":"695ffa86-8ccd-4897-bd34-8f745cdff49b","system_id":"levelo_inurba_marseille","lat":43.28409,"lon":5.37513,"is_reserved":false,"is_disabled":false,"rental_uris":{"android":"levelo://app?vid=695ffa86-8ccd-4897-bd34-8f745cdff49b","ios":"levelo://app?vid=695ffa86-8ccd-4897-bd34-8f745cdff49b"},"vehicle_type_id":"4","last_reported":1756249756,"current_range_meters":12800,"station_id":"ce4bh412rcd13ifvqds0","pricing_plan_id":"cebpf4jnsgd1na2vs0mg"},{"bike_id":"142fad44-9e99-4639-8110-7e6b40f4890a","system_id":"levelo_inurba_marseille","lat":43.30889,"lon":5.39623,"is_reserved":false,"is_disabled":false,"rental_uris":{"android":"levelo://app?vid=142fad44-9e99-4639-8110-7e6b40f4890a","ios":"levelo://app?vid=142fad44-9e99-4639-8110-7e6b40f4890a"},"vehicle_type_id":"4","last_reported":1756249756,"current_range_meters":13600,"station_id":"ce4bh012rcd13ifvqcv0","pricing_plan_id":"cebpf4jnsgd1na2vs0mg"},{"bike_id":"098a3003-b369-4d74-b40b-8cae8a40f5ad","system_id":"levelo_inurba_marseille","lat":43.27999,"lon":5.41673,"is_reserved":false,"is_disabled":false,"rental_uris":{"android":"levelo://app?vid=098a3003-b369-4d74-b40b-8cae8a40f5ad","ios":"levelo://app?vid=098a3003-b369-4d74-b40b-8cae8a40f5ad"},"vehicle_type_id":"4","last_reported":1756249756,"current_range_meters":13600,"station_id":"ce4bho12rcd13ifvqh1g","pricing_plan_id":"cebpf4jnsgd1na2vs0mg"},{"bike_id":"1d7023ef-959e-48df-b075-0a4bd90cc9ae","system_id":"levelo_inurba_marseille","lat":43.27365,"lon":5.36253,"is_reserved":false,"is_disabled":true,"rental_uris":{"android":"levelo://app?vid=1d7023ef-959e-48df-b075-0a4bd90cc9ae","ios":"levelo://app?vid=1d7023ef-959e-48df-b075-0a4bd90cc9ae"},"vehicle_type_id":"4","last_reported":1756249756,"current_range_meters":13600,"station_id":"ce4bhbh2rcd13ifvqeo0","pricing_plan_id":"cebpf4jnsgd1na2vs0mg"},{"bike_id":"703e4351-5331-4634-bb3e-00ec29f94d4f","system_id":"levelo_inurba_marseille","lat":43.30949,"lon":5.4015,"is_reserved":false,"is_disabled":false,"rental_uris":{"android":"levelo://app?vid=703e4351-5331-4634-bb3e-00ec29f94d4f","ios":"levelo://app?vid=703e4351-5331-4634-bb3e-00ec29f94d4f"},"vehicle_type_id":"4","last_reported":1756249756,"current_range_meters":13600,"station_id":"ce4bgvp2rcd13ifvqct0","pricing_plan_id":"cebpf4jnsgd1na2vs0mg"},{"bike_id":"e44bc05c-e6c3-432c-9d71-fd17a85f949c","system_id":"levelo_inurba_marseille","lat":43.291938,"lon":5.393257,"is_reserved":false,"is_disabled":false,"rental_uris":{"android":"levelo://app?vid=e44bc05c-e6c3-432c-9d71-fd17a85f949c","ios":"levelo://app?vid=e44bc05c-e6c3-432c-9d71-fd17a85f949c"},"vehicle_type_id":"4","last_reported":1756249756,"current_range_meters":13600,"station_id":"ce4bh192rcd13ifvqdd0","pricing_plan_id":"cebpf4jnsgd1na2vs0mg"},{"bike_id":"ca39ca53-9f25-4795-b4c0-351bb43f8e45","system_id":"levelo_inurba_marseille","lat":43.29561,"lon":5.42291,"is_reserved":false,"is_disabled":false,"rental_uris":{"android":"levelo://app?vid=ca39ca53-9f25-4795-b4c0-351bb43f8e45","ios":"levelo://app?vid=ca39ca53-9f25-4795-b4c0-351bb43f8e45"},"vehicle_type_id":"4","last_reported":1756249756,"current_range_meters":13600,"station_id":"ce4bhph2rcd13ifvqhdg","pricing_plan_id":"cebpf4jnsgd1na2vs0mg"},{"bike_id":"35293f9d-ecc5-4090-ae0e-2e4ab9a73a16","system_id":"levelo_inurba_marseille","lat":43.323575,"lon":5.367583,"is_reserved":false,"is_disabled":false,"rental_uris":{"android":"levelo://app?vid=35293f9d-ecc5-4090-ae0e-2e4ab9a73a16","ios":"levelo://app?vid=35293f9d-ecc5-4090-ae0e-2e4ab9a73a16"},"vehicle_type_id":"4","last_reported":1756249756,"current_range_meters":13600,"station_id":"ce4bhsh2rcd13ifvqi2g","pricing_plan_id":"cebpf4jnsgd1na2vs0mg"},{"bike_id":"c4d22cf4-00d2-4d22-8e87-7cea6fa58d9c","system_id":"levelo_inurba_marseille","lat":43.28692,"lon":5.37376,"is_reserved":false,"is_disabled":false,"rental_uris":{"android":"levelo://app?vid=c4d22cf4-00d2-4d22-8e87-7cea6fa58d9c","ios":"levelo://app?vid=c4d22cf4-00d2-4d22-8e87-7cea6fa58d9c"},"vehicle_type_id":"4","last_reported":1756249756,"current_range_meters":13600,"station_id":"ce4bh3p2rcd13ifvqdq0","pricing_plan_id":"cebpf4jnsgd1na2vs0mg"},{"bike_id":"c9221d1a-54fa-4341-8950-acbb2fcaae9f","system_id":"levelo_inurba_marseille","lat":43.28614,"lon":5.35105,"is_reserved":false,"is_disabled":false,"rental_uris":{"android":"levelo://app?vid=c9221d1a-54fa-4341-8950-acbb2fcaae9f","ios":"levelo://app?vid=c9221d1a-54fa-4341-8950-acbb2fcaae9f"},"vehicle_type_id":"4","last_reported":1756249756,"current_range_meters":13600,"station_id":"ce4bhch2rcd13ifvqeug","pricing_plan_id":"cebpf4jnsgd1na2vs0mg"},{"bike_id":"22ab1208-c6f7-4b7f-b55d-758b70d286ac","system_id":"levelo_inurba_marseille","lat":43.27982,"lon":5.41679,"is_reserved":false,"is_disabled":false,"rental_uris":{"android":"levelo://app?vid=22ab1208-c6f7-4b7f-b55d-758b70d286ac","ios":"levelo://app?vid=22ab1208-c6f7-4b7f-b55d-758b70d286ac"},"vehicle_type_id":"4","last_reported":1756249756,"current_range_meters":13600,"station_id":"ce4bho12rcd13ifvqh1g","pricing_plan_id":"cebpf4jnsgd1na2vs0mg"},{"bike_id":"777a8c83-aed8-4881-84b6-34465956e738","system_id":"levelo_inurba_marseille","lat":43.25763,"lon":5.410428,"is_reserved":false,"is_disabled":false,"rental_uris":{"android":"levelo://app?vid=777a8c83-aed8-4881-84b6-34465956e738","ios":"levelo://app?vid=777a8c83-aed8-4881-84b6-34465956e738"},"vehicle_type_id":"4","last_reported":1756249756,"current_range_meters":13600,"station_id":"","pricing_plan_id":"cebpf4jnsgd1na2vs0mg"},{"bike_id":"bfe4a205-08e0-4a26-b3d5-9937d67c86c6","system_id":"levelo_inurba_marseille","lat":43.25117,"lon":5.40317,"is_reserved":false,"is_disabled":false,"rental_uris":{"android":"levelo://app?vid=bfe4a205-08e0-4a26-b3d5-9937d67c86c6","ios":"levelo://app?vid=bfe4a205-08e0-4a26-b3d5-9937d67c86c6"},"vehicle_type_id":"4","last_reported":1756249756,"current_range_meters":13600,"station_id":"ce4bhlh2rcd13ifvqgig","pricing_plan_id":"cebpf4jnsgd1na2vs0mg"},{"bike_id":"301dddba-146e-4031-bcae-5ef0f95944c9","system_id":"levelo_inurba_marseille","lat":43.30448,"lon":5.38895,"is_reserved":false,"is_disabled":false,"rental_uris":{"android":"levelo://app?vid=301dddba-146e-4031-bcae-5ef0f95944c9","ios":"levelo://app?vid=301dddba-146e-4031-bcae-5ef0f95944c9"},"vehicle_type_id":"4","last_reported":1756249756,"current_range_meters":14000,"station_id":"ce4bgk12rcd13ifvqbi0","pricing_plan_id":"cebpf4jnsgd1na2vs0mg"},{"bike_id":"d4204d78-608f-49cf-a804-ecb398494af8","system_id":"levelo_inurba_marseille","lat":43.32538,"lon":5.41427,"is_reserved":false,"is_disabled":false,"rental_uris":{"android":"levelo://app?vid=d4204d78-608f-49cf-a804-ecb398494af8","ios":"levelo://app?vid=d4204d78-608f-49cf-a804-ecb398494af8"},"vehicle_type_id":"4","last_reported":1756249756,"current_range_meters":13600,"station_id":"ce4bhq12rcd13ifvqhhg","pricing_plan_id":"cebpf4jnsgd1na2vs0mg"},{"bike_id":"1fb6ecce-4d2c-4249-84b3-96fb4eb273aa","system_id":"levelo_inurba_marseille","lat":43.28707,"lon":5.39995,"is_reserved":false,"is_disabled":false,"rental_uris":{"android":"levelo://app?vid=1fb6ecce-4d2c-4249-84b3-96fb4eb273aa","ios":"levelo://app?vid=1fb6ecce-4d2c-4249-84b3-96fb4eb273aa"},"vehicle_type_id":"4","last_reported":1756249756,"current_range_meters":14000,"station_id":"ce4bho92rcd13ifvqh3g","pricing_plan_id":"cebpf4jnsgd1na2vs0mg"},{"bike_id":"37b7f08f-9e9f-493f-8577-2803a3ed8ada","system_id":"levelo_inurba_marseille","lat":43.31333,"lon":5.39695,"is_reserved":false,"is_disabled":false,"rental_uris":{"android":"levelo://app?vid=37b7f08f-9e9f-493f-8577-2803a3ed8ada","ios":"levelo://app?vid=37b7f08f-9e9f-493f-8577-2803a3ed8ada"},"vehicle_type_id":"4","last_reported":1756249756,"current_range_meters":13600,"station_id":"ce4bgvp2rcd13ifvqcu0","pricing_plan_id":"cebpf4jnsgd1na2vs0mg"},{"bike_id":"f0400c37-c7f6-4929-b1ac-d92430ff6f2d","system_id":"levelo_inurba_marseille","lat":43.275933,"lon":5.397023,"is_reserved":false,"is_disabled":false,"rental_uris":{"android":"levelo://app?vid=f0400c37-c7f6-4929-b1ac-d92430ff6f2d","ios":"levelo://app?vid=f0400c37-c7f6-4929-b1ac-d92430ff6f2d"},"vehicle_type_id":"4","last_reported":1756249756,"current_range_meters":14000,"station_id":"","pricing_plan_id":"cebpf4jnsgd1na2vs0mg"},{"bike_id":"cd5f5dc3-8366-4b0c-a73e-2e0775b42f9e","system_id":"levelo_inurba_marseille","lat":43.29285,"lon":5.36845,"is_reserved":false,"is_disabled":true,"rental_uris":{"android":"levelo://app?vid=cd5f5dc3-8366-4b0c-a73e-2e0775b42f9e","ios":"levelo://app?vid=cd5f5dc3-8366-4b0c-a73e-2e0775b42f9e"},"vehicle_type_id":"4","last_reported":1756249756,"current_range_meters":14000,"station_id":"ce4bhbp2rcd13ifvqesg","pricing_plan_id":"cebpf4jnsgd1na2vs0mg"},{"bike_id":"af732ca8-2cea-448a-9928-59e03d12656f","system_id":"levelo_inurba_marseille","lat":43.33488,"lon":5.35993,"is_reserved":false,"is_disabled":false,"rental_uris":{"android":"levelo://app?vid=af732ca8-2cea-448a-9928-59e03d12656f","ios":"levelo://app?vid=af732ca8-2cea-448a-9928-59e03d12656f"},"vehicle_type_id":"4","last_reported":1756249756,"current_range_meters":14000,"station_id":"","pricing_plan_id":"cebpf4jnsgd1na2vs0mg"},{"bike_id":"af744081-2681-4d1e-9525-a9843cca33d2","system_id":"levelo_inurba_marseille","lat":43.32537,"lon":5.36464,"is_reserved":false,"is_disabled":false,"rental_uris":{"android":"levelo://app?vid=af744081-2681-4d1e-9525-a9843cca33d2","ios":"levelo://app?vid=af744081-2681-4d1e-9525-a9843cca33d2"},"vehicle_type_id":"4","last_reported":1756249756,"current_range_meters":14000,"station_id":"","pricing_plan_id":"cebpf4jnsgd1na2vs0mg"},{"bike_id":"2741edb1-548d-4bff-abb6-c56f77493811","system_id":"levelo_inurba_marseille","lat":43.26498,"lon":5.39538,"is_reserved":false,"is_disabled":false,"rental_uris":{"android":"levelo://app?vid=2741edb1-548d-4bff-abb6-c56f77493811","ios":"levelo://app?vid=2741edb1-548d-4bff-abb6-c56f77493811"},"vehicle_type_id":"4","last_reported":1756249756,"current_range_meters":14000,"station_id":"ce4bhi12rcd13ifvqfq0","pricing_plan_id":"cebpf4jnsgd1na2vs0mg"},{"bike_id":"c29ff7db-6058-4e54-972d-21ca6fde6711","system_id":"levelo_inurba_marseille","lat":43.27376,"lon":5.36229,"is_reserved":false,"is_disabled":false,"rental_uris":{"android":"levelo://app?vid=c29ff7db-6058-4e54-972d-21ca6fde6711","ios":"levelo://app?vid=c29ff7db-6058-4e54-972d-21ca6fde6711"},"vehicle_type_id":"4","last_reported":1756249756,"current_range_meters":14400,"station_id":"ce4bhbh2rcd13ifvqeo0","pricing_plan_id":"cebpf4jnsgd1na2vs0mg"},{"bike_id":"d6a0cdc4-c0c8-43c5-a1dc-7b3067a9fd31","system_id":"levelo_inurba_marseille","lat":43.27939,"lon":5.41047,"is_reserved":false,"is_disabled":false,"rental_uris":{"android":"levelo://app?vid=d6a0cdc4-c0c8-43c5-a1dc-7b3067a9fd31","ios":"levelo://app?vid=d6a0cdc4-c0c8-43c5-a1dc-7b3067a9fd31"},"vehicle_type_id":"4","last_reported":1756249756,"current_range_meters":14400,"station_id":"ce4bhnp2rcd13ifvqh0g","pricing_plan_id":"cebpf4jnsgd1na2vs0mg"},{"bike_id":"5bce688b-fc81-4596-8277-b66f54be87c1","system_id":"levelo_inurba_marseille","lat":43.33768,"lon":5.37438,"is_reserved":false,"is_disabled":false,"rental_uris":{"android":"levelo://app?vid=5bce688b-fc81-4596-8277-b66f54be87c1","ios":"levelo://app?vid=5bce688b-fc81-4596-8277-b66f54be87c1"},"vehicle_type_id":"4","last_reported":1756249756,"current_range_meters":14400,"station_id":"","pricing_plan_id":"cebpf4jnsgd1na2vs0mg"},{"bike_id":"95da8f89-647e-4714-a67a-135f8b2e0d22","system_id":"levelo_inurba_marseille","lat":43.29278,"lon":5.36848,"is_reserved":false,"is_disabled":false,"rental_uris":{"android":"levelo://app?vid=95da8f89-647e-4714-a67a-135f8b2e0d22","ios":"levelo://app?vid=95da8f89-647e-4714-a67a-135f8b2e0d22"},"vehicle_type_id":"4","last_reported":1756249756,"current_range_meters":14400,"station_id":"ce4bhbp2rcd13ifvqesg","pricing_plan_id":"cebpf4jnsgd1na2vs0mg"},{"bike_id":"d466afcf-4c1f-4aef-b339-688ccbd0c059","system_id":"levelo_inurba_marseille","lat":43.26488,"lon":5.39543,"is_reserved":false,"is_disabled":false,"rental_uris":{"android":"levelo://app?vid=d466afcf-4c1f-4aef-b339-688ccbd0c059","ios":"levelo://app?vid=d466afcf-4c1f-4aef-b339-688ccbd0c059"},"vehicle_type_id":"4","last_reported":1756249756,"current_range_meters":14000,"station_id":"ce4bhi12rcd13ifvqfq0","pricing_plan_id":"cebpf4jnsgd1na2vs0mg"},{"bike_id":"503cade9-51c1-4e76-b53f-3ba4bc1efb57","system_id":"levelo_inurba_marseille","lat":43.26567,"lon":5.3902,"is_reserved":false,"is_disabled":false,"rental_uris":{"android":"levelo://app?vid=503cade9-51c1-4e76-b53f-3ba4bc1efb57","ios":"levelo://app?vid=503cade9-51c1-4e76-b53f-3ba4bc1efb57"},"vehicle_type_id":"4","last_reported":1756249756,"current_range_meters":14400,"station_id":"ce4bhe12rcd13ifvqf30","pricing_plan_id":"cebpf4jnsgd1na2vs0mg"},{"bike_id":"fbf0e9b4-0244-4455-89e8-bb336b1646cf","system_id":"levelo_inurba_marseille","lat":43.2318,"lon":5.39997,"is_reserved":false,"is_disabled":false,"rental_uris":{"android":"levelo://app?vid=fbf0e9b4-0244-4455-89e8-bb336b1646cf","ios":"levelo://app?vid=fbf0e9b4-0244-4455-89e8-bb336b1646cf"},"vehicle_type_id":"4","last_reported":1756249756,"current_range_meters":14800,"station_id":"ce4bhn12rcd13ifvqgqg","pricing_plan_id":"cebpf4jnsgd1na2vs0mg"},{"bike_id":"684fa901-ec61-438d-92cf-f534789a0a9e","system_id":"levelo_inurba_marseille","lat":43.2466,"lon":5.38166,"is_reserved":false,"is_disabled":false,"rental_uris":{"android":"levelo://app?vid=684fa901-ec61-438d-92cf-f534789a0a9e","ios":"levelo://app?vid=684fa901-ec61-438d-92cf-f534789a0a9e"},"vehicle_type_id":"4","last_reported":1756249756,"current_range_meters":14800,"station_id":"ce4bhih2rcd13ifvqfr0","pricing_plan_id":"cebpf4jnsgd1na2vs0mg"},{"bike_id":"e8e75b32-f754-41b1-819b-d12e020e0388","system_id":"levelo_inurba_marseille","lat":43.29282,"lon":5.40162,"is_reserved":false,"is_disabled":false,"rental_uris":{"android":"levelo://app?vid=e8e75b32-f754-41b1-819b-d12e020e0388","ios":"levelo://app?vid=e8e75b32-f754-41b1-819b-d12e020e0388"},"vehicle_type_id":"4","last_reported":1756249756,"current_range_meters":14800,"station_id":"ce4bh312rcd13ifvqdk0","pricing_plan_id":"cebpf4jnsgd1na2vs0mg"},{"bike_id":"3ac95f56-21bb-43b7-af92-6f798e162ba4","system_id":"levelo_inurba_marseille","lat":43.28342,"lon":5.38092,"is_reserved":false,"is_disabled":false,"rental_uris":{"android":"levelo://app?vid=3ac95f56-21bb-43b7-af92-6f798e162ba4","ios":"levelo://app?vid=3ac95f56-21bb-43b7-af92-6f798e162ba4"},"vehicle_type_id":"4","last_reported":1756249756,"current_range_meters":15200,"station_id":"ce4bh412rcd13ifvqdr0","pricing_plan_id":"cebpf4jnsgd1na2vs0mg"},{"bike_id":"444185a1-99b2-4724-a588-1f691746c053","system_id":"levelo_inurba_marseille","lat":43.27087,"lon":5.42259,"is_reserved":false,"is_disabled":false,"rental_uris":{"android":"levelo://app?vid=444185a1-99b2-4724-a588-1f691746c053","ios":"levelo://app?vid=444185a1-99b2-4724-a588-1f691746c053"},"vehicle_type_id":"4","last_reported":1756249756,"current_range_meters":15200,"station_id":"ce4bhk92rcd13ifvqgb0","pricing_plan_id":"cebpf4jnsgd1na2vs0mg"},{"bike_id":"853a16b6-2446-401b-81c3-820e1ac2b4d5","system_id":"levelo_inurba_marseille","lat":43.3027,"lon":5.40125,"is_reserved":false,"is_disabled":false,"rental_uris":{"android":"levelo://app?vid=853a16b6-2446-401b-81c3-820e1ac2b4d5","ios":"levelo://app?vid=853a16b6-2446-401b-81c3-820e1ac2b4d5"},"vehicle_type_id":"4","last_reported":1756249756,"current_range_meters":15200,"station_id":"ce4bgvh2rcd13ifvqcs0","pricing_plan_id":"cebpf4jnsgd1na2vs0mg"},{"bike_id":"d3b95195-6838-4126-8e49-1b715414ff80","system_id":"levelo_inurba_marseille","lat":43.304296,"lon":5.388904,"is_reserved":false,"is_disabled":false,"rental_uris":{"android":"levelo://app?vid=d3b95195-6838-4126-8e49-1b715414ff80","ios":"levelo://app?vid=d3b95195-6838-4126-8e49-1b715414ff80"},"vehicle_type_id":"4","last_reported":1756249756,"current_range_meters":15200,"station_id":"ce4bgk12rcd13ifvqbi0","pricing_plan_id":"cebpf4jnsgd1na2vs0mg"},{"bike_id":"a14f40cc-8e22-4e79-af47-b7910100959f","system_id":"levelo_inurba_marseille","lat":43.3108,"lon":5.38355,"is_reserved":false,"is_disabled":false,"rental_uris":{"android":"levelo://app?vid=a14f40cc-8e22-4e79-af47-b7910100959f","ios":"levelo://app?vid=a14f40cc-8e22-4e79-af47-b7910100959f"},"vehicle_type_id":"4","last_reported":1756249756,"current_range_meters":15200,"station_id":"ce4bgv92rcd13ifvqcr0","pricing_plan_id":"cebpf4jnsgd1na2vs0mg"},{"bike_id":"9ccc1fed-bbb7-4633-b10f-3c04a7c191bf","system_id":"levelo_inurba_marseille","lat":43.30554,"lon":5.38427,"is_reserved":false,"is_disabled":false,"rental_uris":{"android":"levelo://app?vid=9ccc1fed-bbb7-4633-b10f-3c04a7c191bf","ios":"levelo://app?vid=9ccc1fed-bbb7-4633-b10f-3c04a7c191bf"},"vehicle_type_id":"4","last_reported":1756249756,"current_range_meters":14800,"station_id":"ce4bgg92rcd13ifvqb30","pricing_plan_id":"cebpf4jnsgd1na2vs0mg"},{"bike_id":"92b4870c-dbed-4330-9be5-cb1f91be9ff0","system_id":"levelo_inurba_marseille","lat":43.3132,"lon":5.397,"is_reserved":false,"is_disabled":false,"rental_uris":{"android":"levelo://app?vid=92b4870c-dbed-4330-9be5-cb1f91be9ff0","ios":"levelo://app?vid=92b4870c-dbed-4330-9be5-cb1f91be9ff0"},"vehicle_type_id":"4","last_reported":1756249756,"current_range_meters":15200,"station_id":"ce4bgvp2rcd13ifvqcu0","pricing_plan_id":"cebpf4jnsgd1na2vs0mg"},{"bike_id":"e71745a0-e1dd-46b2-b178-c77ff9f67425","system_id":"levelo_inurba_marseille","lat":43.231824,"lon":5.399809,"is_reserved":false,"is_disabled":false,"rental_uris":{"android":"levelo://app?vid=e71745a0-e1dd-46b2-b178-c77ff9f67425","ios":"levelo://app?vid=e71745a0-e1dd-46b2-b178-c77ff9f67425"},"vehicle_type_id":"4","last_reported":1756249756,"current_range_meters":15200,"station_id":"ce4bhn12rcd13ifvqgqg","pricing_plan_id":"cebpf4jnsgd1na2vs0mg"},{"bike_id":"16ffd5c2-31ae-43e4-9d4b-a32211f13845","system_id":"levelo_inurba_marseille","lat":43.31489,"lon":5.37312,"is_reserved":false,"is_disabled":false,"rental_uris":{"android":"levelo://app?vid=16ffd5c2-31ae-43e4-9d4b-a32211f13845","ios":"levelo://app?vid=16ffd5c2-31ae-43e4-9d4b-a32211f13845"},"vehicle_type_id":"4","last_reported":1756249756,"current_range_meters":16000,"station_id":"ce4bgt12rcd13ifvqcd0","pricing_plan_id":"cebpf4jnsgd1na2vs0mg"},{"bike_id":"b79f626f-4cce-45e0-9b7e-79f3f3a6033f","system_id":"levelo_inurba_marseille","lat":43.24644,"lon":5.43155,"is_reserved":false,"is_disabled":false,"rental_uris":{"android":"levelo://app?vid=b79f626f-4cce-45e0-9b7e-79f3f3a6033f","ios":"levelo://app?vid=b79f626f-4cce-45e0-9b7e-79f3f3a6033f"},"vehicle_type_id":"4","last_reported":1756249756,"current_range_meters":16000,"station_id":"st_d2m6c4gdas8pm72e190g","pricing_plan_id":"cebpf4jnsgd1na2vs0mg"},{"bike_id":"b3343c33-41a0-46c5-bc81-b2b62fd22fa5","system_id":"levelo_inurba_marseille","lat":43.28585,"lon":5.39496,"is_reserved":false,"is_disabled":false,"rental_uris":{"android":"levelo://app?vid=b3343c33-41a0-46c5-bc81-b2b62fd22fa5","ios":"levelo://app?vid=b3343c33-41a0-46c5-bc81-b2b62fd22fa5"},"vehicle_type_id":"4","last_reported":1756249756,"current_range_meters":16000,"station_id":"ce4bh292rcd13ifvqdg0","pricing_plan_id":"cebpf4jnsgd1na2vs0mg"},{"bike_id":"6b8cdbad-c5e7-407e-a592-48ac8f6f4f31","system_id":"levelo_inurba_marseille","lat":43.27322,"lon":5.39084,"is_reserved":false,"is_disabled":false,"rental_uris":{"android":"levelo://app?vid=6b8cdbad-c5e7-407e-a592-48ac8f6f4f31","ios":"levelo://app?vid=6b8cdbad-c5e7-407e-a592-48ac8f6f4f31"},"vehicle_type_id":"4","last_reported":1756249756,"current_range_meters":16000,"station_id":"ce4bhgp2rcd13ifvqfe0","pricing_plan_id":"cebpf4jnsgd1na2vs0mg"},{"bike_id":"904958da-a559-4431-9ab0-32329b60b785","system_id":"levelo_inurba_marseille","lat":43.2842,"lon":5.3752,"is_reserved":false,"is_disabled":false,"rental_uris":{"android":"levelo://app?vid=904958da-a559-4431-9ab0-32329b60b785","ios":"levelo://app?vid=904958da-a559-4431-9ab0-32329b60b785"},"vehicle_type_id":"4","last_reported":1756249756,"current_range_meters":16000,"station_id":"ce4bh412rcd13ifvqds0","pricing_plan_id":"cebpf4jnsgd1na2vs0mg"},{"bike_id":"d262369f-4201-4652-91ef-8adb9d2a4ede","system_id":"levelo_inurba_marseille","lat":43.24062,"lon":5.37771,"is_reserved":false,"is_disabled":false,"rental_uris":{"android":"levelo://app?vid=d262369f-4201-4652-91ef-8adb9d2a4ede","ios":"levelo://app?vid=d262369f-4201-4652-91ef-8adb9d2a4ede"},"vehicle_type_id":"4","last_reported":1756249756,"current_range_meters":16000,"station_id":"ce4bhnp2rcd13ifvqgvg","pricing_plan_id":"cebpf4jnsgd1na2vs0mg"},{"bike_id":"0098013d-2514-433d-8198-94b1fe0c2983","system_id":"levelo_inurba_marseille","lat":43.2707,"lon":5.42284,"is_reserved":false,"is_disabled":false,"rental_uris":{"android":"levelo://app?vid=0098013d-2514-433d-8198-94b1fe0c2983","ios":"levelo://app?vid=0098013d-2514-433d-8198-94b1fe0c2983"},"vehicle_type_id":"4","last_reported":1756249756,"current_range_meters":16000,"station_id":"ce4bhk92rcd13ifvqgb0","pricing_plan_id":"cebpf4jnsgd1na2vs0mg"},{"bike_id":"b9f20d2b-fdee-46df-8b9e-6b5b4480543c","system_id":"levelo_inurba_marseille","lat":43.30426,"lon":5.39742,"is_reserved":false,"is_disabled":false,"rental_uris":{"android":"levelo://app?vid=b9f20d2b-fdee-46df-8b9e-6b5b4480543c","ios":"levelo://app?vid=b9f20d2b-fdee-46df-8b9e-6b5b4480543c"},"vehicle_type_id":"4","last_reported":1756249756,"current_range_meters":16400,"station_id":"ce4bh092rcd13ifvqd20","pricing_plan_id":"cebpf4jnsgd1na2vs0mg"},{"bike_id":"005b2c18-407d-4c05-91f5-76d26bf73b20","system_id":"levelo_inurba_marseille","lat":43.30781,"lon":5.38181,"is_reserved":false,"is_disabled":false,"rental_uris":{"android":"levelo://app?vid=005b2c18-407d-4c05-91f5-76d26bf73b20","ios":"levelo://app?vid=005b2c18-407d-4c05-91f5-76d26bf73b20"},"vehicle_type_id":"4","last_reported":1756249756,"current_range_meters":16400,"station_id":"ce4bgt12rcd13ifvqce0","pricing_plan_id":"cebpf4jnsgd1na2vs0mg"},{"bike_id":"f8e69672-be0f-4640-be31-c54101534892","system_id":"levelo_inurba_marseille","lat":43.30423,"lon":5.4129,"is_reserved":false,"is_disabled":false,"rental_uris":{"android":"levelo://app?vid=f8e69672-be0f-4640-be31-c54101534892","ios":"levelo://app?vid=f8e69672-be0f-4640-be31-c54101534892"},"vehicle_type_id":"4","last_reported":1756249756,"current_range_meters":16400,"station_id":"ce4bhop2rcd13ifvqh8g","pricing_plan_id":"cebpf4jnsgd1na2vs0mg"},{"bike_id":"87f751ad-0e3f-45d9-a464-a6a64567f2dd","system_id":"levelo_inurba_marseille","lat":43.25126,"lon":5.40335,"is_reserved":false,"is_disabled":false,"rental_uris":{"android":"levelo://app?vid=87f751ad-0e3f-45d9-a464-a6a64567f2dd","ios":"levelo://app?vid=87f751ad-0e3f-45d9-a464-a6a64567f2dd"},"vehicle_type_id":"4","last_reported":1756249756,"current_range_meters":16400,"station_id":"ce4bhlh2rcd13ifvqgig","pricing_plan_id":"cebpf4jnsgd1na2vs0mg"},{"bike_id":"fe181338-fb88-4a8c-9d9a-8641023dd72c","system_id":"levelo_inurba_marseille","lat":43.29298,"lon":5.40169,"is_reserved":false,"is_disabled":false,"rental_uris":{"android":"levelo://app?vid=fe181338-fb88-4a8c-9d9a-8641023dd72c","ios":"levelo://app?vid=fe181338-fb88-4a8c-9d9a-8641023dd72c"},"vehicle_type_id":"4","last_reported":1756249756,"current_range_meters":16400,"station_id":"","pricing_plan_id":"cebpf4jnsgd1na2vs0mg"},{"bike_id":"61d57af3-4d0f-4789-bb77-f21e0badc633","system_id":"levelo_inurba_marseille","lat":43.31119,"lon":5.37759,"is_reserved":false,"is_disabled":false,"rental_uris":{"android":"levelo://app?vid=61d57af3-4d0f-4789-bb77-f21e0badc633","ios":"levelo://app?vid=61d57af3-4d0f-4789-bb77-f21e0badc633"},"vehicle_type_id":"4","last_reported":1756249756,"current_range_meters":16400,"station_id":"ce4bgt92rcd13ifvqcg0","pricing_plan_id":"cebpf4jnsgd1na2vs0mg"},{"bike_id":"0306ba73-3d0f-4523-9d11-9a4554b2d8ff","system_id":"levelo_inurba_marseille","lat":43.21186,"lon":5.3508,"is_reserved":false,"is_disabled":false,"rental_uris":{"android":"levelo://app?vid=0306ba73-3d0f-4523-9d11-9a4554b2d8ff","ios":"levelo://app?vid=0306ba73-3d0f-4523-9d11-9a4554b2d8ff"},"vehicle_type_id":"4","last_reported":1756249756,"current_range_meters":16400,"station_id":"st_cvj6sg6p6f1abm77japg","pricing_plan_id":"cebpf4jnsgd1na2vs0mg"},{"bike_id":"148b3563-fa76-4398-9867-f2cca510a852","system_id":"levelo_inurba_marseille","lat":43.28002,"lon":5.41665,"is_reserved":false,"is_disabled":false,"rental_uris":{"android":"levelo://app?vid=148b3563-fa76-4398-9867-f2cca510a852","ios":"levelo://app?vid=148b3563-fa76-4398-9867-f2cca510a852"},"vehicle_type_id":"4","last_reported":1756249756,"current_range_meters":16400,"station_id":"ce4bho12rcd13ifvqh1g","pricing_plan_id":"cebpf4jnsgd1na2vs0mg"},{"bike_id":"a7a53c19-66aa-4d2e-85c1-ae889e6d2638","system_id":"levelo_inurba_marseille","lat":43.30838,"lon":5.43516,"is_reserved":false,"is_disabled":false,"rental_uris":{"android":"levelo://app?vid=a7a53c19-66aa-4d2e-85c1-ae889e6d2638","ios":"levelo://app?vid=a7a53c19-66aa-4d2e-85c1-ae889e6d2638"},"vehicle_type_id":"4","last_reported":1756249756,"current_range_meters":16400,"station_id":"ce4bhph2rcd13ifvqheg","pricing_plan_id":"cebpf4jnsgd1na2vs0mg"},{"bike_id":"bd3ad3c1-6706-40fc-8c2f-0af6b414c661","system_id":"levelo_inurba_marseille","lat":43.28497,"lon":5.38574,"is_reserved":false,"is_disabled":false,"rental_uris":{"android":"levelo://app?vid=bd3ad3c1-6706-40fc-8c2f-0af6b414c661","ios":"levelo://app?vid=bd3ad3c1-6706-40fc-8c2f-0af6b414c661"},"vehicle_type_id":"4","last_reported":1756249756,"current_range_meters":16400,"station_id":"ce4bh8p2rcd13ifvqeb0","pricing_plan_id":"cebpf4jnsgd1na2vs0mg"},{"bike_id":"2143584e-0e72-4d85-883f-884580f89ac4","system_id":"levelo_inurba_marseille","lat":43.24229,"lon":5.39707,"is_reserved":false,"is_disabled":false,"rental_uris":{"android":"levelo://app?vid=2143584e-0e72-4d85-883f-884580f89ac4","ios":"levelo://app?vid=2143584e-0e72-4d85-883f-884580f89ac4"},"vehicle_type_id":"4","last_reported":1756249756,"current_range_meters":16800,"station_id":"ce4bhn12rcd13ifvqgpg","pricing_plan_id":"cebpf4jnsgd1na2vs0mg"},{"bike_id":"b5ae0016-67e1-4c37-91cb-4d986fbc09a4","system_id":"levelo_inurba_marseille","lat":43.24624,"lon":5.43139,"is_reserved":false,"is_disabled":false,"rental_uris":{"android":"levelo://app?vid=b5ae0016-67e1-4c37-91cb-4d986fbc09a4","ios":"levelo://app?vid=b5ae0016-67e1-4c37-91cb-4d986fbc09a4"},"vehicle_type_id":"4","last_reported":1756249756,"current_range_meters":16800,"station_id":"st_d2m6c4gdas8pm72e190g","pricing_plan_id":"cebpf4jnsgd1na2vs0mg"},{"bike_id":"b5133710-52a6-42c6-b487-40f265b37cba","system_id":"levelo_inurba_marseille","lat":43.30809,"lon":5.43485,"is_reserved":false,"is_disabled":false,"rental_uris":{"android":"levelo://app?vid=b5133710-52a6-42c6-b487-40f265b37cba","ios":"levelo://app?vid=b5133710-52a6-42c6-b487-40f265b37cba"},"vehicle_type_id":"4","last_reported":1756249756,"current_range_meters":16800,"station_id":"ce4bhph2rcd13ifvqheg","pricing_plan_id":"cebpf4jnsgd1na2vs0mg"},{"bike_id":"f770de0b-2599-4f2d-8ce3-8a9e24116e0a","system_id":"levelo_inurba_marseille","lat":43.25091,"lon":5.39523,"is_reserved":false,"is_disabled":false,"rental_uris":{"android":"levelo://app?vid=f770de0b-2599-4f2d-8ce3-8a9e24116e0a","ios":"levelo://app?vid=f770de0b-2599-4f2d-8ce3-8a9e24116e0a"},"vehicle_type_id":"4","last_reported":1756249756,"current_range_meters":16800,"station_id":"ce4bhm12rcd13ifvqgkg","pricing_plan_id":"cebpf4jnsgd1na2vs0mg"},{"bike_id":"1dec5f96-d953-4203-b13d-0ce3f02e61a0","system_id":"levelo_inurba_marseille","lat":43.27065,"lon":5.42272,"is_reserved":false,"is_disabled":false,"rental_uris":{"android":"levelo://app?vid=1dec5f96-d953-4203-b13d-0ce3f02e61a0","ios":"levelo://app?vid=1dec5f96-d953-4203-b13d-0ce3f02e61a0"},"vehicle_type_id":"4","last_reported":1756249756,"current_range_meters":16800,"station_id":"ce4bhk92rcd13ifvqgb0","pricing_plan_id":"cebpf4jnsgd1na2vs0mg"},{"bike_id":"2e131540-b2e9-4376-9854-eb0061cc45b5","system_id":"levelo_inurba_marseille","lat":43.31075,"lon":5.38354,"is_reserved":false,"is_disabled":false,"rental_uris":{"android":"levelo://app?vid=2e131540-b2e9-4376-9854-eb0061cc45b5","ios":"levelo://app?vid=2e131540-b2e9-4376-9854-eb0061cc45b5"},"vehicle_type_id":"4","last_reported":1756249756,"current_range_meters":16800,"station_id":"ce4bgv92rcd13ifvqcr0","pricing_plan_id":"cebpf4jnsgd1na2vs0mg"},{"bike_id":"f3a5cd40-5bb7-43ee-b794-3db1f6a09aa3","system_id":"levelo_inurba_marseille","lat":43.31085,"lon":5.424311,"is_reserved":false,"is_disabled":false,"rental_uris":{"android":"levelo://app?vid=f3a5cd40-5bb7-43ee-b794-3db1f6a09aa3","ios":"levelo://app?vid=f3a5cd40-5bb7-43ee-b794-3db1f6a09aa3"},"vehicle_type_id":"4","last_reported":1756249756,"current_range_meters":16800,"station_id":"ce4bhp92rcd13ifvqhag","pricing_plan_id":"cebpf4jnsgd1na2vs0mg"},{"bike_id":"412ca752-6704-477a-a2f3-b26874f736f1","system_id":"levelo_inurba_marseille","lat":43.24071,"lon":5.37765,"is_reserved":false,"is_disabled":false,"rental_uris":{"android":"levelo://app?vid=412ca752-6704-477a-a2f3-b26874f736f1","ios":"levelo://app?vid=412ca752-6704-477a-a2f3-b26874f736f1"},"vehicle_type_id":"4","last_reported":1756249756,"current_range_meters":16800,"station_id":"ce4bhnp2rcd13ifvqgvg","pricing_plan_id":"cebpf4jnsgd1na2vs0mg"},{"bike_id":"115f05a5-882e-4ebd-bc16-8739ad4b153a","system_id":"levelo_inurba_marseille","lat":43.26039,"lon":5.37558,"is_reserved":false,"is_disabled":true,"rental_uris":{"android":"levelo://app?vid=115f05a5-882e-4ebd-bc16-8739ad4b153a","ios":"levelo://app?vid=115f05a5-882e-4ebd-bc16-8739ad4b153a"},"vehicle_type_id":"4","last_reported":1756249756,"current_range_meters":16800,"station_id":"ce4bhgh2rcd13ifvqfa0","pricing_plan_id":"cebpf4jnsgd1na2vs0mg"},{"bike_id":"ff1bb8b5-d1e3-4c05-ab59-ddf6bb569c56","system_id":"levelo_inurba_marseille","lat":43.27542,"lon":5.38461,"is_reserved":false,"is_disabled":false,"rental_uris":{"android":"levelo://app?vid=ff1bb8b5-d1e3-4c05-ab59-ddf6bb569c56","ios":"levelo://app?vid=ff1bb8b5-d1e3-4c05-ab59-ddf6bb569c56"},"vehicle_type_id":"4","last_reported":1756249756,"current_range_meters":16800,"station_id":"ce4bhh92rcd13ifvqfi0","pricing_plan_id":"cebpf4jnsgd1na2vs0mg"},{"bike_id":"3dff11d5-3872-4ffe-8cce-b5631d6c6058","system_id":"levelo_inurba_marseille","lat":43.32682,"lon":5.39168,"is_reserved":false,"is_disabled":false,"rental_uris":{"android":"levelo://app?vid=3dff11d5-3872-4ffe-8cce-b5631d6c6058","ios":"levelo://app?vid=3dff11d5-3872-4ffe-8cce-b5631d6c6058"},"vehicle_type_id":"4","last_reported":1756249756,"current_range_meters":16800,"station_id":"","pricing_plan_id":"cebpf4jnsgd1na2vs0mg"},{"bike_id":"4e54e4fd-bbbf-4d68-a084-2926b89872a0","system_id":"levelo_inurba_marseille","lat":43.29225,"lon":5.39335,"is_reserved":false,"is_disabled":false,"rental_uris":{"android":"levelo://app?vid=4e54e4fd-bbbf-4d68-a084-2926b89872a0","ios":"levelo://app?vid=4e54e4fd-bbbf-4d68-a084-2926b89872a0"},"vehicle_type_id":"4","last_reported":1756249756,"current_range_meters":16800,"station_id":"ce4bh192rcd13ifvqdd0","pricing_plan_id":"cebpf4jnsgd1na2vs0mg"},{"bike_id":"cb567a16-f56a-4bcd-9c16-b35cef4fac8f","system_id":"levelo_inurba_marseille","lat":43.29847,"lon":5.38906,"is_reserved":false,"is_disabled":true,"rental_uris":{"android":"levelo://app?vid=cb567a16-f56a-4bcd-9c16-b35cef4fac8f","ios":"levelo://app?vid=cb567a16-f56a-4bcd-9c16-b35cef4fac8f"},"vehicle_type_id":"4","last_reported":1756249756,"current_range_meters":16800,"station_id":"ce4bh392rcd13ifvqdl0","pricing_plan_id":"cebpf4jnsgd1na2vs0mg"},{"bike_id":"4d28c8ea-480e-498e-8ec9-be6bf3a3fe48","system_id":"levelo_inurba_marseille","lat":43.2843,"lon":5.37505,"is_reserved":false,"is_disabled":false,"rental_uris":{"android":"levelo://app?vid=4d28c8ea-480e-498e-8ec9-be6bf3a3fe48","ios":"levelo://app?vid=4d28c8ea-480e-498e-8ec9-be6bf3a3fe48"},"vehicle_type_id":"4","last_reported":1756249756,"current_range_meters":16800,"station_id":"ce4bh412rcd13ifvqds0","pricing_plan_id":"cebpf4jnsgd1na2vs0mg"},{"bike_id":"bdf2c27a-9121-4680-b031-b2a0120933b2","system_id":"levelo_inurba_marseille","lat":43.28493,"lon":5.38553,"is_reserved":false,"is_disabled":false,"rental_uris":{"android":"levelo://app?vid=bdf2c27a-9121-4680-b031-b2a0120933b2","ios":"levelo://app?vid=bdf2c27a-9121-4680-b031-b2a0120933b2"},"vehicle_type_id":"4","last_reported":1756249756,"current_range_meters":16800,"station_id":"ce4bh8p2rcd13ifvqeb0","pricing_plan_id":"cebpf4jnsgd1na2vs0mg"},{"bike_id":"e4b35d5a-908b-4b97-8341-4396d77099da","system_id":"levelo_inurba_marseille","lat":43.273694,"lon":5.362478,"is_reserved":false,"is_disabled":true,"rental_uris":{"android":"levelo://app?vid=e4b35d5a-908b-4b97-8341-4396d77099da","ios":"levelo://app?vid=e4b35d5a-908b-4b97-8341-4396d77099da"},"vehicle_type_id":"4","last_reported":1756249756,"current_range_meters":16800,"station_id":"ce4bhbh2rcd13ifvqeo0","pricing_plan_id":"cebpf4jnsgd1na2vs0mg"},{"bike_id":"6dc4ca6b-526a-4ff1-8be5-1aaeb9ebadfc","system_id":"levelo_inurba_marseille","lat":43.31363,"lon":5.38502,"is_reserved":false,"is_disabled":false,"rental_uris":{"android":"levelo://app?vid=6dc4ca6b-526a-4ff1-8be5-1aaeb9ebadfc","ios":"levelo://app?vid=6dc4ca6b-526a-4ff1-8be5-1aaeb9ebadfc"},"vehicle_type_id":"4","last_reported":1756249756,"current_range_meters":17200,"station_id":"ce4bgt92rcd13ifvqcf0","pricing_plan_id":"cebpf4jnsgd1na2vs0mg"},{"bike_id":"9cee6ac4-b323-4dc3-9e81-cfd228e75a7f","system_id":"levelo_inurba_marseille","lat":43.31162,"lon":5.39471,"is_reserved":false,"is_disabled":false,"rental_uris":{"android":"levelo://app?vid=9cee6ac4-b323-4dc3-9e81-cfd228e75a7f","ios":"levelo://app?vid=9cee6ac4-b323-4dc3-9e81-cfd228e75a7f"},"vehicle_type_id":"4","last_reported":1756249756,"current_range_meters":17200,"station_id":"","pricing_plan_id":"cebpf4jnsgd1na2vs0mg"},{"bike_id":"685105d1-bcda-4899-9d64-d94adf158a64","system_id":"levelo_inurba_marseille","lat":43.314676,"lon":5.373608,"is_reserved":false,"is_disabled":true,"rental_uris":{"android":"levelo://app?vid=685105d1-bcda-4899-9d64-d94adf158a64","ios":"levelo://app?vid=685105d1-bcda-4899-9d64-d94adf158a64"},"vehicle_type_id":"4","last_reported":1756249756,"current_range_meters":17200,"station_id":"","pricing_plan_id":"cebpf4jnsgd1na2vs0mg"},{"bike_id":"e5eabf25-4e1c-476e-b130-9f83cdcfc80c","system_id":"levelo_inurba_marseille","lat":43.29803,"lon":5.41712,"is_reserved":false,"is_disabled":false,"rental_uris":{"android":"levelo://app?vid=e5eabf25-4e1c-476e-b130-9f83cdcfc80c","ios":"levelo://app?vid=e5eabf25-4e1c-476e-b130-9f83cdcfc80c"},"vehicle_type_id":"4","last_reported":1756249756,"current_range_meters":17200,"station_id":"","pricing_plan_id":"cebpf4jnsgd1na2vs0mg"},{"bike_id":"9d2c80df-2423-4f32-b331-72fea580046d","system_id":"levelo_inurba_marseille","lat":43.3025,"lon":5.40067,"is_reserved":false,"is_disabled":false,"rental_uris":{"android":"levelo://app?vid=9d2c80df-2423-4f32-b331-72fea580046d","ios":"levelo://app?vid=9d2c80df-2423-4f32-b331-72fea580046d"},"vehicle_type_id":"4","last_reported":1756249756,"current_range_meters":17200,"station_id":"ce4bgvh2rcd13ifvqcs0","pricing_plan_id":"cebpf4jnsgd1na2vs0mg"},{"bike_id":"05333f1f-8cc0-4dc9-bbd8-a1f0e18ceb88","system_id":"levelo_inurba_marseille","lat":43.26292,"lon":5.39904,"is_reserved":false,"is_disabled":false,"rental_uris":{"android":"levelo://app?vid=05333f1f-8cc0-4dc9-bbd8-a1f0e18ceb88","ios":"levelo://app?vid=05333f1f-8cc0-4dc9-bbd8-a1f0e18ceb88"},"vehicle_type_id":"4","last_reported":1756249756,"current_range_meters":17200,"station_id":"","pricing_plan_id":"cebpf4jnsgd1na2vs0mg"},{"bike_id":"e29338e4-5c17-4367-ab18-ea12d313c815","system_id":"levelo_inurba_marseille","lat":43.31362,"lon":5.384959,"is_reserved":false,"is_disabled":false,"rental_uris":{"android":"levelo://app?vid=e29338e4-5c17-4367-ab18-ea12d313c815","ios":"levelo://app?vid=e29338e4-5c17-4367-ab18-ea12d313c815"},"vehicle_type_id":"4","last_reported":1756249756,"current_range_meters":17200,"station_id":"ce4bgt92rcd13ifvqcf0","pricing_plan_id":"cebpf4jnsgd1na2vs0mg"},{"bike_id":"da8842a0-88c3-4044-b3f3-635f6bfeff51","system_id":"levelo_inurba_marseille","lat":43.31712,"lon":5.43711,"is_reserved":false,"is_disabled":false,"rental_uris":{"android":"levelo://app?vid=da8842a0-88c3-4044-b3f3-635f6bfeff51","ios":"levelo://app?vid=da8842a0-88c3-4044-b3f3-635f6bfeff51"},"vehicle_type_id":"4","last_reported":1756249756,"current_range_meters":17200,"station_id":"ce4bhp92rcd13ifvqhcg","pricing_plan_id":"cebpf4jnsgd1na2vs0mg"},{"bike_id":"db7d3d83-f39a-4469-8445-29697e69fec4","system_id":"levelo_inurba_marseille","lat":43.32145,"lon":5.38603,"is_reserved":false,"is_disabled":false,"rental_uris":{"android":"levelo://app?vid=db7d3d83-f39a-4469-8445-29697e69fec4","ios":"levelo://app?vid=db7d3d83-f39a-4469-8445-29697e69fec4"},"vehicle_type_id":"4","last_reported":1756249756,"current_range_meters":17200,"station_id":"","pricing_plan_id":"cebpf4jnsgd1na2vs0mg"},{"bike_id":"01f1e178-b0c5-4455-9df7-4d991cff7aa0","system_id":"levelo_inurba_marseille","lat":43.29245,"lon":5.39317,"is_reserved":false,"is_disabled":false,"rental_uris":{"android":"levelo://app?vid=01f1e178-b0c5-4455-9df7-4d991cff7aa0","ios":"levelo://app?vid=01f1e178-b0c5-4455-9df7-4d991cff7aa0"},"vehicle_type_id":"4","last_reported":1756249756,"current_range_meters":17600,"station_id":"ce4bh192rcd13ifvqdd0","pricing_plan_id":"cebpf4jnsgd1na2vs0mg"},{"bike_id":"f01a8f5a-0f24-412e-b0ec-90c80d131e83","system_id":"levelo_inurba_marseille","lat":43.24623,"lon":5.40915,"is_reserved":false,"is_disabled":false,"rental_uris":{"android":"levelo://app?vid=f01a8f5a-0f24-412e-b0ec-90c80d131e83","ios":"levelo://app?vid=f01a8f5a-0f24-412e-b0ec-90c80d131e83"},"vehicle_type_id":"4","last_reported":1756249756,"current_range_meters":17600,"station_id":"","pricing_plan_id":"cebpf4jnsgd1na2vs0mg"},{"bike_id":"97e37449-52bf-4c14-bb1d-8a531aa36dcb","system_id":"levelo_inurba_marseille","lat":43.23196,"lon":5.35552,"is_reserved":false,"is_disabled":false,"rental_uris":{"android":"levelo://app?vid=97e37449-52bf-4c14-bb1d-8a531aa36dcb","ios":"levelo://app?vid=97e37449-52bf-4c14-bb1d-8a531aa36dcb"},"vehicle_type_id":"4","last_reported":1756249756,"current_range_meters":17600,"station_id":"ce4bhu92rcd13ifvqi70","pricing_plan_id":"cebpf4jnsgd1na2vs0mg"},{"bike_id":"eca09775-f08f-4714-8c59-156a45a1fa74","system_id":"levelo_inurba_marseille","lat":43.28853,"lon":5.35845,"is_reserved":false,"is_disabled":false,"rental_uris":{"android":"levelo://app?vid=eca09775-f08f-4714-8c59-156a45a1fa74","ios":"levelo://app?vid=eca09775-f08f-4714-8c59-156a45a1fa74"},"vehicle_type_id":"4","last_reported":1756249756,"current_range_meters":17600,"station_id":"ce4bhb12rcd13ifvqem0","pricing_plan_id":"cebpf4jnsgd1na2vs0mg"},{"bike_id":"cd822ebe-8d01-44f2-b9e8-1f0b3a981bae","system_id":"levelo_inurba_marseille","lat":43.28886,"lon":5.3583,"is_reserved":false,"is_disabled":true,"rental_uris":{"android":"levelo://app?vid=cd822ebe-8d01-44f2-b9e8-1f0b3a981bae","ios":"levelo://app?vid=cd822ebe-8d01-44f2-b9e8-1f0b3a981bae"},"vehicle_type_id":"4","last_reported":1756249756,"current_range_meters":17600,"station_id":"ce4bhb12rcd13ifvqem0","pricing_plan_id":"cebpf4jnsgd1na2vs0mg"},{"bike_id":"14f2b864-cea9-45e8-a4b9-eb9637fd7d14","system_id":"levelo_inurba_marseille","lat":43.29055,"lon":5.37152,"is_reserved":false,"is_disabled":true,"rental_uris":{"android":"levelo://app?vid=14f2b864-cea9-45e8-a4b9-eb9637fd7d14","ios":"levelo://app?vid=14f2b864-cea9-45e8-a4b9-eb9637fd7d14"},"vehicle_type_id":"4","last_reported":1756249756,"current_range_meters":17600,"station_id":"ce4bh5p2rcd13ifvqe4g","pricing_plan_id":"cebpf4jnsgd1na2vs0mg"},{"bike_id":"5c26a54e-1e97-4ad3-a16d-614ad930b130","system_id":"levelo_inurba_marseille","lat":43.32103,"lon":5.36771,"is_reserved":false,"is_disabled":false,"rental_uris":{"android":"levelo://app?vid=5c26a54e-1e97-4ad3-a16d-614ad930b130","ios":"levelo://app?vid=5c26a54e-1e97-4ad3-a16d-614ad930b130"},"vehicle_type_id":"4","last_reported":1756249756,"current_range_meters":18000,"station_id":"ce4bhrh2rcd13ifvqhug","pricing_plan_id":"cebpf4jnsgd1na2vs0mg"},{"bike_id":"71136ea1-3aaf-4521-8084-554abe261412","system_id":"levelo_inurba_marseille","lat":43.303037,"lon":5.369059,"is_reserved":false,"is_disabled":true,"rental_uris":{"android":"levelo://app?vid=71136ea1-3aaf-4521-8084-554abe261412","ios":"levelo://app?vid=71136ea1-3aaf-4521-8084-554abe261412"},"vehicle_type_id":"4","last_reported":1756249756,"current_range_meters":18000,"station_id":"","pricing_plan_id":"cebpf4jnsgd1na2vs0mg"},{"bike_id":"fc33c77b-a9d9-4a1b-847c-adcfbe10f61e","system_id":"levelo_inurba_marseille","lat":43.24652,"lon":5.38159,"is_reserved":false,"is_disabled":false,"rental_uris":{"android":"levelo://app?vid=fc33c77b-a9d9-4a1b-847c-adcfbe10f61e","ios":"levelo://app?vid=fc33c77b-a9d9-4a1b-847c-adcfbe10f61e"},"vehicle_type_id":"4","last_reported":1756249756,"current_range_meters":18000,"station_id":"ce4bhih2rcd13ifvqfr0","pricing_plan_id":"cebpf4jnsgd1na2vs0mg"},{"bike_id":"dae9d78a-1ee2-42e8-89e0-34657556fb09","system_id":"levelo_inurba_marseille","lat":43.28158,"lon":5.42644,"is_reserved":false,"is_disabled":false,"rental_uris":{"android":"levelo://app?vid=dae9d78a-1ee2-42e8-89e0-34657556fb09","ios":"levelo://app?vid=dae9d78a-1ee2-42e8-89e0-34657556fb09"},"vehicle_type_id":"4","last_reported":1756249756,"current_range_meters":18000,"station_id":"ce4bhnh2rcd13ifvqgug","pricing_plan_id":"cebpf4jnsgd1na2vs0mg"},{"bike_id":"76931a50-f6ce-4372-9db5-3156eb781040","system_id":"levelo_inurba_marseille","lat":43.30883,"lon":5.39637,"is_reserved":false,"is_disabled":false,"rental_uris":{"android":"levelo://app?vid=76931a50-f6ce-4372-9db5-3156eb781040","ios":"levelo://app?vid=76931a50-f6ce-4372-9db5-3156eb781040"},"vehicle_type_id":"4","last_reported":1756249756,"current_range_meters":18000,"station_id":"ce4bh012rcd13ifvqcv0","pricing_plan_id":"cebpf4jnsgd1na2vs0mg"},{"bike_id":"e07a65e8-83ab-478d-a76c-85052b2e954f","system_id":"levelo_inurba_marseille","lat":43.32657,"lon":5.40998,"is_reserved":false,"is_disabled":false,"rental_uris":{"android":"levelo://app?vid=e07a65e8-83ab-478d-a76c-85052b2e954f","ios":"levelo://app?vid=e07a65e8-83ab-478d-a76c-85052b2e954f"},"vehicle_type_id":"4","last_reported":1756249756,"current_range_meters":17600,"station_id":"ce4bhpp2rcd13ifvqhgg","pricing_plan_id":"cebpf4jnsgd1na2vs0mg"},{"bike_id":"95f848b0-16a6-4e4a-9b12-04276a2c6679","system_id":"levelo_inurba_marseille","lat":43.29236,"lon":5.40917,"is_reserved":false,"is_disabled":true,"rental_uris":{"android":"levelo://app?vid=95f848b0-16a6-4e4a-9b12-04276a2c6679","ios":"levelo://app?vid=95f848b0-16a6-4e4a-9b12-04276a2c6679"},"vehicle_type_id":"4","last_reported":1756249756,"current_range_meters":18000,"station_id":"ce4bh192rcd13ifvqdc0","pricing_plan_id":"cebpf4jnsgd1na2vs0mg"},{"bike_id":"a9d83b21-9821-4029-bb59-40c830188146","system_id":"levelo_inurba_marseille","lat":43.32354,"lon":5.36705,"is_reserved":false,"is_disabled":false,"rental_uris":{"android":"levelo://app?vid=a9d83b21-9821-4029-bb59-40c830188146","ios":"levelo://app?vid=a9d83b21-9821-4029-bb59-40c830188146"},"vehicle_type_id":"4","last_reported":1756249756,"current_range_meters":18000,"station_id":"","pricing_plan_id":"cebpf4jnsgd1na2vs0mg"},{"bike_id":"f67c8e5e-7af8-4847-a4ce-1e12088b4291","system_id":"levelo_inurba_marseille","lat":43.32525,"lon":5.3686,"is_reserved":false,"is_disabled":false,"rental_uris":{"android":"levelo://app?vid=f67c8e5e-7af8-4847-a4ce-1e12088b4291","ios":"levelo://app?vid=f67c8e5e-7af8-4847-a4ce-1e12088b4291"},"vehicle_type_id":"4","last_reported":1756249756,"current_range_meters":18000,"station_id":"","pricing_plan_id":"cebpf4jnsgd1na2vs0mg"},{"bike_id":"2c71398d-ba53-45bb-a8fa-c446997de45a","system_id":"levelo_inurba_marseille","lat":43.32104,"lon":5.36771,"is_reserved":false,"is_disabled":false,"rental_uris":{"android":"levelo://app?vid=2c71398d-ba53-45bb-a8fa-c446997de45a","ios":"levelo://app?vid=2c71398d-ba53-45bb-a8fa-c446997de45a"},"vehicle_type_id":"4","last_reported":1756249756,"current_range_meters":18000,"station_id":"ce4bhrh2rcd13ifvqhug","pricing_plan_id":"cebpf4jnsgd1na2vs0mg"},{"bike_id":"182848e1-c128-499b-944e-cad0c910e9fb","system_id":"levelo_inurba_marseille","lat":43.21188,"lon":5.35077,"is_reserved":false,"is_disabled":false,"rental_uris":{"android":"levelo://app?vid=182848e1-c128-499b-944e-cad0c910e9fb","ios":"levelo://app?vid=182848e1-c128-499b-944e-cad0c910e9fb"},"vehicle_type_id":"4","last_reported":1756249756,"current_range_meters":18000,"station_id":"st_cvj6sg6p6f1abm77japg","pricing_plan_id":"cebpf4jnsgd1na2vs0mg"},{"bike_id":"ffd21136-ae47-45ee-8fc5-e7f85ea84802","system_id":"levelo_inurba_marseille","lat":43.297746,"lon":5.380987,"is_reserved":false,"is_disabled":false,"rental_uris":{"android":"levelo://app?vid=ffd21136-ae47-45ee-8fc5-e7f85ea84802","ios":"levelo://app?vid=ffd21136-ae47-45ee-8fc5-e7f85ea84802"},"vehicle_type_id":"4","last_reported":1756249756,"current_range_meters":18000,"station_id":"ce4bgip2rcd13ifvqbb0","pricing_plan_id":"cebpf4jnsgd1na2vs0mg"},{"bike_id":"9e748692-5855-43ee-aa5c-10f2fc5f505a","system_id":"levelo_inurba_marseille","lat":43.31122,"lon":5.37762,"is_reserved":false,"is_disabled":false,"rental_uris":{"android":"levelo://app?vid=9e748692-5855-43ee-aa5c-10f2fc5f505a","ios":"levelo://app?vid=9e748692-5855-43ee-aa5c-10f2fc5f505a"},"vehicle_type_id":"4","last_reported":1756249756,"current_range_meters":18000,"station_id":"ce4bgt92rcd13ifvqcg0","pricing_plan_id":"cebpf4jnsgd1na2vs0mg"},{"bike_id":"3f2116d9-8d47-4362-8585-93d27bf7fe84","system_id":"levelo_inurba_marseille","lat":43.26569,"lon":5.39009,"is_reserved":false,"is_disabled":false,"rental_uris":{"android":"levelo://app?vid=3f2116d9-8d47-4362-8585-93d27bf7fe84","ios":"levelo://app?vid=3f2116d9-8d47-4362-8585-93d27bf7fe84"},"vehicle_type_id":"4","last_reported":1756249756,"current_range_meters":18000,"station_id":"ce4bhe12rcd13ifvqf30","pricing_plan_id":"cebpf4jnsgd1na2vs0mg"},{"bike_id":"90bb742c-2a0e-410e-9f09-b23666cd7d36","system_id":"levelo_inurba_marseille","lat":43.30418,"lon":5.4129,"is_reserved":false,"is_disabled":false,"rental_uris":{"android":"levelo://app?vid=90bb742c-2a0e-410e-9f09-b23666cd7d36","ios":"levelo://app?vid=90bb742c-2a0e-410e-9f09-b23666cd7d36"},"vehicle_type_id":"4","last_reported":1756249756,"current_range_meters":18000,"station_id":"ce4bhop2rcd13ifvqh8g","pricing_plan_id":"cebpf4jnsgd1na2vs0mg"},{"bike_id":"c561b3be-23f4-46ed-8d38-1fc2450f503d","system_id":"levelo_inurba_marseille","lat":43.23653,"lon":5.36201,"is_reserved":false,"is_disabled":false,"rental_uris":{"android":"levelo://app?vid=c561b3be-23f4-46ed-8d38-1fc2450f503d","ios":"levelo://app?vid=c561b3be-23f4-46ed-8d38-1fc2450f503d"},"vehicle_type_id":"4","last_reported":1756249756,"current_range_meters":18000,"station_id":"","pricing_plan_id":"cebpf4jnsgd1na2vs0mg"},{"bike_id":"9c2ed007-e70f-4ae1-98d7-1c5119a30cf4","system_id":"levelo_inurba_marseille","lat":43.28915,"lon":5.36641,"is_reserved":false,"is_disabled":false,"rental_uris":{"android":"levelo://app?vid=9c2ed007-e70f-4ae1-98d7-1c5119a30cf4","ios":"levelo://app?vid=9c2ed007-e70f-4ae1-98d7-1c5119a30cf4"},"vehicle_type_id":"4","last_reported":1756249756,"current_range_meters":18000,"station_id":"ce4bhap2rcd13ifvqek0","pricing_plan_id":"cebpf4jnsgd1na2vs0mg"},{"bike_id":"87f8fe86-347d-431d-873f-156077d4e147","system_id":"levelo_inurba_marseille","lat":43.27306,"lon":5.39096,"is_reserved":false,"is_disabled":false,"rental_uris":{"android":"levelo://app?vid=87f8fe86-347d-431d-873f-156077d4e147","ios":"levelo://app?vid=87f8fe86-347d-431d-873f-156077d4e147"},"vehicle_type_id":"4","last_reported":1756249756,"current_range_meters":18800,"station_id":"ce4bhgp2rcd13ifvqfe0","pricing_plan_id":"cebpf4jnsgd1na2vs0mg"},{"bike_id":"d9b5a70e-8ef3-45d5-b1bd-44dd3688175e","system_id":"levelo_inurba_marseille","lat":43.30891,"lon":5.39653,"is_reserved":false,"is_disabled":false,"rental_uris":{"android":"levelo://app?vid=d9b5a70e-8ef3-45d5-b1bd-44dd3688175e","ios":"levelo://app?vid=d9b5a70e-8ef3-45d5-b1bd-44dd3688175e"},"vehicle_type_id":"4","last_reported":1756249756,"current_range_meters":18800,"station_id":"ce4bh012rcd13ifvqcv0","pricing_plan_id":"cebpf4jnsgd1na2vs0mg"},{"bike_id":"ca1f8c62-27dc-4b7e-8f0e-b3651a1fe9c5","system_id":"levelo_inurba_marseille","lat":43.31109,"lon":5.3776,"is_reserved":false,"is_disabled":false,"rental_uris":{"android":"levelo://app?vid=ca1f8c62-27dc-4b7e-8f0e-b3651a1fe9c5","ios":"levelo://app?vid=ca1f8c62-27dc-4b7e-8f0e-b3651a1fe9c5"},"vehicle_type_id":"4","last_reported":1756249756,"current_range_meters":18800,"station_id":"ce4bgt92rcd13ifvqcg0","pricing_plan_id":"cebpf4jnsgd1na2vs0mg"},{"bike_id":"5ff5b241-cb88-41de-b102-ae23867119d1","system_id":"levelo_inurba_marseille","lat":43.29261,"lon":5.40903,"is_reserved":false,"is_disabled":false,"rental_uris":{"android":"levelo://app?vid=5ff5b241-cb88-41de-b102-ae23867119d1","ios":"levelo://app?vid=5ff5b241-cb88-41de-b102-ae23867119d1"},"vehicle_type_id":"4","last_reported":1756249756,"current_range_meters":18000,"station_id":"ce4bh192rcd13ifvqdc0","pricing_plan_id":"cebpf4jnsgd1na2vs0mg"},{"bike_id":"34fbfb6d-16c6-4c38-acd4-c060d12c1de5","system_id":"levelo_inurba_marseille","lat":43.29283,"lon":5.40159,"is_reserved":false,"is_disabled":false,"rental_uris":{"android":"levelo://app?vid=34fbfb6d-16c6-4c38-acd4-c060d12c1de5","ios":"levelo://app?vid=34fbfb6d-16c6-4c38-acd4-c060d12c1de5"},"vehicle_type_id":"4","last_reported":1756249756,"current_range_meters":18800,"station_id":"ce4bh312rcd13ifvqdk0","pricing_plan_id":"cebpf4jnsgd1na2vs0mg"},{"bike_id":"825ca74c-218f-4adc-80b1-4f9ee45ff93c","system_id":"levelo_inurba_marseille","lat":43.31376,"lon":5.38498,"is_reserved":false,"is_disabled":false,"rental_uris":{"android":"levelo://app?vid=825ca74c-218f-4adc-80b1-4f9ee45ff93c","ios":"levelo://app?vid=825ca74c-218f-4adc-80b1-4f9ee45ff93c"},"vehicle_type_id":"4","last_reported":1756249756,"current_range_meters":18800,"station_id":"ce4bgt92rcd13ifvqcf0","pricing_plan_id":"cebpf4jnsgd1na2vs0mg"},{"bike_id":"f84f46c8-243d-42cd-b308-2b289e4c09d3","system_id":"levelo_inurba_marseille","lat":43.33444,"lon":5.35696,"is_reserved":false,"is_disabled":false,"rental_uris":{"android":"levelo://app?vid=f84f46c8-243d-42cd-b308-2b289e4c09d3","ios":"levelo://app?vid=f84f46c8-243d-42cd-b308-2b289e4c09d3"},"vehicle_type_id":"4","last_reported":1756249756,"current_range_meters":18800,"station_id":"","pricing_plan_id":"cebpf4jnsgd1na2vs0mg"},{"bike_id":"b324a8f4-cc0a-4691-98db-1b5e33928c7c","system_id":"levelo_inurba_marseille","lat":43.30643,"lon":5.401,"is_reserved":false,"is_disabled":false,"rental_uris":{"android":"levelo://app?vid=b324a8f4-cc0a-4691-98db-1b5e33928c7c","ios":"levelo://app?vid=b324a8f4-cc0a-4691-98db-1b5e33928c7c"},"vehicle_type_id":"4","last_reported":1756249756,"current_range_meters":18800,"station_id":"ce4bh112rcd13ifvqda0","pricing_plan_id":"cebpf4jnsgd1na2vs0mg"},{"bike_id":"b104044f-7e0b-4344-af70-6099d15a5086","system_id":"levelo_inurba_marseille","lat":43.30407,"lon":5.41299,"is_reserved":false,"is_disabled":false,"rental_uris":{"android":"levelo://app?vid=b104044f-7e0b-4344-af70-6099d15a5086","ios":"levelo://app?vid=b104044f-7e0b-4344-af70-6099d15a5086"},"vehicle_type_id":"4","last_reported":1756249756,"current_range_meters":18800,"station_id":"ce4bhop2rcd13ifvqh8g","pricing_plan_id":"cebpf4jnsgd1na2vs0mg"},{"bike_id":"3d67bad6-b533-4f57-9452-686d772960f8","system_id":"levelo_inurba_marseille","lat":43.27909,"lon":5.39588,"is_reserved":false,"is_disabled":false,"rental_uris":{"android":"levelo://app?vid=3d67bad6-b533-4f57-9452-686d772960f8","ios":"levelo://app?vid=3d67bad6-b533-4f57-9452-686d772960f8"},"vehicle_type_id":"4","last_reported":1756249756,"current_range_meters":18800,"station_id":"ce4bhf92rcd13ifvqf40","pricing_plan_id":"cebpf4jnsgd1na2vs0mg"},{"bike_id":"cfd66be3-eb77-4fcb-9808-b084ac439d43","system_id":"levelo_inurba_marseille","lat":43.30044,"lon":5.37656,"is_reserved":false,"is_disabled":false,"rental_uris":{"android":"levelo://app?vid=cfd66be3-eb77-4fcb-9808-b084ac439d43","ios":"levelo://app?vid=cfd66be3-eb77-4fcb-9808-b084ac439d43"},"vehicle_type_id":"4","last_reported":1756249756,"current_range_meters":18800,"station_id":"","pricing_plan_id":"cebpf4jnsgd1na2vs0mg"},{"bike_id":"5b8fa0fb-0b0f-4c6f-94b0-8df16712ac4a","system_id":"levelo_inurba_marseille","lat":43.30791,"lon":5.37637,"is_reserved":false,"is_disabled":false,"rental_uris":{"android":"levelo://app?vid=5b8fa0fb-0b0f-4c6f-94b0-8df16712ac4a","ios":"levelo://app?vid=5b8fa0fb-0b0f-4c6f-94b0-8df16712ac4a"},"vehicle_type_id":"4","last_reported":1756249756,"current_range_meters":18800,"station_id":"","pricing_plan_id":"cebpf4jnsgd1na2vs0mg"},{"bike_id":"bd4376ea-7d2d-4cf4-9dc1-caf98f82dced","system_id":"levelo_inurba_marseille","lat":43.333247,"lon":5.397421,"is_reserved":false,"is_disabled":false,"rental_uris":{"android":"levelo://app?vid=bd4376ea-7d2d-4cf4-9dc1-caf98f82dced","ios":"levelo://app?vid=bd4376ea-7d2d-4cf4-9dc1-caf98f82dced"},"vehicle_type_id":"4","last_reported":1756249756,"current_range_meters":19200,"station_id":"","pricing_plan_id":"cebpf4jnsgd1na2vs0mg"},{"bike_id":"dca80f1f-5074-4ff3-bed0-af68e3fe2678","system_id":"levelo_inurba_marseille","lat":43.29197,"lon":5.3933,"is_reserved":false,"is_disabled":false,"rental_uris":{"android":"levelo://app?vid=dca80f1f-5074-4ff3-bed0-af68e3fe2678","ios":"levelo://app?vid=dca80f1f-5074-4ff3-bed0-af68e3fe2678"},"vehicle_type_id":"4","last_reported":1756249756,"current_range_meters":19200,"station_id":"ce4bh192rcd13ifvqdd0","pricing_plan_id":"cebpf4jnsgd1na2vs0mg"},{"bike_id":"5ad7a699-db4b-4f51-a3c6-9b619b7bd6c8","system_id":"levelo_inurba_marseille","lat":43.31181,"lon":5.38718,"is_reserved":false,"is_disabled":false,"rental_uris":{"android":"levelo://app?vid=5ad7a699-db4b-4f51-a3c6-9b619b7bd6c8","ios":"levelo://app?vid=5ad7a699-db4b-4f51-a3c6-9b619b7bd6c8"},"vehicle_type_id":"4","last_reported":1756249756,"current_range_meters":19200,"station_id":"ce4bgv12rcd13ifvqcp0","pricing_plan_id":"cebpf4jnsgd1na2vs0mg"},{"bike_id":"219189a7-6b7a-47fd-8a66-ed7ef9c30784","system_id":"levelo_inurba_marseille","lat":43.33034,"lon":5.39235,"is_reserved":false,"is_disabled":false,"rental_uris":{"android":"levelo://app?vid=219189a7-6b7a-47fd-8a66-ed7ef9c30784","ios":"levelo://app?vid=219189a7-6b7a-47fd-8a66-ed7ef9c30784"},"vehicle_type_id":"4","last_reported":1756249756,"current_range_meters":19200,"station_id":"","pricing_plan_id":"cebpf4jnsgd1na2vs0mg"},{"bike_id":"1b033614-4740-4fc9-91b3-d7eb14c851b0","system_id":"levelo_inurba_marseille","lat":43.30532,"lon":5.36705,"is_reserved":false,"is_disabled":false,"rental_uris":{"android":"levelo://app?vid=1b033614-4740-4fc9-91b3-d7eb14c851b0","ios":"levelo://app?vid=1b033614-4740-4fc9-91b3-d7eb14c851b0"},"vehicle_type_id":"4","last_reported":1756249756,"current_range_meters":18800,"station_id":"ce4bgrp2rcd13ifvqc9g","pricing_plan_id":"cebpf4jnsgd1na2vs0mg"},{"bike_id":"d810acf0-5bd2-4bf1-848d-31cd30d105e6","system_id":"levelo_inurba_marseille","lat":43.269831,"lon":5.392782,"is_reserved":false,"is_disabled":false,"rental_uris":{"android":"levelo://app?vid=d810acf0-5bd2-4bf1-848d-31cd30d105e6","ios":"levelo://app?vid=d810acf0-5bd2-4bf1-848d-31cd30d105e6"},"vehicle_type_id":"4","last_reported":1756249756,"current_range_meters":19200,"station_id":"","pricing_plan_id":"cebpf4jnsgd1na2vs0mg"},{"bike_id":"f073034b-4328-4d72-a2b9-a1ea21bf56e5","system_id":"levelo_inurba_marseille","lat":43.29175,"lon":5.39328,"is_reserved":false,"is_disabled":false,"rental_uris":{"android":"levelo://app?vid=f073034b-4328-4d72-a2b9-a1ea21bf56e5","ios":"levelo://app?vid=f073034b-4328-4d72-a2b9-a1ea21bf56e5"},"vehicle_type_id":"4","last_reported":1756249756,"current_range_meters":19200,"station_id":"ce4bh192rcd13ifvqdd0","pricing_plan_id":"cebpf4jnsgd1na2vs0mg"},{"bike_id":"e4637dfb-4813-4ade-b19c-9d9e10d296cb","system_id":"levelo_inurba_marseille","lat":43.28468,"lon":5.38408,"is_reserved":false,"is_disabled":false,"rental_uris":{"android":"levelo://app?vid=e4637dfb-4813-4ade-b19c-9d9e10d296cb","ios":"levelo://app?vid=e4637dfb-4813-4ade-b19c-9d9e10d296cb"},"vehicle_type_id":"4","last_reported":1756249756,"current_range_meters":18800,"station_id":"ce4bh512rcd13ifvqe3g","pricing_plan_id":"cebpf4jnsgd1na2vs0mg"},{"bike_id":"d1ab4433-94d0-4b2e-aecd-cb94ea10bdaa","system_id":"levelo_inurba_marseille","lat":43.261926,"lon":5.374481,"is_reserved":false,"is_disabled":true,"rental_uris":{"android":"levelo://app?vid=d1ab4433-94d0-4b2e-aecd-cb94ea10bdaa","ios":"levelo://app?vid=d1ab4433-94d0-4b2e-aecd-cb94ea10bdaa"},"vehicle_type_id":"4","last_reported":1756249756,"current_range_meters":19200,"station_id":"","pricing_plan_id":"cebpf4jnsgd1na2vs0mg"},{"bike_id":"4c82beab-1cad-46f7-a8ca-eb8dcbd949ef","system_id":"levelo_inurba_marseille","lat":43.27598,"lon":5.39691,"is_reserved":false,"is_disabled":false,"rental_uris":{"android":"levelo://app?vid=4c82beab-1cad-46f7-a8ca-eb8dcbd949ef","ios":"levelo://app?vid=4c82beab-1cad-46f7-a8ca-eb8dcbd949ef"},"vehicle_type_id":"4","last_reported":1756249756,"current_range_meters":19200,"station_id":"","pricing_plan_id":"cebpf4jnsgd1na2vs0mg"},{"bike_id":"33767b19-49d2-43d6-9855-7f25ee9dd4ce","system_id":"levelo_inurba_marseille","lat":43.2952,"lon":5.37534,"is_reserved":false,"is_disabled":true,"rental_uris":{"android":"levelo://app?vid=33767b19-49d2-43d6-9855-7f25ee9dd4ce","ios":"levelo://app?vid=33767b19-49d2-43d6-9855-7f25ee9dd4ce"},"vehicle_type_id":"4","last_reported":1756249756,"current_range_meters":19200,"station_id":"ce4bgkp2rcd13ifvqbmg","pricing_plan_id":"cebpf4jnsgd1na2vs0mg"},{"bike_id":"ea029345-8fdd-4370-912e-9858b91a9b68","system_id":"levelo_inurba_marseille","lat":43.30418,"lon":5.39743,"is_reserved":false,"is_disabled":false,"rental_uris":{"android":"levelo://app?vid=ea029345-8fdd-4370-912e-9858b91a9b68","ios":"levelo://app?vid=ea029345-8fdd-4370-912e-9858b91a9b68"},"vehicle_type_id":"4","last_reported":1756249756,"current_range_meters":19600,"station_id":"ce4bh092rcd13ifvqd20","pricing_plan_id":"cebpf4jnsgd1na2vs0mg"},{"bike_id":"098b93ab-61e0-4204-b411-cdeb76f31f07","system_id":"levelo_inurba_marseille","lat":43.32081,"lon":5.36755,"is_reserved":false,"is_disabled":false,"rental_uris":{"android":"levelo://app?vid=098b93ab-61e0-4204-b411-cdeb76f31f07","ios":"levelo://app?vid=098b93ab-61e0-4204-b411-cdeb76f31f07"},"vehicle_type_id":"4","last_reported":1756249756,"current_range_meters":19600,"station_id":"ce4bhrh2rcd13ifvqhug","pricing_plan_id":"cebpf4jnsgd1na2vs0mg"},{"bike_id":"fd8c465d-11d0-449f-a4f6-d345f306873d","system_id":"levelo_inurba_marseille","lat":43.31707,"lon":5.43713,"is_reserved":false,"is_disabled":false,"rental_uris":{"android":"levelo://app?vid=fd8c465d-11d0-449f-a4f6-d345f306873d","ios":"levelo://app?vid=fd8c465d-11d0-449f-a4f6-d345f306873d"},"vehicle_type_id":"4","last_reported":1756249756,"current_range_meters":19600,"station_id":"ce4bhp92rcd13ifvqhcg","pricing_plan_id":"cebpf4jnsgd1na2vs0mg"},{"bike_id":"66e0a403-9848-4a61-83d6-ca6c879e0442","system_id":"levelo_inurba_marseille","lat":43.29222,"lon":5.36014,"is_reserved":false,"is_disabled":true,"rental_uris":{"android":"levelo://app?vid=66e0a403-9848-4a61-83d6-ca6c879e0442","ios":"levelo://app?vid=66e0a403-9848-4a61-83d6-ca6c879e0442"},"vehicle_type_id":"4","last_reported":1756249756,"current_range_meters":19600,"station_id":"ce4bhbh2rcd13ifvqeqg","pricing_plan_id":"cebpf4jnsgd1na2vs0mg"},{"bike_id":"ffe6df59-3fc1-4d81-9326-f6f6418e7718","system_id":"levelo_inurba_marseille","lat":43.29686,"lon":5.37327,"is_reserved":false,"is_disabled":false,"rental_uris":{"android":"levelo://app?vid=ffe6df59-3fc1-4d81-9326-f6f6418e7718","ios":"levelo://app?vid=ffe6df59-3fc1-4d81-9326-f6f6418e7718"},"vehicle_type_id":"4","last_reported":1756249756,"current_range_meters":19600,"station_id":"ce4bgk12rcd13ifvqbj0","pricing_plan_id":"cebpf4jnsgd1na2vs0mg"},{"bike_id":"af13476a-76c1-45ab-958a-e7f8cdbb9e93","system_id":"levelo_inurba_marseille","lat":43.25813,"lon":5.3941,"is_reserved":false,"is_disabled":false,"rental_uris":{"android":"levelo://app?vid=af13476a-76c1-45ab-958a-e7f8cdbb9e93","ios":"levelo://app?vid=af13476a-76c1-45ab-958a-e7f8cdbb9e93"},"vehicle_type_id":"4","last_reported":1756249756,"current_range_meters":19600,"station_id":"ce4bhip2rcd13ifvqft0","pricing_plan_id":"cebpf4jnsgd1na2vs0mg"},{"bike_id":"4e9e705b-7667-42c6-adf5-4a09a858987f","system_id":"levelo_inurba_marseille","lat":43.21187,"lon":5.3507,"is_reserved":false,"is_disabled":false,"rental_uris":{"android":"levelo://app?vid=4e9e705b-7667-42c6-adf5-4a09a858987f","ios":"levelo://app?vid=4e9e705b-7667-42c6-adf5-4a09a858987f"},"vehicle_type_id":"4","last_reported":1756249756,"current_range_meters":19600,"station_id":"st_cvj6sg6p6f1abm77japg","pricing_plan_id":"cebpf4jnsgd1na2vs0mg"},{"bike_id":"56617e93-dfaa-4db2-9c67-a6ef24f9648e","system_id":"levelo_inurba_marseille","lat":43.2319,"lon":5.35561,"is_reserved":false,"is_disabled":false,"rental_uris":{"android":"levelo://app?vid=56617e93-dfaa-4db2-9c67-a6ef24f9648e","ios":"levelo://app?vid=56617e93-dfaa-4db2-9c67-a6ef24f9648e"},"vehicle_type_id":"4","last_reported":1756249756,"current_range_meters":19600,"station_id":"ce4bhu92rcd13ifvqi70","pricing_plan_id":"cebpf4jnsgd1na2vs0mg"},{"bike_id":"8fa43e4c-6ebe-4d40-91e6-b766c3929365","system_id":"levelo_inurba_marseille","lat":43.30931,"lon":5.40167,"is_reserved":false,"is_disabled":false,"rental_uris":{"android":"levelo://app?vid=8fa43e4c-6ebe-4d40-91e6-b766c3929365","ios":"levelo://app?vid=8fa43e4c-6ebe-4d40-91e6-b766c3929365"},"vehicle_type_id":"4","last_reported":1756249756,"current_range_meters":19600,"station_id":"ce4bgvp2rcd13ifvqct0","pricing_plan_id":"cebpf4jnsgd1na2vs0mg"},{"bike_id":"fb85f7c8-d34d-4ed2-b0ad-e43d821bac7b","system_id":"levelo_inurba_marseille","lat":43.26557,"lon":5.40331,"is_reserved":false,"is_disabled":false,"rental_uris":{"android":"levelo://app?vid=fb85f7c8-d34d-4ed2-b0ad-e43d821bac7b","ios":"levelo://app?vid=fb85f7c8-d34d-4ed2-b0ad-e43d821bac7b"},