{"last_updated":1784538772,"ttl":60,"version":"2.2","data":{"bikes":[{"bike_id":"7ef36254-6bb3-448c-8d77-979d957d54b6","system_id":"levelo_inurba_marseille","lat":43.337444,"lon":5.374475,"is_reserved":false,"is_disabled":false,"rental_uris":{"android":"levelo://app?vid=7ef36254-6bb3-448c-8d77-979d957d54b6","ios":"levelo://app?vid=7ef36254-6bb3-448c-8d77-979d957d54b6"},"vehicle_type_id":"4","last_reported":1784538774,"current_range_meters":0,"station_id":"","pricing_plan_id":"cebpf4jnsgd1na2vs0mg"},{"bike_id":"21fe2e98-0432-4b40-a81f-10dd00b0f57d","system_id":"levelo_inurba_marseille","lat":43.337444,"lon":5.374475,"is_reserved":false,"is_disabled":false,"rental_uris":{"android":"levelo://app?vid=21fe2e98-0432-4b40-a81f-10dd00b0f57d","ios":"levelo://app?vid=21fe2e98-0432-4b40-a81f-10dd00b0f57d"},"vehicle_type_id":"4","last_reported":1784538774,"current_range_meters":0,"station_id":"","pricing_plan_id":"cebpf4jnsgd1na2vs0mg"},{"bike_id":"0dee0085-d5a5-4c48-b3f1-a323bb744f3d","system_id":"levelo_inurba_marseille","lat":43.22556,"lon":5.41637,"is_reserved":false,"is_disabled":false,"rental_uris":{"android":"levelo://app?vid=0dee0085-d5a5-4c48-b3f1-a323bb744f3d","ios":"levelo://app?vid=0dee0085-d5a5-4c48-b3f1-a323bb744f3d"},"vehicle_type_id":"4","last_reported":1784538774,"current_range_meters":2800,"station_id":"st_d2o4gvlbi1j2169b742g","pricing_plan_id":"cebpf4jnsgd1na2vs0mg"},{"bike_id":"649a2d81-71aa-4985-aa95-6415951d1087","system_id":"levelo_inurba_marseille","lat":43.26363,"lon":5.41076,"is_reserved":false,"is_disabled":false,"rental_uris":{"android":"levelo://app?vid=649a2d81-71aa-4985-aa95-6415951d1087","ios":"levelo://app?vid=649a2d81-71aa-4985-aa95-6415951d1087"},"vehicle_type_id":"4","last_reported":1784538774,"current_range_meters":2800,"station_id":"st_d4e5ca6na9uc73bfl5fg","pricing_plan_id":"cebpf4jnsgd1na2vs0mg"},{"bike_id":"e0dc50bb-0348-4753-b359-581852cc22a1","system_id":"levelo_inurba_marseille","lat":43.31337,"lon":5.37665,"is_reserved":false,"is_disabled":false,"rental_uris":{"android":"levelo://app?vid=e0dc50bb-0348-4753-b359-581852cc22a1","ios":"levelo://app?vid=e0dc50bb-0348-4753-b359-581852cc22a1"},"vehicle_type_id":"4","last_reported":1784538774,"current_range_meters":2800,"station_id":"","pricing_plan_id":"cebpf4jnsgd1na2vs0mg"},{"bike_id":"8f57a3df-205d-48f6-b99b-1594c355e2f4","system_id":"levelo_inurba_marseille","lat":43.26375,"lon":5.41099,"is_reserved":false,"is_disabled":false,"rental_uris":{"android":"levelo://app?vid=8f57a3df-205d-48f6-b99b-1594c355e2f4","ios":"levelo://app?vid=8f57a3df-205d-48f6-b99b-1594c355e2f4"},"vehicle_type_id":"4","last_reported":1784538774,"current_range_meters":2800,"station_id":"st_d4e5ca6na9uc73bfl5fg","pricing_plan_id":"cebpf4jnsgd1na2vs0mg"},{"bike_id":"476aad98-95c7-491b-97aa-6320bbd4c34c","system_id":"levelo_inurba_marseille","lat":43.29264,"lon":5.39315,"is_reserved":false,"is_disabled":false,"rental_uris":{"android":"levelo://app?vid=476aad98-95c7-491b-97aa-6320bbd4c34c","ios":"levelo://app?vid=476aad98-95c7-491b-97aa-6320bbd4c34c"},"vehicle_type_id":"4","last_reported":1784538774,"current_range_meters":2800,"station_id":"","pricing_plan_id":"cebpf4jnsgd1na2vs0mg"},{"bike_id":"242f1d81-a0f5-4b33-96a7-257c47b13252","system_id":"levelo_inurba_marseille","lat":43.27422,"lon":5.39411,"is_reserved":false,"is_disabled":false,"rental_uris":{"android":"levelo://app?vid=242f1d81-a0f5-4b33-96a7-257c47b13252","ios":"levelo://app?vid=242f1d81-a0f5-4b33-96a7-257c47b13252"},"vehicle_type_id":"4","last_reported":1784538774,"current_range_meters":2800,"station_id":"ce4bhdp2rcd13ifvqf20","pricing_plan_id":"cebpf4jnsgd1na2vs0mg"},{"bike_id":"84250216-0229-4a1e-aec4-04e120bda988","system_id":"levelo_inurba_marseille","lat":43.33155,"lon":5.37708,"is_reserved":false,"is_disabled":false,"rental_uris":{"android":"levelo://app?vid=84250216-0229-4a1e-aec4-04e120bda988","ios":"levelo://app?vid=84250216-0229-4a1e-aec4-04e120bda988"},"vehicle_type_id":"4","last_reported":1784538774,"current_range_meters":2800,"station_id":"st_d46cu089ee8s73dldbu0","pricing_plan_id":"cebpf4jnsgd1na2vs0mg"},{"bike_id":"768d135b-dd1a-4287-b38b-7646cbe4fa3d","system_id":"levelo_inurba_marseille","lat":43.31015,"lon":5.39988,"is_reserved":false,"is_disabled":false,"rental_uris":{"android":"levelo://app?vid=768d135b-dd1a-4287-b38b-7646cbe4fa3d","ios":"levelo://app?vid=768d135b-dd1a-4287-b38b-7646cbe4fa3d"},"vehicle_type_id":"4","last_reported":1784538774,"current_range_meters":2800,"station_id":"","pricing_plan_id":"cebpf4jnsgd1na2vs0mg"},{"bike_id":"04829789-6817-449a-a747-bd0bcd133036","system_id":"levelo_inurba_marseille","lat":43.25616,"lon":5.40481,"is_reserved":false,"is_disabled":false,"rental_uris":{"android":"levelo://app?vid=04829789-6817-449a-a747-bd0bcd133036","ios":"levelo://app?vid=04829789-6817-449a-a747-bd0bcd133036"},"vehicle_type_id":"4","last_reported":1784538774,"current_range_meters":2800,"station_id":"","pricing_plan_id":"cebpf4jnsgd1na2vs0mg"},{"bike_id":"5408a3c1-d36d-4f98-acb2-b682e7da5cc9","system_id":"levelo_inurba_marseille","lat":43.24266,"lon":5.36462,"is_reserved":false,"is_disabled":false,"rental_uris":{"android":"levelo://app?vid=5408a3c1-d36d-4f98-acb2-b682e7da5cc9","ios":"levelo://app?vid=5408a3c1-d36d-4f98-acb2-b682e7da5cc9"},"vehicle_type_id":"4","last_reported":1784538774,"current_range_meters":2800,"station_id":"","pricing_plan_id":"cebpf4jnsgd1na2vs0mg"},{"bike_id":"30075183-7675-4aa1-b2ca-fa2b8a444014","system_id":"levelo_inurba_marseille","lat":43.29712,"lon":5.37695,"is_reserved":false,"is_disabled":false,"rental_uris":{"android":"levelo://app?vid=30075183-7675-4aa1-b2ca-fa2b8a444014","ios":"levelo://app?vid=30075183-7675-4aa1-b2ca-fa2b8a444014"},"vehicle_type_id":"4","last_reported":1784538774,"current_range_meters":2800,"station_id":"ce4bgkh2rcd13ifvqbl0","pricing_plan_id":"cebpf4jnsgd1na2vs0mg"},{"bike_id":"e57cc0e0-9b3a-454a-b64d-b62531f5ec36","system_id":"levelo_inurba_marseille","lat":43.27214,"lon":5.39189,"is_reserved":false,"is_disabled":false,"rental_uris":{"android":"levelo://app?vid=e57cc0e0-9b3a-454a-b64d-b62531f5ec36","ios":"levelo://app?vid=e57cc0e0-9b3a-454a-b64d-b62531f5ec36"},"vehicle_type_id":"4","last_reported":1784538774,"current_range_meters":3200,"station_id":"ce4bhhp2rcd13ifvqfm0","pricing_plan_id":"cebpf4jnsgd1na2vs0mg"},{"bike_id":"f0de752a-8a15-40b1-9907-e1d22cb75de9","system_id":"levelo_inurba_marseille","lat":43.31707,"lon":5.43713,"is_reserved":false,"is_disabled":false,"rental_uris":{"android":"levelo://app?vid=f0de752a-8a15-40b1-9907-e1d22cb75de9","ios":"levelo://app?vid=f0de752a-8a15-40b1-9907-e1d22cb75de9"},"vehicle_type_id":"4","last_reported":1784538774,"current_range_meters":3200,"station_id":"ce4bhp92rcd13ifvqhcg","pricing_plan_id":"cebpf4jnsgd1na2vs0mg"},{"bike_id":"a79519b1-b511-4a3a-aea5-fb1c1ef5f155","system_id":"levelo_inurba_marseille","lat":43.303375,"lon":5.367815,"is_reserved":false,"is_disabled":false,"rental_uris":{"android":"levelo://app?vid=a79519b1-b511-4a3a-aea5-fb1c1ef5f155","ios":"levelo://app?vid=a79519b1-b511-4a3a-aea5-fb1c1ef5f155"},"vehicle_type_id":"4","last_reported":1784538774,"current_range_meters":3200,"station_id":"","pricing_plan_id":"cebpf4jnsgd1na2vs0mg"},{"bike_id":"f9bc7c2a-0c16-4b4e-9b9a-a34a90878afe","system_id":"levelo_inurba_marseille","lat":43.29679,"lon":5.37293,"is_reserved":false,"is_disabled":false,"rental_uris":{"android":"levelo://app?vid=f9bc7c2a-0c16-4b4e-9b9a-a34a90878afe","ios":"levelo://app?vid=f9bc7c2a-0c16-4b4e-9b9a-a34a90878afe"},"vehicle_type_id":"4","last_reported":1784538774,"current_range_meters":3200,"station_id":"ce4bgk12rcd13ifvqbj0","pricing_plan_id":"cebpf4jnsgd1na2vs0mg"},{"bike_id":"902d7739-7b38-463c-8575-3f9b757f92f0","system_id":"levelo_inurba_marseille","lat":43.30286,"lon":5.36935,"is_reserved":false,"is_disabled":false,"rental_uris":{"android":"levelo://app?vid=902d7739-7b38-463c-8575-3f9b757f92f0","ios":"levelo://app?vid=902d7739-7b38-463c-8575-3f9b757f92f0"},"vehicle_type_id":"4","last_reported":1784538774,"current_range_meters":3200,"station_id":"ce4bgqh2rcd13ifvqc5g","pricing_plan_id":"cebpf4jnsgd1na2vs0mg"},{"bike_id":"f1f22c18-ca01-495d-9612-373f4ca6711e","system_id":"levelo_inurba_marseille","lat":43.29565,"lon":5.4233,"is_reserved":false,"is_disabled":true,"rental_uris":{"android":"levelo://app?vid=f1f22c18-ca01-495d-9612-373f4ca6711e","ios":"levelo://app?vid=f1f22c18-ca01-495d-9612-373f4ca6711e"},"vehicle_type_id":"4","last_reported":1784538774,"current_range_meters":3200,"station_id":"ce4bhph2rcd13ifvqhdg","pricing_plan_id":"cebpf4jnsgd1na2vs0mg"},{"bike_id":"e1b0b9dd-d478-4fbc-9631-df3256150e5b","system_id":"levelo_inurba_marseille","lat":43.24476,"lon":5.42551,"is_reserved":false,"is_disabled":false,"rental_uris":{"android":"levelo://app?vid=e1b0b9dd-d478-4fbc-9631-df3256150e5b","ios":"levelo://app?vid=e1b0b9dd-d478-4fbc-9631-df3256150e5b"},"vehicle_type_id":"4","last_reported":1784538774,"current_range_meters":3200,"station_id":"st_d4a3vfp97mjs738cd8kg","pricing_plan_id":"cebpf4jnsgd1na2vs0mg"},{"bike_id":"cc7a3136-e7ef-48d3-aa90-56bfd2814327","system_id":"levelo_inurba_marseille","lat":43.33009,"lon":5.39047,"is_reserved":false,"is_disabled":false,"rental_uris":{"android":"levelo://app?vid=cc7a3136-e7ef-48d3-aa90-56bfd2814327","ios":"levelo://app?vid=cc7a3136-e7ef-48d3-aa90-56bfd2814327"},"vehicle_type_id":"4","last_reported":1784538774,"current_range_meters":3200,"station_id":"ce4bhr92rcd13ifvqhrg","pricing_plan_id":"cebpf4jnsgd1na2vs0mg"},{"bike_id":"592a609f-2324-4183-876e-0143fcedd366","system_id":"levelo_inurba_marseille","lat":43.32357,"lon":5.36757,"is_reserved":false,"is_disabled":false,"rental_uris":{"android":"levelo://app?vid=592a609f-2324-4183-876e-0143fcedd366","ios":"levelo://app?vid=592a609f-2324-4183-876e-0143fcedd366"},"vehicle_type_id":"4","last_reported":1784538774,"current_range_meters":3200,"station_id":"ce4bhsh2rcd13ifvqi2g","pricing_plan_id":"cebpf4jnsgd1na2vs0mg"},{"bike_id":"9cd0074c-d5e5-44d0-82a2-648dc5d40fb4","system_id":"levelo_inurba_marseille","lat":43.28649,"lon":5.35708,"is_reserved":false,"is_disabled":false,"rental_uris":{"android":"levelo://app?vid=9cd0074c-d5e5-44d0-82a2-648dc5d40fb4","ios":"levelo://app?vid=9cd0074c-d5e5-44d0-82a2-648dc5d40fb4"},"vehicle_type_id":"4","last_reported":1784538774,"current_range_meters":3200,"station_id":"","pricing_plan_id":"cebpf4jnsgd1na2vs0mg"},{"bike_id":"5bc529ef-91b7-4ed7-9c93-ab5f5213ade1","system_id":"levelo_inurba_marseille","lat":43.28608,"lon":5.37064,"is_reserved":false,"is_disabled":false,"rental_uris":{"android":"levelo://app?vid=5bc529ef-91b7-4ed7-9c93-ab5f5213ade1","ios":"levelo://app?vid=5bc529ef-91b7-4ed7-9c93-ab5f5213ade1"},"vehicle_type_id":"4","last_reported":1784538774,"current_range_meters":3200,"station_id":"ce4bht12rcd13ifvqi60","pricing_plan_id":"cebpf4jnsgd1na2vs0mg"},{"bike_id":"a0867d36-0ffd-4212-8e00-f7600c461672","system_id":"levelo_inurba_marseille","lat":43.27373,"lon":5.36267,"is_reserved":false,"is_disabled":false,"rental_uris":{"android":"levelo://app?vid=a0867d36-0ffd-4212-8e00-f7600c461672","ios":"levelo://app?vid=a0867d36-0ffd-4212-8e00-f7600c461672"},"vehicle_type_id":"4","last_reported":1784538774,"current_range_meters":3200,"station_id":"ce4bhbh2rcd13ifvqeo0","pricing_plan_id":"cebpf4jnsgd1na2vs0mg"},{"bike_id":"4f671e5d-528a-4a48-b5d8-253280ea292f","system_id":"levelo_inurba_marseille","lat":43.251098,"lon":5.40317,"is_reserved":false,"is_disabled":false,"rental_uris":{"android":"levelo://app?vid=4f671e5d-528a-4a48-b5d8-253280ea292f","ios":"levelo://app?vid=4f671e5d-528a-4a48-b5d8-253280ea292f"},"vehicle_type_id":"4","last_reported":1784538774,"current_range_meters":3600,"station_id":"ce4bhlh2rcd13ifvqgig","pricing_plan_id":"cebpf4jnsgd1na2vs0mg"},{"bike_id":"e2e5fac3-f215-4967-bf0a-3e24d611112e","system_id":"levelo_inurba_marseille","lat":43.28698,"lon":5.46671,"is_reserved":false,"is_disabled":false,"rental_uris":{"android":"levelo://app?vid=e2e5fac3-f215-4967-bf0a-3e24d611112e","ios":"levelo://app?vid=e2e5fac3-f215-4967-bf0a-3e24d611112e"},"vehicle_type_id":"4","last_reported":1784538774,"current_range_meters":3600,"station_id":"st_d6tc3vkotcvc738tfjhg","pricing_plan_id":"cebpf4jnsgd1na2vs0mg"},{"bike_id":"7f3ebb7e-b30a-402e-ae94-f8e806f0d4ff","system_id":"levelo_inurba_marseille","lat":43.23422,"lon":5.38121,"is_reserved":false,"is_disabled":false,"rental_uris":{"android":"levelo://app?vid=7f3ebb7e-b30a-402e-ae94-f8e806f0d4ff","ios":"levelo://app?vid=7f3ebb7e-b30a-402e-ae94-f8e806f0d4ff"},"vehicle_type_id":"4","last_reported":1784538774,"current_range_meters":3600,"station_id":"","pricing_plan_id":"cebpf4jnsgd1na2vs0mg"},{"bike_id":"8826b42d-95b2-4e05-8dc6-546707af2f36","system_id":"levelo_inurba_marseille","lat":43.28481,"lon":5.48388,"is_reserved":false,"is_disabled":false,"rental_uris":{"android":"levelo://app?vid=8826b42d-95b2-4e05-8dc6-546707af2f36","ios":"levelo://app?vid=8826b42d-95b2-4e05-8dc6-546707af2f36"},"vehicle_type_id":"4","last_reported":1784538774,"current_range_meters":3600,"station_id":"st_d3svhcjqgbts73a3dn0g","pricing_plan_id":"cebpf4jnsgd1na2vs0mg"},{"bike_id":"268a86ae-7f4f-45e2-9738-f63f4d7f4c88","system_id":"levelo_inurba_marseille","lat":43.24719,"lon":5.382315,"is_reserved":false,"is_disabled":false,"rental_uris":{"android":"levelo://app?vid=268a86ae-7f4f-45e2-9738-f63f4d7f4c88","ios":"levelo://app?vid=268a86ae-7f4f-45e2-9738-f63f4d7f4c88"},"vehicle_type_id":"4","last_reported":1784538774,"current_range_meters":3600,"station_id":"ce4bhih2rcd13ifvqfr0","pricing_plan_id":"cebpf4jnsgd1na2vs0mg"},{"bike_id":"65d1a665-18ce-4d33-a420-569dcbdfc4c3","system_id":"levelo_inurba_marseille","lat":43.30571,"lon":5.36479,"is_reserved":false,"is_disabled":false,"rental_uris":{"android":"levelo://app?vid=65d1a665-18ce-4d33-a420-569dcbdfc4c3","ios":"levelo://app?vid=65d1a665-18ce-4d33-a420-569dcbdfc4c3"},"vehicle_type_id":"4","last_reported":1784538774,"current_range_meters":3600,"station_id":"ce4bgs12rcd13ifvqcag","pricing_plan_id":"cebpf4jnsgd1na2vs0mg"},{"bike_id":"2289ef80-c327-46fe-9ae2-f742376b60a5","system_id":"levelo_inurba_marseille","lat":43.29971,"lon":5.38526,"is_reserved":false,"is_disabled":true,"rental_uris":{"android":"levelo://app?vid=2289ef80-c327-46fe-9ae2-f742376b60a5","ios":"levelo://app?vid=2289ef80-c327-46fe-9ae2-f742376b60a5"},"vehicle_type_id":"4","last_reported":1784538774,"current_range_meters":3600,"station_id":"ce4bgj92rcd13ifvqbd0","pricing_plan_id":"cebpf4jnsgd1na2vs0mg"},{"bike_id":"8343bed0-bbe6-44fd-9653-bc5f3419ddb1","system_id":"levelo_inurba_marseille","lat":43.29631,"lon":5.37155,"is_reserved":false,"is_disabled":false,"rental_uris":{"android":"levelo://app?vid=8343bed0-bbe6-44fd-9653-bc5f3419ddb1","ios":"levelo://app?vid=8343bed0-bbe6-44fd-9653-bc5f3419ddb1"},"vehicle_type_id":"4","last_reported":1784538774,"current_range_meters":3600,"station_id":"","pricing_plan_id":"cebpf4jnsgd1na2vs0mg"},{"bike_id":"965c56fa-b0a0-477a-8c54-2470166c1e12","system_id":"levelo_inurba_marseille","lat":43.22552,"lon":5.34905,"is_reserved":false,"is_disabled":false,"rental_uris":{"android":"levelo://app?vid=965c56fa-b0a0-477a-8c54-2470166c1e12","ios":"levelo://app?vid=965c56fa-b0a0-477a-8c54-2470166c1e12"},"vehicle_type_id":"4","last_reported":1784538774,"current_range_meters":3600,"station_id":"","pricing_plan_id":"cebpf4jnsgd1na2vs0mg"},{"bike_id":"afafb7cc-3665-44db-be07-05c5761f9e90","system_id":"levelo_inurba_marseille","lat":43.29173,"lon":5.35684,"is_reserved":false,"is_disabled":true,"rental_uris":{"android":"levelo://app?vid=afafb7cc-3665-44db-be07-05c5761f9e90","ios":"levelo://app?vid=afafb7cc-3665-44db-be07-05c5761f9e90"},"vehicle_type_id":"4","last_reported":1784538774,"current_range_meters":3600,"station_id":"","pricing_plan_id":"cebpf4jnsgd1na2vs0mg"},{"bike_id":"ac8fc0d8-76dd-4225-b27b-ae2c4e1898b4","system_id":"levelo_inurba_marseille","lat":43.28577,"lon":5.38873,"is_reserved":false,"is_disabled":false,"rental_uris":{"android":"levelo://app?vid=ac8fc0d8-76dd-4225-b27b-ae2c4e1898b4","ios":"levelo://app?vid=ac8fc0d8-76dd-4225-b27b-ae2c4e1898b4"},"vehicle_type_id":"4","last_reported":1784538774,"current_range_meters":3600,"station_id":"","pricing_plan_id":"cebpf4jnsgd1na2vs0mg"},{"bike_id":"40c799b9-c6f6-48de-99f1-835c5ab24c1a","system_id":"levelo_inurba_marseille","lat":43.29292,"lon":5.3804,"is_reserved":false,"is_disabled":false,"rental_uris":{"android":"levelo://app?vid=40c799b9-c6f6-48de-99f1-835c5ab24c1a","ios":"levelo://app?vid=40c799b9-c6f6-48de-99f1-835c5ab24c1a"},"vehicle_type_id":"4","last_reported":1784538774,"current_range_meters":4000,"station_id":"","pricing_plan_id":"cebpf4jnsgd1na2vs0mg"},{"bike_id":"793fde44-ac1c-4254-987c-8bdef1961ceb","system_id":"levelo_inurba_marseille","lat":43.28617,"lon":5.35104,"is_reserved":false,"is_disabled":false,"rental_uris":{"android":"levelo://app?vid=793fde44-ac1c-4254-987c-8bdef1961ceb","ios":"levelo://app?vid=793fde44-ac1c-4254-987c-8bdef1961ceb"},"vehicle_type_id":"4","last_reported":1784538774,"current_range_meters":4000,"station_id":"ce4bhch2rcd13ifvqeug","pricing_plan_id":"cebpf4jnsgd1na2vs0mg"},{"bike_id":"e8054e8b-cb6b-4631-9c10-2ec3d17b969b","system_id":"levelo_inurba_marseille","lat":43.27952,"lon":5.38719,"is_reserved":false,"is_disabled":false,"rental_uris":{"android":"levelo://app?vid=e8054e8b-cb6b-4631-9c10-2ec3d17b969b","ios":"levelo://app?vid=e8054e8b-cb6b-4631-9c10-2ec3d17b969b"},"vehicle_type_id":"4","last_reported":1784538774,"current_range_meters":4000,"station_id":"ce4bhg12rcd13ifvqf80","pricing_plan_id":"cebpf4jnsgd1na2vs0mg"},{"bike_id":"cd4d4271-dab8-4e44-bbba-9304b7a72ae8","system_id":"levelo_inurba_marseille","lat":43.23163,"lon":5.43681,"is_reserved":false,"is_disabled":false,"rental_uris":{"android":"levelo://app?vid=cd4d4271-dab8-4e44-bbba-9304b7a72ae8","ios":"levelo://app?vid=cd4d4271-dab8-4e44-bbba-9304b7a72ae8"},"vehicle_type_id":"4","last_reported":1784538774,"current_range_meters":4000,"station_id":"ce4bhmp2rcd13ifvqgog","pricing_plan_id":"cebpf4jnsgd1na2vs0mg"},{"bike_id":"9e458af6-f2b6-45c0-a1b6-86639cc89108","system_id":"levelo_inurba_marseille","lat":43.24184,"lon":5.39731,"is_reserved":false,"is_disabled":false,"rental_uris":{"android":"levelo://app?vid=9e458af6-f2b6-45c0-a1b6-86639cc89108","ios":"levelo://app?vid=9e458af6-f2b6-45c0-a1b6-86639cc89108"},"vehicle_type_id":"4","last_reported":1784538774,"current_range_meters":4000,"station_id":"ce4bhn12rcd13ifvqgpg","pricing_plan_id":"cebpf4jnsgd1na2vs0mg"},{"bike_id":"754d120e-5c0a-4b39-86db-1bc648fc3bd0","system_id":"levelo_inurba_marseille","lat":43.32315,"lon":5.36781,"is_reserved":false,"is_disabled":false,"rental_uris":{"android":"levelo://app?vid=754d120e-5c0a-4b39-86db-1bc648fc3bd0","ios":"levelo://app?vid=754d120e-5c0a-4b39-86db-1bc648fc3bd0"},"vehicle_type_id":"4","last_reported":1784538774,"current_range_meters":4000,"station_id":"ce4bhsh2rcd13ifvqi2g","pricing_plan_id":"cebpf4jnsgd1na2vs0mg"},{"bike_id":"52487ac7-aecd-4519-b434-15ad8eff53a0","system_id":"levelo_inurba_marseille","lat":43.23886,"lon":5.36281,"is_reserved":false,"is_disabled":false,"rental_uris":{"android":"levelo://app?vid=52487ac7-aecd-4519-b434-15ad8eff53a0","ios":"levelo://app?vid=52487ac7-aecd-4519-b434-15ad8eff53a0"},"vehicle_type_id":"4","last_reported":1784538774,"current_range_meters":4000,"station_id":"","pricing_plan_id":"cebpf4jnsgd1na2vs0mg"},{"bike_id":"c50b39c4-ea54-4404-b098-717b16815967","system_id":"levelo_inurba_marseille","lat":43.29553,"lon":5.42312,"is_reserved":false,"is_disabled":true,"rental_uris":{"android":"levelo://app?vid=c50b39c4-ea54-4404-b098-717b16815967","ios":"levelo://app?vid=c50b39c4-ea54-4404-b098-717b16815967"},"vehicle_type_id":"4","last_reported":1784538774,"current_range_meters":4000,"station_id":"ce4bhph2rcd13ifvqhdg","pricing_plan_id":"cebpf4jnsgd1na2vs0mg"},{"bike_id":"65342fc6-7b44-42f4-9feb-a250e5b3bae8","system_id":"levelo_inurba_marseille","lat":43.28041,"lon":5.35111,"is_reserved":false,"is_disabled":true,"rental_uris":{"android":"levelo://app?vid=65342fc6-7b44-42f4-9feb-a250e5b3bae8","ios":"levelo://app?vid=65342fc6-7b44-42f4-9feb-a250e5b3bae8"},"vehicle_type_id":"4","last_reported":1784538774,"current_range_meters":4000,"station_id":"","pricing_plan_id":"cebpf4jnsgd1na2vs0mg"},{"bike_id":"7764970a-34ed-47ec-8822-620f6c0f8a78","system_id":"levelo_inurba_marseille","lat":43.24962,"lon":5.38959,"is_reserved":false,"is_disabled":false,"rental_uris":{"android":"levelo://app?vid=7764970a-34ed-47ec-8822-620f6c0f8a78","ios":"levelo://app?vid=7764970a-34ed-47ec-8822-620f6c0f8a78"},"vehicle_type_id":"4","last_reported":1784538774,"current_range_meters":4400,"station_id":"","pricing_plan_id":"cebpf4jnsgd1na2vs0mg"},{"bike_id":"c38a779a-6983-43b0-bdab-962f3fb079e1","system_id":"levelo_inurba_marseille","lat":43.28721,"lon":5.45927,"is_reserved":false,"is_disabled":false,"rental_uris":{"android":"levelo://app?vid=c38a779a-6983-43b0-bdab-962f3fb079e1","ios":"levelo://app?vid=c38a779a-6983-43b0-bdab-962f3fb079e1"},"vehicle_type_id":"4","last_reported":1784538774,"current_range_meters":4400,"station_id":"","pricing_plan_id":"cebpf4jnsgd1na2vs0mg"},{"bike_id":"df093f2e-7b23-48a9-b7aa-166bd5e2639c","system_id":"levelo_inurba_marseille","lat":43.32538,"lon":5.41443,"is_reserved":false,"is_disabled":false,"rental_uris":{"android":"levelo://app?vid=df093f2e-7b23-48a9-b7aa-166bd5e2639c","ios":"levelo://app?vid=df093f2e-7b23-48a9-b7aa-166bd5e2639c"},"vehicle_type_id":"4","last_reported":1784538774,"current_range_meters":4400,"station_id":"ce4bhq12rcd13ifvqhhg","pricing_plan_id":"cebpf4jnsgd1na2vs0mg"},{"bike_id":"1ace4f7d-1ecd-4319-bc79-8029362741b6","system_id":"levelo_inurba_marseille","lat":43.29252,"lon":5.36544,"is_reserved":false,"is_disabled":false,"rental_uris":{"android":"levelo://app?vid=1ace4f7d-1ecd-4319-bc79-8029362741b6","ios":"levelo://app?vid=1ace4f7d-1ecd-4319-bc79-8029362741b6"},"vehicle_type_id":"4","last_reported":1784538774,"current_range_meters":4400,"station_id":"","pricing_plan_id":"cebpf4jnsgd1na2vs0mg"},{"bike_id":"05a27b17-5320-43b3-bc67-a4c5f9101de9","system_id":"levelo_inurba_marseille","lat":43.29712,"lon":5.377,"is_reserved":false,"is_disabled":false,"rental_uris":{"android":"levelo://app?vid=05a27b17-5320-43b3-bc67-a4c5f9101de9","ios":"levelo://app?vid=05a27b17-5320-43b3-bc67-a4c5f9101de9"},"vehicle_type_id":"4","last_reported":1784538774,"current_range_meters":4400,"station_id":"ce4bgkh2rcd13ifvqbl0","pricing_plan_id":"cebpf4jnsgd1na2vs0mg"},{"bike_id":"7b3f288f-ca84-4720-9c59-786bfc71f194","system_id":"levelo_inurba_marseille","lat":43.30619,"lon":5.39361,"is_reserved":false,"is_disabled":true,"rental_uris":{"android":"levelo://app?vid=7b3f288f-ca84-4720-9c59-786bfc71f194","ios":"levelo://app?vid=7b3f288f-ca84-4720-9c59-786bfc71f194"},"vehicle_type_id":"4","last_reported":1784538774,"current_range_meters":4400,"station_id":"ce4bh0p2rcd13ifvqd80","pricing_plan_id":"cebpf4jnsgd1na2vs0mg"},{"bike_id":"27bab6d4-f5f0-4e98-9f26-ffe63d7dacc3","system_id":"levelo_inurba_marseille","lat":43.32475,"lon":5.36587,"is_reserved":false,"is_disabled":false,"rental_uris":{"android":"levelo://app?vid=27bab6d4-f5f0-4e98-9f26-ffe63d7dacc3","ios":"levelo://app?vid=27bab6d4-f5f0-4e98-9f26-ffe63d7dacc3"},"vehicle_type_id":"4","last_reported":1784538774,"current_range_meters":4400,"station_id":"ce4bhs12rcd13ifvqhvg","pricing_plan_id":"cebpf4jnsgd1na2vs0mg"},{"bike_id":"d236f82a-99a5-4a0e-8012-08569bd34fa9","system_id":"levelo_inurba_marseille","lat":43.29836,"lon":5.36269,"is_reserved":false,"is_disabled":false,"rental_uris":{"android":"levelo://app?vid=d236f82a-99a5-4a0e-8012-08569bd34fa9","ios":"levelo://app?vid=d236f82a-99a5-4a0e-8012-08569bd34fa9"},"vehicle_type_id":"4","last_reported":1784538774,"current_range_meters":4400,"station_id":"ce4bgpp2rcd13ifvqc3g","pricing_plan_id":"cebpf4jnsgd1na2vs0mg"},{"bike_id":"50a844fe-f7c1-4977-8738-1a20ca3fd35d","system_id":"levelo_inurba_marseille","lat":43.29002,"lon":5.45997,"is_reserved":false,"is_disabled":false,"rental_uris":{"android":"levelo://app?vid=50a844fe-f7c1-4977-8738-1a20ca3fd35d","ios":"levelo://app?vid=50a844fe-f7c1-4977-8738-1a20ca3fd35d"},"vehicle_type_id":"4","last_reported":1784538774,"current_range_meters":4400,"station_id":"","pricing_plan_id":"cebpf4jnsgd1na2vs0mg"},{"bike_id":"8229c02c-ac67-4633-98e2-39162eeadd91","system_id":"levelo_inurba_marseille","lat":43.27143,"lon":5.41438,"is_reserved":false,"is_disabled":false,"rental_uris":{"android":"levelo://app?vid=8229c02c-ac67-4633-98e2-39162eeadd91","ios":"levelo://app?vid=8229c02c-ac67-4633-98e2-39162eeadd91"},"vehicle_type_id":"4","last_reported":1784538774,"current_range_meters":4400,"station_id":"","pricing_plan_id":"cebpf4jnsgd1na2vs0mg"},{"bike_id":"7f423a2d-f407-4e71-86d9-4382815eee58","system_id":"levelo_inurba_marseille","lat":43.26087,"lon":5.39977,"is_reserved":false,"is_disabled":false,"rental_uris":{"android":"levelo://app?vid=7f423a2d-f407-4e71-86d9-4382815eee58","ios":"levelo://app?vid=7f423a2d-f407-4e71-86d9-4382815eee58"},"vehicle_type_id":"4","last_reported":1784538774,"current_range_meters":4400,"station_id":"","pricing_plan_id":"cebpf4jnsgd1na2vs0mg"},{"bike_id":"79a122bb-6aa3-4469-adb9-5cf47ba6feeb","system_id":"levelo_inurba_marseille","lat":43.29855,"lon":5.3758,"is_reserved":false,"is_disabled":false,"rental_uris":{"android":"levelo://app?vid=79a122bb-6aa3-4469-adb9-5cf47ba6feeb","ios":"levelo://app?vid=79a122bb-6aa3-4469-adb9-5cf47ba6feeb"},"vehicle_type_id":"4","last_reported":1784538774,"current_range_meters":4800,"station_id":"","pricing_plan_id":"cebpf4jnsgd1na2vs0mg"},{"bike_id":"134ed701-9182-4c12-bab7-2fd9709954d7","system_id":"levelo_inurba_marseille","lat":43.26533,"lon":5.39374,"is_reserved":false,"is_disabled":false,"rental_uris":{"android":"levelo://app?vid=134ed701-9182-4c12-bab7-2fd9709954d7","ios":"levelo://app?vid=134ed701-9182-4c12-bab7-2fd9709954d7"},"vehicle_type_id":"4","last_reported":1784538774,"current_range_meters":4800,"station_id":"","pricing_plan_id":"cebpf4jnsgd1na2vs0mg"},{"bike_id":"7c4424da-0ab8-4980-91ea-7c87f42cc87c","system_id":"levelo_inurba_marseille","lat":43.31889,"lon":5.36817,"is_reserved":false,"is_disabled":false,"rental_uris":{"android":"levelo://app?vid=7c4424da-0ab8-4980-91ea-7c87f42cc87c","ios":"levelo://app?vid=7c4424da-0ab8-4980-91ea-7c87f42cc87c"},"vehicle_type_id":"4","last_reported":1784538774,"current_range_meters":4800,"station_id":"st_d6o2h0d0559c73evc1b0","pricing_plan_id":"cebpf4jnsgd1na2vs0mg"},{"bike_id":"b8dc2bb4-49b3-450b-8172-b1a58edaa12e","system_id":"levelo_inurba_marseille","lat":43.2386,"lon":5.37387,"is_reserved":false,"is_disabled":false,"rental_uris":{"android":"levelo://app?vid=b8dc2bb4-49b3-450b-8172-b1a58edaa12e","ios":"levelo://app?vid=b8dc2bb4-49b3-450b-8172-b1a58edaa12e"},"vehicle_type_id":"4","last_reported":1784538774,"current_range_meters":4800,"station_id":"","pricing_plan_id":"cebpf4jnsgd1na2vs0mg"},{"bike_id":"6260e841-6fcc-45a1-b646-911e9f8da15f","system_id":"levelo_inurba_marseille","lat":43.29055,"lon":5.46251,"is_reserved":false,"is_disabled":false,"rental_uris":{"android":"levelo://app?vid=6260e841-6fcc-45a1-b646-911e9f8da15f","ios":"levelo://app?vid=6260e841-6fcc-45a1-b646-911e9f8da15f"},"vehicle_type_id":"4","last_reported":1784538774,"current_range_meters":4800,"station_id":"","pricing_plan_id":"cebpf4jnsgd1na2vs0mg"},{"bike_id":"c8f1af6c-5fb5-4b6e-b86e-0618e3c2ec0b","system_id":"levelo_inurba_marseille","lat":43.29727,"lon":5.36613,"is_reserved":false,"is_disabled":true,"rental_uris":{"android":"levelo://app?vid=c8f1af6c-5fb5-4b6e-b86e-0618e3c2ec0b","ios":"levelo://app?vid=c8f1af6c-5fb5-4b6e-b86e-0618e3c2ec0b"},"vehicle_type_id":"4","last_reported":1784538774,"current_range_meters":4800,"station_id":"ce4bgn12rcd13ifvqbt0","pricing_plan_id":"cebpf4jnsgd1na2vs0mg"},{"bike_id":"e0dbd798-253c-4b57-9be9-c9971e00e561","system_id":"levelo_inurba_marseille","lat":43.26372,"lon":5.4108,"is_reserved":false,"is_disabled":false,"rental_uris":{"android":"levelo://app?vid=e0dbd798-253c-4b57-9be9-c9971e00e561","ios":"levelo://app?vid=e0dbd798-253c-4b57-9be9-c9971e00e561"},"vehicle_type_id":"4","last_reported":1784538774,"current_range_meters":4800,"station_id":"st_d4e5ca6na9uc73bfl5fg","pricing_plan_id":"cebpf4jnsgd1na2vs0mg"},{"bike_id":"10153bbf-cff2-43ba-961f-c94935879f24","system_id":"levelo_inurba_marseille","lat":43.27224,"lon":5.39031,"is_reserved":false,"is_disabled":false,"rental_uris":{"android":"levelo://app?vid=10153bbf-cff2-43ba-961f-c94935879f24","ios":"levelo://app?vid=10153bbf-cff2-43ba-961f-c94935879f24"},"vehicle_type_id":"4","last_reported":1784538774,"current_range_meters":4800,"station_id":"","pricing_plan_id":"cebpf4jnsgd1na2vs0mg"},{"bike_id":"e4e6a986-9e84-4ff1-92e8-8d8ea47ac2cf","system_id":"levelo_inurba_marseille","lat":43.28402,"lon":5.49417,"is_reserved":false,"is_disabled":false,"rental_uris":{"android":"levelo://app?vid=e4e6a986-9e84-4ff1-92e8-8d8ea47ac2cf","ios":"levelo://app?vid=e4e6a986-9e84-4ff1-92e8-8d8ea47ac2cf"},"vehicle_type_id":"4","last_reported":1784538774,"current_range_meters":4800,"station_id":"","pricing_plan_id":"cebpf4jnsgd1na2vs0mg"},{"bike_id":"a2486baa-ef7e-4c5b-86ed-389afb41c981","system_id":"levelo_inurba_marseille","lat":43.31688,"lon":5.40472,"is_reserved":false,"is_disabled":false,"rental_uris":{"android":"levelo://app?vid=a2486baa-ef7e-4c5b-86ed-389afb41c981","ios":"levelo://app?vid=a2486baa-ef7e-4c5b-86ed-389afb41c981"},"vehicle_type_id":"4","last_reported":1784538774,"current_range_meters":4800,"station_id":"ce4bh012rcd13ifvqd00","pricing_plan_id":"cebpf4jnsgd1na2vs0mg"},{"bike_id":"f84d76ac-bdad-488b-a480-bdde6b8e7fda","system_id":"levelo_inurba_marseille","lat":43.30144,"lon":5.38091,"is_reserved":false,"is_disabled":false,"rental_uris":{"android":"levelo://app?vid=f84d76ac-bdad-488b-a480-bdde6b8e7fda","ios":"levelo://app?vid=f84d76ac-bdad-488b-a480-bdde6b8e7fda"},"vehicle_type_id":"4","last_reported":1784538774,"current_range_meters":4800,"station_id":"ce4bgjp2rcd13ifvqbh0","pricing_plan_id":"cebpf4jnsgd1na2vs0mg"},{"bike_id":"ee9f4bb9-eff4-4190-a9f4-7c63d6ca05c7","system_id":"levelo_inurba_marseille","lat":43.25722,"lon":5.41097,"is_reserved":false,"is_disabled":false,"rental_uris":{"android":"levelo://app?vid=ee9f4bb9-eff4-4190-a9f4-7c63d6ca05c7","ios":"levelo://app?vid=ee9f4bb9-eff4-4190-a9f4-7c63d6ca05c7"},"vehicle_type_id":"4","last_reported":1784538774,"current_range_meters":5600,"station_id":"ce4bhkp2rcd13ifvqgd0","pricing_plan_id":"cebpf4jnsgd1na2vs0mg"},{"bike_id":"b6d99f10-b11d-469c-86fd-a5a43ad36846","system_id":"levelo_inurba_marseille","lat":43.32473,"lon":5.36567,"is_reserved":false,"is_disabled":false,"rental_uris":{"android":"levelo://app?vid=b6d99f10-b11d-469c-86fd-a5a43ad36846","ios":"levelo://app?vid=b6d99f10-b11d-469c-86fd-a5a43ad36846"},"vehicle_type_id":"4","last_reported":1784538774,"current_range_meters":5600,"station_id":"ce4bhs12rcd13ifvqhvg","pricing_plan_id":"cebpf4jnsgd1na2vs0mg"},{"bike_id":"cfa5b3bd-50f9-4ce1-861b-234f17e6585b","system_id":"levelo_inurba_marseille","lat":43.30536,"lon":5.36726,"is_reserved":false,"is_disabled":false,"rental_uris":{"android":"levelo://app?vid=cfa5b3bd-50f9-4ce1-861b-234f17e6585b","ios":"levelo://app?vid=cfa5b3bd-50f9-4ce1-861b-234f17e6585b"},"vehicle_type_id":"4","last_reported":1784538774,"current_range_meters":5600,"station_id":"ce4bgrp2rcd13ifvqc9g","pricing_plan_id":"cebpf4jnsgd1na2vs0mg"},{"bike_id":"3d10cc4c-3258-4110-b06e-afffa86d892a","system_id":"levelo_inurba_marseille","lat":43.25401,"lon":5.42781,"is_reserved":false,"is_disabled":false,"rental_uris":{"android":"levelo://app?vid=3d10cc4c-3258-4110-b06e-afffa86d892a","ios":"levelo://app?vid=3d10cc4c-3258-4110-b06e-afffa86d892a"},"vehicle_type_id":"4","last_reported":1784538774,"current_range_meters":5600,"station_id":"","pricing_plan_id":"cebpf4jnsgd1na2vs0mg"},{"bike_id":"d2b84168-79e6-4caa-9659-9bb5961b6020","system_id":"levelo_inurba_marseille","lat":43.25337,"lon":5.4217,"is_reserved":false,"is_disabled":false,"rental_uris":{"android":"levelo://app?vid=d2b84168-79e6-4caa-9659-9bb5961b6020","ios":"levelo://app?vid=d2b84168-79e6-4caa-9659-9bb5961b6020"},"vehicle_type_id":"4","last_reported":1784538774,"current_range_meters":5600,"station_id":"st_d2m65c5bi1j21697t3ng","pricing_plan_id":"cebpf4jnsgd1na2vs0mg"},{"bike_id":"7747b401-a9bb-41a1-9514-914ea7dc075e","system_id":"levelo_inurba_marseille","lat":43.31594,"lon":5.40656,"is_reserved":false,"is_disabled":false,"rental_uris":{"android":"levelo://app?vid=7747b401-a9bb-41a1-9514-914ea7dc075e","ios":"levelo://app?vid=7747b401-a9bb-41a1-9514-914ea7dc075e"},"vehicle_type_id":"4","last_reported":1784538774,"current_range_meters":5600,"station_id":"","pricing_plan_id":"cebpf4jnsgd1na2vs0mg"},{"bike_id":"13dba1cd-cee8-4914-9f0c-12defcb524ac","system_id":"levelo_inurba_marseille","lat":43.23554,"lon":5.36067,"is_reserved":false,"is_disabled":false,"rental_uris":{"android":"levelo://app?vid=13dba1cd-cee8-4914-9f0c-12defcb524ac","ios":"levelo://app?vid=13dba1cd-cee8-4914-9f0c-12defcb524ac"},"vehicle_type_id":"4","last_reported":1784538774,"current_range_meters":5600,"station_id":"","pricing_plan_id":"cebpf4jnsgd1na2vs0mg"},{"bike_id":"cd548e24-df5a-471f-9eeb-27b8fda2977f","system_id":"levelo_inurba_marseille","lat":43.29043,"lon":5.3816,"is_reserved":false,"is_disabled":false,"rental_uris":{"android":"levelo://app?vid=cd548e24-df5a-471f-9eeb-27b8fda2977f","ios":"levelo://app?vid=cd548e24-df5a-471f-9eeb-27b8fda2977f"},"vehicle_type_id":"4","last_reported":1784538774,"current_range_meters":5600,"station_id":"ce4bh4p2rcd13ifvqe1g","pricing_plan_id":"cebpf4jnsgd1na2vs0mg"},{"bike_id":"9f920c10-2720-4aab-bb8a-66f7258d7ded","system_id":"levelo_inurba_marseille","lat":43.25089,"lon":5.4036,"is_reserved":false,"is_disabled":false,"rental_uris":{"android":"levelo://app?vid=9f920c10-2720-4aab-bb8a-66f7258d7ded","ios":"levelo://app?vid=9f920c10-2720-4aab-bb8a-66f7258d7ded"},"vehicle_type_id":"4","last_reported":1784538774,"current_range_meters":5600,"station_id":"ce4bhlh2rcd13ifvqgig","pricing_plan_id":"cebpf4jnsgd1na2vs0mg"},{"bike_id":"e5ee2eca-77a8-4da2-981a-95a687b7494e","system_id":"levelo_inurba_marseille","lat":43.28705,"lon":5.46681,"is_reserved":false,"is_disabled":false,"rental_uris":{"android":"levelo://app?vid=e5ee2eca-77a8-4da2-981a-95a687b7494e","ios":"levelo://app?vid=e5ee2eca-77a8-4da2-981a-95a687b7494e"},"vehicle_type_id":"4","last_reported":1784538774,"current_range_meters":5600,"station_id":"st_d6tc3vkotcvc738tfjhg","pricing_plan_id":"cebpf4jnsgd1na2vs0mg"},{"bike_id":"0c5300e5-e843-4cf4-ac29-602225a633aa","system_id":"levelo_inurba_marseille","lat":43.22975,"lon":5.43472,"is_reserved":false,"is_disabled":false,"rental_uris":{"android":"levelo://app?vid=0c5300e5-e843-4cf4-ac29-602225a633aa","ios":"levelo://app?vid=0c5300e5-e843-4cf4-ac29-602225a633aa"},"vehicle_type_id":"4","last_reported":1784538774,"current_range_meters":5600,"station_id":"","pricing_plan_id":"cebpf4jnsgd1na2vs0mg"},{"bike_id":"3adaa436-b43b-48cb-8b46-f9ab5d9a6fa2","system_id":"levelo_inurba_marseille","lat":43.29016,"lon":5.43275,"is_reserved":false,"is_disabled":false,"rental_uris":{"android":"levelo://app?vid=3adaa436-b43b-48cb-8b46-f9ab5d9a6fa2","ios":"levelo://app?vid=3adaa436-b43b-48cb-8b46-f9ab5d9a6fa2"},"vehicle_type_id":"4","last_reported":1784538774,"current_range_meters":5600,"station_id":"","pricing_plan_id":"cebpf4jnsgd1na2vs0mg"},{"bike_id":"2ab0ecff-102f-4859-9d88-36a68767be77","system_id":"levelo_inurba_marseille","lat":43.28614,"lon":5.35112,"is_reserved":false,"is_disabled":false,"rental_uris":{"android":"levelo://app?vid=2ab0ecff-102f-4859-9d88-36a68767be77","ios":"levelo://app?vid=2ab0ecff-102f-4859-9d88-36a68767be77"},"vehicle_type_id":"4","last_reported":1784538774,"current_range_meters":5600,"station_id":"ce4bhch2rcd13ifvqeug","pricing_plan_id":"cebpf4jnsgd1na2vs0mg"},{"bike_id":"d3423cb6-7bcb-4800-a5f7-96bfc3ffc636","system_id":"levelo_inurba_marseille","lat":43.30535,"lon":5.3657,"is_reserved":false,"is_disabled":false,"rental_uris":{"android":"levelo://app?vid=d3423cb6-7bcb-4800-a5f7-96bfc3ffc636","ios":"levelo://app?vid=d3423cb6-7bcb-4800-a5f7-96bfc3ffc636"},"vehicle_type_id":"4","last_reported":1784538774,"current_range_meters":6000,"station_id":"ce4bgs12rcd13ifvqcag","pricing_plan_id":"cebpf4jnsgd1na2vs0mg"},{"bike_id":"ebfe9d04-d34e-4bb1-90c9-79f7b73604ae","system_id":"levelo_inurba_marseille","lat":43.27003,"lon":5.42802,"is_reserved":false,"is_disabled":false,"rental_uris":{"android":"levelo://app?vid=ebfe9d04-d34e-4bb1-90c9-79f7b73604ae","ios":"levelo://app?vid=ebfe9d04-d34e-4bb1-90c9-79f7b73604ae"},"vehicle_type_id":"4","last_reported":1784538774,"current_range_meters":6000,"station_id":"","pricing_plan_id":"cebpf4jnsgd1na2vs0mg"},{"bike_id":"3de98df5-6bef-4793-b8c1-0a80fbd23dca","system_id":"levelo_inurba_marseille","lat":43.27754,"lon":5.3889,"is_reserved":false,"is_disabled":false,"rental_uris":{"android":"levelo://app?vid=3de98df5-6bef-4793-b8c1-0a80fbd23dca","ios":"levelo://app?vid=3de98df5-6bef-4793-b8c1-0a80fbd23dca"},"vehicle_type_id":"4","last_reported":1784538774,"current_range_meters":6000,"station_id":"","pricing_plan_id":"cebpf4jnsgd1na2vs0mg"},{"bike_id":"4d4327a9-cbe0-453b-a3ed-086e77735376","system_id":"levelo_inurba_marseille","lat":43.27064,"lon":5.38297,"is_reserved":false,"is_disabled":false,"rental_uris":{"android":"levelo://app?vid=4d4327a9-cbe0-453b-a3ed-086e77735376","ios":"levelo://app?vid=4d4327a9-cbe0-453b-a3ed-086e77735376"},"vehicle_type_id":"4","last_reported":1784538774,"current_range_meters":6000,"station_id":"st_d3n2fo6cfp8s73cte1j0","pricing_plan_id":"cebpf4jnsgd1na2vs0mg"},{"bike_id":"c60e6587-b06d-4899-88be-2d360d8d9662","system_id":"levelo_inurba_marseille","lat":43.2949,"lon":5.43315,"is_reserved":false,"is_disabled":false,"rental_uris":{"android":"levelo://app?vid=c60e6587-b06d-4899-88be-2d360d8d9662","ios":"levelo://app?vid=c60e6587-b06d-4899-88be-2d360d8d9662"},"vehicle_type_id":"4","last_reported":1784538774,"current_range_meters":6000,"station_id":"st_d3j5ugp08ojc73fj9d10","pricing_plan_id":"cebpf4jnsgd1na2vs0mg"},{"bike_id":"4aa9b431-4568-48de-ab61-9aea9a7d2b57","system_id":"levelo_inurba_marseille","lat":43.28533,"lon":5.44103,"is_reserved":false,"is_disabled":false,"rental_uris":{"android":"levelo://app?vid=4aa9b431-4568-48de-ab61-9aea9a7d2b57","ios":"levelo://app?vid=4aa9b431-4568-48de-ab61-9aea9a7d2b57"},"vehicle_type_id":"4","last_reported":1784538774,"current_range_meters":6000,"station_id":"st_d3j3df2ikq2c7380ej80","pricing_plan_id":"cebpf4jnsgd1na2vs0mg"},{"bike_id":"ca88ef5d-7eea-4bee-8025-aa278352c815","system_id":"levelo_inurba_marseille","lat":43.29438,"lon":5.37462,"is_reserved":false,"is_disabled":false,"rental_uris":{"android":"levelo://app?vid=ca88ef5d-7eea-4bee-8025-aa278352c815","ios":"levelo://app?vid=ca88ef5d-7eea-4bee-8025-aa278352c815"},"vehicle_type_id":"4","last_reported":1784538774,"current_range_meters":6000,"station_id":"","pricing_plan_id":"cebpf4jnsgd1na2vs0mg"},{"bike_id":"cac6e9f0-5166-4db4-addf-c24ec0ebb688","system_id":"levelo_inurba_marseille","lat":43.31165,"lon":5.38229,"is_reserved":false,"is_disabled":false,"rental_uris":{"android":"levelo://app?vid=cac6e9f0-5166-4db4-addf-c24ec0ebb688","ios":"levelo://app?vid=cac6e9f0-5166-4db4-addf-c24ec0ebb688"},"vehicle_type_id":"4","last_reported":1784538774,"current_range_meters":6000,"station_id":"","pricing_plan_id":"cebpf4jnsgd1na2vs0mg"},{"bike_id":"650402e7-dae8-465a-8aa5-821d6394e382","system_id":"levelo_inurba_marseille","lat":43.24999,"lon":5.38932,"is_reserved":false,"is_disabled":false,"rental_uris":{"android":"levelo://app?vid=650402e7-dae8-465a-8aa5-821d6394e382","ios":"levelo://app?vid=650402e7-dae8-465a-8aa5-821d6394e382"},"vehicle_type_id":"4","last_reported":1784538774,"current_range_meters":6000,"station_id":"ce4bhgp2rcd13ifvqfd0","pricing_plan_id":"cebpf4jnsgd1na2vs0mg"},{"bike_id":"92d5f9f1-5ab9-4a00-98b9-c9720b0bc50f","system_id":"levelo_inurba_marseille","lat":43.32465,"lon":5.4267,"is_reserved":false,"is_disabled":false,"rental_uris":{"android":"levelo://app?vid=92d5f9f1-5ab9-4a00-98b9-c9720b0bc50f","ios":"levelo://app?vid=92d5f9f1-5ab9-4a00-98b9-c9720b0bc50f"},"vehicle_type_id":"4","last_reported":1784538774,"current_range_meters":6000,"station_id":"","pricing_plan_id":"cebpf4jnsgd1na2vs0mg"},{"bike_id":"3bcf8646-0f34-4add-a19c-9a0be4be17bc","system_id":"levelo_inurba_marseille","lat":43.30963,"lon":5.3727,"is_reserved":false,"is_disabled":false,"rental_uris":{"android":"levelo://app?vid=3bcf8646-0f34-4add-a19c-9a0be4be17bc","ios":"levelo://app?vid=3bcf8646-0f34-4add-a19c-9a0be4be17bc"},"vehicle_type_id":"4","last_reported":1784538774,"current_range_meters":6000,"station_id":"","pricing_plan_id":"cebpf4jnsgd1na2vs0mg"},{"bike_id":"46cf8ae5-7127-4b21-8a09-851f2928b5d5","system_id":"levelo_inurba_marseille","lat":43.27953,"lon":5.36387,"is_reserved":false,"is_disabled":false,"rental_uris":{"android":"levelo://app?vid=46cf8ae5-7127-4b21-8a09-851f2928b5d5","ios":"levelo://app?vid=46cf8ae5-7127-4b21-8a09-851f2928b5d5"},"vehicle_type_id":"4","last_reported":1784538774,"current_range_meters":6000,"station_id":"","pricing_plan_id":"cebpf4jnsgd1na2vs0mg"},{"bike_id":"ef7c9442-a82b-4d83-85b0-3e7c1b11a145","system_id":"levelo_inurba_marseille","lat":43.32369,"lon":5.38882,"is_reserved":false,"is_disabled":false,"rental_uris":{"android":"levelo://app?vid=ef7c9442-a82b-4d83-85b0-3e7c1b11a145","ios":"levelo://app?vid=ef7c9442-a82b-4d83-85b0-3e7c1b11a145"},"vehicle_type_id":"4","last_reported":1784538774,"current_range_meters":6000,"station_id":"ce4bhqp2rcd13ifvqhog","pricing_plan_id":"cebpf4jnsgd1na2vs0mg"},{"bike_id":"3a80e04f-8593-4ad6-a55c-63f0cf7709cf","system_id":"levelo_inurba_marseille","lat":43.29258,"lon":5.40902,"is_reserved":false,"is_disabled":true,"rental_uris":{"android":"levelo://app?vid=3a80e04f-8593-4ad6-a55c-63f0cf7709cf","ios":"levelo://app?vid=3a80e04f-8593-4ad6-a55c-63f0cf7709cf"},"vehicle_type_id":"4","last_reported":1784538774,"current_range_meters":6000,"station_id":"ce4bh192rcd13ifvqdc0","pricing_plan_id":"cebpf4jnsgd1na2vs0mg"},{"bike_id":"ea3c9c7e-74a4-4582-a6c7-6c6d5b536807","system_id":"levelo_inurba_marseille","lat":43.29251,"lon":5.35738,"is_reserved":false,"is_disabled":false,"rental_uris":{"android":"levelo://app?vid=ea3c9c7e-74a4-4582-a6c7-6c6d5b536807","ios":"levelo://app?vid=ea3c9c7e-74a4-4582-a6c7-6c6d5b536807"},"vehicle_type_id":"4","last_reported":1784538774,"current_range_meters":6000,"station_id":"","pricing_plan_id":"cebpf4jnsgd1na2vs0mg"},{"bike_id":"4329b59b-37df-497a-86cc-927c13cc7ad2","system_id":"levelo_inurba_marseille","lat":43.29982,"lon":5.37184,"is_reserved":false,"is_disabled":false,"rental_uris":{"android":"levelo://app?vid=4329b59b-37df-497a-86cc-927c13cc7ad2","ios":"levelo://app?vid=4329b59b-37df-497a-86cc-927c13cc7ad2"},"vehicle_type_id":"4","last_reported":1784538774,"current_range_meters":6400,"station_id":"ce4bgr92rcd13ifvqc7g","pricing_plan_id":"cebpf4jnsgd1na2vs0mg"},{"bike_id":"bbb6d84d-52b2-4523-b78b-60cb354411ef","system_id":"levelo_inurba_marseille","lat":43.32075,"lon":5.3683,"is_reserved":false,"is_disabled":false,"rental_uris":{"android":"levelo://app?vid=bbb6d84d-52b2-4523-b78b-60cb354411ef","ios":"levelo://app?vid=bbb6d84d-52b2-4523-b78b-60cb354411ef"},"vehicle_type_id":"4","last_reported":1784538774,"current_range_meters":6400,"station_id":"","pricing_plan_id":"cebpf4jnsgd1na2vs0mg"},{"bike_id":"2f246831-ed26-4fa5-97e1-6c750e7f25ed","system_id":"levelo_inurba_marseille","lat":43.28706,"lon":5.39976,"is_reserved":false,"is_disabled":true,"rental_uris":{"android":"levelo://app?vid=2f246831-ed26-4fa5-97e1-6c750e7f25ed","ios":"levelo://app?vid=2f246831-ed26-4fa5-97e1-6c750e7f25ed"},"vehicle_type_id":"4","last_reported":1784538774,"current_range_meters":6400,"station_id":"ce4bho92rcd13ifvqh3g","pricing_plan_id":"cebpf4jnsgd1na2vs0mg"},{"bike_id":"808d9741-6c83-43f6-9907-cf4b311100ab","system_id":"levelo_inurba_marseille","lat":43.28613,"lon":5.35101,"is_reserved":false,"is_disabled":false,"rental_uris":{"android":"levelo://app?vid=808d9741-6c83-43f6-9907-cf4b311100ab","ios":"levelo://app?vid=808d9741-6c83-43f6-9907-cf4b311100ab"},"vehicle_type_id":"4","last_reported":1784538774,"current_range_meters":6400,"station_id":"ce4bhch2rcd13ifvqeug","pricing_plan_id":"cebpf4jnsgd1na2vs0mg"},{"bike_id":"74162b45-2f0c-4389-a673-119afc3b84cd","system_id":"levelo_inurba_marseille","lat":43.28545,"lon":5.44095,"is_reserved":false,"is_disabled":false,"rental_uris":{"android":"levelo://app?vid=74162b45-2f0c-4389-a673-119afc3b84cd","ios":"levelo://app?vid=74162b45-2f0c-4389-a673-119afc3b84cd"},"vehicle_type_id":"4","last_reported":1784538774,"current_range_meters":6400,"station_id":"st_d3j3df2ikq2c7380ej80","pricing_plan_id":"cebpf4jnsgd1na2vs0mg"},{"bike_id":"d082dee5-db15-4ad1-85c7-7d7f398b3cf1","system_id":"levelo_inurba_marseille","lat":43.24956,"lon":5.405,"is_reserved":false,"is_disabled":false,"rental_uris":{"android":"levelo://app?vid=d082dee5-db15-4ad1-85c7-7d7f398b3cf1","ios":"levelo://app?vid=d082dee5-db15-4ad1-85c7-7d7f398b3cf1"},"vehicle_type_id":"4","last_reported":1784538774,"current_range_meters":6400,"station_id":"st_d2ngiaodas8pm72gd1h0","pricing_plan_id":"cebpf4jnsgd1na2vs0mg"},{"bike_id":"25804bd8-1d1b-426b-92eb-c72a920aec45","system_id":"levelo_inurba_marseille","lat":43.30271,"lon":5.37734,"is_reserved":false,"is_disabled":false,"rental_uris":{"android":"levelo://app?vid=25804bd8-1d1b-426b-92eb-c72a920aec45","ios":"levelo://app?vid=25804bd8-1d1b-426b-92eb-c72a920aec45"},"vehicle_type_id":"4","last_reported":1784538774,"current_range_meters":6400,"station_id":"ce4bguh2rcd13ifvqcj0","pricing_plan_id":"cebpf4jnsgd1na2vs0mg"},{"bike_id":"db422ed4-5d5d-4143-8082-a86c417c9acc","system_id":"levelo_inurba_marseille","lat":43.28909,"lon":5.3781,"is_reserved":false,"is_disabled":false,"rental_uris":{"android":"levelo://app?vid=db422ed4-5d5d-4143-8082-a86c417c9acc","ios":"levelo://app?vid=db422ed4-5d5d-4143-8082-a86c417c9acc"},"vehicle_type_id":"4","last_reported":1784538774,"current_range_meters":6400,"station_id":"","pricing_plan_id":"cebpf4jnsgd1na2vs0mg"},{"bike_id":"63028f11-79f2-41fa-b047-0524bb1d0b11","system_id":"levelo_inurba_marseille","lat":43.28724,"lon":5.37928,"is_reserved":false,"is_disabled":false,"rental_uris":{"android":"levelo://app?vid=63028f11-79f2-41fa-b047-0524bb1d0b11","ios":"levelo://app?vid=63028f11-79f2-41fa-b047-0524bb1d0b11"},"vehicle_type_id":"4","last_reported":1784538774,"current_range_meters":6400,"station_id":"ce4bh9p2rcd13ifvqec0","pricing_plan_id":"cebpf4jnsgd1na2vs0mg"},{"bike_id":"c3f8d999-2b54-45ea-a297-5989246613af","system_id":"levelo_inurba_marseille","lat":43.26547,"lon":5.37289,"is_reserved":false,"is_disabled":false,"rental_uris":{"android":"levelo://app?vid=c3f8d999-2b54-45ea-a297-5989246613af","ios":"levelo://app?vid=c3f8d999-2b54-45ea-a297-5989246613af"},"vehicle_type_id":"4","last_reported":1784538774,"current_range_meters":6400,"station_id":"ce4bhg12rcd13ifvqf70","pricing_plan_id":"cebpf4jnsgd1na2vs0mg"},{"bike_id":"7220759e-b165-43ad-a058-e7bc3e7128b2","system_id":"levelo_inurba_marseille","lat":43.24347,"lon":5.38477,"is_reserved":false,"is_disabled":false,"rental_uris":{"android":"levelo://app?vid=7220759e-b165-43ad-a058-e7bc3e7128b2","ios":"levelo://app?vid=7220759e-b165-43ad-a058-e7bc3e7128b2"},"vehicle_type_id":"4","last_reported":1784538774,"current_range_meters":6400,"station_id":"","pricing_plan_id":"cebpf4jnsgd1na2vs0mg"},{"bike_id":"6bf0a33e-fbdb-450b-ba74-f564e561ddfb","system_id":"levelo_inurba_marseille","lat":43.24977,"lon":5.41648,"is_reserved":false,"is_disabled":false,"rental_uris":{"android":"levelo://app?vid=6bf0a33e-fbdb-450b-ba74-f564e561ddfb","ios":"levelo://app?vid=6bf0a33e-fbdb-450b-ba74-f564e561ddfb"},"vehicle_type_id":"4","last_reported":1784538774,"current_range_meters":6400,"station_id":"","pricing_plan_id":"cebpf4jnsgd1na2vs0mg"},{"bike_id":"c6146f17-2a9b-4387-910d-01a5dfb23e19","system_id":"levelo_inurba_marseille","lat":43.29252,"lon":5.37624,"is_reserved":false,"is_disabled":false,"rental_uris":{"android":"levelo://app?vid=c6146f17-2a9b-4387-910d-01a5dfb23e19","ios":"levelo://app?vid=c6146f17-2a9b-4387-910d-01a5dfb23e19"},"vehicle_type_id":"4","last_reported":1784538774,"current_range_meters":6400,"station_id":"ce4bgi12rcd13ifvqb80","pricing_plan_id":"cebpf4jnsgd1na2vs0mg"},{"bike_id":"ec9941e2-f8b6-40b6-b56d-6a6096b22312","system_id":"levelo_inurba_marseille","lat":43.29684,"lon":5.37301,"is_reserved":false,"is_disabled":true,"rental_uris":{"android":"levelo://app?vid=ec9941e2-f8b6-40b6-b56d-6a6096b22312","ios":"levelo://app?vid=ec9941e2-f8b6-40b6-b56d-6a6096b22312"},"vehicle_type_id":"4","last_reported":1784538774,"current_range_meters":6800,"station_id":"ce4bgk12rcd13ifvqbj0","pricing_plan_id":"cebpf4jnsgd1na2vs0mg"},{"bike_id":"d47a6461-fcb7-4c72-8f38-db1576ed5368","system_id":"levelo_inurba_marseille","lat":43.309451,"lon":5.390288,"is_reserved":false,"is_disabled":false,"rental_uris":{"android":"levelo://app?vid=d47a6461-fcb7-4c72-8f38-db1576ed5368","ios":"levelo://app?vid=d47a6461-fcb7-4c72-8f38-db1576ed5368"},"vehicle_type_id":"4","last_reported":1784538774,"current_range_meters":6800,"station_id":"","pricing_plan_id":"cebpf4jnsgd1na2vs0mg"},{"bike_id":"358135fd-6964-4108-9c22-f9b65975ad8b","system_id":"levelo_inurba_marseille","lat":43.293037,"lon":5.371777,"is_reserved":false,"is_disabled":false,"rental_uris":{"android":"levelo://app?vid=358135fd-6964-4108-9c22-f9b65975ad8b","ios":"levelo://app?vid=358135fd-6964-4108-9c22-f9b65975ad8b"},"vehicle_type_id":"4","last_reported":1784538774,"current_range_meters":6800,"station_id":"ce4bhn92rcd13ifvqgsg","pricing_plan_id":"cebpf4jnsgd1na2vs0mg"},{"bike_id":"4bb56631-11c1-406b-bfa0-a4db26e5d56c","system_id":"levelo_inurba_marseille","lat":43.32081,"lon":5.36776,"is_reserved":false,"is_disabled":false,"rental_uris":{"android":"levelo://app?vid=4bb56631-11c1-406b-bfa0-a4db26e5d56c","ios":"levelo://app?vid=4bb56631-11c1-406b-bfa0-a4db26e5d56c"},"vehicle_type_id":"4","last_reported":1784538774,"current_range_meters":6800,"station_id":"ce4bhrh2rcd13ifvqhug","pricing_plan_id":"cebpf4jnsgd1na2vs0mg"},{"bike_id":"c420662b-2414-4b67-b406-48ab484181bb","system_id":"levelo_inurba_marseille","lat":43.22548,"lon":5.41612,"is_reserved":false,"is_disabled":false,"rental_uris":{"android":"levelo://app?vid=c420662b-2414-4b67-b406-48ab484181bb","ios":"levelo://app?vid=c420662b-2414-4b67-b406-48ab484181bb"},"vehicle_type_id":"4","last_reported":1784538774,"current_range_meters":6800,"station_id":"st_d2o4gvlbi1j2169b742g","pricing_plan_id":"cebpf4jnsgd1na2vs0mg"},{"bike_id":"1610eec2-13eb-4b87-8f55-6ae6d0dc1666","system_id":"levelo_inurba_marseille","lat":43.2315,"lon":5.43687,"is_reserved":false,"is_disabled":false,"rental_uris":{"android":"levelo://app?vid=1610eec2-13eb-4b87-8f55-6ae6d0dc1666","ios":"levelo://app?vid=1610eec2-13eb-4b87-8f55-6ae6d0dc1666"},"vehicle_type_id":"4","last_reported":1784538774,"current_range_meters":6800,"station_id":"ce4bhmp2rcd13ifvqgog","pricing_plan_id":"cebpf4jnsgd1na2vs0mg"},{"bike_id":"327413ca-2850-4ab7-afbc-60bd356d9f65","system_id":"levelo_inurba_marseille","lat":43.26205,"lon":5.39536,"is_reserved":false,"is_disabled":false,"rental_uris":{"android":"levelo://app?vid=327413ca-2850-4ab7-afbc-60bd356d9f65","ios":"levelo://app?vid=327413ca-2850-4ab7-afbc-60bd356d9f65"},"vehicle_type_id":"4","last_reported":1784538774,"current_range_meters":6800,"station_id":"","pricing_plan_id":"cebpf4jnsgd1na2vs0mg"},{"bike_id":"a3b0ccb8-1258-4421-aa1a-f7f7764d6cf0","system_id":"levelo_inurba_marseille","lat":43.32088,"lon":5.36847,"is_reserved":false,"is_disabled":false,"rental_uris":{"android":"levelo://app?vid=a3b0ccb8-1258-4421-aa1a-f7f7764d6cf0","ios":"levelo://app?vid=a3b0ccb8-1258-4421-aa1a-f7f7764d6cf0"},"vehicle_type_id":"4","last_reported":1784538774,"current_range_meters":6800,"station_id":"ce4bhrh2rcd13ifvqhug","pricing_plan_id":"cebpf4jnsgd1na2vs0mg"},{"bike_id":"3cb92063-c68d-4069-9de4-5bd383d1283d","system_id":"levelo_inurba_marseille","lat":43.31115,"lon":5.3778,"is_reserved":false,"is_disabled":false,"rental_uris":{"android":"levelo://app?vid=3cb92063-c68d-4069-9de4-5bd383d1283d","ios":"levelo://app?vid=3cb92063-c68d-4069-9de4-5bd383d1283d"},"vehicle_type_id":"4","last_reported":1784538774,"current_range_meters":6800,"station_id":"ce4bgt92rcd13ifvqcg0","pricing_plan_id":"cebpf4jnsgd1na2vs0mg"},{"bike_id":"b67f683e-d974-42ba-9c05-248ef705202a","system_id":"levelo_inurba_marseille","lat":43.30553,"lon":5.3651,"is_reserved":false,"is_disabled":false,"rental_uris":{"android":"levelo://app?vid=b67f683e-d974-42ba-9c05-248ef705202a","ios":"levelo://app?vid=b67f683e-d974-42ba-9c05-248ef705202a"},"vehicle_type_id":"4","last_reported":1784538774,"current_range_meters":6800,"station_id":"ce4bgs12rcd13ifvqcag","pricing_plan_id":"cebpf4jnsgd1na2vs0mg"},{"bike_id":"60072536-3ac9-4846-a5f8-d1b7f45a0f7e","system_id":"levelo_inurba_marseille","lat":43.31874,"lon":5.39989,"is_reserved":false,"is_disabled":false,"rental_uris":{"android":"levelo://app?vid=60072536-3ac9-4846-a5f8-d1b7f45a0f7e","ios":"levelo://app?vid=60072536-3ac9-4846-a5f8-d1b7f45a0f7e"},"vehicle_type_id":"4","last_reported":1784538774,"current_range_meters":6800,"station_id":"","pricing_plan_id":"cebpf4jnsgd1na2vs0mg"},{"bike_id":"e4ea7a53-5af9-4ade-9591-07c9f823a059","system_id":"levelo_inurba_marseille","lat":43.24659,"lon":5.39639,"is_reserved":false,"is_disabled":false,"rental_uris":{"android":"levelo://app?vid=e4ea7a53-5af9-4ade-9591-07c9f823a059","ios":"levelo://app?vid=e4ea7a53-5af9-4ade-9591-07c9f823a059"},"vehicle_type_id":"4","last_reported":1784538774,"current_range_meters":6800,"station_id":"","pricing_plan_id":"cebpf4jnsgd1na2vs0mg"},{"bike_id":"452f92c8-db61-4e82-b7dc-f8998924efa9","system_id":"levelo_inurba_marseille","lat":43.30534,"lon":5.36571,"is_reserved":false,"is_disabled":false,"rental_uris":{"android":"levelo://app?vid=452f92c8-db61-4e82-b7dc-f8998924efa9","ios":"levelo://app?vid=452f92c8-db61-4e82-b7dc-f8998924efa9"},"vehicle_type_id":"4","last_reported":1784538774,"current_range_meters":6800,"station_id":"ce4bgs12rcd13ifvqcag","pricing_plan_id":"cebpf4jnsgd1na2vs0mg"},{"bike_id":"ce2d8f80-0f8f-4ad7-ad98-4d60671f0aaf","system_id":"levelo_inurba_marseille","lat":43.31221,"lon":5.36848,"is_reserved":false,"is_disabled":false,"rental_uris":{"android":"levelo://app?vid=ce2d8f80-0f8f-4ad7-ad98-4d60671f0aaf","ios":"levelo://app?vid=ce2d8f80-0f8f-4ad7-ad98-4d60671f0aaf"},"vehicle_type_id":"4","last_reported":1784538774,"current_range_meters":7200,"station_id":"ce4bgl92rcd13ifvqbq0","pricing_plan_id":"cebpf4jnsgd1na2vs0mg"},{"bike_id":"d289bf61-8180-4650-8a0b-cd5d340f4013","system_id":"levelo_inurba_marseille","lat":43.24079,"lon":5.37755,"is_reserved":false,"is_disabled":false,"rental_uris":{"android":"levelo://app?vid=d289bf61-8180-4650-8a0b-cd5d340f4013","ios":"levelo://app?vid=d289bf61-8180-4650-8a0b-cd5d340f4013"},"vehicle_type_id":"4","last_reported":1784538774,"current_range_meters":7200,"station_id":"ce4bhnp2rcd13ifvqgvg","pricing_plan_id":"cebpf4jnsgd1na2vs0mg"},{"bike_id":"c7be9552-2443-457a-882e-618653ab348d","system_id":"levelo_inurba_marseille","lat":43.29114,"lon":5.39969,"is_reserved":false,"is_disabled":false,"rental_uris":{"android":"levelo://app?vid=c7be9552-2443-457a-882e-618653ab348d","ios":"levelo://app?vid=c7be9552-2443-457a-882e-618653ab348d"},"vehicle_type_id":"4","last_reported":1784538774,"current_range_meters":7200,"station_id":"","pricing_plan_id":"cebpf4jnsgd1na2vs0mg"},{"bike_id":"de37ab95-337b-4a38-989d-5049be11aa34","system_id":"levelo_inurba_marseille","lat":43.28706,"lon":5.37414,"is_reserved":false,"is_disabled":true,"rental_uris":{"android":"levelo://app?vid=de37ab95-337b-4a38-989d-5049be11aa34","ios":"levelo://app?vid=de37ab95-337b-4a38-989d-5049be11aa34"},"vehicle_type_id":"4","last_reported":1784538774,"current_range_meters":7200,"station_id":"ce4bh3p2rcd13ifvqdq0","pricing_plan_id":"cebpf4jnsgd1na2vs0mg"},{"bike_id":"44bd55d7-eb10-4dfc-9e05-66859e480eec","system_id":"levelo_inurba_marseille","lat":43.2482,"lon":5.37485,"is_reserved":false,"is_disabled":false,"rental_uris":{"android":"levelo://app?vid=44bd55d7-eb10-4dfc-9e05-66859e480eec","ios":"levelo://app?vid=44bd55d7-eb10-4dfc-9e05-66859e480eec"},"vehicle_type_id":"4","last_reported":1784538774,"current_range_meters":7200,"station_id":"ce4bhgh2rcd13ifvqfb0","pricing_plan_id":"cebpf4jnsgd1na2vs0mg"},{"bike_id":"5fae6156-33c3-4e73-86c1-951faa8e27af","system_id":"levelo_inurba_marseille","lat":43.28708,"lon":5.46701,"is_reserved":false,"is_disabled":true,"rental_uris":{"android":"levelo://app?vid=5fae6156-33c3-4e73-86c1-951faa8e27af","ios":"levelo://app?vid=5fae6156-33c3-4e73-86c1-951faa8e27af"},"vehicle_type_id":"4","last_reported":1784538774,"current_range_meters":7200,"station_id":"st_d6tc3vkotcvc738tfjhg","pricing_plan_id":"cebpf4jnsgd1na2vs0mg"},{"bike_id":"e8d818ba-a222-4b15-a73c-6a2f01c59af6","system_id":"levelo_inurba_marseille","lat":43.30458,"lon":5.37914,"is_reserved":false,"is_disabled":false,"rental_uris":{"android":"levelo://app?vid=e8d818ba-a222-4b15-a73c-6a2f01c59af6","ios":"levelo://app?vid=e8d818ba-a222-4b15-a73c-6a2f01c59af6"},"vehicle_type_id":"4","last_reported":1784538774,"current_range_meters":7200,"station_id":"ce4bgup2rcd13ifvqcn0","pricing_plan_id":"cebpf4jnsgd1na2vs0mg"},{"bike_id":"b2bf3d7a-4a32-4557-955c-5a4ec4f1e270","system_id":"levelo_inurba_marseille","lat":43.28482,"lon":5.48383,"is_reserved":false,"is_disabled":false,"rental_uris":{"android":"levelo://app?vid=b2bf3d7a-4a32-4557-955c-5a4ec4f1e270","ios":"levelo://app?vid=b2bf3d7a-4a32-4557-955c-5a4ec4f1e270"},"vehicle_type_id":"4","last_reported":1784538774,"current_range_meters":7200,"station_id":"st_d3svhcjqgbts73a3dn0g","pricing_plan_id":"cebpf4jnsgd1na2vs0mg"},{"bike_id":"7102278d-2b2c-4eb0-92a4-05578528cfd4","system_id":"levelo_inurba_marseille","lat":43.27373,"lon":5.36271,"is_reserved":false,"is_disabled":false,"rental_uris":{"android":"levelo://app?vid=7102278d-2b2c-4eb0-92a4-05578528cfd4","ios":"levelo://app?vid=7102278d-2b2c-4eb0-92a4-05578528cfd4"},"vehicle_type_id":"4","last_reported":1784538774,"current_range_meters":7200,"station_id":"ce4bhbh2rcd13ifvqeo0","pricing_plan_id":"cebpf4jnsgd1na2vs0mg"},{"bike_id":"3b3b9750-d89e-4276-8b36-3bd4244e7b1b","system_id":"levelo_inurba_marseille","lat":43.28048,"lon":5.37227,"is_reserved":false,"is_disabled":false,"rental_uris":{"android":"levelo://app?vid=3b3b9750-d89e-4276-8b36-3bd4244e7b1b","ios":"levelo://app?vid=3b3b9750-d89e-4276-8b36-3bd4244e7b1b"},"vehicle_type_id":"4","last_reported":1784538774,"current_range_meters":7200,"station_id":"","pricing_plan_id":"cebpf4jnsgd1na2vs0mg"},{"bike_id":"143b0326-bcc2-41fe-ac94-ce3903ac509a","system_id":"levelo_inurba_marseille","lat":43.30834,"lon":5.40426,"is_reserved":false,"is_disabled":false,"rental_uris":{"android":"levelo://app?vid=143b0326-bcc2-41fe-ac94-ce3903ac509a","ios":"levelo://app?vid=143b0326-bcc2-41fe-ac94-ce3903ac509a"},"vehicle_type_id":"4","last_reported":1784538774,"current_range_meters":8000,"station_id":"","pricing_plan_id":"cebpf4jnsgd1na2vs0mg"},{"bike_id":"e8d35f0f-e972-421c-8269-f5dd76f89130","system_id":"levelo_inurba_marseille","lat":43.28608,"lon":5.39472,"is_reserved":false,"is_disabled":false,"rental_uris":{"android":"levelo://app?vid=e8d35f0f-e972-421c-8269-f5dd76f89130","ios":"levelo://app?vid=e8d35f0f-e972-421c-8269-f5dd76f89130"},"vehicle_type_id":"4","last_reported":1784538774,"current_range_meters":8000,"station_id":"ce4bh292rcd13ifvqdg0","pricing_plan_id":"cebpf4jnsgd1na2vs0mg"},{"bike_id":"6266dfcb-0ce1-44b1-a937-124470b7fe3f","system_id":"levelo_inurba_marseille","lat":43.29374,"lon":5.3785,"is_reserved":false,"is_disabled":false,"rental_uris":{"android":"levelo://app?vid=6266dfcb-0ce1-44b1-a937-124470b7fe3f","ios":"levelo://app?vid=6266dfcb-0ce1-44b1-a937-124470b7fe3f"},"vehicle_type_id":"4","last_reported":1784538774,"current_range_meters":8000,"station_id":"ce4bgjh2rcd13ifvqbf0","pricing_plan_id":"cebpf4jnsgd1na2vs0mg"},{"bike_id":"0696fc55-38df-479e-b165-8c888c8f4f52","system_id":"levelo_inurba_marseille","lat":43.30607,"lon":5.37405,"is_reserved":false,"is_disabled":false,"rental_uris":{"android":"levelo://app?vid=0696fc55-38df-479e-b165-8c888c8f4f52","ios":"levelo://app?vid=0696fc55-38df-479e-b165-8c888c8f4f52"},"vehicle_type_id":"4","last_reported":1784538774,"current_range_meters":8000,"station_id":"","pricing_plan_id":"cebpf4jnsgd1na2vs0mg"},{"bike_id":"3cd3afb5-1846-462e-85d7-8123d1616154","system_id":"levelo_inurba_marseille","lat":43.28476,"lon":5.48384,"is_reserved":false,"is_disabled":false,"rental_uris":{"android":"levelo://app?vid=3cd3afb5-1846-462e-85d7-8123d1616154","ios":"levelo://app?vid=3cd3afb5-1846-462e-85d7-8123d1616154"},"vehicle_type_id":"4","last_reported":1784538774,"current_range_meters":8000,"station_id":"st_d3svhcjqgbts73a3dn0g","pricing_plan_id":"cebpf4jnsgd1na2vs0mg"},{"bike_id":"04ec4075-437d-4378-83ae-c5c4958276bb","system_id":"levelo_inurba_marseille","lat":43.28698,"lon":5.4667,"is_reserved":false,"is_disabled":false,"rental_uris":{"android":"levelo://app?vid=04ec4075-437d-4378-83ae-c5c4958276bb","ios":"levelo://app?vid=04ec4075-437d-4378-83ae-c5c4958276bb"},"vehicle_type_id":"4","last_reported":1784538774,"current_range_meters":8000,"station_id":"st_d6tc3vkotcvc738tfjhg","pricing_plan_id":"cebpf4jnsgd1na2vs0mg"},{"bike_id":"36effd8e-0524-44c1-a8be-c69145021778","system_id":"levelo_inurba_marseille","lat":43.225314,"lon":5.348397,"is_reserved":false,"is_disabled":false,"rental_uris":{"android":"levelo://app?vid=36effd8e-0524-44c1-a8be-c69145021778","ios":"levelo://app?vid=36effd8e-0524-44c1-a8be-c69145021778"},"vehicle_type_id":"4","last_reported":1784538774,"current_range_meters":8000,"station_id":"st_cvj5dfep6f1abm77gieg","pricing_plan_id":"cebpf4jnsgd1na2vs0mg"},{"bike_id":"5bc72dc3-83be-4a6b-89ac-b484cf13d2ff","system_id":"levelo_inurba_marseille","lat":43.26418,"lon":5.39908,"is_reserved":false,"is_disabled":false,"rental_uris":{"android":"levelo://app?vid=5bc72dc3-83be-4a6b-89ac-b484cf13d2ff","ios":"levelo://app?vid=5bc72dc3-83be-4a6b-89ac-b484cf13d2ff"},"vehicle_type_id":"4","last_reported":1784538774,"current_range_meters":8000,"station_id":"","pricing_plan_id":"cebpf4jnsgd1na2vs0mg"},{"bike_id":"3afda202-bc14-473a-86d8-e8091ae8f2c1","system_id":"levelo_inurba_marseille","lat":43.30141,"lon":5.37379,"is_reserved":false,"is_disabled":false,"rental_uris":{"android":"levelo://app?vid=3afda202-bc14-473a-86d8-e8091ae8f2c1","ios":"levelo://app?vid=3afda202-bc14-473a-86d8-e8091ae8f2c1"},"vehicle_type_id":"4","last_reported":1784538774,"current_range_meters":8000,"station_id":"ce4bgs92rcd13ifvqcc0","pricing_plan_id":"cebpf4jnsgd1na2vs0mg"},{"bike_id":"98bb0a0e-f985-4c25-950e-8c06d618ef58","system_id":"levelo_inurba_marseille","lat":43.30488,"lon":5.40408,"is_reserved":false,"is_disabled":false,"rental_uris":{"android":"levelo://app?vid=98bb0a0e-f985-4c25-950e-8c06d618ef58","ios":"levelo://app?vid=98bb0a0e-f985-4c25-950e-8c06d618ef58"},"vehicle_type_id":"4","last_reported":1784538774,"current_range_meters":8000,"station_id":"","pricing_plan_id":"cebpf4jnsgd1na2vs0mg"},{"bike_id":"8b76dfb3-af71-456a-8f4c-fb8f399cca37","system_id":"levelo_inurba_marseille","lat":43.31389,"lon":5.38296,"is_reserved":false,"is_disabled":false,"rental_uris":{"android":"levelo://app?vid=8b76dfb3-af71-456a-8f4c-fb8f399cca37","ios":"levelo://app?vid=8b76dfb3-af71-456a-8f4c-fb8f399cca37"},"vehicle_type_id":"4","last_reported":1784538774,"current_range_meters":8000,"station_id":"","pricing_plan_id":"cebpf4jnsgd1na2vs0mg"},{"bike_id":"f44a1d00-7224-4da6-ae1a-edabdd74b192","system_id":"levelo_inurba_marseille","lat":43.25939,"lon":5.40908,"is_reserved":false,"is_disabled":false,"rental_uris":{"android":"levelo://app?vid=f44a1d00-7224-4da6-ae1a-edabdd74b192","ios":"levelo://app?vid=f44a1d00-7224-4da6-ae1a-edabdd74b192"},"vehicle_type_id":"4","last_reported":1784538774,"current_range_meters":8000,"station_id":"ce4bhm92rcd13ifvqglg","pricing_plan_id":"cebpf4jnsgd1na2vs0mg"},{"bike_id":"b478c14e-6778-42c3-bd9e-dd2fb4c559ff","system_id":"levelo_inurba_marseille","lat":43.32503,"lon":5.38301,"is_reserved":false,"is_disabled":false,"rental_uris":{"android":"levelo://app?vid=b478c14e-6778-42c3-bd9e-dd2fb4c559ff","ios":"levelo://app?vid=b478c14e-6778-42c3-bd9e-dd2fb4c559ff"},"vehicle_type_id":"4","last_reported":1784538774,"current_range_meters":8400,"station_id":"st_d4asgbiv49dc73anf9m0","pricing_plan_id":"cebpf4jnsgd1na2vs0mg"},{"bike_id":"30b038a6-dc26-4ac9-96d8-95f76215e74e","system_id":"levelo_inurba_marseille","lat":43.32355,"lon":5.3674,"is_reserved":false,"is_disabled":false,"rental_uris":{"android":"levelo://app?vid=30b038a6-dc26-4ac9-96d8-95f76215e74e","ios":"levelo://app?vid=30b038a6-dc26-4ac9-96d8-95f76215e74e"},"vehicle_type_id":"4","last_reported":1784538774,"current_range_meters":8400,"station_id":"ce4bhsh2rcd13ifvqi2g","pricing_plan_id":"cebpf4jnsgd1na2vs0mg"},{"bike_id":"9526f04a-aee1-44d2-9e29-f0e05e66d45f","system_id":"levelo_inurba_marseille","lat":43.21193,"lon":5.35061,"is_reserved":false,"is_disabled":false,"rental_uris":{"android":"levelo://app?vid=9526f04a-aee1-44d2-9e29-f0e05e66d45f","ios":"levelo://app?vid=9526f04a-aee1-44d2-9e29-f0e05e66d45f"},"vehicle_type_id":"4","last_reported":1784538774,"current_range_meters":8400,"station_id":"st_cvj6sg6p6f1abm77japg","pricing_plan_id":"cebpf4jnsgd1na2vs0mg"},{"bike_id":"c36ab94d-ce70-4a25-aac8-90eb5fdfd9bc","system_id":"levelo_inurba_marseille","lat":43.26546,"lon":5.37306,"is_reserved":false,"is_disabled":true,"rental_uris":{"android":"levelo://app?vid=c36ab94d-ce70-4a25-aac8-90eb5fdfd9bc","ios":"levelo://app?vid=c36ab94d-ce70-4a25-aac8-90eb5fdfd9bc"},"vehicle_type_id":"4","last_reported":1784538774,"current_range_meters":8400,"station_id":"ce4bhg12rcd13ifvqf70","pricing_plan_id":"cebpf4jnsgd1na2vs0mg"},{"bike_id":"18814497-5724-46e1-ac10-ad46ebd53e18","system_id":"levelo_inurba_marseille","lat":43.32055,"lon":5.36784,"is_reserved":false,"is_disabled":false,"rental_uris":{"android":"levelo://app?vid=18814497-5724-46e1-ac10-ad46ebd53e18","ios":"levelo://app?vid=18814497-5724-46e1-ac10-ad46ebd53e18"},"vehicle_type_id":"4","last_reported":1784538774,"current_range_meters":8400,"station_id":"ce4bhrh2rcd13ifvqhug","pricing_plan_id":"cebpf4jnsgd1na2vs0mg"},{"bike_id":"e3fe7129-f863-4341-894e-6893dbc1d0ed","system_id":"levelo_inurba_marseille","lat":43.25473,"lon":5.37629,"is_reserved":false,"is_disabled":false,"rental_uris":{"android":"levelo://app?vid=e3fe7129-f863-4341-894e-6893dbc1d0ed","ios":"levelo://app?vid=e3fe7129-f863-4341-894e-6893dbc1d0ed"},"vehicle_type_id":"4","last_reported":1784538774,"current_range_meters":8400,"station_id":"ce4bhh12rcd13ifvqff0","pricing_plan_id":"cebpf4jnsgd1na2vs0mg"},{"bike_id":"c09b6740-7980-4ed3-91f3-21edd981d400","system_id":"levelo_inurba_marseille","lat":43.23162,"lon":5.43701,"is_reserved":false,"is_disabled":false,"rental_uris":{"android":"levelo://app?vid=c09b6740-7980-4ed3-91f3-21edd981d400","ios":"levelo://app?vid=c09b6740-7980-4ed3-91f3-21edd981d400"},"vehicle_type_id":"4","last_reported":1784538774,"current_range_meters":8400,"station_id":"ce4bhmp2rcd13ifvqgog","pricing_plan_id":"cebpf4jnsgd1na2vs0mg"},{"bike_id":"86536f47-58ec-43d3-b116-1c81fddde8ba","system_id":"levelo_inurba_marseille","lat":43.27378,"lon":5.36249,"is_reserved":false,"is_disabled":false,"rental_uris":{"android":"levelo://app?vid=86536f47-58ec-43d3-b116-1c81fddde8ba","ios":"levelo://app?vid=86536f47-58ec-43d3-b116-1c81fddde8ba"},"vehicle_type_id":"4","last_reported":1784538774,"current_range_meters":8400,"station_id":"ce4bhbh2rcd13ifvqeo0","pricing_plan_id":"cebpf4jnsgd1na2vs0mg"},{"bike_id":"3dc5c94a-91b9-4004-95ec-7064c9b53155","system_id":"levelo_inurba_marseille","lat":43.28687,"lon":5.46677,"is_reserved":false,"is_disabled":false,"rental_uris":{"android":"levelo://app?vid=3dc5c94a-91b9-4004-95ec-7064c9b53155","ios":"levelo://app?vid=3dc5c94a-91b9-4004-95ec-7064c9b53155"},"vehicle_type_id":"4","last_reported":1784538774,"current_range_meters":8400,"station_id":"st_d6tc3vkotcvc738tfjhg","pricing_plan_id":"cebpf4jnsgd1na2vs0mg"},{"bike_id":"b4c2aafb-16c3-4b3b-ba55-611d50c6dc12","system_id":"levelo_inurba_marseille","lat":43.289808,"lon":5.378345,"is_reserved":false,"is_disabled":false,"rental_uris":{"android":"levelo://app?vid=b4c2aafb-16c3-4b3b-ba55-611d50c6dc12","ios":"levelo://app?vid=b4c2aafb-16c3-4b3b-ba55-611d50c6dc12"},"vehicle_type_id":"4","last_reported":1784538774,"current_range_meters":8400,"station_id":"ce4bh9p2rcd13ifvqed0","pricing_plan_id":"cebpf4jnsgd1na2vs0mg"},{"bike_id":"92576558-f7d7-4d4d-a1c2-4a58775fe178","system_id":"levelo_inurba_marseille","lat":43.25858,"lon":5.39883,"is_reserved":false,"is_disabled":false,"rental_uris":{"android":"levelo://app?vid=92576558-f7d7-4d4d-a1c2-4a58775fe178","ios":"levelo://app?vid=92576558-f7d7-4d4d-a1c2-4a58775fe178"},"vehicle_type_id":"4","last_reported":1784538774,"current_range_meters":8400,"station_id":"ce4bhl92rcd13ifvqghg","pricing_plan_id":"cebpf4jnsgd1na2vs0mg"},{"bike_id":"dba1293a-033e-4545-8b60-23d18cf21788","system_id":"levelo_inurba_marseille","lat":43.29175,"lon":5.35585,"is_reserved":false,"is_disabled":false,"rental_uris":{"android":"levelo://app?vid=dba1293a-033e-4545-8b60-23d18cf21788","ios":"levelo://app?vid=dba1293a-033e-4545-8b60-23d18cf21788"},"vehicle_type_id":"4","last_reported":1784538774,"current_range_meters":8400,"station_id":"","pricing_plan_id":"cebpf4jnsgd1na2vs0mg"},{"bike_id":"c34b300f-e48e-45bf-9194-cb7ab70fd104","system_id":"levelo_inurba_marseille","lat":43.29357,"lon":5.38187,"is_reserved":false,"is_disabled":false,"rental_uris":{"android":"levelo://app?vid=c34b300f-e48e-45bf-9194-cb7ab70fd104","ios":"levelo://app?vid=c34b300f-e48e-45bf-9194-cb7ab70fd104"},"vehicle_type_id":"4","last_reported":1784538774,"current_range_meters":8400,"station_id":"","pricing_plan_id":"cebpf4jnsgd1na2vs0mg"},{"bike_id":"f5af531f-29ef-4e8c-b911-24635b5abf5e","system_id":"levelo_inurba_marseille","lat":43.27493,"lon":5.42558,"is_reserved":false,"is_disabled":false,"rental_uris":{"android":"levelo://app?vid=f5af531f-29ef-4e8c-b911-24635b5abf5e","ios":"levelo://app?vid=f5af531f-29ef-4e8c-b911-24635b5abf5e"},"vehicle_type_id":"4","last_reported":1784538774,"current_range_meters":8400,"station_id":"st_d8t4bh7nbrqs73arha60","pricing_plan_id":"cebpf4jnsgd1na2vs0mg"},{"bike_id":"c78588e5-e842-46d1-9397-b2b42bcbb509","system_id":"levelo_inurba_marseille","lat":43.2673,"lon":5.38744,"is_reserved":false,"is_disabled":false,"rental_uris":{"android":"levelo://app?vid=c78588e5-e842-46d1-9397-b2b42bcbb509","ios":"levelo://app?vid=c78588e5-e842-46d1-9397-b2b42bcbb509"},"vehicle_type_id":"4","last_reported":1784538774,"current_range_meters":8400,"station_id":"","pricing_plan_id":"cebpf4jnsgd1na2vs0mg"},{"bike_id":"b55ffbcc-c048-402a-bc7f-79bbab43d4e7","system_id":"levelo_inurba_marseille","lat":43.25936,"lon":5.40925,"is_reserved":false,"is_disabled":false,"rental_uris":{"android":"levelo://app?vid=b55ffbcc-c048-402a-bc7f-79bbab43d4e7","ios":"levelo://app?vid=b55ffbcc-c048-402a-bc7f-79bbab43d4e7"},"vehicle_type_id":"4","last_reported":1784538774,"current_range_meters":8400,"station_id":"ce4bhm92rcd13ifvqglg","pricing_plan_id":"cebpf4jnsgd1na2vs0mg"},{"bike_id":"5bcd95ca-186f-461d-9138-6cea1da62823","system_id":"levelo_inurba_marseille","lat":43.30266,"lon":5.37743,"is_reserved":false,"is_disabled":false,"rental_uris":{"android":"levelo://app?vid=5bcd95ca-186f-461d-9138-6cea1da62823","ios":"levelo://app?vid=5bcd95ca-186f-461d-9138-6cea1da62823"},"vehicle_type_id":"4","last_reported":1784538774,"current_range_meters":8400,"station_id":"ce4bguh2rcd13ifvqcj0","pricing_plan_id":"cebpf4jnsgd1na2vs0mg"},{"bike_id":"c2b4760a-1173-460c-900f-d523a206a854","system_id":"levelo_inurba_marseille","lat":43.29914,"lon":5.37477,"is_reserved":false,"is_disabled":false,"rental_uris":{"android":"levelo://app?vid=c2b4760a-1173-460c-900f-d523a206a854","ios":"levelo://app?vid=c2b4760a-1173-460c-900f-d523a206a854"},"vehicle_type_id":"4","last_reported":1784538774,"current_range_meters":8400,"station_id":"ce4bgjh2rcd13ifvqbg0","pricing_plan_id":"cebpf4jnsgd1na2vs0mg"},{"bike_id":"9d6df261-76c5-4efe-b2fa-fec5aaa6a1ee","system_id":"levelo_inurba_marseille","lat":43.30849,"lon":5.38271,"is_reserved":false,"is_disabled":false,"rental_uris":{"android":"levelo://app?vid=9d6df261-76c5-4efe-b2fa-fec5aaa6a1ee","ios":"levelo://app?vid=9d6df261-76c5-4efe-b2fa-fec5aaa6a1ee"},"vehicle_type_id":"4","last_reported":1784538774,"current_range_meters":8400,"station_id":"","pricing_plan_id":"cebpf4jnsgd1na2vs0mg"},{"bike_id":"2f290428-a343-4161-90c9-3098b28bc371","system_id":"levelo_inurba_marseille","lat":43.28089,"lon":5.42675,"is_reserved":false,"is_disabled":false,"rental_uris":{"android":"levelo://app?vid=2f290428-a343-4161-90c9-3098b28bc371","ios":"levelo://app?vid=2f290428-a343-4161-90c9-3098b28bc371"},"vehicle_type_id":"4","last_reported":1784538774,"current_range_meters":8400,"station_id":"","pricing_plan_id":"cebpf4jnsgd1na2vs0mg"},{"bike_id":"0ecb8b3d-2a47-4e33-87d2-74f87381134e","system_id":"levelo_inurba_marseille","lat":43.31039,"lon":5.36766,"is_reserved":false,"is_disabled":false,"rental_uris":{"android":"levelo://app?vid=0ecb8b3d-2a47-4e33-87d2-74f87381134e","ios":"levelo://app?vid=0ecb8b3d-2a47-4e33-87d2-74f87381134e"},"vehicle_type_id":"4","last_reported":1784538774,"current_range_meters":8400,"station_id":"","pricing_plan_id":"cebpf4jnsgd1na2vs0mg"},{"bike_id":"857cf71b-936d-4585-94ea-608be73067aa","system_id":"levelo_inurba_marseille","lat":43.28617,"lon":5.35104,"is_reserved":false,"is_disabled":false,"rental_uris":{"android":"levelo://app?vid=857cf71b-936d-4585-94ea-608be73067aa","ios":"levelo://app?vid=857cf71b-936d-4585-94ea-608be73067aa"},"vehicle_type_id":"4","last_reported":1784538774,"current_range_meters":8400,"station_id":"ce4bhch2rcd13ifvqeug","pricing_plan_id":"cebpf4jnsgd1na2vs0mg"},{"bike_id":"6c041af7-f5df-4538-800e-54cf876993a0","system_id":"levelo_inurba_marseille","lat":43.29303,"lon":5.35796,"is_reserved":false,"is_disabled":false,"rental_uris":{"android":"levelo://app?vid=6c041af7-f5df-4538-800e-54cf876993a0","ios":"levelo://app?vid=6c041af7-f5df-4538-800e-54cf876993a0"},"vehicle_type_id":"4","last_reported":1784538774,"current_range_meters":8400,"station_id":"","pricing_plan_id":"cebpf4jnsgd1na2vs0mg"},{"bike_id":"d8a1e185-fc89-4f9e-b303-4ba8122895c7","system_id":"levelo_inurba_marseille","lat":43.28407,"lon":5.37521,"is_reserved":false,"is_disabled":true,"rental_uris":{"android":"levelo://app?vid=d8a1e185-fc89-4f9e-b303-4ba8122895c7","ios":"levelo://app?vid=d8a1e185-fc89-4f9e-b303-4ba8122895c7"},"vehicle_type_id":"4","last_reported":1784538774,"current_range_meters":8400,"station_id":"ce4bh412rcd13ifvqds0","pricing_plan_id":"cebpf4jnsgd1na2vs0mg"},{"bike_id":"cb749a3c-e27a-43d0-b296-03e58fed11d3","system_id":"levelo_inurba_marseille","lat":43.30599,"lon":5.39362,"is_reserved":false,"is_disabled":false,"rental_uris":{"android":"levelo://app?vid=cb749a3c-e27a-43d0-b296-03e58fed11d3","ios":"levelo://app?vid=cb749a3c-e27a-43d0-b296-03e58fed11d3"},"vehicle_type_id":"4","last_reported":1784538774,"current_range_meters":8400,"station_id":"ce4bh0p2rcd13ifvqd80","pricing_plan_id":"cebpf4jnsgd1na2vs0mg"},{"bike_id":"a005102a-45c6-430f-8cd7-a0a69490bbf0","system_id":"levelo_inurba_marseille","lat":43.33542,"lon":5.37501,"is_reserved":false,"is_disabled":false,"rental_uris":{"android":"levelo://app?vid=a005102a-45c6-430f-8cd7-a0a69490bbf0","ios":"levelo://app?vid=a005102a-45c6-430f-8cd7-a0a69490bbf0"},"vehicle_type_id":"4","last_reported":1784538774,"current_range_meters":8800,"station_id":"st_d46tts09ee8s73dlu43g","pricing_plan_id":"cebpf4jnsgd1na2vs0mg"},{"bike_id":"08e72511-d445-43fd-90b8-ca576743b8e0","system_id":"levelo_inurba_marseille","lat":43.23955,"lon":5.36642,"is_reserved":false,"is_disabled":false,"rental_uris":{"android":"levelo://app?vid=08e72511-d445-43fd-90b8-ca576743b8e0","ios":"levelo://app?vid=08e72511-d445-43fd-90b8-ca576743b8e0"},"vehicle_type_id":"4","last_reported":1784538774,"current_range_meters":8800,"station_id":"ce4bhi12rcd13ifvqfp0","pricing_plan_id":"cebpf4jnsgd1na2vs0mg"},{"bike_id":"da71d4b3-7cc9-4621-86ba-42c864fecc9f","system_id":"levelo_inurba_marseille","lat":43.27483,"lon":5.42557,"is_reserved":false,"is_disabled":false,"rental_uris":{"android":"levelo://app?vid=da71d4b3-7cc9-4621-86ba-42c864fecc9f","ios":"levelo://app?vid=da71d4b3-7cc9-4621-86ba-42c864fecc9f"},"vehicle_type_id":"4","last_reported":1784538774,"current_range_meters":8800,"station_id":"st_d8t4bh7nbrqs73arha60","pricing_plan_id":"cebpf4jnsgd1na2vs0mg"},{"bike_id":"51fcfafe-79e8-404b-8688-ae8498b1a5bb","system_id":"levelo_inurba_marseille","lat":43.25011,"lon":5.38938,"is_reserved":false,"is_disabled":false,"rental_uris":{"android":"levelo://app?vid=51fcfafe-79e8-404b-8688-ae8498b1a5bb","ios":"levelo://app?vid=51fcfafe-79e8-404b-8688-ae8498b1a5bb"},"vehicle_type_id":"4","last_reported":1784538774,"current_range_meters":8800,"station_id":"ce4bhgp2rcd13ifvqfd0","pricing_plan_id":"cebpf4jnsgd1na2vs0mg"},{"bike_id":"1522a2b6-fd15-4ce2-a1e1-765dcb98c3a5","system_id":"levelo_inurba_marseille","lat":43.24547,"lon":5.39519,"is_reserved":false,"is_disabled":false,"rental_uris":{"android":"levelo://app?vid=1522a2b6-fd15-4ce2-a1e1-765dcb98c3a5","ios":"levelo://app?vid=1522a2b6-fd15-4ce2-a1e1-765dcb98c3a5"},"vehicle_type_id":"4","last_reported":1784538774,"current_range_meters":8800,"station_id":"ce4bhlp2rcd13ifvqgjg","pricing_plan_id":"cebpf4jnsgd1na2vs0mg"},{"bike_id":"a0bfb9db-63ce-4425-bfd2-1fb3db1c929d","system_id":"levelo_inurba_marseille","lat":43.29616,"lon":5.37718,"is_reserved":false,"is_disabled":false,"rental_uris":{"android":"levelo://app?vid=a0bfb9db-63ce-4425-bfd2-1fb3db1c929d","ios":"levelo://app?vid=a0bfb9db-63ce-4425-bfd2-1fb3db1c929d"},"vehicle_type_id":"4","last_reported":1784538774,"current_range_meters":8800,"station_id":"ce4bgi92rcd13ifvqb90","pricing_plan_id":"cebpf4jnsgd1na2vs0mg"},{"bike_id":"990d6af6-c1a6-4047-bf05-22b4d1f2bc3e","system_id":"levelo_inurba_marseille","lat":43.23952,"lon":5.38505,"is_reserved":false,"is_disabled":false,"rental_uris":{"android":"levelo://app?vid=990d6af6-c1a6-4047-bf05-22b4d1f2bc3e","ios":"levelo://app?vid=990d6af6-c1a6-4047-bf05-22b4d1f2bc3e"},"vehicle_type_id":"4","last_reported":1784538774,"current_range_meters":8800,"station_id":"","pricing_plan_id":"cebpf4jnsgd1na2vs0mg"},{"bike_id":"f07902e8-bab7-4fab-8a5b-abe7dedcfe8a","system_id":"levelo_inurba_marseille","lat":43.22856,"lon":5.44111,"is_reserved":false,"is_disabled":false,"rental_uris":{"android":"levelo://app?vid=f07902e8-bab7-4fab-8a5b-abe7dedcfe8a","ios":"levelo://app?vid=f07902e8-bab7-4fab-8a5b-abe7dedcfe8a"},"vehicle_type_id":"4","last_reported":1784538774,"current_range_meters":8800,"station_id":"","pricing_plan_id":"cebpf4jnsgd1na2vs0mg"},{"bike_id":"aac34d38-aa3e-4446-ab30-258bc8ca4528","system_id":"levelo_inurba_marseille","lat":43.28103,"lon":5.37838,"is_reserved":false,"is_disabled":true,"rental_uris":{"android":"levelo://app?vid=aac34d38-aa3e-4446-ab30-258bc8ca4528","ios":"levelo://app?vid=aac34d38-aa3e-4446-ab30-258bc8ca4528"},"vehicle_type_id":"4","last_reported":1784538774,"current_range_meters":8800,"station_id":"ce4bha12rcd13ifvqee0","pricing_plan_id":"cebpf4jnsgd1na2vs0mg"},{"bike_id":"53aec3fc-9525-4373-95e4-3f425579cabd","system_id":"levelo_inurba_marseille","lat":43.24542,"lon":5.39524,"is_reserved":false,"is_disabled":false,"rental_uris":{"android":"levelo://app?vid=53aec3fc-9525-4373-95e4-3f425579cabd","ios":"levelo://app?vid=53aec3fc-9525-4373-95e4-3f425579cabd"},"vehicle_type_id":"4","last_reported":1784538774,"current_range_meters":8800,"station_id":"ce4bhlp2rcd13ifvqgjg","pricing_plan_id":"cebpf4jnsgd1na2vs0mg"},{"bike_id":"f8ccf593-a202-47aa-9e24-9a03c2b1fed2","system_id":"levelo_inurba_marseille","lat":43.28606,"lon":5.35089,"is_reserved":false,"is_disabled":true,"rental_uris":{"android":"levelo://app?vid=f8ccf593-a202-47aa-9e24-9a03c2b1fed2","ios":"levelo://app?vid=f8ccf593-a202-47aa-9e24-9a03c2b1fed2"},"vehicle_type_id":"4","last_reported":1784538774,"current_range_meters":8800,"station_id":"ce4bhch2rcd13ifvqeug","pricing_plan_id":"cebpf4jnsgd1na2vs0mg"},{"bike_id":"c39907a6-8faa-41b3-9789-4891811c7a73","system_id":"levelo_inurba_marseille","lat":43.2848,"lon":5.48381,"is_reserved":false,"is_disabled":false,"rental_uris":{"android":"levelo://app?vid=c39907a6-8faa-41b3-9789-4891811c7a73","ios":"levelo://app?vid=c39907a6-8faa-41b3-9789-4891811c7a73"},"vehicle_type_id":"4","last_reported":1784538774,"current_range_meters":8800,"station_id":"st_d3svhcjqgbts73a3dn0g","pricing_plan_id":"cebpf4jnsgd1na2vs0mg"},{"bike_id":"e078df57-dbde-40c2-8e38-a5c6407fb056","system_id":"levelo_inurba_marseille","lat":43.28562,"lon":5.39517,"is_reserved":false,"is_disabled":false,"rental_uris":{"android":"levelo://app?vid=e078df57-dbde-40c2-8e38-a5c6407fb056","ios":"levelo://app?vid=e078df57-dbde-40c2-8e38-a5c6407fb056"},"vehicle_type_id":"4","last_reported":1784538774,"current_range_meters":8800,"station_id":"ce4bh292rcd13ifvqdg0","pricing_plan_id":"cebpf4jnsgd1na2vs0mg"},{"bike_id":"c03c3088-4720-4029-8333-46bf105c2446","system_id":"levelo_inurba_marseille","lat":43.27989,"lon":5.41657,"is_reserved":false,"is_disabled":false,"rental_uris":{"android":"levelo://app?vid=c03c3088-4720-4029-8333-46bf105c2446","ios":"levelo://app?vid=c03c3088-4720-4029-8333-46bf105c2446"},"vehicle_type_id":"4","last_reported":1784538774,"current_range_meters":8800,"station_id":"ce4bho12rcd13ifvqh1g","pricing_plan_id":"cebpf4jnsgd1na2vs0mg"},{"bike_id":"fcd39274-b8c4-47b0-bc82-df9940a19539","system_id":"levelo_inurba_marseille","lat":43.23964,"lon":5.36643,"is_reserved":false,"is_disabled":false,"rental_uris":{"android":"levelo://app?vid=fcd39274-b8c4-47b0-bc82-df9940a19539","ios":"levelo://app?vid=fcd39274-b8c4-47b0-bc82-df9940a19539"},"vehicle_type_id":"4","last_reported":1784538774,"current_range_meters":8800,"station_id":"ce4bhi12rcd13ifvqfp0","pricing_plan_id":"cebpf4jnsgd1na2vs0mg"},{"bike_id":"c959a0d8-a43b-4b91-be9a-464342ecdbcb","system_id":"levelo_inurba_marseille","lat":43.2927,"lon":5.3688,"is_reserved":false,"is_disabled":true,"rental_uris":{"android":"levelo://app?vid=c959a0d8-a43b-4b91-be9a-464342ecdbcb","ios":"levelo://app?vid=c959a0d8-a43b-4b91-be9a-464342ecdbcb"},"vehicle_type_id":"4","last_reported":1784538774,"current_range_meters":8800,"station_id":"","pricing_plan_id":"cebpf4jnsgd1na2vs0mg"},{"bike_id":"a9962570-c2a2-41c8-a29d-154b817fefaa","system_id":"levelo_inurba_marseille","lat":43.2446,"lon":5.41102,"is_reserved":false,"is_disabled":false,"rental_uris":{"android":"levelo://app?vid=a9962570-c2a2-41c8-a29d-154b817fefaa","ios":"levelo://app?vid=a9962570-c2a2-41c8-a29d-154b817fefaa"},"vehicle_type_id":"4","last_reported":1784538774,"current_range_meters":8800,"station_id":"","pricing_plan_id":"cebpf4jnsgd1na2vs0mg"},{"bike_id":"3046c012-26ce-4ca7-bc0b-a5c8178aea83","system_id":"levelo_inurba_marseille","lat":43.29573,"lon":5.36744,"is_reserved":false,"is_disabled":false,"rental_uris":{"android":"levelo://app?vid=3046c012-26ce-4ca7-bc0b-a5c8178aea83","ios":"levelo://app?vid=3046c012-26ce-4ca7-bc0b-a5c8178aea83"},"vehicle_type_id":"4","last_reported":1784538774,"current_range_meters":8800,"station_id":"","pricing_plan_id":"cebpf4jnsgd1na2vs0mg"},{"bike_id":"4ca7237a-3f01-43d8-8ed2-4af0917fe163","system_id":"levelo_inurba_marseille","lat":43.3017,"lon":5.37153,"is_reserved":false,"is_disabled":false,"rental_uris":{"android":"levelo://app?vid=4ca7237a-3f01-43d8-8ed2-4af0917fe163","ios":"levelo://app?vid=4ca7237a-3f01-43d8-8ed2-4af0917fe163"},"vehicle_type_id":"4","last_reported":1784538774,"current_range_meters":8800,"station_id":"","pricing_plan_id":"cebpf4jnsgd1na2vs0mg"},{"bike_id":"1286067c-1435-451b-bebb-68dac9fa6926","system_id":"levelo_inurba_marseille","lat":43.24809,"lon":5.37438,"is_reserved":false,"is_disabled":false,"rental_uris":{"android":"levelo://app?vid=1286067c-1435-451b-bebb-68dac9fa6926","ios":"levelo://app?vid=1286067c-1435-451b-bebb-68dac9fa6926"},"vehicle_type_id":"4","last_reported":1784538774,"current_range_meters":8800,"station_id":"ce4bhgh2rcd13ifvqfb0","pricing_plan_id":"cebpf4jnsgd1na2vs0mg"},{"bike_id":"1d8aaf03-c493-4a59-ae12-6bc443318eb4","system_id":"levelo_inurba_marseille","lat":43.31069,"lon":5.37176,"is_reserved":false,"is_disabled":false,"rental_uris":{"android":"levelo://app?vid=1d8aaf03-c493-4a59-ae12-6bc443318eb4","ios":"levelo://app?vid=1d8aaf03-c493-4a59-ae12-6bc443318eb4"},"vehicle_type_id":"4","last_reported":1784538774,"current_range_meters":8800,"station_id":"st_d4kl2rp97mjs73e7tdfg","pricing_plan_id":"cebpf4jnsgd1na2vs0mg"},{"bike_id":"e4a8b9e3-c52a-4443-b1d6-b105c6d39104","system_id":"levelo_inurba_marseille","lat":43.26453,"lon":5.37084,"is_reserved":false,"is_disabled":true,"rental_uris":{"android":"levelo://app?vid=e4a8b9e3-c52a-4443-b1d6-b105c6d39104","ios":"levelo://app?vid=e4a8b9e3-c52a-4443-b1d6-b105c6d39104"},"vehicle_type_id":"4","last_reported":1784538774,"current_range_meters":8800,"station_id":"","pricing_plan_id":"cebpf4jnsgd1na2vs0mg"},{"bike_id":"f9a4978c-66bc-414a-b059-ba0305add237","system_id":"levelo_inurba_marseille","lat":43.33082,"lon":5.43123,"is_reserved":false,"is_disabled":false,"rental_uris":{"android":"levelo://app?vid=f9a4978c-66bc-414a-b059-ba0305add237","ios":"levelo://app?vid=f9a4978c-66bc-414a-b059-ba0305add237"},"vehicle_type_id":"4","last_reported":1784538774,"current_range_meters":8800,"station_id":"","pricing_plan_id":"cebpf4jnsgd1na2vs0mg"},{"bike_id":"922981e5-aa31-4759-aae7-3cab06e53a61","system_id":"levelo_inurba_marseille","lat":43.28719,"lon":5.37936,"is_reserved":false,"is_disabled":false,"rental_uris":{"android":"levelo://app?vid=922981e5-aa31-4759-aae7-3cab06e53a61","ios":"levelo://app?vid=922981e5-aa31-4759-aae7-3cab06e53a61"},"vehicle_type_id":"4","last_reported":1784538774,"current_range_meters":8800,"station_id":"ce4bh9p2rcd13ifvqec0","pricing_plan_id":"cebpf4jnsgd1na2vs0mg"},{"bike_id":"826761b0-1e57-4d1e-85f2-0d14650b252a","system_id":"levelo_inurba_marseille","lat":43.23194,"lon":5.35543,"is_reserved":false,"is_disabled":false,"rental_uris":{"android":"levelo://app?vid=826761b0-1e57-4d1e-85f2-0d14650b252a","ios":"levelo://app?vid=826761b0-1e57-4d1e-85f2-0d14650b252a"},"vehicle_type_id":"4","last_reported":1784538774,"current_range_meters":8800,"station_id":"ce4bhu92rcd13ifvqi70","pricing_plan_id":"cebpf4jnsgd1na2vs0mg"},{"bike_id":"b675ebe1-d2c9-4c58-a117-1011bef86ebe","system_id":"levelo_inurba_marseille","lat":43.30756,"lon":5.37663,"is_reserved":false,"is_disabled":false,"rental_uris":{"android":"levelo://app?vid=b675ebe1-d2c9-4c58-a117-1011bef86ebe","ios":"levelo://app?vid=b675ebe1-d2c9-4c58-a117-1011bef86ebe"},"vehicle_type_id":"4","last_reported":1784538774,"current_range_meters":8800,"station_id":"ce4bgv92rcd13ifvqcq0","pricing_plan_id":"cebpf4jnsgd1na2vs0mg"},{"bike_id":"513a46e2-909b-47ca-b16e-17f10eb42001","system_id":"levelo_inurba_marseille","lat":43.23174,"lon":5.40005,"is_reserved":false,"is_disabled":false,"rental_uris":{"android":"levelo://app?vid=513a46e2-909b-47ca-b16e-17f10eb42001","ios":"levelo://app?vid=513a46e2-909b-47ca-b16e-17f10eb42001"},"vehicle_type_id":"4","last_reported":1784538774,"current_range_meters":8800,"station_id":"ce4bhn12rcd13ifvqgqg","pricing_plan_id":"cebpf4jnsgd1na2vs0mg"},{"bike_id":"5a1817af-c9f2-4e89-b005-845a8c40ba60","system_id":"levelo_inurba_marseille","lat":43.28746,"lon":5.35223,"is_reserved":false,"is_disabled":false,"rental_uris":{"android":"levelo://app?vid=5a1817af-c9f2-4e89-b005-845a8c40ba60","ios":"levelo://app?vid=5a1817af-c9f2-4e89-b005-845a8c40ba60"},"vehicle_type_id":"4","last_reported":1784538774,"current_range_meters":8800,"station_id":"","pricing_plan_id":"cebpf4jnsgd1na2vs0mg"},{"bike_id":"1321278a-c2ee-40d0-90a7-b5464337fdb6","system_id":"levelo_inurba_marseille","lat":43.28201,"lon":5.38448,"is_reserved":false,"is_disabled":false,"rental_uris":{"android":"levelo://app?vid=1321278a-c2ee-40d0-90a7-b5464337fdb6","ios":"levelo://app?vid=1321278a-c2ee-40d0-90a7-b5464337fdb6"},"vehicle_type_id":"4","last_reported":1784538774,"current_range_meters":8800,"station_id":"","pricing_plan_id":"cebpf4jnsgd1na2vs0mg"},{"bike_id":"081b2e14-d371-4139-b859-96e6873b13cf","system_id":"levelo_inurba_marseille","lat":43.31043,"lon":5.37191,"is_reserved":false,"is_disabled":false,"rental_uris":{"android":"levelo://app?vid=081b2e14-d371-4139-b859-96e6873b13cf","ios":"levelo://app?vid=081b2e14-d371-4139-b859-96e6873b13cf"},"vehicle_type_id":"4","last_reported":1784538774,"current_range_meters":8800,"station_id":"st_d4kl2rp97mjs73e7tdfg","pricing_plan_id":"cebpf4jnsgd1na2vs0mg"},{"bike_id":"965c213d-63c4-4cf1-9017-f661f523d87b","system_id":"levelo_inurba_marseille","lat":43.32413,"lon":5.40796,"is_reserved":false,"is_disabled":false,"rental_uris":{"android":"levelo://app?vid=965c213d-63c4-4cf1-9017-f661f523d87b","ios":"levelo://app?vid=965c213d-63c4-4cf1-9017-f661f523d87b"},"vehicle_type_id":"4","last_reported":1784538774,"current_range_meters":8800,"station_id":"","pricing_plan_id":"cebpf4jnsgd1na2vs0mg"},{"bike_id":"a24252af-b1c3-4f1f-b7d7-12a63b3cb7d1","system_id":"levelo_inurba_marseille","lat":43.30141,"lon":5.38099,"is_reserved":false,"is_disabled":true,"rental_uris":{"android":"levelo://app?vid=a24252af-b1c3-4f1f-b7d7-12a63b3cb7d1","ios":"levelo://app?vid=a24252af-b1c3-4f1f-b7d7-12a63b3cb7d1"},"vehicle_type_id":"4","last_reported":1784538774,"current_range_meters":8800,"station_id":"ce4bgjp2rcd13ifvqbh0","pricing_plan_id":"cebpf4jnsgd1na2vs0mg"},{"bike_id":"1eff0c6c-1794-4030-9cc2-c610b95ce30e","system_id":"levelo_inurba_marseille","lat":43.31048,"lon":5.37165,"is_reserved":false,"is_disabled":false,"rental_uris":{"android":"levelo://app?vid=1eff0c6c-1794-4030-9cc2-c610b95ce30e","ios":"levelo://app?vid=1eff0c6c-1794-4030-9cc2-c610b95ce30e"},"vehicle_type_id":"4","last_reported":1784538774,"current_range_meters":8800,"station_id":"st_d4kl2rp97mjs73e7tdfg","pricing_plan_id":"cebpf4jnsgd1na2vs0mg"},{"bike_id":"c1d0b02d-1ef2-4ebc-b999-b63a7ef763d5","system_id":"levelo_inurba_marseille","lat":43.31623,"lon":5.4061,"is_reserved":false,"is_disabled":false,"rental_uris":{"android":"levelo://app?vid=c1d0b02d-1ef2-4ebc-b999-b63a7ef763d5","ios":"levelo://app?vid=c1d0b02d-1ef2-4ebc-b999-b63a7ef763d5"},"vehicle_type_id":"4","last_reported":1784538774,"current_range_meters":8800,"station_id":"","pricing_plan_id":"cebpf4jnsgd1na2vs0mg"},{"bike_id":"b2d800e5-3728-49d1-8ac5-c09df2267af1","system_id":"levelo_inurba_marseille","lat":43.26144,"lon":5.38157,"is_reserved":false,"is_disabled":false,"rental_uris":{"android":"levelo://app?vid=b2d800e5-3728-49d1-8ac5-c09df2267af1","ios":"levelo://app?vid=b2d800e5-3728-49d1-8ac5-c09df2267af1"},"vehicle_type_id":"4","last_reported":1784538774,"current_range_meters":8800,"station_id":"","pricing_plan_id":"cebpf4jnsgd1na2vs0mg"},{"bike_id":"22255f68-912c-4aaa-8724-578a6611f5ad","system_id":"levelo_inurba_marseille","lat":43.28698,"lon":5.46699,"is_reserved":false,"is_disabled":false,"rental_uris":{"android":"levelo://app?vid=22255f68-912c-4aaa-8724-578a6611f5ad","ios":"levelo://app?vid=22255f68-912c-4aaa-8724-578a6611f5ad"},"vehicle_type_id":"4","last_reported":1784538774,"current_range_meters":9200,"station_id":"st_d6tc3vkotcvc738tfjhg","pricing_plan_id":"cebpf4jnsgd1na2vs0mg"},{"bike_id":"a5597480-dc74-4559-bde1-0cc9c370baaa","system_id":"levelo_inurba_marseille","lat":43.30319,"lon":5.369,"is_reserved":false,"is_disabled":false,"rental_uris":{"android":"levelo://app?vid=a5597480-dc74-4559-bde1-0cc9c370baaa","ios":"levelo://app?vid=a5597480-dc74-4559-bde1-0cc9c370baaa"},"vehicle_type_id":"4","last_reported":1784538774,"current_range_meters":9200,"station_id":"ce4bgqh2rcd13ifvqc5g","pricing_plan_id":"cebpf4jnsgd1na2vs0mg"},{"bike_id":"ea549c38-ea3a-484f-892a-56abd6f58622","system_id":"levelo_inurba_marseille","lat":43.23158,"lon":5.437,"is_reserved":false,"is_disabled":false,"rental_uris":{"android":"levelo://app?vid=ea549c38-ea3a-484f-892a-56abd6f58622","ios":"levelo://app?vid=ea549c38-ea3a-484f-892a-56abd6f58622"},"vehicle_type_id":"4","last_reported":1784538774,"current_range_meters":9200,"station_id":"ce4bhmp2rcd13ifvqgog","pricing_plan_id":"cebpf4jnsgd1na2vs0mg"},{"bike_id":"d4d5d44b-172e-4687-9041-16f2a42c13d2","system_id":"levelo_inurba_marseille","lat":43.23693,"lon":5.37435,"is_reserved":false,"is_disabled":false,"rental_uris":{"android":"levelo://app?vid=d4d5d44b-172e-4687-9041-16f2a42c13d2","ios":"levelo://app?vid=d4d5d44b-172e-4687-9041-16f2a42c13d2"},"vehicle_type_id":"4","last_reported":1784538774,"current_range_meters":9200,"station_id":"","pricing_plan_id":"cebpf4jnsgd1na2vs0mg"},{"bike_id":"952f5f88-94ea-4ade-b5ee-4db90b7de9dd","system_id":"levelo_inurba_marseille","lat":43.27453,"lon":5.39399,"is_reserved":false,"is_disabled":false,"rental_uris":{"android":"levelo://app?vid=952f5f88-94ea-4ade-b5ee-4db90b7de9dd","ios":"levelo://app?vid=952f5f88-94ea-4ade-b5ee-4db90b7de9dd"},"vehicle_type_id":"4","last_reported":1784538774,"current_range_meters":9200,"station_id":"ce4bhdp2rcd13ifvqf20","pricing_plan_id":"cebpf4jnsgd1na2vs0mg"},{"bike_id":"fdb38a08-606e-4212-a17f-9dbe11975351","system_id":"levelo_inurba_marseille","lat":43.29387,"lon":5.38352,"is_reserved":false,"is_disabled":false,"rental_uris":{"android":"levelo://app?vid=fdb38a08-606e-4212-a17f-9dbe11975351","ios":"levelo://app?vid=fdb38a08-606e-4212-a17f-9dbe11975351"},"vehicle_type_id":"4","last_reported":1784538774,"current_range_meters":9200,"station_id":"","pricing_plan_id":"cebpf4jnsgd1na2vs0mg"},{"bike_id":"a682325a-1291-427f-a7c2-100e74e7a050","system_id":"levelo_inurba_marseille","lat":43.29524,"lon":5.37508,"is_reserved":false,"is_disabled":false,"rental_uris":{"android":"levelo://app?vid=a682325a-1291-427f-a7c2-100e74e7a050","ios":"levelo://app?vid=a682325a-1291-427f-a7c2-100e74e7a050"},"vehicle_type_id":"4","last_reported":1784538774,"current_range_meters":9200,"station_id":"ce4bgkp2rcd13ifvqbmg","pricing_plan_id":"cebpf4jnsgd1na2vs0mg"},{"bike_id":"23230236-12ba-40f4-a43e-412e0664c44b","system_id":"levelo_inurba_marseille","lat":43.30535,"lon":5.36547,"is_reserved":false,"is_disabled":false,"rental_uris":{"android":"levelo://app?vid=23230236-12ba-40f4-a43e-412e0664c44b","ios":"levelo://app?vid=23230236-12ba-40f4-a43e-412e0664c44b"},"vehicle_type_id":"4","last_reported":1784538774,"current_range_meters":9200,"station_id":"ce4bgs12rcd13ifvqcag","pricing_plan_id":"cebpf4jnsgd1na2vs0mg"},{"bike_id":"e303dbc0-d79b-412c-bc2a-41c44240f44e","system_id":"levelo_inurba_marseille","lat":43.27306,"lon":5.39108,"is_reserved":false,"is_disabled":false,"rental_uris":{"android":"levelo://app?vid=e303dbc0-d79b-412c-bc2a-41c44240f44e","ios":"levelo://app?vid=e303dbc0-d79b-412c-bc2a-41c44240f44e"},"vehicle_type_id":"4","last_reported":1784538774,"current_range_meters":9200,"station_id":"ce4bhgp2rcd13ifvqfe0","pricing_plan_id":"cebpf4jnsgd1na2vs0mg"},{"bike_id":"b1add4bf-a8ab-413f-8fab-6ce8056694ad","system_id":"levelo_inurba_marseille","lat":43.30255,"lon":5.40066,"is_reserved":false,"is_disabled":false,"rental_uris":{"android":"levelo://app?vid=b1add4bf-a8ab-413f-8fab-6ce8056694ad","ios":"levelo://app?vid=b1add4bf-a8ab-413f-8fab-6ce8056694ad"},"vehicle_type_id":"4","last_reported":1784538774,"current_range_meters":9200,"station_id":"ce4bgvh2rcd13ifvqcs0","pricing_plan_id":"cebpf4jnsgd1na2vs0mg"},{"bike_id":"9bd4dbe3-b7a1-409d-9b33-bc41a6255360","system_id":"levelo_inurba_marseille","lat":43.29596,"lon":5.37717,"is_reserved":false,"is_disabled":false,"rental_uris":{"android":"levelo://app?vid=9bd4dbe3-b7a1-409d-9b33-bc41a6255360","ios":"levelo://app?vid=9bd4dbe3-b7a1-409d-9b33-bc41a6255360"},"vehicle_type_id":"4","last_reported":1784538774,"current_range_meters":9200,"station_id":"ce4bgi92rcd13ifvqb90","pricing_plan_id":"cebpf4jnsgd1na2vs0mg"},{"bike_id":"cb930034-d19e-45ff-aa3e-abbb9ef6c7a9","system_id":"levelo_inurba_marseille","lat":43.27958,"lon":5.38732,"is_reserved":false,"is_disabled":false,"rental_uris":{"android":"levelo://app?vid=cb930034-d19e-45ff-aa3e-abbb9ef6c7a9","ios":"levelo://app?vid=cb930034-d19e-45ff-aa3e-abbb9ef6c7a9"},"vehicle_type_id":"4","last_reported":1784538774,"current_range_meters":9200,"station_id":"ce4bhg12rcd13ifvqf80","pricing_plan_id":"cebpf4jnsgd1na2vs0mg"},{"bike_id":"9c49ad00-1bb1-496d-8225-8675343a8f28","system_id":"levelo_inurba_marseille","lat":43.30909,"lon":5.36862,"is_reserved":false,"is_disabled":false,"rental_uris":{"android":"levelo://app?vid=9c49ad00-1bb1-496d-8225-8675343a8f28","ios":"levelo://app?vid=9c49ad00-1bb1-496d-8225-8675343a8f28"},"vehicle_type_id":"4","last_reported":1784538774,"current_range_meters":9200,"station_id":"ce4bgn92rcd13ifvqbvg","pricing_plan_id":"cebpf4jnsgd1na2vs0mg"},{"bike_id":"417de47e-c138-481f-8fd2-394592300870","system_id":"levelo_inurba_marseille","lat":43.2446,"lon":5.42534,"is_reserved":false,"is_disabled":false,"rental_uris":{"android":"levelo://app?vid=417de47e-c138-481f-8fd2-394592300870","ios":"levelo://app?vid=417de47e-c138-481f-8fd2-394592300870"},"vehicle_type_id":"4","last_reported":1784538774,"current_range_meters":9200,"station_id":"st_d4a3vfp97mjs738cd8kg","pricing_plan_id":"cebpf4jnsgd1na2vs0mg"},{"bike_id":"14c58f5c-5159-4f74-b24f-cc07dfc07cdb","system_id":"levelo_inurba_marseille","lat":43.22557,"lon":5.41635,"is_reserved":false,"is_disabled":false,"rental_uris":{"android":"levelo://app?vid=14c58f5c-5159-4f74-b24f-cc07dfc07cdb","ios":"levelo://app?vid=14c58f5c-5159-4f74-b24f-cc07dfc07cdb"},"vehicle_type_id":"4","last_reported":1784538774,"current_range_meters":9200,"station_id":"st_d2o4gvlbi1j2169b742g","pricing_plan_id":"cebpf4jnsgd1na2vs0mg"},{"bike_id":"1d9536b0-bb9c-45fd-88cf-878234fc39a5","system_id":"levelo_inurba_marseille","lat":43.24652,"lon":5.41616,"is_reserved":false,"is_disabled":false,"rental_uris":{"android":"levelo://app?vid=1d9536b0-bb9c-45fd-88cf-878234fc39a5","ios":"levelo://app?vid=1d9536b0-bb9c-45fd-88cf-878234fc39a5"},"vehicle_type_id":"4","last_reported":1784538774,"current_range_meters":9200,"station_id":"","pricing_plan_id":"cebpf4jnsgd1na2vs0mg"},{"bike_id":"08783404-f1f6-4054-b4a0-bc272c54c146","system_id":"levelo_inurba_marseille","lat":43.31991,"lon":5.38161,"is_reserved":false,"is_disabled":false,"rental_uris":{"android":"levelo://app?vid=08783404-f1f6-4054-b4a0-bc272c54c146","ios":"levelo://app?vid=08783404-f1f6-4054-b4a0-bc272c54c146"},"vehicle_type_id":"4","last_reported":1784538774,"current_range_meters":9200,"station_id":"ce4bhr12rcd13ifvqhpg","pricing_plan_id":"cebpf4jnsgd1na2vs0mg"},{"bike_id":"6a1e5eae-7ea5-41e0-bdfe-1dab31760e66","system_id":"levelo_inurba_marseille","lat":43.25343,"lon":5.42179,"is_reserved":false,"is_disabled":false,"rental_uris":{"android":"levelo://app?vid=6a1e5eae-7ea5-41e0-bdfe-1dab31760e66","ios":"levelo://app?vid=6a1e5eae-7ea5-41e0-bdfe-1dab31760e66"},"vehicle_type_id":"4","last_reported":1784538774,"current_range_meters":9200,"station_id":"st_d2m65c5bi1j21697t3ng","pricing_plan_id":"cebpf4jnsgd1na2vs0mg"},{"bike_id":"25f78696-4c3d-4cb0-a275-8a35c4a6a64c","system_id":"levelo_inurba_marseille","lat":43.26367,"lon":5.4107,"is_reserved":false,"is_disabled":false,"rental_uris":{"android":"levelo://app?vid=25f78696-4c3d-4cb0-a275-8a35c4a6a64c","ios":"levelo://app?vid=25f78696-4c3d-4cb0-a275-8a35c4a6a64c"},"vehicle_type_id":"4","last_reported":1784538774,"current_range_meters":9200,"station_id":"st_d4e5ca6na9uc73bfl5fg","pricing_plan_id":"cebpf4jnsgd1na2vs0mg"},