{"last_updated":1724609383,"ttl":30,"version":"2.2","data":{"bikes":[{"bike_id":"3369c9ff-3f2a-4e6c-940a-286d7c057707","system_id":"levelo_inurba_marseille","lat":43.30905,"lon":5.36845,"is_reserved":false,"is_disabled":false,"rental_uris":{"android":"levelo://app?vid=3369c9ff-3f2a-4e6c-940a-286d7c057707","ios":"levelo://app?vid=3369c9ff-3f2a-4e6c-940a-286d7c057707"},"vehicle_type_id":"4","last_reported":1724609383,"current_range_meters":19200,"station_id":"ce4bgn92rcd13ifvqbvg","pricing_plan_id":"cebpf4jnsgd1na2vs0mg"},{"bike_id":"3abc7e52-1900-4aaa-9b42-ae601b2e8567","system_id":"levelo_inurba_marseille","lat":43.314811,"lon":5.373103,"is_reserved":false,"is_disabled":false,"rental_uris":{"android":"levelo://app?vid=3abc7e52-1900-4aaa-9b42-ae601b2e8567","ios":"levelo://app?vid=3abc7e52-1900-4aaa-9b42-ae601b2e8567"},"vehicle_type_id":"4","last_reported":1724609383,"current_range_meters":0,"station_id":"ce4bgt12rcd13ifvqcd0","pricing_plan_id":"cebpf4jnsgd1na2vs0mg"},{"bike_id":"8e83dd89-234c-4edd-8dcb-b174e589dbac","system_id":"levelo_inurba_marseille","lat":43.309039,"lon":5.371797,"is_reserved":false,"is_disabled":false,"rental_uris":{"android":"levelo://app?vid=8e83dd89-234c-4edd-8dcb-b174e589dbac","ios":"levelo://app?vid=8e83dd89-234c-4edd-8dcb-b174e589dbac"},"vehicle_type_id":"4","last_reported":1724609383,"current_range_meters":28800,"station_id":"ce4bguh2rcd13ifvqckg","pricing_plan_id":"cebpf4jnsgd1na2vs0mg"},{"bike_id":"cc621f22-0226-40b4-8a8d-0506d06749e3","system_id":"levelo_inurba_marseille","lat":43.30143,"lon":5.37413,"is_reserved":false,"is_disabled":false,"rental_uris":{"android":"levelo://app?vid=cc621f22-0226-40b4-8a8d-0506d06749e3","ios":"levelo://app?vid=cc621f22-0226-40b4-8a8d-0506d06749e3"},"vehicle_type_id":"4","last_reported":1724609383,"current_range_meters":30000,"station_id":"ce4bgs92rcd13ifvqcc0","pricing_plan_id":"cebpf4jnsgd1na2vs0mg"},{"bike_id":"e07158c8-7ddb-407d-a6a5-30a59d6fe9f7","system_id":"levelo_inurba_marseille","lat":43.30594,"lon":5.37214,"is_reserved":false,"is_disabled":false,"rental_uris":{"android":"levelo://app?vid=e07158c8-7ddb-407d-a6a5-30a59d6fe9f7","ios":"levelo://app?vid=e07158c8-7ddb-407d-a6a5-30a59d6fe9f7"},"vehicle_type_id":"4","last_reported":1724609383,"current_range_meters":26000,"station_id":"ce4bgqh2rcd13ifvqc4g","pricing_plan_id":"cebpf4jnsgd1na2vs0mg"},{"bike_id":"59372f11-0079-46d4-be6f-8ee9fc35e751","system_id":"levelo_inurba_marseille","lat":43.311125,"lon":5.377624,"is_reserved":false,"is_disabled":false,"rental_uris":{"android":"levelo://app?vid=59372f11-0079-46d4-be6f-8ee9fc35e751","ios":"levelo://app?vid=59372f11-0079-46d4-be6f-8ee9fc35e751"},"vehicle_type_id":"4","last_reported":1724609383,"current_range_meters":19600,"station_id":"ce4bgt92rcd13ifvqcg0","pricing_plan_id":"cebpf4jnsgd1na2vs0mg"},{"bike_id":"e9160be2-2646-4670-ae72-8543b2935ca5","system_id":"levelo_inurba_marseille","lat":43.311125,"lon":5.377624,"is_reserved":false,"is_disabled":false,"rental_uris":{"android":"levelo://app?vid=e9160be2-2646-4670-ae72-8543b2935ca5","ios":"levelo://app?vid=e9160be2-2646-4670-ae72-8543b2935ca5"},"vehicle_type_id":"4","last_reported":1724609383,"current_range_meters":18400,"station_id":"ce4bgt92rcd13ifvqcg0","pricing_plan_id":"cebpf4jnsgd1na2vs0mg"},{"bike_id":"39c64957-f84e-4b24-8807-2f6f99988974","system_id":"levelo_inurba_marseille","lat":43.31121,"lon":5.37781,"is_reserved":false,"is_disabled":false,"rental_uris":{"android":"levelo://app?vid=39c64957-f84e-4b24-8807-2f6f99988974","ios":"levelo://app?vid=39c64957-f84e-4b24-8807-2f6f99988974"},"vehicle_type_id":"4","last_reported":1724609383,"current_range_meters":0,"station_id":"ce4bgt92rcd13ifvqcg0","pricing_plan_id":"cebpf4jnsgd1na2vs0mg"},{"bike_id":"8a73693b-1468-486b-be7c-f5a4663c96e1","system_id":"levelo_inurba_marseille","lat":43.307945,"lon":5.376487,"is_reserved":false,"is_disabled":false,"rental_uris":{"android":"levelo://app?vid=8a73693b-1468-486b-be7c-f5a4663c96e1","ios":"levelo://app?vid=8a73693b-1468-486b-be7c-f5a4663c96e1"},"vehicle_type_id":"4","last_reported":1724609383,"current_range_meters":3600,"station_id":"ce4bgv92rcd13ifvqcq0","pricing_plan_id":"cebpf4jnsgd1na2vs0mg"},{"bike_id":"2f363030-9293-4d52-a98c-f7a0c2c417b7","system_id":"levelo_inurba_marseille","lat":43.307945,"lon":5.376487,"is_reserved":false,"is_disabled":false,"rental_uris":{"android":"levelo://app?vid=2f363030-9293-4d52-a98c-f7a0c2c417b7","ios":"levelo://app?vid=2f363030-9293-4d52-a98c-f7a0c2c417b7"},"vehicle_type_id":"4","last_reported":1724609383,"current_range_meters":1200,"station_id":"ce4bgv92rcd13ifvqcq0","pricing_plan_id":"cebpf4jnsgd1na2vs0mg"},{"bike_id":"1092baeb-7ae6-4bff-a811-9bbb0363fbcf","system_id":"levelo_inurba_marseille","lat":43.30485,"lon":5.3728,"is_reserved":false,"is_disabled":false,"rental_uris":{"android":"levelo://app?vid=1092baeb-7ae6-4bff-a811-9bbb0363fbcf","ios":"levelo://app?vid=1092baeb-7ae6-4bff-a811-9bbb0363fbcf"},"vehicle_type_id":"4","last_reported":1724609383,"current_range_meters":4400,"station_id":"","pricing_plan_id":"cebpf4jnsgd1na2vs0mg"},{"bike_id":"f8866dbd-8e34-4b7a-9157-45f59ffcda26","system_id":"levelo_inurba_marseille","lat":43.279742,"lon":5.38744,"is_reserved":false,"is_disabled":false,"rental_uris":{"android":"levelo://app?vid=f8866dbd-8e34-4b7a-9157-45f59ffcda26","ios":"levelo://app?vid=f8866dbd-8e34-4b7a-9157-45f59ffcda26"},"vehicle_type_id":"4","last_reported":1724609383,"current_range_meters":22400,"station_id":"ce4bhg12rcd13ifvqf80","pricing_plan_id":"cebpf4jnsgd1na2vs0mg"},{"bike_id":"c6028350-4b58-4989-8c55-899fa374b284","system_id":"levelo_inurba_marseille","lat":43.31523,"lon":5.38033,"is_reserved":false,"is_disabled":false,"rental_uris":{"android":"levelo://app?vid=c6028350-4b58-4989-8c55-899fa374b284","ios":"levelo://app?vid=c6028350-4b58-4989-8c55-899fa374b284"},"vehicle_type_id":"4","last_reported":1724609383,"current_range_meters":18800,"station_id":"ce4bhsp2rcd13ifvqi50","pricing_plan_id":"cebpf4jnsgd1na2vs0mg"},{"bike_id":"82c2e719-0850-4cd6-b4b1-3d45b3c20b5d","system_id":"levelo_inurba_marseille","lat":43.31524,"lon":5.38037,"is_reserved":false,"is_disabled":false,"rental_uris":{"android":"levelo://app?vid=82c2e719-0850-4cd6-b4b1-3d45b3c20b5d","ios":"levelo://app?vid=82c2e719-0850-4cd6-b4b1-3d45b3c20b5d"},"vehicle_type_id":"4","last_reported":1724609383,"current_range_meters":21600,"station_id":"ce4bhsp2rcd13ifvqi50","pricing_plan_id":"cebpf4jnsgd1na2vs0mg"},{"bike_id":"02e8057f-d615-4600-8df8-ff5132e605d2","system_id":"levelo_inurba_marseille","lat":43.31528,"lon":5.38036,"is_reserved":false,"is_disabled":false,"rental_uris":{"android":"levelo://app?vid=02e8057f-d615-4600-8df8-ff5132e605d2","ios":"levelo://app?vid=02e8057f-d615-4600-8df8-ff5132e605d2"},"vehicle_type_id":"4","last_reported":1724609383,"current_range_meters":15200,"station_id":"ce4bhsp2rcd13ifvqi50","pricing_plan_id":"cebpf4jnsgd1na2vs0mg"},{"bike_id":"d22fde8f-61a8-4ba7-aabf-c5840fc7206c","system_id":"levelo_inurba_marseille","lat":43.31521,"lon":5.3804,"is_reserved":false,"is_disabled":false,"rental_uris":{"android":"levelo://app?vid=d22fde8f-61a8-4ba7-aabf-c5840fc7206c","ios":"levelo://app?vid=d22fde8f-61a8-4ba7-aabf-c5840fc7206c"},"vehicle_type_id":"4","last_reported":1724609383,"current_range_meters":0,"station_id":"ce4bhsp2rcd13ifvqi50","pricing_plan_id":"cebpf4jnsgd1na2vs0mg"},{"bike_id":"23c4fc5a-d904-4d9f-b381-01fa3114ce05","system_id":"levelo_inurba_marseille","lat":43.315289,"lon":5.380349,"is_reserved":false,"is_disabled":false,"rental_uris":{"android":"levelo://app?vid=23c4fc5a-d904-4d9f-b381-01fa3114ce05","ios":"levelo://app?vid=23c4fc5a-d904-4d9f-b381-01fa3114ce05"},"vehicle_type_id":"4","last_reported":1724609383,"current_range_meters":4800,"station_id":"ce4bhsp2rcd13ifvqi50","pricing_plan_id":"cebpf4jnsgd1na2vs0mg"},{"bike_id":"567fe943-9fa4-47c1-b456-a0ddb8a7faf6","system_id":"levelo_inurba_marseille","lat":43.31527,"lon":5.3804,"is_reserved":false,"is_disabled":false,"rental_uris":{"android":"levelo://app?vid=567fe943-9fa4-47c1-b456-a0ddb8a7faf6","ios":"levelo://app?vid=567fe943-9fa4-47c1-b456-a0ddb8a7faf6"},"vehicle_type_id":"4","last_reported":1724609383,"current_range_meters":22000,"station_id":"ce4bhsp2rcd13ifvqi50","pricing_plan_id":"cebpf4jnsgd1na2vs0mg"},{"bike_id":"2770952c-a5dc-4285-887b-f048f63cda5f","system_id":"levelo_inurba_marseille","lat":43.304606,"lon":5.379026,"is_reserved":false,"is_disabled":false,"rental_uris":{"android":"levelo://app?vid=2770952c-a5dc-4285-887b-f048f63cda5f","ios":"levelo://app?vid=2770952c-a5dc-4285-887b-f048f63cda5f"},"vehicle_type_id":"4","last_reported":1724609383,"current_range_meters":25600,"station_id":"ce4bgup2rcd13ifvqcn0","pricing_plan_id":"cebpf4jnsgd1na2vs0mg"},{"bike_id":"fd03778d-5b64-467d-a320-c84a85d5f661","system_id":"levelo_inurba_marseille","lat":43.304606,"lon":5.379026,"is_reserved":false,"is_disabled":false,"rental_uris":{"android":"levelo://app?vid=fd03778d-5b64-467d-a320-c84a85d5f661","ios":"levelo://app?vid=fd03778d-5b64-467d-a320-c84a85d5f661"},"vehicle_type_id":"4","last_reported":1724609383,"current_range_meters":6800,"station_id":"ce4bgup2rcd13ifvqcn0","pricing_plan_id":"cebpf4jnsgd1na2vs0mg"},{"bike_id":"2aa16e4a-488b-4da4-95fb-8cd085850631","system_id":"levelo_inurba_marseille","lat":43.32478,"lon":5.36558,"is_reserved":false,"is_disabled":false,"rental_uris":{"android":"levelo://app?vid=2aa16e4a-488b-4da4-95fb-8cd085850631","ios":"levelo://app?vid=2aa16e4a-488b-4da4-95fb-8cd085850631"},"vehicle_type_id":"4","last_reported":1724609383,"current_range_meters":24800,"station_id":"ce4bhs12rcd13ifvqhvg","pricing_plan_id":"cebpf4jnsgd1na2vs0mg"},{"bike_id":"d6a551e6-9641-42d5-be53-a905abbe0129","system_id":"levelo_inurba_marseille","lat":43.324771,"lon":5.36557,"is_reserved":false,"is_disabled":false,"rental_uris":{"android":"levelo://app?vid=d6a551e6-9641-42d5-be53-a905abbe0129","ios":"levelo://app?vid=d6a551e6-9641-42d5-be53-a905abbe0129"},"vehicle_type_id":"4","last_reported":1724609383,"current_range_meters":31200,"station_id":"ce4bhs12rcd13ifvqhvg","pricing_plan_id":"cebpf4jnsgd1na2vs0mg"},{"bike_id":"c30c57e5-e6a4-4301-8c1f-bb1d7a5e5a91","system_id":"levelo_inurba_marseille","lat":43.324852,"lon":5.36576,"is_reserved":false,"is_disabled":false,"rental_uris":{"android":"levelo://app?vid=c30c57e5-e6a4-4301-8c1f-bb1d7a5e5a91","ios":"levelo://app?vid=c30c57e5-e6a4-4301-8c1f-bb1d7a5e5a91"},"vehicle_type_id":"4","last_reported":1724609383,"current_range_meters":21200,"station_id":"ce4bhs12rcd13ifvqhvg","pricing_plan_id":"cebpf4jnsgd1na2vs0mg"},{"bike_id":"83d7180c-2f2f-4526-afd8-bf89c1839d1d","system_id":"levelo_inurba_marseille","lat":43.324849,"lon":5.365646,"is_reserved":false,"is_disabled":false,"rental_uris":{"android":"levelo://app?vid=83d7180c-2f2f-4526-afd8-bf89c1839d1d","ios":"levelo://app?vid=83d7180c-2f2f-4526-afd8-bf89c1839d1d"},"vehicle_type_id":"4","last_reported":1724609383,"current_range_meters":8400,"station_id":"ce4bhs12rcd13ifvqhvg","pricing_plan_id":"cebpf4jnsgd1na2vs0mg"},{"bike_id":"f74c7ab2-b71e-4c31-8284-4841f6584271","system_id":"levelo_inurba_marseille","lat":43.324852,"lon":5.365642,"is_reserved":false,"is_disabled":false,"rental_uris":{"android":"levelo://app?vid=f74c7ab2-b71e-4c31-8284-4841f6584271","ios":"levelo://app?vid=f74c7ab2-b71e-4c31-8284-4841f6584271"},"vehicle_type_id":"4","last_reported":1724609383,"current_range_meters":16000,"station_id":"ce4bhs12rcd13ifvqhvg","pricing_plan_id":"cebpf4jnsgd1na2vs0mg"},{"bike_id":"4b068ad2-1221-4476-9487-2b7eb5619d8a","system_id":"levelo_inurba_marseille","lat":43.31366,"lon":5.38364,"is_reserved":false,"is_disabled":false,"rental_uris":{"android":"levelo://app?vid=4b068ad2-1221-4476-9487-2b7eb5619d8a","ios":"levelo://app?vid=4b068ad2-1221-4476-9487-2b7eb5619d8a"},"vehicle_type_id":"4","last_reported":1724609383,"current_range_meters":0,"station_id":"","pricing_plan_id":"cebpf4jnsgd1na2vs0mg"},{"bike_id":"17b118cd-88ed-42b6-a5c5-9ac0af1c0e87","system_id":"levelo_inurba_marseille","lat":43.302784,"lon":5.377158,"is_reserved":false,"is_disabled":false,"rental_uris":{"android":"levelo://app?vid=17b118cd-88ed-42b6-a5c5-9ac0af1c0e87","ios":"levelo://app?vid=17b118cd-88ed-42b6-a5c5-9ac0af1c0e87"},"vehicle_type_id":"4","last_reported":1724609383,"current_range_meters":30400,"station_id":"ce4bguh2rcd13ifvqcj0","pricing_plan_id":"cebpf4jnsgd1na2vs0mg"},{"bike_id":"903ff698-c991-4673-9fc7-5bb6ce077b9e","system_id":"levelo_inurba_marseille","lat":43.30054,"lon":5.36362,"is_reserved":false,"is_disabled":false,"rental_uris":{"android":"levelo://app?vid=903ff698-c991-4673-9fc7-5bb6ce077b9e","ios":"levelo://app?vid=903ff698-c991-4673-9fc7-5bb6ce077b9e"},"vehicle_type_id":"4","last_reported":1724609383,"current_range_meters":22800,"station_id":"","pricing_plan_id":"cebpf4jnsgd1na2vs0mg"},{"bike_id":"0e766717-db28-4b0b-833a-923c936ee174","system_id":"levelo_inurba_marseille","lat":43.30011,"lon":5.36401,"is_reserved":false,"is_disabled":false,"rental_uris":{"android":"levelo://app?vid=0e766717-db28-4b0b-833a-923c936ee174","ios":"levelo://app?vid=0e766717-db28-4b0b-833a-923c936ee174"},"vehicle_type_id":"4","last_reported":1724609383,"current_range_meters":10400,"station_id":"","pricing_plan_id":"cebpf4jnsgd1na2vs0mg"},{"bike_id":"5736ed4e-9dc7-4fa5-90a1-403587840cbd","system_id":"levelo_inurba_marseille","lat":43.319935,"lon":5.381699,"is_reserved":false,"is_disabled":false,"rental_uris":{"android":"levelo://app?vid=5736ed4e-9dc7-4fa5-90a1-403587840cbd","ios":"levelo://app?vid=5736ed4e-9dc7-4fa5-90a1-403587840cbd"},"vehicle_type_id":"4","last_reported":1724609383,"current_range_meters":25200,"station_id":"ce4bhr12rcd13ifvqhpg","pricing_plan_id":"cebpf4jnsgd1na2vs0mg"},{"bike_id":"df78f5cb-c82e-4004-b8cf-82a6d2c07bba","system_id":"levelo_inurba_marseille","lat":43.313571,"lon":5.384829,"is_reserved":false,"is_disabled":false,"rental_uris":{"android":"levelo://app?vid=df78f5cb-c82e-4004-b8cf-82a6d2c07bba","ios":"levelo://app?vid=df78f5cb-c82e-4004-b8cf-82a6d2c07bba"},"vehicle_type_id":"4","last_reported":1724609383,"current_range_meters":12800,"station_id":"ce4bgt92rcd13ifvqcf0","pricing_plan_id":"cebpf4jnsgd1na2vs0mg"},{"bike_id":"820defe7-e862-46e2-acaa-f5030965a1fa","system_id":"levelo_inurba_marseille","lat":43.313571,"lon":5.384829,"is_reserved":false,"is_disabled":false,"rental_uris":{"android":"levelo://app?vid=820defe7-e862-46e2-acaa-f5030965a1fa","ios":"levelo://app?vid=820defe7-e862-46e2-acaa-f5030965a1fa"},"vehicle_type_id":"4","last_reported":1724609383,"current_range_meters":18800,"station_id":"ce4bgt92rcd13ifvqcf0","pricing_plan_id":"cebpf4jnsgd1na2vs0mg"},{"bike_id":"f93e3bc4-5587-40cf-bc2c-289269cf50b3","system_id":"levelo_inurba_marseille","lat":43.299724,"lon":5.371829,"is_reserved":false,"is_disabled":false,"rental_uris":{"android":"levelo://app?vid=f93e3bc4-5587-40cf-bc2c-289269cf50b3","ios":"levelo://app?vid=f93e3bc4-5587-40cf-bc2c-289269cf50b3"},"vehicle_type_id":"4","last_reported":1724609383,"current_range_meters":2800,"station_id":"ce4bgr92rcd13ifvqc7g","pricing_plan_id":"cebpf4jnsgd1na2vs0mg"},{"bike_id":"c6468e6b-6a20-4b23-83c4-f09e07500340","system_id":"levelo_inurba_marseille","lat":43.305364,"lon":5.384119,"is_reserved":false,"is_disabled":false,"rental_uris":{"android":"levelo://app?vid=c6468e6b-6a20-4b23-83c4-f09e07500340","ios":"levelo://app?vid=c6468e6b-6a20-4b23-83c4-f09e07500340"},"vehicle_type_id":"4","last_reported":1724609383,"current_range_meters":0,"station_id":"ce4bgg92rcd13ifvqb30","pricing_plan_id":"cebpf4jnsgd1na2vs0mg"},{"bike_id":"a9b2b964-e408-4c53-b1da-794baca92cba","system_id":"levelo_inurba_marseille","lat":43.299243,"lon":5.374807,"is_reserved":false,"is_disabled":false,"rental_uris":{"android":"levelo://app?vid=a9b2b964-e408-4c53-b1da-794baca92cba","ios":"levelo://app?vid=a9b2b964-e408-4c53-b1da-794baca92cba"},"vehicle_type_id":"4","last_reported":1724609383,"current_range_meters":5600,"station_id":"ce4bgjh2rcd13ifvqbg0","pricing_plan_id":"cebpf4jnsgd1na2vs0mg"},{"bike_id":"91a60ea4-13cc-4939-a21f-554a6ef761e9","system_id":"levelo_inurba_marseille","lat":43.305364,"lon":5.384119,"is_reserved":false,"is_disabled":false,"rental_uris":{"android":"levelo://app?vid=91a60ea4-13cc-4939-a21f-554a6ef761e9","ios":"levelo://app?vid=91a60ea4-13cc-4939-a21f-554a6ef761e9"},"vehicle_type_id":"4","last_reported":1724609383,"current_range_meters":5200,"station_id":"ce4bgg92rcd13ifvqb30","pricing_plan_id":"cebpf4jnsgd1na2vs0mg"},{"bike_id":"068dbce4-124c-4664-bcfe-44da05a7d55c","system_id":"levelo_inurba_marseille","lat":43.311722,"lon":5.387247,"is_reserved":false,"is_disabled":false,"rental_uris":{"android":"levelo://app?vid=068dbce4-124c-4664-bcfe-44da05a7d55c","ios":"levelo://app?vid=068dbce4-124c-4664-bcfe-44da05a7d55c"},"vehicle_type_id":"4","last_reported":1724609383,"current_range_meters":16400,"station_id":"ce4bgv12rcd13ifvqcp0","pricing_plan_id":"cebpf4jnsgd1na2vs0mg"},{"bike_id":"42f4b2af-d824-4544-ab88-a1c5aad4596d","system_id":"levelo_inurba_marseille","lat":43.311722,"lon":5.387247,"is_reserved":false,"is_disabled":false,"rental_uris":{"android":"levelo://app?vid=42f4b2af-d824-4544-ab88-a1c5aad4596d","ios":"levelo://app?vid=42f4b2af-d824-4544-ab88-a1c5aad4596d"},"vehicle_type_id":"4","last_reported":1724609383,"current_range_meters":800,"station_id":"ce4bgv12rcd13ifvqcp0","pricing_plan_id":"cebpf4jnsgd1na2vs0mg"},{"bike_id":"7a87a4d1-e94a-44df-97eb-4c6dbeefee0b","system_id":"levelo_inurba_marseille","lat":43.311722,"lon":5.387247,"is_reserved":false,"is_disabled":false,"rental_uris":{"android":"levelo://app?vid=7a87a4d1-e94a-44df-97eb-4c6dbeefee0b","ios":"levelo://app?vid=7a87a4d1-e94a-44df-97eb-4c6dbeefee0b"},"vehicle_type_id":"4","last_reported":1724609383,"current_range_meters":24800,"station_id":"ce4bgv12rcd13ifvqcp0","pricing_plan_id":"cebpf4jnsgd1na2vs0mg"},{"bike_id":"d303d8e3-afc9-4948-afa3-1f891233f808","system_id":"levelo_inurba_marseille","lat":43.29907,"lon":5.37469,"is_reserved":false,"is_disabled":false,"rental_uris":{"android":"levelo://app?vid=d303d8e3-afc9-4948-afa3-1f891233f808","ios":"levelo://app?vid=d303d8e3-afc9-4948-afa3-1f891233f808"},"vehicle_type_id":"4","last_reported":1724609383,"current_range_meters":13600,"station_id":"ce4bgjh2rcd13ifvqbg0","pricing_plan_id":"cebpf4jnsgd1na2vs0mg"},{"bike_id":"0a6b13ae-a1e0-43b6-b2f0-4a9fdd6ae0d8","system_id":"levelo_inurba_marseille","lat":43.311722,"lon":5.387247,"is_reserved":false,"is_disabled":false,"rental_uris":{"android":"levelo://app?vid=0a6b13ae-a1e0-43b6-b2f0-4a9fdd6ae0d8","ios":"levelo://app?vid=0a6b13ae-a1e0-43b6-b2f0-4a9fdd6ae0d8"},"vehicle_type_id":"4","last_reported":1724609383,"current_range_meters":3600,"station_id":"ce4bgv12rcd13ifvqcp0","pricing_plan_id":"cebpf4jnsgd1na2vs0mg"},{"bike_id":"1600b445-4c74-401c-8ded-fbe3246e677e","system_id":"levelo_inurba_marseille","lat":43.32291,"lon":5.38258,"is_reserved":false,"is_disabled":false,"rental_uris":{"android":"levelo://app?vid=1600b445-4c74-401c-8ded-fbe3246e677e","ios":"levelo://app?vid=1600b445-4c74-401c-8ded-fbe3246e677e"},"vehicle_type_id":"4","last_reported":1724609383,"current_range_meters":24400,"station_id":"ce4bhr12rcd13ifvqhqg","pricing_plan_id":"cebpf4jnsgd1na2vs0mg"},{"bike_id":"43637faa-bc57-4af9-9031-ccf7137dafc6","system_id":"levelo_inurba_marseille","lat":43.322954,"lon":5.38262,"is_reserved":false,"is_disabled":false,"rental_uris":{"android":"levelo://app?vid=43637faa-bc57-4af9-9031-ccf7137dafc6","ios":"levelo://app?vid=43637faa-bc57-4af9-9031-ccf7137dafc6"},"vehicle_type_id":"4","last_reported":1724609383,"current_range_meters":18000,"station_id":"ce4bhr12rcd13ifvqhqg","pricing_plan_id":"cebpf4jnsgd1na2vs0mg"},{"bike_id":"a19735c7-d458-458c-9347-50a9f6762dd4","system_id":"levelo_inurba_marseille","lat":43.29892,"lon":5.37605,"is_reserved":false,"is_disabled":false,"rental_uris":{"android":"levelo://app?vid=a19735c7-d458-458c-9347-50a9f6762dd4","ios":"levelo://app?vid=a19735c7-d458-458c-9347-50a9f6762dd4"},"vehicle_type_id":"4","last_reported":1724609383,"current_range_meters":5200,"station_id":"","pricing_plan_id":"cebpf4jnsgd1na2vs0mg"},{"bike_id":"37885abe-c3b7-48f4-8a56-c65d8de930c2","system_id":"levelo_inurba_marseille","lat":43.297163,"lon":5.365866,"is_reserved":false,"is_disabled":false,"rental_uris":{"android":"levelo://app?vid=37885abe-c3b7-48f4-8a56-c65d8de930c2","ios":"levelo://app?vid=37885abe-c3b7-48f4-8a56-c65d8de930c2"},"vehicle_type_id":"4","last_reported":1724609383,"current_range_meters":23600,"station_id":"ce4bgn12rcd13ifvqbt0","pricing_plan_id":"cebpf4jnsgd1na2vs0mg"},{"bike_id":"0509c888-846b-4ef0-bea6-9b36817e7760","system_id":"levelo_inurba_marseille","lat":43.323571,"lon":5.383625,"is_reserved":false,"is_disabled":false,"rental_uris":{"android":"levelo://app?vid=0509c888-846b-4ef0-bea6-9b36817e7760","ios":"levelo://app?vid=0509c888-846b-4ef0-bea6-9b36817e7760"},"vehicle_type_id":"4","last_reported":1724609383,"current_range_meters":6800,"station_id":"","pricing_plan_id":"cebpf4jnsgd1na2vs0mg"},{"bike_id":"585fa122-77e2-4410-949a-3d5a26a023ac","system_id":"levelo_inurba_marseille","lat":43.309589,"lon":5.390258,"is_reserved":false,"is_disabled":false,"rental_uris":{"android":"levelo://app?vid=585fa122-77e2-4410-949a-3d5a26a023ac","ios":"levelo://app?vid=585fa122-77e2-4410-949a-3d5a26a023ac"},"vehicle_type_id":"4","last_reported":1724609383,"current_range_meters":10000,"station_id":"ce4bgup2rcd13ifvqco0","pricing_plan_id":"cebpf4jnsgd1na2vs0mg"},{"bike_id":"7615afe0-1a55-4872-bb5a-67406691283f","system_id":"levelo_inurba_marseille","lat":43.29573,"lon":5.367355,"is_reserved":false,"is_disabled":false,"rental_uris":{"android":"levelo://app?vid=7615afe0-1a55-4872-bb5a-67406691283f","ios":"levelo://app?vid=7615afe0-1a55-4872-bb5a-67406691283f"},"vehicle_type_id":"4","last_reported":1724609383,"current_range_meters":8000,"station_id":"ce4bgph2rcd13ifvqc2g","pricing_plan_id":"cebpf4jnsgd1na2vs0mg"},{"bike_id":"9b27aca0-2bbf-4afc-92f3-6c845669063d","system_id":"levelo_inurba_marseille","lat":43.323015,"lon":5.385455,"is_reserved":false,"is_disabled":false,"rental_uris":{"android":"levelo://app?vid=9b27aca0-2bbf-4afc-92f3-6c845669063d","ios":"levelo://app?vid=9b27aca0-2bbf-4afc-92f3-6c845669063d"},"vehicle_type_id":"4","last_reported":1724609383,"current_range_meters":11200,"station_id":"","pricing_plan_id":"cebpf4jnsgd1na2vs0mg"},{"bike_id":"5a25dd36-05fa-4d72-9438-3cf4234ef78d","system_id":"levelo_inurba_marseille","lat":43.32293,"lon":5.38564,"is_reserved":false,"is_disabled":false,"rental_uris":{"android":"levelo://app?vid=5a25dd36-05fa-4d72-9438-3cf4234ef78d","ios":"levelo://app?vid=5a25dd36-05fa-4d72-9438-3cf4234ef78d"},"vehicle_type_id":"4","last_reported":1724609383,"current_range_meters":9200,"station_id":"","pricing_plan_id":"cebpf4jnsgd1na2vs0mg"},{"bike_id":"0f80e4a7-dd24-4bcb-898e-d82ea20cfec9","system_id":"levelo_inurba_marseille","lat":43.2963,"lon":5.36031,"is_reserved":false,"is_disabled":false,"rental_uris":{"android":"levelo://app?vid=0f80e4a7-dd24-4bcb-898e-d82ea20cfec9","ios":"levelo://app?vid=0f80e4a7-dd24-4bcb-898e-d82ea20cfec9"},"vehicle_type_id":"4","last_reported":1724609383,"current_range_meters":0,"station_id":"","pricing_plan_id":"cebpf4jnsgd1na2vs0mg"},{"bike_id":"26c5cc2c-5d1f-4f9d-8f3f-a851d83c6baa","system_id":"levelo_inurba_marseille","lat":43.296935,"lon":5.376544,"is_reserved":false,"is_disabled":false,"rental_uris":{"android":"levelo://app?vid=26c5cc2c-5d1f-4f9d-8f3f-a851d83c6baa","ios":"levelo://app?vid=26c5cc2c-5d1f-4f9d-8f3f-a851d83c6baa"},"vehicle_type_id":"4","last_reported":1724609383,"current_range_meters":0,"station_id":"ce4bgkh2rcd13ifvqbl0","pricing_plan_id":"cebpf4jnsgd1na2vs0mg"},{"bike_id":"9fff17e9-dec6-49c5-bf70-55c6f9f182f6","system_id":"levelo_inurba_marseille","lat":43.309527,"lon":5.390183,"is_reserved":false,"is_disabled":false,"rental_uris":{"android":"levelo://app?vid=9fff17e9-dec6-49c5-bf70-55c6f9f182f6","ios":"levelo://app?vid=9fff17e9-dec6-49c5-bf70-55c6f9f182f6"},"vehicle_type_id":"4","last_reported":1724609383,"current_range_meters":0,"station_id":"ce4bgup2rcd13ifvqco0","pricing_plan_id":"cebpf4jnsgd1na2vs0mg"},{"bike_id":"f666c241-1b29-4504-bad7-3d71aeb34fa5","system_id":"levelo_inurba_marseille","lat":43.309589,"lon":5.390258,"is_reserved":false,"is_disabled":false,"rental_uris":{"android":"levelo://app?vid=f666c241-1b29-4504-bad7-3d71aeb34fa5","ios":"levelo://app?vid=f666c241-1b29-4504-bad7-3d71aeb34fa5"},"vehicle_type_id":"4","last_reported":1724609383,"current_range_meters":0,"station_id":"ce4bgup2rcd13ifvqco0","pricing_plan_id":"cebpf4jnsgd1na2vs0mg"},{"bike_id":"25a30d0e-b44b-4f91-9a05-4235d0ebcea4","system_id":"levelo_inurba_marseille","lat":43.309589,"lon":5.390258,"is_reserved":false,"is_disabled":false,"rental_uris":{"android":"levelo://app?vid=25a30d0e-b44b-4f91-9a05-4235d0ebcea4","ios":"levelo://app?vid=25a30d0e-b44b-4f91-9a05-4235d0ebcea4"},"vehicle_type_id":"4","last_reported":1724609383,"current_range_meters":26000,"station_id":"ce4bgup2rcd13ifvqco0","pricing_plan_id":"cebpf4jnsgd1na2vs0mg"},{"bike_id":"ec16ce93-5371-4023-949c-5bca3894af6a","system_id":"levelo_inurba_marseille","lat":43.29622,"lon":5.37392,"is_reserved":false,"is_disabled":false,"rental_uris":{"android":"levelo://app?vid=ec16ce93-5371-4023-949c-5bca3894af6a","ios":"levelo://app?vid=ec16ce93-5371-4023-949c-5bca3894af6a"},"vehicle_type_id":"4","last_reported":1724609383,"current_range_meters":0,"station_id":"","pricing_plan_id":"cebpf4jnsgd1na2vs0mg"},{"bike_id":"decae30e-9b3e-4a72-8988-d7a07096652f","system_id":"levelo_inurba_marseille","lat":43.309589,"lon":5.390258,"is_reserved":false,"is_disabled":false,"rental_uris":{"android":"levelo://app?vid=decae30e-9b3e-4a72-8988-d7a07096652f","ios":"levelo://app?vid=decae30e-9b3e-4a72-8988-d7a07096652f"},"vehicle_type_id":"4","last_reported":1724609383,"current_range_meters":15200,"station_id":"ce4bgup2rcd13ifvqco0","pricing_plan_id":"cebpf4jnsgd1na2vs0mg"},{"bike_id":"8ce94bc7-a0de-4d96-a47e-abe1d399c1cf","system_id":"levelo_inurba_marseille","lat":43.30958,"lon":5.39059,"is_reserved":false,"is_disabled":false,"rental_uris":{"android":"levelo://app?vid=8ce94bc7-a0de-4d96-a47e-abe1d399c1cf","ios":"levelo://app?vid=8ce94bc7-a0de-4d96-a47e-abe1d399c1cf"},"vehicle_type_id":"4","last_reported":1724609383,"current_range_meters":0,"station_id":"ce4bgup2rcd13ifvqco0","pricing_plan_id":"cebpf4jnsgd1na2vs0mg"},{"bike_id":"047eff78-1882-4999-b192-8225710cf58e","system_id":"levelo_inurba_marseille","lat":43.29573,"lon":5.36118,"is_reserved":false,"is_disabled":false,"rental_uris":{"android":"levelo://app?vid=047eff78-1882-4999-b192-8225710cf58e","ios":"levelo://app?vid=047eff78-1882-4999-b192-8225710cf58e"},"vehicle_type_id":"4","last_reported":1724609383,"current_range_meters":26400,"station_id":"","pricing_plan_id":"cebpf4jnsgd1na2vs0mg"},{"bike_id":"e6fd205d-6a33-4337-837d-c3b0ba2eac92","system_id":"levelo_inurba_marseille","lat":43.317557,"lon":5.390173,"is_reserved":false,"is_disabled":false,"rental_uris":{"android":"levelo://app?vid=e6fd205d-6a33-4337-837d-c3b0ba2eac92","ios":"levelo://app?vid=e6fd205d-6a33-4337-837d-c3b0ba2eac92"},"vehicle_type_id":"4","last_reported":1724609383,"current_range_meters":18400,"station_id":"ce4bhqp2rcd13ifvqhng","pricing_plan_id":"cebpf4jnsgd1na2vs0mg"},{"bike_id":"424f2f54-3a86-43cc-9ccc-2222d04295cd","system_id":"levelo_inurba_marseille","lat":43.296935,"lon":5.376544,"is_reserved":false,"is_disabled":false,"rental_uris":{"android":"levelo://app?vid=424f2f54-3a86-43cc-9ccc-2222d04295cd","ios":"levelo://app?vid=424f2f54-3a86-43cc-9ccc-2222d04295cd"},"vehicle_type_id":"4","last_reported":1724609383,"current_range_meters":12000,"station_id":"ce4bgkh2rcd13ifvqbl0","pricing_plan_id":"cebpf4jnsgd1na2vs0mg"},{"bike_id":"4afe2d99-3521-4759-addd-b7163dd4348d","system_id":"levelo_inurba_marseille","lat":43.295748,"lon":5.37522,"is_reserved":false,"is_disabled":false,"rental_uris":{"android":"levelo://app?vid=4afe2d99-3521-4759-addd-b7163dd4348d","ios":"levelo://app?vid=4afe2d99-3521-4759-addd-b7163dd4348d"},"vehicle_type_id":"4","last_reported":1724609383,"current_range_meters":31200,"station_id":"ce4bgh92rcd13ifvqb50","pricing_plan_id":"cebpf4jnsgd1na2vs0mg"},{"bike_id":"178afe1d-fa9b-44c9-a1da-f0d6e694e2eb","system_id":"levelo_inurba_marseille","lat":43.29898,"lon":5.3829,"is_reserved":false,"is_disabled":false,"rental_uris":{"android":"levelo://app?vid=178afe1d-fa9b-44c9-a1da-f0d6e694e2eb","ios":"levelo://app?vid=178afe1d-fa9b-44c9-a1da-f0d6e694e2eb"},"vehicle_type_id":"4","last_reported":1724609383,"current_range_meters":1200,"station_id":"","pricing_plan_id":"cebpf4jnsgd1na2vs0mg"},{"bike_id":"06da1b6c-8935-40c9-baa5-5355a5e517b9","system_id":"levelo_inurba_marseille","lat":43.295748,"lon":5.37522,"is_reserved":false,"is_disabled":false,"rental_uris":{"android":"levelo://app?vid=06da1b6c-8935-40c9-baa5-5355a5e517b9","ios":"levelo://app?vid=06da1b6c-8935-40c9-baa5-5355a5e517b9"},"vehicle_type_id":"4","last_reported":1724609383,"current_range_meters":0,"station_id":"ce4bgh92rcd13ifvqb50","pricing_plan_id":"cebpf4jnsgd1na2vs0mg"},{"bike_id":"be9233e3-8918-4bda-980e-a4873a82aede","system_id":"levelo_inurba_marseille","lat":43.295748,"lon":5.37522,"is_reserved":false,"is_disabled":false,"rental_uris":{"android":"levelo://app?vid=be9233e3-8918-4bda-980e-a4873a82aede","ios":"levelo://app?vid=be9233e3-8918-4bda-980e-a4873a82aede"},"vehicle_type_id":"4","last_reported":1724609383,"current_range_meters":29200,"station_id":"ce4bgh92rcd13ifvqb50","pricing_plan_id":"cebpf4jnsgd1na2vs0mg"},{"bike_id":"d20d9e62-e103-40b5-bbd8-5dc52a8a12ef","system_id":"levelo_inurba_marseille","lat":43.29569,"lon":5.37523,"is_reserved":false,"is_disabled":false,"rental_uris":{"android":"levelo://app?vid=d20d9e62-e103-40b5-bbd8-5dc52a8a12ef","ios":"levelo://app?vid=d20d9e62-e103-40b5-bbd8-5dc52a8a12ef"},"vehicle_type_id":"4","last_reported":1724609383,"current_range_meters":30800,"station_id":"ce4bgh92rcd13ifvqb50","pricing_plan_id":"cebpf4jnsgd1na2vs0mg"},{"bike_id":"64eb91d0-51ae-4198-a8ee-10334e384946","system_id":"levelo_inurba_marseille","lat":43.29619,"lon":5.37719,"is_reserved":false,"is_disabled":false,"rental_uris":{"android":"levelo://app?vid=64eb91d0-51ae-4198-a8ee-10334e384946","ios":"levelo://app?vid=64eb91d0-51ae-4198-a8ee-10334e384946"},"vehicle_type_id":"4","last_reported":1724609383,"current_range_meters":1200,"station_id":"ce4bgi92rcd13ifvqb90","pricing_plan_id":"cebpf4jnsgd1na2vs0mg"},{"bike_id":"7c70bf91-eced-4cd7-a8e9-c76ee893e6a3","system_id":"levelo_inurba_marseille","lat":43.29612,"lon":5.37734,"is_reserved":false,"is_disabled":false,"rental_uris":{"android":"levelo://app?vid=7c70bf91-eced-4cd7-a8e9-c76ee893e6a3","ios":"levelo://app?vid=7c70bf91-eced-4cd7-a8e9-c76ee893e6a3"},"vehicle_type_id":"4","last_reported":1724609383,"current_range_meters":0,"station_id":"ce4bgi92rcd13ifvqb90","pricing_plan_id":"cebpf4jnsgd1na2vs0mg"},{"bike_id":"58d6660c-3ac5-4167-a1c5-8131c105ad77","system_id":"levelo_inurba_marseille","lat":43.296002,"lon":5.377133,"is_reserved":false,"is_disabled":false,"rental_uris":{"android":"levelo://app?vid=58d6660c-3ac5-4167-a1c5-8131c105ad77","ios":"levelo://app?vid=58d6660c-3ac5-4167-a1c5-8131c105ad77"},"vehicle_type_id":"4","last_reported":1724609383,"current_range_meters":4800,"station_id":"ce4bgi92rcd13ifvqb90","pricing_plan_id":"cebpf4jnsgd1na2vs0mg"},{"bike_id":"6360051e-74fb-4022-95ae-51189f64ecc7","system_id":"levelo_inurba_marseille","lat":43.295279,"lon":5.375048,"is_reserved":false,"is_disabled":false,"rental_uris":{"android":"levelo://app?vid=6360051e-74fb-4022-95ae-51189f64ecc7","ios":"levelo://app?vid=6360051e-74fb-4022-95ae-51189f64ecc7"},"vehicle_type_id":"4","last_reported":1724609383,"current_range_meters":0,"station_id":"ce4bgkp2rcd13ifvqbmg","pricing_plan_id":"cebpf4jnsgd1na2vs0mg"},{"bike_id":"4b4b767f-fa3d-4815-9b66-837ff1bbd4e8","system_id":"levelo_inurba_marseille","lat":43.295203,"lon":5.37514,"is_reserved":false,"is_disabled":false,"rental_uris":{"android":"levelo://app?vid=4b4b767f-fa3d-4815-9b66-837ff1bbd4e8","ios":"levelo://app?vid=4b4b767f-fa3d-4815-9b66-837ff1bbd4e8"},"vehicle_type_id":"4","last_reported":1724609383,"current_range_meters":29600,"station_id":"","pricing_plan_id":"cebpf4jnsgd1na2vs0mg"},{"bike_id":"832eb296-23fe-4b23-8944-9f03aa537d07","system_id":"levelo_inurba_marseille","lat":43.295279,"lon":5.375048,"is_reserved":false,"is_disabled":false,"rental_uris":{"android":"levelo://app?vid=832eb296-23fe-4b23-8944-9f03aa537d07","ios":"levelo://app?vid=832eb296-23fe-4b23-8944-9f03aa537d07"},"vehicle_type_id":"4","last_reported":1724609383,"current_range_meters":25600,"station_id":"ce4bgkp2rcd13ifvqbmg","pricing_plan_id":"cebpf4jnsgd1na2vs0mg"},{"bike_id":"d983dc5f-2cdc-43dd-a28e-4144fc0c944b","system_id":"levelo_inurba_marseille","lat":43.295279,"lon":5.375048,"is_reserved":false,"is_disabled":false,"rental_uris":{"android":"levelo://app?vid=d983dc5f-2cdc-43dd-a28e-4144fc0c944b","ios":"levelo://app?vid=d983dc5f-2cdc-43dd-a28e-4144fc0c944b"},"vehicle_type_id":"4","last_reported":1724609383,"current_range_meters":400,"station_id":"ce4bgkp2rcd13ifvqbmg","pricing_plan_id":"cebpf4jnsgd1na2vs0mg"},{"bike_id":"328fd146-3351-4b79-87dd-bdc54a3bd4f8","system_id":"levelo_inurba_marseille","lat":43.32367,"lon":5.388836,"is_reserved":false,"is_disabled":false,"rental_uris":{"android":"levelo://app?vid=328fd146-3351-4b79-87dd-bdc54a3bd4f8","ios":"levelo://app?vid=328fd146-3351-4b79-87dd-bdc54a3bd4f8"},"vehicle_type_id":"4","last_reported":1724609383,"current_range_meters":17600,"station_id":"ce4bhqp2rcd13ifvqhog","pricing_plan_id":"cebpf4jnsgd1na2vs0mg"},{"bike_id":"a1ee482f-2a7a-407c-90ad-26034a19fdf3","system_id":"levelo_inurba_marseille","lat":43.32367,"lon":5.388836,"is_reserved":false,"is_disabled":false,"rental_uris":{"android":"levelo://app?vid=a1ee482f-2a7a-407c-90ad-26034a19fdf3","ios":"levelo://app?vid=a1ee482f-2a7a-407c-90ad-26034a19fdf3"},"vehicle_type_id":"4","last_reported":1724609383,"current_range_meters":10800,"station_id":"ce4bhqp2rcd13ifvqhog","pricing_plan_id":"cebpf4jnsgd1na2vs0mg"},{"bike_id":"1c3a457d-be74-4cc1-9de1-0e9064514343","system_id":"levelo_inurba_marseille","lat":43.32367,"lon":5.388836,"is_reserved":false,"is_disabled":false,"rental_uris":{"android":"levelo://app?vid=1c3a457d-be74-4cc1-9de1-0e9064514343","ios":"levelo://app?vid=1c3a457d-be74-4cc1-9de1-0e9064514343"},"vehicle_type_id":"4","last_reported":1724609383,"current_range_meters":2000,"station_id":"ce4bhqp2rcd13ifvqhog","pricing_plan_id":"cebpf4jnsgd1na2vs0mg"},{"bike_id":"83ed9b6a-deea-4f8d-a9f4-3f45357a6f08","system_id":"levelo_inurba_marseille","lat":43.29557,"lon":5.37927,"is_reserved":false,"is_disabled":false,"rental_uris":{"android":"levelo://app?vid=83ed9b6a-deea-4f8d-a9f4-3f45357a6f08","ios":"levelo://app?vid=83ed9b6a-deea-4f8d-a9f4-3f45357a6f08"},"vehicle_type_id":"4","last_reported":1724609383,"current_range_meters":19600,"station_id":"","pricing_plan_id":"cebpf4jnsgd1na2vs0mg"},{"bike_id":"4cb46445-1091-4038-b77a-1cb91a88db6b","system_id":"levelo_inurba_marseille","lat":43.29602,"lon":5.381084,"is_reserved":false,"is_disabled":false,"rental_uris":{"android":"levelo://app?vid=4cb46445-1091-4038-b77a-1cb91a88db6b","ios":"levelo://app?vid=4cb46445-1091-4038-b77a-1cb91a88db6b"},"vehicle_type_id":"4","last_reported":1724609383,"current_range_meters":19600,"station_id":"ce4bgl12rcd13ifvqbo0","pricing_plan_id":"cebpf4jnsgd1na2vs0mg"},{"bike_id":"b14bad80-e499-4e04-8ca9-c81122d782db","system_id":"levelo_inurba_marseille","lat":43.29602,"lon":5.381084,"is_reserved":false,"is_disabled":false,"rental_uris":{"android":"levelo://app?vid=b14bad80-e499-4e04-8ca9-c81122d782db","ios":"levelo://app?vid=b14bad80-e499-4e04-8ca9-c81122d782db"},"vehicle_type_id":"4","last_reported":1724609383,"current_range_meters":0,"station_id":"ce4bgl12rcd13ifvqbo0","pricing_plan_id":"cebpf4jnsgd1na2vs0mg"},{"bike_id":"f75299af-dd77-404e-a648-93d90bc66f48","system_id":"levelo_inurba_marseille","lat":43.293259,"lon":5.371586,"is_reserved":false,"is_disabled":false,"rental_uris":{"android":"levelo://app?vid=f75299af-dd77-404e-a648-93d90bc66f48","ios":"levelo://app?vid=f75299af-dd77-404e-a648-93d90bc66f48"},"vehicle_type_id":"4","last_reported":1724609383,"current_range_meters":31200,"station_id":"ce4bgh92rcd13ifvqb40","pricing_plan_id":"cebpf4jnsgd1na2vs0mg"},{"bike_id":"ab273f9d-f67e-412b-a6a8-81f8c5a00d8c","system_id":"levelo_inurba_marseille","lat":43.293249,"lon":5.371578,"is_reserved":false,"is_disabled":false,"rental_uris":{"android":"levelo://app?vid=ab273f9d-f67e-412b-a6a8-81f8c5a00d8c","ios":"levelo://app?vid=ab273f9d-f67e-412b-a6a8-81f8c5a00d8c"},"vehicle_type_id":"4","last_reported":1724609383,"current_range_meters":7200,"station_id":"ce4bgh92rcd13ifvqb40","pricing_plan_id":"cebpf4jnsgd1na2vs0mg"},{"bike_id":"8e41f5f6-b8fd-468c-817c-ce5ebb055d43","system_id":"levelo_inurba_marseille","lat":43.292749,"lon":5.368402,"is_reserved":false,"is_disabled":false,"rental_uris":{"android":"levelo://app?vid=8e41f5f6-b8fd-468c-817c-ce5ebb055d43","ios":"levelo://app?vid=8e41f5f6-b8fd-468c-817c-ce5ebb055d43"},"vehicle_type_id":"4","last_reported":1724609383,"current_range_meters":16400,"station_id":"ce4bhbp2rcd13ifvqesg","pricing_plan_id":"cebpf4jnsgd1na2vs0mg"},{"bike_id":"a25894ff-f760-4314-9dfe-5d9687302a0c","system_id":"levelo_inurba_marseille","lat":43.293249,"lon":5.371578,"is_reserved":false,"is_disabled":false,"rental_uris":{"android":"levelo://app?vid=a25894ff-f760-4314-9dfe-5d9687302a0c","ios":"levelo://app?vid=a25894ff-f760-4314-9dfe-5d9687302a0c"},"vehicle_type_id":"4","last_reported":1724609383,"current_range_meters":19600,"station_id":"ce4bgh92rcd13ifvqb40","pricing_plan_id":"cebpf4jnsgd1na2vs0mg"},{"bike_id":"fadc0f21-e14d-4c6e-945d-fb21a713890f","system_id":"levelo_inurba_marseille","lat":43.292749,"lon":5.368402,"is_reserved":false,"is_disabled":false,"rental_uris":{"android":"levelo://app?vid=fadc0f21-e14d-4c6e-945d-fb21a713890f","ios":"levelo://app?vid=fadc0f21-e14d-4c6e-945d-fb21a713890f"},"vehicle_type_id":"4","last_reported":1724609383,"current_range_meters":29600,"station_id":"ce4bhbp2rcd13ifvqesg","pricing_plan_id":"cebpf4jnsgd1na2vs0mg"},{"bike_id":"b5f98753-0d6e-4a78-9a80-c00f20c3e1d2","system_id":"levelo_inurba_marseille","lat":43.29307,"lon":5.37181,"is_reserved":false,"is_disabled":false,"rental_uris":{"android":"levelo://app?vid=b5f98753-0d6e-4a78-9a80-c00f20c3e1d2","ios":"levelo://app?vid=b5f98753-0d6e-4a78-9a80-c00f20c3e1d2"},"vehicle_type_id":"4","last_reported":1724609383,"current_range_meters":0,"station_id":"ce4bgh92rcd13ifvqb40","pricing_plan_id":"cebpf4jnsgd1na2vs0mg"},{"bike_id":"75ab493a-432c-48ce-8be9-772f5af81186","system_id":"levelo_inurba_marseille","lat":43.29304,"lon":5.37163,"is_reserved":false,"is_disabled":false,"rental_uris":{"android":"levelo://app?vid=75ab493a-432c-48ce-8be9-772f5af81186","ios":"levelo://app?vid=75ab493a-432c-48ce-8be9-772f5af81186"},"vehicle_type_id":"4","last_reported":1724609383,"current_range_meters":14400,"station_id":"ce4bgh92rcd13ifvqb40","pricing_plan_id":"cebpf4jnsgd1na2vs0mg"},{"bike_id":"ebbcb352-1656-44a5-b9e1-7a5e3275722f","system_id":"levelo_inurba_marseille","lat":43.293259,"lon":5.371586,"is_reserved":false,"is_disabled":false,"rental_uris":{"android":"levelo://app?vid=ebbcb352-1656-44a5-b9e1-7a5e3275722f","ios":"levelo://app?vid=ebbcb352-1656-44a5-b9e1-7a5e3275722f"},"vehicle_type_id":"4","last_reported":1724609383,"current_range_meters":31600,"station_id":"ce4bgh92rcd13ifvqb40","pricing_plan_id":"cebpf4jnsgd1na2vs0mg"},{"bike_id":"8ef0ab15-0ede-4460-9ef4-2fbb761e73e3","system_id":"levelo_inurba_marseille","lat":43.292749,"lon":5.368402,"is_reserved":false,"is_disabled":false,"rental_uris":{"android":"levelo://app?vid=8ef0ab15-0ede-4460-9ef4-2fbb761e73e3","ios":"levelo://app?vid=8ef0ab15-0ede-4460-9ef4-2fbb761e73e3"},"vehicle_type_id":"4","last_reported":1724609383,"current_range_meters":0,"station_id":"ce4bhbp2rcd13ifvqesg","pricing_plan_id":"cebpf4jnsgd1na2vs0mg"},{"bike_id":"b27eb94c-16d2-4aef-9cdd-9b315903a93c","system_id":"levelo_inurba_marseille","lat":43.302992,"lon":5.392136,"is_reserved":false,"is_disabled":false,"rental_uris":{"android":"levelo://app?vid=b27eb94c-16d2-4aef-9cdd-9b315903a93c","ios":"levelo://app?vid=b27eb94c-16d2-4aef-9cdd-9b315903a93c"},"vehicle_type_id":"4","last_reported":1724609383,"current_range_meters":13600,"station_id":"ce4bgkh2rcd13ifvqbk0","pricing_plan_id":"cebpf4jnsgd1na2vs0mg"},{"bike_id":"0112448a-56ab-4d89-bb97-12a83b32ad76","system_id":"levelo_inurba_marseille","lat":43.293117,"lon":5.374517,"is_reserved":false,"is_disabled":false,"rental_uris":{"android":"levelo://app?vid=0112448a-56ab-4d89-bb97-12a83b32ad76","ios":"levelo://app?vid=0112448a-56ab-4d89-bb97-12a83b32ad76"},"vehicle_type_id":"4","last_reported":1724609383,"current_range_meters":0,"station_id":"ce4bgi12rcd13ifvqb70","pricing_plan_id":"cebpf4jnsgd1na2vs0mg"},{"bike_id":"30e5f3f4-39db-4f17-8753-33c28eb5aabb","system_id":"levelo_inurba_marseille","lat":43.2936,"lon":5.37835,"is_reserved":false,"is_disabled":false,"rental_uris":{"android":"levelo://app?vid=30e5f3f4-39db-4f17-8753-33c28eb5aabb","ios":"levelo://app?vid=30e5f3f4-39db-4f17-8753-33c28eb5aabb"},"vehicle_type_id":"4","last_reported":1724609383,"current_range_meters":1600,"station_id":"ce4bgjh2rcd13ifvqbf0","pricing_plan_id":"cebpf4jnsgd1na2vs0mg"},{"bike_id":"44ea3990-46b5-44de-8eb3-30fed8bef7e7","system_id":"levelo_inurba_marseille","lat":43.30303,"lon":5.392117,"is_reserved":false,"is_disabled":false,"rental_uris":{"android":"levelo://app?vid=44ea3990-46b5-44de-8eb3-30fed8bef7e7","ios":"levelo://app?vid=44ea3990-46b5-44de-8eb3-30fed8bef7e7"},"vehicle_type_id":"4","last_reported":1724609383,"current_range_meters":800,"station_id":"ce4bgkh2rcd13ifvqbk0","pricing_plan_id":"cebpf4jnsgd1na2vs0mg"},{"bike_id":"d0c384b1-b1d9-4b7f-b194-9322025d5cc1","system_id":"levelo_inurba_marseille","lat":43.2936,"lon":5.37835,"is_reserved":false,"is_disabled":false,"rental_uris":{"android":"levelo://app?vid=d0c384b1-b1d9-4b7f-b194-9322025d5cc1","ios":"levelo://app?vid=d0c384b1-b1d9-4b7f-b194-9322025d5cc1"},"vehicle_type_id":"4","last_reported":1724609383,"current_range_meters":2800,"station_id":"ce4bgjh2rcd13ifvqbf0","pricing_plan_id":"cebpf4jnsgd1na2vs0mg"},{"bike_id":"830f015a-6100-472b-bd97-61944db51509","system_id":"levelo_inurba_marseille","lat":43.2936,"lon":5.37835,"is_reserved":false,"is_disabled":false,"rental_uris":{"android":"levelo://app?vid=830f015a-6100-472b-bd97-61944db51509","ios":"levelo://app?vid=830f015a-6100-472b-bd97-61944db51509"},"vehicle_type_id":"4","last_reported":1724609383,"current_range_meters":22800,"station_id":"ce4bgjh2rcd13ifvqbf0","pricing_plan_id":"cebpf4jnsgd1na2vs0mg"},{"bike_id":"27e95ffa-297c-485f-bd91-c1f810fbf73e","system_id":"levelo_inurba_marseille","lat":43.292311,"lon":5.360731,"is_reserved":false,"is_disabled":false,"rental_uris":{"android":"levelo://app?vid=27e95ffa-297c-485f-bd91-c1f810fbf73e","ios":"levelo://app?vid=27e95ffa-297c-485f-bd91-c1f810fbf73e"},"vehicle_type_id":"4","last_reported":1724609383,"current_range_meters":0,"station_id":"ce4bhbh2rcd13ifvqeqg","pricing_plan_id":"cebpf4jnsgd1na2vs0mg"},{"bike_id":"e156b45d-6a0d-4206-8721-070934c2f3ed","system_id":"levelo_inurba_marseille","lat":43.292311,"lon":5.360731,"is_reserved":false,"is_disabled":false,"rental_uris":{"android":"levelo://app?vid=e156b45d-6a0d-4206-8721-070934c2f3ed","ios":"levelo://app?vid=e156b45d-6a0d-4206-8721-070934c2f3ed"},"vehicle_type_id":"4","last_reported":1724609383,"current_range_meters":31200,"station_id":"ce4bhbh2rcd13ifvqeqg","pricing_plan_id":"cebpf4jnsgd1na2vs0mg"},{"bike_id":"c7a76a91-b226-4b82-a67b-e2d209e5bb23","system_id":"levelo_inurba_marseille","lat":43.298764,"lon":5.388973,"is_reserved":false,"is_disabled":false,"rental_uris":{"android":"levelo://app?vid=c7a76a91-b226-4b82-a67b-e2d209e5bb23","ios":"levelo://app?vid=c7a76a91-b226-4b82-a67b-e2d209e5bb23"},"vehicle_type_id":"4","last_reported":1724609383,"current_range_meters":2000,"station_id":"ce4bh392rcd13ifvqdl0","pricing_plan_id":"cebpf4jnsgd1na2vs0mg"},{"bike_id":"883dbce9-a1d3-4678-82e4-b3a88c4441ac","system_id":"levelo_inurba_marseille","lat":43.291671,"lon":5.371575,"is_reserved":false,"is_disabled":false,"rental_uris":{"android":"levelo://app?vid=883dbce9-a1d3-4678-82e4-b3a88c4441ac","ios":"levelo://app?vid=883dbce9-a1d3-4678-82e4-b3a88c4441ac"},"vehicle_type_id":"4","last_reported":1724609383,"current_range_meters":23600,"station_id":"ce4bha92rcd13ifvqeh0","pricing_plan_id":"cebpf4jnsgd1na2vs0mg"},{"bike_id":"00a92899-702a-40ee-9b0a-f0c920f0d27f","system_id":"levelo_inurba_marseille","lat":43.309038,"lon":5.396546,"is_reserved":false,"is_disabled":false,"rental_uris":{"android":"levelo://app?vid=00a92899-702a-40ee-9b0a-f0c920f0d27f","ios":"levelo://app?vid=00a92899-702a-40ee-9b0a-f0c920f0d27f"},"vehicle_type_id":"4","last_reported":1724609383,"current_range_meters":22400,"station_id":"ce4bh012rcd13ifvqcv0","pricing_plan_id":"cebpf4jnsgd1na2vs0mg"},{"bike_id":"b6a0431d-7ad4-40d3-8659-841e7642ba65","system_id":"levelo_inurba_marseille","lat":43.309047,"lon":5.396551,"is_reserved":false,"is_disabled":false,"rental_uris":{"android":"levelo://app?vid=b6a0431d-7ad4-40d3-8659-841e7642ba65","ios":"levelo://app?vid=b6a0431d-7ad4-40d3-8659-841e7642ba65"},"vehicle_type_id":"4","last_reported":1724609383,"current_range_meters":19200,"station_id":"ce4bh012rcd13ifvqcv0","pricing_plan_id":"cebpf4jnsgd1na2vs0mg"},{"bike_id":"ba52e61f-5d26-48de-ab48-d783c7802aae","system_id":"levelo_inurba_marseille","lat":43.29529,"lon":5.385581,"is_reserved":false,"is_disabled":false,"rental_uris":{"android":"levelo://app?vid=ba52e61f-5d26-48de-ab48-d783c7802aae","ios":"levelo://app?vid=ba52e61f-5d26-48de-ab48-d783c7802aae"},"vehicle_type_id":"4","last_reported":1724609383,"current_range_meters":0,"station_id":"ce4bgih2rcd13ifvqba0","pricing_plan_id":"cebpf4jnsgd1na2vs0mg"},{"bike_id":"6bff0413-9525-4618-b78f-67b40ef8a9e3","system_id":"levelo_inurba_marseille","lat":43.29529,"lon":5.385581,"is_reserved":false,"is_disabled":false,"rental_uris":{"android":"levelo://app?vid=6bff0413-9525-4618-b78f-67b40ef8a9e3","ios":"levelo://app?vid=6bff0413-9525-4618-b78f-67b40ef8a9e3"},"vehicle_type_id":"4","last_reported":1724609383,"current_range_meters":0,"station_id":"ce4bgih2rcd13ifvqba0","pricing_plan_id":"cebpf4jnsgd1na2vs0mg"},{"bike_id":"9de109c2-dea9-4217-81b2-3eb085caf99a","system_id":"levelo_inurba_marseille","lat":43.33467,"lon":5.36113,"is_reserved":false,"is_disabled":false,"rental_uris":{"android":"levelo://app?vid=9de109c2-dea9-4217-81b2-3eb085caf99a","ios":"levelo://app?vid=9de109c2-dea9-4217-81b2-3eb085caf99a"},"vehicle_type_id":"4","last_reported":1724609383,"current_range_meters":14800,"station_id":"","pricing_plan_id":"cebpf4jnsgd1na2vs0mg"},{"bike_id":"b25d47e5-6ef8-47e1-a9d9-1f7ced2c0a40","system_id":"levelo_inurba_marseille","lat":43.30209,"lon":5.39462,"is_reserved":false,"is_disabled":false,"rental_uris":{"android":"levelo://app?vid=b25d47e5-6ef8-47e1-a9d9-1f7ced2c0a40","ios":"levelo://app?vid=b25d47e5-6ef8-47e1-a9d9-1f7ced2c0a40"},"vehicle_type_id":"4","last_reported":1724609383,"current_range_meters":27600,"station_id":"ce4bh0p2rcd13ifvqd70","pricing_plan_id":"cebpf4jnsgd1na2vs0mg"},{"bike_id":"3a2e845e-fa45-4754-a79f-c7d162abd6be","system_id":"levelo_inurba_marseille","lat":43.290327,"lon":5.375711,"is_reserved":false,"is_disabled":false,"rental_uris":{"android":"levelo://app?vid=3a2e845e-fa45-4754-a79f-c7d162abd6be","ios":"levelo://app?vid=3a2e845e-fa45-4754-a79f-c7d162abd6be"},"vehicle_type_id":"4","last_reported":1724609383,"current_range_meters":0,"station_id":"ce4bh692rcd13ifvqe90","pricing_plan_id":"cebpf4jnsgd1na2vs0mg"},{"bike_id":"4c1a4d12-7138-47cd-8bd2-57e3d2a9cc3e","system_id":"levelo_inurba_marseille","lat":43.290327,"lon":5.375711,"is_reserved":false,"is_disabled":false,"rental_uris":{"android":"levelo://app?vid=4c1a4d12-7138-47cd-8bd2-57e3d2a9cc3e","ios":"levelo://app?vid=4c1a4d12-7138-47cd-8bd2-57e3d2a9cc3e"},"vehicle_type_id":"4","last_reported":1724609383,"current_range_meters":8000,"station_id":"ce4bh692rcd13ifvqe90","pricing_plan_id":"cebpf4jnsgd1na2vs0mg"},{"bike_id":"61957d83-17c3-4449-8acf-21da37cbf736","system_id":"levelo_inurba_marseille","lat":43.29421,"lon":5.38616,"is_reserved":false,"is_disabled":false,"rental_uris":{"android":"levelo://app?vid=61957d83-17c3-4449-8acf-21da37cbf736","ios":"levelo://app?vid=61957d83-17c3-4449-8acf-21da37cbf736"},"vehicle_type_id":"4","last_reported":1724609383,"current_range_meters":0,"station_id":"ce4bh2h2rcd13ifvqdh0","pricing_plan_id":"cebpf4jnsgd1na2vs0mg"},{"bike_id":"1e16a214-78cc-4cd4-a1e0-bdd05263da7e","system_id":"levelo_inurba_marseille","lat":43.28949,"lon":5.366305,"is_reserved":false,"is_disabled":false,"rental_uris":{"android":"levelo://app?vid=1e16a214-78cc-4cd4-a1e0-bdd05263da7e","ios":"levelo://app?vid=1e16a214-78cc-4cd4-a1e0-bdd05263da7e"},"vehicle_type_id":"4","last_reported":1724609383,"current_range_meters":16400,"station_id":"","pricing_plan_id":"cebpf4jnsgd1na2vs0mg"},{"bike_id":"efee5e02-5216-4e1e-99e8-83af55c1fd87","system_id":"levelo_inurba_marseille","lat":43.29034,"lon":5.37565,"is_reserved":false,"is_disabled":false,"rental_uris":{"android":"levelo://app?vid=efee5e02-5216-4e1e-99e8-83af55c1fd87","ios":"levelo://app?vid=efee5e02-5216-4e1e-99e8-83af55c1fd87"},"vehicle_type_id":"4","last_reported":1724609383,"current_range_meters":26000,"station_id":"ce4bh692rcd13ifvqe90","pricing_plan_id":"cebpf4jnsgd1na2vs0mg"},{"bike_id":"a49bd19b-6dd3-4523-8615-a6c1d17fecd5","system_id":"levelo_inurba_marseille","lat":43.273125,"lon":5.390731,"is_reserved":false,"is_disabled":false,"rental_uris":{"android":"levelo://app?vid=a49bd19b-6dd3-4523-8615-a6c1d17fecd5","ios":"levelo://app?vid=a49bd19b-6dd3-4523-8615-a6c1d17fecd5"},"vehicle_type_id":"4","last_reported":1724609383,"current_range_meters":4400,"station_id":"ce4bhgp2rcd13ifvqfe0","pricing_plan_id":"cebpf4jnsgd1na2vs0mg"},{"bike_id":"dd4dee14-4c1a-4482-9e36-8949cd086236","system_id":"levelo_inurba_marseille","lat":43.2894,"lon":5.36634,"is_reserved":false,"is_disabled":false,"rental_uris":{"android":"levelo://app?vid=dd4dee14-4c1a-4482-9e36-8949cd086236","ios":"levelo://app?vid=dd4dee14-4c1a-4482-9e36-8949cd086236"},"vehicle_type_id":"4","last_reported":1724609383,"current_range_meters":3200,"station_id":"ce4bhap2rcd13ifvqek0","pricing_plan_id":"cebpf4jnsgd1na2vs0mg"},{"bike_id":"cfdf7c65-92e5-405f-ad26-a9a1226bfc02","system_id":"levelo_inurba_marseille","lat":43.28934,"lon":5.36639,"is_reserved":false,"is_disabled":false,"rental_uris":{"android":"levelo://app?vid=cfdf7c65-92e5-405f-ad26-a9a1226bfc02","ios":"levelo://app?vid=cfdf7c65-92e5-405f-ad26-a9a1226bfc02"},"vehicle_type_id":"4","last_reported":1724609383,"current_range_meters":31200,"station_id":"ce4bhap2rcd13ifvqek0","pricing_plan_id":"cebpf4jnsgd1na2vs0mg"},{"bike_id":"b0bf2604-8152-434c-8d9b-29de8ce1e19b","system_id":"levelo_inurba_marseille","lat":43.2893,"lon":5.36628,"is_reserved":false,"is_disabled":false,"rental_uris":{"android":"levelo://app?vid=b0bf2604-8152-434c-8d9b-29de8ce1e19b","ios":"levelo://app?vid=b0bf2604-8152-434c-8d9b-29de8ce1e19b"},"vehicle_type_id":"4","last_reported":1724609383,"current_range_meters":31200,"station_id":"ce4bhap2rcd13ifvqek0","pricing_plan_id":"cebpf4jnsgd1na2vs0mg"},{"bike_id":"f75d724f-9198-451a-a061-fc5e316b4304","system_id":"levelo_inurba_marseille","lat":43.3043,"lon":5.3973,"is_reserved":false,"is_disabled":false,"rental_uris":{"android":"levelo://app?vid=f75d724f-9198-451a-a061-fc5e316b4304","ios":"levelo://app?vid=f75d724f-9198-451a-a061-fc5e316b4304"},"vehicle_type_id":"4","last_reported":1724609383,"current_range_meters":22000,"station_id":"","pricing_plan_id":"cebpf4jnsgd1na2vs0mg"},{"bike_id":"18653427-3219-48ee-849b-a4b8b713b0cb","system_id":"levelo_inurba_marseille","lat":43.292758,"lon":5.384478,"is_reserved":false,"is_disabled":false,"rental_uris":{"android":"levelo://app?vid=18653427-3219-48ee-849b-a4b8b713b0cb","ios":"levelo://app?vid=18653427-3219-48ee-849b-a4b8b713b0cb"},"vehicle_type_id":"4","last_reported":1724609383,"current_range_meters":0,"station_id":"ce4bh692rcd13ifvqea0","pricing_plan_id":"cebpf4jnsgd1na2vs0mg"},{"bike_id":"c3ac34d1-9bbc-4023-b0df-9b7d08ff8719","system_id":"levelo_inurba_marseille","lat":43.304274,"lon":5.397513,"is_reserved":false,"is_disabled":false,"rental_uris":{"android":"levelo://app?vid=c3ac34d1-9bbc-4023-b0df-9b7d08ff8719","ios":"levelo://app?vid=c3ac34d1-9bbc-4023-b0df-9b7d08ff8719"},"vehicle_type_id":"4","last_reported":1724609383,"current_range_meters":10400,"station_id":"ce4bh092rcd13ifvqd20","pricing_plan_id":"cebpf4jnsgd1na2vs0mg"},{"bike_id":"12f2cd65-1d83-49cd-b588-278e00b09716","system_id":"levelo_inurba_marseille","lat":43.292642,"lon":5.384254,"is_reserved":false,"is_disabled":false,"rental_uris":{"android":"levelo://app?vid=12f2cd65-1d83-49cd-b588-278e00b09716","ios":"levelo://app?vid=12f2cd65-1d83-49cd-b588-278e00b09716"},"vehicle_type_id":"4","last_reported":1724609383,"current_range_meters":20400,"station_id":"ce4bh692rcd13ifvqea0","pricing_plan_id":"cebpf4jnsgd1na2vs0mg"},{"bike_id":"574175ec-c1db-44d6-a29a-0398147b7fd5","system_id":"levelo_inurba_marseille","lat":43.292642,"lon":5.384254,"is_reserved":false,"is_disabled":false,"rental_uris":{"android":"levelo://app?vid=574175ec-c1db-44d6-a29a-0398147b7fd5","ios":"levelo://app?vid=574175ec-c1db-44d6-a29a-0398147b7fd5"},"vehicle_type_id":"4","last_reported":1724609383,"current_range_meters":6400,"station_id":"ce4bh692rcd13ifvqea0","pricing_plan_id":"cebpf4jnsgd1na2vs0mg"},{"bike_id":"1089c7ea-4819-4591-b051-b67aa4e9b3d2","system_id":"levelo_inurba_marseille","lat":43.292644,"lon":5.384257,"is_reserved":false,"is_disabled":false,"rental_uris":{"android":"levelo://app?vid=1089c7ea-4819-4591-b051-b67aa4e9b3d2","ios":"levelo://app?vid=1089c7ea-4819-4591-b051-b67aa4e9b3d2"},"vehicle_type_id":"4","last_reported":1724609383,"current_range_meters":1600,"station_id":"ce4bh692rcd13ifvqea0","pricing_plan_id":"cebpf4jnsgd1na2vs0mg"},{"bike_id":"e400aa65-fa40-4733-9ad0-5df37cdbc1b8","system_id":"levelo_inurba_marseille","lat":43.29262,"lon":5.38445,"is_reserved":false,"is_disabled":false,"rental_uris":{"android":"levelo://app?vid=e400aa65-fa40-4733-9ad0-5df37cdbc1b8","ios":"levelo://app?vid=e400aa65-fa40-4733-9ad0-5df37cdbc1b8"},"vehicle_type_id":"4","last_reported":1724609383,"current_range_meters":0,"station_id":"ce4bh692rcd13ifvqea0","pricing_plan_id":"cebpf4jnsgd1na2vs0mg"},{"bike_id":"94c8019c-2f1d-4912-9de7-a84bd8c87712","system_id":"levelo_inurba_marseille","lat":43.290104,"lon":5.356111,"is_reserved":false,"is_disabled":false,"rental_uris":{"android":"levelo://app?vid=94c8019c-2f1d-4912-9de7-a84bd8c87712","ios":"levelo://app?vid=94c8019c-2f1d-4912-9de7-a84bd8c87712"},"vehicle_type_id":"4","last_reported":1724609383,"current_range_meters":31200,"station_id":"ce4bhb92rcd13ifvqen0","pricing_plan_id":"cebpf4jnsgd1na2vs0mg"},{"bike_id":"abd50968-a4d9-40ce-a883-0233897c0b1a","system_id":"levelo_inurba_marseille","lat":43.289994,"lon":5.356159,"is_reserved":false,"is_disabled":false,"rental_uris":{"android":"levelo://app?vid=abd50968-a4d9-40ce-a883-0233897c0b1a","ios":"levelo://app?vid=abd50968-a4d9-40ce-a883-0233897c0b1a"},"vehicle_type_id":"4","last_reported":1724609383,"current_range_meters":31200,"station_id":"ce4bhb92rcd13ifvqen0","pricing_plan_id":"cebpf4jnsgd1na2vs0mg"},{"bike_id":"89fb70c5-ac37-4fab-b502-7437f7605987","system_id":"levelo_inurba_marseille","lat":43.28984,"lon":5.37822,"is_reserved":false,"is_disabled":false,"rental_uris":{"android":"levelo://app?vid=89fb70c5-ac37-4fab-b502-7437f7605987","ios":"levelo://app?vid=89fb70c5-ac37-4fab-b502-7437f7605987"},"vehicle_type_id":"4","last_reported":1724609383,"current_range_meters":16000,"station_id":"ce4bh9p2rcd13ifvqed0","pricing_plan_id":"cebpf4jnsgd1na2vs0mg"},{"bike_id":"618f8266-4751-4329-9888-e49a4770531d","system_id":"levelo_inurba_marseille","lat":43.295169,"lon":5.390426,"is_reserved":false,"is_disabled":false,"rental_uris":{"android":"levelo://app?vid=618f8266-4751-4329-9888-e49a4770531d","ios":"levelo://app?vid=618f8266-4751-4329-9888-e49a4770531d"},"vehicle_type_id":"4","last_reported":1724609383,"current_range_meters":0,"station_id":"ce4bh3p2rcd13ifvqdp0","pricing_plan_id":"cebpf4jnsgd1na2vs0mg"},{"bike_id":"8b938090-4443-47fb-8c60-b7d08f755b9b","system_id":"levelo_inurba_marseille","lat":43.295169,"lon":5.390426,"is_reserved":false,"is_disabled":false,"rental_uris":{"android":"levelo://app?vid=8b938090-4443-47fb-8c60-b7d08f755b9b","ios":"levelo://app?vid=8b938090-4443-47fb-8c60-b7d08f755b9b"},"vehicle_type_id":"4","last_reported":1724609383,"current_range_meters":0,"station_id":"ce4bh3p2rcd13ifvqdp0","pricing_plan_id":"cebpf4jnsgd1na2vs0mg"},{"bike_id":"e79a1cc9-15bd-4ea0-82c4-c7898b87ddd5","system_id":"levelo_inurba_marseille","lat":43.330442,"lon":5.389148,"is_reserved":false,"is_disabled":false,"rental_uris":{"android":"levelo://app?vid=e79a1cc9-15bd-4ea0-82c4-c7898b87ddd5","ios":"levelo://app?vid=e79a1cc9-15bd-4ea0-82c4-c7898b87ddd5"},"vehicle_type_id":"4","last_reported":1724609383,"current_range_meters":28800,"station_id":"ce4bhr92rcd13ifvqhrg","pricing_plan_id":"cebpf4jnsgd1na2vs0mg"},{"bike_id":"970fae7b-2bb2-44d9-b0cc-a82282916b69","system_id":"levelo_inurba_marseille","lat":43.330442,"lon":5.389148,"is_reserved":false,"is_disabled":false,"rental_uris":{"android":"levelo://app?vid=970fae7b-2bb2-44d9-b0cc-a82282916b69","ios":"levelo://app?vid=970fae7b-2bb2-44d9-b0cc-a82282916b69"},"vehicle_type_id":"4","last_reported":1724609383,"current_range_meters":0,"station_id":"ce4bhr92rcd13ifvqhrg","pricing_plan_id":"cebpf4jnsgd1na2vs0mg"},{"bike_id":"0356e7c6-107c-487e-a391-99a355aae6be","system_id":"levelo_inurba_marseille","lat":43.330442,"lon":5.389148,"is_reserved":false,"is_disabled":false,"rental_uris":{"android":"levelo://app?vid=0356e7c6-107c-487e-a391-99a355aae6be","ios":"levelo://app?vid=0356e7c6-107c-487e-a391-99a355aae6be"},"vehicle_type_id":"4","last_reported":1724609383,"current_range_meters":17200,"station_id":"ce4bhr92rcd13ifvqhrg","pricing_plan_id":"cebpf4jnsgd1na2vs0mg"},{"bike_id":"50d312c8-0f66-4eba-9c97-657889ff59bf","system_id":"levelo_inurba_marseille","lat":43.330442,"lon":5.389148,"is_reserved":false,"is_disabled":false,"rental_uris":{"android":"levelo://app?vid=50d312c8-0f66-4eba-9c97-657889ff59bf","ios":"levelo://app?vid=50d312c8-0f66-4eba-9c97-657889ff59bf"},"vehicle_type_id":"4","last_reported":1724609383,"current_range_meters":6400,"station_id":"ce4bhr92rcd13ifvqhrg","pricing_plan_id":"cebpf4jnsgd1na2vs0mg"},{"bike_id":"2f411b73-7e20-4c3b-abf8-0c2d4968564a","system_id":"levelo_inurba_marseille","lat":43.33026,"lon":5.39046,"is_reserved":false,"is_disabled":false,"rental_uris":{"android":"levelo://app?vid=2f411b73-7e20-4c3b-abf8-0c2d4968564a","ios":"levelo://app?vid=2f411b73-7e20-4c3b-abf8-0c2d4968564a"},"vehicle_type_id":"4","last_reported":1724609383,"current_range_meters":6400,"station_id":"ce4bhr92rcd13ifvqhrg","pricing_plan_id":"cebpf4jnsgd1na2vs0mg"},{"bike_id":"19c26626-af4b-4740-b18a-85f6e064dc66","system_id":"levelo_inurba_marseille","lat":43.295169,"lon":5.390426,"is_reserved":false,"is_disabled":false,"rental_uris":{"android":"levelo://app?vid=19c26626-af4b-4740-b18a-85f6e064dc66","ios":"levelo://app?vid=19c26626-af4b-4740-b18a-85f6e064dc66"},"vehicle_type_id":"4","last_reported":1724609383,"current_range_meters":400,"station_id":"ce4bh3p2rcd13ifvqdp0","pricing_plan_id":"cebpf4jnsgd1na2vs0mg"},{"bike_id":"df1bd676-60ff-4958-8c90-1872467d8f27","system_id":"levelo_inurba_marseille","lat":43.2901,"lon":5.381269,"is_reserved":false,"is_disabled":false,"rental_uris":{"android":"levelo://app?vid=df1bd676-60ff-4958-8c90-1872467d8f27","ios":"levelo://app?vid=df1bd676-60ff-4958-8c90-1872467d8f27"},"vehicle_type_id":"4","last_reported":1724609383,"current_range_meters":0,"station_id":"ce4bh4p2rcd13ifvqe1g","pricing_plan_id":"cebpf4jnsgd1na2vs0mg"},{"bike_id":"6d594573-ee75-46d1-a668-b430478e17b8","system_id":"levelo_inurba_marseille","lat":43.28856,"lon":5.358371,"is_reserved":false,"is_disabled":false,"rental_uris":{"android":"levelo://app?vid=6d594573-ee75-46d1-a668-b430478e17b8","ios":"levelo://app?vid=6d594573-ee75-46d1-a668-b430478e17b8"},"vehicle_type_id":"4","last_reported":1724609383,"current_range_meters":28800,"station_id":"ce4bhb12rcd13ifvqem0","pricing_plan_id":"cebpf4jnsgd1na2vs0mg"},{"bike_id":"831f6ccd-7749-4ca2-8b01-dc0b8b27076e","system_id":"levelo_inurba_marseille","lat":43.312609,"lon":5.401662,"is_reserved":false,"is_disabled":false,"rental_uris":{"android":"levelo://app?vid=831f6ccd-7749-4ca2-8b01-dc0b8b27076e","ios":"levelo://app?vid=831f6ccd-7749-4ca2-8b01-dc0b8b27076e"},"vehicle_type_id":"4","last_reported":1724609383,"current_range_meters":0,"station_id":"ce4bh092rcd13ifvqd30","pricing_plan_id":"cebpf4jnsgd1na2vs0mg"},{"bike_id":"0ecdbed7-870a-46d8-84a9-35a35baaf431","system_id":"levelo_inurba_marseille","lat":43.309371,"lon":5.401449,"is_reserved":false,"is_disabled":false,"rental_uris":{"android":"levelo://app?vid=0ecdbed7-870a-46d8-84a9-35a35baaf431","ios":"levelo://app?vid=0ecdbed7-870a-46d8-84a9-35a35baaf431"},"vehicle_type_id":"4","last_reported":1724609383,"current_range_meters":3600,"station_id":"ce4bgvp2rcd13ifvqct0","pricing_plan_id":"cebpf4jnsgd1na2vs0mg"},{"bike_id":"7f28b672-e947-43b9-9dc9-4fc7b33388ed","system_id":"levelo_inurba_marseille","lat":43.312609,"lon":5.401662,"is_reserved":false,"is_disabled":false,"rental_uris":{"android":"levelo://app?vid=7f28b672-e947-43b9-9dc9-4fc7b33388ed","ios":"levelo://app?vid=7f28b672-e947-43b9-9dc9-4fc7b33388ed"},"vehicle_type_id":"4","last_reported":1724609383,"current_range_meters":19600,"station_id":"ce4bh092rcd13ifvqd30","pricing_plan_id":"cebpf4jnsgd1na2vs0mg"},{"bike_id":"d1c871c2-823e-435b-8144-0bea7a317e71","system_id":"levelo_inurba_marseille","lat":43.312609,"lon":5.401662,"is_reserved":false,"is_disabled":false,"rental_uris":{"android":"levelo://app?vid=d1c871c2-823e-435b-8144-0bea7a317e71","ios":"levelo://app?vid=d1c871c2-823e-435b-8144-0bea7a317e71"},"vehicle_type_id":"4","last_reported":1724609383,"current_range_meters":7200,"station_id":"ce4bh092rcd13ifvqd30","pricing_plan_id":"cebpf4jnsgd1na2vs0mg"},{"bike_id":"c594b3e3-1ba6-43b9-a1c1-be8533666e55","system_id":"levelo_inurba_marseille","lat":43.33751,"lon":5.37441,"is_reserved":false,"is_disabled":false,"rental_uris":{"android":"levelo://app?vid=c594b3e3-1ba6-43b9-a1c1-be8533666e55","ios":"levelo://app?vid=c594b3e3-1ba6-43b9-a1c1-be8533666e55"},"vehicle_type_id":"4","last_reported":1724609383,"current_range_meters":22400,"station_id":"","pricing_plan_id":"cebpf4jnsgd1na2vs0mg"},{"bike_id":"dfa062e6-965a-46e3-86c5-1dc86503ede5","system_id":"levelo_inurba_marseille","lat":43.287805,"lon":5.373689,"is_reserved":false,"is_disabled":false,"rental_uris":{"android":"levelo://app?vid=dfa062e6-965a-46e3-86c5-1dc86503ede5","ios":"levelo://app?vid=dfa062e6-965a-46e3-86c5-1dc86503ede5"},"vehicle_type_id":"4","last_reported":1724609383,"current_range_meters":29600,"station_id":"","pricing_plan_id":"cebpf4jnsgd1na2vs0mg"},{"bike_id":"db399c75-49ad-4419-a288-38737e32025d","system_id":"levelo_inurba_marseille","lat":43.337552,"lon":5.374572,"is_reserved":false,"is_disabled":false,"rental_uris":{"android":"levelo://app?vid=db399c75-49ad-4419-a288-38737e32025d","ios":"levelo://app?vid=db399c75-49ad-4419-a288-38737e32025d"},"vehicle_type_id":"4","last_reported":1724609383,"current_range_meters":24400,"station_id":"","pricing_plan_id":"cebpf4jnsgd1na2vs0mg"},{"bike_id":"a6de0161-1a37-4484-af54-217f3b7611b4","system_id":"levelo_inurba_marseille","lat":43.3375,"lon":5.37493,"is_reserved":false,"is_disabled":false,"rental_uris":{"android":"levelo://app?vid=a6de0161-1a37-4484-af54-217f3b7611b4","ios":"levelo://app?vid=a6de0161-1a37-4484-af54-217f3b7611b4"},"vehicle_type_id":"4","last_reported":1724609383,"current_range_meters":28400,"station_id":"","pricing_plan_id":"cebpf4jnsgd1na2vs0mg"},{"bike_id":"957eccb4-4bdf-4d76-b268-2b4f0632f4df","system_id":"levelo_inurba_marseille","lat":43.30945,"lon":5.40159,"is_reserved":false,"is_disabled":false,"rental_uris":{"android":"levelo://app?vid=957eccb4-4bdf-4d76-b268-2b4f0632f4df","ios":"levelo://app?vid=957eccb4-4bdf-4d76-b268-2b4f0632f4df"},"vehicle_type_id":"4","last_reported":1724609383,"current_range_meters":2400,"station_id":"ce4bgvp2rcd13ifvqct0","pricing_plan_id":"cebpf4jnsgd1na2vs0mg"},{"bike_id":"cdc35d34-57e9-43e1-ac36-c0218dd5a9e1","system_id":"levelo_inurba_marseille","lat":43.337512,"lon":5.374915,"is_reserved":false,"is_disabled":false,"rental_uris":{"android":"levelo://app?vid=cdc35d34-57e9-43e1-ac36-c0218dd5a9e1","ios":"levelo://app?vid=cdc35d34-57e9-43e1-ac36-c0218dd5a9e1"},"vehicle_type_id":"4","last_reported":1724609383,"current_range_meters":17600,"station_id":"","pricing_plan_id":"cebpf4jnsgd1na2vs0mg"},{"bike_id":"1b635017-1f6d-4ccf-887c-5535d999fc49","system_id":"levelo_inurba_marseille","lat":43.33768,"lon":5.37436,"is_reserved":false,"is_disabled":false,"rental_uris":{"android":"levelo://app?vid=1b635017-1f6d-4ccf-887c-5535d999fc49","ios":"levelo://app?vid=1b635017-1f6d-4ccf-887c-5535d999fc49"},"vehicle_type_id":"4","last_reported":1724609383,"current_range_meters":10000,"station_id":"","pricing_plan_id":"cebpf4jnsgd1na2vs0mg"},{"bike_id":"9ead088a-687f-4e81-aa48-74409347cd66","system_id":"levelo_inurba_marseille","lat":43.286039,"lon":5.370681,"is_reserved":false,"is_disabled":false,"rental_uris":{"android":"levelo://app?vid=9ead088a-687f-4e81-aa48-74409347cd66","ios":"levelo://app?vid=9ead088a-687f-4e81-aa48-74409347cd66"},"vehicle_type_id":"4","last_reported":1724609383,"current_range_meters":14800,"station_id":"ce4bht12rcd13ifvqi60","pricing_plan_id":"cebpf4jnsgd1na2vs0mg"},{"bike_id":"417b4418-cd85-46f5-902a-560829a00a05","system_id":"levelo_inurba_marseille","lat":43.301117,"lon":5.398795,"is_reserved":false,"is_disabled":false,"rental_uris":{"android":"levelo://app?vid=417b4418-cd85-46f5-902a-560829a00a05","ios":"levelo://app?vid=417b4418-cd85-46f5-902a-560829a00a05"},"vehicle_type_id":"4","last_reported":1724609383,"current_range_meters":8000,"station_id":"ce4bh0h2rcd13ifvqd40","pricing_plan_id":"cebpf4jnsgd1na2vs0mg"},{"bike_id":"831f786d-f1a5-4a42-91d1-1f49da68356c","system_id":"levelo_inurba_marseille","lat":43.301117,"lon":5.398795,"is_reserved":false,"is_disabled":false,"rental_uris":{"android":"levelo://app?vid=831f786d-f1a5-4a42-91d1-1f49da68356c","ios":"levelo://app?vid=831f786d-f1a5-4a42-91d1-1f49da68356c"},"vehicle_type_id":"4","last_reported":1724609383,"current_range_meters":27600,"station_id":"ce4bh0h2rcd13ifvqd40","pricing_plan_id":"cebpf4jnsgd1na2vs0mg"},{"bike_id":"42ad1a7c-be52-49be-bbc3-e637fb9c8510","system_id":"levelo_inurba_marseille","lat":43.286961,"lon":5.373785,"is_reserved":false,"is_disabled":false,"rental_uris":{"android":"levelo://app?vid=42ad1a7c-be52-49be-bbc3-e637fb9c8510","ios":"levelo://app?vid=42ad1a7c-be52-49be-bbc3-e637fb9c8510"},"vehicle_type_id":"4","last_reported":1724609383,"current_range_meters":0,"station_id":"ce4bh3p2rcd13ifvqdq0","pricing_plan_id":"cebpf4jnsgd1na2vs0mg"},{"bike_id":"1976e650-95cf-4075-ba9c-f26e6bda3729","system_id":"levelo_inurba_marseille","lat":43.286961,"lon":5.373785,"is_reserved":false,"is_disabled":false,"rental_uris":{"android":"levelo://app?vid=1976e650-95cf-4075-ba9c-f26e6bda3729","ios":"levelo://app?vid=1976e650-95cf-4075-ba9c-f26e6bda3729"},"vehicle_type_id":"4","last_reported":1724609383,"current_range_meters":0,"station_id":"ce4bh3p2rcd13ifvqdq0","pricing_plan_id":"cebpf4jnsgd1na2vs0mg"},{"bike_id":"2af06dd1-7e9b-4918-816a-7b4cca77cbe5","system_id":"levelo_inurba_marseille","lat":43.28773,"lon":5.37799,"is_reserved":false,"is_disabled":false,"rental_uris":{"android":"levelo://app?vid=2af06dd1-7e9b-4918-816a-7b4cca77cbe5","ios":"levelo://app?vid=2af06dd1-7e9b-4918-816a-7b4cca77cbe5"},"vehicle_type_id":"4","last_reported":1724609383,"current_range_meters":15200,"station_id":"","pricing_plan_id":"cebpf4jnsgd1na2vs0mg"},{"bike_id":"d4c1c9a7-5bfc-4478-984f-fc593c0241ca","system_id":"levelo_inurba_marseille","lat":43.286591,"lon":5.363346,"is_reserved":false,"is_disabled":false,"rental_uris":{"android":"levelo://app?vid=d4c1c9a7-5bfc-4478-984f-fc593c0241ca","ios":"levelo://app?vid=d4c1c9a7-5bfc-4478-984f-fc593c0241ca"},"vehicle_type_id":"4","last_reported":1724609383,"current_range_meters":28000,"station_id":"ce4bhah2rcd13ifvqej0","pricing_plan_id":"cebpf4jnsgd1na2vs0mg"},{"bike_id":"ddee536f-725b-4855-bb69-d79c6b115357","system_id":"levelo_inurba_marseille","lat":43.28655,"lon":5.36355,"is_reserved":false,"is_disabled":false,"rental_uris":{"android":"levelo://app?vid=ddee536f-725b-4855-bb69-d79c6b115357","ios":"levelo://app?vid=ddee536f-725b-4855-bb69-d79c6b115357"},"vehicle_type_id":"4","last_reported":1724609383,"current_range_meters":31200,"station_id":"ce4bhah2rcd13ifvqej0","pricing_plan_id":"cebpf4jnsgd1na2vs0mg"},{"bike_id":"2a1b59e9-b24a-4c4e-abef-93d00ccc92a7","system_id":"levelo_inurba_marseille","lat":43.286961,"lon":5.373785,"is_reserved":false,"is_disabled":false,"rental_uris":{"android":"levelo://app?vid=2a1b59e9-b24a-4c4e-abef-93d00ccc92a7","ios":"levelo://app?vid=2a1b59e9-b24a-4c4e-abef-93d00ccc92a7"},"vehicle_type_id":"4","last_reported":1724609383,"current_range_meters":17600,"station_id":"ce4bh3p2rcd13ifvqdq0","pricing_plan_id":"cebpf4jnsgd1na2vs0mg"},{"bike_id":"3f1c6ec9-73eb-4d3c-aafa-fb2b6db1bfd9","system_id":"levelo_inurba_marseille","lat":43.289307,"lon":5.38406,"is_reserved":false,"is_disabled":false,"rental_uris":{"android":"levelo://app?vid=3f1c6ec9-73eb-4d3c-aafa-fb2b6db1bfd9","ios":"levelo://app?vid=3f1c6ec9-73eb-4d3c-aafa-fb2b6db1bfd9"},"vehicle_type_id":"4","last_reported":1724609383,"current_range_meters":400,"station_id":"ce4bh612rcd13ifvqe6g","pricing_plan_id":"cebpf4jnsgd1na2vs0mg"},{"bike_id":"5d554713-a0cb-40b7-92ce-311043f61c92","system_id":"levelo_inurba_marseille","lat":43.290336,"lon":5.386425,"is_reserved":false,"is_disabled":false,"rental_uris":{"android":"levelo://app?vid=5d554713-a0cb-40b7-92ce-311043f61c92","ios":"levelo://app?vid=5d554713-a0cb-40b7-92ce-311043f61c92"},"vehicle_type_id":"4","last_reported":1724609383,"current_range_meters":23200,"station_id":"ce4bh4p2rcd13ifvqe0g","pricing_plan_id":"cebpf4jnsgd1na2vs0mg"},{"bike_id":"82886b39-b930-4341-9ea0-c1aa57499e3b","system_id":"levelo_inurba_marseille","lat":43.290143,"lon":5.386168,"is_reserved":false,"is_disabled":false,"rental_uris":{"android":"levelo://app?vid=82886b39-b930-4341-9ea0-c1aa57499e3b","ios":"levelo://app?vid=82886b39-b930-4341-9ea0-c1aa57499e3b"},"vehicle_type_id":"4","last_reported":1724609383,"current_range_meters":0,"station_id":"ce4bh4p2rcd13ifvqe0g","pricing_plan_id":"cebpf4jnsgd1na2vs0mg"},{"bike_id":"d89f6b0e-d565-499f-9a26-885dc837f480","system_id":"levelo_inurba_marseille","lat":43.290336,"lon":5.386425,"is_reserved":false,"is_disabled":false,"rental_uris":{"android":"levelo://app?vid=d89f6b0e-d565-499f-9a26-885dc837f480","ios":"levelo://app?vid=d89f6b0e-d565-499f-9a26-885dc837f480"},"vehicle_type_id":"4","last_reported":1724609383,"current_range_meters":1200,"station_id":"ce4bh4p2rcd13ifvqe0g","pricing_plan_id":"cebpf4jnsgd1na2vs0mg"},{"bike_id":"a045a168-d135-4f7c-82df-5c701fcfa9cc","system_id":"levelo_inurba_marseille","lat":43.302759,"lon":5.400793,"is_reserved":false,"is_disabled":false,"rental_uris":{"android":"levelo://app?vid=a045a168-d135-4f7c-82df-5c701fcfa9cc","ios":"levelo://app?vid=a045a168-d135-4f7c-82df-5c701fcfa9cc"},"vehicle_type_id":"4","last_reported":1724609383,"current_range_meters":22800,"station_id":"ce4bgvh2rcd13ifvqcs0","pricing_plan_id":"cebpf4jnsgd1na2vs0mg"},{"bike_id":"56ec98db-2e81-47ad-bc32-236915499859","system_id":"levelo_inurba_marseille","lat":43.290336,"lon":5.386425,"is_reserved":false,"is_disabled":false,"rental_uris":{"android":"levelo://app?vid=56ec98db-2e81-47ad-bc32-236915499859","ios":"levelo://app?vid=56ec98db-2e81-47ad-bc32-236915499859"},"vehicle_type_id":"4","last_reported":1724609383,"current_range_meters":12400,"station_id":"ce4bh4p2rcd13ifvqe0g","pricing_plan_id":"cebpf4jnsgd1na2vs0mg"},{"bike_id":"2601c99a-1a07-4782-94db-0c68fafdb5dd","system_id":"levelo_inurba_marseille","lat":43.286039,"lon":5.370679,"is_reserved":false,"is_disabled":false,"rental_uris":{"android":"levelo://app?vid=2601c99a-1a07-4782-94db-0c68fafdb5dd","ios":"levelo://app?vid=2601c99a-1a07-4782-94db-0c68fafdb5dd"},"vehicle_type_id":"4","last_reported":1724609383,"current_range_meters":16000,"station_id":"ce4bht12rcd13ifvqi60","pricing_plan_id":"cebpf4jnsgd1na2vs0mg"},{"bike_id":"8a33cc17-a493-4efa-8728-69ba89a1198b","system_id":"levelo_inurba_marseille","lat":43.302759,"lon":5.400793,"is_reserved":false,"is_disabled":false,"rental_uris":{"android":"levelo://app?vid=8a33cc17-a493-4efa-8728-69ba89a1198b","ios":"levelo://app?vid=8a33cc17-a493-4efa-8728-69ba89a1198b"},"vehicle_type_id":"4","last_reported":1724609383,"current_range_meters":4800,"station_id":"ce4bgvh2rcd13ifvqcs0","pricing_plan_id":"cebpf4jnsgd1na2vs0mg"},{"bike_id":"9650a254-c865-45fe-b420-dfc09c79a36f","system_id":"levelo_inurba_marseille","lat":43.302759,"lon":5.400793,"is_reserved":false,"is_disabled":false,"rental_uris":{"android":"levelo://app?vid=9650a254-c865-45fe-b420-dfc09c79a36f","ios":"levelo://app?vid=9650a254-c865-45fe-b420-dfc09c79a36f"},"vehicle_type_id":"4","last_reported":1724609383,"current_range_meters":23600,"station_id":"ce4bgvh2rcd13ifvqcs0","pricing_plan_id":"cebpf4jnsgd1na2vs0mg"},{"bike_id":"52a0d063-33a6-4e3e-aa20-a5afb9a96217","system_id":"levelo_inurba_marseille","lat":43.286593,"lon":5.363346,"is_reserved":false,"is_disabled":false,"rental_uris":{"android":"levelo://app?vid=52a0d063-33a6-4e3e-aa20-a5afb9a96217","ios":"levelo://app?vid=52a0d063-33a6-4e3e-aa20-a5afb9a96217"},"vehicle_type_id":"4","last_reported":1724609383,"current_range_meters":2800,"station_id":"ce4bhah2rcd13ifvqej0","pricing_plan_id":"cebpf4jnsgd1na2vs0mg"},{"bike_id":"02b4dc01-bc43-4197-9165-7c1dcf7a99a1","system_id":"levelo_inurba_marseille","lat":43.286039,"lon":5.370679,"is_reserved":false,"is_disabled":false,"rental_uris":{"android":"levelo://app?vid=02b4dc01-bc43-4197-9165-7c1dcf7a99a1","ios":"levelo://app?vid=02b4dc01-bc43-4197-9165-7c1dcf7a99a1"},"vehicle_type_id":"4","last_reported":1724609383,"current_range_meters":0,"station_id":"ce4bht12rcd13ifvqi60","pricing_plan_id":"cebpf4jnsgd1na2vs0mg"},{"bike_id":"77f6f4a8-1837-456f-8bf6-7b6b962b2eb4","system_id":"levelo_inurba_marseille","lat":43.286039,"lon":5.370679,"is_reserved":false,"is_disabled":false,"rental_uris":{"android":"levelo://app?vid=77f6f4a8-1837-456f-8bf6-7b6b962b2eb4","ios":"levelo://app?vid=77f6f4a8-1837-456f-8bf6-7b6b962b2eb4"},"vehicle_type_id":"4","last_reported":1724609383,"current_range_meters":2800,"station_id":"ce4bht12rcd13ifvqi60","pricing_plan_id":"cebpf4jnsgd1na2vs0mg"},{"bike_id":"6d88fe53-6afa-46e5-9170-0b944f51ceb2","system_id":"levelo_inurba_marseille","lat":43.286039,"lon":5.370679,"is_reserved":false,"is_disabled":false,"rental_uris":{"android":"levelo://app?vid=6d88fe53-6afa-46e5-9170-0b944f51ceb2","ios":"levelo://app?vid=6d88fe53-6afa-46e5-9170-0b944f51ceb2"},"vehicle_type_id":"4","last_reported":1724609383,"current_range_meters":0,"station_id":"ce4bht12rcd13ifvqi60","pricing_plan_id":"cebpf4jnsgd1na2vs0mg"},{"bike_id":"8fb731f3-8832-4c01-8c63-718e1b5de6f5","system_id":"levelo_inurba_marseille","lat":43.286039,"lon":5.370679,"is_reserved":false,"is_disabled":false,"rental_uris":{"android":"levelo://app?vid=8fb731f3-8832-4c01-8c63-718e1b5de6f5","ios":"levelo://app?vid=8fb731f3-8832-4c01-8c63-718e1b5de6f5"},"vehicle_type_id":"4","last_reported":1724609383,"current_range_meters":9600,"station_id":"ce4bht12rcd13ifvqi60","pricing_plan_id":"cebpf4jnsgd1na2vs0mg"},{"bike_id":"d70d677d-d38e-4072-a5af-ed7cf727a7b4","system_id":"levelo_inurba_marseille","lat":43.287184,"lon":5.37937,"is_reserved":false,"is_disabled":false,"rental_uris":{"android":"levelo://app?vid=d70d677d-d38e-4072-a5af-ed7cf727a7b4","ios":"levelo://app?vid=d70d677d-d38e-4072-a5af-ed7cf727a7b4"},"vehicle_type_id":"4","last_reported":1724609383,"current_range_meters":1600,"station_id":"ce4bh9p2rcd13ifvqec0","pricing_plan_id":"cebpf4jnsgd1na2vs0mg"},{"bike_id":"257779ca-02b0-4330-903a-ab8c570063f2","system_id":"levelo_inurba_marseille","lat":43.316821,"lon":5.404737,"is_reserved":false,"is_disabled":false,"rental_uris":{"android":"levelo://app?vid=257779ca-02b0-4330-903a-ab8c570063f2","ios":"levelo://app?vid=257779ca-02b0-4330-903a-ab8c570063f2"},"vehicle_type_id":"4","last_reported":1724609383,"current_range_meters":0,"station_id":"ce4bh012rcd13ifvqd00","pricing_plan_id":"cebpf4jnsgd1na2vs0mg"},{"bike_id":"b2f82b84-b12d-43ad-8a8d-f81b46d9b9eb","system_id":"levelo_inurba_marseille","lat":43.291994,"lon":5.392907,"is_reserved":false,"is_disabled":false,"rental_uris":{"android":"levelo://app?vid=b2f82b84-b12d-43ad-8a8d-f81b46d9b9eb","ios":"levelo://app?vid=b2f82b84-b12d-43ad-8a8d-f81b46d9b9eb"},"vehicle_type_id":"4","last_reported":1724609383,"current_range_meters":0,"station_id":"ce4bh192rcd13ifvqdd0","pricing_plan_id":"cebpf4jnsgd1na2vs0mg"},{"bike_id":"55ea8aff-4511-464f-93d8-8513573f3f74","system_id":"levelo_inurba_marseille","lat":43.291994,"lon":5.392907,"is_reserved":false,"is_disabled":false,"rental_uris":{"android":"levelo://app?vid=55ea8aff-4511-464f-93d8-8513573f3f74","ios":"levelo://app?vid=55ea8aff-4511-464f-93d8-8513573f3f74"},"vehicle_type_id":"4","last_reported":1724609383,"current_range_meters":4400,"station_id":"ce4bh192rcd13ifvqdd0","pricing_plan_id":"cebpf4jnsgd1na2vs0mg"},{"bike_id":"db82d23e-096b-4bcf-88d3-6ad8ea87d1a6","system_id":"levelo_inurba_marseille","lat":43.291994,"lon":5.392907,"is_reserved":false,"is_disabled":false,"rental_uris":{"android":"levelo://app?vid=db82d23e-096b-4bcf-88d3-6ad8ea87d1a6","ios":"levelo://app?vid=db82d23e-096b-4bcf-88d3-6ad8ea87d1a6"},"vehicle_type_id":"4","last_reported":1724609383,"current_range_meters":25600,"station_id":"ce4bh192rcd13ifvqdd0","pricing_plan_id":"cebpf4jnsgd1na2vs0mg"},{"bike_id":"fcf2ce3f-fba3-47f1-9c03-5f7fadaec220","system_id":"levelo_inurba_marseille","lat":43.28461,"lon":5.3588,"is_reserved":false,"is_disabled":false,"rental_uris":{"android":"levelo://app?vid=fcf2ce3f-fba3-47f1-9c03-5f7fadaec220","ios":"levelo://app?vid=fcf2ce3f-fba3-47f1-9c03-5f7fadaec220"},"vehicle_type_id":"4","last_reported":1724609383,"current_range_meters":31200,"station_id":"ce4bhah2rcd13ifvqei0","pricing_plan_id":"cebpf4jnsgd1na2vs0mg"},{"bike_id":"ea6a99a7-1247-4d5c-9f4e-251a69b51474","system_id":"levelo_inurba_marseille","lat":43.294314,"lon":5.397498,"is_reserved":false,"is_disabled":false,"rental_uris":{"android":"levelo://app?vid=ea6a99a7-1247-4d5c-9f4e-251a69b51474","ios":"levelo://app?vid=ea6a99a7-1247-4d5c-9f4e-251a69b51474"},"vehicle_type_id":"4","last_reported":1724609383,"current_range_meters":22000,"station_id":"ce4bh3h2rcd13ifvqdo0","pricing_plan_id":"cebpf4jnsgd1na2vs0mg"},{"bike_id":"ba6acd2f-06fd-456f-b474-d343e9478a8e","system_id":"levelo_inurba_marseille","lat":43.285856,"lon":5.350771,"is_reserved":false,"is_disabled":false,"rental_uris":{"android":"levelo://app?vid=ba6acd2f-06fd-456f-b474-d343e9478a8e","ios":"levelo://app?vid=ba6acd2f-06fd-456f-b474-d343e9478a8e"},"vehicle_type_id":"4","last_reported":1724609383,"current_range_meters":1200,"station_id":"ce4bhch2rcd13ifvqeug","pricing_plan_id":"cebpf4jnsgd1na2vs0mg"},{"bike_id":"8d81d0a6-439f-4e6d-ba95-7c6c39fa4196","system_id":"levelo_inurba_marseille","lat":43.28609,"lon":5.35097,"is_reserved":false,"is_disabled":false,"rental_uris":{"android":"levelo://app?vid=8d81d0a6-439f-4e6d-ba95-7c6c39fa4196","ios":"levelo://app?vid=8d81d0a6-439f-4e6d-ba95-7c6c39fa4196"},"vehicle_type_id":"4","last_reported":1724609383,"current_range_meters":14400,"station_id":"ce4bhch2rcd13ifvqeug","pricing_plan_id":"cebpf4jnsgd1na2vs0mg"},{"bike_id":"a130eff6-201c-4ff7-a4e9-231292f2b383","system_id":"levelo_inurba_marseille","lat":43.28385,"lon":5.3729,"is_reserved":false,"is_disabled":false,"rental_uris":{"android":"levelo://app?vid=a130eff6-201c-4ff7-a4e9-231292f2b383","ios":"levelo://app?vid=a130eff6-201c-4ff7-a4e9-231292f2b383"},"vehicle_type_id":"4","last_reported":1724609383,"current_range_meters":14800,"station_id":"","pricing_plan_id":"cebpf4jnsgd1na2vs0mg"},{"bike_id":"1063001e-5197-4f6e-a895-973e6f404eec","system_id":"levelo_inurba_marseille","lat":43.295713,"lon":5.399639,"is_reserved":false,"is_disabled":false,"rental_uris":{"android":"levelo://app?vid=1063001e-5197-4f6e-a895-973e6f404eec","ios":"levelo://app?vid=1063001e-5197-4f6e-a895-973e6f404eec"},"vehicle_type_id":"4","last_reported":1724609383,"current_range_meters":4400,"station_id":"ce4bh312rcd13ifvqdj0","pricing_plan_id":"cebpf4jnsgd1na2vs0mg"},{"bike_id":"31afd34a-83fb-421d-99d5-98f09c206010","system_id":"levelo_inurba_marseille","lat":43.284082,"lon":5.37508,"is_reserved":false,"is_disabled":false,"rental_uris":{"android":"levelo://app?vid=31afd34a-83fb-421d-99d5-98f09c206010","ios":"levelo://app?vid=31afd34a-83fb-421d-99d5-98f09c206010"},"vehicle_type_id":"4","last_reported":1724609383,"current_range_meters":0,"station_id":"ce4bh412rcd13ifvqds0","pricing_plan_id":"cebpf4jnsgd1na2vs0mg"},{"bike_id":"41dda246-07b1-40c5-a9d2-fe9b40403158","system_id":"levelo_inurba_marseille","lat":43.28408,"lon":5.37522,"is_reserved":false,"is_disabled":false,"rental_uris":{"android":"levelo://app?vid=41dda246-07b1-40c5-a9d2-fe9b40403158","ios":"levelo://app?vid=41dda246-07b1-40c5-a9d2-fe9b40403158"},"vehicle_type_id":"4","last_reported":1724609383,"current_range_meters":0,"station_id":"ce4bh412rcd13ifvqds0","pricing_plan_id":"cebpf4jnsgd1na2vs0mg"},{"bike_id":"c87221be-143e-48ea-9c41-4ca1fc85c2a0","system_id":"levelo_inurba_marseille","lat":43.28406,"lon":5.37523,"is_reserved":false,"is_disabled":false,"rental_uris":{"android":"levelo://app?vid=c87221be-143e-48ea-9c41-4ca1fc85c2a0","ios":"levelo://app?vid=c87221be-143e-48ea-9c41-4ca1fc85c2a0"},"vehicle_type_id":"4","last_reported":1724609383,"current_range_meters":31600,"station_id":"ce4bh412rcd13ifvqds0","pricing_plan_id":"cebpf4jnsgd1na2vs0mg"},{"bike_id":"6e32ecb8-d581-4233-bf55-1c14471ab647","system_id":"levelo_inurba_marseille","lat":43.295713,"lon":5.399639,"is_reserved":false,"is_disabled":false,"rental_uris":{"android":"levelo://app?vid=6e32ecb8-d581-4233-bf55-1c14471ab647","ios":"levelo://app?vid=6e32ecb8-d581-4233-bf55-1c14471ab647"},"vehicle_type_id":"4","last_reported":1724609383,"current_range_meters":21600,"station_id":"ce4bh312rcd13ifvqdj0","pricing_plan_id":"cebpf4jnsgd1na2vs0mg"},{"bike_id":"ae80fe85-b65e-445c-8364-8bef31d58cf8","system_id":"levelo_inurba_marseille","lat":43.28403,"lon":5.37521,"is_reserved":false,"is_disabled":false,"rental_uris":{"android":"levelo://app?vid=ae80fe85-b65e-445c-8364-8bef31d58cf8","ios":"levelo://app?vid=ae80fe85-b65e-445c-8364-8bef31d58cf8"},"vehicle_type_id":"4","last_reported":1724609383,"current_range_meters":0,"station_id":"ce4bh412rcd13ifvqds0","pricing_plan_id":"cebpf4jnsgd1na2vs0mg"},{"bike_id":"0a20f34d-da06-414f-afe5-09d290e9aa00","system_id":"levelo_inurba_marseille","lat":43.295713,"lon":5.399639,"is_reserved":false,"is_disabled":false,"rental_uris":{"android":"levelo://app?vid=0a20f34d-da06-414f-afe5-09d290e9aa00","ios":"levelo://app?vid=0a20f34d-da06-414f-afe5-09d290e9aa00"},"vehicle_type_id":"4","last_reported":1724609383,"current_range_meters":6800,"station_id":"ce4bh312rcd13ifvqdj0","pricing_plan_id":"cebpf4jnsgd1na2vs0mg"},{"bike_id":"bdbc554f-4e0a-4cb2-9144-fead0799befc","system_id":"levelo_inurba_marseille","lat":43.28399,"lon":5.37509,"is_reserved":false,"is_disabled":false,"rental_uris":{"android":"levelo://app?vid=bdbc554f-4e0a-4cb2-9144-fead0799befc","ios":"levelo://app?vid=bdbc554f-4e0a-4cb2-9144-fead0799befc"},"vehicle_type_id":"4","last_reported":1724609383,"current_range_meters":22800,"station_id":"ce4bh412rcd13ifvqds0","pricing_plan_id":"cebpf4jnsgd1na2vs0mg"},{"bike_id":"86a3f111-1e9c-46fe-a796-d66d7927d714","system_id":"levelo_inurba_marseille","lat":43.295713,"lon":5.399639,"is_reserved":false,"is_disabled":false,"rental_uris":{"android":"levelo://app?vid=86a3f111-1e9c-46fe-a796-d66d7927d714","ios":"levelo://app?vid=86a3f111-1e9c-46fe-a796-d66d7927d714"},"vehicle_type_id":"4","last_reported":1724609383,"current_range_meters":25200,"station_id":"ce4bh312rcd13ifvqdj0","pricing_plan_id":"cebpf4jnsgd1na2vs0mg"},{"bike_id":"64fabc2c-2bb7-4308-9d95-f5223fb70875","system_id":"levelo_inurba_marseille","lat":43.295713,"lon":5.399639,"is_reserved":false,"is_disabled":false,"rental_uris":{"android":"levelo://app?vid=64fabc2c-2bb7-4308-9d95-f5223fb70875","ios":"levelo://app?vid=64fabc2c-2bb7-4308-9d95-f5223fb70875"},"vehicle_type_id":"4","last_reported":1724609383,"current_range_meters":28000,"station_id":"ce4bh312rcd13ifvqdj0","pricing_plan_id":"cebpf4jnsgd1na2vs0mg"},{"bike_id":"85bc420a-4c3a-42df-87ca-af165c7247bf","system_id":"levelo_inurba_marseille","lat":43.28679,"lon":5.38663,"is_reserved":false,"is_disabled":false,"rental_uris":{"android":"levelo://app?vid=85bc420a-4c3a-42df-87ca-af165c7247bf","ios":"levelo://app?vid=85bc420a-4c3a-42df-87ca-af165c7247bf"},"vehicle_type_id":"4","last_reported":1724609383,"current_range_meters":0,"station_id":"ce4bh492rcd13ifvqdug","pricing_plan_id":"cebpf4jnsgd1na2vs0mg"},{"bike_id":"cf839d12-ce24-4f91-9e61-ddc29bf38761","system_id":"levelo_inurba_marseille","lat":43.28672,"lon":5.38659,"is_reserved":false,"is_disabled":false,"rental_uris":{"android":"levelo://app?vid=cf839d12-ce24-4f91-9e61-ddc29bf38761","ios":"levelo://app?vid=cf839d12-ce24-4f91-9e61-ddc29bf38761"},"vehicle_type_id":"4","last_reported":1724609383,"current_range_meters":0,"station_id":"ce4bh492rcd13ifvqdug","pricing_plan_id":"cebpf4jnsgd1na2vs0mg"},{"bike_id":"48dc78e4-4c48-4015-bedf-d23ded65b204","system_id":"levelo_inurba_marseille","lat":43.283494,"lon":5.380945,"is_reserved":false,"is_disabled":false,"rental_uris":{"android":"levelo://app?vid=48dc78e4-4c48-4015-bedf-d23ded65b204","ios":"levelo://app?vid=48dc78e4-4c48-4015-bedf-d23ded65b204"},"vehicle_type_id":"4","last_reported":1724609383,"current_range_meters":27600,"station_id":"ce4bh412rcd13ifvqdr0","pricing_plan_id":"cebpf4jnsgd1na2vs0mg"},{"bike_id":"2c21bd71-c8bf-42a1-b716-84c70414e4e2","system_id":"levelo_inurba_marseille","lat":43.319179,"lon":5.407725,"is_reserved":false,"is_disabled":false,"rental_uris":{"android":"levelo://app?vid=2c21bd71-c8bf-42a1-b716-84c70414e4e2","ios":"levelo://app?vid=2c21bd71-c8bf-42a1-b716-84c70414e4e2"},"vehicle_type_id":"4","last_reported":1724609383,"current_range_meters":29600,"station_id":"ce4bhq12rcd13ifvqhig","pricing_plan_id":"cebpf4jnsgd1na2vs0mg"},{"bike_id":"7ec96f85-cc18-4f9d-aa92-54c18475cf7e","system_id":"levelo_inurba_marseille","lat":43.33717,"lon":5.391857,"is_reserved":false,"is_disabled":false,"rental_uris":{"android":"levelo://app?vid=7ec96f85-cc18-4f9d-aa92-54c18475cf7e","ios":"levelo://app?vid=7ec96f85-cc18-4f9d-aa92-54c18475cf7e"},"vehicle_type_id":"4","last_reported":1724609383,"current_range_meters":14000,"station_id":"ce4bhr92rcd13ifvqhsg","pricing_plan_id":"cebpf4jnsgd1na2vs0mg"},{"bike_id":"4f3f1d7e-794b-4fe9-8788-8dd15b22c4b1","system_id":"levelo_inurba_marseille","lat":43.33717,"lon":5.391857,"is_reserved":false,"is_disabled":false,"rental_uris":{"android":"levelo://app?vid=4f3f1d7e-794b-4fe9-8788-8dd15b22c4b1","ios":"levelo://app?vid=4f3f1d7e-794b-4fe9-8788-8dd15b22c4b1"},"vehicle_type_id":"4","last_reported":1724609383,"current_range_meters":25200,"station_id":"ce4bhr92rcd13ifvqhsg","pricing_plan_id":"cebpf4jnsgd1na2vs0mg"},{"bike_id":"1395dc19-cb63-41a8-9653-efb339005ebd","system_id":"levelo_inurba_marseille","lat":43.33717,"lon":5.391857,"is_reserved":false,"is_disabled":false,"rental_uris":{"android":"levelo://app?vid=1395dc19-cb63-41a8-9653-efb339005ebd","ios":"levelo://app?vid=1395dc19-cb63-41a8-9653-efb339005ebd"},"vehicle_type_id":"4","last_reported":1724609383,"current_range_meters":5600,"station_id":"ce4bhr92rcd13ifvqhsg","pricing_plan_id":"cebpf4jnsgd1na2vs0mg"},{"bike_id":"6193ccce-3307-4e5e-ad37-e9e361cda91b","system_id":"levelo_inurba_marseille","lat":43.28278,"lon":5.37433,"is_reserved":false,"is_disabled":false,"rental_uris":{"android":"levelo://app?vid=6193ccce-3307-4e5e-ad37-e9e361cda91b","ios":"levelo://app?vid=6193ccce-3307-4e5e-ad37-e9e361cda91b"},"vehicle_type_id":"4","last_reported":1724609383,"current_range_meters":18800,"station_id":"ce4bh412rcd13ifvqds0","pricing_plan_id":"cebpf4jnsgd1na2vs0mg"},{"bike_id":"6fe99fc2-88ec-45b1-b893-b9b53f7c0476","system_id":"levelo_inurba_marseille","lat":43.323464,"lon":5.406297,"is_reserved":false,"is_disabled":false,"rental_uris":{"android":"levelo://app?vid=6fe99fc2-88ec-45b1-b893-b9b53f7c0476","ios":"levelo://app?vid=6fe99fc2-88ec-45b1-b893-b9b53f7c0476"},"vehicle_type_id":"4","last_reported":1724609383,"current_range_meters":25600,"station_id":"ce4bhq92rcd13ifvqhjg","pricing_plan_id":"cebpf4jnsgd1na2vs0mg"},{"bike_id":"c0f3abac-04ec-4839-bc94-1b7c76bf4933","system_id":"levelo_inurba_marseille","lat":43.33724,"lon":5.39189,"is_reserved":false,"is_disabled":false,"rental_uris":{"android":"levelo://app?vid=c0f3abac-04ec-4839-bc94-1b7c76bf4933","ios":"levelo://app?vid=c0f3abac-04ec-4839-bc94-1b7c76bf4933"},"vehicle_type_id":"4","last_reported":1724609383,"current_range_meters":20400,"station_id":"ce4bhr92rcd13ifvqhsg","pricing_plan_id":"cebpf4jnsgd1na2vs0mg"},{"bike_id":"2a7eaa3a-82b6-4b8b-b567-8a70853c2243","system_id":"levelo_inurba_marseille","lat":43.32337,"lon":5.40627,"is_reserved":false,"is_disabled":false,"rental_uris":{"android":"levelo://app?vid=2a7eaa3a-82b6-4b8b-b567-8a70853c2243","ios":"levelo://app?vid=2a7eaa3a-82b6-4b8b-b567-8a70853c2243"},"vehicle_type_id":"4","last_reported":1724609383,"current_range_meters":20400,"station_id":"ce4bhq92rcd13ifvqhjg","pricing_plan_id":"cebpf4jnsgd1na2vs0mg"},{"bike_id":"38add2d5-95c8-49d3-ad30-48919e621bc7","system_id":"levelo_inurba_marseille","lat":43.2848,"lon":5.38414,"is_reserved":false,"is_disabled":false,"rental_uris":{"android":"levelo://app?vid=38add2d5-95c8-49d3-ad30-48919e621bc7","ios":"levelo://app?vid=38add2d5-95c8-49d3-ad30-48919e621bc7"},"vehicle_type_id":"4","last_reported":1724609383,"current_range_meters":0,"station_id":"ce4bh512rcd13ifvqe3g","pricing_plan_id":"cebpf4jnsgd1na2vs0mg"},{"bike_id":"2c8ccc5a-d59f-4f5b-ad50-d0b63bfb43d5","system_id":"levelo_inurba_marseille","lat":43.288501,"lon":5.393087,"is_reserved":false,"is_disabled":false,"rental_uris":{"android":"levelo://app?vid=2c8ccc5a-d59f-4f5b-ad50-d0b63bfb43d5","ios":"levelo://app?vid=2c8ccc5a-d59f-4f5b-ad50-d0b63bfb43d5"},"vehicle_type_id":"4","last_reported":1724609383,"current_range_meters":0,"station_id":"ce4bh2p2rcd13ifvqdi0","pricing_plan_id":"cebpf4jnsgd1na2vs0mg"},{"bike_id":"c814cb97-5145-401f-a04e-4855e165fda1","system_id":"levelo_inurba_marseille","lat":43.28346,"lon":5.38103,"is_reserved":false,"is_disabled":false,"rental_uris":{"android":"levelo://app?vid=c814cb97-5145-401f-a04e-4855e165fda1","ios":"levelo://app?vid=c814cb97-5145-401f-a04e-4855e165fda1"},"vehicle_type_id":"4","last_reported":1724609383,"current_range_meters":12800,"station_id":"ce4bh412rcd13ifvqdr0","pricing_plan_id":"cebpf4jnsgd1na2vs0mg"},{"bike_id":"133fb9e7-f15f-4841-ab6e-9976219b9daf","system_id":"levelo_inurba_marseille","lat":43.284214,"lon":5.349706,"is_reserved":false,"is_disabled":false,"rental_uris":{"android":"levelo://app?vid=133fb9e7-f15f-4841-ab6e-9976219b9daf","ios":"levelo://app?vid=133fb9e7-f15f-4841-ab6e-9976219b9daf"},"vehicle_type_id":"4","last_reported":1724609383,"current_range_meters":28800,"station_id":"ce4bhbh2rcd13ifvqepg","pricing_plan_id":"cebpf4jnsgd1na2vs0mg"},{"bike_id":"cd984143-e18e-4b46-b0bc-993e53096fd5","system_id":"levelo_inurba_marseille","lat":43.28421,"lon":5.34987,"is_reserved":false,"is_disabled":false,"rental_uris":{"android":"levelo://app?vid=cd984143-e18e-4b46-b0bc-993e53096fd5","ios":"levelo://app?vid=cd984143-e18e-4b46-b0bc-993e53096fd5"},"vehicle_type_id":"4","last_reported":1724609383,"current_range_meters":0,"station_id":"ce4bhbh2rcd13ifvqepg","pricing_plan_id":"cebpf4jnsgd1na2vs0mg"},{"bike_id":"f7138840-460b-448c-b8f5-1fb8afef20de","system_id":"levelo_inurba_marseille","lat":43.289363,"lon":5.396322,"is_reserved":false,"is_disabled":false,"rental_uris":{"android":"levelo://app?vid=f7138840-460b-448c-b8f5-1fb8afef20de","ios":"levelo://app?vid=f7138840-460b-448c-b8f5-1fb8afef20de"},"vehicle_type_id":"4","last_reported":1724609383,"current_range_meters":23200,"station_id":"ce4bh3h2rcd13ifvqdn0","pricing_plan_id":"cebpf4jnsgd1na2vs0mg"},{"bike_id":"7dd86f93-fae1-47f6-be23-6379acf23bc2","system_id":"levelo_inurba_marseille","lat":43.282754,"lon":5.350519,"is_reserved":false,"is_disabled":false,"rental_uris":{"android":"levelo://app?vid=7dd86f93-fae1-47f6-be23-6379acf23bc2","ios":"levelo://app?vid=7dd86f93-fae1-47f6-be23-6379acf23bc2"},"vehicle_type_id":"4","last_reported":1724609383,"current_range_meters":800,"station_id":"ce4bhbp2rcd13ifvqerg","pricing_plan_id":"cebpf4jnsgd1na2vs0mg"},{"bike_id":"092ae348-d05a-4c05-bd38-49e3ad0fcff9","system_id":"levelo_inurba_marseille","lat":43.283502,"lon":5.386471,"is_reserved":false,"is_disabled":false,"rental_uris":{"android":"levelo://app?vid=092ae348-d05a-4c05-bd38-49e3ad0fcff9","ios":"levelo://app?vid=092ae348-d05a-4c05-bd38-49e3ad0fcff9"},"vehicle_type_id":"4","last_reported":1724609383,"current_range_meters":16000,"station_id":"ce4bh492rcd13ifvqdvg","pricing_plan_id":"cebpf4jnsgd1na2vs0mg"},{"bike_id":"440ae497-8173-4333-ae0b-b0d51a79c126","system_id":"levelo_inurba_marseille","lat":43.283502,"lon":5.386471,"is_reserved":false,"is_disabled":false,"rental_uris":{"android":"levelo://app?vid=440ae497-8173-4333-ae0b-b0d51a79c126","ios":"levelo://app?vid=440ae497-8173-4333-ae0b-b0d51a79c126"},"vehicle_type_id":"4","last_reported":1724609383,"current_range_meters":5600,"station_id":"ce4bh492rcd13ifvqdvg","pricing_plan_id":"cebpf4jnsgd1na2vs0mg"},{"bike_id":"47bb7fe2-589c-4e4f-87c0-2af62c64a8de","system_id":"levelo_inurba_marseille","lat":43.282744,"lon":5.350533,"is_reserved":false,"is_disabled":false,"rental_uris":{"android":"levelo://app?vid=47bb7fe2-589c-4e4f-87c0-2af62c64a8de","ios":"levelo://app?vid=47bb7fe2-589c-4e4f-87c0-2af62c64a8de"},"vehicle_type_id":"4","last_reported":1724609383,"current_range_meters":23600,"station_id":"ce4bhbp2rcd13ifvqerg","pricing_plan_id":"cebpf4jnsgd1na2vs0mg"},{"bike_id":"71670679-8311-468f-aeb8-89f3f02dff8a","system_id":"levelo_inurba_marseille","lat":43.28039,"lon":5.369297,"is_reserved":false,"is_disabled":false,"rental_uris":{"android":"levelo://app?vid=71670679-8311-468f-aeb8-89f3f02dff8a","ios":"levelo://app?vid=71670679-8311-468f-aeb8-89f3f02dff8a"},"vehicle_type_id":"4","last_reported":1724609383,"current_range_meters":1200,"station_id":"ce4bha12rcd13ifvqef0","pricing_plan_id":"cebpf4jnsgd1na2vs0mg"},{"bike_id":"0ec73212-4603-479e-b18a-65330dcda2c5","system_id":"levelo_inurba_marseille","lat":43.283502,"lon":5.386471,"is_reserved":false,"is_disabled":false,"rental_uris":{"android":"levelo://app?vid=0ec73212-4603-479e-b18a-65330dcda2c5","ios":"levelo://app?vid=0ec73212-4603-479e-b18a-65330dcda2c5"},"vehicle_type_id":"4","last_reported":1724609383,"current_range_meters":29600,"station_id":"ce4bh492rcd13ifvqdvg","pricing_plan_id":"cebpf4jnsgd1na2vs0mg"},{"bike_id":"20679631-d71e-4167-8e62-f7dc72bc78dd","system_id":"levelo_inurba_marseille","lat":43.282436,"lon":5.35092,"is_reserved":false,"is_disabled":false,"rental_uris":{"android":"levelo://app?vid=20679631-d71e-4167-8e62-f7dc72bc78dd","ios":"levelo://app?vid=20679631-d71e-4167-8e62-f7dc72bc78dd"},"vehicle_type_id":"4","last_reported":1724609383,"current_range_meters":12800,"station_id":"ce4bhbp2rcd13ifvqerg","pricing_plan_id":"cebpf4jnsgd1na2vs0mg"},{"bike_id":"fe9bc983-e868-4bf9-971f-253411a926f9","system_id":"levelo_inurba_marseille","lat":43.29041,"lon":5.399634,"is_reserved":false,"is_disabled":false,"rental_uris":{"android":"levelo://app?vid=fe9bc983-e868-4bf9-971f-253411a926f9","ios":"levelo://app?vid=fe9bc983-e868-4bf9-971f-253411a926f9"},"vehicle_type_id":"4","last_reported":1724609383,"current_range_meters":3600,"station_id":"ce4bh392rcd13ifvqdm0","pricing_plan_id":"cebpf4jnsgd1na2vs0mg"},{"bike_id":"26e4dcfd-62a0-4086-a21c-e24094596ced","system_id":"levelo_inurba_marseille","lat":43.2876,"lon":5.39557,"is_reserved":false,"is_disabled":false,"rental_uris":{"android":"levelo://app?vid=26e4dcfd-62a0-4086-a21c-e24094596ced","ios":"levelo://app?vid=26e4dcfd-62a0-4086-a21c-e24094596ced"},"vehicle_type_id":"4","last_reported":1724609383,"current_range_meters":16400,"station_id":"","pricing_plan_id":"cebpf4jnsgd1na2vs0mg"},{"bike_id":"1da3dfb5-b0f9-4447-8a8e-afe3e7e24914","system_id":"levelo_inurba_marseille","lat":43.284462,"lon":5.392121,"is_reserved":false,"is_disabled":false,"rental_uris":{"android":"levelo://app?vid=1da3dfb5-b0f9-4447-8a8e-afe3e7e24914","ios":"levelo://app?vid=1da3dfb5-b0f9-4447-8a8e-afe3e7e24914"},"vehicle_type_id":"4","last_reported":1724609383,"current_range_meters":18400,"station_id":"ce4bhoh2rcd13ifvqh5g","pricing_plan_id":"cebpf4jnsgd1na2vs0mg"},{"bike_id":"10501824-5cd4-4631-af35-ed22ca4876a8","system_id":"levelo_inurba_marseille","lat":43.326605,"lon":5.409903,"is_reserved":false,"is_disabled":false,"rental_uris":{"android":"levelo://app?vid=10501824-5cd4-4631-af35-ed22ca4876a8","ios":"levelo://app?vid=10501824-5cd4-4631-af35-ed22ca4876a8"},"vehicle_type_id":"4","last_reported":1724609383,"current_range_meters":22400,"station_id":"ce4bhpp2rcd13ifvqhgg","pricing_plan_id":"cebpf4jnsgd1na2vs0mg"},{"bike_id":"b6cf2a3c-babb-492b-b3be-b491572ee3b3","system_id":"levelo_inurba_marseille","lat":43.326605,"lon":5.409903,"is_reserved":false,"is_disabled":false,"rental_uris":{"android":"levelo://app?vid=b6cf2a3c-babb-492b-b3be-b491572ee3b3","ios":"levelo://app?vid=b6cf2a3c-babb-492b-b3be-b491572ee3b3"},"vehicle_type_id":"4","last_reported":1724609383,"current_range_meters":11200,"station_id":"ce4bhpp2rcd13ifvqhgg","pricing_plan_id":"cebpf4jnsgd1na2vs0mg"},{"bike_id":"d846efcf-8047-4eae-b0af-6782e1896c1b","system_id":"levelo_inurba_marseille","lat":43.326605,"lon":5.409903,"is_reserved":false,"is_disabled":false,"rental_uris":{"android":"levelo://app?vid=d846efcf-8047-4eae-b0af-6782e1896c1b","ios":"levelo://app?vid=d846efcf-8047-4eae-b0af-6782e1896c1b"},"vehicle_type_id":"4","last_reported":1724609383,"current_range_meters":23200,"station_id":"ce4bhpp2rcd13ifvqhgg","pricing_plan_id":"cebpf4jnsgd1na2vs0mg"},{"bike_id":"2bb92ebe-3f8a-437a-9751-795b197cc62d","system_id":"levelo_inurba_marseille","lat":43.326605,"lon":5.409903,"is_reserved":false,"is_disabled":false,"rental_uris":{"android":"levelo://app?vid=2bb92ebe-3f8a-437a-9751-795b197cc62d","ios":"levelo://app?vid=2bb92ebe-3f8a-437a-9751-795b197cc62d"},"vehicle_type_id":"4","last_reported":1724609383,"current_range_meters":14000,"station_id":"ce4bhpp2rcd13ifvqhgg","pricing_plan_id":"cebpf4jnsgd1na2vs0mg"},{"bike_id":"2a9a31d2-4e98-421a-ae7b-172e845327e6","system_id":"levelo_inurba_marseille","lat":43.28286,"lon":5.39222,"is_reserved":false,"is_disabled":false,"rental_uris":{"android":"levelo://app?vid=2a9a31d2-4e98-421a-ae7b-172e845327e6","ios":"levelo://app?vid=2a9a31d2-4e98-421a-ae7b-172e845327e6"},"vehicle_type_id":"4","last_reported":1724609383,"current_range_meters":400,"station_id":"","pricing_plan_id":"cebpf4jnsgd1na2vs0mg"},{"bike_id":"794015b3-55f9-4a18-aa2e-4ad5e4e24dc6","system_id":"levelo_inurba_marseille","lat":43.287154,"lon":5.399979,"is_reserved":false,"is_disabled":false,"rental_uris":{"android":"levelo://app?vid=794015b3-55f9-4a18-aa2e-4ad5e4e24dc6","ios":"levelo://app?vid=794015b3-55f9-4a18-aa2e-4ad5e4e24dc6"},