{"last_updated":1758284466,"ttl":60,"version":"2.2","data":{"bikes":[{"bike_id":"9d9657cc-bf12-4c97-ab44-bd9c20d38204","system_id":"levelo_inurba_marseille","lat":43.26559,"lon":5.37304,"is_reserved":false,"is_disabled":false,"rental_uris":{"android":"levelo://app?vid=9d9657cc-bf12-4c97-ab44-bd9c20d38204","ios":"levelo://app?vid=9d9657cc-bf12-4c97-ab44-bd9c20d38204"},"vehicle_type_id":"4","last_reported":1758284466,"current_range_meters":2800,"station_id":"ce4bhg12rcd13ifvqf70","pricing_plan_id":"cebpf4jnsgd1na2vs0mg"},{"bike_id":"56186262-2349-44a1-a1dc-1b1795741e24","system_id":"levelo_inurba_marseille","lat":43.28153,"lon":5.42635,"is_reserved":false,"is_disabled":false,"rental_uris":{"android":"levelo://app?vid=56186262-2349-44a1-a1dc-1b1795741e24","ios":"levelo://app?vid=56186262-2349-44a1-a1dc-1b1795741e24"},"vehicle_type_id":"4","last_reported":1758284466,"current_range_meters":2800,"station_id":"ce4bhnh2rcd13ifvqgug","pricing_plan_id":"cebpf4jnsgd1na2vs0mg"},{"bike_id":"3f52eb0b-06b9-41a5-9bb7-d5cc79f3f1f9","system_id":"levelo_inurba_marseille","lat":43.295765,"lon":5.367365,"is_reserved":false,"is_disabled":false,"rental_uris":{"android":"levelo://app?vid=3f52eb0b-06b9-41a5-9bb7-d5cc79f3f1f9","ios":"levelo://app?vid=3f52eb0b-06b9-41a5-9bb7-d5cc79f3f1f9"},"vehicle_type_id":"4","last_reported":1758284466,"current_range_meters":2800,"station_id":"ce4bgph2rcd13ifvqc2g","pricing_plan_id":"cebpf4jnsgd1na2vs0mg"},{"bike_id":"124f5b4a-4d71-49e1-a60e-37af790d4a52","system_id":"levelo_inurba_marseille","lat":43.28621,"lon":5.35099,"is_reserved":false,"is_disabled":false,"rental_uris":{"android":"levelo://app?vid=124f5b4a-4d71-49e1-a60e-37af790d4a52","ios":"levelo://app?vid=124f5b4a-4d71-49e1-a60e-37af790d4a52"},"vehicle_type_id":"4","last_reported":1758284466,"current_range_meters":2800,"station_id":"ce4bhch2rcd13ifvqeug","pricing_plan_id":"cebpf4jnsgd1na2vs0mg"},{"bike_id":"9e8ba0e9-c1f2-4994-b7bb-8f7bbd1c5384","system_id":"levelo_inurba_marseille","lat":43.287,"lon":5.39978,"is_reserved":false,"is_disabled":false,"rental_uris":{"android":"levelo://app?vid=9e8ba0e9-c1f2-4994-b7bb-8f7bbd1c5384","ios":"levelo://app?vid=9e8ba0e9-c1f2-4994-b7bb-8f7bbd1c5384"},"vehicle_type_id":"4","last_reported":1758284466,"current_range_meters":2800,"station_id":"ce4bho92rcd13ifvqh3g","pricing_plan_id":"cebpf4jnsgd1na2vs0mg"},{"bike_id":"d2781235-756c-47b1-97ed-3f55daf7f2d0","system_id":"levelo_inurba_marseille","lat":43.28727,"lon":5.39967,"is_reserved":false,"is_disabled":false,"rental_uris":{"android":"levelo://app?vid=d2781235-756c-47b1-97ed-3f55daf7f2d0","ios":"levelo://app?vid=d2781235-756c-47b1-97ed-3f55daf7f2d0"},"vehicle_type_id":"4","last_reported":1758284466,"current_range_meters":3200,"station_id":"ce4bho92rcd13ifvqh3g","pricing_plan_id":"cebpf4jnsgd1na2vs0mg"},{"bike_id":"7a5e898e-ed66-4659-a123-882313c2201a","system_id":"levelo_inurba_marseille","lat":43.26194,"lon":5.3745,"is_reserved":false,"is_disabled":false,"rental_uris":{"android":"levelo://app?vid=7a5e898e-ed66-4659-a123-882313c2201a","ios":"levelo://app?vid=7a5e898e-ed66-4659-a123-882313c2201a"},"vehicle_type_id":"4","last_reported":1758284466,"current_range_meters":3200,"station_id":"ce4bhgp2rcd13ifvqfc0","pricing_plan_id":"cebpf4jnsgd1na2vs0mg"},{"bike_id":"e7821c86-ca8b-43d2-82b0-3861db32b2df","system_id":"levelo_inurba_marseille","lat":43.29036,"lon":5.35919,"is_reserved":false,"is_disabled":false,"rental_uris":{"android":"levelo://app?vid=e7821c86-ca8b-43d2-82b0-3861db32b2df","ios":"levelo://app?vid=e7821c86-ca8b-43d2-82b0-3861db32b2df"},"vehicle_type_id":"4","last_reported":1758284466,"current_range_meters":3200,"station_id":"ce4bha92rcd13ifvqeg0","pricing_plan_id":"cebpf4jnsgd1na2vs0mg"},{"bike_id":"8fac2c88-85e0-4a24-bad6-c633ef681db7","system_id":"levelo_inurba_marseille","lat":43.29975,"lon":5.38494,"is_reserved":false,"is_disabled":false,"rental_uris":{"android":"levelo://app?vid=8fac2c88-85e0-4a24-bad6-c633ef681db7","ios":"levelo://app?vid=8fac2c88-85e0-4a24-bad6-c633ef681db7"},"vehicle_type_id":"4","last_reported":1758284466,"current_range_meters":2800,"station_id":"ce4bgj92rcd13ifvqbd0","pricing_plan_id":"cebpf4jnsgd1na2vs0mg"},{"bike_id":"558a073a-3f70-430b-a000-e520d9ad750c","system_id":"levelo_inurba_marseille","lat":43.2119,"lon":5.35067,"is_reserved":false,"is_disabled":false,"rental_uris":{"android":"levelo://app?vid=558a073a-3f70-430b-a000-e520d9ad750c","ios":"levelo://app?vid=558a073a-3f70-430b-a000-e520d9ad750c"},"vehicle_type_id":"4","last_reported":1758284466,"current_range_meters":3600,"station_id":"st_cvj6sg6p6f1abm77japg","pricing_plan_id":"cebpf4jnsgd1na2vs0mg"},{"bike_id":"52670db5-db61-47cd-b1f1-4e653afdbd40","system_id":"levelo_inurba_marseille","lat":43.29784,"lon":5.39343,"is_reserved":false,"is_disabled":false,"rental_uris":{"android":"levelo://app?vid=52670db5-db61-47cd-b1f1-4e653afdbd40","ios":"levelo://app?vid=52670db5-db61-47cd-b1f1-4e653afdbd40"},"vehicle_type_id":"4","last_reported":1758284466,"current_range_meters":3600,"station_id":"chh1huq6cuj3fo74tm60","pricing_plan_id":"cebpf4jnsgd1na2vs0mg"},{"bike_id":"190d0825-c1b9-4efd-8a03-d87285d4a5b6","system_id":"levelo_inurba_marseille","lat":43.29803,"lon":5.37737,"is_reserved":false,"is_disabled":false,"rental_uris":{"android":"levelo://app?vid=190d0825-c1b9-4efd-8a03-d87285d4a5b6","ios":"levelo://app?vid=190d0825-c1b9-4efd-8a03-d87285d4a5b6"},"vehicle_type_id":"4","last_reported":1758284466,"current_range_meters":3600,"station_id":"","pricing_plan_id":"cebpf4jnsgd1na2vs0mg"},{"bike_id":"311ef54f-04b4-4051-bca7-20cd2d81c174","system_id":"levelo_inurba_marseille","lat":43.26558,"lon":5.37297,"is_reserved":false,"is_disabled":false,"rental_uris":{"android":"levelo://app?vid=311ef54f-04b4-4051-bca7-20cd2d81c174","ios":"levelo://app?vid=311ef54f-04b4-4051-bca7-20cd2d81c174"},"vehicle_type_id":"4","last_reported":1758284466,"current_range_meters":3600,"station_id":"ce4bhg12rcd13ifvqf70","pricing_plan_id":"cebpf4jnsgd1na2vs0mg"},{"bike_id":"5a224603-8158-4ff2-9744-9555b70a3e83","system_id":"levelo_inurba_marseille","lat":43.30543,"lon":5.36541,"is_reserved":false,"is_disabled":false,"rental_uris":{"android":"levelo://app?vid=5a224603-8158-4ff2-9744-9555b70a3e83","ios":"levelo://app?vid=5a224603-8158-4ff2-9744-9555b70a3e83"},"vehicle_type_id":"4","last_reported":1758284466,"current_range_meters":3600,"station_id":"ce4bgs12rcd13ifvqcag","pricing_plan_id":"cebpf4jnsgd1na2vs0mg"},{"bike_id":"059c0ba7-1dcb-4f29-8d05-6060640937cc","system_id":"levelo_inurba_marseille","lat":43.32368,"lon":5.38914,"is_reserved":false,"is_disabled":false,"rental_uris":{"android":"levelo://app?vid=059c0ba7-1dcb-4f29-8d05-6060640937cc","ios":"levelo://app?vid=059c0ba7-1dcb-4f29-8d05-6060640937cc"},"vehicle_type_id":"4","last_reported":1758284466,"current_range_meters":4000,"station_id":"ce4bhqp2rcd13ifvqhog","pricing_plan_id":"cebpf4jnsgd1na2vs0mg"},{"bike_id":"31335695-e9d7-4850-9c46-7b3a03a506d9","system_id":"levelo_inurba_marseille","lat":43.29547,"lon":5.39423,"is_reserved":false,"is_disabled":false,"rental_uris":{"android":"levelo://app?vid=31335695-e9d7-4850-9c46-7b3a03a506d9","ios":"levelo://app?vid=31335695-e9d7-4850-9c46-7b3a03a506d9"},"vehicle_type_id":"4","last_reported":1758284466,"current_range_meters":4000,"station_id":"ce4bh292rcd13ifvqdf0","pricing_plan_id":"cebpf4jnsgd1na2vs0mg"},{"bike_id":"fdd13ad1-62e2-4bbc-ad83-2d32f1c5a50b","system_id":"levelo_inurba_marseille","lat":43.337444,"lon":5.374475,"is_reserved":false,"is_disabled":false,"rental_uris":{"android":"levelo://app?vid=fdd13ad1-62e2-4bbc-ad83-2d32f1c5a50b","ios":"levelo://app?vid=fdd13ad1-62e2-4bbc-ad83-2d32f1c5a50b"},"vehicle_type_id":"4","last_reported":1758284466,"current_range_meters":4400,"station_id":"","pricing_plan_id":"cebpf4jnsgd1na2vs0mg"},{"bike_id":"7958101c-8bf6-426c-a476-ab39e07493fb","system_id":"levelo_inurba_marseille","lat":43.33024,"lon":5.39042,"is_reserved":false,"is_disabled":false,"rental_uris":{"android":"levelo://app?vid=7958101c-8bf6-426c-a476-ab39e07493fb","ios":"levelo://app?vid=7958101c-8bf6-426c-a476-ab39e07493fb"},"vehicle_type_id":"4","last_reported":1758284466,"current_range_meters":4400,"station_id":"ce4bhr92rcd13ifvqhrg","pricing_plan_id":"cebpf4jnsgd1na2vs0mg"},{"bike_id":"9fa67bda-1a9c-438e-9a2d-6d533f957ed9","system_id":"levelo_inurba_marseille","lat":43.26686,"lon":5.38267,"is_reserved":false,"is_disabled":false,"rental_uris":{"android":"levelo://app?vid=9fa67bda-1a9c-438e-9a2d-6d533f957ed9","ios":"levelo://app?vid=9fa67bda-1a9c-438e-9a2d-6d533f957ed9"},"vehicle_type_id":"4","last_reported":1758284466,"current_range_meters":4400,"station_id":"ce4bhg92rcd13ifvqf90","pricing_plan_id":"cebpf4jnsgd1na2vs0mg"},{"bike_id":"71f98bea-d2c6-4708-9011-517b72f720c3","system_id":"levelo_inurba_marseille","lat":43.22509,"lon":5.41628,"is_reserved":false,"is_disabled":false,"rental_uris":{"android":"levelo://app?vid=71f98bea-d2c6-4708-9011-517b72f720c3","ios":"levelo://app?vid=71f98bea-d2c6-4708-9011-517b72f720c3"},"vehicle_type_id":"4","last_reported":1758284466,"current_range_meters":4400,"station_id":"","pricing_plan_id":"cebpf4jnsgd1na2vs0mg"},{"bike_id":"67d70ad3-efca-42cd-b410-89e44cdae1cb","system_id":"levelo_inurba_marseille","lat":43.2994,"lon":5.36541,"is_reserved":false,"is_disabled":false,"rental_uris":{"android":"levelo://app?vid=67d70ad3-efca-42cd-b410-89e44cdae1cb","ios":"levelo://app?vid=67d70ad3-efca-42cd-b410-89e44cdae1cb"},"vehicle_type_id":"4","last_reported":1758284466,"current_range_meters":4800,"station_id":"ce4bgm92rcd13ifvqbr0","pricing_plan_id":"cebpf4jnsgd1na2vs0mg"},{"bike_id":"c5c81458-f2d6-4cc0-80b6-c5ba9e491693","system_id":"levelo_inurba_marseille","lat":43.28724,"lon":5.36092,"is_reserved":false,"is_disabled":false,"rental_uris":{"android":"levelo://app?vid=c5c81458-f2d6-4cc0-80b6-c5ba9e491693","ios":"levelo://app?vid=c5c81458-f2d6-4cc0-80b6-c5ba9e491693"},"vehicle_type_id":"4","last_reported":1758284466,"current_range_meters":4800,"station_id":"cki0cbj6b192h4jlfktg","pricing_plan_id":"cebpf4jnsgd1na2vs0mg"},{"bike_id":"86b4a0bb-d0b0-44e0-b003-ac8fa46f6d2b","system_id":"levelo_inurba_marseille","lat":43.284155,"lon":5.349736,"is_reserved":false,"is_disabled":false,"rental_uris":{"android":"levelo://app?vid=86b4a0bb-d0b0-44e0-b003-ac8fa46f6d2b","ios":"levelo://app?vid=86b4a0bb-d0b0-44e0-b003-ac8fa46f6d2b"},"vehicle_type_id":"4","last_reported":1758284466,"current_range_meters":5600,"station_id":"ce4bhbh2rcd13ifvqepg","pricing_plan_id":"cebpf4jnsgd1na2vs0mg"},{"bike_id":"b1bab773-b7e3-4854-a277-a7027b05fb92","system_id":"levelo_inurba_marseille","lat":43.29223,"lon":5.36056,"is_reserved":false,"is_disabled":false,"rental_uris":{"android":"levelo://app?vid=b1bab773-b7e3-4854-a277-a7027b05fb92","ios":"levelo://app?vid=b1bab773-b7e3-4854-a277-a7027b05fb92"},"vehicle_type_id":"4","last_reported":1758284466,"current_range_meters":5600,"station_id":"ce4bhbh2rcd13ifvqeqg","pricing_plan_id":"cebpf4jnsgd1na2vs0mg"},{"bike_id":"1b3aa6e2-785f-45ab-bda6-802882734c96","system_id":"levelo_inurba_marseille","lat":43.30548,"lon":5.36549,"is_reserved":false,"is_disabled":false,"rental_uris":{"android":"levelo://app?vid=1b3aa6e2-785f-45ab-bda6-802882734c96","ios":"levelo://app?vid=1b3aa6e2-785f-45ab-bda6-802882734c96"},"vehicle_type_id":"4","last_reported":1758284466,"current_range_meters":5600,"station_id":"ce4bgs12rcd13ifvqcag","pricing_plan_id":"cebpf4jnsgd1na2vs0mg"},{"bike_id":"45afe5f4-5cbe-49c2-a913-33c967100178","system_id":"levelo_inurba_marseille","lat":43.29776,"lon":5.380931,"is_reserved":false,"is_disabled":false,"rental_uris":{"android":"levelo://app?vid=45afe5f4-5cbe-49c2-a913-33c967100178","ios":"levelo://app?vid=45afe5f4-5cbe-49c2-a913-33c967100178"},"vehicle_type_id":"4","last_reported":1758284466,"current_range_meters":5600,"station_id":"","pricing_plan_id":"cebpf4jnsgd1na2vs0mg"},{"bike_id":"e29071ed-31e0-4c2c-bfa0-1708e5f7a3d0","system_id":"levelo_inurba_marseille","lat":43.24386,"lon":5.37058,"is_reserved":false,"is_disabled":false,"rental_uris":{"android":"levelo://app?vid=e29071ed-31e0-4c2c-bfa0-1708e5f7a3d0","ios":"levelo://app?vid=e29071ed-31e0-4c2c-bfa0-1708e5f7a3d0"},"vehicle_type_id":"4","last_reported":1758284466,"current_range_meters":5600,"station_id":"ce4bhhh2rcd13ifvqfk0","pricing_plan_id":"cebpf4jnsgd1na2vs0mg"},{"bike_id":"4753981a-52b2-4b7d-8c02-9e34c950cc2f","system_id":"levelo_inurba_marseille","lat":43.22555,"lon":5.41617,"is_reserved":false,"is_disabled":false,"rental_uris":{"android":"levelo://app?vid=4753981a-52b2-4b7d-8c02-9e34c950cc2f","ios":"levelo://app?vid=4753981a-52b2-4b7d-8c02-9e34c950cc2f"},"vehicle_type_id":"4","last_reported":1758284466,"current_range_meters":6000,"station_id":"st_d2o4gvlbi1j2169b742g","pricing_plan_id":"cebpf4jnsgd1na2vs0mg"},{"bike_id":"6d927206-3030-4a60-9097-b3c153b6a12e","system_id":"levelo_inurba_marseille","lat":43.32362,"lon":5.36754,"is_reserved":false,"is_disabled":false,"rental_uris":{"android":"levelo://app?vid=6d927206-3030-4a60-9097-b3c153b6a12e","ios":"levelo://app?vid=6d927206-3030-4a60-9097-b3c153b6a12e"},"vehicle_type_id":"4","last_reported":1758284466,"current_range_meters":6000,"station_id":"ce4bhsh2rcd13ifvqi2g","pricing_plan_id":"cebpf4jnsgd1na2vs0mg"},{"bike_id":"61beea36-4bda-4aa6-84ea-eeb119cc83ff","system_id":"levelo_inurba_marseille","lat":43.225324,"lon":5.348382,"is_reserved":false,"is_disabled":false,"rental_uris":{"android":"levelo://app?vid=61beea36-4bda-4aa6-84ea-eeb119cc83ff","ios":"levelo://app?vid=61beea36-4bda-4aa6-84ea-eeb119cc83ff"},"vehicle_type_id":"4","last_reported":1758284466,"current_range_meters":6000,"station_id":"","pricing_plan_id":"cebpf4jnsgd1na2vs0mg"},{"bike_id":"55dabd6d-650f-4485-8c0b-6a5763700e61","system_id":"levelo_inurba_marseille","lat":43.25768,"lon":5.38719,"is_reserved":false,"is_disabled":false,"rental_uris":{"android":"levelo://app?vid=55dabd6d-650f-4485-8c0b-6a5763700e61","ios":"levelo://app?vid=55dabd6d-650f-4485-8c0b-6a5763700e61"},"vehicle_type_id":"4","last_reported":1758284466,"current_range_meters":6000,"station_id":"","pricing_plan_id":"cebpf4jnsgd1na2vs0mg"},{"bike_id":"46ee1885-c794-45d5-b5da-b252ed1cdda4","system_id":"levelo_inurba_marseille","lat":43.29034,"lon":5.39981,"is_reserved":false,"is_disabled":false,"rental_uris":{"android":"levelo://app?vid=46ee1885-c794-45d5-b5da-b252ed1cdda4","ios":"levelo://app?vid=46ee1885-c794-45d5-b5da-b252ed1cdda4"},"vehicle_type_id":"4","last_reported":1758284466,"current_range_meters":6000,"station_id":"ce4bh392rcd13ifvqdm0","pricing_plan_id":"cebpf4jnsgd1na2vs0mg"},{"bike_id":"02f38e6c-4246-4037-9ff5-0d912ec54afe","system_id":"levelo_inurba_marseille","lat":43.30149,"lon":5.37425,"is_reserved":false,"is_disabled":false,"rental_uris":{"android":"levelo://app?vid=02f38e6c-4246-4037-9ff5-0d912ec54afe","ios":"levelo://app?vid=02f38e6c-4246-4037-9ff5-0d912ec54afe"},"vehicle_type_id":"4","last_reported":1758284466,"current_range_meters":6400,"station_id":"ce4bgs92rcd13ifvqcc0","pricing_plan_id":"cebpf4jnsgd1na2vs0mg"},{"bike_id":"55dfb17a-dc13-4669-82ac-2c676d600c2d","system_id":"levelo_inurba_marseille","lat":43.31351,"lon":5.37936,"is_reserved":false,"is_disabled":true,"rental_uris":{"android":"levelo://app?vid=55dfb17a-dc13-4669-82ac-2c676d600c2d","ios":"levelo://app?vid=55dfb17a-dc13-4669-82ac-2c676d600c2d"},"vehicle_type_id":"4","last_reported":1758284466,"current_range_meters":6400,"station_id":"","pricing_plan_id":"cebpf4jnsgd1na2vs0mg"},{"bike_id":"74aace28-2330-4c82-94ab-8a8480980b3e","system_id":"levelo_inurba_marseille","lat":43.28275,"lon":5.35067,"is_reserved":false,"is_disabled":false,"rental_uris":{"android":"levelo://app?vid=74aace28-2330-4c82-94ab-8a8480980b3e","ios":"levelo://app?vid=74aace28-2330-4c82-94ab-8a8480980b3e"},"vehicle_type_id":"4","last_reported":1758284466,"current_range_meters":6400,"station_id":"ce4bhbp2rcd13ifvqerg","pricing_plan_id":"cebpf4jnsgd1na2vs0mg"},{"bike_id":"b9b1a6f2-4b6a-4148-b0b6-d88058693b76","system_id":"levelo_inurba_marseille","lat":43.31354,"lon":5.36714,"is_reserved":false,"is_disabled":false,"rental_uris":{"android":"levelo://app?vid=b9b1a6f2-4b6a-4148-b0b6-d88058693b76","ios":"levelo://app?vid=b9b1a6f2-4b6a-4148-b0b6-d88058693b76"},"vehicle_type_id":"4","last_reported":1758284466,"current_range_meters":6400,"station_id":"ce4bgr92rcd13ifvqc6g","pricing_plan_id":"cebpf4jnsgd1na2vs0mg"},{"bike_id":"067947ac-795d-41d9-a3ec-150d272541aa","system_id":"levelo_inurba_marseille","lat":43.290719,"lon":5.371596,"is_reserved":false,"is_disabled":false,"rental_uris":{"android":"levelo://app?vid=067947ac-795d-41d9-a3ec-150d272541aa","ios":"levelo://app?vid=067947ac-795d-41d9-a3ec-150d272541aa"},"vehicle_type_id":"4","last_reported":1758284466,"current_range_meters":6400,"station_id":"ce4bh5p2rcd13ifvqe4g","pricing_plan_id":"cebpf4jnsgd1na2vs0mg"},{"bike_id":"7745eab8-3d48-4349-b863-861b7cc7cbd1","system_id":"levelo_inurba_marseille","lat":43.290054,"lon":5.381405,"is_reserved":false,"is_disabled":false,"rental_uris":{"android":"levelo://app?vid=7745eab8-3d48-4349-b863-861b7cc7cbd1","ios":"levelo://app?vid=7745eab8-3d48-4349-b863-861b7cc7cbd1"},"vehicle_type_id":"4","last_reported":1758284466,"current_range_meters":6800,"station_id":"","pricing_plan_id":"cebpf4jnsgd1na2vs0mg"},{"bike_id":"51d4ce14-98c5-45f7-9b3b-b9e2eea9169a","system_id":"levelo_inurba_marseille","lat":43.3014,"lon":5.37422,"is_reserved":false,"is_disabled":false,"rental_uris":{"android":"levelo://app?vid=51d4ce14-98c5-45f7-9b3b-b9e2eea9169a","ios":"levelo://app?vid=51d4ce14-98c5-45f7-9b3b-b9e2eea9169a"},"vehicle_type_id":"4","last_reported":1758284466,"current_range_meters":6800,"station_id":"ce4bgs92rcd13ifvqcc0","pricing_plan_id":"cebpf4jnsgd1na2vs0mg"},{"bike_id":"c4a2afb2-abb5-49a9-904f-cc1532b729c7","system_id":"levelo_inurba_marseille","lat":43.2826,"lon":5.35076,"is_reserved":false,"is_disabled":false,"rental_uris":{"android":"levelo://app?vid=c4a2afb2-abb5-49a9-904f-cc1532b729c7","ios":"levelo://app?vid=c4a2afb2-abb5-49a9-904f-cc1532b729c7"},"vehicle_type_id":"4","last_reported":1758284466,"current_range_meters":6800,"station_id":"ce4bhbp2rcd13ifvqerg","pricing_plan_id":"cebpf4jnsgd1na2vs0mg"},{"bike_id":"cdb784fc-5414-4b08-8b37-3a5ae6d1953d","system_id":"levelo_inurba_marseille","lat":43.29927,"lon":5.36501,"is_reserved":false,"is_disabled":false,"rental_uris":{"android":"levelo://app?vid=cdb784fc-5414-4b08-8b37-3a5ae6d1953d","ios":"levelo://app?vid=cdb784fc-5414-4b08-8b37-3a5ae6d1953d"},"vehicle_type_id":"4","last_reported":1758284466,"current_range_meters":6800,"station_id":"ce4bgm92rcd13ifvqbr0","pricing_plan_id":"cebpf4jnsgd1na2vs0mg"},{"bike_id":"db4f4adf-40b1-4565-bd9a-028f015dde18","system_id":"levelo_inurba_marseille","lat":43.299596,"lon":5.413202,"is_reserved":false,"is_disabled":false,"rental_uris":{"android":"levelo://app?vid=db4f4adf-40b1-4565-bd9a-028f015dde18","ios":"levelo://app?vid=db4f4adf-40b1-4565-bd9a-028f015dde18"},"vehicle_type_id":"4","last_reported":1758284466,"current_range_meters":6400,"station_id":"ce4bhp12rcd13ifvqh9g","pricing_plan_id":"cebpf4jnsgd1na2vs0mg"},{"bike_id":"23c8262e-e317-433d-a53c-2e75480c8c94","system_id":"levelo_inurba_marseille","lat":43.267797,"lon":5.394165,"is_reserved":false,"is_disabled":false,"rental_uris":{"android":"levelo://app?vid=23c8262e-e317-433d-a53c-2e75480c8c94","ios":"levelo://app?vid=23c8262e-e317-433d-a53c-2e75480c8c94"},"vehicle_type_id":"4","last_reported":1758284466,"current_range_meters":7200,"station_id":"ce4bhh12rcd13ifvqfg0","pricing_plan_id":"cebpf4jnsgd1na2vs0mg"},{"bike_id":"64b8f5d2-16ee-4c85-a97d-7145fcb10104","system_id":"levelo_inurba_marseille","lat":43.22527,"lon":5.34831,"is_reserved":false,"is_disabled":false,"rental_uris":{"android":"levelo://app?vid=64b8f5d2-16ee-4c85-a97d-7145fcb10104","ios":"levelo://app?vid=64b8f5d2-16ee-4c85-a97d-7145fcb10104"},"vehicle_type_id":"4","last_reported":1758284466,"current_range_meters":7200,"station_id":"","pricing_plan_id":"cebpf4jnsgd1na2vs0mg"},{"bike_id":"8ce3378c-c99e-4dab-a24b-93593b1b2654","system_id":"levelo_inurba_marseille","lat":43.29942,"lon":5.36537,"is_reserved":false,"is_disabled":false,"rental_uris":{"android":"levelo://app?vid=8ce3378c-c99e-4dab-a24b-93593b1b2654","ios":"levelo://app?vid=8ce3378c-c99e-4dab-a24b-93593b1b2654"},"vehicle_type_id":"4","last_reported":1758284466,"current_range_meters":7200,"station_id":"ce4bgm92rcd13ifvqbr0","pricing_plan_id":"cebpf4jnsgd1na2vs0mg"},{"bike_id":"ccd44948-7c00-492e-b618-36105a29ab8f","system_id":"levelo_inurba_marseille","lat":43.32665,"lon":5.40986,"is_reserved":false,"is_disabled":true,"rental_uris":{"android":"levelo://app?vid=ccd44948-7c00-492e-b618-36105a29ab8f","ios":"levelo://app?vid=ccd44948-7c00-492e-b618-36105a29ab8f"},"vehicle_type_id":"4","last_reported":1758284466,"current_range_meters":7200,"station_id":"ce4bhpp2rcd13ifvqhgg","pricing_plan_id":"cebpf4jnsgd1na2vs0mg"},{"bike_id":"4c812f6b-9583-400a-8e68-7a7b1625fe6e","system_id":"levelo_inurba_marseille","lat":43.30803,"lon":5.38162,"is_reserved":false,"is_disabled":false,"rental_uris":{"android":"levelo://app?vid=4c812f6b-9583-400a-8e68-7a7b1625fe6e","ios":"levelo://app?vid=4c812f6b-9583-400a-8e68-7a7b1625fe6e"},"vehicle_type_id":"4","last_reported":1758284466,"current_range_meters":7200,"station_id":"ce4bgt12rcd13ifvqce0","pricing_plan_id":"cebpf4jnsgd1na2vs0mg"},{"bike_id":"796d9f95-b687-4fd7-83c1-ee98accdaa95","system_id":"levelo_inurba_marseille","lat":43.28105,"lon":5.37827,"is_reserved":false,"is_disabled":false,"rental_uris":{"android":"levelo://app?vid=796d9f95-b687-4fd7-83c1-ee98accdaa95","ios":"levelo://app?vid=796d9f95-b687-4fd7-83c1-ee98accdaa95"},"vehicle_type_id":"4","last_reported":1758284466,"current_range_meters":6800,"station_id":"ce4bha12rcd13ifvqee0","pricing_plan_id":"cebpf4jnsgd1na2vs0mg"},{"bike_id":"7426821b-9a08-422a-b82d-d5ead1b82281","system_id":"levelo_inurba_marseille","lat":43.2315,"lon":5.43723,"is_reserved":false,"is_disabled":false,"rental_uris":{"android":"levelo://app?vid=7426821b-9a08-422a-b82d-d5ead1b82281","ios":"levelo://app?vid=7426821b-9a08-422a-b82d-d5ead1b82281"},"vehicle_type_id":"4","last_reported":1758284466,"current_range_meters":8000,"station_id":"ce4bhmp2rcd13ifvqgog","pricing_plan_id":"cebpf4jnsgd1na2vs0mg"},{"bike_id":"56a7e59e-5faf-46cf-9d3f-9a5da1b67c2a","system_id":"levelo_inurba_marseille","lat":43.28427,"lon":5.34965,"is_reserved":false,"is_disabled":false,"rental_uris":{"android":"levelo://app?vid=56a7e59e-5faf-46cf-9d3f-9a5da1b67c2a","ios":"levelo://app?vid=56a7e59e-5faf-46cf-9d3f-9a5da1b67c2a"},"vehicle_type_id":"4","last_reported":1758284466,"current_range_meters":8000,"station_id":"ce4bhbh2rcd13ifvqepg","pricing_plan_id":"cebpf4jnsgd1na2vs0mg"},{"bike_id":"b03963e7-f165-473d-a43d-a68e09ff2d96","system_id":"levelo_inurba_marseille","lat":43.25685,"lon":5.41927,"is_reserved":false,"is_disabled":false,"rental_uris":{"android":"levelo://app?vid=b03963e7-f165-473d-a43d-a68e09ff2d96","ios":"levelo://app?vid=b03963e7-f165-473d-a43d-a68e09ff2d96"},"vehicle_type_id":"4","last_reported":1758284466,"current_range_meters":8000,"station_id":"","pricing_plan_id":"cebpf4jnsgd1na2vs0mg"},{"bike_id":"ba51609f-0a6d-4941-aa54-3139c5abba00","system_id":"levelo_inurba_marseille","lat":43.29005,"lon":5.35615,"is_reserved":false,"is_disabled":false,"rental_uris":{"android":"levelo://app?vid=ba51609f-0a6d-4941-aa54-3139c5abba00","ios":"levelo://app?vid=ba51609f-0a6d-4941-aa54-3139c5abba00"},"vehicle_type_id":"4","last_reported":1758284466,"current_range_meters":8400,"station_id":"ce4bhb92rcd13ifvqen0","pricing_plan_id":"cebpf4jnsgd1na2vs0mg"},{"bike_id":"405f7bc7-f721-4f9d-847e-2b9edb89ec2a","system_id":"levelo_inurba_marseille","lat":43.24629,"lon":5.43146,"is_reserved":false,"is_disabled":false,"rental_uris":{"android":"levelo://app?vid=405f7bc7-f721-4f9d-847e-2b9edb89ec2a","ios":"levelo://app?vid=405f7bc7-f721-4f9d-847e-2b9edb89ec2a"},"vehicle_type_id":"4","last_reported":1758284466,"current_range_meters":8400,"station_id":"st_d2m6c4gdas8pm72e190g","pricing_plan_id":"cebpf4jnsgd1na2vs0mg"},{"bike_id":"ca9f9dea-2a21-49b4-be24-93fabd87ec54","system_id":"levelo_inurba_marseille","lat":43.25959,"lon":5.40896,"is_reserved":false,"is_disabled":false,"rental_uris":{"android":"levelo://app?vid=ca9f9dea-2a21-49b4-be24-93fabd87ec54","ios":"levelo://app?vid=ca9f9dea-2a21-49b4-be24-93fabd87ec54"},"vehicle_type_id":"4","last_reported":1758284466,"current_range_meters":8400,"station_id":"ce4bhm92rcd13ifvqglg","pricing_plan_id":"cebpf4jnsgd1na2vs0mg"},{"bike_id":"51428e52-933e-4637-b90d-db6123d52fef","system_id":"levelo_inurba_marseille","lat":43.29837,"lon":5.36261,"is_reserved":false,"is_disabled":false,"rental_uris":{"android":"levelo://app?vid=51428e52-933e-4637-b90d-db6123d52fef","ios":"levelo://app?vid=51428e52-933e-4637-b90d-db6123d52fef"},"vehicle_type_id":"4","last_reported":1758284466,"current_range_meters":8400,"station_id":"ce4bgpp2rcd13ifvqc3g","pricing_plan_id":"cebpf4jnsgd1na2vs0mg"},{"bike_id":"b83605c8-7814-48b4-a14a-3d2d0b1be3a9","system_id":"levelo_inurba_marseille","lat":43.26192,"lon":5.3745,"is_reserved":false,"is_disabled":false,"rental_uris":{"android":"levelo://app?vid=b83605c8-7814-48b4-a14a-3d2d0b1be3a9","ios":"levelo://app?vid=b83605c8-7814-48b4-a14a-3d2d0b1be3a9"},"vehicle_type_id":"4","last_reported":1758284466,"current_range_meters":8400,"station_id":"ce4bhgp2rcd13ifvqfc0","pricing_plan_id":"cebpf4jnsgd1na2vs0mg"},{"bike_id":"cf66592a-d8fa-4c6c-9927-5d7a9fef5026","system_id":"levelo_inurba_marseille","lat":43.26289,"lon":5.39873,"is_reserved":false,"is_disabled":false,"rental_uris":{"android":"levelo://app?vid=cf66592a-d8fa-4c6c-9927-5d7a9fef5026","ios":"levelo://app?vid=cf66592a-d8fa-4c6c-9927-5d7a9fef5026"},"vehicle_type_id":"4","last_reported":1758284466,"current_range_meters":8400,"station_id":"","pricing_plan_id":"cebpf4jnsgd1na2vs0mg"},{"bike_id":"59028b69-047a-4dce-8d71-00f904471d6e","system_id":"levelo_inurba_marseille","lat":43.21768,"lon":5.3459,"is_reserved":false,"is_disabled":false,"rental_uris":{"android":"levelo://app?vid=59028b69-047a-4dce-8d71-00f904471d6e","ios":"levelo://app?vid=59028b69-047a-4dce-8d71-00f904471d6e"},"vehicle_type_id":"4","last_reported":1758284466,"current_range_meters":8400,"station_id":"st_cvj6r9ubvosntc0bgbag","pricing_plan_id":"cebpf4jnsgd1na2vs0mg"},{"bike_id":"2dec8c38-8e53-4475-a4f2-5caebfd8a70e","system_id":"levelo_inurba_marseille","lat":43.301369,"lon":5.398695,"is_reserved":false,"is_disabled":false,"rental_uris":{"android":"levelo://app?vid=2dec8c38-8e53-4475-a4f2-5caebfd8a70e","ios":"levelo://app?vid=2dec8c38-8e53-4475-a4f2-5caebfd8a70e"},"vehicle_type_id":"4","last_reported":1758284466,"current_range_meters":8400,"station_id":"ce4bh0h2rcd13ifvqd40","pricing_plan_id":"cebpf4jnsgd1na2vs0mg"},{"bike_id":"84df2efe-9934-4f68-b190-616f43f8332f","system_id":"levelo_inurba_marseille","lat":43.29043,"lon":5.35908,"is_reserved":false,"is_disabled":false,"rental_uris":{"android":"levelo://app?vid=84df2efe-9934-4f68-b190-616f43f8332f","ios":"levelo://app?vid=84df2efe-9934-4f68-b190-616f43f8332f"},"vehicle_type_id":"4","last_reported":1758284466,"current_range_meters":8400,"station_id":"ce4bha92rcd13ifvqeg0","pricing_plan_id":"cebpf4jnsgd1na2vs0mg"},{"bike_id":"45625a07-b291-4295-814b-b722cd86920f","system_id":"levelo_inurba_marseille","lat":43.26206,"lon":5.37414,"is_reserved":false,"is_disabled":false,"rental_uris":{"android":"levelo://app?vid=45625a07-b291-4295-814b-b722cd86920f","ios":"levelo://app?vid=45625a07-b291-4295-814b-b722cd86920f"},"vehicle_type_id":"4","last_reported":1758284466,"current_range_meters":8800,"station_id":"ce4bhgp2rcd13ifvqfc0","pricing_plan_id":"cebpf4jnsgd1na2vs0mg"},{"bike_id":"139eb4a9-842e-452b-9c8a-dd681ae5b87a","system_id":"levelo_inurba_marseille","lat":43.282658,"lon":5.350612,"is_reserved":false,"is_disabled":false,"rental_uris":{"android":"levelo://app?vid=139eb4a9-842e-452b-9c8a-dd681ae5b87a","ios":"levelo://app?vid=139eb4a9-842e-452b-9c8a-dd681ae5b87a"},"vehicle_type_id":"4","last_reported":1758284466,"current_range_meters":8800,"station_id":"ce4bhbp2rcd13ifvqerg","pricing_plan_id":"cebpf4jnsgd1na2vs0mg"},{"bike_id":"d68cd6fd-5a46-485a-9e39-8d30a1c48b35","system_id":"levelo_inurba_marseille","lat":43.28267,"lon":5.35068,"is_reserved":false,"is_disabled":false,"rental_uris":{"android":"levelo://app?vid=d68cd6fd-5a46-485a-9e39-8d30a1c48b35","ios":"levelo://app?vid=d68cd6fd-5a46-485a-9e39-8d30a1c48b35"},"vehicle_type_id":"4","last_reported":1758284466,"current_range_meters":8800,"station_id":"ce4bhbp2rcd13ifvqerg","pricing_plan_id":"cebpf4jnsgd1na2vs0mg"},{"bike_id":"1d5ebb60-704d-4f2c-8fce-b33464c0389b","system_id":"levelo_inurba_marseille","lat":43.30939,"lon":5.40157,"is_reserved":false,"is_disabled":false,"rental_uris":{"android":"levelo://app?vid=1d5ebb60-704d-4f2c-8fce-b33464c0389b","ios":"levelo://app?vid=1d5ebb60-704d-4f2c-8fce-b33464c0389b"},"vehicle_type_id":"4","last_reported":1758284466,"current_range_meters":8400,"station_id":"ce4bgvp2rcd13ifvqct0","pricing_plan_id":"cebpf4jnsgd1na2vs0mg"},{"bike_id":"9aaad704-8366-4831-98fd-d8715f52ba1c","system_id":"levelo_inurba_marseille","lat":43.29378,"lon":5.37854,"is_reserved":false,"is_disabled":false,"rental_uris":{"android":"levelo://app?vid=9aaad704-8366-4831-98fd-d8715f52ba1c","ios":"levelo://app?vid=9aaad704-8366-4831-98fd-d8715f52ba1c"},"vehicle_type_id":"4","last_reported":1758284466,"current_range_meters":8400,"station_id":"ce4bgjh2rcd13ifvqbf0","pricing_plan_id":"cebpf4jnsgd1na2vs0mg"},{"bike_id":"71fae430-6a62-48e0-9558-ebe95862d783","system_id":"levelo_inurba_marseille","lat":43.273768,"lon":5.362624,"is_reserved":false,"is_disabled":false,"rental_uris":{"android":"levelo://app?vid=71fae430-6a62-48e0-9558-ebe95862d783","ios":"levelo://app?vid=71fae430-6a62-48e0-9558-ebe95862d783"},"vehicle_type_id":"4","last_reported":1758284466,"current_range_meters":8800,"station_id":"ce4bhbh2rcd13ifvqeo0","pricing_plan_id":"cebpf4jnsgd1na2vs0mg"},{"bike_id":"073668ed-0ea6-42c4-a114-ebb47ba83347","system_id":"levelo_inurba_marseille","lat":43.2981,"lon":5.381,"is_reserved":false,"is_disabled":false,"rental_uris":{"android":"levelo://app?vid=073668ed-0ea6-42c4-a114-ebb47ba83347","ios":"levelo://app?vid=073668ed-0ea6-42c4-a114-ebb47ba83347"},"vehicle_type_id":"4","last_reported":1758284466,"current_range_meters":6800,"station_id":"ce4bgip2rcd13ifvqbb0","pricing_plan_id":"cebpf4jnsgd1na2vs0mg"},{"bike_id":"336e1e65-5f24-4827-9cd9-7a1d241f21db","system_id":"levelo_inurba_marseille","lat":43.32369,"lon":5.36756,"is_reserved":false,"is_disabled":false,"rental_uris":{"android":"levelo://app?vid=336e1e65-5f24-4827-9cd9-7a1d241f21db","ios":"levelo://app?vid=336e1e65-5f24-4827-9cd9-7a1d241f21db"},"vehicle_type_id":"4","last_reported":1758284466,"current_range_meters":8800,"station_id":"ce4bhsh2rcd13ifvqi2g","pricing_plan_id":"cebpf4jnsgd1na2vs0mg"},{"bike_id":"9b17fb59-2c67-43a7-a74c-653a32aeedaf","system_id":"levelo_inurba_marseille","lat":43.23155,"lon":5.43703,"is_reserved":false,"is_disabled":false,"rental_uris":{"android":"levelo://app?vid=9b17fb59-2c67-43a7-a74c-653a32aeedaf","ios":"levelo://app?vid=9b17fb59-2c67-43a7-a74c-653a32aeedaf"},"vehicle_type_id":"4","last_reported":1758284466,"current_range_meters":9200,"station_id":"ce4bhmp2rcd13ifvqgog","pricing_plan_id":"cebpf4jnsgd1na2vs0mg"},{"bike_id":"92a7787e-50b3-4531-99d5-b4186b7a5d92","system_id":"levelo_inurba_marseille","lat":43.33606,"lon":5.41038,"is_reserved":false,"is_disabled":false,"rental_uris":{"android":"levelo://app?vid=92a7787e-50b3-4531-99d5-b4186b7a5d92","ios":"levelo://app?vid=92a7787e-50b3-4531-99d5-b4186b7a5d92"},"vehicle_type_id":"4","last_reported":1758284466,"current_range_meters":9200,"station_id":"ce4bhqh2rcd13ifvqhmg","pricing_plan_id":"cebpf4jnsgd1na2vs0mg"},{"bike_id":"cd5ea3c4-33a7-4755-986b-502c7b2660f7","system_id":"levelo_inurba_marseille","lat":43.3378,"lon":5.37422,"is_reserved":false,"is_disabled":false,"rental_uris":{"android":"levelo://app?vid=cd5ea3c4-33a7-4755-986b-502c7b2660f7","ios":"levelo://app?vid=cd5ea3c4-33a7-4755-986b-502c7b2660f7"},"vehicle_type_id":"4","last_reported":1758284466,"current_range_meters":9200,"station_id":"","pricing_plan_id":"cebpf4jnsgd1na2vs0mg"},{"bike_id":"56a4f75d-eaf2-44b4-aa02-4a439b19699b","system_id":"levelo_inurba_marseille","lat":43.33798,"lon":5.37414,"is_reserved":false,"is_disabled":false,"rental_uris":{"android":"levelo://app?vid=56a4f75d-eaf2-44b4-aa02-4a439b19699b","ios":"levelo://app?vid=56a4f75d-eaf2-44b4-aa02-4a439b19699b"},"vehicle_type_id":"4","last_reported":1758284466,"current_range_meters":9200,"station_id":"","pricing_plan_id":"cebpf4jnsgd1na2vs0mg"},{"bike_id":"f36dc62b-39e6-46ff-bf80-7219ab2ba77a","system_id":"levelo_inurba_marseille","lat":43.298835,"lon":5.389061,"is_reserved":false,"is_disabled":false,"rental_uris":{"android":"levelo://app?vid=f36dc62b-39e6-46ff-bf80-7219ab2ba77a","ios":"levelo://app?vid=f36dc62b-39e6-46ff-bf80-7219ab2ba77a"},"vehicle_type_id":"4","last_reported":1758284466,"current_range_meters":9200,"station_id":"ce4bh392rcd13ifvqdl0","pricing_plan_id":"cebpf4jnsgd1na2vs0mg"},{"bike_id":"e3acf381-0491-44b6-913b-e0d422c961d1","system_id":"levelo_inurba_marseille","lat":43.28278,"lon":5.35056,"is_reserved":false,"is_disabled":false,"rental_uris":{"android":"levelo://app?vid=e3acf381-0491-44b6-913b-e0d422c961d1","ios":"levelo://app?vid=e3acf381-0491-44b6-913b-e0d422c961d1"},"vehicle_type_id":"4","last_reported":1758284466,"current_range_meters":9200,"station_id":"ce4bhbp2rcd13ifvqerg","pricing_plan_id":"cebpf4jnsgd1na2vs0mg"},{"bike_id":"8dc52ea1-72a1-4cec-be5e-1cb579276b7f","system_id":"levelo_inurba_marseille","lat":43.33611,"lon":5.41038,"is_reserved":false,"is_disabled":false,"rental_uris":{"android":"levelo://app?vid=8dc52ea1-72a1-4cec-be5e-1cb579276b7f","ios":"levelo://app?vid=8dc52ea1-72a1-4cec-be5e-1cb579276b7f"},"vehicle_type_id":"4","last_reported":1758284466,"current_range_meters":9600,"station_id":"ce4bhqh2rcd13ifvqhmg","pricing_plan_id":"cebpf4jnsgd1na2vs0mg"},{"bike_id":"00f010e1-e008-4345-88dc-116c15f8fe51","system_id":"levelo_inurba_marseille","lat":43.21753,"lon":5.34597,"is_reserved":false,"is_disabled":false,"rental_uris":{"android":"levelo://app?vid=00f010e1-e008-4345-88dc-116c15f8fe51","ios":"levelo://app?vid=00f010e1-e008-4345-88dc-116c15f8fe51"},"vehicle_type_id":"4","last_reported":1758284466,"current_range_meters":12000,"station_id":"st_cvj6r9ubvosntc0bgbag","pricing_plan_id":"cebpf4jnsgd1na2vs0mg"},{"bike_id":"6dafa70f-dccc-418f-a0fc-1d8508362979","system_id":"levelo_inurba_marseille","lat":43.30924,"lon":5.36857,"is_reserved":false,"is_disabled":false,"rental_uris":{"android":"levelo://app?vid=6dafa70f-dccc-418f-a0fc-1d8508362979","ios":"levelo://app?vid=6dafa70f-dccc-418f-a0fc-1d8508362979"},"vehicle_type_id":"4","last_reported":1758284466,"current_range_meters":9600,"station_id":"","pricing_plan_id":"cebpf4jnsgd1na2vs0mg"},{"bike_id":"53dcd9c2-773f-4712-86a1-98083136b91b","system_id":"levelo_inurba_marseille","lat":43.31362,"lon":5.38513,"is_reserved":false,"is_disabled":true,"rental_uris":{"android":"levelo://app?vid=53dcd9c2-773f-4712-86a1-98083136b91b","ios":"levelo://app?vid=53dcd9c2-773f-4712-86a1-98083136b91b"},"vehicle_type_id":"4","last_reported":1758284466,"current_range_meters":9600,"station_id":"ce4bgt92rcd13ifvqcf0","pricing_plan_id":"cebpf4jnsgd1na2vs0mg"},{"bike_id":"c03db5d6-931c-41e0-bfa5-6550a106fb99","system_id":"levelo_inurba_marseille","lat":43.23285,"lon":5.36038,"is_reserved":false,"is_disabled":false,"rental_uris":{"android":"levelo://app?vid=c03db5d6-931c-41e0-bfa5-6550a106fb99","ios":"levelo://app?vid=c03db5d6-931c-41e0-bfa5-6550a106fb99"},"vehicle_type_id":"4","last_reported":1758284466,"current_range_meters":9600,"station_id":"","pricing_plan_id":"cebpf4jnsgd1na2vs0mg"},{"bike_id":"42323a1a-489c-43cb-90ae-c675b27444d5","system_id":"levelo_inurba_marseille","lat":43.21648,"lon":5.34372,"is_reserved":false,"is_disabled":false,"rental_uris":{"android":"levelo://app?vid=42323a1a-489c-43cb-90ae-c675b27444d5","ios":"levelo://app?vid=42323a1a-489c-43cb-90ae-c675b27444d5"},"vehicle_type_id":"4","last_reported":1758284466,"current_range_meters":9600,"station_id":"","pricing_plan_id":"cebpf4jnsgd1na2vs0mg"},{"bike_id":"d7fd5134-8a8c-42f3-a54b-950fb209d0af","system_id":"levelo_inurba_marseille","lat":43.2836,"lon":5.38637,"is_reserved":false,"is_disabled":false,"rental_uris":{"android":"levelo://app?vid=d7fd5134-8a8c-42f3-a54b-950fb209d0af","ios":"levelo://app?vid=d7fd5134-8a8c-42f3-a54b-950fb209d0af"},"vehicle_type_id":"4","last_reported":1758284466,"current_range_meters":9600,"station_id":"ce4bh492rcd13ifvqdvg","pricing_plan_id":"cebpf4jnsgd1na2vs0mg"},{"bike_id":"e6f8489d-fe42-4015-a82c-b604c2c8b33e","system_id":"levelo_inurba_marseille","lat":43.29795,"lon":5.36682,"is_reserved":false,"is_disabled":false,"rental_uris":{"android":"levelo://app?vid=e6f8489d-fe42-4015-a82c-b604c2c8b33e","ios":"levelo://app?vid=e6f8489d-fe42-4015-a82c-b604c2c8b33e"},"vehicle_type_id":"4","last_reported":1758284466,"current_range_meters":9600,"station_id":"","pricing_plan_id":"cebpf4jnsgd1na2vs0mg"},{"bike_id":"80a9a218-f77f-42ce-8136-b0dceb9fc366","system_id":"levelo_inurba_marseille","lat":43.267867,"lon":5.394102,"is_reserved":false,"is_disabled":true,"rental_uris":{"android":"levelo://app?vid=80a9a218-f77f-42ce-8136-b0dceb9fc366","ios":"levelo://app?vid=80a9a218-f77f-42ce-8136-b0dceb9fc366"},"vehicle_type_id":"4","last_reported":1758284466,"current_range_meters":10000,"station_id":"ce4bhh12rcd13ifvqfg0","pricing_plan_id":"cebpf4jnsgd1na2vs0mg"},{"bike_id":"cad97885-b582-49b2-8b83-0a6c3d079fc6","system_id":"levelo_inurba_marseille","lat":43.297018,"lon":5.365873,"is_reserved":false,"is_disabled":false,"rental_uris":{"android":"levelo://app?vid=cad97885-b582-49b2-8b83-0a6c3d079fc6","ios":"levelo://app?vid=cad97885-b582-49b2-8b83-0a6c3d079fc6"},"vehicle_type_id":"4","last_reported":1758284466,"current_range_meters":10000,"station_id":"ce4bgn12rcd13ifvqbt0","pricing_plan_id":"cebpf4jnsgd1na2vs0mg"},{"bike_id":"b4083a1d-dead-4bdf-976f-eaa3a7a9df87","system_id":"levelo_inurba_marseille","lat":43.25326,"lon":5.4217,"is_reserved":false,"is_disabled":false,"rental_uris":{"android":"levelo://app?vid=b4083a1d-dead-4bdf-976f-eaa3a7a9df87","ios":"levelo://app?vid=b4083a1d-dead-4bdf-976f-eaa3a7a9df87"},"vehicle_type_id":"4","last_reported":1758284466,"current_range_meters":10000,"station_id":"st_d2m65c5bi1j21697t3ng","pricing_plan_id":"cebpf4jnsgd1na2vs0mg"},{"bike_id":"1a35b52a-c9df-460c-8016-0ac6499b0c5a","system_id":"levelo_inurba_marseille","lat":43.32485,"lon":5.36572,"is_reserved":false,"is_disabled":false,"rental_uris":{"android":"levelo://app?vid=1a35b52a-c9df-460c-8016-0ac6499b0c5a","ios":"levelo://app?vid=1a35b52a-c9df-460c-8016-0ac6499b0c5a"},"vehicle_type_id":"4","last_reported":1758284466,"current_range_meters":10000,"station_id":"ce4bhs12rcd13ifvqhvg","pricing_plan_id":"cebpf4jnsgd1na2vs0mg"},{"bike_id":"7c6df801-8795-40af-a3c7-6c8a645d08f5","system_id":"levelo_inurba_marseille","lat":43.28158,"lon":5.42635,"is_reserved":false,"is_disabled":false,"rental_uris":{"android":"levelo://app?vid=7c6df801-8795-40af-a3c7-6c8a645d08f5","ios":"levelo://app?vid=7c6df801-8795-40af-a3c7-6c8a645d08f5"},"vehicle_type_id":"4","last_reported":1758284466,"current_range_meters":10000,"station_id":"ce4bhnh2rcd13ifvqgug","pricing_plan_id":"cebpf4jnsgd1na2vs0mg"},{"bike_id":"be9ee84b-9ec1-497c-800c-5907ad1418ae","system_id":"levelo_inurba_marseille","lat":43.225622,"lon":5.416252,"is_reserved":false,"is_disabled":false,"rental_uris":{"android":"levelo://app?vid=be9ee84b-9ec1-497c-800c-5907ad1418ae","ios":"levelo://app?vid=be9ee84b-9ec1-497c-800c-5907ad1418ae"},"vehicle_type_id":"4","last_reported":1758284466,"current_range_meters":10000,"station_id":"st_d2o4gvlbi1j2169b742g","pricing_plan_id":"cebpf4jnsgd1na2vs0mg"},{"bike_id":"38bd47fe-581b-4c4d-8c26-006e538e00d7","system_id":"levelo_inurba_marseille","lat":43.21193,"lon":5.35064,"is_reserved":false,"is_disabled":false,"rental_uris":{"android":"levelo://app?vid=38bd47fe-581b-4c4d-8c26-006e538e00d7","ios":"levelo://app?vid=38bd47fe-581b-4c4d-8c26-006e538e00d7"},"vehicle_type_id":"4","last_reported":1758284466,"current_range_meters":10000,"station_id":"st_cvj6sg6p6f1abm77japg","pricing_plan_id":"cebpf4jnsgd1na2vs0mg"},{"bike_id":"0ae2d2cc-805c-47a7-bd7e-28f3ea87c342","system_id":"levelo_inurba_marseille","lat":43.28862,"lon":5.42508,"is_reserved":false,"is_disabled":false,"rental_uris":{"android":"levelo://app?vid=0ae2d2cc-805c-47a7-bd7e-28f3ea87c342","ios":"levelo://app?vid=0ae2d2cc-805c-47a7-bd7e-28f3ea87c342"},"vehicle_type_id":"4","last_reported":1758284466,"current_range_meters":10000,"station_id":"","pricing_plan_id":"cebpf4jnsgd1na2vs0mg"},{"bike_id":"a4faa1fd-62ee-404a-aff8-b79ea6b6b5d2","system_id":"levelo_inurba_marseille","lat":43.32986,"lon":5.39245,"is_reserved":false,"is_disabled":false,"rental_uris":{"android":"levelo://app?vid=a4faa1fd-62ee-404a-aff8-b79ea6b6b5d2","ios":"levelo://app?vid=a4faa1fd-62ee-404a-aff8-b79ea6b6b5d2"},"vehicle_type_id":"4","last_reported":1758284466,"current_range_meters":10800,"station_id":"","pricing_plan_id":"cebpf4jnsgd1na2vs0mg"},{"bike_id":"5dbe6c9b-7c19-49a1-94ab-752d6c0e3282","system_id":"levelo_inurba_marseille","lat":43.28576,"lon":5.39492,"is_reserved":false,"is_disabled":false,"rental_uris":{"android":"levelo://app?vid=5dbe6c9b-7c19-49a1-94ab-752d6c0e3282","ios":"levelo://app?vid=5dbe6c9b-7c19-49a1-94ab-752d6c0e3282"},"vehicle_type_id":"4","last_reported":1758284466,"current_range_meters":10000,"station_id":"ce4bh292rcd13ifvqdg0","pricing_plan_id":"cebpf4jnsgd1na2vs0mg"},{"bike_id":"22f0687d-25d3-4094-9c4a-293a61e189a6","system_id":"levelo_inurba_marseille","lat":43.2463,"lon":5.39626,"is_reserved":false,"is_disabled":true,"rental_uris":{"android":"levelo://app?vid=22f0687d-25d3-4094-9c4a-293a61e189a6","ios":"levelo://app?vid=22f0687d-25d3-4094-9c4a-293a61e189a6"},"vehicle_type_id":"4","last_reported":1758284466,"current_range_meters":10800,"station_id":"","pricing_plan_id":"cebpf4jnsgd1na2vs0mg"},{"bike_id":"7d5acbb8-4deb-48a9-a7b4-208ee6c46958","system_id":"levelo_inurba_marseille","lat":43.313322,"lon":5.396987,"is_reserved":false,"is_disabled":false,"rental_uris":{"android":"levelo://app?vid=7d5acbb8-4deb-48a9-a7b4-208ee6c46958","ios":"levelo://app?vid=7d5acbb8-4deb-48a9-a7b4-208ee6c46958"},"vehicle_type_id":"4","last_reported":1758284466,"current_range_meters":10800,"station_id":"ce4bgvp2rcd13ifvqcu0","pricing_plan_id":"cebpf4jnsgd1na2vs0mg"},{"bike_id":"06b4ae0c-7140-48f3-a7db-848c3dc74437","system_id":"levelo_inurba_marseille","lat":43.27999,"lon":5.41667,"is_reserved":false,"is_disabled":false,"rental_uris":{"android":"levelo://app?vid=06b4ae0c-7140-48f3-a7db-848c3dc74437","ios":"levelo://app?vid=06b4ae0c-7140-48f3-a7db-848c3dc74437"},"vehicle_type_id":"4","last_reported":1758284466,"current_range_meters":10800,"station_id":"ce4bho12rcd13ifvqh1g","pricing_plan_id":"cebpf4jnsgd1na2vs0mg"},{"bike_id":"309536d1-b9e5-4669-a292-abbead8211d9","system_id":"levelo_inurba_marseille","lat":43.26202,"lon":5.37929,"is_reserved":false,"is_disabled":false,"rental_uris":{"android":"levelo://app?vid=309536d1-b9e5-4669-a292-abbead8211d9","ios":"levelo://app?vid=309536d1-b9e5-4669-a292-abbead8211d9"},"vehicle_type_id":"4","last_reported":1758284466,"current_range_meters":11200,"station_id":"ce4bhjp2rcd13ifvqg90","pricing_plan_id":"cebpf4jnsgd1na2vs0mg"},{"bike_id":"6fc58142-9ff8-4772-ae80-93e293f91bc8","system_id":"levelo_inurba_marseille","lat":43.298127,"lon":5.417095,"is_reserved":false,"is_disabled":false,"rental_uris":{"android":"levelo://app?vid=6fc58142-9ff8-4772-ae80-93e293f91bc8","ios":"levelo://app?vid=6fc58142-9ff8-4772-ae80-93e293f91bc8"},"vehicle_type_id":"4","last_reported":1758284466,"current_range_meters":11200,"station_id":"","pricing_plan_id":"cebpf4jnsgd1na2vs0mg"},{"bike_id":"1f11424c-13ba-41e3-bbd9-e1665c684ac6","system_id":"levelo_inurba_marseille","lat":43.289195,"lon":5.383993,"is_reserved":false,"is_disabled":false,"rental_uris":{"android":"levelo://app?vid=1f11424c-13ba-41e3-bbd9-e1665c684ac6","ios":"levelo://app?vid=1f11424c-13ba-41e3-bbd9-e1665c684ac6"},"vehicle_type_id":"4","last_reported":1758284466,"current_range_meters":11200,"station_id":"ce4bh612rcd13ifvqe6g","pricing_plan_id":"cebpf4jnsgd1na2vs0mg"},{"bike_id":"e942f984-8fe7-48d1-8f04-3806656b9996","system_id":"levelo_inurba_marseille","lat":43.33638,"lon":5.37916,"is_reserved":false,"is_disabled":false,"rental_uris":{"android":"levelo://app?vid=e942f984-8fe7-48d1-8f04-3806656b9996","ios":"levelo://app?vid=e942f984-8fe7-48d1-8f04-3806656b9996"},"vehicle_type_id":"4","last_reported":1758284466,"current_range_meters":11200,"station_id":"","pricing_plan_id":"cebpf4jnsgd1na2vs0mg"},{"bike_id":"e8dae9a5-2841-49d9-b572-94d735628ab9","system_id":"levelo_inurba_marseille","lat":43.33741,"lon":5.39163,"is_reserved":false,"is_disabled":false,"rental_uris":{"android":"levelo://app?vid=e8dae9a5-2841-49d9-b572-94d735628ab9","ios":"levelo://app?vid=e8dae9a5-2841-49d9-b572-94d735628ab9"},"vehicle_type_id":"4","last_reported":1758284466,"current_range_meters":11200,"station_id":"ce4bhr92rcd13ifvqhsg","pricing_plan_id":"cebpf4jnsgd1na2vs0mg"},{"bike_id":"87946f08-d6be-4e8d-b008-d1ce0a8c60ae","system_id":"levelo_inurba_marseille","lat":43.28738,"lon":5.39958,"is_reserved":false,"is_disabled":false,"rental_uris":{"android":"levelo://app?vid=87946f08-d6be-4e8d-b008-d1ce0a8c60ae","ios":"levelo://app?vid=87946f08-d6be-4e8d-b008-d1ce0a8c60ae"},"vehicle_type_id":"4","last_reported":1758284466,"current_range_meters":11200,"station_id":"ce4bho92rcd13ifvqh3g","pricing_plan_id":"cebpf4jnsgd1na2vs0mg"},{"bike_id":"af3a9b08-acb0-4398-b9c1-4d14de384455","system_id":"levelo_inurba_marseille","lat":43.24174,"lon":5.36403,"is_reserved":false,"is_disabled":false,"rental_uris":{"android":"levelo://app?vid=af3a9b08-acb0-4398-b9c1-4d14de384455","ios":"levelo://app?vid=af3a9b08-acb0-4398-b9c1-4d14de384455"},"vehicle_type_id":"4","last_reported":1758284466,"current_range_meters":11200,"station_id":"cpo36qri1sfpv3e86is0","pricing_plan_id":"cebpf4jnsgd1na2vs0mg"},{"bike_id":"ed20f1d8-bc72-415d-8a8f-af83da4fa7d9","system_id":"levelo_inurba_marseille","lat":43.33497,"lon":5.36247,"is_reserved":false,"is_disabled":false,"rental_uris":{"android":"levelo://app?vid=ed20f1d8-bc72-415d-8a8f-af83da4fa7d9","ios":"levelo://app?vid=ed20f1d8-bc72-415d-8a8f-af83da4fa7d9"},"vehicle_type_id":"4","last_reported":1758284466,"current_range_meters":11200,"station_id":"","pricing_plan_id":"cebpf4jnsgd1na2vs0mg"},{"bike_id":"7b982090-5cfc-4a88-90b8-272487f75d8f","system_id":"levelo_inurba_marseille","lat":43.28697,"lon":5.39981,"is_reserved":false,"is_disabled":false,"rental_uris":{"android":"levelo://app?vid=7b982090-5cfc-4a88-90b8-272487f75d8f","ios":"levelo://app?vid=7b982090-5cfc-4a88-90b8-272487f75d8f"},"vehicle_type_id":"4","last_reported":1758284466,"current_range_meters":11200,"station_id":"ce4bho92rcd13ifvqh3g","pricing_plan_id":"cebpf4jnsgd1na2vs0mg"},{"bike_id":"41ba75d5-ce87-401e-97a6-2b8fd9362028","system_id":"levelo_inurba_marseille","lat":43.29265,"lon":5.38425,"is_reserved":false,"is_disabled":false,"rental_uris":{"android":"levelo://app?vid=41ba75d5-ce87-401e-97a6-2b8fd9362028","ios":"levelo://app?vid=41ba75d5-ce87-401e-97a6-2b8fd9362028"},"vehicle_type_id":"4","last_reported":1758284466,"current_range_meters":11600,"station_id":"ce4bh692rcd13ifvqea0","pricing_plan_id":"cebpf4jnsgd1na2vs0mg"},{"bike_id":"6151ecbb-2dec-4557-8573-052fc9c6f4d4","system_id":"levelo_inurba_marseille","lat":43.30546,"lon":5.367,"is_reserved":false,"is_disabled":false,"rental_uris":{"android":"levelo://app?vid=6151ecbb-2dec-4557-8573-052fc9c6f4d4","ios":"levelo://app?vid=6151ecbb-2dec-4557-8573-052fc9c6f4d4"},"vehicle_type_id":"4","last_reported":1758284466,"current_range_meters":11600,"station_id":"ce4bgrp2rcd13ifvqc9g","pricing_plan_id":"cebpf4jnsgd1na2vs0mg"},{"bike_id":"dc9ca000-93d6-4301-93eb-1a1d63a2b777","system_id":"levelo_inurba_marseille","lat":43.2907,"lon":5.36673,"is_reserved":false,"is_disabled":false,"rental_uris":{"android":"levelo://app?vid=dc9ca000-93d6-4301-93eb-1a1d63a2b777","ios":"levelo://app?vid=dc9ca000-93d6-4301-93eb-1a1d63a2b777"},"vehicle_type_id":"4","last_reported":1758284466,"current_range_meters":11600,"station_id":"","pricing_plan_id":"cebpf4jnsgd1na2vs0mg"},{"bike_id":"4b7b0817-b26b-4c34-92cd-1080ad1af5dc","system_id":"levelo_inurba_marseille","lat":43.21198,"lon":5.35065,"is_reserved":false,"is_disabled":false,"rental_uris":{"android":"levelo://app?vid=4b7b0817-b26b-4c34-92cd-1080ad1af5dc","ios":"levelo://app?vid=4b7b0817-b26b-4c34-92cd-1080ad1af5dc"},"vehicle_type_id":"4","last_reported":1758284466,"current_range_meters":11600,"station_id":"st_cvj6sg6p6f1abm77japg","pricing_plan_id":"cebpf4jnsgd1na2vs0mg"},{"bike_id":"5abd5005-6e1a-4e4a-8cf1-5135d482aac9","system_id":"levelo_inurba_marseille","lat":43.33718,"lon":5.39189,"is_reserved":false,"is_disabled":false,"rental_uris":{"android":"levelo://app?vid=5abd5005-6e1a-4e4a-8cf1-5135d482aac9","ios":"levelo://app?vid=5abd5005-6e1a-4e4a-8cf1-5135d482aac9"},"vehicle_type_id":"4","last_reported":1758284466,"current_range_meters":11600,"station_id":"ce4bhr92rcd13ifvqhsg","pricing_plan_id":"cebpf4jnsgd1na2vs0mg"},{"bike_id":"a6871f81-13e4-43e8-9186-26d1d1c33fca","system_id":"levelo_inurba_marseille","lat":43.22575,"lon":5.41619,"is_reserved":false,"is_disabled":false,"rental_uris":{"android":"levelo://app?vid=a6871f81-13e4-43e8-9186-26d1d1c33fca","ios":"levelo://app?vid=a6871f81-13e4-43e8-9186-26d1d1c33fca"},"vehicle_type_id":"4","last_reported":1758284466,"current_range_meters":11600,"station_id":"st_d2o4gvlbi1j2169b742g","pricing_plan_id":"cebpf4jnsgd1na2vs0mg"},{"bike_id":"c8230c38-9dbd-4f88-a387-b67e297899c3","system_id":"levelo_inurba_marseille","lat":43.305952,"lon":5.393587,"is_reserved":false,"is_disabled":false,"rental_uris":{"android":"levelo://app?vid=c8230c38-9dbd-4f88-a387-b67e297899c3","ios":"levelo://app?vid=c8230c38-9dbd-4f88-a387-b67e297899c3"},"vehicle_type_id":"4","last_reported":1758284466,"current_range_meters":11600,"station_id":"ce4bh0p2rcd13ifvqd80","pricing_plan_id":"cebpf4jnsgd1na2vs0mg"},{"bike_id":"f9418cc9-c64d-43d9-9060-3aeedd69cdee","system_id":"levelo_inurba_marseille","lat":43.33089,"lon":5.3786,"is_reserved":false,"is_disabled":false,"rental_uris":{"android":"levelo://app?vid=f9418cc9-c64d-43d9-9060-3aeedd69cdee","ios":"levelo://app?vid=f9418cc9-c64d-43d9-9060-3aeedd69cdee"},"vehicle_type_id":"4","last_reported":1758284466,"current_range_meters":11600,"station_id":"","pricing_plan_id":"cebpf4jnsgd1na2vs0mg"},{"bike_id":"76f7904d-c36d-4c3b-a620-7bb0a9ab4b81","system_id":"levelo_inurba_marseille","lat":43.27906,"lon":5.38001,"is_reserved":false,"is_disabled":false,"rental_uris":{"android":"levelo://app?vid=76f7904d-c36d-4c3b-a620-7bb0a9ab4b81","ios":"levelo://app?vid=76f7904d-c36d-4c3b-a620-7bb0a9ab4b81"},"vehicle_type_id":"4","last_reported":1758284466,"current_range_meters":12000,"station_id":"ce4bhf92rcd13ifvqf50","pricing_plan_id":"cebpf4jnsgd1na2vs0mg"},{"bike_id":"fb78ea42-e26f-45b3-a617-d3474b811b72","system_id":"levelo_inurba_marseille","lat":43.29916,"lon":5.37921,"is_reserved":false,"is_disabled":false,"rental_uris":{"android":"levelo://app?vid=fb78ea42-e26f-45b3-a617-d3474b811b72","ios":"levelo://app?vid=fb78ea42-e26f-45b3-a617-d3474b811b72"},"vehicle_type_id":"4","last_reported":1758284466,"current_range_meters":12000,"station_id":"","pricing_plan_id":"cebpf4jnsgd1na2vs0mg"},{"bike_id":"33ffe569-9e09-4893-9519-171a58af1695","system_id":"levelo_inurba_marseille","lat":43.26805,"lon":5.40267,"is_reserved":false,"is_disabled":false,"rental_uris":{"android":"levelo://app?vid=33ffe569-9e09-4893-9519-171a58af1695","ios":"levelo://app?vid=33ffe569-9e09-4893-9519-171a58af1695"},"vehicle_type_id":"4","last_reported":1758284466,"current_range_meters":11600,"station_id":"ce501612rcd8frsf0b60","pricing_plan_id":"cebpf4jnsgd1na2vs0mg"},{"bike_id":"0d050dda-6168-4d26-b9e4-98ab8744c03d","system_id":"levelo_inurba_marseille","lat":43.27564,"lon":5.38423,"is_reserved":false,"is_disabled":false,"rental_uris":{"android":"levelo://app?vid=0d050dda-6168-4d26-b9e4-98ab8744c03d","ios":"levelo://app?vid=0d050dda-6168-4d26-b9e4-98ab8744c03d"},"vehicle_type_id":"4","last_reported":1758284466,"current_range_meters":11600,"station_id":"ce4bhh92rcd13ifvqfi0","pricing_plan_id":"cebpf4jnsgd1na2vs0mg"},{"bike_id":"8e7a0e91-c1d7-4194-9ec3-f53c24a9208c","system_id":"levelo_inurba_marseille","lat":43.29194,"lon":5.35785,"is_reserved":false,"is_disabled":false,"rental_uris":{"android":"levelo://app?vid=8e7a0e91-c1d7-4194-9ec3-f53c24a9208c","ios":"levelo://app?vid=8e7a0e91-c1d7-4194-9ec3-f53c24a9208c"},"vehicle_type_id":"4","last_reported":1758284466,"current_range_meters":12000,"station_id":"ce4bhb92rcd13ifvqen0","pricing_plan_id":"cebpf4jnsgd1na2vs0mg"},{"bike_id":"95a62c10-7ca9-4348-809a-c3089ad076d3","system_id":"levelo_inurba_marseille","lat":43.298691,"lon":5.397381,"is_reserved":false,"is_disabled":true,"rental_uris":{"android":"levelo://app?vid=95a62c10-7ca9-4348-809a-c3089ad076d3","ios":"levelo://app?vid=95a62c10-7ca9-4348-809a-c3089ad076d3"},"vehicle_type_id":"4","last_reported":1758284466,"current_range_meters":12400,"station_id":"ce4bh0h2rcd13ifvqd50","pricing_plan_id":"cebpf4jnsgd1na2vs0mg"},{"bike_id":"db41234b-a075-4d8c-9ba3-129754b98a49","system_id":"levelo_inurba_marseille","lat":43.29975,"lon":5.37171,"is_reserved":false,"is_disabled":false,"rental_uris":{"android":"levelo://app?vid=db41234b-a075-4d8c-9ba3-129754b98a49","ios":"levelo://app?vid=db41234b-a075-4d8c-9ba3-129754b98a49"},"vehicle_type_id":"4","last_reported":1758284466,"current_range_meters":12800,"station_id":"ce4bgr92rcd13ifvqc7g","pricing_plan_id":"cebpf4jnsgd1na2vs0mg"},{"bike_id":"85b2f184-eabf-4304-911c-4aaceb0860d6","system_id":"levelo_inurba_marseille","lat":43.32364,"lon":5.36745,"is_reserved":false,"is_disabled":false,"rental_uris":{"android":"levelo://app?vid=85b2f184-eabf-4304-911c-4aaceb0860d6","ios":"levelo://app?vid=85b2f184-eabf-4304-911c-4aaceb0860d6"},"vehicle_type_id":"4","last_reported":1758284466,"current_range_meters":12800,"station_id":"ce4bhsh2rcd13ifvqi2g","pricing_plan_id":"cebpf4jnsgd1na2vs0mg"},{"bike_id":"bf6e6d27-c09e-4725-9fbc-20073fd5a515","system_id":"levelo_inurba_marseille","lat":43.289376,"lon":5.396214,"is_reserved":false,"is_disabled":false,"rental_uris":{"android":"levelo://app?vid=bf6e6d27-c09e-4725-9fbc-20073fd5a515","ios":"levelo://app?vid=bf6e6d27-c09e-4725-9fbc-20073fd5a515"},"vehicle_type_id":"4","last_reported":1758284466,"current_range_meters":12800,"station_id":"","pricing_plan_id":"cebpf4jnsgd1na2vs0mg"},{"bike_id":"709e8c80-ceff-4ac1-bba1-505f2beac068","system_id":"levelo_inurba_marseille","lat":43.278564,"lon":5.380359,"is_reserved":false,"is_disabled":false,"rental_uris":{"android":"levelo://app?vid=709e8c80-ceff-4ac1-bba1-505f2beac068","ios":"levelo://app?vid=709e8c80-ceff-4ac1-bba1-505f2beac068"},"vehicle_type_id":"4","last_reported":1758284466,"current_range_meters":12800,"station_id":"ce4bhf92rcd13ifvqf50","pricing_plan_id":"cebpf4jnsgd1na2vs0mg"},{"bike_id":"8c8f2133-0f50-478a-88a5-54420aeb36c2","system_id":"levelo_inurba_marseille","lat":43.280734,"lon":5.368203,"is_reserved":false,"is_disabled":false,"rental_uris":{"android":"levelo://app?vid=8c8f2133-0f50-478a-88a5-54420aeb36c2","ios":"levelo://app?vid=8c8f2133-0f50-478a-88a5-54420aeb36c2"},"vehicle_type_id":"4","last_reported":1758284466,"current_range_meters":12800,"station_id":"ce4bha12rcd13ifvqef0","pricing_plan_id":"cebpf4jnsgd1na2vs0mg"},{"bike_id":"0960e3dd-c358-4474-bd10-8223758e1f6b","system_id":"levelo_inurba_marseille","lat":43.296996,"lon":5.376855,"is_reserved":false,"is_disabled":false,"rental_uris":{"android":"levelo://app?vid=0960e3dd-c358-4474-bd10-8223758e1f6b","ios":"levelo://app?vid=0960e3dd-c358-4474-bd10-8223758e1f6b"},"vehicle_type_id":"4","last_reported":1758284466,"current_range_meters":12800,"station_id":"","pricing_plan_id":"cebpf4jnsgd1na2vs0mg"},{"bike_id":"43a642d0-274d-4397-afe6-4e9b67ad9360","system_id":"levelo_inurba_marseille","lat":43.30306,"lon":5.36875,"is_reserved":false,"is_disabled":false,"rental_uris":{"android":"levelo://app?vid=43a642d0-274d-4397-afe6-4e9b67ad9360","ios":"levelo://app?vid=43a642d0-274d-4397-afe6-4e9b67ad9360"},"vehicle_type_id":"4","last_reported":1758284466,"current_range_meters":13600,"station_id":"ce4bgqh2rcd13ifvqc5g","pricing_plan_id":"cebpf4jnsgd1na2vs0mg"},{"bike_id":"74af45e8-68ad-402d-9309-9c11252e3c46","system_id":"levelo_inurba_marseille","lat":43.25509,"lon":5.37629,"is_reserved":false,"is_disabled":false,"rental_uris":{"android":"levelo://app?vid=74af45e8-68ad-402d-9309-9c11252e3c46","ios":"levelo://app?vid=74af45e8-68ad-402d-9309-9c11252e3c46"},"vehicle_type_id":"4","last_reported":1758284466,"current_range_meters":13600,"station_id":"ce4bhh12rcd13ifvqff0","pricing_plan_id":"cebpf4jnsgd1na2vs0mg"},{"bike_id":"4b44a5a5-ae23-40ae-a13d-0b0c174b0d3e","system_id":"levelo_inurba_marseille","lat":43.29449,"lon":5.375624,"is_reserved":false,"is_disabled":false,"rental_uris":{"android":"levelo://app?vid=4b44a5a5-ae23-40ae-a13d-0b0c174b0d3e","ios":"levelo://app?vid=4b44a5a5-ae23-40ae-a13d-0b0c174b0d3e"},"vehicle_type_id":"4","last_reported":1758284466,"current_range_meters":13600,"station_id":"ce4bgkp2rcd13ifvqbmg","pricing_plan_id":"cebpf4jnsgd1na2vs0mg"},{"bike_id":"964ab893-ba77-4002-ad68-774d8a484f51","system_id":"levelo_inurba_marseille","lat":43.31324,"lon":5.39699,"is_reserved":false,"is_disabled":false,"rental_uris":{"android":"levelo://app?vid=964ab893-ba77-4002-ad68-774d8a484f51","ios":"levelo://app?vid=964ab893-ba77-4002-ad68-774d8a484f51"},"vehicle_type_id":"4","last_reported":1758284466,"current_range_meters":13600,"station_id":"ce4bgvp2rcd13ifvqcu0","pricing_plan_id":"cebpf4jnsgd1na2vs0mg"},{"bike_id":"638db232-0046-4166-a6b8-fd1baba892ec","system_id":"levelo_inurba_marseille","lat":43.27943,"lon":5.41052,"is_reserved":false,"is_disabled":false,"rental_uris":{"android":"levelo://app?vid=638db232-0046-4166-a6b8-fd1baba892ec","ios":"levelo://app?vid=638db232-0046-4166-a6b8-fd1baba892ec"},"vehicle_type_id":"4","last_reported":1758284466,"current_range_meters":13600,"station_id":"ce4bhnp2rcd13ifvqh0g","pricing_plan_id":"cebpf4jnsgd1na2vs0mg"},{"bike_id":"115fcd5d-e69c-4fe1-ad50-c41b78f96ff4","system_id":"levelo_inurba_marseille","lat":43.31484,"lon":5.37304,"is_reserved":false,"is_disabled":false,"rental_uris":{"android":"levelo://app?vid=115fcd5d-e69c-4fe1-ad50-c41b78f96ff4","ios":"levelo://app?vid=115fcd5d-e69c-4fe1-ad50-c41b78f96ff4"},"vehicle_type_id":"4","last_reported":1758284466,"current_range_meters":14000,"station_id":"ce4bgt12rcd13ifvqcd0","pricing_plan_id":"cebpf4jnsgd1na2vs0mg"},{"bike_id":"6dc49f8f-31b8-485c-b489-e3fd253e6676","system_id":"levelo_inurba_marseille","lat":43.333009,"lon":5.410255,"is_reserved":false,"is_disabled":true,"rental_uris":{"android":"levelo://app?vid=6dc49f8f-31b8-485c-b489-e3fd253e6676","ios":"levelo://app?vid=6dc49f8f-31b8-485c-b489-e3fd253e6676"},"vehicle_type_id":"4","last_reported":1758284466,"current_range_meters":14000,"station_id":"","pricing_plan_id":"cebpf4jnsgd1na2vs0mg"},{"bike_id":"045c8ca3-20c9-4af3-b019-609ee92982ec","system_id":"levelo_inurba_marseille","lat":43.29785,"lon":5.38103,"is_reserved":false,"is_disabled":false,"rental_uris":{"android":"levelo://app?vid=045c8ca3-20c9-4af3-b019-609ee92982ec","ios":"levelo://app?vid=045c8ca3-20c9-4af3-b019-609ee92982ec"},"vehicle_type_id":"4","last_reported":1758284466,"current_range_meters":14000,"station_id":"ce4bgip2rcd13ifvqbb0","pricing_plan_id":"cebpf4jnsgd1na2vs0mg"},{"bike_id":"fbc95f52-82ba-4664-ba02-d0f5639c0461","system_id":"levelo_inurba_marseille","lat":43.26556,"lon":5.3728,"is_reserved":false,"is_disabled":false,"rental_uris":{"android":"levelo://app?vid=fbc95f52-82ba-4664-ba02-d0f5639c0461","ios":"levelo://app?vid=fbc95f52-82ba-4664-ba02-d0f5639c0461"},"vehicle_type_id":"4","last_reported":1758284466,"current_range_meters":14000,"station_id":"ce4bhg12rcd13ifvqf70","pricing_plan_id":"cebpf4jnsgd1na2vs0mg"},{"bike_id":"26b43886-fa77-4bdc-88cd-18b348cfd5a1","system_id":"levelo_inurba_marseille","lat":43.24187,"lon":5.39727,"is_reserved":false,"is_disabled":false,"rental_uris":{"android":"levelo://app?vid=26b43886-fa77-4bdc-88cd-18b348cfd5a1","ios":"levelo://app?vid=26b43886-fa77-4bdc-88cd-18b348cfd5a1"},"vehicle_type_id":"4","last_reported":1758284466,"current_range_meters":14400,"station_id":"ce4bhn12rcd13ifvqgpg","pricing_plan_id":"cebpf4jnsgd1na2vs0mg"},{"bike_id":"2d451c7b-cc83-474c-b2f4-9e5abfc44532","system_id":"levelo_inurba_marseille","lat":43.28287,"lon":5.35051,"is_reserved":false,"is_disabled":false,"rental_uris":{"android":"levelo://app?vid=2d451c7b-cc83-474c-b2f4-9e5abfc44532","ios":"levelo://app?vid=2d451c7b-cc83-474c-b2f4-9e5abfc44532"},"vehicle_type_id":"4","last_reported":1758284466,"current_range_meters":14400,"station_id":"ce4bhbp2rcd13ifvqerg","pricing_plan_id":"cebpf4jnsgd1na2vs0mg"},{"bike_id":"a6089152-1d5f-4e6d-a5a1-8d2f67843e34","system_id":"levelo_inurba_marseille","lat":43.28462,"lon":5.35874,"is_reserved":false,"is_disabled":false,"rental_uris":{"android":"levelo://app?vid=a6089152-1d5f-4e6d-a5a1-8d2f67843e34","ios":"levelo://app?vid=a6089152-1d5f-4e6d-a5a1-8d2f67843e34"},"vehicle_type_id":"4","last_reported":1758284466,"current_range_meters":14400,"station_id":"ce4bhah2rcd13ifvqei0","pricing_plan_id":"cebpf4jnsgd1na2vs0mg"},{"bike_id":"67eb8721-b3b8-4086-9ffc-60ca7e1b0555","system_id":"levelo_inurba_marseille","lat":43.28422,"lon":5.34977,"is_reserved":false,"is_disabled":false,"rental_uris":{"android":"levelo://app?vid=67eb8721-b3b8-4086-9ffc-60ca7e1b0555","ios":"levelo://app?vid=67eb8721-b3b8-4086-9ffc-60ca7e1b0555"},"vehicle_type_id":"4","last_reported":1758284466,"current_range_meters":14400,"station_id":"ce4bhbh2rcd13ifvqepg","pricing_plan_id":"cebpf4jnsgd1na2vs0mg"},{"bike_id":"1ab9c8cf-26ed-41e9-90f1-4debc433aff5","system_id":"levelo_inurba_marseille","lat":43.24072,"lon":5.37764,"is_reserved":false,"is_disabled":false,"rental_uris":{"android":"levelo://app?vid=1ab9c8cf-26ed-41e9-90f1-4debc433aff5","ios":"levelo://app?vid=1ab9c8cf-26ed-41e9-90f1-4debc433aff5"},"vehicle_type_id":"4","last_reported":1758284466,"current_range_meters":14800,"station_id":"ce4bhnp2rcd13ifvqgvg","pricing_plan_id":"cebpf4jnsgd1na2vs0mg"},{"bike_id":"931664d9-a1f9-4b23-9426-5b3082bf7d09","system_id":"levelo_inurba_marseille","lat":43.30927,"lon":5.40142,"is_reserved":false,"is_disabled":true,"rental_uris":{"android":"levelo://app?vid=931664d9-a1f9-4b23-9426-5b3082bf7d09","ios":"levelo://app?vid=931664d9-a1f9-4b23-9426-5b3082bf7d09"},"vehicle_type_id":"4","last_reported":1758284466,"current_range_meters":14800,"station_id":"ce4bgvp2rcd13ifvqct0","pricing_plan_id":"cebpf4jnsgd1na2vs0mg"},{"bike_id":"ddfe1c9b-9452-47a6-99c7-6285eea241d1","system_id":"levelo_inurba_marseille","lat":43.29651,"lon":5.40634,"is_reserved":false,"is_disabled":false,"rental_uris":{"android":"levelo://app?vid=ddfe1c9b-9452-47a6-99c7-6285eea241d1","ios":"levelo://app?vid=ddfe1c9b-9452-47a6-99c7-6285eea241d1"},"vehicle_type_id":"4","last_reported":1758284466,"current_range_meters":14800,"station_id":"ce4bh0h2rcd13ifvqd60","pricing_plan_id":"cebpf4jnsgd1na2vs0mg"},{"bike_id":"3a65bd62-441d-4cca-9f9e-d1d5c3ae0659","system_id":"levelo_inurba_marseille","lat":43.26781,"lon":5.39421,"is_reserved":false,"is_disabled":false,"rental_uris":{"android":"levelo://app?vid=3a65bd62-441d-4cca-9f9e-d1d5c3ae0659","ios":"levelo://app?vid=3a65bd62-441d-4cca-9f9e-d1d5c3ae0659"},"vehicle_type_id":"4","last_reported":1758284466,"current_range_meters":14800,"station_id":"ce4bhh12rcd13ifvqfg0","pricing_plan_id":"cebpf4jnsgd1na2vs0mg"},{"bike_id":"9c0693b2-33f4-40d9-85fa-754a770a9d54","system_id":"levelo_inurba_marseille","lat":43.295188,"lon":5.390328,"is_reserved":false,"is_disabled":false,"rental_uris":{"android":"levelo://app?vid=9c0693b2-33f4-40d9-85fa-754a770a9d54","ios":"levelo://app?vid=9c0693b2-33f4-40d9-85fa-754a770a9d54"},"vehicle_type_id":"4","last_reported":1758284466,"current_range_meters":14800,"station_id":"ce4bh312rcd13ifvqdj0","pricing_plan_id":"cebpf4jnsgd1na2vs0mg"},{"bike_id":"53a67a11-7624-45af-b3a0-5af4267c258a","system_id":"levelo_inurba_marseille","lat":43.29683,"lon":5.37293,"is_reserved":false,"is_disabled":false,"rental_uris":{"android":"levelo://app?vid=53a67a11-7624-45af-b3a0-5af4267c258a","ios":"levelo://app?vid=53a67a11-7624-45af-b3a0-5af4267c258a"},"vehicle_type_id":"4","last_reported":1758284466,"current_range_meters":15200,"station_id":"ce4bgk12rcd13ifvqbj0","pricing_plan_id":"cebpf4jnsgd1na2vs0mg"},{"bike_id":"7df5983d-afc7-4c15-a3e6-ba7d41a736f9","system_id":"levelo_inurba_marseille","lat":43.24542,"lon":5.37327,"is_reserved":false,"is_disabled":true,"rental_uris":{"android":"levelo://app?vid=7df5983d-afc7-4c15-a3e6-ba7d41a736f9","ios":"levelo://app?vid=7df5983d-afc7-4c15-a3e6-ba7d41a736f9"},"vehicle_type_id":"4","last_reported":1758284466,"current_range_meters":15200,"station_id":"","pricing_plan_id":"cebpf4jnsgd1na2vs0mg"},{"bike_id":"182423cd-257d-4bcb-84ff-92ce47f99a71","system_id":"levelo_inurba_marseille","lat":43.29299,"lon":5.37465,"is_reserved":false,"is_disabled":false,"rental_uris":{"android":"levelo://app?vid=182423cd-257d-4bcb-84ff-92ce47f99a71","ios":"levelo://app?vid=182423cd-257d-4bcb-84ff-92ce47f99a71"},"vehicle_type_id":"4","last_reported":1758284466,"current_range_meters":15200,"station_id":"ce4bgi12rcd13ifvqb70","pricing_plan_id":"cebpf4jnsgd1na2vs0mg"},{"bike_id":"518eef5b-9e3c-4b06-94a9-56e70af9d262","system_id":"levelo_inurba_marseille","lat":43.30802,"lon":5.3816,"is_reserved":false,"is_disabled":true,"rental_uris":{"android":"levelo://app?vid=518eef5b-9e3c-4b06-94a9-56e70af9d262","ios":"levelo://app?vid=518eef5b-9e3c-4b06-94a9-56e70af9d262"},"vehicle_type_id":"4","last_reported":1758284466,"current_range_meters":15200,"station_id":"ce4bgt12rcd13ifvqce0","pricing_plan_id":"cebpf4jnsgd1na2vs0mg"},{"bike_id":"afdc1e14-0e87-4dc9-b56a-2d5f1c0cf228","system_id":"levelo_inurba_marseille","lat":43.27374,"lon":5.36261,"is_reserved":false,"is_disabled":false,"rental_uris":{"android":"levelo://app?vid=afdc1e14-0e87-4dc9-b56a-2d5f1c0cf228","ios":"levelo://app?vid=afdc1e14-0e87-4dc9-b56a-2d5f1c0cf228"},"vehicle_type_id":"4","last_reported":1758284466,"current_range_meters":16000,"station_id":"ce4bhbh2rcd13ifvqeo0","pricing_plan_id":"cebpf4jnsgd1na2vs0mg"},{"bike_id":"a1d025b0-a4d2-4fc3-b8f0-9e46be5c0a93","system_id":"levelo_inurba_marseille","lat":43.30124,"lon":5.39835,"is_reserved":false,"is_disabled":false,"rental_uris":{"android":"levelo://app?vid=a1d025b0-a4d2-4fc3-b8f0-9e46be5c0a93","ios":"levelo://app?vid=a1d025b0-a4d2-4fc3-b8f0-9e46be5c0a93"},"vehicle_type_id":"4","last_reported":1758284466,"current_range_meters":16000,"station_id":"ce4bh0h2rcd13ifvqd40","pricing_plan_id":"cebpf4jnsgd1na2vs0mg"},{"bike_id":"af2f819f-1a97-4299-a378-681de4f25fed","system_id":"levelo_inurba_marseille","lat":43.33602,"lon":5.41033,"is_reserved":false,"is_disabled":false,"rental_uris":{"android":"levelo://app?vid=af2f819f-1a97-4299-a378-681de4f25fed","ios":"levelo://app?vid=af2f819f-1a97-4299-a378-681de4f25fed"},"vehicle_type_id":"4","last_reported":1758284466,"current_range_meters":16000,"station_id":"ce4bhqh2rcd13ifvqhmg","pricing_plan_id":"cebpf4jnsgd1na2vs0mg"},{"bike_id":"3bc55b74-eb07-4466-8bdc-16723c3f40c8","system_id":"levelo_inurba_marseille","lat":43.26586,"lon":5.39393,"is_reserved":false,"is_disabled":false,"rental_uris":{"android":"levelo://app?vid=3bc55b74-eb07-4466-8bdc-16723c3f40c8","ios":"levelo://app?vid=3bc55b74-eb07-4466-8bdc-16723c3f40c8"},"vehicle_type_id":"4","last_reported":1758284466,"current_range_meters":16000,"station_id":"","pricing_plan_id":"cebpf4jnsgd1na2vs0mg"},{"bike_id":"49750b39-8578-44da-b154-f91837d03cf3","system_id":"levelo_inurba_marseille","lat":43.287292,"lon":5.360798,"is_reserved":false,"is_disabled":false,"rental_uris":{"android":"levelo://app?vid=49750b39-8578-44da-b154-f91837d03cf3","ios":"levelo://app?vid=49750b39-8578-44da-b154-f91837d03cf3"},"vehicle_type_id":"4","last_reported":1758284466,"current_range_meters":16000,"station_id":"cki0cbj6b192h4jlfktg","pricing_plan_id":"cebpf4jnsgd1na2vs0mg"},{"bike_id":"f85a8c4d-f9d0-4136-9b57-8bfb28db950c","system_id":"levelo_inurba_marseille","lat":43.31878,"lon":5.37436,"is_reserved":false,"is_disabled":false,"rental_uris":{"android":"levelo://app?vid=f85a8c4d-f9d0-4136-9b57-8bfb28db950c","ios":"levelo://app?vid=f85a8c4d-f9d0-4136-9b57-8bfb28db950c"},"vehicle_type_id":"4","last_reported":1758284466,"current_range_meters":16000,"station_id":"","pricing_plan_id":"cebpf4jnsgd1na2vs0mg"},{"bike_id":"b1aea033-d9a7-44a7-8a23-2e263bbc1dee","system_id":"levelo_inurba_marseille","lat":43.3049,"lon":5.3666,"is_reserved":false,"is_disabled":false,"rental_uris":{"android":"levelo://app?vid=b1aea033-d9a7-44a7-8a23-2e263bbc1dee","ios":"levelo://app?vid=b1aea033-d9a7-44a7-8a23-2e263bbc1dee"},"vehicle_type_id":"4","last_reported":1758284466,"current_range_meters":16000,"station_id":"","pricing_plan_id":"cebpf4jnsgd1na2vs0mg"},{"bike_id":"82ff2aa5-7947-4d6a-b628-a72140befcb9","system_id":"levelo_inurba_marseille","lat":43.23153,"lon":5.43706,"is_reserved":false,"is_disabled":false,"rental_uris":{"android":"levelo://app?vid=82ff2aa5-7947-4d6a-b628-a72140befcb9","ios":"levelo://app?vid=82ff2aa5-7947-4d6a-b628-a72140befcb9"},"vehicle_type_id":"4","last_reported":1758284466,"current_range_meters":16000,"station_id":"ce4bhmp2rcd13ifvqgog","pricing_plan_id":"cebpf4jnsgd1na2vs0mg"},{"bike_id":"438ead59-de14-4fa0-a61d-03a70a4122ae","system_id":"levelo_inurba_marseille","lat":43.9728,"lon":4.89135,"is_reserved":false,"is_disabled":true,"rental_uris":{"android":"levelo://app?vid=438ead59-de14-4fa0-a61d-03a70a4122ae","ios":"levelo://app?vid=438ead59-de14-4fa0-a61d-03a70a4122ae"},"vehicle_type_id":"4","last_reported":1758284466,"current_range_meters":16000,"station_id":"","pricing_plan_id":"cebpf4jnsgd1na2vs0mg"},{"bike_id":"0dd694ca-31ae-4ecb-b5fc-605af2628a1a","system_id":"levelo_inurba_marseille","lat":43.31486,"lon":5.37301,"is_reserved":false,"is_disabled":false,"rental_uris":{"android":"levelo://app?vid=0dd694ca-31ae-4ecb-b5fc-605af2628a1a","ios":"levelo://app?vid=0dd694ca-31ae-4ecb-b5fc-605af2628a1a"},"vehicle_type_id":"4","last_reported":1758284466,"current_range_meters":16400,"station_id":"ce4bgt12rcd13ifvqcd0","pricing_plan_id":"cebpf4jnsgd1na2vs0mg"},{"bike_id":"9243fec8-1fd3-4661-8ac6-1ca30e04c964","system_id":"levelo_inurba_marseille","lat":43.27618,"lon":5.3611,"is_reserved":false,"is_disabled":false,"rental_uris":{"android":"levelo://app?vid=9243fec8-1fd3-4661-8ac6-1ca30e04c964","ios":"levelo://app?vid=9243fec8-1fd3-4661-8ac6-1ca30e04c964"},"vehicle_type_id":"4","last_reported":1758284466,"current_range_meters":16400,"station_id":"ce4bgj92rcd13ifvqbe0","pricing_plan_id":"cebpf4jnsgd1na2vs0mg"},{"bike_id":"6be0e73d-d788-48f3-b3c3-768f66b5d44a","system_id":"levelo_inurba_marseille","lat":43.28421,"lon":5.34994,"is_reserved":false,"is_disabled":false,"rental_uris":{"android":"levelo://app?vid=6be0e73d-d788-48f3-b3c3-768f66b5d44a","ios":"levelo://app?vid=6be0e73d-d788-48f3-b3c3-768f66b5d44a"},"vehicle_type_id":"4","last_reported":1758284466,"current_range_meters":16400,"station_id":"ce4bhbh2rcd13ifvqepg","pricing_plan_id":"cebpf4jnsgd1na2vs0mg"},{"bike_id":"bf31957d-71b2-4cad-b061-fdbaaa32e6f9","system_id":"levelo_inurba_marseille","lat":43.29262,"lon":5.37617,"is_reserved":false,"is_disabled":true,"rental_uris":{"android":"levelo://app?vid=bf31957d-71b2-4cad-b061-fdbaaa32e6f9","ios":"levelo://app?vid=bf31957d-71b2-4cad-b061-fdbaaa32e6f9"},"vehicle_type_id":"4","last_reported":1758284466,"current_range_meters":16400,"station_id":"ce4bgi12rcd13ifvqb80","pricing_plan_id":"cebpf4jnsgd1na2vs0mg"},{"bike_id":"5d320e7e-aabb-4bfc-9317-2167c638cfad","system_id":"levelo_inurba_marseille","lat":43.2953,"lon":5.38545,"is_reserved":false,"is_disabled":false,"rental_uris":{"android":"levelo://app?vid=5d320e7e-aabb-4bfc-9317-2167c638cfad","ios":"levelo://app?vid=5d320e7e-aabb-4bfc-9317-2167c638cfad"},"vehicle_type_id":"4","last_reported":1758284466,"current_range_meters":16400,"station_id":"ce4bgih2rcd13ifvqba0","pricing_plan_id":"cebpf4jnsgd1na2vs0mg"},{"bike_id":"95b43e4c-e9a8-44e8-ba0a-4478acd8f4f5","system_id":"levelo_inurba_marseille","lat":43.28159,"lon":5.42643,"is_reserved":false,"is_disabled":false,"rental_uris":{"android":"levelo://app?vid=95b43e4c-e9a8-44e8-ba0a-4478acd8f4f5","ios":"levelo://app?vid=95b43e4c-e9a8-44e8-ba0a-4478acd8f4f5"},"vehicle_type_id":"4","last_reported":1758284466,"current_range_meters":16800,"station_id":"ce4bhnh2rcd13ifvqgug","pricing_plan_id":"cebpf4jnsgd1na2vs0mg"},{"bike_id":"4527fb6f-6f82-4acc-8207-4cb407997578","system_id":"levelo_inurba_marseille","lat":43.30911,"lon":5.36844,"is_reserved":false,"is_disabled":false,"rental_uris":{"android":"levelo://app?vid=4527fb6f-6f82-4acc-8207-4cb407997578","ios":"levelo://app?vid=4527fb6f-6f82-4acc-8207-4cb407997578"},"vehicle_type_id":"4","last_reported":1758284466,"current_range_meters":16800,"station_id":"ce4bgn92rcd13ifvqbvg","pricing_plan_id":"cebpf4jnsgd1na2vs0mg"},{"bike_id":"6c2c7fc8-53c9-4e73-8e20-f193590dbe08","system_id":"levelo_inurba_marseille","lat":43.25931,"lon":5.40898,"is_reserved":false,"is_disabled":false,"rental_uris":{"android":"levelo://app?vid=6c2c7fc8-53c9-4e73-8e20-f193590dbe08","ios":"levelo://app?vid=6c2c7fc8-53c9-4e73-8e20-f193590dbe08"},"vehicle_type_id":"4","last_reported":1758284466,"current_range_meters":16800,"station_id":"ce4bhm92rcd13ifvqglg","pricing_plan_id":"cebpf4jnsgd1na2vs0mg"},{"bike_id":"c4706891-6ce1-4440-91ff-a3ecf2ff007e","system_id":"levelo_inurba_marseille","lat":43.26374,"lon":5.40075,"is_reserved":false,"is_disabled":false,"rental_uris":{"android":"levelo://app?vid=c4706891-6ce1-4440-91ff-a3ecf2ff007e","ios":"levelo://app?vid=c4706891-6ce1-4440-91ff-a3ecf2ff007e"},"vehicle_type_id":"4","last_reported":1758284466,"current_range_meters":16800,"station_id":"","pricing_plan_id":"cebpf4jnsgd1na2vs0mg"},{"bike_id":"51f1cf8a-2ea2-4929-ba38-75be9dbba7e9","system_id":"levelo_inurba_marseille","lat":43.2408,"lon":5.37762,"is_reserved":false,"is_disabled":false,"rental_uris":{"android":"levelo://app?vid=51f1cf8a-2ea2-4929-ba38-75be9dbba7e9","ios":"levelo://app?vid=51f1cf8a-2ea2-4929-ba38-75be9dbba7e9"},"vehicle_type_id":"4","last_reported":1758284466,"current_range_meters":16800,"station_id":"ce4bhnp2rcd13ifvqgvg","pricing_plan_id":"cebpf4jnsgd1na2vs0mg"},{"bike_id":"6f567e71-54ee-44f3-9589-459948ca3f62","system_id":"levelo_inurba_marseille","lat":43.31989,"lon":5.3814,"is_reserved":false,"is_disabled":false,"rental_uris":{"android":"levelo://app?vid=6f567e71-54ee-44f3-9589-459948ca3f62","ios":"levelo://app?vid=6f567e71-54ee-44f3-9589-459948ca3f62"},"vehicle_type_id":"4","last_reported":1758284466,"current_range_meters":16800,"station_id":"ce4bhr12rcd13ifvqhpg","pricing_plan_id":"cebpf4jnsgd1na2vs0mg"},{"bike_id":"835975a0-27c7-47e7-bc1c-b8ba0b505127","system_id":"levelo_inurba_marseille","lat":43.3258,"lon":5.37817,"is_reserved":false,"is_disabled":false,"rental_uris":{"android":"levelo://app?vid=835975a0-27c7-47e7-bc1c-b8ba0b505127","ios":"levelo://app?vid=835975a0-27c7-47e7-bc1c-b8ba0b505127"},"vehicle_type_id":"4","last_reported":1758284466,"current_range_meters":16800,"station_id":"","pricing_plan_id":"cebpf4jnsgd1na2vs0mg"},{"bike_id":"291b4e3e-56d6-44b9-8d7c-6ba733401415","system_id":"levelo_inurba_marseille","lat":43.24168,"lon":5.36394,"is_reserved":false,"is_disabled":false,"rental_uris":{"android":"levelo://app?vid=291b4e3e-56d6-44b9-8d7c-6ba733401415","ios":"levelo://app?vid=291b4e3e-56d6-44b9-8d7c-6ba733401415"},"vehicle_type_id":"4","last_reported":1758284466,"current_range_meters":16800,"station_id":"cpo36qri1sfpv3e86is0","pricing_plan_id":"cebpf4jnsgd1na2vs0mg"},{"bike_id":"6f9953df-ea56-4901-8d7d-3ab6382d6c2b","system_id":"levelo_inurba_marseille","lat":43.29868,"lon":5.39721,"is_reserved":false,"is_disabled":false,"rental_uris":{"android":"levelo://app?vid=6f9953df-ea56-4901-8d7d-3ab6382d6c2b","ios":"levelo://app?vid=6f9953df-ea56-4901-8d7d-3ab6382d6c2b"},"vehicle_type_id":"4","last_reported":1758284466,"current_range_meters":16800,"station_id":"ce4bh0h2rcd13ifvqd50","pricing_plan_id":"cebpf4jnsgd1na2vs0mg"},{"bike_id":"395c05b9-96c9-4725-a84b-cf8b39363ded","system_id":"levelo_inurba_marseille","lat":43.29794,"lon":5.37103,"is_reserved":false,"is_disabled":false,"rental_uris":{"android":"levelo://app?vid=395c05b9-96c9-4725-a84b-cf8b39363ded","ios":"levelo://app?vid=395c05b9-96c9-4725-a84b-cf8b39363ded"},"vehicle_type_id":"4","last_reported":1758284466,"current_range_meters":16400,"station_id":"ce4bgop2rcd13ifvqc1g","pricing_plan_id":"cebpf4jnsgd1na2vs0mg"},{"bike_id":"1f81683f-c44c-4d8e-b59f-71435a4bfd64","system_id":"levelo_inurba_marseille","lat":43.29803,"lon":5.39338,"is_reserved":false,"is_disabled":false,"rental_uris":{"android":"levelo://app?vid=1f81683f-c44c-4d8e-b59f-71435a4bfd64","ios":"levelo://app?vid=1f81683f-c44c-4d8e-b59f-71435a4bfd64"},"vehicle_type_id":"4","last_reported":1758284466,"current_range_meters":16800,"station_id":"chh1huq6cuj3fo74tm60","pricing_plan_id":"cebpf4jnsgd1na2vs0mg"},{"bike_id":"0cffe3ca-adb7-44fa-8f62-02983e6d7703","system_id":"levelo_inurba_marseille","lat":43.28418,"lon":5.34987,"is_reserved":false,"is_disabled":false,"rental_uris":{"android":"levelo://app?vid=0cffe3ca-adb7-44fa-8f62-02983e6d7703","ios":"levelo://app?vid=0cffe3ca-adb7-44fa-8f62-02983e6d7703"},"vehicle_type_id":"4","last_reported":1758284466,"current_range_meters":17200,"station_id":"ce4bhbh2rcd13ifvqepg","pricing_plan_id":"cebpf4jnsgd1na2vs0mg"},{"bike_id":"52b9e40c-4a0a-48d3-82ee-66d2ae53b440","system_id":"levelo_inurba_marseille","lat":43.30417,"lon":5.41278,"is_reserved":false,"is_disabled":false,"rental_uris":{"android":"levelo://app?vid=52b9e40c-4a0a-48d3-82ee-66d2ae53b440","ios":"levelo://app?vid=52b9e40c-4a0a-48d3-82ee-66d2ae53b440"},"vehicle_type_id":"4","last_reported":1758284466,"current_range_meters":17200,"station_id":"ce4bhop2rcd13ifvqh8g","pricing_plan_id":"cebpf4jnsgd1na2vs0mg"},{"bike_id":"4199a78e-e024-4aa0-add5-bfe6d6531bc4","system_id":"levelo_inurba_marseille","lat":43.24164,"lon":5.36394,"is_reserved":false,"is_disabled":false,"rental_uris":{"android":"levelo://app?vid=4199a78e-e024-4aa0-add5-bfe6d6531bc4","ios":"levelo://app?vid=4199a78e-e024-4aa0-add5-bfe6d6531bc4"},"vehicle_type_id":"4","last_reported":1758284466,"current_range_meters":17200,"station_id":"cpo36qri1sfpv3e86is0","pricing_plan_id":"cebpf4jnsgd1na2vs0mg"},{"bike_id":"0968db8c-bbcc-4d16-9b2e-300c7140beae","system_id":"levelo_inurba_marseille","lat":43.29632,"lon":5.40594,"is_reserved":false,"is_disabled":false,"rental_uris":{"android":"levelo://app?vid=0968db8c-bbcc-4d16-9b2e-300c7140beae","ios":"levelo://app?vid=0968db8c-bbcc-4d16-9b2e-300c7140beae"},"vehicle_type_id":"4","last_reported":1758284466,"current_range_meters":17200,"station_id":"ce4bh0h2rcd13ifvqd60","pricing_plan_id":"cebpf4jnsgd1na2vs0mg"},{"bike_id":"9c94b406-aac8-444a-8bc8-d57f4bf5dd6c","system_id":"levelo_inurba_marseille","lat":43.24073,"lon":5.37758,"is_reserved":false,"is_disabled":false,"rental_uris":{"android":"levelo://app?vid=9c94b406-aac8-444a-8bc8-d57f4bf5dd6c","ios":"levelo://app?vid=9c94b406-aac8-444a-8bc8-d57f4bf5dd6c"},"vehicle_type_id":"4","last_reported":1758284466,"current_range_meters":17200,"station_id":"ce4bhnp2rcd13ifvqgvg","pricing_plan_id":"cebpf4jnsgd1na2vs0mg"},{"bike_id":"17826f55-e489-43fa-bf5c-5163feb1f99a","system_id":"levelo_inurba_marseille","lat":43.3081,"lon":5.38163,"is_reserved":false,"is_disabled":false,"rental_uris":{"android":"levelo://app?vid=17826f55-e489-43fa-bf5c-5163feb1f99a","ios":"levelo://app?vid=17826f55-e489-43fa-bf5c-5163feb1f99a"},"vehicle_type_id":"4","last_reported":1758284466,"current_range_meters":17200,"station_id":"ce4bgt12rcd13ifvqce0","pricing_plan_id":"cebpf4jnsgd1na2vs0mg"},{"bike_id":"8f851047-99c9-460c-8e68-bd83f904b638","system_id":"levelo_inurba_marseille","lat":43.301453,"lon":5.380888,"is_reserved":false,"is_disabled":false,"rental_uris":{"android":"levelo://app?vid=8f851047-99c9-460c-8e68-bd83f904b638","ios":"levelo://app?vid=8f851047-99c9-460c-8e68-bd83f904b638"},"vehicle_type_id":"4","last_reported":1758284466,"current_range_meters":17200,"station_id":"ce4bgjp2rcd13ifvqbh0","pricing_plan_id":"cebpf4jnsgd1na2vs0mg"},{"bike_id":"43d57fd4-047e-4ac8-97e5-ec9b96239472","system_id":"levelo_inurba_marseille","lat":43.32943,"lon":5.39093,"is_reserved":false,"is_disabled":false,"rental_uris":{"android":"levelo://app?vid=43d57fd4-047e-4ac8-97e5-ec9b96239472","ios":"levelo://app?vid=43d57fd4-047e-4ac8-97e5-ec9b96239472"},"vehicle_type_id":"4","last_reported":1758284466,"current_range_meters":17200,"station_id":"","pricing_plan_id":"cebpf4jnsgd1na2vs0mg"},{"bike_id":"af92115d-6f7a-49ce-a65e-77f9182df835","system_id":"levelo_inurba_marseille","lat":43.21761,"lon":5.34585,"is_reserved":false,"is_disabled":false,"rental_uris":{"android":"levelo://app?vid=af92115d-6f7a-49ce-a65e-77f9182df835","ios":"levelo://app?vid=af92115d-6f7a-49ce-a65e-77f9182df835"},"vehicle_type_id":"4","last_reported":1758284466,"current_range_meters":17600,"station_id":"st_cvj6r9ubvosntc0bgbag","pricing_plan_id":"cebpf4jnsgd1na2vs0mg"},{"bike_id":"28e35ff1-922d-49c8-87e2-a30c3a416555","system_id":"levelo_inurba_marseille","lat":43.27177,"lon":5.40998,"is_reserved":false,"is_disabled":false,"rental_uris":{"android":"levelo://app?vid=28e35ff1-922d-49c8-87e2-a30c3a416555","ios":"levelo://app?vid=28e35ff1-922d-49c8-87e2-a30c3a416555"},"vehicle_type_id":"4","last_reported":1758284466,"current_range_meters":17600,"station_id":"ce4bhl12rcd13ifvqgf0","pricing_plan_id":"cebpf4jnsgd1na2vs0mg"},{"bike_id":"af0490b6-c1c9-4895-8a15-568d23e0a730","system_id":"levelo_inurba_marseille","lat":43.28082,"lon":5.40784,"is_reserved":false,"is_disabled":false,"rental_uris":{"android":"levelo://app?vid=af0490b6-c1c9-4895-8a15-568d23e0a730","ios":"levelo://app?vid=af0490b6-c1c9-4895-8a15-568d23e0a730"},"vehicle_type_id":"4","last_reported":1758284466,"current_range_meters":17600,"station_id":"","pricing_plan_id":"cebpf4jnsgd1na2vs0mg"},{"bike_id":"70de52ff-0d3e-466d-9727-745345be63dc","system_id":"levelo_inurba_marseille","lat":43.24802,"lon":5.37454,"is_reserved":false,"is_disabled":false,"rental_uris":{"android":"levelo://app?vid=70de52ff-0d3e-466d-9727-745345be63dc","ios":"levelo://app?vid=70de52ff-0d3e-466d-9727-745345be63dc"},"vehicle_type_id":"4","last_reported":1758284466,"current_range_meters":17600,"station_id":"ce4bhgh2rcd13ifvqfb0","pricing_plan_id":"cebpf4jnsgd1na2vs0mg"},{"bike_id":"9793c943-3072-4085-9126-cce0446bf3a8","system_id":"levelo_inurba_marseille","lat":43.25339,"lon":5.42169,"is_reserved":false,"is_disabled":false,"rental_uris":{"android":"levelo://app?vid=9793c943-3072-4085-9126-cce0446bf3a8","ios":"levelo://app?vid=9793c943-3072-4085-9126-cce0446bf3a8"},"vehicle_type_id":"4","last_reported":1758284466,"current_range_meters":17600,"station_id":"st_d2m65c5bi1j21697t3ng","pricing_plan_id":"cebpf4jnsgd1na2vs0mg"},{"bike_id":"a521828a-21f2-4627-8095-0f720588c481","system_id":"levelo_inurba_marseille","lat":43.21206,"lon":5.35063,"is_reserved":false,"is_disabled":false,"rental_uris":{"android":"levelo://app?vid=a521828a-21f2-4627-8095-0f720588c481","ios":"levelo://app?vid=a521828a-21f2-4627-8095-0f720588c481"},"vehicle_type_id":"4","last_reported":1758284466,"current_range_meters":17600,"station_id":"st_cvj6sg6p6f1abm77japg","pricing_plan_id":"cebpf4jnsgd1na2vs0mg"},{"bike_id":"1d6512d2-0abe-496f-b56b-70823fb272b1","system_id":"levelo_inurba_marseille","lat":43.3018,"lon":5.36606,"is_reserved":false,"is_disabled":false,"rental_uris":{"android":"levelo://app?vid=1d6512d2-0abe-496f-b56b-70823fb272b1","ios":"levelo://app?vid=1d6512d2-0abe-496f-b56b-70823fb272b1"},"vehicle_type_id":"4","last_reported":1758284466,"current_range_meters":17600,"station_id":"ce4bgrh2rcd13ifvqc8g","pricing_plan_id":"cebpf4jnsgd1na2vs0mg"},{"bike_id":"69776fa3-b743-4691-8b9f-08aaf8cbc4ca","system_id":"levelo_inurba_marseille","lat":43.27999,"lon":5.41668,"is_reserved":false,"is_disabled":false,"rental_uris":{"android":"levelo://app?vid=69776fa3-b743-4691-8b9f-08aaf8cbc4ca","ios":"levelo://app?vid=69776fa3-b743-4691-8b9f-08aaf8cbc4ca"},"vehicle_type_id":"4","last_reported":1758284466,"current_range_meters":17600,"station_id":"ce4bho12rcd13ifvqh1g","pricing_plan_id":"cebpf4jnsgd1na2vs0mg"},{"bike_id":"7357da4f-504b-4073-8a54-640865f66658","system_id":"levelo_inurba_marseille","lat":43.2981,"lon":5.38082,"is_reserved":false,"is_disabled":false,"rental_uris":{"android":"levelo://app?vid=7357da4f-504b-4073-8a54-640865f66658","ios":"levelo://app?vid=7357da4f-504b-4073-8a54-640865f66658"},"vehicle_type_id":"4","last_reported":1758284466,"current_range_meters":17600,"station_id":"ce4bgip2rcd13ifvqbb0","pricing_plan_id":"cebpf4jnsgd1na2vs0mg"},{"bike_id":"7f1be994-af2d-4c9a-807a-220e9a43367d","system_id":"levelo_inurba_marseille","lat":43.21767,"lon":5.3459,"is_reserved":false,"is_disabled":false,"rental_uris":{"android":"levelo://app?vid=7f1be994-af2d-4c9a-807a-220e9a43367d","ios":"levelo://app?vid=7f1be994-af2d-4c9a-807a-220e9a43367d"},"vehicle_type_id":"4","last_reported":1758284466,"current_range_meters":18000,"station_id":"st_cvj6r9ubvosntc0bgbag","pricing_plan_id":"cebpf4jnsgd1na2vs0mg"},{"bike_id":"7c319948-94e3-43b2-8936-339e36d55094","system_id":"levelo_inurba_marseille","lat":43.29957,"lon":5.41324,"is_reserved":false,"is_disabled":false,"rental_uris":{"android":"levelo://app?vid=7c319948-94e3-43b2-8936-339e36d55094","ios":"levelo://app?vid=7c319948-94e3-43b2-8936-339e36d55094"},"vehicle_type_id":"4","last_reported":1758284466,"current_range_meters":18000,"station_id":"ce4bhp12rcd13ifvqh9g","pricing_plan_id":"cebpf4jnsgd1na2vs0mg"},{"bike_id":"7dcbb826-9870-4961-bba9-950b1c0d4e2b","system_id":"levelo_inurba_marseille","lat":43.31064,"lon":5.3836,"is_reserved":false,"is_disabled":false,"rental_uris":{"android":"levelo://app?vid=7dcbb826-9870-4961-bba9-950b1c0d4e2b","ios":"levelo://app?vid=7dcbb826-9870-4961-bba9-950b1c0d4e2b"},"vehicle_type_id":"4","last_reported":1758284466,"current_range_meters":18000,"station_id":"ce4bgv92rcd13ifvqcr0","pricing_plan_id":"cebpf4jnsgd1na2vs0mg"},{"bike_id":"4d3bc33b-edff-43c9-911e-97337bc94a5e","system_id":"levelo_inurba_marseille","lat":43.259318,"lon":5.375945,"is_reserved":false,"is_disabled":false,"rental_uris":{"android":"levelo://app?vid=4d3bc33b-edff-43c9-911e-97337bc94a5e","ios":"levelo://app?vid=4d3bc33b-edff-43c9-911e-97337bc94a5e"},"vehicle_type_id":"4","last_reported":1758284466,"current_range_meters":18000,"station_id":"ce4bhjp2rcd13ifvqg90","pricing_plan_id":"cebpf4jnsgd1na2vs0mg"},{"bike_id":"11f5b791-38b6-4186-ab5f-78582d4b3460","system_id":"levelo_inurba_marseille","lat":43.21214,"lon":5.35056,"is_reserved":false,"is_disabled":true,"rental_uris":{"android":"levelo://app?vid=11f5b791-38b6-4186-ab5f-78582d4b3460","ios":"levelo://app?vid=11f5b791-38b6-4186-ab5f-78582d4b3460"},"vehicle_type_id":"4","last_reported":1758284466,"current_range_meters":18000,"station_id":"st_cvj6sg6p6f1abm77japg","pricing_plan_id":"cebpf4jnsgd1na2vs0mg"},{"bike_id":"94b09ba2-00f5-4357-adb7-5ca79ba90079","system_id":"levelo_inurba_marseille","lat":43.30307,"lon":5.36891,"is_reserved":false,"is_disabled":false,"rental_uris":{"android":"levelo://app?vid=94b09ba2-00f5-4357-adb7-5ca79ba90079","ios":"levelo://app?vid=94b09ba2-00f5-4357-adb7-5ca79ba90079"},"vehicle_type_id":"4","last_reported":1758284466,"current_range_meters":18000,"station_id":"ce4bgqh2rcd13ifvqc5g","pricing_plan_id":"cebpf4jnsgd1na2vs0mg"},{"bike_id":"55d1bc08-fd54-4a82-afc7-2adcaa7b1c4e","system_id":"levelo_inurba_marseille","lat":43.30032,"lon":5.377,"is_reserved":false,"is_disabled":false,"rental_uris":{"android":"levelo://app?vid=55d1bc08-fd54-4a82-afc7-2adcaa7b1c4e","ios":"levelo://app?vid=55d1bc08-fd54-4a82-afc7-2adcaa7b1c4e"},"vehicle_type_id":"4","last_reported":1758284466,"current_range_meters":18000,"station_id":"","pricing_plan_id":"cebpf4jnsgd1na2vs0mg"},{"bike_id":"d582ba82-de0a-401e-8bd3-378f0cec80f7","system_id":"levelo_inurba_marseille","lat":43.25949,"lon":5.40894,"is_reserved":false,"is_disabled":false,"rental_uris":{"android":"levelo://app?vid=d582ba82-de0a-401e-8bd3-378f0cec80f7","ios":"levelo://app?vid=d582ba82-de0a-401e-8bd3-378f0cec80f7"},"vehicle_type_id":"4","last_reported":1758284466,"current_range_meters":18000,"station_id":"ce4bhm92rcd13ifvqglg","pricing_plan_id":"cebpf4jnsgd1na2vs0mg"},{"bike_id":"8e027fa6-b9b4-4966-b9fb-062261e99af1","system_id":"levelo_inurba_marseille","lat":43.26688,"lon":5.3828,"is_reserved":false,"is_disabled":false,"rental_uris":{"android":"levelo://app?vid=8e027fa6-b9b4-4966-b9fb-062261e99af1","ios":"levelo://app?vid=8e027fa6-b9b4-4966-b9fb-062261e99af1"},"vehicle_type_id":"4","last_reported":1758284466,"current_range_meters":18000,"station_id":"ce4bhg92rcd13ifvqf90","pricing_plan_id":"cebpf4jnsgd1na2vs0mg"},{"bike_id":"47003da6-baa5-40b6-a296-0c4947c6ac1c","system_id":"levelo_inurba_marseille","lat":43.29708,"lon":5.36588,"is_reserved":false,"is_disabled":false,"rental_uris":{"android":"levelo://app?vid=47003da6-baa5-40b6-a296-0c4947c6ac1c","ios":"levelo://app?vid=47003da6-baa5-40b6-a296-0c4947c6ac1c"},"vehicle_type_id":"4","last_reported":1758284466,"current_range_meters":18000,"station_id":"ce4bgn12rcd13ifvqbt0","pricing_plan_id":"cebpf4jnsgd1na2vs0mg"},{"bike_id":"30279a9d-e63a-446d-b6bf-61f4c5913911","system_id":"levelo_inurba_marseille","lat":43.28427,"lon":5.3498,"is_reserved":false,"is_disabled":false,"rental_uris":{"android":"levelo://app?vid=30279a9d-e63a-446d-b6bf-61f4c5913911","ios":"levelo://app?vid=30279a9d-e63a-446d-b6bf-61f4c5913911"},"vehicle_type_id":"4","last_reported":1758284466,"current_range_meters":18000,"station_id":"ce4bhbh2rcd13ifvqepg","pricing_plan_id":"cebpf4jnsgd1na2vs0mg"},{"bike_id":"b963bad2-1ddc-43b1-96a9-2362e94e94cf","system_id":"levelo_inurba_marseille","lat":43.30539,"lon":5.36704,"is_reserved":false,"is_disabled":false,"rental_uris":{"android":"levelo://app?vid=b963bad2-1ddc-43b1-96a9-2362e94e94cf","ios":"levelo://app?vid=b963bad2-1ddc-43b1-96a9-2362e94e94cf"},"vehicle_type_id":"4","last_reported":1758284466,"current_range_meters":18000,"station_id":"ce4bgrp2rcd13ifvqc9g","pricing_plan_id":"cebpf4jnsgd1na2vs0mg"},{"bike_id":"e2a5ffaa-04fd-4caa-aa19-4abf31685c97","system_id":"levelo_inurba_marseille","lat":43.29894,"lon":5.43668,"is_reserved":false,"is_disabled":false,"rental_uris":{"android":"levelo://app?vid=e2a5ffaa-04fd-4caa-aa19-4abf31685c97","ios":"levelo://app?vid=e2a5ffaa-04fd-4caa-aa19-4abf31685c97"},"vehicle_type_id":"4","last_reported":1758284466,"current_range_meters":18000,"station_id":"ce4bhpp2rcd13ifvqhfg","pricing_plan_id":"cebpf4jnsgd1na2vs0mg"},{"bike_id":"14a4e8b5-d79e-4e3b-890f-96c2089b6f02","system_id":"levelo_inurba_marseille","lat":43.23961,"lon":5.36627,"is_reserved":false,"is_disabled":false,"rental_uris":{"android":"levelo://app?vid=14a4e8b5-d79e-4e3b-890f-96c2089b6f02","ios":"levelo://app?vid=14a4e8b5-d79e-4e3b-890f-96c2089b6f02"},"vehicle_type_id":"4","last_reported":1758284466,"current_range_meters":17600,"station_id":"ce4bhi12rcd13ifvqfp0","pricing_plan_id":"cebpf4jnsgd1na2vs0mg"},{"bike_id":"0f7caa9f-1d1a-40d7-9b4a-2f8720e63681","system_id":"levelo_inurba_marseille","lat":43.30856,"lon":5.37549,"is_reserved":false,"is_disabled":false,"rental_uris":{"android":"levelo://app?vid=0f7caa9f-1d1a-40d7-9b4a-2f8720e63681","ios":"levelo://app?vid=0f7caa9f-1d1a-40d7-9b4a-2f8720e63681"},"vehicle_type_id":"4","last_reported":1758284466,"current_range_meters":18800,"station_id":"","pricing_plan_id":"cebpf4jnsgd1na2vs0mg"},{"bike_id":"b810ec46-97ab-4356-95f9-0c9d02506d5a","system_id":"levelo_inurba_marseille","lat":43.24458,"lon":5.39039,"is_reserved":false,"is_disabled":false,"rental_uris":{"android":"levelo://app?vid=b810ec46-97ab-4356-95f9-0c9d02506d5a","ios":"levelo://app?vid=b810ec46-97ab-4356-95f9-0c9d02506d5a"},"vehicle_type_id":"4","last_reported":1758284466,"current_range_meters":18800,"station_id":"","pricing_plan_id":"cebpf4jnsgd1na2vs0mg"},{"bike_id":"fd3ff8d5-155e-43d5-a971-a7763f50ae12","system_id":"levelo_inurba_marseille","lat":43.29318,"lon":5.37457,"is_reserved":false,"is_disabled":false,"rental_uris":{"android":"levelo://app?vid=fd3ff8d5-155e-43d5-a971-a7763f50ae12","ios":"levelo://app?vid=fd3ff8d5-155e-43d5-a971-a7763f50ae12"},"vehicle_type_id":"4","last_reported":1758284466,"current_range_meters":18800,"station_id":"ce4bgi12rcd13ifvqb70","pricing_plan_id":"cebpf4jnsgd1na2vs0mg"},{"bike_id":"514c4d85-d0be-4c17-aad6-f601776e2055","system_id":"levelo_inurba_marseille","lat":43.22574,"lon":5.4161,"is_reserved":false,"is_disabled":false,"rental_uris":{"android":"levelo://app?vid=514c4d85-d0be-4c17-aad6-f601776e2055","ios":"levelo://app?vid=514c4d85-d0be-4c17-aad6-f601776e2055"},"vehicle_type_id":"4","last_reported":1758284466,"current_range_meters":18800,"station_id":"st_d2o4gvlbi1j2169b742g","pricing_plan_id":"cebpf4jnsgd1na2vs0mg"},{"bike_id":"13eb3edd-9f60-4741-ac45-2e7c3cc7d73c","system_id":"levelo_inurba_marseille","lat":43.28431,"lon":5.34972,"is_reserved":false,"is_disabled":false,"rental_uris":{"android":"levelo://app?vid=13eb3edd-9f60-4741-ac45-2e7c3cc7d73c","ios":"levelo://app?vid=13eb3edd-9f60-4741-ac45-2e7c3cc7d73c"},"vehicle_type_id":"4","last_reported":1758284466,"current_range_meters":18800,"station_id":"ce4bhbh2rcd13ifvqepg","pricing_plan_id":"cebpf4jnsgd1na2vs0mg"},{"bike_id":"695c286a-5fe8-4897-9f43-3a0c6330809d","system_id":"levelo_inurba_marseille","lat":43.23149,"lon":5.43701,"is_reserved":false,"is_disabled":false,"rental_uris":{"android":"levelo://app?vid=695c286a-5fe8-4897-9f43-3a0c6330809d","ios":"levelo://app?vid=695c286a-5fe8-4897-9f43-3a0c6330809d"},"vehicle_type_id":"4","last_reported":1758284466,"current_range_meters":18800,"station_id":"ce4bhmp2rcd13ifvqgog","pricing_plan_id":"cebpf4jnsgd1na2vs0mg"},{"bike_id":"969e50c3-a6fa-49a2-8381-35f10a15b038","system_id":"levelo_inurba_marseille","lat":43.22577,"lon":5.41629,"is_reserved":false,"is_disabled":false,"rental_uris":{"android":"levelo://app?vid=969e50c3-a6fa-49a2-8381-35f10a15b038","ios":"levelo://app?vid=969e50c3-a6fa-49a2-8381-35f10a15b038"},"vehicle_type_id":"4","last_reported":1758284466,"current_range_meters":18800,"station_id":"st_d2o4gvlbi1j2169b742g","pricing_plan_id":"cebpf4jnsgd1na2vs0mg"},{"bike_id":"1a9785c9-32ee-435f-ac51-957c2e445706","system_id":"levelo_inurba_marseille","lat":43.24389,"lon":5.37054,"is_reserved":false,"is_disabled":false,"rental_uris":{"android":"levelo://app?vid=1a9785c9-32ee-435f-ac51-957c2e445706","ios":"levelo://app?vid=1a9785c9-32ee-435f-ac51-957c2e445706"},"vehicle_type_id":"4","last_reported":1758284466,"current_range_meters":18800,"station_id":"ce4bhhh2rcd13ifvqfk0","pricing_plan_id":"cebpf4jnsgd1na2vs0mg"},{"bike_id":"3a52b1c1-b6d1-44a4-92dd-86846d563ddb","system_id":"levelo_inurba_marseille","lat":43.29937,"lon":5.36549,"is_reserved":false,"is_disabled":false,"rental_uris":{"android":"levelo://app?vid=3a52b1c1-b6d1-44a4-92dd-86846d563ddb","ios":"levelo://app?vid=3a52b1c1-b6d1-44a4-92dd-86846d563ddb"},"vehicle_type_id":"4","last_reported":1758284466,"current_range_meters":18800,"station_id":"ce4bgm92rcd13ifvqbr0","pricing_plan_id":"cebpf4jnsgd1na2vs0mg"},{"bike_id":"b6dfde3d-0d05-477c-b6c6-b01bdacce541","system_id":"levelo_inurba_marseille","lat":43.28479,"lon":5.38548,"is_reserved":false,"is_disabled":false,"rental_uris":{"android":"levelo://app?vid=b6dfde3d-0d05-477c-b6c6-b01bdacce541","ios":"levelo://app?vid=b6dfde3d-0d05-477c-b6c6-b01bdacce541"},"vehicle_type_id":"4","last_reported":1758284466,"current_range_meters":18800,"station_id":"ce4bh8p2rcd13ifvqeb0","pricing_plan_id":"cebpf4jnsgd1na2vs0mg"},{"bike_id":"e48c85a9-75f6-4023-ad3e-d6d3ff966812","system_id":"levelo_inurba_marseille","lat":43.29877,"lon":5.38912,"is_reserved":false,"is_disabled":false,"rental_uris":{"android":"levelo://app?vid=e48c85a9-75f6-4023-ad3e-d6d3ff966812","ios":"levelo://app?vid=e48c85a9-75f6-4023-ad3e-d6d3ff966812"},"vehicle_type_id":"4","last_reported":1758284466,"current_range_meters":19200,"station_id":"ce4bh392rcd13ifvqdl0","pricing_plan_id":"cebpf4jnsgd1na2vs0mg"},{"bike_id":"451e260a-978f-4683-ac26-c96e1f4f6c21","system_id":"levelo_inurba_marseille","lat":43.27082,"lon":5.42277,"is_reserved":false,"is_disabled":false,"rental_uris":{"android":"levelo://app?vid=451e260a-978f-4683-ac26-c96e1f4f6c21","ios":"levelo://app?vid=451e260a-978f-4683-ac26-c96e1f4f6c21"},"vehicle_type_id":"4","last_reported":1758284466,"current_range_meters":19200,"station_id":"ce4bhk92rcd13ifvqgb0","pricing_plan_id":"cebpf4jnsgd1na2vs0mg"},{"bike_id":"2c734c36-442f-468e-ab47-e34ad5183e32","system_id":"levelo_inurba_marseille","lat":43.25772,"lon":5.41047,"is_reserved":false,"is_disabled":true,"rental_uris":{"android":"levelo://app?vid=2c734c36-442f-468e-ab47-e34ad5183e32","ios":"levelo://app?vid=2c734c36-442f-468e-ab47-e34ad5183e32"},"vehicle_type_id":"4","last_reported":1758284466,"current_range_meters":19200,"station_id":"","pricing_plan_id":"cebpf4jnsgd1na2vs0mg"},{"bike_id":"69255e40-2c7e-4515-acf9-da6320c5cb06","system_id":"levelo_inurba_marseille","lat":43.26222,"lon":5.40458,"is_reserved":false,"is_disabled":false,"rental_uris":{"android":"levelo://app?vid=69255e40-2c7e-4515-acf9-da6320c5cb06","ios":"levelo://app?vid=69255e40-2c7e-4515-acf9-da6320c5cb06"},"vehicle_type_id":"4","last_reported":1758284466,"current_range_meters":19200,"station_id":"ce4bhmh2rcd13ifvqgmg","pricing_plan_id":"cebpf4jnsgd1na2vs0mg"},{"bike_id":"6f003144-85b9-47ea-88f7-35ae2c2aab1a","system_id":"levelo_inurba_marseille","lat":43.248028,"lon":5.37456,"is_reserved":false,"is_disabled":false,"rental_uris":{"android":"levelo://app?vid=6f003144-85b9-47ea-88f7-35ae2c2aab1a","ios":"levelo://app?vid=6f003144-85b9-47ea-88f7-35ae2c2aab1a"},"vehicle_type_id":"4","last_reported":1758284466,"current_range_meters":19200,"station_id":"ce4bhgh2rcd13ifvqfb0","pricing_plan_id":"cebpf4jnsgd1na2vs0mg"},{"bike_id":"8f85300c-2404-4398-81c9-e87d9e70d8aa","system_id":"levelo_inurba_marseille","lat":43.29894,"lon":5.43657,"is_reserved":false,"is_disabled":false,"rental_uris":{"android":"levelo://app?vid=8f85300c-2404-4398-81c9-e87d9e70d8aa","ios":"levelo://app?vid=8f85300c-2404-4398-81c9-e87d9e70d8aa"},"vehicle_type_id":"4","last_reported":1758284466,"current_range_meters":19200,"station_id":"ce4bhpp2rcd13ifvqhfg","pricing_plan_id":"cebpf4jnsgd1na2vs0mg"},{"bike_id":"016479c8-adb3-4e9f-91ab-63dde4601175","system_id":"levelo_inurba_marseille","lat":43.29783,"lon":5.38083,"is_reserved":false,"is_disabled":true,"rental_uris":{"android":"levelo://app?vid=016479c8-adb3-4e9f-91ab-63dde4601175","ios":"levelo://app?vid=016479c8-adb3-4e9f-91ab-63dde4601175"},"vehicle_type_id":"4","last_reported":1758284466,"current_range_meters":19200,"station_id":"ce4bgip2rcd13ifvqbb0","pricing_plan_id":"cebpf4jnsgd1na2vs0mg"},{"bike_id":"0fb288f4-910e-466f-a905-9345379e580d","system_id":"levelo_inurba_marseille","lat":43.27372,"lon":5.3626,"is_reserved":false,"is_disabled":false,"rental_uris":{"android":"levelo://app?vid=0fb288f4-910e-466f-a905-9345379e580d","ios":"levelo://app?vid=0fb288f4-910e-466f-a905-9345379e580d"},"vehicle_type_id":"4","last_reported":1758284466,"current_range_meters":19200,"station_id":"ce4bhbh2rcd13ifvqeo0","pricing_plan_id":"cebpf4jnsgd1na2vs0mg"},